{"last_updated":1736896090,"ttl":60,"version":"2.2","data":{"bikes":[{"bike_id":"66c530a9-beb5-4eda-b5b7-87661a07fd34","system_id":"levelo_inurba_marseille","lat":43.31333,"lon":5.39691,"is_reserved":false,"is_disabled":false,"rental_uris":{"android":"levelo://app?vid=66c530a9-beb5-4eda-b5b7-87661a07fd34","ios":"levelo://app?vid=66c530a9-beb5-4eda-b5b7-87661a07fd34"},"vehicle_type_id":"4","last_reported":1736896090,"current_range_meters":32400,"station_id":"ce4bgvp2rcd13ifvqcu0","pricing_plan_id":"cebpf4jnsgd1na2vs0mg"},{"bike_id":"24c440f7-9f46-4cf4-a07b-fa5861e61631","system_id":"levelo_inurba_marseille","lat":43.30424,"lon":5.39743,"is_reserved":false,"is_disabled":false,"rental_uris":{"android":"levelo://app?vid=24c440f7-9f46-4cf4-a07b-fa5861e61631","ios":"levelo://app?vid=24c440f7-9f46-4cf4-a07b-fa5861e61631"},"vehicle_type_id":"4","last_reported":1736896090,"current_range_meters":23200,"station_id":"ce4bh092rcd13ifvqd20","pricing_plan_id":"cebpf4jnsgd1na2vs0mg"},{"bike_id":"dbc16a7c-4600-485b-aa12-49ef1b4a7d4a","system_id":"levelo_inurba_marseille","lat":43.29263,"lon":5.40904,"is_reserved":false,"is_disabled":false,"rental_uris":{"android":"levelo://app?vid=dbc16a7c-4600-485b-aa12-49ef1b4a7d4a","ios":"levelo://app?vid=dbc16a7c-4600-485b-aa12-49ef1b4a7d4a"},"vehicle_type_id":"4","last_reported":1736896090,"current_range_meters":19600,"station_id":"ce4bh192rcd13ifvqdc0","pricing_plan_id":"cebpf4jnsgd1na2vs0mg"},{"bike_id":"057a0cde-1d9c-461d-8957-89370ad5844d","system_id":"levelo_inurba_marseille","lat":43.26062,"lon":5.39388,"is_reserved":false,"is_disabled":false,"rental_uris":{"android":"levelo://app?vid=057a0cde-1d9c-461d-8957-89370ad5844d","ios":"levelo://app?vid=057a0cde-1d9c-461d-8957-89370ad5844d"},"vehicle_type_id":"4","last_reported":1736896090,"current_range_meters":38800,"station_id":"ce4bhh92rcd13ifvqfj0","pricing_plan_id":"cebpf4jnsgd1na2vs0mg"},{"bike_id":"8b946f40-6c08-4c0a-9db9-872b051c4842","system_id":"levelo_inurba_marseille","lat":43.28404,"lon":5.37515,"is_reserved":false,"is_disabled":false,"rental_uris":{"android":"levelo://app?vid=8b946f40-6c08-4c0a-9db9-872b051c4842","ios":"levelo://app?vid=8b946f40-6c08-4c0a-9db9-872b051c4842"},"vehicle_type_id":"4","last_reported":1736896090,"current_range_meters":22400,"station_id":"ce4bh412rcd13ifvqds0","pricing_plan_id":"cebpf4jnsgd1na2vs0mg"},{"bike_id":"459eda55-c02d-48e5-b482-24c6e37a8793","system_id":"levelo_inurba_marseille","lat":43.28451,"lon":5.3918,"is_reserved":false,"is_disabled":true,"rental_uris":{"android":"levelo://app?vid=459eda55-c02d-48e5-b482-24c6e37a8793","ios":"levelo://app?vid=459eda55-c02d-48e5-b482-24c6e37a8793"},"vehicle_type_id":"4","last_reported":1736896090,"current_range_meters":14400,"station_id":"ce4bhoh2rcd13ifvqh5g","pricing_plan_id":"cebpf4jnsgd1na2vs0mg"},{"bike_id":"5ce5eb48-2c52-448a-bd43-dc308d741d1e","system_id":"levelo_inurba_marseille","lat":43.31698,"lon":5.3777,"is_reserved":false,"is_disabled":false,"rental_uris":{"android":"levelo://app?vid=5ce5eb48-2c52-448a-bd43-dc308d741d1e","ios":"levelo://app?vid=5ce5eb48-2c52-448a-bd43-dc308d741d1e"},"vehicle_type_id":"4","last_reported":1736896090,"current_range_meters":38800,"station_id":"ce4bgth2rcd13ifvqch0","pricing_plan_id":"cebpf4jnsgd1na2vs0mg"},{"bike_id":"df5dcf05-b9e2-436c-8d0d-a4dce1fd4429","system_id":"levelo_inurba_marseille","lat":43.31179,"lon":5.38717,"is_reserved":false,"is_disabled":false,"rental_uris":{"android":"levelo://app?vid=df5dcf05-b9e2-436c-8d0d-a4dce1fd4429","ios":"levelo://app?vid=df5dcf05-b9e2-436c-8d0d-a4dce1fd4429"},"vehicle_type_id":"4","last_reported":1736896090,"current_range_meters":19200,"station_id":"ce4bgv12rcd13ifvqcp0","pricing_plan_id":"cebpf4jnsgd1na2vs0mg"},{"bike_id":"0227f306-de46-4015-9577-af9068a07e4a","system_id":"levelo_inurba_marseille","lat":43.30892,"lon":5.37202,"is_reserved":false,"is_disabled":false,"rental_uris":{"android":"levelo://app?vid=0227f306-de46-4015-9577-af9068a07e4a","ios":"levelo://app?vid=0227f306-de46-4015-9577-af9068a07e4a"},"vehicle_type_id":"4","last_reported":1736896090,"current_range_meters":31200,"station_id":"ce4bguh2rcd13ifvqckg","pricing_plan_id":"cebpf4jnsgd1na2vs0mg"},{"bike_id":"90008e08-866e-46c3-96ff-04c849cafc46","system_id":"levelo_inurba_marseille","lat":43.28084,"lon":5.39626,"is_reserved":false,"is_disabled":false,"rental_uris":{"android":"levelo://app?vid=90008e08-866e-46c3-96ff-04c849cafc46","ios":"levelo://app?vid=90008e08-866e-46c3-96ff-04c849cafc46"},"vehicle_type_id":"4","last_reported":1736896090,"current_range_meters":38800,"station_id":"ce4bho12rcd13ifvqh2g","pricing_plan_id":"cebpf4jnsgd1na2vs0mg"},{"bike_id":"5bb5758f-37be-496e-ac0a-3712e6b43125","system_id":"levelo_inurba_marseille","lat":43.26207,"lon":5.37928,"is_reserved":false,"is_disabled":false,"rental_uris":{"android":"levelo://app?vid=5bb5758f-37be-496e-ac0a-3712e6b43125","ios":"levelo://app?vid=5bb5758f-37be-496e-ac0a-3712e6b43125"},"vehicle_type_id":"4","last_reported":1736896090,"current_range_meters":38800,"station_id":"ce4bhjp2rcd13ifvqg90","pricing_plan_id":"cebpf4jnsgd1na2vs0mg"},{"bike_id":"f5b491dc-fbd0-4b94-8215-768689bb9d80","system_id":"levelo_inurba_marseille","lat":43.29049,"lon":5.35901,"is_reserved":false,"is_disabled":false,"rental_uris":{"android":"levelo://app?vid=f5b491dc-fbd0-4b94-8215-768689bb9d80","ios":"levelo://app?vid=f5b491dc-fbd0-4b94-8215-768689bb9d80"},"vehicle_type_id":"4","last_reported":1736896090,"current_range_meters":29600,"station_id":"ce4bha92rcd13ifvqeg0","pricing_plan_id":"cebpf4jnsgd1na2vs0mg"},{"bike_id":"6c72276d-8e89-4c2f-8150-2735b7561b95","system_id":"levelo_inurba_marseille","lat":43.27506,"lon":5.42449,"is_reserved":false,"is_disabled":true,"rental_uris":{"android":"levelo://app?vid=6c72276d-8e89-4c2f-8150-2735b7561b95","ios":"levelo://app?vid=6c72276d-8e89-4c2f-8150-2735b7561b95"},"vehicle_type_id":"4","last_reported":1736896090,"current_range_meters":0,"station_id":"ce4bhn92rcd13ifvqgrg","pricing_plan_id":"cebpf4jnsgd1na2vs0mg"},{"bike_id":"d301b2d7-d53f-43ff-9ec0-cc63ffc701fe","system_id":"levelo_inurba_marseille","lat":43.29223,"lon":5.36043,"is_reserved":false,"is_disabled":false,"rental_uris":{"android":"levelo://app?vid=d301b2d7-d53f-43ff-9ec0-cc63ffc701fe","ios":"levelo://app?vid=d301b2d7-d53f-43ff-9ec0-cc63ffc701fe"},"vehicle_type_id":"4","last_reported":1736896090,"current_range_meters":26800,"station_id":"ce4bhbh2rcd13ifvqeqg","pricing_plan_id":"cebpf4jnsgd1na2vs0mg"},{"bike_id":"c82352eb-cb08-4639-95c9-b20b13ceeac3","system_id":"levelo_inurba_marseille","lat":43.31486,"lon":5.37306,"is_reserved":false,"is_disabled":false,"rental_uris":{"android":"levelo://app?vid=c82352eb-cb08-4639-95c9-b20b13ceeac3","ios":"levelo://app?vid=c82352eb-cb08-4639-95c9-b20b13ceeac3"},"vehicle_type_id":"4","last_reported":1736896090,"current_range_meters":39200,"station_id":"ce4bgt12rcd13ifvqcd0","pricing_plan_id":"cebpf4jnsgd1na2vs0mg"},{"bike_id":"5117a47a-d292-4c61-ada0-8c749b631ce8","system_id":"levelo_inurba_marseille","lat":43.30443,"lon":5.38873,"is_reserved":false,"is_disabled":false,"rental_uris":{"android":"levelo://app?vid=5117a47a-d292-4c61-ada0-8c749b631ce8","ios":"levelo://app?vid=5117a47a-d292-4c61-ada0-8c749b631ce8"},"vehicle_type_id":"4","last_reported":1736896090,"current_range_meters":27200,"station_id":"ce4bgk12rcd13ifvqbi0","pricing_plan_id":"cebpf4jnsgd1na2vs0mg"},{"bike_id":"76841287-f874-4908-a7ac-6dd0246828b2","system_id":"levelo_inurba_marseille","lat":43.24677,"lon":5.38165,"is_reserved":false,"is_disabled":false,"rental_uris":{"android":"levelo://app?vid=76841287-f874-4908-a7ac-6dd0246828b2","ios":"levelo://app?vid=76841287-f874-4908-a7ac-6dd0246828b2"},"vehicle_type_id":"4","last_reported":1736896090,"current_range_meters":19600,"station_id":"ce4bhih2rcd13ifvqfr0","pricing_plan_id":"cebpf4jnsgd1na2vs0mg"},{"bike_id":"de24f0eb-d07d-4b52-b35d-5a84aaa3df22","system_id":"levelo_inurba_marseille","lat":43.29237,"lon":5.36068,"is_reserved":false,"is_disabled":true,"rental_uris":{"android":"levelo://app?vid=de24f0eb-d07d-4b52-b35d-5a84aaa3df22","ios":"levelo://app?vid=de24f0eb-d07d-4b52-b35d-5a84aaa3df22"},"vehicle_type_id":"4","last_reported":1736896090,"current_range_meters":9200,"station_id":"ce4bhbh2rcd13ifvqeqg","pricing_plan_id":"cebpf4jnsgd1na2vs0mg"},{"bike_id":"5a02b3b0-717b-4841-87f4-f1fb3e46f475","system_id":"levelo_inurba_marseille","lat":43.30188,"lon":5.36573,"is_reserved":false,"is_disabled":false,"rental_uris":{"android":"levelo://app?vid=5a02b3b0-717b-4841-87f4-f1fb3e46f475","ios":"levelo://app?vid=5a02b3b0-717b-4841-87f4-f1fb3e46f475"},"vehicle_type_id":"4","last_reported":1736896090,"current_range_meters":32000,"station_id":"ce4bgrh2rcd13ifvqc8g","pricing_plan_id":"cebpf4jnsgd1na2vs0mg"},{"bike_id":"961a1c03-ea05-4b5c-86bd-3e5250b56085","system_id":"levelo_inurba_marseille","lat":43.28571,"lon":5.39484,"is_reserved":false,"is_disabled":false,"rental_uris":{"android":"levelo://app?vid=961a1c03-ea05-4b5c-86bd-3e5250b56085","ios":"levelo://app?vid=961a1c03-ea05-4b5c-86bd-3e5250b56085"},"vehicle_type_id":"4","last_reported":1736896090,"current_range_meters":10800,"station_id":"ce4bh292rcd13ifvqdg0","pricing_plan_id":"cebpf4jnsgd1na2vs0mg"},{"bike_id":"1546f697-d82b-4e5d-a850-a9023302096e","system_id":"levelo_inurba_marseille","lat":43.25005,"lon":5.38927,"is_reserved":false,"is_disabled":false,"rental_uris":{"android":"levelo://app?vid=1546f697-d82b-4e5d-a850-a9023302096e","ios":"levelo://app?vid=1546f697-d82b-4e5d-a850-a9023302096e"},"vehicle_type_id":"4","last_reported":1736896090,"current_range_meters":6400,"station_id":"ce4bhgp2rcd13ifvqfd0","pricing_plan_id":"cebpf4jnsgd1na2vs0mg"},{"bike_id":"3a154d79-06d4-4814-bd52-2ebbe8926e69","system_id":"levelo_inurba_marseille","lat":43.2977,"lon":5.39325,"is_reserved":false,"is_disabled":true,"rental_uris":{"android":"levelo://app?vid=3a154d79-06d4-4814-bd52-2ebbe8926e69","ios":"levelo://app?vid=3a154d79-06d4-4814-bd52-2ebbe8926e69"},"vehicle_type_id":"4","last_reported":1736896090,"current_range_meters":36400,"station_id":"chh1huq6cuj3fo74tm60","pricing_plan_id":"cebpf4jnsgd1na2vs0mg"},{"bike_id":"a05bd889-5f47-4435-a653-f868055678ed","system_id":"levelo_inurba_marseille","lat":43.25007,"lon":5.38924,"is_reserved":false,"is_disabled":false,"rental_uris":{"android":"levelo://app?vid=a05bd889-5f47-4435-a653-f868055678ed","ios":"levelo://app?vid=a05bd889-5f47-4435-a653-f868055678ed"},"vehicle_type_id":"4","last_reported":1736896090,"current_range_meters":29600,"station_id":"ce4bhgp2rcd13ifvqfd0","pricing_plan_id":"cebpf4jnsgd1na2vs0mg"},{"bike_id":"d6d5004e-f401-4743-b020-ebb5bd2111bc","system_id":"levelo_inurba_marseille","lat":43.28715,"lon":5.37942,"is_reserved":false,"is_disabled":false,"rental_uris":{"android":"levelo://app?vid=d6d5004e-f401-4743-b020-ebb5bd2111bc","ios":"levelo://app?vid=d6d5004e-f401-4743-b020-ebb5bd2111bc"},"vehicle_type_id":"4","last_reported":1736896090,"current_range_meters":36400,"station_id":"ce4bh9p2rcd13ifvqec0","pricing_plan_id":"cebpf4jnsgd1na2vs0mg"},{"bike_id":"30be5c4e-066f-4a96-8b48-7cfcb4068f4f","system_id":"levelo_inurba_marseille","lat":43.25823,"lon":5.39432,"is_reserved":false,"is_disabled":false,"rental_uris":{"android":"levelo://app?vid=30be5c4e-066f-4a96-8b48-7cfcb4068f4f","ios":"levelo://app?vid=30be5c4e-066f-4a96-8b48-7cfcb4068f4f"},"vehicle_type_id":"4","last_reported":1736896090,"current_range_meters":15200,"station_id":"ce4bhip2rcd13ifvqft0","pricing_plan_id":"cebpf4jnsgd1na2vs0mg"},{"bike_id":"655948af-f06a-45d8-aad5-0df7c8866b3b","system_id":"levelo_inurba_marseille","lat":43.27174,"lon":5.40999,"is_reserved":false,"is_disabled":false,"rental_uris":{"android":"levelo://app?vid=655948af-f06a-45d8-aad5-0df7c8866b3b","ios":"levelo://app?vid=655948af-f06a-45d8-aad5-0df7c8866b3b"},"vehicle_type_id":"4","last_reported":1736896090,"current_range_meters":12800,"station_id":"ce4bhl12rcd13ifvqgf0","pricing_plan_id":"cebpf4jnsgd1na2vs0mg"},{"bike_id":"abaa56e2-db4c-4dd2-9694-99b4bbb0f38e","system_id":"levelo_inurba_marseille","lat":43.28462,"lon":5.35881,"is_reserved":false,"is_disabled":false,"rental_uris":{"android":"levelo://app?vid=abaa56e2-db4c-4dd2-9694-99b4bbb0f38e","ios":"levelo://app?vid=abaa56e2-db4c-4dd2-9694-99b4bbb0f38e"},"vehicle_type_id":"4","last_reported":1736896090,"current_range_meters":31200,"station_id":"ce4bhah2rcd13ifvqei0","pricing_plan_id":"cebpf4jnsgd1na2vs0mg"},{"bike_id":"ef61abed-a66d-4c60-9394-2d5716f5a006","system_id":"levelo_inurba_marseille","lat":43.28672,"lon":5.36323,"is_reserved":false,"is_disabled":false,"rental_uris":{"android":"levelo://app?vid=ef61abed-a66d-4c60-9394-2d5716f5a006","ios":"levelo://app?vid=ef61abed-a66d-4c60-9394-2d5716f5a006"},"vehicle_type_id":"4","last_reported":1736896090,"current_range_meters":38800,"station_id":"ce4bhah2rcd13ifvqej0","pricing_plan_id":"cebpf4jnsgd1na2vs0mg"},{"bike_id":"65dbb2dc-861e-4045-97c1-a1f6b6d22a70","system_id":"levelo_inurba_marseille","lat":43.28623,"lon":5.35099,"is_reserved":false,"is_disabled":false,"rental_uris":{"android":"levelo://app?vid=65dbb2dc-861e-4045-97c1-a1f6b6d22a70","ios":"levelo://app?vid=65dbb2dc-861e-4045-97c1-a1f6b6d22a70"},"vehicle_type_id":"4","last_reported":1736896090,"current_range_meters":12000,"station_id":"ce4bhch2rcd13ifvqeug","pricing_plan_id":"cebpf4jnsgd1na2vs0mg"},{"bike_id":"8b6c97ef-78c4-40e2-8d4f-ad98a4746fbc","system_id":"levelo_inurba_marseille","lat":43.2512,"lon":5.40318,"is_reserved":false,"is_disabled":false,"rental_uris":{"android":"levelo://app?vid=8b6c97ef-78c4-40e2-8d4f-ad98a4746fbc","ios":"levelo://app?vid=8b6c97ef-78c4-40e2-8d4f-ad98a4746fbc"},"vehicle_type_id":"4","last_reported":1736896090,"current_range_meters":30400,"station_id":"ce4bhlh2rcd13ifvqgig","pricing_plan_id":"cebpf4jnsgd1na2vs0mg"},{"bike_id":"f1bb8ff1-b6aa-4582-90a3-7785eb42492f","system_id":"levelo_inurba_marseille","lat":43.28137,"lon":5.4265,"is_reserved":false,"is_disabled":false,"rental_uris":{"android":"levelo://app?vid=f1bb8ff1-b6aa-4582-90a3-7785eb42492f","ios":"levelo://app?vid=f1bb8ff1-b6aa-4582-90a3-7785eb42492f"},"vehicle_type_id":"4","last_reported":1736896090,"current_range_meters":23200,"station_id":"ce4bhnh2rcd13ifvqgug","pricing_plan_id":"cebpf4jnsgd1na2vs0mg"},{"bike_id":"08a5603e-f469-466f-9b43-dd9bab7a100c","system_id":"levelo_inurba_marseille","lat":43.28832,"lon":5.3931,"is_reserved":false,"is_disabled":false,"rental_uris":{"android":"levelo://app?vid=08a5603e-f469-466f-9b43-dd9bab7a100c","ios":"levelo://app?vid=08a5603e-f469-466f-9b43-dd9bab7a100c"},"vehicle_type_id":"4","last_reported":1736896090,"current_range_meters":39200,"station_id":"ce4bh2p2rcd13ifvqdi0","pricing_plan_id":"cebpf4jnsgd1na2vs0mg"},{"bike_id":"b6b5a69e-6984-4757-a7e6-a68504e032cd","system_id":"levelo_inurba_marseille","lat":43.28156,"lon":5.42646,"is_reserved":false,"is_disabled":false,"rental_uris":{"android":"levelo://app?vid=b6b5a69e-6984-4757-a7e6-a68504e032cd","ios":"levelo://app?vid=b6b5a69e-6984-4757-a7e6-a68504e032cd"},"vehicle_type_id":"4","last_reported":1736896090,"current_range_meters":11600,"station_id":"ce4bhnh2rcd13ifvqgug","pricing_plan_id":"cebpf4jnsgd1na2vs0mg"},{"bike_id":"abf0ee83-7bab-44f7-bed9-fd6daf3b18a1","system_id":"levelo_inurba_marseille","lat":43.28547,"lon":5.39507,"is_reserved":false,"is_disabled":false,"rental_uris":{"android":"levelo://app?vid=abf0ee83-7bab-44f7-bed9-fd6daf3b18a1","ios":"levelo://app?vid=abf0ee83-7bab-44f7-bed9-fd6daf3b18a1"},"vehicle_type_id":"4","last_reported":1736896090,"current_range_meters":38000,"station_id":"ce4bh292rcd13ifvqdg0","pricing_plan_id":"cebpf4jnsgd1na2vs0mg"},{"bike_id":"b5b35795-e161-424f-b97b-0ae8d9b8c970","system_id":"levelo_inurba_marseille","lat":43.29557,"lon":5.42297,"is_reserved":false,"is_disabled":false,"rental_uris":{"android":"levelo://app?vid=b5b35795-e161-424f-b97b-0ae8d9b8c970","ios":"levelo://app?vid=b5b35795-e161-424f-b97b-0ae8d9b8c970"},"vehicle_type_id":"4","last_reported":1736896090,"current_range_meters":26800,"station_id":"ce4bhph2rcd13ifvqhdg","pricing_plan_id":"cebpf4jnsgd1na2vs0mg"},{"bike_id":"a402044d-1041-4786-a63f-9d18af3bc82f","system_id":"levelo_inurba_marseille","lat":43.241661,"lon":5.363896,"is_reserved":false,"is_disabled":false,"rental_uris":{"android":"levelo://app?vid=a402044d-1041-4786-a63f-9d18af3bc82f","ios":"levelo://app?vid=a402044d-1041-4786-a63f-9d18af3bc82f"},"vehicle_type_id":"4","last_reported":1736896090,"current_range_meters":38000,"station_id":"cpo36qri1sfpv3e86is0","pricing_plan_id":"cebpf4jnsgd1na2vs0mg"},{"bike_id":"6c83e7c4-0d6e-4ee8-9ea9-93e2eb8993bd","system_id":"levelo_inurba_marseille","lat":43.3137,"lon":5.38498,"is_reserved":false,"is_disabled":false,"rental_uris":{"android":"levelo://app?vid=6c83e7c4-0d6e-4ee8-9ea9-93e2eb8993bd","ios":"levelo://app?vid=6c83e7c4-0d6e-4ee8-9ea9-93e2eb8993bd"},"vehicle_type_id":"4","last_reported":1736896090,"current_range_meters":32400,"station_id":"ce4bgt92rcd13ifvqcf0","pricing_plan_id":"cebpf4jnsgd1na2vs0mg"},{"bike_id":"13f4122e-4e47-476a-9572-2580cedb3705","system_id":"levelo_inurba_marseille","lat":43.29259,"lon":5.40913,"is_reserved":false,"is_disabled":false,"rental_uris":{"android":"levelo://app?vid=13f4122e-4e47-476a-9572-2580cedb3705","ios":"levelo://app?vid=13f4122e-4e47-476a-9572-2580cedb3705"},"vehicle_type_id":"4","last_reported":1736896090,"current_range_meters":10000,"station_id":"ce4bh192rcd13ifvqdc0","pricing_plan_id":"cebpf4jnsgd1na2vs0mg"},{"bike_id":"ad0ee43c-1866-4212-92b5-a8d79ad7ebd1","system_id":"levelo_inurba_marseille","lat":43.28662,"lon":5.36378,"is_reserved":false,"is_disabled":false,"rental_uris":{"android":"levelo://app?vid=ad0ee43c-1866-4212-92b5-a8d79ad7ebd1","ios":"levelo://app?vid=ad0ee43c-1866-4212-92b5-a8d79ad7ebd1"},"vehicle_type_id":"4","last_reported":1736896090,"current_range_meters":35600,"station_id":"ce4bhah2rcd13ifvqej0","pricing_plan_id":"cebpf4jnsgd1na2vs0mg"},{"bike_id":"a53b655b-6fa6-4a9d-be40-f69c6b3707e0","system_id":"levelo_inurba_marseille","lat":43.31248,"lon":5.36824,"is_reserved":false,"is_disabled":false,"rental_uris":{"android":"levelo://app?vid=a53b655b-6fa6-4a9d-be40-f69c6b3707e0","ios":"levelo://app?vid=a53b655b-6fa6-4a9d-be40-f69c6b3707e0"},"vehicle_type_id":"4","last_reported":1736896090,"current_range_meters":23200,"station_id":"ce4bgl92rcd13ifvqbq0","pricing_plan_id":"cebpf4jnsgd1na2vs0mg"},{"bike_id":"628f6127-da8f-420d-a50d-47c933dc0295","system_id":"levelo_inurba_marseille","lat":43.27578,"lon":5.38398,"is_reserved":false,"is_disabled":false,"rental_uris":{"android":"levelo://app?vid=628f6127-da8f-420d-a50d-47c933dc0295","ios":"levelo://app?vid=628f6127-da8f-420d-a50d-47c933dc0295"},"vehicle_type_id":"4","last_reported":1736896090,"current_range_meters":35600,"station_id":"ce4bhh92rcd13ifvqfi0","pricing_plan_id":"cebpf4jnsgd1na2vs0mg"},{"bike_id":"c8e997c0-8580-4d0f-8d9f-0766596381e1","system_id":"levelo_inurba_marseille","lat":43.33923,"lon":5.37576,"is_reserved":false,"is_disabled":true,"rental_uris":{"android":"levelo://app?vid=c8e997c0-8580-4d0f-8d9f-0766596381e1","ios":"levelo://app?vid=c8e997c0-8580-4d0f-8d9f-0766596381e1"},"vehicle_type_id":"4","last_reported":1736896090,"current_range_meters":0,"station_id":"","pricing_plan_id":"cebpf4jnsgd1na2vs0mg"},{"bike_id":"de5a6b35-0429-4800-ac68-a69536f95397","system_id":"levelo_inurba_marseille","lat":43.29875,"lon":5.39739,"is_reserved":false,"is_disabled":false,"rental_uris":{"android":"levelo://app?vid=de5a6b35-0429-4800-ac68-a69536f95397","ios":"levelo://app?vid=de5a6b35-0429-4800-ac68-a69536f95397"},"vehicle_type_id":"4","last_reported":1736896090,"current_range_meters":16000,"station_id":"ce4bh0h2rcd13ifvqd50","pricing_plan_id":"cebpf4jnsgd1na2vs0mg"},{"bike_id":"be5ae871-06ac-4218-b749-5f620bc3cb55","system_id":"levelo_inurba_marseille","lat":43.2885,"lon":5.35875,"is_reserved":false,"is_disabled":false,"rental_uris":{"android":"levelo://app?vid=be5ae871-06ac-4218-b749-5f620bc3cb55","ios":"levelo://app?vid=be5ae871-06ac-4218-b749-5f620bc3cb55"},"vehicle_type_id":"4","last_reported":1736896090,"current_range_meters":38400,"station_id":"ce4bhb12rcd13ifvqem0","pricing_plan_id":"cebpf4jnsgd1na2vs0mg"},{"bike_id":"ba5df164-d25c-4a1c-8679-1bd1a1db0642","system_id":"levelo_inurba_marseille","lat":43.33727,"lon":5.39197,"is_reserved":false,"is_disabled":false,"rental_uris":{"android":"levelo://app?vid=ba5df164-d25c-4a1c-8679-1bd1a1db0642","ios":"levelo://app?vid=ba5df164-d25c-4a1c-8679-1bd1a1db0642"},"vehicle_type_id":"4","last_reported":1736896090,"current_range_meters":34000,"station_id":"ce4bhr92rcd13ifvqhsg","pricing_plan_id":"cebpf4jnsgd1na2vs0mg"},{"bike_id":"2639ccdf-b900-4e29-9226-e2d1d03121fd","system_id":"levelo_inurba_marseille","lat":43.28403,"lon":5.37514,"is_reserved":false,"is_disabled":false,"rental_uris":{"android":"levelo://app?vid=2639ccdf-b900-4e29-9226-e2d1d03121fd","ios":"levelo://app?vid=2639ccdf-b900-4e29-9226-e2d1d03121fd"},"vehicle_type_id":"4","last_reported":1736896090,"current_range_meters":38400,"station_id":"ce4bh412rcd13ifvqds0","pricing_plan_id":"cebpf4jnsgd1na2vs0mg"},{"bike_id":"9668aea1-7895-4a28-8e99-45069ad8e494","system_id":"levelo_inurba_marseille","lat":43.30653,"lon":5.40079,"is_reserved":false,"is_disabled":false,"rental_uris":{"android":"levelo://app?vid=9668aea1-7895-4a28-8e99-45069ad8e494","ios":"levelo://app?vid=9668aea1-7895-4a28-8e99-45069ad8e494"},"vehicle_type_id":"4","last_reported":1736896090,"current_range_meters":28800,"station_id":"ce4bh112rcd13ifvqda0","pricing_plan_id":"cebpf4jnsgd1na2vs0mg"},{"bike_id":"74f9b094-c6d4-4e6c-a72f-fba11a45f8f1","system_id":"levelo_inurba_marseille","lat":43.31084,"lon":5.42439,"is_reserved":false,"is_disabled":false,"rental_uris":{"android":"levelo://app?vid=74f9b094-c6d4-4e6c-a72f-fba11a45f8f1","ios":"levelo://app?vid=74f9b094-c6d4-4e6c-a72f-fba11a45f8f1"},"vehicle_type_id":"4","last_reported":1736896090,"current_range_meters":36400,"station_id":"ce4bhp92rcd13ifvqhag","pricing_plan_id":"cebpf4jnsgd1na2vs0mg"},{"bike_id":"3fba31a2-04f3-46ff-a8b5-d1618539082e","system_id":"levelo_inurba_marseille","lat":43.28443,"lon":5.39202,"is_reserved":false,"is_disabled":false,"rental_uris":{"android":"levelo://app?vid=3fba31a2-04f3-46ff-a8b5-d1618539082e","ios":"levelo://app?vid=3fba31a2-04f3-46ff-a8b5-d1618539082e"},"vehicle_type_id":"4","last_reported":1736896090,"current_range_meters":36000,"station_id":"ce4bhoh2rcd13ifvqh5g","pricing_plan_id":"cebpf4jnsgd1na2vs0mg"},{"bike_id":"725ee662-7a42-4ae9-ac0b-5a50ef36c209","system_id":"levelo_inurba_marseille","lat":43.30927,"lon":5.40145,"is_reserved":false,"is_disabled":false,"rental_uris":{"android":"levelo://app?vid=725ee662-7a42-4ae9-ac0b-5a50ef36c209","ios":"levelo://app?vid=725ee662-7a42-4ae9-ac0b-5a50ef36c209"},"vehicle_type_id":"4","last_reported":1736896090,"current_range_meters":36800,"station_id":"ce4bgvp2rcd13ifvqct0","pricing_plan_id":"cebpf4jnsgd1na2vs0mg"},{"bike_id":"ca939829-fffe-4670-b2aa-b9757d203f81","system_id":"levelo_inurba_marseille","lat":43.31335,"lon":5.39703,"is_reserved":false,"is_disabled":false,"rental_uris":{"android":"levelo://app?vid=ca939829-fffe-4670-b2aa-b9757d203f81","ios":"levelo://app?vid=ca939829-fffe-4670-b2aa-b9757d203f81"},"vehicle_type_id":"4","last_reported":1736896090,"current_range_meters":16800,"station_id":"ce4bgvp2rcd13ifvqcu0","pricing_plan_id":"cebpf4jnsgd1na2vs0mg"},{"bike_id":"f0691327-4efc-46db-9653-add386e0e1f0","system_id":"levelo_inurba_marseille","lat":43.28971,"lon":5.36542,"is_reserved":false,"is_disabled":false,"rental_uris":{"android":"levelo://app?vid=f0691327-4efc-46db-9653-add386e0e1f0","ios":"levelo://app?vid=f0691327-4efc-46db-9653-add386e0e1f0"},"vehicle_type_id":"4","last_reported":1736896090,"current_range_meters":38800,"station_id":"ce4bhap2rcd13ifvqek0","pricing_plan_id":"cebpf4jnsgd1na2vs0mg"},{"bike_id":"f0affcbc-ebfe-44a9-9dc4-35992b1c9661","system_id":"levelo_inurba_marseille","lat":43.2978,"lon":5.39345,"is_reserved":false,"is_disabled":false,"rental_uris":{"android":"levelo://app?vid=f0affcbc-ebfe-44a9-9dc4-35992b1c9661","ios":"levelo://app?vid=f0affcbc-ebfe-44a9-9dc4-35992b1c9661"},"vehicle_type_id":"4","last_reported":1736896090,"current_range_meters":38800,"station_id":"chh1huq6cuj3fo74tm60","pricing_plan_id":"cebpf4jnsgd1na2vs0mg"},{"bike_id":"49780bcb-42bd-43a4-ac67-97ab73136957","system_id":"levelo_inurba_marseille","lat":43.325425,"lon":5.414402,"is_reserved":false,"is_disabled":false,"rental_uris":{"android":"levelo://app?vid=49780bcb-42bd-43a4-ac67-97ab73136957","ios":"levelo://app?vid=49780bcb-42bd-43a4-ac67-97ab73136957"},"vehicle_type_id":"4","last_reported":1736896090,"current_range_meters":38800,"station_id":"ce4bhq12rcd13ifvqhhg","pricing_plan_id":"cebpf4jnsgd1na2vs0mg"},{"bike_id":"e81ef256-d7a3-4c28-9bcc-58b1fdfe2d9d","system_id":"levelo_inurba_marseille","lat":43.25102,"lon":5.40324,"is_reserved":false,"is_disabled":false,"rental_uris":{"android":"levelo://app?vid=e81ef256-d7a3-4c28-9bcc-58b1fdfe2d9d","ios":"levelo://app?vid=e81ef256-d7a3-4c28-9bcc-58b1fdfe2d9d"},"vehicle_type_id":"4","last_reported":1736896090,"current_range_meters":38800,"station_id":"ce4bhlh2rcd13ifvqgig","pricing_plan_id":"cebpf4jnsgd1na2vs0mg"},{"bike_id":"62a5485c-abd3-4f80-9895-ef27f647d8cd","system_id":"levelo_inurba_marseille","lat":43.30322,"lon":5.40452,"is_reserved":false,"is_disabled":false,"rental_uris":{"android":"levelo://app?vid=62a5485c-abd3-4f80-9895-ef27f647d8cd","ios":"levelo://app?vid=62a5485c-abd3-4f80-9895-ef27f647d8cd"},"vehicle_type_id":"4","last_reported":1736896090,"current_range_meters":27600,"station_id":"ce4bh012rcd13ifvqd10","pricing_plan_id":"cebpf4jnsgd1na2vs0mg"},{"bike_id":"56030b9e-68b1-4127-a965-b3d8dac0c886","system_id":"levelo_inurba_marseille","lat":43.24814,"lon":5.37459,"is_reserved":false,"is_disabled":false,"rental_uris":{"android":"levelo://app?vid=56030b9e-68b1-4127-a965-b3d8dac0c886","ios":"levelo://app?vid=56030b9e-68b1-4127-a965-b3d8dac0c886"},"vehicle_type_id":"4","last_reported":1736896090,"current_range_meters":38800,"station_id":"ce4bhgh2rcd13ifvqfb0","pricing_plan_id":"cebpf4jnsgd1na2vs0mg"},{"bike_id":"ed626f63-b68e-4689-918c-7d8199b25721","system_id":"levelo_inurba_marseille","lat":43.30139,"lon":5.39857,"is_reserved":false,"is_disabled":true,"rental_uris":{"android":"levelo://app?vid=ed626f63-b68e-4689-918c-7d8199b25721","ios":"levelo://app?vid=ed626f63-b68e-4689-918c-7d8199b25721"},"vehicle_type_id":"4","last_reported":1736896090,"current_range_meters":3200,"station_id":"ce4bh0h2rcd13ifvqd40","pricing_plan_id":"cebpf4jnsgd1na2vs0mg"},{"bike_id":"426ee80e-06b0-4d0f-86a5-ea8ad64aaa11","system_id":"levelo_inurba_marseille","lat":43.2891,"lon":5.43773,"is_reserved":false,"is_disabled":false,"rental_uris":{"android":"levelo://app?vid=426ee80e-06b0-4d0f-86a5-ea8ad64aaa11","ios":"levelo://app?vid=426ee80e-06b0-4d0f-86a5-ea8ad64aaa11"},"vehicle_type_id":"4","last_reported":1736896090,"current_range_meters":3600,"station_id":"","pricing_plan_id":"cebpf4jnsgd1na2vs0mg"},{"bike_id":"5a692e5d-f4b4-4eb3-9c5a-c0c33ca66efc","system_id":"levelo_inurba_marseille","lat":43.24184,"lon":5.39722,"is_reserved":false,"is_disabled":false,"rental_uris":{"android":"levelo://app?vid=5a692e5d-f4b4-4eb3-9c5a-c0c33ca66efc","ios":"levelo://app?vid=5a692e5d-f4b4-4eb3-9c5a-c0c33ca66efc"},"vehicle_type_id":"4","last_reported":1736896090,"current_range_meters":32800,"station_id":"ce4bhn12rcd13ifvqgpg","pricing_plan_id":"cebpf4jnsgd1na2vs0mg"},{"bike_id":"192943ff-6579-4067-8b54-834fbf6d8760","system_id":"levelo_inurba_marseille","lat":43.27617,"lon":5.36124,"is_reserved":false,"is_disabled":false,"rental_uris":{"android":"levelo://app?vid=192943ff-6579-4067-8b54-834fbf6d8760","ios":"levelo://app?vid=192943ff-6579-4067-8b54-834fbf6d8760"},"vehicle_type_id":"4","last_reported":1736896090,"current_range_meters":38800,"station_id":"ce4bgj92rcd13ifvqbe0","pricing_plan_id":"cebpf4jnsgd1na2vs0mg"},{"bike_id":"fea1b24d-bbfb-474a-b028-8645483cd7e6","system_id":"levelo_inurba_marseille","lat":43.27377,"lon":5.36231,"is_reserved":false,"is_disabled":false,"rental_uris":{"android":"levelo://app?vid=fea1b24d-bbfb-474a-b028-8645483cd7e6","ios":"levelo://app?vid=fea1b24d-bbfb-474a-b028-8645483cd7e6"},"vehicle_type_id":"4","last_reported":1736896090,"current_range_meters":38800,"station_id":"ce4bhbh2rcd13ifvqeo0","pricing_plan_id":"cebpf4jnsgd1na2vs0mg"},{"bike_id":"1c7b5e81-4790-430e-bdea-a0c9f783fb13","system_id":"levelo_inurba_marseille","lat":43.24392,"lon":5.37053,"is_reserved":false,"is_disabled":false,"rental_uris":{"android":"levelo://app?vid=1c7b5e81-4790-430e-bdea-a0c9f783fb13","ios":"levelo://app?vid=1c7b5e81-4790-430e-bdea-a0c9f783fb13"},"vehicle_type_id":"4","last_reported":1736896090,"current_range_meters":38800,"station_id":"ce4bhhh2rcd13ifvqfk0","pricing_plan_id":"cebpf4jnsgd1na2vs0mg"},{"bike_id":"394c1459-78bd-449f-aeb6-57dbaef6e809","system_id":"levelo_inurba_marseille","lat":43.25823,"lon":5.39426,"is_reserved":false,"is_disabled":false,"rental_uris":{"android":"levelo://app?vid=394c1459-78bd-449f-aeb6-57dbaef6e809","ios":"levelo://app?vid=394c1459-78bd-449f-aeb6-57dbaef6e809"},"vehicle_type_id":"4","last_reported":1736896090,"current_range_meters":30400,"station_id":"ce4bhip2rcd13ifvqft0","pricing_plan_id":"cebpf4jnsgd1na2vs0mg"},{"bike_id":"fa4736b9-f805-476a-9a5b-b2bf13f1a49f","system_id":"levelo_inurba_marseille","lat":43.30265,"lon":5.40064,"is_reserved":false,"is_disabled":false,"rental_uris":{"android":"levelo://app?vid=fa4736b9-f805-476a-9a5b-b2bf13f1a49f","ios":"levelo://app?vid=fa4736b9-f805-476a-9a5b-b2bf13f1a49f"},"vehicle_type_id":"4","last_reported":1736896090,"current_range_meters":12000,"station_id":"ce4bgvh2rcd13ifvqcs0","pricing_plan_id":"cebpf4jnsgd1na2vs0mg"},{"bike_id":"0ada6c01-b17d-4394-a9d3-60e5c6157127","system_id":"levelo_inurba_marseille","lat":43.319965,"lon":5.381607,"is_reserved":false,"is_disabled":false,"rental_uris":{"android":"levelo://app?vid=0ada6c01-b17d-4394-a9d3-60e5c6157127","ios":"levelo://app?vid=0ada6c01-b17d-4394-a9d3-60e5c6157127"},"vehicle_type_id":"4","last_reported":1736896090,"current_range_meters":39200,"station_id":"ce4bhr12rcd13ifvqhpg","pricing_plan_id":"cebpf4jnsgd1na2vs0mg"},{"bike_id":"cfc440b8-aa7c-49ea-8b84-bfb1f28ff602","system_id":"levelo_inurba_marseille","lat":43.28426,"lon":5.39182,"is_reserved":false,"is_disabled":false,"rental_uris":{"android":"levelo://app?vid=cfc440b8-aa7c-49ea-8b84-bfb1f28ff602","ios":"levelo://app?vid=cfc440b8-aa7c-49ea-8b84-bfb1f28ff602"},"vehicle_type_id":"4","last_reported":1736896090,"current_range_meters":24800,"station_id":"ce4bhoh2rcd13ifvqh5g","pricing_plan_id":"cebpf4jnsgd1na2vs0mg"},{"bike_id":"33599c56-d6e6-4e5d-9218-3b601dbbda24","system_id":"levelo_inurba_marseille","lat":43.30307,"lon":5.39219,"is_reserved":false,"is_disabled":true,"rental_uris":{"android":"levelo://app?vid=33599c56-d6e6-4e5d-9218-3b601dbbda24","ios":"levelo://app?vid=33599c56-d6e6-4e5d-9218-3b601dbbda24"},"vehicle_type_id":"4","last_reported":1736896090,"current_range_meters":8000,"station_id":"ce4bgkh2rcd13ifvqbk0","pricing_plan_id":"cebpf4jnsgd1na2vs0mg"},{"bike_id":"ae1fc273-8df9-43a4-b771-82687769b7cb","system_id":"levelo_inurba_marseille","lat":43.32342,"lon":5.40599,"is_reserved":false,"is_disabled":false,"rental_uris":{"android":"levelo://app?vid=ae1fc273-8df9-43a4-b771-82687769b7cb","ios":"levelo://app?vid=ae1fc273-8df9-43a4-b771-82687769b7cb"},"vehicle_type_id":"4","last_reported":1736896090,"current_range_meters":38400,"station_id":"ce4bhq92rcd13ifvqhjg","pricing_plan_id":"cebpf4jnsgd1na2vs0mg"},{"bike_id":"33948cef-159b-4075-a8c4-dd4eee89856a","system_id":"levelo_inurba_marseille","lat":43.23178,"lon":5.3999,"is_reserved":false,"is_disabled":false,"rental_uris":{"android":"levelo://app?vid=33948cef-159b-4075-a8c4-dd4eee89856a","ios":"levelo://app?vid=33948cef-159b-4075-a8c4-dd4eee89856a"},"vehicle_type_id":"4","last_reported":1736896090,"current_range_meters":25600,"station_id":"ce4bhn12rcd13ifvqgqg","pricing_plan_id":"cebpf4jnsgd1na2vs0mg"},{"bike_id":"65cbf502-cc95-4755-a51c-ae0f61c952a1","system_id":"levelo_inurba_marseille","lat":43.29521,"lon":5.3941,"is_reserved":false,"is_disabled":false,"rental_uris":{"android":"levelo://app?vid=65cbf502-cc95-4755-a51c-ae0f61c952a1","ios":"levelo://app?vid=65cbf502-cc95-4755-a51c-ae0f61c952a1"},"vehicle_type_id":"4","last_reported":1736896090,"current_range_meters":36000,"station_id":"ce4bh292rcd13ifvqdf0","pricing_plan_id":"cebpf4jnsgd1na2vs0mg"},{"bike_id":"02bf96c0-6af2-4a20-97b5-b1df2a5dfde9","system_id":"levelo_inurba_marseille","lat":43.28663,"lon":5.36352,"is_reserved":false,"is_disabled":false,"rental_uris":{"android":"levelo://app?vid=02bf96c0-6af2-4a20-97b5-b1df2a5dfde9","ios":"levelo://app?vid=02bf96c0-6af2-4a20-97b5-b1df2a5dfde9"},"vehicle_type_id":"4","last_reported":1736896090,"current_range_meters":16400,"station_id":"ce4bhah2rcd13ifvqej0","pricing_plan_id":"cebpf4jnsgd1na2vs0mg"},{"bike_id":"f2cf82ed-7fc5-4ac1-a36c-a79fa3e49212","system_id":"levelo_inurba_marseille","lat":43.30315,"lon":5.40426,"is_reserved":false,"is_disabled":false,"rental_uris":{"android":"levelo://app?vid=f2cf82ed-7fc5-4ac1-a36c-a79fa3e49212","ios":"levelo://app?vid=f2cf82ed-7fc5-4ac1-a36c-a79fa3e49212"},"vehicle_type_id":"4","last_reported":1736896090,"current_range_meters":38400,"station_id":"ce4bh012rcd13ifvqd10","pricing_plan_id":"cebpf4jnsgd1na2vs0mg"},{"bike_id":"84697cb5-135f-4d59-b026-bd08a4b8d1e7","system_id":"levelo_inurba_marseille","lat":43.30355,"lon":5.41885,"is_reserved":false,"is_disabled":false,"rental_uris":{"android":"levelo://app?vid=84697cb5-135f-4d59-b026-bd08a4b8d1e7","ios":"levelo://app?vid=84697cb5-135f-4d59-b026-bd08a4b8d1e7"},"vehicle_type_id":"4","last_reported":1736896090,"current_range_meters":17200,"station_id":"ce4bhop2rcd13ifvqh7g","pricing_plan_id":"cebpf4jnsgd1na2vs0mg"},{"bike_id":"a1a925c1-025a-4e52-b724-c9c5776b8317","system_id":"levelo_inurba_marseille","lat":43.25109,"lon":5.40315,"is_reserved":false,"is_disabled":false,"rental_uris":{"android":"levelo://app?vid=a1a925c1-025a-4e52-b724-c9c5776b8317","ios":"levelo://app?vid=a1a925c1-025a-4e52-b724-c9c5776b8317"},"vehicle_type_id":"4","last_reported":1736896090,"current_range_meters":14400,"station_id":"ce4bhlh2rcd13ifvqgig","pricing_plan_id":"cebpf4jnsgd1na2vs0mg"},{"bike_id":"29ffa9de-f0ff-4f52-8715-b3e19676a93b","system_id":"levelo_inurba_marseille","lat":43.27852,"lon":5.40628,"is_reserved":false,"is_disabled":false,"rental_uris":{"android":"levelo://app?vid=29ffa9de-f0ff-4f52-8715-b3e19676a93b","ios":"levelo://app?vid=29ffa9de-f0ff-4f52-8715-b3e19676a93b"},"vehicle_type_id":"4","last_reported":1736896090,"current_range_meters":23200,"station_id":"ce4bhnh2rcd13ifvqgtg","pricing_plan_id":"cebpf4jnsgd1na2vs0mg"},{"bike_id":"ac1b75ff-ff56-4e4e-9e99-c55f54da7bac","system_id":"levelo_inurba_marseille","lat":43.23194,"lon":5.39976,"is_reserved":false,"is_disabled":false,"rental_uris":{"android":"levelo://app?vid=ac1b75ff-ff56-4e4e-9e99-c55f54da7bac","ios":"levelo://app?vid=ac1b75ff-ff56-4e4e-9e99-c55f54da7bac"},"vehicle_type_id":"4","last_reported":1736896090,"current_range_meters":37600,"station_id":"ce4bhn12rcd13ifvqgqg","pricing_plan_id":"cebpf4jnsgd1na2vs0mg"},{"bike_id":"d37067bc-448b-4946-8300-5c477cf04cf2","system_id":"levelo_inurba_marseille","lat":43.30126,"lon":5.39847,"is_reserved":false,"is_disabled":true,"rental_uris":{"android":"levelo://app?vid=d37067bc-448b-4946-8300-5c477cf04cf2","ios":"levelo://app?vid=d37067bc-448b-4946-8300-5c477cf04cf2"},"vehicle_type_id":"4","last_reported":1736896090,"current_range_meters":28400,"station_id":"ce4bh0h2rcd13ifvqd40","pricing_plan_id":"cebpf4jnsgd1na2vs0mg"},{"bike_id":"bc7680ec-f1e9-49bb-b17b-64d0b73daf47","system_id":"levelo_inurba_marseille","lat":43.2465,"lon":5.3889,"is_reserved":false,"is_disabled":false,"rental_uris":{"android":"levelo://app?vid=bc7680ec-f1e9-49bb-b17b-64d0b73daf47","ios":"levelo://app?vid=bc7680ec-f1e9-49bb-b17b-64d0b73daf47"},"vehicle_type_id":"4","last_reported":1736896090,"current_range_meters":33200,"station_id":"ce4bhg12rcd13ifvqf60","pricing_plan_id":"cebpf4jnsgd1na2vs0mg"},{"bike_id":"36974145-3c31-468b-9760-88b99b61f26c","system_id":"levelo_inurba_marseille","lat":43.271758,"lon":5.409965,"is_reserved":false,"is_disabled":false,"rental_uris":{"android":"levelo://app?vid=36974145-3c31-468b-9760-88b99b61f26c","ios":"levelo://app?vid=36974145-3c31-468b-9760-88b99b61f26c"},"vehicle_type_id":"4","last_reported":1736896090,"current_range_meters":8800,"station_id":"ce4bhl12rcd13ifvqgf0","pricing_plan_id":"cebpf4jnsgd1na2vs0mg"},{"bike_id":"b3ef46ee-af87-4b83-b89f-a4a6c31fc767","system_id":"levelo_inurba_marseille","lat":43.33,"lon":5.39003,"is_reserved":false,"is_disabled":false,"rental_uris":{"android":"levelo://app?vid=b3ef46ee-af87-4b83-b89f-a4a6c31fc767","ios":"levelo://app?vid=b3ef46ee-af87-4b83-b89f-a4a6c31fc767"},"vehicle_type_id":"4","last_reported":1736896090,"current_range_meters":28800,"station_id":"ce4bhr92rcd13ifvqhrg","pricing_plan_id":"cebpf4jnsgd1na2vs0mg"},{"bike_id":"755e5c0a-8de7-4ee5-9d4e-5ec609711170","system_id":"levelo_inurba_marseille","lat":43.296,"lon":5.38099,"is_reserved":false,"is_disabled":true,"rental_uris":{"android":"levelo://app?vid=755e5c0a-8de7-4ee5-9d4e-5ec609711170","ios":"levelo://app?vid=755e5c0a-8de7-4ee5-9d4e-5ec609711170"},"vehicle_type_id":"4","last_reported":1736896090,"current_range_meters":28800,"station_id":"ce4bgl12rcd13ifvqbo0","pricing_plan_id":"cebpf4jnsgd1na2vs0mg"},{"bike_id":"ca7f1185-c1f8-42ef-8d1b-bd8bcfca79a7","system_id":"levelo_inurba_marseille","lat":43.28699,"lon":5.373928,"is_reserved":false,"is_disabled":false,"rental_uris":{"android":"levelo://app?vid=ca7f1185-c1f8-42ef-8d1b-bd8bcfca79a7","ios":"levelo://app?vid=ca7f1185-c1f8-42ef-8d1b-bd8bcfca79a7"},"vehicle_type_id":"4","last_reported":1736896090,"current_range_meters":37600,"station_id":"ce4bh3p2rcd13ifvqdq0","pricing_plan_id":"cebpf4jnsgd1na2vs0mg"},{"bike_id":"11779009-f2a4-4424-9265-8605ab0194d4","system_id":"levelo_inurba_marseille","lat":43.30879,"lon":5.39638,"is_reserved":false,"is_disabled":false,"rental_uris":{"android":"levelo://app?vid=11779009-f2a4-4424-9265-8605ab0194d4","ios":"levelo://app?vid=11779009-f2a4-4424-9265-8605ab0194d4"},"vehicle_type_id":"4","last_reported":1736896090,"current_range_meters":23200,"station_id":"ce4bh012rcd13ifvqcv0","pricing_plan_id":"cebpf4jnsgd1na2vs0mg"},{"bike_id":"a15980ac-c225-4e68-8982-6cc8c4cbfd79","system_id":"levelo_inurba_marseille","lat":43.231881,"lon":5.355602,"is_reserved":false,"is_disabled":false,"rental_uris":{"android":"levelo://app?vid=a15980ac-c225-4e68-8982-6cc8c4cbfd79","ios":"levelo://app?vid=a15980ac-c225-4e68-8982-6cc8c4cbfd79"},"vehicle_type_id":"4","last_reported":1736896090,"current_range_meters":38800,"station_id":"ce4bhu92rcd13ifvqi70","pricing_plan_id":"cebpf4jnsgd1na2vs0mg"},{"bike_id":"c1e4c3f1-3e89-4762-b660-b562a1538ef0","system_id":"levelo_inurba_marseille","lat":43.25117,"lon":5.40329,"is_reserved":false,"is_disabled":false,"rental_uris":{"android":"levelo://app?vid=c1e4c3f1-3e89-4762-b660-b562a1538ef0","ios":"levelo://app?vid=c1e4c3f1-3e89-4762-b660-b562a1538ef0"},"vehicle_type_id":"4","last_reported":1736896090,"current_range_meters":38800,"station_id":"ce4bhlh2rcd13ifvqgig","pricing_plan_id":"cebpf4jnsgd1na2vs0mg"},{"bike_id":"f4acedbd-efad-4ed3-87b6-3302ef76e5a0","system_id":"levelo_inurba_marseille","lat":43.28862,"lon":5.35851,"is_reserved":false,"is_disabled":false,"rental_uris":{"android":"levelo://app?vid=f4acedbd-efad-4ed3-87b6-3302ef76e5a0","ios":"levelo://app?vid=f4acedbd-efad-4ed3-87b6-3302ef76e5a0"},"vehicle_type_id":"4","last_reported":1736896090,"current_range_meters":38800,"station_id":"ce4bhb12rcd13ifvqem0","pricing_plan_id":"cebpf4jnsgd1na2vs0mg"},{"bike_id":"c6611d64-2a14-400b-98c4-c90d7c683bee","system_id":"levelo_inurba_marseille","lat":43.28727,"lon":5.36091,"is_reserved":false,"is_disabled":false,"rental_uris":{"android":"levelo://app?vid=c6611d64-2a14-400b-98c4-c90d7c683bee","ios":"levelo://app?vid=c6611d64-2a14-400b-98c4-c90d7c683bee"},"vehicle_type_id":"4","last_reported":1736896090,"current_range_meters":32400,"station_id":"cki0cbj6b192h4jlfktg","pricing_plan_id":"cebpf4jnsgd1na2vs0mg"},{"bike_id":"3c07fa6e-f4f9-404f-a9a8-7f19979108f6","system_id":"levelo_inurba_marseille","lat":43.32115,"lon":5.36796,"is_reserved":false,"is_disabled":false,"rental_uris":{"android":"levelo://app?vid=3c07fa6e-f4f9-404f-a9a8-7f19979108f6","ios":"levelo://app?vid=3c07fa6e-f4f9-404f-a9a8-7f19979108f6"},"vehicle_type_id":"4","last_reported":1736896090,"current_range_meters":26800,"station_id":"ce4bhrh2rcd13ifvqhug","pricing_plan_id":"cebpf4jnsgd1na2vs0mg"},{"bike_id":"e8536dca-3bcf-4e4f-b753-94dc6cbf864a","system_id":"levelo_inurba_marseille","lat":43.286649,"lon":5.363527,"is_reserved":false,"is_disabled":false,"rental_uris":{"android":"levelo://app?vid=e8536dca-3bcf-4e4f-b753-94dc6cbf864a","ios":"levelo://app?vid=e8536dca-3bcf-4e4f-b753-94dc6cbf864a"},"vehicle_type_id":"4","last_reported":1736896090,"current_range_meters":19200,"station_id":"ce4bhah2rcd13ifvqej0","pricing_plan_id":"cebpf4jnsgd1na2vs0mg"},{"bike_id":"8e6b31b9-aea2-4e38-97f5-fdf9f941ca13","system_id":"levelo_inurba_marseille","lat":43.28916,"lon":5.384,"is_reserved":false,"is_disabled":false,"rental_uris":{"android":"levelo://app?vid=8e6b31b9-aea2-4e38-97f5-fdf9f941ca13","ios":"levelo://app?vid=8e6b31b9-aea2-4e38-97f5-fdf9f941ca13"},"vehicle_type_id":"4","last_reported":1736896090,"current_range_meters":13600,"station_id":"ce4bh612rcd13ifvqe6g","pricing_plan_id":"cebpf4jnsgd1na2vs0mg"},{"bike_id":"e26c2aac-fdc4-4e19-8d3b-a4fc3fc8f930","system_id":"levelo_inurba_marseille","lat":43.24809,"lon":5.37429,"is_reserved":false,"is_disabled":false,"rental_uris":{"android":"levelo://app?vid=e26c2aac-fdc4-4e19-8d3b-a4fc3fc8f930","ios":"levelo://app?vid=e26c2aac-fdc4-4e19-8d3b-a4fc3fc8f930"},"vehicle_type_id":"4","last_reported":1736896090,"current_range_meters":7200,"station_id":"ce4bhgh2rcd13ifvqfb0","pricing_plan_id":"cebpf4jnsgd1na2vs0mg"},{"bike_id":"3586e258-009f-4e68-a4aa-6f88c897344f","system_id":"levelo_inurba_marseille","lat":43.29967,"lon":5.38493,"is_reserved":false,"is_disabled":false,"rental_uris":{"android":"levelo://app?vid=3586e258-009f-4e68-a4aa-6f88c897344f","ios":"levelo://app?vid=3586e258-009f-4e68-a4aa-6f88c897344f"},"vehicle_type_id":"4","last_reported":1736896090,"current_range_meters":36800,"station_id":"ce4bgj92rcd13ifvqbd0","pricing_plan_id":"cebpf4jnsgd1na2vs0mg"},{"bike_id":"149a303b-b22a-4c0b-8d99-4058a2375d61","system_id":"levelo_inurba_marseille","lat":43.27618,"lon":5.36112,"is_reserved":false,"is_disabled":false,"rental_uris":{"android":"levelo://app?vid=149a303b-b22a-4c0b-8d99-4058a2375d61","ios":"levelo://app?vid=149a303b-b22a-4c0b-8d99-4058a2375d61"},"vehicle_type_id":"4","last_reported":1736896090,"current_range_meters":38400,"station_id":"ce4bgj92rcd13ifvqbe0","pricing_plan_id":"cebpf4jnsgd1na2vs0mg"},{"bike_id":"51bb6953-dea8-4e82-96bf-52696267905f","system_id":"levelo_inurba_marseille","lat":43.23067,"lon":5.35483,"is_reserved":false,"is_disabled":false,"rental_uris":{"android":"levelo://app?vid=51bb6953-dea8-4e82-96bf-52696267905f","ios":"levelo://app?vid=51bb6953-dea8-4e82-96bf-52696267905f"},"vehicle_type_id":"4","last_reported":1736896090,"current_range_meters":7200,"station_id":"cpo3342slgdg3j2ifvpg","pricing_plan_id":"cebpf4jnsgd1na2vs0mg"},{"bike_id":"c6a41b3a-a7c4-4c32-9a9c-5597c68e3304","system_id":"levelo_inurba_marseille","lat":43.25117,"lon":5.40315,"is_reserved":false,"is_disabled":false,"rental_uris":{"android":"levelo://app?vid=c6a41b3a-a7c4-4c32-9a9c-5597c68e3304","ios":"levelo://app?vid=c6a41b3a-a7c4-4c32-9a9c-5597c68e3304"},"vehicle_type_id":"4","last_reported":1736896090,"current_range_meters":27200,"station_id":"ce4bhlh2rcd13ifvqgig","pricing_plan_id":"cebpf4jnsgd1na2vs0mg"},{"bike_id":"eed58033-fa47-4e42-ac28-5d945be79d6b","system_id":"levelo_inurba_marseille","lat":43.28428,"lon":5.37538,"is_reserved":false,"is_disabled":false,"rental_uris":{"android":"levelo://app?vid=eed58033-fa47-4e42-ac28-5d945be79d6b","ios":"levelo://app?vid=eed58033-fa47-4e42-ac28-5d945be79d6b"},"vehicle_type_id":"4","last_reported":1736896090,"current_range_meters":30800,"station_id":"ce4bh412rcd13ifvqds0","pricing_plan_id":"cebpf4jnsgd1na2vs0mg"},{"bike_id":"efac4d5a-8c74-43db-a370-37699d227102","system_id":"levelo_inurba_marseille","lat":43.28573,"lon":5.39492,"is_reserved":false,"is_disabled":false,"rental_uris":{"android":"levelo://app?vid=efac4d5a-8c74-43db-a370-37699d227102","ios":"levelo://app?vid=efac4d5a-8c74-43db-a370-37699d227102"},"vehicle_type_id":"4","last_reported":1736896090,"current_range_meters":33600,"station_id":"ce4bh292rcd13ifvqdg0","pricing_plan_id":"cebpf4jnsgd1na2vs0mg"},{"bike_id":"44d11f00-930f-4b62-b9df-7ec702cd87a7","system_id":"levelo_inurba_marseille","lat":43.31279,"lon":5.4017,"is_reserved":false,"is_disabled":false,"rental_uris":{"android":"levelo://app?vid=44d11f00-930f-4b62-b9df-7ec702cd87a7","ios":"levelo://app?vid=44d11f00-930f-4b62-b9df-7ec702cd87a7"},"vehicle_type_id":"4","last_reported":1736896090,"current_range_meters":22400,"station_id":"ce4bh092rcd13ifvqd30","pricing_plan_id":"cebpf4jnsgd1na2vs0mg"},{"bike_id":"6f992351-f3ef-43d3-af79-c838410cd99b","system_id":"levelo_inurba_marseille","lat":43.29861,"lon":5.39745,"is_reserved":false,"is_disabled":false,"rental_uris":{"android":"levelo://app?vid=6f992351-f3ef-43d3-af79-c838410cd99b","ios":"levelo://app?vid=6f992351-f3ef-43d3-af79-c838410cd99b"},"vehicle_type_id":"4","last_reported":1736896090,"current_range_meters":38800,"station_id":"ce4bh0h2rcd13ifvqd50","pricing_plan_id":"cebpf4jnsgd1na2vs0mg"},{"bike_id":"c4a8dadf-2d26-4438-8022-6780136cb89c","system_id":"levelo_inurba_marseille","lat":43.27607,"lon":5.3611,"is_reserved":false,"is_disabled":false,"rental_uris":{"android":"levelo://app?vid=c4a8dadf-2d26-4438-8022-6780136cb89c","ios":"levelo://app?vid=c4a8dadf-2d26-4438-8022-6780136cb89c"},"vehicle_type_id":"4","last_reported":1736896090,"current_range_meters":34000,"station_id":"ce4bgj92rcd13ifvqbe0","pricing_plan_id":"cebpf4jnsgd1na2vs0mg"},{"bike_id":"dd9fb2ad-63a7-4571-bc7a-241e2a877da6","system_id":"levelo_inurba_marseille","lat":43.30139,"lon":5.39876,"is_reserved":false,"is_disabled":false,"rental_uris":{"android":"levelo://app?vid=dd9fb2ad-63a7-4571-bc7a-241e2a877da6","ios":"levelo://app?vid=dd9fb2ad-63a7-4571-bc7a-241e2a877da6"},"vehicle_type_id":"4","last_reported":1736896090,"current_range_meters":38800,"station_id":"ce4bh0h2rcd13ifvqd40","pricing_plan_id":"cebpf4jnsgd1na2vs0mg"},{"bike_id":"f6b5a21b-caca-4bab-9767-62a516c88435","system_id":"levelo_inurba_marseille","lat":43.24654,"lon":5.38889,"is_reserved":false,"is_disabled":false,"rental_uris":{"android":"levelo://app?vid=f6b5a21b-caca-4bab-9767-62a516c88435","ios":"levelo://app?vid=f6b5a21b-caca-4bab-9767-62a516c88435"},"vehicle_type_id":"4","last_reported":1736896090,"current_range_meters":38800,"station_id":"ce4bhg12rcd13ifvqf60","pricing_plan_id":"cebpf4jnsgd1na2vs0mg"},{"bike_id":"1ab3f322-8e8f-40bf-b46a-ad736fdeffee","system_id":"levelo_inurba_marseille","lat":43.23145,"lon":5.43734,"is_reserved":false,"is_disabled":false,"rental_uris":{"android":"levelo://app?vid=1ab3f322-8e8f-40bf-b46a-ad736fdeffee","ios":"levelo://app?vid=1ab3f322-8e8f-40bf-b46a-ad736fdeffee"},"vehicle_type_id":"4","last_reported":1736896090,"current_range_meters":38800,"station_id":"ce4bhmp2rcd13ifvqgog","pricing_plan_id":"cebpf4jnsgd1na2vs0mg"},{"bike_id":"2383b5fc-6921-4a30-845d-6c53daca33e6","system_id":"levelo_inurba_marseille","lat":43.29035,"lon":5.38124,"is_reserved":false,"is_disabled":false,"rental_uris":{"android":"levelo://app?vid=2383b5fc-6921-4a30-845d-6c53daca33e6","ios":"levelo://app?vid=2383b5fc-6921-4a30-845d-6c53daca33e6"},"vehicle_type_id":"4","last_reported":1736896090,"current_range_meters":35200,"station_id":"ce4bh4p2rcd13ifvqe1g","pricing_plan_id":"cebpf4jnsgd1na2vs0mg"},{"bike_id":"a42919e6-d787-4c66-85c5-0de29464a20f","system_id":"levelo_inurba_marseille","lat":43.280805,"lon":5.368926,"is_reserved":false,"is_disabled":false,"rental_uris":{"android":"levelo://app?vid=a42919e6-d787-4c66-85c5-0de29464a20f","ios":"levelo://app?vid=a42919e6-d787-4c66-85c5-0de29464a20f"},"vehicle_type_id":"4","last_reported":1736896090,"current_range_meters":11200,"station_id":"ce4bha12rcd13ifvqef0","pricing_plan_id":"cebpf4jnsgd1na2vs0mg"},{"bike_id":"7d7c456a-9cec-4962-9d23-1f9fd38c798d","system_id":"levelo_inurba_marseille","lat":43.24608,"lon":5.3832,"is_reserved":false,"is_disabled":false,"rental_uris":{"android":"levelo://app?vid=7d7c456a-9cec-4962-9d23-1f9fd38c798d","ios":"levelo://app?vid=7d7c456a-9cec-4962-9d23-1f9fd38c798d"},"vehicle_type_id":"4","last_reported":1736896090,"current_range_meters":24400,"station_id":"ce4bhih2rcd13ifvqfr0","pricing_plan_id":"cebpf4jnsgd1na2vs0mg"},{"bike_id":"53206026-addf-4a65-8fa0-3fc174184ef4","system_id":"levelo_inurba_marseille","lat":43.31767,"lon":5.39027,"is_reserved":false,"is_disabled":false,"rental_uris":{"android":"levelo://app?vid=53206026-addf-4a65-8fa0-3fc174184ef4","ios":"levelo://app?vid=53206026-addf-4a65-8fa0-3fc174184ef4"},"vehicle_type_id":"4","last_reported":1736896090,"current_range_meters":31200,"station_id":"ce4bhqp2rcd13ifvqhng","pricing_plan_id":"cebpf4jnsgd1na2vs0mg"},{"bike_id":"b328758c-1306-4f48-9fa3-7f9b48fccfe1","system_id":"levelo_inurba_marseille","lat":43.23188,"lon":5.39991,"is_reserved":false,"is_disabled":false,"rental_uris":{"android":"levelo://app?vid=b328758c-1306-4f48-9fa3-7f9b48fccfe1","ios":"levelo://app?vid=b328758c-1306-4f48-9fa3-7f9b48fccfe1"},"vehicle_type_id":"4","last_reported":1736896090,"current_range_meters":16800,"station_id":"ce4bhn12rcd13ifvqgqg","pricing_plan_id":"cebpf4jnsgd1na2vs0mg"},{"bike_id":"a56bdef2-14b8-4e02-b3bc-538917283971","system_id":"levelo_inurba_marseille","lat":43.25091,"lon":5.39516,"is_reserved":false,"is_disabled":false,"rental_uris":{"android":"levelo://app?vid=a56bdef2-14b8-4e02-b3bc-538917283971","ios":"levelo://app?vid=a56bdef2-14b8-4e02-b3bc-538917283971"},"vehicle_type_id":"4","last_reported":1736896090,"current_range_meters":30000,"station_id":"ce4bhm12rcd13ifvqgkg","pricing_plan_id":"cebpf4jnsgd1na2vs0mg"},{"bike_id":"a52157ac-8e91-432f-8bbe-5045a7e0eb37","system_id":"levelo_inurba_marseille","lat":43.28719,"lon":5.37939,"is_reserved":false,"is_disabled":false,"rental_uris":{"android":"levelo://app?vid=a52157ac-8e91-432f-8bbe-5045a7e0eb37","ios":"levelo://app?vid=a52157ac-8e91-432f-8bbe-5045a7e0eb37"},"vehicle_type_id":"4","last_reported":1736896090,"current_range_meters":15200,"station_id":"ce4bh9p2rcd13ifvqec0","pricing_plan_id":"cebpf4jnsgd1na2vs0mg"},{"bike_id":"d677a909-27ad-4353-b4cf-7fba66a9d9f6","system_id":"levelo_inurba_marseille","lat":43.26571,"lon":5.37287,"is_reserved":false,"is_disabled":false,"rental_uris":{"android":"levelo://app?vid=d677a909-27ad-4353-b4cf-7fba66a9d9f6","ios":"levelo://app?vid=d677a909-27ad-4353-b4cf-7fba66a9d9f6"},"vehicle_type_id":"4","last_reported":1736896090,"current_range_meters":17600,"station_id":"ce4bhg12rcd13ifvqf70","pricing_plan_id":"cebpf4jnsgd1na2vs0mg"},{"bike_id":"38738271-382f-459c-97b2-e7d896e94344","system_id":"levelo_inurba_marseille","lat":43.29035,"lon":5.37566,"is_reserved":false,"is_disabled":false,"rental_uris":{"android":"levelo://app?vid=38738271-382f-459c-97b2-e7d896e94344","ios":"levelo://app?vid=38738271-382f-459c-97b2-e7d896e94344"},"vehicle_type_id":"4","last_reported":1736896090,"current_range_meters":33200,"station_id":"ce4bh692rcd13ifvqe90","pricing_plan_id":"cebpf4jnsgd1na2vs0mg"},{"bike_id":"6c65ff6b-a29f-40c8-872b-c255af20b178","system_id":"levelo_inurba_marseille","lat":43.29801,"lon":5.40395,"is_reserved":false,"is_disabled":false,"rental_uris":{"android":"levelo://app?vid=6c65ff6b-a29f-40c8-872b-c255af20b178","ios":"levelo://app?vid=6c65ff6b-a29f-40c8-872b-c255af20b178"},"vehicle_type_id":"4","last_reported":1736896090,"current_range_meters":11200,"station_id":"ce4bh112rcd13ifvqd90","pricing_plan_id":"cebpf4jnsgd1na2vs0mg"},{"bike_id":"b51b8509-c21e-40ac-802b-edd56e55cdd0","system_id":"levelo_inurba_marseille","lat":43.30399,"lon":5.41785,"is_reserved":false,"is_disabled":true,"rental_uris":{"android":"levelo://app?vid=b51b8509-c21e-40ac-802b-edd56e55cdd0","ios":"levelo://app?vid=b51b8509-c21e-40ac-802b-edd56e55cdd0"},"vehicle_type_id":"4","last_reported":1736896090,"current_range_meters":18800,"station_id":"","pricing_plan_id":"cebpf4jnsgd1na2vs0mg"},{"bike_id":"a789806e-8b9d-4255-8ee8-3950ea094db1","system_id":"levelo_inurba_marseille","lat":43.287377,"lon":5.360907,"is_reserved":false,"is_disabled":false,"rental_uris":{"android":"levelo://app?vid=a789806e-8b9d-4255-8ee8-3950ea094db1","ios":"levelo://app?vid=a789806e-8b9d-4255-8ee8-3950ea094db1"},"vehicle_type_id":"4","last_reported":1736896090,"current_range_meters":25200,"station_id":"cki0cbj6b192h4jlfktg","pricing_plan_id":"cebpf4jnsgd1na2vs0mg"},{"bike_id":"91faf942-6ac2-4015-8913-27ed845296fd","system_id":"levelo_inurba_marseille","lat":43.28942,"lon":5.36372,"is_reserved":false,"is_disabled":false,"rental_uris":{"android":"levelo://app?vid=91faf942-6ac2-4015-8913-27ed845296fd","ios":"levelo://app?vid=91faf942-6ac2-4015-8913-27ed845296fd"},"vehicle_type_id":"4","last_reported":1736896090,"current_range_meters":38800,"station_id":"ce4bhc92rcd13ifvqetg","pricing_plan_id":"cebpf4jnsgd1na2vs0mg"},{"bike_id":"6119ec85-494a-4a3c-bf67-c0675e64b0e1","system_id":"levelo_inurba_marseille","lat":43.25742,"lon":5.41097,"is_reserved":false,"is_disabled":false,"rental_uris":{"android":"levelo://app?vid=6119ec85-494a-4a3c-bf67-c0675e64b0e1","ios":"levelo://app?vid=6119ec85-494a-4a3c-bf67-c0675e64b0e1"},"vehicle_type_id":"4","last_reported":1736896090,"current_range_meters":38800,"station_id":"ce4bhkp2rcd13ifvqgd0","pricing_plan_id":"cebpf4jnsgd1na2vs0mg"},{"bike_id":"30cc888a-fdf7-41aa-8fb2-d46ec5802ae1","system_id":"levelo_inurba_marseille","lat":43.32865,"lon":5.39916,"is_reserved":false,"is_disabled":true,"rental_uris":{"android":"levelo://app?vid=30cc888a-fdf7-41aa-8fb2-d46ec5802ae1","ios":"levelo://app?vid=30cc888a-fdf7-41aa-8fb2-d46ec5802ae1"},"vehicle_type_id":"4","last_reported":1736896090,"current_range_meters":0,"station_id":"","pricing_plan_id":"cebpf4jnsgd1na2vs0mg"},{"bike_id":"047f45a7-3503-4cef-bfc2-94b2020db843","system_id":"levelo_inurba_marseille","lat":43.29009,"lon":5.35615,"is_reserved":false,"is_disabled":false,"rental_uris":{"android":"levelo://app?vid=047f45a7-3503-4cef-bfc2-94b2020db843","ios":"levelo://app?vid=047f45a7-3503-4cef-bfc2-94b2020db843"},"vehicle_type_id":"4","last_reported":1736896090,"current_range_meters":38000,"station_id":"ce4bhb92rcd13ifvqen0","pricing_plan_id":"cebpf4jnsgd1na2vs0mg"},{"bike_id":"5a91ba28-6bde-4a64-ab8b-4c3edb00bfd7","system_id":"levelo_inurba_marseille","lat":43.27833,"lon":5.40674,"is_reserved":false,"is_disabled":false,"rental_uris":{"android":"levelo://app?vid=5a91ba28-6bde-4a64-ab8b-4c3edb00bfd7","ios":"levelo://app?vid=5a91ba28-6bde-4a64-ab8b-4c3edb00bfd7"},"vehicle_type_id":"4","last_reported":1736896090,"current_range_meters":10000,"station_id":"ce4bhnh2rcd13ifvqgtg","pricing_plan_id":"cebpf4jnsgd1na2vs0mg"},{"bike_id":"b3e35a67-739e-4943-9329-8541a5d64a33","system_id":"levelo_inurba_marseille","lat":43.250866,"lon":5.395154,"is_reserved":false,"is_disabled":false,"rental_uris":{"android":"levelo://app?vid=b3e35a67-739e-4943-9329-8541a5d64a33","ios":"levelo://app?vid=b3e35a67-739e-4943-9329-8541a5d64a33"},"vehicle_type_id":"4","last_reported":1736896090,"current_range_meters":25600,"station_id":"ce4bhm12rcd13ifvqgkg","pricing_plan_id":"cebpf4jnsgd1na2vs0mg"},{"bike_id":"13d8461e-0932-4011-b23f-f1f784c30a3e","system_id":"levelo_inurba_marseille","lat":43.2503,"lon":5.38895,"is_reserved":false,"is_disabled":true,"rental_uris":{"android":"levelo://app?vid=13d8461e-0932-4011-b23f-f1f784c30a3e","ios":"levelo://app?vid=13d8461e-0932-4011-b23f-f1f784c30a3e"},"vehicle_type_id":"4","last_reported":1736896090,"current_range_meters":6800,"station_id":"ce4bhgp2rcd13ifvqfd0","pricing_plan_id":"cebpf4jnsgd1na2vs0mg"},{"bike_id":"0adbfa65-465c-487a-8c44-6247250163c9","system_id":"levelo_inurba_marseille","lat":43.31237,"lon":5.36844,"is_reserved":false,"is_disabled":false,"rental_uris":{"android":"levelo://app?vid=0adbfa65-465c-487a-8c44-6247250163c9","ios":"levelo://app?vid=0adbfa65-465c-487a-8c44-6247250163c9"},"vehicle_type_id":"4","last_reported":1736896090,"current_range_meters":8000,"station_id":"ce4bgl92rcd13ifvqbq0","pricing_plan_id":"cebpf4jnsgd1na2vs0mg"},{"bike_id":"44a256c8-e86c-4e1d-b06b-1487a86a51c8","system_id":"levelo_inurba_marseille","lat":43.27941,"lon":5.4104,"is_reserved":false,"is_disabled":false,"rental_uris":{"android":"levelo://app?vid=44a256c8-e86c-4e1d-b06b-1487a86a51c8","ios":"levelo://app?vid=44a256c8-e86c-4e1d-b06b-1487a86a51c8"},"vehicle_type_id":"4","last_reported":1736896090,"current_range_meters":28400,"station_id":"ce4bhnp2rcd13ifvqh0g","pricing_plan_id":"cebpf4jnsgd1na2vs0mg"},{"bike_id":"d8e3941b-0cae-4b8e-ae3c-c34a4b3b2c65","system_id":"levelo_inurba_marseille","lat":43.32003,"lon":5.38162,"is_reserved":false,"is_disabled":false,"rental_uris":{"android":"levelo://app?vid=d8e3941b-0cae-4b8e-ae3c-c34a4b3b2c65","ios":"levelo://app?vid=d8e3941b-0cae-4b8e-ae3c-c34a4b3b2c65"},"vehicle_type_id":"4","last_reported":1736896090,"current_range_meters":38000,"station_id":"ce4bhr12rcd13ifvqhpg","pricing_plan_id":"cebpf4jnsgd1na2vs0mg"},{"bike_id":"7ccb2c0c-9e4a-414b-b51e-882e90241c90","system_id":"levelo_inurba_marseille","lat":43.28444,"lon":5.39195,"is_reserved":false,"is_disabled":false,"rental_uris":{"android":"levelo://app?vid=7ccb2c0c-9e4a-414b-b51e-882e90241c90","ios":"levelo://app?vid=7ccb2c0c-9e4a-414b-b51e-882e90241c90"},"vehicle_type_id":"4","last_reported":1736896090,"current_range_meters":10800,"station_id":"ce4bhoh2rcd13ifvqh5g","pricing_plan_id":"cebpf4jnsgd1na2vs0mg"},{"bike_id":"15f885dc-e106-4c2c-901d-ee6289b8f0a3","system_id":"levelo_inurba_marseille","lat":43.28414,"lon":5.34995,"is_reserved":false,"is_disabled":false,"rental_uris":{"android":"levelo://app?vid=15f885dc-e106-4c2c-901d-ee6289b8f0a3","ios":"levelo://app?vid=15f885dc-e106-4c2c-901d-ee6289b8f0a3"},"vehicle_type_id":"4","last_reported":1736896090,"current_range_meters":33200,"station_id":"ce4bhbh2rcd13ifvqepg","pricing_plan_id":"cebpf4jnsgd1na2vs0mg"},{"bike_id":"d12c2ae4-b746-45b5-b446-83571008c76c","system_id":"levelo_inurba_marseille","lat":43.27901,"lon":5.38019,"is_reserved":false,"is_disabled":true,"rental_uris":{"android":"levelo://app?vid=d12c2ae4-b746-45b5-b446-83571008c76c","ios":"levelo://app?vid=d12c2ae4-b746-45b5-b446-83571008c76c"},"vehicle_type_id":"4","last_reported":1736896090,"current_range_meters":1200,"station_id":"ce4bhf92rcd13ifvqf50","pricing_plan_id":"cebpf4jnsgd1na2vs0mg"},{"bike_id":"f0e8402d-4472-47c3-8835-de5a76db090e","system_id":"levelo_inurba_marseille","lat":43.31067,"lon":5.383494,"is_reserved":false,"is_disabled":false,"rental_uris":{"android":"levelo://app?vid=f0e8402d-4472-47c3-8835-de5a76db090e","ios":"levelo://app?vid=f0e8402d-4472-47c3-8835-de5a76db090e"},"vehicle_type_id":"4","last_reported":1736896090,"current_range_meters":10800,"station_id":"ce4bgv92rcd13ifvqcr0","pricing_plan_id":"cebpf4jnsgd1na2vs0mg"},{"bike_id":"54562beb-d62d-45a9-aee6-6ac8321e0e4a","system_id":"levelo_inurba_marseille","lat":43.29813,"lon":5.40402,"is_reserved":false,"is_disabled":false,"rental_uris":{"android":"levelo://app?vid=54562beb-d62d-45a9-aee6-6ac8321e0e4a","ios":"levelo://app?vid=54562beb-d62d-45a9-aee6-6ac8321e0e4a"},"vehicle_type_id":"4","last_reported":1736896090,"current_range_meters":38400,"station_id":"ce4bh112rcd13ifvqd90","pricing_plan_id":"cebpf4jnsgd1na2vs0mg"},{"bike_id":"3ab26579-f4e3-4bf0-af70-a98271b1c8a7","system_id":"levelo_inurba_marseille","lat":43.32387,"lon":5.38867,"is_reserved":false,"is_disabled":false,"rental_uris":{"android":"levelo://app?vid=3ab26579-f4e3-4bf0-af70-a98271b1c8a7","ios":"levelo://app?vid=3ab26579-f4e3-4bf0-af70-a98271b1c8a7"},"vehicle_type_id":"4","last_reported":1736896090,"current_range_meters":28400,"station_id":"ce4bhqp2rcd13ifvqhog","pricing_plan_id":"cebpf4jnsgd1na2vs0mg"},{"bike_id":"733c84d1-b906-45a9-b7c5-d0ec2361f65c","system_id":"levelo_inurba_marseille","lat":43.24668,"lon":5.38156,"is_reserved":false,"is_disabled":false,"rental_uris":{"android":"levelo://app?vid=733c84d1-b906-45a9-b7c5-d0ec2361f65c","ios":"levelo://app?vid=733c84d1-b906-45a9-b7c5-d0ec2361f65c"},"vehicle_type_id":"4","last_reported":1736896090,"current_range_meters":16400,"station_id":"ce4bhih2rcd13ifvqfr0","pricing_plan_id":"cebpf4jnsgd1na2vs0mg"},{"bike_id":"542e0e04-569e-4f38-af84-bb089232b371","system_id":"levelo_inurba_marseille","lat":43.25064,"lon":5.40447,"is_reserved":false,"is_disabled":false,"rental_uris":{"android":"levelo://app?vid=542e0e04-569e-4f38-af84-bb089232b371","ios":"levelo://app?vid=542e0e04-569e-4f38-af84-bb089232b371"},"vehicle_type_id":"4","last_reported":1736896090,"current_range_meters":14400,"station_id":"ce4bhlh2rcd13ifvqgig","pricing_plan_id":"cebpf4jnsgd1na2vs0mg"},{"bike_id":"fc5a2978-9e81-40aa-befb-f736a12e7b56","system_id":"levelo_inurba_marseille","lat":43.31764,"lon":5.38996,"is_reserved":false,"is_disabled":false,"rental_uris":{"android":"levelo://app?vid=fc5a2978-9e81-40aa-befb-f736a12e7b56","ios":"levelo://app?vid=fc5a2978-9e81-40aa-befb-f736a12e7b56"},"vehicle_type_id":"4","last_reported":1736896090,"current_range_meters":18000,"station_id":"ce4bhqp2rcd13ifvqhng","pricing_plan_id":"cebpf4jnsgd1na2vs0mg"},{"bike_id":"7faf14b6-50db-4d2f-bc12-4c6787b94364","system_id":"levelo_inurba_marseille","lat":43.28943,"lon":5.36412,"is_reserved":false,"is_disabled":false,"rental_uris":{"android":"levelo://app?vid=7faf14b6-50db-4d2f-bc12-4c6787b94364","ios":"levelo://app?vid=7faf14b6-50db-4d2f-bc12-4c6787b94364"},"vehicle_type_id":"4","last_reported":1736896090,"current_range_meters":13600,"station_id":"ce4bhc92rcd13ifvqetg","pricing_plan_id":"cebpf4jnsgd1na2vs0mg"},{"bike_id":"b2084cb6-8cf7-4532-ba95-614f5c2766a4","system_id":"levelo_inurba_marseille","lat":43.281042,"lon":5.378412,"is_reserved":false,"is_disabled":false,"rental_uris":{"android":"levelo://app?vid=b2084cb6-8cf7-4532-ba95-614f5c2766a4","ios":"levelo://app?vid=b2084cb6-8cf7-4532-ba95-614f5c2766a4"},"vehicle_type_id":"4","last_reported":1736896090,"current_range_meters":38000,"station_id":"ce4bha12rcd13ifvqee0","pricing_plan_id":"cebpf4jnsgd1na2vs0mg"},{"bike_id":"6aaac62b-46d6-4196-b308-1f0e2230de84","system_id":"levelo_inurba_marseille","lat":43.28948,"lon":5.36586,"is_reserved":false,"is_disabled":false,"rental_uris":{"android":"levelo://app?vid=6aaac62b-46d6-4196-b308-1f0e2230de84","ios":"levelo://app?vid=6aaac62b-46d6-4196-b308-1f0e2230de84"},"vehicle_type_id":"4","last_reported":1736896090,"current_range_meters":38800,"station_id":"","pricing_plan_id":"cebpf4jnsgd1na2vs0mg"},{"bike_id":"fd55665f-7fcc-4bb6-ac2e-81f2e2c40034","system_id":"levelo_inurba_marseille","lat":43.31889,"lon":5.40744,"is_reserved":false,"is_disabled":false,"rental_uris":{"android":"levelo://app?vid=fd55665f-7fcc-4bb6-ac2e-81f2e2c40034","ios":"levelo://app?vid=fd55665f-7fcc-4bb6-ac2e-81f2e2c40034"},"vehicle_type_id":"4","last_reported":1736896090,"current_range_meters":39200,"station_id":"ce4bhq12rcd13ifvqhig","pricing_plan_id":"cebpf4jnsgd1na2vs0mg"},{"bike_id":"9d032fa1-f393-4edb-9af8-01e567ba9775","system_id":"levelo_inurba_marseille","lat":43.29302,"lon":5.37177,"is_reserved":false,"is_disabled":false,"rental_uris":{"android":"levelo://app?vid=9d032fa1-f393-4edb-9af8-01e567ba9775","ios":"levelo://app?vid=9d032fa1-f393-4edb-9af8-01e567ba9775"},"vehicle_type_id":"4","last_reported":1736896090,"current_range_meters":9200,"station_id":"ce4bgh92rcd13ifvqb40","pricing_plan_id":"cebpf4jnsgd1na2vs0mg"},{"bike_id":"e0616310-0369-4752-9600-d546e18f9218","system_id":"levelo_inurba_marseille","lat":43.27945,"lon":5.41033,"is_reserved":false,"is_disabled":false,"rental_uris":{"android":"levelo://app?vid=e0616310-0369-4752-9600-d546e18f9218","ios":"levelo://app?vid=e0616310-0369-4752-9600-d546e18f9218"},"vehicle_type_id":"4","last_reported":1736896090,"current_range_meters":30800,"station_id":"ce4bhnp2rcd13ifvqh0g","pricing_plan_id":"cebpf4jnsgd1na2vs0mg"},{"bike_id":"472c5457-b72f-4041-bdd6-3d9080f196ef","system_id":"levelo_inurba_marseille","lat":43.32567,"lon":5.41466,"is_reserved":false,"is_disabled":false,"rental_uris":{"android":"levelo://app?vid=472c5457-b72f-4041-bdd6-3d9080f196ef","ios":"levelo://app?vid=472c5457-b72f-4041-bdd6-3d9080f196ef"},"vehicle_type_id":"4","last_reported":1736896090,"current_range_meters":38800,"station_id":"ce4bhq12rcd13ifvqhhg","pricing_plan_id":"cebpf4jnsgd1na2vs0mg"},{"bike_id":"d9c2848f-0adc-4651-8bcc-d3fe441c2ead","system_id":"levelo_inurba_marseille","lat":43.28704,"lon":5.39971,"is_reserved":false,"is_disabled":false,"rental_uris":{"android":"levelo://app?vid=d9c2848f-0adc-4651-8bcc-d3fe441c2ead","ios":"levelo://app?vid=d9c2848f-0adc-4651-8bcc-d3fe441c2ead"},"vehicle_type_id":"4","last_reported":1736896090,"current_range_meters":32800,"station_id":"ce4bho92rcd13ifvqh3g","pricing_plan_id":"cebpf4jnsgd1na2vs0mg"},{"bike_id":"7ea975c6-b0c4-4b59-aeeb-671c007d33b3","system_id":"levelo_inurba_marseille","lat":43.31067,"lon":5.38331,"is_reserved":false,"is_disabled":false,"rental_uris":{"android":"levelo://app?vid=7ea975c6-b0c4-4b59-aeeb-671c007d33b3","ios":"levelo://app?vid=7ea975c6-b0c4-4b59-aeeb-671c007d33b3"},"vehicle_type_id":"4","last_reported":1736896090,"current_range_meters":34000,"station_id":"ce4bgv92rcd13ifvqcr0","pricing_plan_id":"cebpf4jnsgd1na2vs0mg"},{"bike_id":"5f23a61a-7e7d-465e-942d-98e84a6e0f49","system_id":"levelo_inurba_marseille","lat":43.24814,"lon":5.37456,"is_reserved":false,"is_disabled":false,"rental_uris":{"android":"levelo://app?vid=5f23a61a-7e7d-465e-942d-98e84a6e0f49","ios":"levelo://app?vid=5f23a61a-7e7d-465e-942d-98e84a6e0f49"},"vehicle_type_id":"4","last_reported":1736896090,"current_range_meters":35600,"station_id":"ce4bhgh2rcd13ifvqfb0","pricing_plan_id":"cebpf4jnsgd1na2vs0mg"},{"bike_id":"f2c832d9-7cfc-412d-8bb0-fc0a1a825ed8","system_id":"levelo_inurba_marseille","lat":43.28701,"lon":5.37912,"is_reserved":false,"is_disabled":false,"rental_uris":{"android":"levelo://app?vid=f2c832d9-7cfc-412d-8bb0-fc0a1a825ed8","ios":"levelo://app?vid=f2c832d9-7cfc-412d-8bb0-fc0a1a825ed8"},"vehicle_type_id":"4","last_reported":1736896090,"current_range_meters":38800,"station_id":"ce4bh9p2rcd13ifvqec0","pricing_plan_id":"cebpf4jnsgd1na2vs0mg"},{"bike_id":"a91592e9-ac2b-42d0-be02-a167b98bd63b","system_id":"levelo_inurba_marseille","lat":43.30785,"lon":5.37646,"is_reserved":false,"is_disabled":false,"rental_uris":{"android":"levelo://app?vid=a91592e9-ac2b-42d0-be02-a167b98bd63b","ios":"levelo://app?vid=a91592e9-ac2b-42d0-be02-a167b98bd63b"},"vehicle_type_id":"4","last_reported":1736896090,"current_range_meters":38800,"station_id":"ce4bgv92rcd13ifvqcq0","pricing_plan_id":"cebpf4jnsgd1na2vs0mg"},{"bike_id":"9e162322-4a64-4319-bc6d-2e22bd78b539","system_id":"levelo_inurba_marseille","lat":43.30609,"lon":5.37212,"is_reserved":false,"is_disabled":false,"rental_uris":{"android":"levelo://app?vid=9e162322-4a64-4319-bc6d-2e22bd78b539","ios":"levelo://app?vid=9e162322-4a64-4319-bc6d-2e22bd78b539"},"vehicle_type_id":"4","last_reported":1736896090,"current_range_meters":38400,"station_id":"ce4bgqh2rcd13ifvqc4g","pricing_plan_id":"cebpf4jnsgd1na2vs0mg"},{"bike_id":"cf2693fd-4ebf-4c9d-b35f-bcb34c43bc1f","system_id":"levelo_inurba_marseille","lat":43.29079,"lon":5.3717,"is_reserved":false,"is_disabled":false,"rental_uris":{"android":"levelo://app?vid=cf2693fd-4ebf-4c9d-b35f-bcb34c43bc1f","ios":"levelo://app?vid=cf2693fd-4ebf-4c9d-b35f-bcb34c43bc1f"},"vehicle_type_id":"4","last_reported":1736896090,"current_range_meters":36400,"station_id":"ce4bh5p2rcd13ifvqe4g","pricing_plan_id":"cebpf4jnsgd1na2vs0mg"},{"bike_id":"0bb787af-c506-4390-b3e4-3d6116cc8d06","system_id":"levelo_inurba_marseille","lat":43.28291,"lon":5.43243,"is_reserved":false,"is_disabled":false,"rental_uris":{"android":"levelo://app?vid=0bb787af-c506-4390-b3e4-3d6116cc8d06","ios":"levelo://app?vid=0bb787af-c506-4390-b3e4-3d6116cc8d06"},"vehicle_type_id":"4","last_reported":1736896090,"current_range_meters":16000,"station_id":"","pricing_plan_id":"cebpf4jnsgd1na2vs0mg"},{"bike_id":"ae6a24c6-71f9-417a-adfe-c09c90280637","system_id":"levelo_inurba_marseille","lat":43.265465,"lon":5.372921,"is_reserved":false,"is_disabled":false,"rental_uris":{"android":"levelo://app?vid=ae6a24c6-71f9-417a-adfe-c09c90280637","ios":"levelo://app?vid=ae6a24c6-71f9-417a-adfe-c09c90280637"},"vehicle_type_id":"4","last_reported":1736896090,"current_range_meters":38800,"station_id":"ce4bhg12rcd13ifvqf70","pricing_plan_id":"cebpf4jnsgd1na2vs0mg"},{"bike_id":"c61e452c-8b99-4df1-8b68-a5fcd1d72929","system_id":"levelo_inurba_marseille","lat":43.2511,"lon":5.40319,"is_reserved":false,"is_disabled":false,"rental_uris":{"android":"levelo://app?vid=c61e452c-8b99-4df1-8b68-a5fcd1d72929","ios":"levelo://app?vid=c61e452c-8b99-4df1-8b68-a5fcd1d72929"},"vehicle_type_id":"4","last_reported":1736896090,"current_range_meters":8000,"station_id":"ce4bhlh2rcd13ifvqgig","pricing_plan_id":"cebpf4jnsgd1na2vs0mg"},{"bike_id":"31ca8b0e-c72e-47d4-a59b-a2766db72931","system_id":"levelo_inurba_marseille","lat":43.28412,"lon":5.4093,"is_reserved":false,"is_disabled":true,"rental_uris":{"android":"levelo://app?vid=31ca8b0e-c72e-47d4-a59b-a2766db72931","ios":"levelo://app?vid=31ca8b0e-c72e-47d4-a59b-a2766db72931"},"vehicle_type_id":"4","last_reported":1736896090,"current_range_meters":33200,"station_id":"","pricing_plan_id":"cebpf4jnsgd1na2vs0mg"},{"bike_id":"edd42b2d-e956-4e3a-82d3-8a14b48c70f7","system_id":"levelo_inurba_marseille","lat":43.26203,"lon":5.37898,"is_reserved":false,"is_disabled":false,"rental_uris":{"android":"levelo://app?vid=edd42b2d-e956-4e3a-82d3-8a14b48c70f7","ios":"levelo://app?vid=edd42b2d-e956-4e3a-82d3-8a14b48c70f7"},"vehicle_type_id":"4","last_reported":1736896090,"current_range_meters":38800,"station_id":"ce4bhjp2rcd13ifvqg90","pricing_plan_id":"cebpf4jnsgd1na2vs0mg"},{"bike_id":"be340c0f-88b7-44d8-9521-d55f30bb2565","system_id":"levelo_inurba_marseille","lat":43.30974,"lon":5.39039,"is_reserved":false,"is_disabled":true,"rental_uris":{"android":"levelo://app?vid=be340c0f-88b7-44d8-9521-d55f30bb2565","ios":"levelo://app?vid=be340c0f-88b7-44d8-9521-d55f30bb2565"},"vehicle_type_id":"4","last_reported":1736896090,"current_range_meters":14400,"station_id":"ce4bgup2rcd13ifvqco0","pricing_plan_id":"cebpf4jnsgd1na2vs0mg"},{"bike_id":"60c48e84-151f-4edd-83cd-789ff87c7f63","system_id":"levelo_inurba_marseille","lat":43.28701,"lon":5.37401,"is_reserved":false,"is_disabled":true,"rental_uris":{"android":"levelo://app?vid=60c48e84-151f-4edd-83cd-789ff87c7f63","ios":"levelo://app?vid=60c48e84-151f-4edd-83cd-789ff87c7f63"},"vehicle_type_id":"4","last_reported":1736896090,"current_range_meters":31200,"station_id":"ce4bh3p2rcd13ifvqdq0","pricing_plan_id":"cebpf4jnsgd1na2vs0mg"},{"bike_id":"d4bd3ca0-48a8-4b8f-8823-cc0d13d0ab16","system_id":"levelo_inurba_marseille","lat":43.28081,"lon":5.39649,"is_reserved":false,"is_disabled":false,"rental_uris":{"android":"levelo://app?vid=d4bd3ca0-48a8-4b8f-8823-cc0d13d0ab16","ios":"levelo://app?vid=d4bd3ca0-48a8-4b8f-8823-cc0d13d0ab16"},"vehicle_type_id":"4","last_reported":1736896090,"current_range_meters":38800,"station_id":"ce4bho12rcd13ifvqh2g","pricing_plan_id":"cebpf4jnsgd1na2vs0mg"},{"bike_id":"94cd333a-32c1-46b4-a6c0-30739f84c1a1","system_id":"levelo_inurba_marseille","lat":43.32329,"lon":5.38881,"is_reserved":false,"is_disabled":false,"rental_uris":{"android":"levelo://app?vid=94cd333a-32c1-46b4-a6c0-30739f84c1a1","ios":"levelo://app?vid=94cd333a-32c1-46b4-a6c0-30739f84c1a1"},"vehicle_type_id":"4","last_reported":1736896090,"current_range_meters":24000,"station_id":"ce4bhqp2rcd13ifvqhog","pricing_plan_id":"cebpf4jnsgd1na2vs0mg"},{"bike_id":"9e70f796-0f22-406f-adc9-5b409ed15f03","system_id":"levelo_inurba_marseille","lat":43.28707,"lon":5.39962,"is_reserved":false,"is_disabled":false,"rental_uris":{"android":"levelo://app?vid=9e70f796-0f22-406f-adc9-5b409ed15f03","ios":"levelo://app?vid=9e70f796-0f22-406f-adc9-5b409ed15f03"},"vehicle_type_id":"4","last_reported":1736896090,"current_range_meters":39200,"station_id":"ce4bho92rcd13ifvqh3g","pricing_plan_id":"cebpf4jnsgd1na2vs0mg"},{"bike_id":"de05f028-7450-4792-8d5b-e268410faa9d","system_id":"levelo_inurba_marseille","lat":43.32103,"lon":5.36807,"is_reserved":false,"is_disabled":false,"rental_uris":{"android":"levelo://app?vid=de05f028-7450-4792-8d5b-e268410faa9d","ios":"levelo://app?vid=de05f028-7450-4792-8d5b-e268410faa9d"},"vehicle_type_id":"4","last_reported":1736896090,"current_range_meters":27600,"station_id":"ce4bhrh2rcd13ifvqhug","pricing_plan_id":"cebpf4jnsgd1na2vs0mg"},{"bike_id":"e8a7b18f-324f-4d29-886f-77b85b80b2c6","system_id":"levelo_inurba_marseille","lat":43.240695,"lon":5.377584,"is_reserved":false,"is_disabled":true,"rental_uris":{"android":"levelo://app?vid=e8a7b18f-324f-4d29-886f-77b85b80b2c6","ios":"levelo://app?vid=e8a7b18f-324f-4d29-886f-77b85b80b2c6"},"vehicle_type_id":"4","last_reported":1736896090,"current_range_meters":38000,"station_id":"ce4bhnp2rcd13ifvqgvg","pricing_plan_id":"cebpf4jnsgd1na2vs0mg"},{"bike_id":"a6621279-32d7-4294-8bcf-dd98a55e7710","system_id":"levelo_inurba_marseille","lat":43.30461,"lon":5.37901,"is_reserved":false,"is_disabled":false,"rental_uris":{"android":"levelo://app?vid=a6621279-32d7-4294-8bcf-dd98a55e7710","ios":"levelo://app?vid=a6621279-32d7-4294-8bcf-dd98a55e7710"},"vehicle_type_id":"4","last_reported":1736896090,"current_range_meters":34800,"station_id":"ce4bgup2rcd13ifvqcn0","pricing_plan_id":"cebpf4jnsgd1na2vs0mg"},{"bike_id":"12c84dc1-55d9-4869-8c9f-6a156dfc584a","system_id":"levelo_inurba_marseille","lat":43.27812,"lon":5.40716,"is_reserved":false,"is_disabled":false,"rental_uris":{"android":"levelo://app?vid=12c84dc1-55d9-4869-8c9f-6a156dfc584a","ios":"levelo://app?vid=12c84dc1-55d9-4869-8c9f-6a156dfc584a"},"vehicle_type_id":"4","last_reported":1736896090,"current_range_meters":36800,"station_id":"ce4bhnh2rcd13ifvqgtg","pricing_plan_id":"cebpf4jnsgd1na2vs0mg"},{"bike_id":"492e116f-0ef0-46b8-aa9b-132b1509cb00","system_id":"levelo_inurba_marseille","lat":43.31696,"lon":5.37787,"is_reserved":false,"is_disabled":false,"rental_uris":{"android":"levelo://app?vid=492e116f-0ef0-46b8-aa9b-132b1509cb00","ios":"levelo://app?vid=492e116f-0ef0-46b8-aa9b-132b1509cb00"},"vehicle_type_id":"4","last_reported":1736896090,"current_range_meters":10000,"station_id":"ce4bgth2rcd13ifvqch0","pricing_plan_id":"cebpf4jnsgd1na2vs0mg"},{"bike_id":"d85168cd-cda5-48df-a191-5048004ec8d2","system_id":"levelo_inurba_marseille","lat":43.25097,"lon":5.39509,"is_reserved":false,"is_disabled":false,"rental_uris":{"android":"levelo://app?vid=d85168cd-cda5-48df-a191-5048004ec8d2","ios":"levelo://app?vid=d85168cd-cda5-48df-a191-5048004ec8d2"},"vehicle_type_id":"4","last_reported":1736896090,"current_range_meters":38800,"station_id":"ce4bhm12rcd13ifvqgkg","pricing_plan_id":"cebpf4jnsgd1na2vs0mg"},{"bike_id":"02811ea2-19d3-4ac6-89d2-d2737ec01b6c","system_id":"levelo_inurba_marseille","lat":43.31074,"lon":5.38345,"is_reserved":false,"is_disabled":false,"rental_uris":{"android":"levelo://app?vid=02811ea2-19d3-4ac6-89d2-d2737ec01b6c","ios":"levelo://app?vid=02811ea2-19d3-4ac6-89d2-d2737ec01b6c"},"vehicle_type_id":"4","last_reported":1736896090,"current_range_meters":3600,"station_id":"ce4bgv92rcd13ifvqcr0","pricing_plan_id":"cebpf4jnsgd1na2vs0mg"},{"bike_id":"604423b9-2ca2-4e0a-8b5f-cf292c8cd318","system_id":"levelo_inurba_marseille","lat":43.2857,"lon":5.39499,"is_reserved":false,"is_disabled":false,"rental_uris":{"android":"levelo://app?vid=604423b9-2ca2-4e0a-8b5f-cf292c8cd318","ios":"levelo://app?vid=604423b9-2ca2-4e0a-8b5f-cf292c8cd318"},"vehicle_type_id":"4","last_reported":1736896090,"current_range_meters":38000,"station_id":"ce4bh292rcd13ifvqdg0","pricing_plan_id":"cebpf4jnsgd1na2vs0mg"},{"bike_id":"8f3d19ca-6788-4fa8-a3b9-31a1f06d17f5","system_id":"levelo_inurba_marseille","lat":43.28037,"lon":5.36938,"is_reserved":false,"is_disabled":false,"rental_uris":{"android":"levelo://app?vid=8f3d19ca-6788-4fa8-a3b9-31a1f06d17f5","ios":"levelo://app?vid=8f3d19ca-6788-4fa8-a3b9-31a1f06d17f5"},"vehicle_type_id":"4","last_reported":1736896090,"current_range_meters":38800,"station_id":"ce4bha12rcd13ifvqef0","pricing_plan_id":"cebpf4jnsgd1na2vs0mg"},{"bike_id":"7ab18eaa-fb49-4cb7-a02a-75b674d810ba","system_id":"levelo_inurba_marseille","lat":43.323663,"lon":5.38875,"is_reserved":false,"is_disabled":false,"rental_uris":{"android":"levelo://app?vid=7ab18eaa-fb49-4cb7-a02a-75b674d810ba","ios":"levelo://app?vid=7ab18eaa-fb49-4cb7-a02a-75b674d810ba"},"vehicle_type_id":"4","last_reported":1736896090,"current_range_meters":30000,"station_id":"ce4bhqp2rcd13ifvqhog","pricing_plan_id":"cebpf4jnsgd1na2vs0mg"},{"bike_id":"8a58e330-a579-4ded-b494-5f00c0803f13","system_id":"levelo_inurba_marseille","lat":43.24806,"lon":5.37452,"is_reserved":false,"is_disabled":false,"rental_uris":{"android":"levelo://app?vid=8a58e330-a579-4ded-b494-5f00c0803f13","ios":"levelo://app?vid=8a58e330-a579-4ded-b494-5f00c0803f13"},"vehicle_type_id":"4","last_reported":1736896090,"current_range_meters":23200,"station_id":"ce4bhgh2rcd13ifvqfb0","pricing_plan_id":"cebpf4jnsgd1na2vs0mg"},{"bike_id":"53205c98-6f18-4c7e-9581-6a180a2db923","system_id":"levelo_inurba_marseille","lat":43.32337,"lon":5.4062,"is_reserved":false,"is_disabled":false,"rental_uris":{"android":"levelo://app?vid=53205c98-6f18-4c7e-9581-6a180a2db923","ios":"levelo://app?vid=53205c98-6f18-4c7e-9581-6a180a2db923"},"vehicle_type_id":"4","last_reported":1736896090,"current_range_meters":38400,"station_id":"ce4bhq92rcd13ifvqhjg","pricing_plan_id":"cebpf4jnsgd1na2vs0mg"},{"bike_id":"6280e12b-8c99-470a-acaf-04cfe5b073d5","system_id":"levelo_inurba_marseille","lat":43.2719,"lon":5.40989,"is_reserved":false,"is_disabled":false,"rental_uris":{"android":"levelo://app?vid=6280e12b-8c99-470a-acaf-04cfe5b073d5","ios":"levelo://app?vid=6280e12b-8c99-470a-acaf-04cfe5b073d5"},"vehicle_type_id":"4","last_reported":1736896090,"current_range_meters":38800,"station_id":"ce4bhl12rcd13ifvqgf0","pricing_plan_id":"cebpf4jnsgd1na2vs0mg"},{"bike_id":"d3605aab-327d-4b2b-ae30-1acb3043ee8c","system_id":"levelo_inurba_marseille","lat":43.30939,"lon":5.40137,"is_reserved":false,"is_disabled":false,"rental_uris":{"android":"levelo://app?vid=d3605aab-327d-4b2b-ae30-1acb3043ee8c","ios":"levelo://app?vid=d3605aab-327d-4b2b-ae30-1acb3043ee8c"},"vehicle_type_id":"4","last_reported":1736896090,"current_range_meters":34800,"station_id":"ce4bgvp2rcd13ifvqct0","pricing_plan_id":"cebpf4jnsgd1na2vs0mg"},{"bike_id":"f62a7ed4-7c80-4ed8-9568-a4dea62069d1","system_id":"levelo_inurba_marseille","lat":43.28089,"lon":5.39657,"is_reserved":false,"is_disabled":false,"rental_uris":{"android":"levelo://app?vid=f62a7ed4-7c80-4ed8-9568-a4dea62069d1","ios":"levelo://app?vid=f62a7ed4-7c80-4ed8-9568-a4dea62069d1"},"vehicle_type_id":"4","last_reported":1736896090,"current_range_meters":24000,"station_id":"ce4bho12rcd13ifvqh2g","pricing_plan_id":"cebpf4jnsgd1na2vs0mg"},{"bike_id":"4467d7f9-67af-4647-b1b3-f3a1d228515b","system_id":"levelo_inurba_marseille","lat":43.2695,"lon":5.38648,"is_reserved":false,"is_disabled":true,"rental_uris":{"android":"levelo://app?vid=4467d7f9-67af-4647-b1b3-f3a1d228515b","ios":"levelo://app?vid=4467d7f9-67af-4647-b1b3-f3a1d228515b"},"vehicle_type_id":"4","last_reported":1736896090,"current_range_meters":0,"station_id":"ce4bhh92rcd13ifvqfh0","pricing_plan_id":"cebpf4jnsgd1na2vs0mg"},{"bike_id":"710d5833-8ac1-4145-921e-ea3e3ff0b4a7","system_id":"levelo_inurba_marseille","lat":43.28957,"lon":5.36399,"is_reserved":false,"is_disabled":false,"rental_uris":{"android":"levelo://app?vid=710d5833-8ac1-4145-921e-ea3e3ff0b4a7","ios":"levelo://app?vid=710d5833-8ac1-4145-921e-ea3e3ff0b4a7"},"vehicle_type_id":"4","last_reported":1736896090,"current_range_meters":38800,"station_id":"ce4bhc92rcd13ifvqetg","pricing_plan_id":"cebpf4jnsgd1na2vs0mg"},{"bike_id":"5b7d1c92-dc02-4f30-9ffe-85ba5225870b","system_id":"levelo_inurba_marseille","lat":43.28154,"lon":5.42642,"is_reserved":false,"is_disabled":false,"rental_uris":{"android":"levelo://app?vid=5b7d1c92-dc02-4f30-9ffe-85ba5225870b","ios":"levelo://app?vid=5b7d1c92-dc02-4f30-9ffe-85ba5225870b"},"vehicle_type_id":"4","last_reported":1736896090,"current_range_meters":37600,"station_id":"ce4bhnh2rcd13ifvqgug","pricing_plan_id":"cebpf4jnsgd1na2vs0mg"},{"bike_id":"11f8d0bd-700f-44c3-884c-632478828218","system_id":"levelo_inurba_marseille","lat":43.28616,"lon":5.351,"is_reserved":false,"is_disabled":false,"rental_uris":{"android":"levelo://app?vid=11f8d0bd-700f-44c3-884c-632478828218","ios":"levelo://app?vid=11f8d0bd-700f-44c3-884c-632478828218"},"vehicle_type_id":"4","last_reported":1736896090,"current_range_meters":38800,"station_id":"ce4bhch2rcd13ifvqeug","pricing_plan_id":"cebpf4jnsgd1na2vs0mg"},{"bike_id":"e8541510-391f-40ac-ba3b-04bb67166443","system_id":"levelo_inurba_marseille","lat":43.29067,"lon":5.35849,"is_reserved":false,"is_disabled":false,"rental_uris":{"android":"levelo://app?vid=e8541510-391f-40ac-ba3b-04bb67166443","ios":"levelo://app?vid=e8541510-391f-40ac-ba3b-04bb67166443"},"vehicle_type_id":"4","last_reported":1736896090,"current_range_meters":39200,"station_id":"ce4bha92rcd13ifvqeg0","pricing_plan_id":"cebpf4jnsgd1na2vs0mg"},{"bike_id":"20509036-1fb9-4b22-bed7-6a8d2b1cbab1","system_id":"levelo_inurba_marseille","lat":43.281,"lon":5.37847,"is_reserved":false,"is_disabled":false,"rental_uris":{"android":"levelo://app?vid=20509036-1fb9-4b22-bed7-6a8d2b1cbab1","ios":"levelo://app?vid=20509036-1fb9-4b22-bed7-6a8d2b1cbab1"},"vehicle_type_id":"4","last_reported":1736896090,"current_range_meters":37600,"station_id":"ce4bha12rcd13ifvqee0","pricing_plan_id":"cebpf4jnsgd1na2vs0mg"},{"bike_id":"8534aaf4-535f-4db5-8998-0f97ef68ef36","system_id":"levelo_inurba_marseille","lat":43.24398,"lon":5.3704,"is_reserved":false,"is_disabled":false,"rental_uris":{"android":"levelo://app?vid=8534aaf4-535f-4db5-8998-0f97ef68ef36","ios":"levelo://app?vid=8534aaf4-535f-4db5-8998-0f97ef68ef36"},"vehicle_type_id":"4","last_reported":1736896090,"current_range_meters":17600,"station_id":"ce4bhhh2rcd13ifvqfk0","pricing_plan_id":"cebpf4jnsgd1na2vs0mg"},{"bike_id":"b2c33e7b-da8a-4cda-ab12-4bcf5000aca5","system_id":"levelo_inurba_marseille","lat":43.27613,"lon":5.36143,"is_reserved":false,"is_disabled":false,"rental_uris":{"android":"levelo://app?vid=b2c33e7b-da8a-4cda-ab12-4bcf5000aca5","ios":"levelo://app?vid=b2c33e7b-da8a-4cda-ab12-4bcf5000aca5"},"vehicle_type_id":"4","last_reported":1736896090,"current_range_meters":30400,"station_id":"ce4bgj92rcd13ifvqbe0","pricing_plan_id":"cebpf4jnsgd1na2vs0mg"},{"bike_id":"29e4ebc2-0f9c-44ab-81cd-510a54dca360","system_id":"levelo_inurba_marseille","lat":43.307615,"lon":5.395641,"is_reserved":false,"is_disabled":false,"rental_uris":{"android":"levelo://app?vid=29e4ebc2-0f9c-44ab-81cd-510a54dca360","ios":"levelo://app?vid=29e4ebc2-0f9c-44ab-81cd-510a54dca360"},"vehicle_type_id":"4","last_reported":1736896090,"current_range_meters":16000,"station_id":"","pricing_plan_id":"cebpf4jnsgd1na2vs0mg"},{"bike_id":"95782452-6d63-44bd-8da4-3394a66d4b35","system_id":"levelo_inurba_marseille","lat":43.2586,"lon":5.39876,"is_reserved":false,"is_disabled":false,"rental_uris":{"android":"levelo://app?vid=95782452-6d63-44bd-8da4-3394a66d4b35","ios":"levelo://app?vid=95782452-6d63-44bd-8da4-3394a66d4b35"},"vehicle_type_id":"4","last_reported":1736896090,"current_range_meters":31200,"station_id":"ce4bhl92rcd13ifvqghg","pricing_plan_id":"cebpf4jnsgd1na2vs0mg"},{"bike_id":"6c02ae22-4e33-4b73-a0d5-7fa499611cc2","system_id":"levelo_inurba_marseille","lat":43.23157,"lon":5.43696,"is_reserved":false,"is_disabled":false,"rental_uris":{"android":"levelo://app?vid=6c02ae22-4e33-4b73-a0d5-7fa499611cc2","ios":"levelo://app?vid=6c02ae22-4e33-4b73-a0d5-7fa499611cc2"},"vehicle_type_id":"4","last_reported":1736896090,"current_range_meters":38800,"station_id":"ce4bhmp2rcd13ifvqgog","pricing_plan_id":"cebpf4jnsgd1na2vs0mg"},{"bike_id":"34b193ac-057b-47c8-a485-7e34c7ed0df8","system_id":"levelo_inurba_marseille","lat":43.24795,"lon":5.37476,"is_reserved":false,"is_disabled":false,"rental_uris":{"android":"levelo://app?vid=34b193ac-057b-47c8-a485-7e34c7ed0df8","ios":"levelo://app?vid=34b193ac-057b-47c8-a485-7e34c7ed0df8"},"vehicle_type_id":"4","last_reported":1736896090,"current_range_meters":38800,"station_id":"ce4bhgh2rcd13ifvqfb0","pricing_plan_id":"cebpf4jnsgd1na2vs0mg"},{"bike_id":"bc8363a9-44bb-436b-892e-384302a6e2fa","system_id":"levelo_inurba_marseille","lat":43.25505,"lon":5.37646,"is_reserved":false,"is_disabled":false,"rental_uris":{"android":"levelo://app?vid=bc8363a9-44bb-436b-892e-384302a6e2fa","ios":"levelo://app?vid=bc8363a9-44bb-436b-892e-384302a6e2fa"},"vehicle_type_id":"4","last_reported":1736896090,"current_range_meters":38800,"station_id":"ce4bhh12rcd13ifvqff0","pricing_plan_id":"cebpf4jnsgd1na2vs0mg"},{"bike_id":"8e0499ea-662e-47b6-9895-fccb25a5f954","system_id":"levelo_inurba_marseille","lat":43.29544,"lon":5.39392,"is_reserved":false,"is_disabled":true,"rental_uris":{"android":"levelo://app?vid=8e0499ea-662e-47b6-9895-fccb25a5f954","ios":"levelo://app?vid=8e0499ea-662e-47b6-9895-fccb25a5f954"},"vehicle_type_id":"4","last_reported":1736896090,"current_range_meters":1600,"station_id":"ce4bh292rcd13ifvqdf0","pricing_plan_id":"cebpf4jnsgd1na2vs0mg"},{"bike_id":"c15f24fd-270c-49ce-be5d-511315904b57","system_id":"levelo_inurba_marseille","lat":43.29906,"lon":5.43656,"is_reserved":false,"is_disabled":true,"rental_uris":{"android":"levelo://app?vid=c15f24fd-270c-49ce-be5d-511315904b57","ios":"levelo://app?vid=c15f24fd-270c-49ce-be5d-511315904b57"},"vehicle_type_id":"4","last_reported":1736896090,"current_range_meters":400,"station_id":"ce4bhpp2rcd13ifvqhfg","pricing_plan_id":"cebpf4jnsgd1na2vs0mg"},{"bike_id":"396cfc53-8d81-444f-aa43-e06bd62a97b5","system_id":"levelo_inurba_marseille","lat":43.29041,"lon":5.35929,"is_reserved":false,"is_disabled":false,"rental_uris":{"android":"levelo://app?vid=396cfc53-8d81-444f-aa43-e06bd62a97b5","ios":"levelo://app?vid=396cfc53-8d81-444f-aa43-e06bd62a97b5"},"vehicle_type_id":"4","last_reported":1736896090,"current_range_meters":38400,"station_id":"ce4bha92rcd13ifvqeg0","pricing_plan_id":"cebpf4jnsgd1na2vs0mg"},{"bike_id":"0a3d4dfc-a4b7-4922-9ef4-32b1386df5d7","system_id":"levelo_inurba_marseille","lat":43.30897,"lon":5.36886,"is_reserved":false,"is_disabled":false,"rental_uris":{"android":"levelo://app?vid=0a3d4dfc-a4b7-4922-9ef4-32b1386df5d7","ios":"levelo://app?vid=0a3d4dfc-a4b7-4922-9ef4-32b1386df5d7"},"vehicle_type_id":"4","last_reported":1736896090,"current_range_meters":38800,"station_id":"ce4bgn92rcd13ifvqbvg","pricing_plan_id":"cebpf4jnsgd1na2vs0mg"},{"bike_id":"dee57209-f034-4d13-a2de-548e66d176b8","system_id":"levelo_inurba_marseille","lat":43.30216,"lon":5.3947,"is_reserved":false,"is_disabled":false,"rental_uris":{"android":"levelo://app?vid=dee57209-f034-4d13-a2de-548e66d176b8","ios":"levelo://app?vid=dee57209-f034-4d13-a2de-548e66d176b8"},"vehicle_type_id":"4","last_reported":1736896090,"current_range_meters":17200,"station_id":"ce4bh0p2rcd13ifvqd70","pricing_plan_id":"cebpf4jnsgd1na2vs0mg"},{"bike_id":"41922604-c7b8-4e93-9da5-3903771d7233","system_id":"levelo_inurba_marseille","lat":43.24815,"lon":5.37455,"is_reserved":false,"is_disabled":false,"rental_uris":{"android":"levelo://app?vid=41922604-c7b8-4e93-9da5-3903771d7233","ios":"levelo://app?vid=41922604-c7b8-4e93-9da5-3903771d7233"},"vehicle_type_id":"4","last_reported":1736896090,"current_range_meters":19600,"station_id":"ce4bhgh2rcd13ifvqfb0","pricing_plan_id":"cebpf4jnsgd1na2vs0mg"},{"bike_id":"f0e30617-a36d-498e-834f-c89fc54c5029","system_id":"levelo_inurba_marseille","lat":43.28101,"lon":5.37826,"is_reserved":false,"is_disabled":false,"rental_uris":{"android":"levelo://app?vid=f0e30617-a36d-498e-834f-c89fc54c5029","ios":"levelo://app?vid=f0e30617-a36d-498e-834f-c89fc54c5029"},"vehicle_type_id":"4","last_reported":1736896090,"current_range_meters":10000,"station_id":"ce4bha12rcd13ifvqee0","pricing_plan_id":"cebpf4jnsgd1na2vs0mg"},{"bike_id":"f94df94d-bc8f-423a-851a-769fb61ed24d","system_id":"levelo_inurba_marseille","lat":43.26546,"lon":5.37316,"is_reserved":false,"is_disabled":false,"rental_uris":{"android":"levelo://app?vid=f94df94d-bc8f-423a-851a-769fb61ed24d","ios":"levelo://app?vid=f94df94d-bc8f-423a-851a-769fb61ed24d"},"vehicle_type_id":"4","last_reported":1736896090,"current_range_meters":26800,"station_id":"ce4bhg12rcd13ifvqf70","pricing_plan_id":"cebpf4jnsgd1na2vs0mg"},{"bike_id":"3f344b4f-46e7-4462-b5ea-bdecf2466551","system_id":"levelo_inurba_marseille","lat":43.25583,"lon":5.38234,"is_reserved":false,"is_disabled":false,"rental_uris":{"android":"levelo://app?vid=3f344b4f-46e7-4462-b5ea-bdecf2466551","ios":"levelo://app?vid=3f344b4f-46e7-4462-b5ea-bdecf2466551"},"vehicle_type_id":"4","last_reported":1736896090,"current_range_meters":34000,"station_id":"ce4bhih2rcd13ifvqfs0","pricing_plan_id":"cebpf4jnsgd1na2vs0mg"},{"bike_id":"0f129089-937b-4f05-82e6-85c9ff5db471","system_id":"levelo_inurba_marseille","lat":43.29092,"lon":5.38135,"is_reserved":false,"is_disabled":false,"rental_uris":{"android":"levelo://app?vid=0f129089-937b-4f05-82e6-85c9ff5db471","ios":"levelo://app?vid=0f129089-937b-4f05-82e6-85c9ff5db471"},"vehicle_type_id":"4","last_reported":1736896090,"current_range_meters":38000,"station_id":"ce4bh512rcd13ifvqe2g","pricing_plan_id":"cebpf4jnsgd1na2vs0mg"},{"bike_id":"4664d682-d2a2-4c58-8a64-94ecabb55cb1","system_id":"levelo_inurba_marseille","lat":43.28709,"lon":5.39987,"is_reserved":false,"is_disabled":false,"rental_uris":{"android":"levelo://app?vid=4664d682-d2a2-4c58-8a64-94ecabb55cb1","ios":"levelo://app?vid=4664d682-d2a2-4c58-8a64-94ecabb55cb1"},"vehicle_type_id":"4","last_reported":1736896090,"current_range_meters":24400,"station_id":"ce4bho92rcd13ifvqh3g","pricing_plan_id":"cebpf4jnsgd1na2vs0mg"},{"bike_id":"b22d77c3-f37f-47b6-bfd3-17f35050e9db","system_id":"levelo_inurba_marseille","lat":43.27629,"lon":5.36115,"is_reserved":false,"is_disabled":false,"rental_uris":{"android":"levelo://app?vid=b22d77c3-f37f-47b6-bfd3-17f35050e9db","ios":"levelo://app?vid=b22d77c3-f37f-47b6-bfd3-17f35050e9db"},"vehicle_type_id":"4","last_reported":1736896090,"current_range_meters":6000,"station_id":"ce4bgj92rcd13ifvqbe0","pricing_plan_id":"cebpf4jnsgd1na2vs0mg"},{"bike_id":"70a4d228-2c41-4af9-a3eb-23abb00e4e21","system_id":"levelo_inurba_marseille","lat":43.26062,"lon":5.39367,"is_reserved":false,"is_disabled":false,"rental_uris":{"android":"levelo://app?vid=70a4d228-2c41-4af9-a3eb-23abb00e4e21","ios":"levelo://app?vid=70a4d228-2c41-4af9-a3eb-23abb00e4e21"},"vehicle_type_id":"4","last_reported":1736896090,"current_range_meters":11200,"station_id":"ce4bhh92rcd13ifvqfj0","pricing_plan_id":"cebpf4jnsgd1na2vs0mg"},{"bike_id":"7eb8b965-e1f1-43a3-b9c8-6888e1b223ff","system_id":"levelo_inurba_marseille","lat":43.28093,"lon":5.37823,"is_reserved":false,"is_disabled":false,"rental_uris":{"android":"levelo://app?vid=7eb8b965-e1f1-43a3-b9c8-6888e1b223ff","ios":"levelo://app?vid=7eb8b965-e1f1-43a3-b9c8-6888e1b223ff"},"vehicle_type_id":"4","last_reported":1736896090,"current_range_meters":38800,"station_id":"ce4bha12rcd13ifvqee0","pricing_plan_id":"cebpf4jnsgd1na2vs0mg"},{"bike_id":"4843d188-c79e-4486-9700-c73fbd1e4a3f","system_id":"levelo_inurba_marseille","lat":43.243861,"lon":5.370599,"is_reserved":false,"is_disabled":false,"rental_uris":{"android":"levelo://app?vid=4843d188-c79e-4486-9700-c73fbd1e4a3f","ios":"levelo://app?vid=4843d188-c79e-4486-9700-c73fbd1e4a3f"},"vehicle_type_id":"4","last_reported":1736896090,"current_range_meters":22800,"station_id":"ce4bhhh2rcd13ifvqfk0","pricing_plan_id":"cebpf4jnsgd1na2vs0mg"},{"bike_id":"14005555-a054-4d6c-af28-c6da3322f86f","system_id":"levelo_inurba_marseille","lat":43.29708,"lon":5.36614,"is_reserved":false,"is_disabled":false,"rental_uris":{"android":"levelo://app?vid=14005555-a054-4d6c-af28-c6da3322f86f","ios":"levelo://app?vid=14005555-a054-4d6c-af28-c6da3322f86f"},"vehicle_type_id":"4","last_reported":1736896090,"current_range_meters":21600,"station_id":"ce4bgn12rcd13ifvqbt0","pricing_plan_id":"cebpf4jnsgd1na2vs0mg"},{"bike_id":"f260e061-43bc-4e6f-acda-2dbabcdbc9a9","system_id":"levelo_inurba_marseille","lat":43.28417,"lon":5.3752,"is_reserved":false,"is_disabled":false,"rental_uris":{"android":"levelo://app?vid=f260e061-43bc-4e6f-acda-2dbabcdbc9a9","ios":"levelo://app?vid=f260e061-43bc-4e6f-acda-2dbabcdbc9a9"},"vehicle_type_id":"4","last_reported":1736896090,"current_range_meters":22400,"station_id":"ce4bh412rcd13ifvqds0","pricing_plan_id":"cebpf4jnsgd1na2vs0mg"},{"bike_id":"ee9363dc-1650-473c-b480-161b83616e2c","system_id":"levelo_inurba_marseille","lat":43.30809,"lon":5.38143,"is_reserved":false,"is_disabled":false,"rental_uris":{"android":"levelo://app?vid=ee9363dc-1650-473c-b480-161b83616e2c","ios":"levelo://app?vid=ee9363dc-1650-473c-b480-161b83616e2c"},"vehicle_type_id":"4","last_reported":1736896090,"current_range_meters":28800,"station_id":"ce4bgt12rcd13ifvqce0","pricing_plan_id":"cebpf4jnsgd1na2vs0mg"},{"bike_id":"57998610-98f9-4435-8970-1a92404a61da","system_id":"levelo_inurba_marseille","lat":43.3126,"lon":5.4017,"is_reserved":false,"is_disabled":false,"rental_uris":{"android":"levelo://app?vid=57998610-98f9-4435-8970-1a92404a61da","ios":"levelo://app?vid=57998610-98f9-4435-8970-1a92404a61da"},"vehicle_type_id":"4","last_reported":1736896090,"current_range_meters":38000,"station_id":"ce4bh092rcd13ifvqd30","pricing_plan_id":"cebpf4jnsgd1na2vs0mg"},{"bike_id":"80299236-f331-4f49-a4b9-156b49427d75","system_id":"levelo_inurba_marseille","lat":43.25119,"lon":5.40316,"is_reserved":false,"is_disabled":false,"rental_uris":{"android":"levelo://app?vid=80299236-f331-4f49-a4b9-156b49427d75","ios":"levelo://app?vid=80299236-f331-4f49-a4b9-156b49427d75"},"vehicle_type_id":"4","last_reported":1736896090,"current_range_meters":11200,"station_id":"ce4bhlh2rcd13ifvqgig","pricing_plan_id":"cebpf4jnsgd1na2vs0mg"},{"bike_id":"ddac84b7-8a0b-4583-b400-dc6df08096b0","system_id":"levelo_inurba_marseille","lat":43.28667,"lon":5.36353,"is_reserved":false,"is_disabled":false,"rental_uris":{"android":"levelo://app?vid=ddac84b7-8a0b-4583-b400-dc6df08096b0","ios":"levelo://app?vid=ddac84b7-8a0b-4583-b400-dc6df08096b0"},"vehicle_type_id":"4","last_reported":1736896090,"current_range_meters":34000,"station_id":"ce4bhah2rcd13ifvqej0","pricing_plan_id":"cebpf4jnsgd1na2vs0mg"},{"bike_id":"30290618-ebdd-418c-aa09-50db74d34543","system_id":"levelo_inurba_marseille","lat":43.26209,"lon":5.37912,"is_reserved":false,"is_disabled":false,"rental_uris":{"android":"levelo://app?vid=30290618-ebdd-418c-aa09-50db74d34543","ios":"levelo://app?vid=30290618-ebdd-418c-aa09-50db74d34543"},"vehicle_type_id":"4","last_reported":1736896090,"current_range_meters":38000,"station_id":"ce4bhjp2rcd13ifvqg90","pricing_plan_id":"cebpf4jnsgd1na2vs0mg"},{"bike_id":"72f0915e-b553-41ad-a592-47bfd9249380","system_id":"levelo_inurba_marseille","lat":43.30142,"lon":5.39838,"is_reserved":false,"is_disabled":false,"rental_uris":{"android":"levelo://app?vid=72f0915e-b553-41ad-a592-47bfd9249380","ios":"levelo://app?vid=72f0915e-b553-41ad-a592-47bfd9249380"},"vehicle_type_id":"4","last_reported":1736896090,"current_range_meters":39200,"station_id":"ce4bh0h2rcd13ifvqd40","pricing_plan_id":"cebpf4jnsgd1na2vs0mg"},{"bike_id":"5c465767-7514-4f5e-9022-19ed51b6f9c5","system_id":"levelo_inurba_marseille","lat":43.27949,"lon":5.41059,"is_reserved":false,"is_disabled":false,"rental_uris":{"android":"levelo://app?vid=5c465767-7514-4f5e-9022-19ed51b6f9c5","ios":"levelo://app?vid=5c465767-7514-4f5e-9022-19ed51b6f9c5"},"vehicle_type_id":"4","last_reported":1736896090,"current_range_meters":35200,"station_id":"ce4bhnp2rcd13ifvqh0g","pricing_plan_id":"cebpf4jnsgd1na2vs0mg"},{"bike_id":"a250e963-8008-4270-aa11-83a5f2bcf506","system_id":"levelo_inurba_marseille","lat":43.29633,"lon":5.40602,"is_reserved":false,"is_disabled":false,"rental_uris":{"android":"levelo://app?vid=a250e963-8008-4270-aa11-83a5f2bcf506","ios":"levelo://app?vid=a250e963-8008-4270-aa11-83a5f2bcf506"},"vehicle_type_id":"4","last_reported":1736896090,"current_range_meters":28000,"station_id":"ce4bh0h2rcd13ifvqd60","pricing_plan_id":"cebpf4jnsgd1na2vs0mg"},{"bike_id":"c0fd2063-31ae-4171-af17-771dbb4fa212","system_id":"levelo_inurba_marseille","lat":43.2295,"lon":5.3538,"is_reserved":false,"is_disabled":false,"rental_uris":{"android":"levelo://app?vid=c0fd2063-31ae-4171-af17-771dbb4fa212","ios":"levelo://app?vid=c0fd2063-31ae-4171-af17-771dbb4fa212"},"vehicle_type_id":"4","last_reported":1736896090,"current_range_meters":38800,"station_id":"cpo3532slgdg3j2ikp40","pricing_plan_id":"cebpf4jnsgd1na2vs0mg"},{"bike_id":"2e9b9866-96d8-42ce-9e9d-6fd090fc9108","system_id":"levelo_inurba_marseille","lat":43.28702,"lon":5.37386,"is_reserved":false,"is_disabled":false,"rental_uris":{"android":"levelo://app?vid=2e9b9866-96d8-42ce-9e9d-6fd090fc9108","ios":"levelo://app?vid=2e9b9866-96d8-42ce-9e9d-6fd090fc9108"},"vehicle_type_id":"4","last_reported":1736896090,"current_range_meters":36400,"station_id":"ce4bh3p2rcd13ifvqdq0","pricing_plan_id":"cebpf4jnsgd1na2vs0mg"},{"bike_id":"4897fcbc-2cc4-42db-ac77-8d5e4278ffcb","system_id":"levelo_inurba_marseille","lat":43.23194,"lon":5.35555,"is_reserved":false,"is_disabled":false,"rental_uris":{"android":"levelo://app?vid=4897fcbc-2cc4-42db-ac77-8d5e4278ffcb","ios":"levelo://app?vid=4897fcbc-2cc4-42db-ac77-8d5e4278ffcb"},"vehicle_type_id":"4","last_reported":1736896090,"current_range_meters":26800,"station_id":"ce4bhu92rcd13ifvqi70","pricing_plan_id":"cebpf4jnsgd1na2vs0mg"},{"bike_id":"49859924-9449-4404-b4e0-04b6ddce7f36","system_id":"levelo_inurba_marseille","lat":43.273714,"lon":5.362528,"is_reserved":false,"is_disabled":false,"rental_uris":{"android":"levelo://app?vid=49859924-9449-4404-b4e0-04b6ddce7f36","ios":"levelo://app?vid=49859924-9449-4404-b4e0-04b6ddce7f36"},"vehicle_type_id":"4","last_reported":1736896090,"current_range_meters":38800,"station_id":"ce4bhbh2rcd13ifvqeo0","pricing_plan_id":"cebpf4jnsgd1na2vs0mg"},{"bike_id":"840547b1-f005-469f-a394-c76e534ac878","system_id":"levelo_inurba_marseille","lat":43.28558,"lon":5.39506,"is_reserved":false,"is_disabled":false,"rental_uris":{"android":"levelo://app?vid=840547b1-f005-469f-a394-c76e534ac878","ios":"levelo://app?vid=840547b1-f005-469f-a394-c76e534ac878"},"vehicle_type_id":"4","last_reported":1736896090,"current_range_meters":14400,"station_id":"ce4bh292rcd13ifvqdg0","pricing_plan_id":"cebpf4jnsgd1na2vs0mg"},{"bike_id":"e78ccd7e-e2d0-4e2a-aeb3-fa8c118a0bce","system_id":"levelo_inurba_marseille","lat":43.30424,"lon":5.38888,"is_reserved":false,"is_disabled":false,"rental_uris":{"android":"levelo://app?vid=e78ccd7e-e2d0-4e2a-aeb3-fa8c118a0bce","ios":"levelo://app?vid=e78ccd7e-e2d0-4e2a-aeb3-fa8c118a0bce"},"vehicle_type_id":"4","last_reported":1736896090,"current_range_meters":22000,"station_id":"ce4bgk12rcd13ifvqbi0","pricing_plan_id":"cebpf4jnsgd1na2vs0mg"},{"bike_id":"1b22370e-68ef-49e7-8d36-f18a88671a32","system_id":"levelo_inurba_marseille","lat":43.31779,"lon":5.38991,"is_reserved":false,"is_disabled":false,"rental_uris":{"android":"levelo://app?vid=1b22370e-68ef-49e7-8d36-f18a88671a32","ios":"levelo://app?vid=1b22370e-68ef-49e7-8d36-f18a88671a32"},"vehicle_type_id":"4","last_reported":1736896090,"current_range_meters":16800,"station_id":"ce4bhqp2rcd13ifvqhng","pricing_plan_id":"cebpf4jnsgd1na2vs0mg"},