{"last_updated":1738879737,"ttl":60,"version":"2.2","data":{"bikes":[{"bike_id":"db4b218d-9438-4270-bcf3-af6f1dcaab15","system_id":"levelo_inurba_marseille","lat":43.30139,"lon":5.3877,"is_reserved":false,"is_disabled":false,"rental_uris":{"android":"levelo://app?vid=db4b218d-9438-4270-bcf3-af6f1dcaab15","ios":"levelo://app?vid=db4b218d-9438-4270-bcf3-af6f1dcaab15"},"vehicle_type_id":"4","last_reported":1738879737,"current_range_meters":38800,"station_id":"ce4bhoh2rcd13ifvqh6g","pricing_plan_id":"cebpf4jnsgd1na2vs0mg"},{"bike_id":"08ec1db3-50b8-49a9-be0f-8c26968d786b","system_id":"levelo_inurba_marseille","lat":43.28155,"lon":5.42646,"is_reserved":false,"is_disabled":false,"rental_uris":{"android":"levelo://app?vid=08ec1db3-50b8-49a9-be0f-8c26968d786b","ios":"levelo://app?vid=08ec1db3-50b8-49a9-be0f-8c26968d786b"},"vehicle_type_id":"4","last_reported":1738879737,"current_range_meters":9600,"station_id":"ce4bhnh2rcd13ifvqgug","pricing_plan_id":"cebpf4jnsgd1na2vs0mg"},{"bike_id":"c5f5a10d-c4ee-4670-855c-f90b9203bdb7","system_id":"levelo_inurba_marseille","lat":43.29526,"lon":5.39042,"is_reserved":false,"is_disabled":false,"rental_uris":{"android":"levelo://app?vid=c5f5a10d-c4ee-4670-855c-f90b9203bdb7","ios":"levelo://app?vid=c5f5a10d-c4ee-4670-855c-f90b9203bdb7"},"vehicle_type_id":"4","last_reported":1738879737,"current_range_meters":38000,"station_id":"ce4bh3p2rcd13ifvqdp0","pricing_plan_id":"cebpf4jnsgd1na2vs0mg"},{"bike_id":"958e9408-3870-499c-b82c-ad0ef4ec2d1e","system_id":"levelo_inurba_marseille","lat":43.27567,"lon":5.38416,"is_reserved":false,"is_disabled":false,"rental_uris":{"android":"levelo://app?vid=958e9408-3870-499c-b82c-ad0ef4ec2d1e","ios":"levelo://app?vid=958e9408-3870-499c-b82c-ad0ef4ec2d1e"},"vehicle_type_id":"4","last_reported":1738879737,"current_range_meters":16000,"station_id":"ce4bhh92rcd13ifvqfi0","pricing_plan_id":"cebpf4jnsgd1na2vs0mg"},{"bike_id":"0467a076-a2ad-41b7-a012-e38470b2d7f6","system_id":"levelo_inurba_marseille","lat":43.25008,"lon":5.38934,"is_reserved":false,"is_disabled":false,"rental_uris":{"android":"levelo://app?vid=0467a076-a2ad-41b7-a012-e38470b2d7f6","ios":"levelo://app?vid=0467a076-a2ad-41b7-a012-e38470b2d7f6"},"vehicle_type_id":"4","last_reported":1738879737,"current_range_meters":9200,"station_id":"ce4bhgp2rcd13ifvqfd0","pricing_plan_id":"cebpf4jnsgd1na2vs0mg"},{"bike_id":"be705775-04f7-400d-8bfb-76939f588fed","system_id":"levelo_inurba_marseille","lat":43.30535,"lon":5.36714,"is_reserved":false,"is_disabled":false,"rental_uris":{"android":"levelo://app?vid=be705775-04f7-400d-8bfb-76939f588fed","ios":"levelo://app?vid=be705775-04f7-400d-8bfb-76939f588fed"},"vehicle_type_id":"4","last_reported":1738879737,"current_range_meters":38800,"station_id":"ce4bgrp2rcd13ifvqc9g","pricing_plan_id":"cebpf4jnsgd1na2vs0mg"},{"bike_id":"6f1b8212-3f5a-4978-864e-5e174cc6fd25","system_id":"levelo_inurba_marseille","lat":43.29561,"lon":5.42285,"is_reserved":false,"is_disabled":false,"rental_uris":{"android":"levelo://app?vid=6f1b8212-3f5a-4978-864e-5e174cc6fd25","ios":"levelo://app?vid=6f1b8212-3f5a-4978-864e-5e174cc6fd25"},"vehicle_type_id":"4","last_reported":1738879737,"current_range_meters":38800,"station_id":"ce4bhph2rcd13ifvqhdg","pricing_plan_id":"cebpf4jnsgd1na2vs0mg"},{"bike_id":"0b370460-2bdc-4346-a1f4-7aeb9dd2a707","system_id":"levelo_inurba_marseille","lat":43.28632,"lon":5.39138,"is_reserved":false,"is_disabled":true,"rental_uris":{"android":"levelo://app?vid=0b370460-2bdc-4346-a1f4-7aeb9dd2a707","ios":"levelo://app?vid=0b370460-2bdc-4346-a1f4-7aeb9dd2a707"},"vehicle_type_id":"4","last_reported":1738879737,"current_range_meters":17600,"station_id":"","pricing_plan_id":"cebpf4jnsgd1na2vs0mg"},{"bike_id":"7fd47275-2594-47ff-96d0-51746e5bc128","system_id":"levelo_inurba_marseille","lat":43.30656,"lon":5.40087,"is_reserved":false,"is_disabled":true,"rental_uris":{"android":"levelo://app?vid=7fd47275-2594-47ff-96d0-51746e5bc128","ios":"levelo://app?vid=7fd47275-2594-47ff-96d0-51746e5bc128"},"vehicle_type_id":"4","last_reported":1738879737,"current_range_meters":18000,"station_id":"ce4bh112rcd13ifvqda0","pricing_plan_id":"cebpf4jnsgd1na2vs0mg"},{"bike_id":"9094078c-7c29-411d-8877-ca6848fb2f24","system_id":"levelo_inurba_marseille","lat":43.27899,"lon":5.38004,"is_reserved":false,"is_disabled":false,"rental_uris":{"android":"levelo://app?vid=9094078c-7c29-411d-8877-ca6848fb2f24","ios":"levelo://app?vid=9094078c-7c29-411d-8877-ca6848fb2f24"},"vehicle_type_id":"4","last_reported":1738879737,"current_range_meters":12800,"station_id":"ce4bhf92rcd13ifvqf50","pricing_plan_id":"cebpf4jnsgd1na2vs0mg"},{"bike_id":"f224af74-9b7e-4ae7-aac2-7b0732825e02","system_id":"levelo_inurba_marseille","lat":43.28968,"lon":5.36419,"is_reserved":false,"is_disabled":false,"rental_uris":{"android":"levelo://app?vid=f224af74-9b7e-4ae7-aac2-7b0732825e02","ios":"levelo://app?vid=f224af74-9b7e-4ae7-aac2-7b0732825e02"},"vehicle_type_id":"4","last_reported":1738879737,"current_range_meters":32400,"station_id":"ce4bhc92rcd13ifvqetg","pricing_plan_id":"cebpf4jnsgd1na2vs0mg"},{"bike_id":"41748c4d-fb7e-4f03-a7ef-71bbf6c5209c","system_id":"levelo_inurba_marseille","lat":43.24826,"lon":5.37441,"is_reserved":false,"is_disabled":false,"rental_uris":{"android":"levelo://app?vid=41748c4d-fb7e-4f03-a7ef-71bbf6c5209c","ios":"levelo://app?vid=41748c4d-fb7e-4f03-a7ef-71bbf6c5209c"},"vehicle_type_id":"4","last_reported":1738879737,"current_range_meters":39200,"station_id":"ce4bhgh2rcd13ifvqfb0","pricing_plan_id":"cebpf4jnsgd1na2vs0mg"},{"bike_id":"7154d5c9-ff59-4592-8b06-77bf24ef3756","system_id":"levelo_inurba_marseille","lat":43.28276,"lon":5.35058,"is_reserved":false,"is_disabled":false,"rental_uris":{"android":"levelo://app?vid=7154d5c9-ff59-4592-8b06-77bf24ef3756","ios":"levelo://app?vid=7154d5c9-ff59-4592-8b06-77bf24ef3756"},"vehicle_type_id":"4","last_reported":1738879737,"current_range_meters":18000,"station_id":"ce4bhbp2rcd13ifvqerg","pricing_plan_id":"cebpf4jnsgd1na2vs0mg"},{"bike_id":"6f04d73e-532c-42e9-a3a3-3d4f63a566aa","system_id":"levelo_inurba_marseille","lat":43.28695,"lon":5.37397,"is_reserved":false,"is_disabled":false,"rental_uris":{"android":"levelo://app?vid=6f04d73e-532c-42e9-a3a3-3d4f63a566aa","ios":"levelo://app?vid=6f04d73e-532c-42e9-a3a3-3d4f63a566aa"},"vehicle_type_id":"4","last_reported":1738879737,"current_range_meters":24800,"station_id":"ce4bh3p2rcd13ifvqdq0","pricing_plan_id":"cebpf4jnsgd1na2vs0mg"},{"bike_id":"0f8e9dff-9174-4729-992b-495657e0a2f0","system_id":"levelo_inurba_marseille","lat":43.31275,"lon":5.40178,"is_reserved":false,"is_disabled":false,"rental_uris":{"android":"levelo://app?vid=0f8e9dff-9174-4729-992b-495657e0a2f0","ios":"levelo://app?vid=0f8e9dff-9174-4729-992b-495657e0a2f0"},"vehicle_type_id":"4","last_reported":1738879737,"current_range_meters":38800,"station_id":"ce4bh092rcd13ifvqd30","pricing_plan_id":"cebpf4jnsgd1na2vs0mg"},{"bike_id":"0521076d-89e5-4efb-a71f-28a944f7d235","system_id":"levelo_inurba_marseille","lat":43.28701,"lon":5.37394,"is_reserved":false,"is_disabled":false,"rental_uris":{"android":"levelo://app?vid=0521076d-89e5-4efb-a71f-28a944f7d235","ios":"levelo://app?vid=0521076d-89e5-4efb-a71f-28a944f7d235"},"vehicle_type_id":"4","last_reported":1738879737,"current_range_meters":19600,"station_id":"ce4bh3p2rcd13ifvqdq0","pricing_plan_id":"cebpf4jnsgd1na2vs0mg"},{"bike_id":"6bd15c5e-d6b2-43ab-8fc9-854cbe9e9385","system_id":"levelo_inurba_marseille","lat":43.26073,"lon":5.39388,"is_reserved":false,"is_disabled":false,"rental_uris":{"android":"levelo://app?vid=6bd15c5e-d6b2-43ab-8fc9-854cbe9e9385","ios":"levelo://app?vid=6bd15c5e-d6b2-43ab-8fc9-854cbe9e9385"},"vehicle_type_id":"4","last_reported":1738879737,"current_range_meters":38400,"station_id":"ce4bhh92rcd13ifvqfj0","pricing_plan_id":"cebpf4jnsgd1na2vs0mg"},{"bike_id":"af5cc240-0e1d-4647-9b71-eb1c24f51a5e","system_id":"levelo_inurba_marseille","lat":43.31764,"lon":5.39012,"is_reserved":false,"is_disabled":false,"rental_uris":{"android":"levelo://app?vid=af5cc240-0e1d-4647-9b71-eb1c24f51a5e","ios":"levelo://app?vid=af5cc240-0e1d-4647-9b71-eb1c24f51a5e"},"vehicle_type_id":"4","last_reported":1738879737,"current_range_meters":39200,"station_id":"ce4bhqp2rcd13ifvqhng","pricing_plan_id":"cebpf4jnsgd1na2vs0mg"},{"bike_id":"b6038bf6-a60e-4517-af65-a3f8a3c7d9bd","system_id":"levelo_inurba_marseille","lat":43.2977,"lon":5.3708,"is_reserved":false,"is_disabled":false,"rental_uris":{"android":"levelo://app?vid=b6038bf6-a60e-4517-af65-a3f8a3c7d9bd","ios":"levelo://app?vid=b6038bf6-a60e-4517-af65-a3f8a3c7d9bd"},"vehicle_type_id":"4","last_reported":1738879737,"current_range_meters":38800,"station_id":"ce4bgop2rcd13ifvqc1g","pricing_plan_id":"cebpf4jnsgd1na2vs0mg"},{"bike_id":"29dc613f-7b6c-4145-bb1c-40741bbab566","system_id":"levelo_inurba_marseille","lat":43.261881,"lon":5.373584,"is_reserved":false,"is_disabled":false,"rental_uris":{"android":"levelo://app?vid=29dc613f-7b6c-4145-bb1c-40741bbab566","ios":"levelo://app?vid=29dc613f-7b6c-4145-bb1c-40741bbab566"},"vehicle_type_id":"4","last_reported":1738879737,"current_range_meters":38000,"station_id":"ce4bhgp2rcd13ifvqfc0","pricing_plan_id":"cebpf4jnsgd1na2vs0mg"},{"bike_id":"72b61fb7-4ed5-4d6d-80b8-accda78616d6","system_id":"levelo_inurba_marseille","lat":43.29272,"lon":5.38435,"is_reserved":false,"is_disabled":false,"rental_uris":{"android":"levelo://app?vid=72b61fb7-4ed5-4d6d-80b8-accda78616d6","ios":"levelo://app?vid=72b61fb7-4ed5-4d6d-80b8-accda78616d6"},"vehicle_type_id":"4","last_reported":1738879737,"current_range_meters":16400,"station_id":"ce4bh692rcd13ifvqea0","pricing_plan_id":"cebpf4jnsgd1na2vs0mg"},{"bike_id":"aa874f21-4899-4c94-ac56-d6c355723cbb","system_id":"levelo_inurba_marseille","lat":43.23198,"lon":5.40002,"is_reserved":false,"is_disabled":false,"rental_uris":{"android":"levelo://app?vid=aa874f21-4899-4c94-ac56-d6c355723cbb","ios":"levelo://app?vid=aa874f21-4899-4c94-ac56-d6c355723cbb"},"vehicle_type_id":"4","last_reported":1738879737,"current_range_meters":36400,"station_id":"ce4bhn12rcd13ifvqgqg","pricing_plan_id":"cebpf4jnsgd1na2vs0mg"},{"bike_id":"19b11498-b7da-498a-a065-c091cc335a9f","system_id":"levelo_inurba_marseille","lat":43.23192,"lon":5.39986,"is_reserved":false,"is_disabled":false,"rental_uris":{"android":"levelo://app?vid=19b11498-b7da-498a-a065-c091cc335a9f","ios":"levelo://app?vid=19b11498-b7da-498a-a065-c091cc335a9f"},"vehicle_type_id":"4","last_reported":1738879737,"current_range_meters":34000,"station_id":"ce4bhn12rcd13ifvqgqg","pricing_plan_id":"cebpf4jnsgd1na2vs0mg"},{"bike_id":"9c85a7b4-eb48-4493-bcf1-b25957546ccd","system_id":"levelo_inurba_marseille","lat":43.25113,"lon":5.4031,"is_reserved":false,"is_disabled":false,"rental_uris":{"android":"levelo://app?vid=9c85a7b4-eb48-4493-bcf1-b25957546ccd","ios":"levelo://app?vid=9c85a7b4-eb48-4493-bcf1-b25957546ccd"},"vehicle_type_id":"4","last_reported":1738879737,"current_range_meters":12800,"station_id":"ce4bhlh2rcd13ifvqgig","pricing_plan_id":"cebpf4jnsgd1na2vs0mg"},{"bike_id":"292533cb-ddd3-4c4d-9a1b-dbf511130817","system_id":"levelo_inurba_marseille","lat":43.29394,"lon":5.39734,"is_reserved":false,"is_disabled":false,"rental_uris":{"android":"levelo://app?vid=292533cb-ddd3-4c4d-9a1b-dbf511130817","ios":"levelo://app?vid=292533cb-ddd3-4c4d-9a1b-dbf511130817"},"vehicle_type_id":"4","last_reported":1738879737,"current_range_meters":38800,"station_id":"ce4bh3h2rcd13ifvqdo0","pricing_plan_id":"cebpf4jnsgd1na2vs0mg"},{"bike_id":"18f1cef3-3663-430c-bbc1-84c95be2f643","system_id":"levelo_inurba_marseille","lat":43.28089,"lon":5.39638,"is_reserved":false,"is_disabled":false,"rental_uris":{"android":"levelo://app?vid=18f1cef3-3663-430c-bbc1-84c95be2f643","ios":"levelo://app?vid=18f1cef3-3663-430c-bbc1-84c95be2f643"},"vehicle_type_id":"4","last_reported":1738879737,"current_range_meters":38400,"station_id":"ce4bho12rcd13ifvqh2g","pricing_plan_id":"cebpf4jnsgd1na2vs0mg"},{"bike_id":"d0912284-7d68-4397-a466-0da512ff614b","system_id":"levelo_inurba_marseille","lat":43.2932,"lon":5.37191,"is_reserved":false,"is_disabled":false,"rental_uris":{"android":"levelo://app?vid=d0912284-7d68-4397-a466-0da512ff614b","ios":"levelo://app?vid=d0912284-7d68-4397-a466-0da512ff614b"},"vehicle_type_id":"4","last_reported":1738879737,"current_range_meters":32000,"station_id":"ce4bgh92rcd13ifvqb40","pricing_plan_id":"cebpf4jnsgd1na2vs0mg"},{"bike_id":"422d1ae9-3f23-4c23-952d-112dc4aaa449","system_id":"levelo_inurba_marseille","lat":43.29789,"lon":5.38062,"is_reserved":false,"is_disabled":false,"rental_uris":{"android":"levelo://app?vid=422d1ae9-3f23-4c23-952d-112dc4aaa449","ios":"levelo://app?vid=422d1ae9-3f23-4c23-952d-112dc4aaa449"},"vehicle_type_id":"4","last_reported":1738879737,"current_range_meters":11600,"station_id":"ce4bgip2rcd13ifvqbb0","pricing_plan_id":"cebpf4jnsgd1na2vs0mg"},{"bike_id":"3be85885-399b-4fcf-a98b-a2dc250a18df","system_id":"levelo_inurba_marseille","lat":43.3169,"lon":5.40462,"is_reserved":false,"is_disabled":false,"rental_uris":{"android":"levelo://app?vid=3be85885-399b-4fcf-a98b-a2dc250a18df","ios":"levelo://app?vid=3be85885-399b-4fcf-a98b-a2dc250a18df"},"vehicle_type_id":"4","last_reported":1738879737,"current_range_meters":38800,"station_id":"ce4bh012rcd13ifvqd00","pricing_plan_id":"cebpf4jnsgd1na2vs0mg"},{"bike_id":"d327d221-a4ae-4ce7-8941-3960805fc399","system_id":"levelo_inurba_marseille","lat":43.33753,"lon":5.37475,"is_reserved":false,"is_disabled":true,"rental_uris":{"android":"levelo://app?vid=d327d221-a4ae-4ce7-8941-3960805fc399","ios":"levelo://app?vid=d327d221-a4ae-4ce7-8941-3960805fc399"},"vehicle_type_id":"4","last_reported":1738879737,"current_range_meters":32800,"station_id":"","pricing_plan_id":"cebpf4jnsgd1na2vs0mg"},{"bike_id":"f1067d17-a424-4230-ae9f-44f3b2dc5e74","system_id":"levelo_inurba_marseille","lat":43.24522,"lon":5.39512,"is_reserved":false,"is_disabled":false,"rental_uris":{"android":"levelo://app?vid=f1067d17-a424-4230-ae9f-44f3b2dc5e74","ios":"levelo://app?vid=f1067d17-a424-4230-ae9f-44f3b2dc5e74"},"vehicle_type_id":"4","last_reported":1738879737,"current_range_meters":6400,"station_id":"ce4bhlp2rcd13ifvqgjg","pricing_plan_id":"cebpf4jnsgd1na2vs0mg"},{"bike_id":"098d220b-e449-43ea-8d6d-9fc78e0abad9","system_id":"levelo_inurba_marseille","lat":43.22929,"lon":5.35387,"is_reserved":false,"is_disabled":false,"rental_uris":{"android":"levelo://app?vid=098d220b-e449-43ea-8d6d-9fc78e0abad9","ios":"levelo://app?vid=098d220b-e449-43ea-8d6d-9fc78e0abad9"},"vehicle_type_id":"4","last_reported":1738879737,"current_range_meters":38800,"station_id":"cpo3532slgdg3j2ikp40","pricing_plan_id":"cebpf4jnsgd1na2vs0mg"},{"bike_id":"3de2a62f-ee8b-4633-8581-80f610f7d857","system_id":"levelo_inurba_marseille","lat":43.2455,"lon":5.39568,"is_reserved":false,"is_disabled":true,"rental_uris":{"android":"levelo://app?vid=3de2a62f-ee8b-4633-8581-80f610f7d857","ios":"levelo://app?vid=3de2a62f-ee8b-4633-8581-80f610f7d857"},"vehicle_type_id":"4","last_reported":1738879737,"current_range_meters":0,"station_id":"","pricing_plan_id":"cebpf4jnsgd1na2vs0mg"},{"bike_id":"be421c02-a3f7-4811-ba3b-d0c382d493c0","system_id":"levelo_inurba_marseille","lat":43.28925,"lon":5.38395,"is_reserved":false,"is_disabled":false,"rental_uris":{"android":"levelo://app?vid=be421c02-a3f7-4811-ba3b-d0c382d493c0","ios":"levelo://app?vid=be421c02-a3f7-4811-ba3b-d0c382d493c0"},"vehicle_type_id":"4","last_reported":1738879737,"current_range_meters":19600,"station_id":"ce4bh612rcd13ifvqe6g","pricing_plan_id":"cebpf4jnsgd1na2vs0mg"},{"bike_id":"e72514e9-9fb0-4cf4-9627-2bdb46835a05","system_id":"levelo_inurba_marseille","lat":43.28721,"lon":5.36095,"is_reserved":false,"is_disabled":false,"rental_uris":{"android":"levelo://app?vid=e72514e9-9fb0-4cf4-9627-2bdb46835a05","ios":"levelo://app?vid=e72514e9-9fb0-4cf4-9627-2bdb46835a05"},"vehicle_type_id":"4","last_reported":1738879737,"current_range_meters":35600,"station_id":"cki0cbj6b192h4jlfktg","pricing_plan_id":"cebpf4jnsgd1na2vs0mg"},{"bike_id":"b99b6123-dd83-4325-bf60-81fb15f0f429","system_id":"levelo_inurba_marseille","lat":43.30904,"lon":5.39673,"is_reserved":false,"is_disabled":false,"rental_uris":{"android":"levelo://app?vid=b99b6123-dd83-4325-bf60-81fb15f0f429","ios":"levelo://app?vid=b99b6123-dd83-4325-bf60-81fb15f0f429"},"vehicle_type_id":"4","last_reported":1738879737,"current_range_meters":10800,"station_id":"ce4bh012rcd13ifvqcv0","pricing_plan_id":"cebpf4jnsgd1na2vs0mg"},{"bike_id":"8134c42b-15c7-43df-91b1-9cea8c89299b","system_id":"levelo_inurba_marseille","lat":43.25884,"lon":5.39934,"is_reserved":false,"is_disabled":true,"rental_uris":{"android":"levelo://app?vid=8134c42b-15c7-43df-91b1-9cea8c89299b","ios":"levelo://app?vid=8134c42b-15c7-43df-91b1-9cea8c89299b"},"vehicle_type_id":"4","last_reported":1738879737,"current_range_meters":32000,"station_id":"ce4bhl92rcd13ifvqghg","pricing_plan_id":"cebpf4jnsgd1na2vs0mg"},{"bike_id":"edaf17a3-9fb8-4281-8efa-d1063bb06377","system_id":"levelo_inurba_marseille","lat":43.27916,"lon":5.39563,"is_reserved":false,"is_disabled":false,"rental_uris":{"android":"levelo://app?vid=edaf17a3-9fb8-4281-8efa-d1063bb06377","ios":"levelo://app?vid=edaf17a3-9fb8-4281-8efa-d1063bb06377"},"vehicle_type_id":"4","last_reported":1738879737,"current_range_meters":38800,"station_id":"ce4bhf92rcd13ifvqf40","pricing_plan_id":"cebpf4jnsgd1na2vs0mg"},{"bike_id":"d7ead273-bf60-49f8-8869-552a00114485","system_id":"levelo_inurba_marseille","lat":43.308047,"lon":5.392098,"is_reserved":false,"is_disabled":true,"rental_uris":{"android":"levelo://app?vid=d7ead273-bf60-49f8-8869-552a00114485","ios":"levelo://app?vid=d7ead273-bf60-49f8-8869-552a00114485"},"vehicle_type_id":"4","last_reported":1738879737,"current_range_meters":0,"station_id":"","pricing_plan_id":"cebpf4jnsgd1na2vs0mg"},{"bike_id":"b53e2bcf-098d-4aae-965d-d001ff86db97","system_id":"levelo_inurba_marseille","lat":43.29007,"lon":5.35615,"is_reserved":false,"is_disabled":false,"rental_uris":{"android":"levelo://app?vid=b53e2bcf-098d-4aae-965d-d001ff86db97","ios":"levelo://app?vid=b53e2bcf-098d-4aae-965d-d001ff86db97"},"vehicle_type_id":"4","last_reported":1738879737,"current_range_meters":20000,"station_id":"ce4bhb92rcd13ifvqen0","pricing_plan_id":"cebpf4jnsgd1na2vs0mg"},{"bike_id":"d1a6678d-a3d2-4757-8150-b671f6e9633d","system_id":"levelo_inurba_marseille","lat":43.28457,"lon":5.35886,"is_reserved":false,"is_disabled":false,"rental_uris":{"android":"levelo://app?vid=d1a6678d-a3d2-4757-8150-b671f6e9633d","ios":"levelo://app?vid=d1a6678d-a3d2-4757-8150-b671f6e9633d"},"vehicle_type_id":"4","last_reported":1738879737,"current_range_meters":13600,"station_id":"ce4bhah2rcd13ifvqei0","pricing_plan_id":"cebpf4jnsgd1na2vs0mg"},{"bike_id":"7c46d10c-2876-4732-b664-c1e2732cccc3","system_id":"levelo_inurba_marseille","lat":43.29788,"lon":5.37094,"is_reserved":false,"is_disabled":false,"rental_uris":{"android":"levelo://app?vid=7c46d10c-2876-4732-b664-c1e2732cccc3","ios":"levelo://app?vid=7c46d10c-2876-4732-b664-c1e2732cccc3"},"vehicle_type_id":"4","last_reported":1738879737,"current_range_meters":38800,"station_id":"ce4bgop2rcd13ifvqc1g","pricing_plan_id":"cebpf4jnsgd1na2vs0mg"},{"bike_id":"0fd65f53-a439-43db-a05a-300952c89f7a","system_id":"levelo_inurba_marseille","lat":43.29052,"lon":5.38168,"is_reserved":false,"is_disabled":false,"rental_uris":{"android":"levelo://app?vid=0fd65f53-a439-43db-a05a-300952c89f7a","ios":"levelo://app?vid=0fd65f53-a439-43db-a05a-300952c89f7a"},"vehicle_type_id":"4","last_reported":1738879737,"current_range_meters":39200,"station_id":"ce4bh4p2rcd13ifvqe1g","pricing_plan_id":"cebpf4jnsgd1na2vs0mg"},{"bike_id":"7843f238-6be5-493e-b798-ffbb4fe7e1bd","system_id":"levelo_inurba_marseille","lat":43.30438,"lon":5.39753,"is_reserved":false,"is_disabled":false,"rental_uris":{"android":"levelo://app?vid=7843f238-6be5-493e-b798-ffbb4fe7e1bd","ios":"levelo://app?vid=7843f238-6be5-493e-b798-ffbb4fe7e1bd"},"vehicle_type_id":"4","last_reported":1738879737,"current_range_meters":22800,"station_id":"ce4bgvp2rcd13ifvqcu0","pricing_plan_id":"cebpf4jnsgd1na2vs0mg"},{"bike_id":"3078e8ce-5d59-4082-8b1a-8d753b4f6935","system_id":"levelo_inurba_marseille","lat":43.2319,"lon":5.39984,"is_reserved":false,"is_disabled":false,"rental_uris":{"android":"levelo://app?vid=3078e8ce-5d59-4082-8b1a-8d753b4f6935","ios":"levelo://app?vid=3078e8ce-5d59-4082-8b1a-8d753b4f6935"},"vehicle_type_id":"4","last_reported":1738879737,"current_range_meters":38800,"station_id":"ce4bhn12rcd13ifvqgqg","pricing_plan_id":"cebpf4jnsgd1na2vs0mg"},{"bike_id":"b1e15155-8511-43e5-bd75-fed6364538ed","system_id":"levelo_inurba_marseille","lat":43.33016,"lon":5.39039,"is_reserved":false,"is_disabled":false,"rental_uris":{"android":"levelo://app?vid=b1e15155-8511-43e5-bd75-fed6364538ed","ios":"levelo://app?vid=b1e15155-8511-43e5-bd75-fed6364538ed"},"vehicle_type_id":"4","last_reported":1738879737,"current_range_meters":32400,"station_id":"ce4bhr92rcd13ifvqhrg","pricing_plan_id":"cebpf4jnsgd1na2vs0mg"},{"bike_id":"0001064a-2f52-4a2b-9d17-76bf24774b06","system_id":"levelo_inurba_marseille","lat":43.27862,"lon":5.3922,"is_reserved":false,"is_disabled":false,"rental_uris":{"android":"levelo://app?vid=0001064a-2f52-4a2b-9d17-76bf24774b06","ios":"levelo://app?vid=0001064a-2f52-4a2b-9d17-76bf24774b06"},"vehicle_type_id":"4","last_reported":1738879737,"current_range_meters":27600,"station_id":"ce4bhjp2rcd13ifvqga0","pricing_plan_id":"cebpf4jnsgd1na2vs0mg"},{"bike_id":"a8e76632-6d27-4a5d-bcf5-de064ffe9c8a","system_id":"levelo_inurba_marseille","lat":43.33752,"lon":5.37432,"is_reserved":false,"is_disabled":false,"rental_uris":{"android":"levelo://app?vid=a8e76632-6d27-4a5d-bcf5-de064ffe9c8a","ios":"levelo://app?vid=a8e76632-6d27-4a5d-bcf5-de064ffe9c8a"},"vehicle_type_id":"4","last_reported":1738879737,"current_range_meters":12400,"station_id":"","pricing_plan_id":"cebpf4jnsgd1na2vs0mg"},{"bike_id":"a5b10e83-1d30-4baf-a60e-85f23b595c91","system_id":"levelo_inurba_marseille","lat":43.32368,"lon":5.38893,"is_reserved":false,"is_disabled":false,"rental_uris":{"android":"levelo://app?vid=a5b10e83-1d30-4baf-a60e-85f23b595c91","ios":"levelo://app?vid=a5b10e83-1d30-4baf-a60e-85f23b595c91"},"vehicle_type_id":"4","last_reported":1738879737,"current_range_meters":31200,"station_id":"ce4bhqp2rcd13ifvqhog","pricing_plan_id":"cebpf4jnsgd1na2vs0mg"},{"bike_id":"a6f2f0f5-d28b-4dfa-9ebc-81f9a099a0e7","system_id":"levelo_inurba_marseille","lat":43.28479,"lon":5.38414,"is_reserved":false,"is_disabled":true,"rental_uris":{"android":"levelo://app?vid=a6f2f0f5-d28b-4dfa-9ebc-81f9a099a0e7","ios":"levelo://app?vid=a6f2f0f5-d28b-4dfa-9ebc-81f9a099a0e7"},"vehicle_type_id":"4","last_reported":1738879737,"current_range_meters":0,"station_id":"ce4bh512rcd13ifvqe3g","pricing_plan_id":"cebpf4jnsgd1na2vs0mg"},{"bike_id":"c61801e2-de78-4623-893f-04daf5d8570b","system_id":"levelo_inurba_marseille","lat":43.30422,"lon":5.39754,"is_reserved":false,"is_disabled":false,"rental_uris":{"android":"levelo://app?vid=c61801e2-de78-4623-893f-04daf5d8570b","ios":"levelo://app?vid=c61801e2-de78-4623-893f-04daf5d8570b"},"vehicle_type_id":"4","last_reported":1738879737,"current_range_meters":39200,"station_id":"ce4bh092rcd13ifvqd20","pricing_plan_id":"cebpf4jnsgd1na2vs0mg"},{"bike_id":"d3efd42c-487a-43d3-b941-f70423d12ff8","system_id":"levelo_inurba_marseille","lat":43.29306,"lon":5.37211,"is_reserved":false,"is_disabled":false,"rental_uris":{"android":"levelo://app?vid=d3efd42c-487a-43d3-b941-f70423d12ff8","ios":"levelo://app?vid=d3efd42c-487a-43d3-b941-f70423d12ff8"},"vehicle_type_id":"4","last_reported":1738879737,"current_range_meters":32800,"station_id":"ce4bgh92rcd13ifvqb40","pricing_plan_id":"cebpf4jnsgd1na2vs0mg"},{"bike_id":"af2d3c24-937f-4373-b371-3ed706507057","system_id":"levelo_inurba_marseille","lat":43.30887,"lon":5.39644,"is_reserved":false,"is_disabled":false,"rental_uris":{"android":"levelo://app?vid=af2d3c24-937f-4373-b371-3ed706507057","ios":"levelo://app?vid=af2d3c24-937f-4373-b371-3ed706507057"},"vehicle_type_id":"4","last_reported":1738879737,"current_range_meters":27600,"station_id":"ce4bh012rcd13ifvqcv0","pricing_plan_id":"cebpf4jnsgd1na2vs0mg"},{"bike_id":"15d13832-3ae5-42e6-82d9-4929333906d9","system_id":"levelo_inurba_marseille","lat":43.33028,"lon":5.39042,"is_reserved":false,"is_disabled":false,"rental_uris":{"android":"levelo://app?vid=15d13832-3ae5-42e6-82d9-4929333906d9","ios":"levelo://app?vid=15d13832-3ae5-42e6-82d9-4929333906d9"},"vehicle_type_id":"4","last_reported":1738879737,"current_range_meters":38000,"station_id":"ce4bhr92rcd13ifvqhrg","pricing_plan_id":"cebpf4jnsgd1na2vs0mg"},{"bike_id":"89912e32-c5f0-448f-82d2-e236e4d6d653","system_id":"levelo_inurba_marseille","lat":43.27794,"lon":5.39876,"is_reserved":false,"is_disabled":false,"rental_uris":{"android":"levelo://app?vid=89912e32-c5f0-448f-82d2-e236e4d6d653","ios":"levelo://app?vid=89912e32-c5f0-448f-82d2-e236e4d6d653"},"vehicle_type_id":"4","last_reported":1738879737,"current_range_meters":8000,"station_id":"","pricing_plan_id":"cebpf4jnsgd1na2vs0mg"},{"bike_id":"354bf25a-655a-4e6e-b86d-1e7d9c8d23c4","system_id":"levelo_inurba_marseille","lat":43.24413,"lon":5.37025,"is_reserved":false,"is_disabled":false,"rental_uris":{"android":"levelo://app?vid=354bf25a-655a-4e6e-b86d-1e7d9c8d23c4","ios":"levelo://app?vid=354bf25a-655a-4e6e-b86d-1e7d9c8d23c4"},"vehicle_type_id":"4","last_reported":1738879737,"current_range_meters":38800,"station_id":"ce4bhhh2rcd13ifvqfk0","pricing_plan_id":"cebpf4jnsgd1na2vs0mg"},{"bike_id":"1144a94f-9812-4aac-aedf-94f271afdb88","system_id":"levelo_inurba_marseille","lat":43.28464,"lon":5.35886,"is_reserved":false,"is_disabled":false,"rental_uris":{"android":"levelo://app?vid=1144a94f-9812-4aac-aedf-94f271afdb88","ios":"levelo://app?vid=1144a94f-9812-4aac-aedf-94f271afdb88"},"vehicle_type_id":"4","last_reported":1738879737,"current_range_meters":38400,"station_id":"ce4bhah2rcd13ifvqei0","pricing_plan_id":"cebpf4jnsgd1na2vs0mg"},{"bike_id":"8b1e3ddc-e60b-449b-a071-b52065cec0be","system_id":"levelo_inurba_marseille","lat":43.32296,"lon":5.38321,"is_reserved":false,"is_disabled":false,"rental_uris":{"android":"levelo://app?vid=8b1e3ddc-e60b-449b-a071-b52065cec0be","ios":"levelo://app?vid=8b1e3ddc-e60b-449b-a071-b52065cec0be"},"vehicle_type_id":"4","last_reported":1738879737,"current_range_meters":38800,"station_id":"ce4bhr12rcd13ifvqhqg","pricing_plan_id":"cebpf4jnsgd1na2vs0mg"},{"bike_id":"13e372e6-5ae4-455a-a29c-0da624c89caa","system_id":"levelo_inurba_marseille","lat":43.30559,"lon":5.3658,"is_reserved":false,"is_disabled":false,"rental_uris":{"android":"levelo://app?vid=13e372e6-5ae4-455a-a29c-0da624c89caa","ios":"levelo://app?vid=13e372e6-5ae4-455a-a29c-0da624c89caa"},"vehicle_type_id":"4","last_reported":1738879737,"current_range_meters":35600,"station_id":"ce4bgs12rcd13ifvqcag","pricing_plan_id":"cebpf4jnsgd1na2vs0mg"},{"bike_id":"b91ecbae-2ee3-4ea4-8be8-ba8a9028d8ad","system_id":"levelo_inurba_marseille","lat":43.28395,"lon":5.35939,"is_reserved":false,"is_disabled":false,"rental_uris":{"android":"levelo://app?vid=b91ecbae-2ee3-4ea4-8be8-ba8a9028d8ad","ios":"levelo://app?vid=b91ecbae-2ee3-4ea4-8be8-ba8a9028d8ad"},"vehicle_type_id":"4","last_reported":1738879737,"current_range_meters":7200,"station_id":"","pricing_plan_id":"cebpf4jnsgd1na2vs0mg"},{"bike_id":"72b0b14e-fe84-4655-af4f-a7b154c4ed28","system_id":"levelo_inurba_marseille","lat":43.32346,"lon":5.40621,"is_reserved":false,"is_disabled":false,"rental_uris":{"android":"levelo://app?vid=72b0b14e-fe84-4655-af4f-a7b154c4ed28","ios":"levelo://app?vid=72b0b14e-fe84-4655-af4f-a7b154c4ed28"},"vehicle_type_id":"4","last_reported":1738879737,"current_range_meters":17200,"station_id":"ce4bhq92rcd13ifvqhjg","pricing_plan_id":"cebpf4jnsgd1na2vs0mg"},{"bike_id":"b73937ba-05e4-41c7-8959-6f24613e2797","system_id":"levelo_inurba_marseille","lat":43.22958,"lon":5.3539,"is_reserved":false,"is_disabled":false,"rental_uris":{"android":"levelo://app?vid=b73937ba-05e4-41c7-8959-6f24613e2797","ios":"levelo://app?vid=b73937ba-05e4-41c7-8959-6f24613e2797"},"vehicle_type_id":"4","last_reported":1738879737,"current_range_meters":36800,"station_id":"cpo3532slgdg3j2ikp40","pricing_plan_id":"cebpf4jnsgd1na2vs0mg"},{"bike_id":"d66d6f36-09f4-4ba6-a917-b6bf6ab0c067","system_id":"levelo_inurba_marseille","lat":43.28948,"lon":5.36401,"is_reserved":false,"is_disabled":false,"rental_uris":{"android":"levelo://app?vid=d66d6f36-09f4-4ba6-a917-b6bf6ab0c067","ios":"levelo://app?vid=d66d6f36-09f4-4ba6-a917-b6bf6ab0c067"},"vehicle_type_id":"4","last_reported":1738879737,"current_range_meters":32400,"station_id":"ce4bhc92rcd13ifvqetg","pricing_plan_id":"cebpf4jnsgd1na2vs0mg"},{"bike_id":"9dbc66af-ff64-41a8-a57c-5ef86f5cb77a","system_id":"levelo_inurba_marseille","lat":43.26808,"lon":5.4026,"is_reserved":false,"is_disabled":true,"rental_uris":{"android":"levelo://app?vid=9dbc66af-ff64-41a8-a57c-5ef86f5cb77a","ios":"levelo://app?vid=9dbc66af-ff64-41a8-a57c-5ef86f5cb77a"},"vehicle_type_id":"4","last_reported":1738879737,"current_range_meters":38800,"station_id":"ce501612rcd8frsf0b60","pricing_plan_id":"cebpf4jnsgd1na2vs0mg"},{"bike_id":"ab54e2d0-4c2c-486a-84c7-811ed9008ddc","system_id":"levelo_inurba_marseille","lat":43.27855,"lon":5.42543,"is_reserved":false,"is_disabled":false,"rental_uris":{"android":"levelo://app?vid=ab54e2d0-4c2c-486a-84c7-811ed9008ddc","ios":"levelo://app?vid=ab54e2d0-4c2c-486a-84c7-811ed9008ddc"},"vehicle_type_id":"4","last_reported":1738879737,"current_range_meters":2800,"station_id":"","pricing_plan_id":"cebpf4jnsgd1na2vs0mg"},{"bike_id":"f1e9399a-c62d-4210-bc5f-f431eced8b39","system_id":"levelo_inurba_marseille","lat":43.32361,"lon":5.36763,"is_reserved":false,"is_disabled":false,"rental_uris":{"android":"levelo://app?vid=f1e9399a-c62d-4210-bc5f-f431eced8b39","ios":"levelo://app?vid=f1e9399a-c62d-4210-bc5f-f431eced8b39"},"vehicle_type_id":"4","last_reported":1738879737,"current_range_meters":9200,"station_id":"ce4bhsh2rcd13ifvqi2g","pricing_plan_id":"cebpf4jnsgd1na2vs0mg"},{"bike_id":"fae5ed03-2be2-4e2f-ae1a-9dae265ccade","system_id":"levelo_inurba_marseille","lat":43.323676,"lon":5.388868,"is_reserved":false,"is_disabled":false,"rental_uris":{"android":"levelo://app?vid=fae5ed03-2be2-4e2f-ae1a-9dae265ccade","ios":"levelo://app?vid=fae5ed03-2be2-4e2f-ae1a-9dae265ccade"},"vehicle_type_id":"4","last_reported":1738879737,"current_range_meters":20800,"station_id":"ce4bhqp2rcd13ifvqhog","pricing_plan_id":"cebpf4jnsgd1na2vs0mg"},{"bike_id":"19f4783c-480a-4eac-94d7-4e3589c1bef0","system_id":"levelo_inurba_marseille","lat":43.29196,"lon":5.35826,"is_reserved":false,"is_disabled":false,"rental_uris":{"android":"levelo://app?vid=19f4783c-480a-4eac-94d7-4e3589c1bef0","ios":"levelo://app?vid=19f4783c-480a-4eac-94d7-4e3589c1bef0"},"vehicle_type_id":"4","last_reported":1738879737,"current_range_meters":35600,"station_id":"ce4bhb12rcd13ifvqel0","pricing_plan_id":"cebpf4jnsgd1na2vs0mg"},{"bike_id":"934977c2-4f0e-474e-94bb-984110cdcf73","system_id":"levelo_inurba_marseille","lat":43.30801,"lon":5.38158,"is_reserved":false,"is_disabled":false,"rental_uris":{"android":"levelo://app?vid=934977c2-4f0e-474e-94bb-984110cdcf73","ios":"levelo://app?vid=934977c2-4f0e-474e-94bb-984110cdcf73"},"vehicle_type_id":"4","last_reported":1738879737,"current_range_meters":15200,"station_id":"ce4bgt12rcd13ifvqce0","pricing_plan_id":"cebpf4jnsgd1na2vs0mg"},{"bike_id":"f9c18bec-4962-4181-adb2-1233965dfd4b","system_id":"levelo_inurba_marseille","lat":43.29183,"lon":5.3933,"is_reserved":false,"is_disabled":false,"rental_uris":{"android":"levelo://app?vid=f9c18bec-4962-4181-adb2-1233965dfd4b","ios":"levelo://app?vid=f9c18bec-4962-4181-adb2-1233965dfd4b"},"vehicle_type_id":"4","last_reported":1738879737,"current_range_meters":39200,"station_id":"ce4bh192rcd13ifvqdd0","pricing_plan_id":"cebpf4jnsgd1na2vs0mg"},{"bike_id":"58913607-3d23-4376-841b-881c1361d437","system_id":"levelo_inurba_marseille","lat":43.31319,"lon":5.39817,"is_reserved":false,"is_disabled":false,"rental_uris":{"android":"levelo://app?vid=58913607-3d23-4376-841b-881c1361d437","ios":"levelo://app?vid=58913607-3d23-4376-841b-881c1361d437"},"vehicle_type_id":"4","last_reported":1738879737,"current_range_meters":19200,"station_id":"","pricing_plan_id":"cebpf4jnsgd1na2vs0mg"},{"bike_id":"363f89dc-7a31-4716-bf7c-5e8b960f961f","system_id":"levelo_inurba_marseille","lat":43.31084,"lon":5.42442,"is_reserved":false,"is_disabled":false,"rental_uris":{"android":"levelo://app?vid=363f89dc-7a31-4716-bf7c-5e8b960f961f","ios":"levelo://app?vid=363f89dc-7a31-4716-bf7c-5e8b960f961f"},"vehicle_type_id":"4","last_reported":1738879737,"current_range_meters":38800,"station_id":"ce4bhp92rcd13ifvqhag","pricing_plan_id":"cebpf4jnsgd1na2vs0mg"},{"bike_id":"830d7107-636e-4156-9051-ab563c81092e","system_id":"levelo_inurba_marseille","lat":43.27065,"lon":5.42268,"is_reserved":false,"is_disabled":false,"rental_uris":{"android":"levelo://app?vid=830d7107-636e-4156-9051-ab563c81092e","ios":"levelo://app?vid=830d7107-636e-4156-9051-ab563c81092e"},"vehicle_type_id":"4","last_reported":1738879737,"current_range_meters":39200,"station_id":"ce4bhk92rcd13ifvqgb0","pricing_plan_id":"cebpf4jnsgd1na2vs0mg"},{"bike_id":"b8829ab2-1487-4b8c-ae59-08c14afad745","system_id":"levelo_inurba_marseille","lat":43.323667,"lon":5.388812,"is_reserved":false,"is_disabled":false,"rental_uris":{"android":"levelo://app?vid=b8829ab2-1487-4b8c-ae59-08c14afad745","ios":"levelo://app?vid=b8829ab2-1487-4b8c-ae59-08c14afad745"},"vehicle_type_id":"4","last_reported":1738879737,"current_range_meters":23200,"station_id":"ce4bhqp2rcd13ifvqhog","pricing_plan_id":"cebpf4jnsgd1na2vs0mg"},{"bike_id":"3784dcf0-b4bb-4913-bc73-18b71169c3c8","system_id":"levelo_inurba_marseille","lat":43.31186,"lon":5.3872,"is_reserved":false,"is_disabled":false,"rental_uris":{"android":"levelo://app?vid=3784dcf0-b4bb-4913-bc73-18b71169c3c8","ios":"levelo://app?vid=3784dcf0-b4bb-4913-bc73-18b71169c3c8"},"vehicle_type_id":"4","last_reported":1738879737,"current_range_meters":27600,"station_id":"ce4bgv12rcd13ifvqcp0","pricing_plan_id":"cebpf4jnsgd1na2vs0mg"},{"bike_id":"1aafd4aa-ba2a-4c94-bc8a-0a2b42d0be90","system_id":"levelo_inurba_marseille","lat":43.27813,"lon":5.40706,"is_reserved":false,"is_disabled":false,"rental_uris":{"android":"levelo://app?vid=1aafd4aa-ba2a-4c94-bc8a-0a2b42d0be90","ios":"levelo://app?vid=1aafd4aa-ba2a-4c94-bc8a-0a2b42d0be90"},"vehicle_type_id":"4","last_reported":1738879737,"current_range_meters":10000,"station_id":"ce4bhnh2rcd13ifvqgtg","pricing_plan_id":"cebpf4jnsgd1na2vs0mg"},{"bike_id":"99edfd39-ea2c-4152-9a67-579e3aa4a733","system_id":"levelo_inurba_marseille","lat":43.23964,"lon":5.36634,"is_reserved":false,"is_disabled":false,"rental_uris":{"android":"levelo://app?vid=99edfd39-ea2c-4152-9a67-579e3aa4a733","ios":"levelo://app?vid=99edfd39-ea2c-4152-9a67-579e3aa4a733"},"vehicle_type_id":"4","last_reported":1738879737,"current_range_meters":38800,"station_id":"ce4bhi12rcd13ifvqfp0","pricing_plan_id":"cebpf4jnsgd1na2vs0mg"},{"bike_id":"7e0a60ce-56f2-46c7-a8ff-d1dbf7a0fbdd","system_id":"levelo_inurba_marseille","lat":43.28085,"lon":5.37854,"is_reserved":false,"is_disabled":false,"rental_uris":{"android":"levelo://app?vid=7e0a60ce-56f2-46c7-a8ff-d1dbf7a0fbdd","ios":"levelo://app?vid=7e0a60ce-56f2-46c7-a8ff-d1dbf7a0fbdd"},"vehicle_type_id":"4","last_reported":1738879737,"current_range_meters":33200,"station_id":"ce4bha12rcd13ifvqee0","pricing_plan_id":"cebpf4jnsgd1na2vs0mg"},{"bike_id":"c177e5ae-988b-457d-916b-169ad0276669","system_id":"levelo_inurba_marseille","lat":43.32287,"lon":5.38279,"is_reserved":false,"is_disabled":false,"rental_uris":{"android":"levelo://app?vid=c177e5ae-988b-457d-916b-169ad0276669","ios":"levelo://app?vid=c177e5ae-988b-457d-916b-169ad0276669"},"vehicle_type_id":"4","last_reported":1738879737,"current_range_meters":38800,"station_id":"ce4bhr12rcd13ifvqhqg","pricing_plan_id":"cebpf4jnsgd1na2vs0mg"},{"bike_id":"89ef4b0e-9935-40a8-b11a-d7c8da41f1e5","system_id":"levelo_inurba_marseille","lat":43.28701,"lon":5.361,"is_reserved":false,"is_disabled":false,"rental_uris":{"android":"levelo://app?vid=89ef4b0e-9935-40a8-b11a-d7c8da41f1e5","ios":"levelo://app?vid=89ef4b0e-9935-40a8-b11a-d7c8da41f1e5"},"vehicle_type_id":"4","last_reported":1738879737,"current_range_meters":38800,"station_id":"cki0cbj6b192h4jlfktg","pricing_plan_id":"cebpf4jnsgd1na2vs0mg"},{"bike_id":"660dc286-a708-4666-8e62-5be1f29846fb","system_id":"levelo_inurba_marseille","lat":43.29785,"lon":5.39346,"is_reserved":false,"is_disabled":false,"rental_uris":{"android":"levelo://app?vid=660dc286-a708-4666-8e62-5be1f29846fb","ios":"levelo://app?vid=660dc286-a708-4666-8e62-5be1f29846fb"},"vehicle_type_id":"4","last_reported":1738879737,"current_range_meters":38400,"station_id":"chh1huq6cuj3fo74tm60","pricing_plan_id":"cebpf4jnsgd1na2vs0mg"},{"bike_id":"128cfc46-ede8-4b11-a643-76a0067c87c4","system_id":"levelo_inurba_marseille","lat":43.24802,"lon":5.37454,"is_reserved":false,"is_disabled":false,"rental_uris":{"android":"levelo://app?vid=128cfc46-ede8-4b11-a643-76a0067c87c4","ios":"levelo://app?vid=128cfc46-ede8-4b11-a643-76a0067c87c4"},"vehicle_type_id":"4","last_reported":1738879737,"current_range_meters":38800,"station_id":"ce4bhgh2rcd13ifvqfb0","pricing_plan_id":"cebpf4jnsgd1na2vs0mg"},{"bike_id":"2f535ffb-9bc2-4dde-9b85-3de63a9865f2","system_id":"levelo_inurba_marseille","lat":43.27855,"lon":5.39223,"is_reserved":false,"is_disabled":true,"rental_uris":{"android":"levelo://app?vid=2f535ffb-9bc2-4dde-9b85-3de63a9865f2","ios":"levelo://app?vid=2f535ffb-9bc2-4dde-9b85-3de63a9865f2"},"vehicle_type_id":"4","last_reported":1738879737,"current_range_meters":1200,"station_id":"ce4bhjp2rcd13ifvqga0","pricing_plan_id":"cebpf4jnsgd1na2vs0mg"},{"bike_id":"c346e4c9-1ee3-4421-9c09-d77a597ffa19","system_id":"levelo_inurba_marseille","lat":43.26805,"lon":5.40264,"is_reserved":false,"is_disabled":false,"rental_uris":{"android":"levelo://app?vid=c346e4c9-1ee3-4421-9c09-d77a597ffa19","ios":"levelo://app?vid=c346e4c9-1ee3-4421-9c09-d77a597ffa19"},"vehicle_type_id":"4","last_reported":1738879737,"current_range_meters":38800,"station_id":"ce501612rcd8frsf0b60","pricing_plan_id":"cebpf4jnsgd1na2vs0mg"},{"bike_id":"3958c539-5ce4-4e3d-87f8-7bd36b77c479","system_id":"levelo_inurba_marseille","lat":43.28077,"lon":5.39663,"is_reserved":false,"is_disabled":false,"rental_uris":{"android":"levelo://app?vid=3958c539-5ce4-4e3d-87f8-7bd36b77c479","ios":"levelo://app?vid=3958c539-5ce4-4e3d-87f8-7bd36b77c479"},"vehicle_type_id":"4","last_reported":1738879737,"current_range_meters":32000,"station_id":"ce4bho12rcd13ifvqh2g","pricing_plan_id":"cebpf4jnsgd1na2vs0mg"},{"bike_id":"78904179-10fb-4f20-8673-0f80f1918d46","system_id":"levelo_inurba_marseille","lat":43.26214,"lon":5.40404,"is_reserved":false,"is_disabled":false,"rental_uris":{"android":"levelo://app?vid=78904179-10fb-4f20-8673-0f80f1918d46","ios":"levelo://app?vid=78904179-10fb-4f20-8673-0f80f1918d46"},"vehicle_type_id":"4","last_reported":1738879737,"current_range_meters":22800,"station_id":"ce4bhmh2rcd13ifvqgmg","pricing_plan_id":"cebpf4jnsgd1na2vs0mg"},{"bike_id":"f2a6e5d8-1009-48da-9b5a-8de9b36e0c59","system_id":"levelo_inurba_marseille","lat":43.30888,"lon":5.39655,"is_reserved":false,"is_disabled":false,"rental_uris":{"android":"levelo://app?vid=f2a6e5d8-1009-48da-9b5a-8de9b36e0c59","ios":"levelo://app?vid=f2a6e5d8-1009-48da-9b5a-8de9b36e0c59"},"vehicle_type_id":"4","last_reported":1738879737,"current_range_meters":34000,"station_id":"ce4bh012rcd13ifvqcv0","pricing_plan_id":"cebpf4jnsgd1na2vs0mg"},{"bike_id":"2faa540b-2f6c-47df-8a95-947fe3997d2b","system_id":"levelo_inurba_marseille","lat":43.30801,"lon":5.38177,"is_reserved":false,"is_disabled":false,"rental_uris":{"android":"levelo://app?vid=2faa540b-2f6c-47df-8a95-947fe3997d2b","ios":"levelo://app?vid=2faa540b-2f6c-47df-8a95-947fe3997d2b"},"vehicle_type_id":"4","last_reported":1738879737,"current_range_meters":8400,"station_id":"ce4bgt12rcd13ifvqce0","pricing_plan_id":"cebpf4jnsgd1na2vs0mg"},{"bike_id":"986d7831-fd5e-41e7-abee-56e4ba622ab1","system_id":"levelo_inurba_marseille","lat":43.24179,"lon":5.39733,"is_reserved":false,"is_disabled":true,"rental_uris":{"android":"levelo://app?vid=986d7831-fd5e-41e7-abee-56e4ba622ab1","ios":"levelo://app?vid=986d7831-fd5e-41e7-abee-56e4ba622ab1"},"vehicle_type_id":"4","last_reported":1738879737,"current_range_meters":400,"station_id":"ce4bhn12rcd13ifvqgpg","pricing_plan_id":"cebpf4jnsgd1na2vs0mg"},{"bike_id":"ca794b48-fdc6-4162-b82c-a5ed2314fce3","system_id":"levelo_inurba_marseille","lat":43.28274,"lon":5.35081,"is_reserved":false,"is_disabled":false,"rental_uris":{"android":"levelo://app?vid=ca794b48-fdc6-4162-b82c-a5ed2314fce3","ios":"levelo://app?vid=ca794b48-fdc6-4162-b82c-a5ed2314fce3"},"vehicle_type_id":"4","last_reported":1738879737,"current_range_meters":38800,"station_id":"ce4bhbp2rcd13ifvqerg","pricing_plan_id":"cebpf4jnsgd1na2vs0mg"},{"bike_id":"3fcd9f18-6e30-4af0-be56-f998e9162f61","system_id":"levelo_inurba_marseille","lat":43.24804,"lon":5.37454,"is_reserved":false,"is_disabled":false,"rental_uris":{"android":"levelo://app?vid=3fcd9f18-6e30-4af0-be56-f998e9162f61","ios":"levelo://app?vid=3fcd9f18-6e30-4af0-be56-f998e9162f61"},"vehicle_type_id":"4","last_reported":1738879737,"current_range_meters":28800,"station_id":"ce4bhgh2rcd13ifvqfb0","pricing_plan_id":"cebpf4jnsgd1na2vs0mg"},{"bike_id":"f67b7531-6c63-4f46-a9d4-4fdf588facb0","system_id":"levelo_inurba_marseille","lat":43.27881,"lon":5.40595,"is_reserved":false,"is_disabled":true,"rental_uris":{"android":"levelo://app?vid=f67b7531-6c63-4f46-a9d4-4fdf588facb0","ios":"levelo://app?vid=f67b7531-6c63-4f46-a9d4-4fdf588facb0"},"vehicle_type_id":"4","last_reported":1738879737,"current_range_meters":2000,"station_id":"","pricing_plan_id":"cebpf4jnsgd1na2vs0mg"},{"bike_id":"5b315d15-7d77-41e2-9277-a2e303e77c97","system_id":"levelo_inurba_marseille","lat":43.24805,"lon":5.37448,"is_reserved":false,"is_disabled":false,"rental_uris":{"android":"levelo://app?vid=5b315d15-7d77-41e2-9277-a2e303e77c97","ios":"levelo://app?vid=5b315d15-7d77-41e2-9277-a2e303e77c97"},"vehicle_type_id":"4","last_reported":1738879737,"current_range_meters":33600,"station_id":"ce4bhgh2rcd13ifvqfb0","pricing_plan_id":"cebpf4jnsgd1na2vs0mg"},{"bike_id":"ccc0d99a-4f06-4847-88ea-bfbf26a9a708","system_id":"levelo_inurba_marseille","lat":43.27377,"lon":5.3627,"is_reserved":false,"is_disabled":false,"rental_uris":{"android":"levelo://app?vid=ccc0d99a-4f06-4847-88ea-bfbf26a9a708","ios":"levelo://app?vid=ccc0d99a-4f06-4847-88ea-bfbf26a9a708"},"vehicle_type_id":"4","last_reported":1738879737,"current_range_meters":38800,"station_id":"ce4bhbh2rcd13ifvqeo0","pricing_plan_id":"cebpf4jnsgd1na2vs0mg"},{"bike_id":"14a0b7ad-3cf3-4b7e-a70e-d21d7b4a17ca","system_id":"levelo_inurba_marseille","lat":43.27997,"lon":5.40012,"is_reserved":false,"is_disabled":false,"rental_uris":{"android":"levelo://app?vid=14a0b7ad-3cf3-4b7e-a70e-d21d7b4a17ca","ios":"levelo://app?vid=14a0b7ad-3cf3-4b7e-a70e-d21d7b4a17ca"},"vehicle_type_id":"4","last_reported":1738879737,"current_range_meters":24000,"station_id":"ce4bho92rcd13ifvqh4g","pricing_plan_id":"cebpf4jnsgd1na2vs0mg"},{"bike_id":"d90800d2-0b28-4666-b04d-68e5f6c3e9ab","system_id":"levelo_inurba_marseille","lat":43.23202,"lon":5.40003,"is_reserved":false,"is_disabled":false,"rental_uris":{"android":"levelo://app?vid=d90800d2-0b28-4666-b04d-68e5f6c3e9ab","ios":"levelo://app?vid=d90800d2-0b28-4666-b04d-68e5f6c3e9ab"},"vehicle_type_id":"4","last_reported":1738879737,"current_range_meters":38800,"station_id":"ce4bhn12rcd13ifvqgqg","pricing_plan_id":"cebpf4jnsgd1na2vs0mg"},{"bike_id":"85c3353d-1ec4-4be3-8aa9-1f2b0812ee13","system_id":"levelo_inurba_marseille","lat":43.31189,"lon":5.36819,"is_reserved":false,"is_disabled":false,"rental_uris":{"android":"levelo://app?vid=85c3353d-1ec4-4be3-8aa9-1f2b0812ee13","ios":"levelo://app?vid=85c3353d-1ec4-4be3-8aa9-1f2b0812ee13"},"vehicle_type_id":"4","last_reported":1738879737,"current_range_meters":16000,"station_id":"ce4bgl92rcd13ifvqbq0","pricing_plan_id":"cebpf4jnsgd1na2vs0mg"},{"bike_id":"f3e42e0e-b7e4-42f9-9d92-a9c490f4f28d","system_id":"levelo_inurba_marseille","lat":43.30895,"lon":5.39652,"is_reserved":false,"is_disabled":false,"rental_uris":{"android":"levelo://app?vid=f3e42e0e-b7e4-42f9-9d92-a9c490f4f28d","ios":"levelo://app?vid=f3e42e0e-b7e4-42f9-9d92-a9c490f4f28d"},"vehicle_type_id":"4","last_reported":1738879737,"current_range_meters":20800,"station_id":"ce4bh012rcd13ifvqcv0","pricing_plan_id":"cebpf4jnsgd1na2vs0mg"},{"bike_id":"8a66e63b-2bd8-4762-9707-a83a8d88dca1","system_id":"levelo_inurba_marseille","lat":43.29338,"lon":5.37216,"is_reserved":false,"is_disabled":false,"rental_uris":{"android":"levelo://app?vid=8a66e63b-2bd8-4762-9707-a83a8d88dca1","ios":"levelo://app?vid=8a66e63b-2bd8-4762-9707-a83a8d88dca1"},"vehicle_type_id":"4","last_reported":1738879737,"current_range_meters":19200,"station_id":"ce4bgh92rcd13ifvqb40","pricing_plan_id":"cebpf4jnsgd1na2vs0mg"},{"bike_id":"55c531ba-cb99-413a-81f9-84f3b3d5979e","system_id":"levelo_inurba_marseille","lat":43.22917,"lon":5.35371,"is_reserved":false,"is_disabled":false,"rental_uris":{"android":"levelo://app?vid=55c531ba-cb99-413a-81f9-84f3b3d5979e","ios":"levelo://app?vid=55c531ba-cb99-413a-81f9-84f3b3d5979e"},"vehicle_type_id":"4","last_reported":1738879737,"current_range_meters":27600,"station_id":"cpo3532slgdg3j2ikp40","pricing_plan_id":"cebpf4jnsgd1na2vs0mg"},{"bike_id":"2a241f65-655e-4bd9-94d9-88d62fd5790f","system_id":"levelo_inurba_marseille","lat":43.29446,"lon":5.39768,"is_reserved":false,"is_disabled":false,"rental_uris":{"android":"levelo://app?vid=2a241f65-655e-4bd9-94d9-88d62fd5790f","ios":"levelo://app?vid=2a241f65-655e-4bd9-94d9-88d62fd5790f"},"vehicle_type_id":"4","last_reported":1738879737,"current_range_meters":38800,"station_id":"ce4bh3h2rcd13ifvqdo0","pricing_plan_id":"cebpf4jnsgd1na2vs0mg"},{"bike_id":"4d6c931f-72da-462d-8d3e-100511fce5c7","system_id":"levelo_inurba_marseille","lat":43.31381,"lon":5.37235,"is_reserved":false,"is_disabled":false,"rental_uris":{"android":"levelo://app?vid=4d6c931f-72da-462d-8d3e-100511fce5c7","ios":"levelo://app?vid=4d6c931f-72da-462d-8d3e-100511fce5c7"},"vehicle_type_id":"4","last_reported":1738879737,"current_range_meters":8800,"station_id":"","pricing_plan_id":"cebpf4jnsgd1na2vs0mg"},{"bike_id":"2f50dd6b-42b7-4c8f-8db5-a6265e95d2c3","system_id":"levelo_inurba_marseille","lat":43.23958,"lon":5.36642,"is_reserved":false,"is_disabled":false,"rental_uris":{"android":"levelo://app?vid=2f50dd6b-42b7-4c8f-8db5-a6265e95d2c3","ios":"levelo://app?vid=2f50dd6b-42b7-4c8f-8db5-a6265e95d2c3"},"vehicle_type_id":"4","last_reported":1738879737,"current_range_meters":36800,"station_id":"ce4bhi12rcd13ifvqfp0","pricing_plan_id":"cebpf4jnsgd1na2vs0mg"},{"bike_id":"3b6fc1a1-1e64-4698-a113-588a2563418f","system_id":"levelo_inurba_marseille","lat":43.28033,"lon":5.36946,"is_reserved":false,"is_disabled":false,"rental_uris":{"android":"levelo://app?vid=3b6fc1a1-1e64-4698-a113-588a2563418f","ios":"levelo://app?vid=3b6fc1a1-1e64-4698-a113-588a2563418f"},"vehicle_type_id":"4","last_reported":1738879737,"current_range_meters":38800,"station_id":"ce4bha12rcd13ifvqef0","pricing_plan_id":"cebpf4jnsgd1na2vs0mg"},{"bike_id":"42b00d6b-70d0-4750-bdd2-377deb18497e","system_id":"levelo_inurba_marseille","lat":43.22929,"lon":5.35382,"is_reserved":false,"is_disabled":false,"rental_uris":{"android":"levelo://app?vid=42b00d6b-70d0-4750-bdd2-377deb18497e","ios":"levelo://app?vid=42b00d6b-70d0-4750-bdd2-377deb18497e"},"vehicle_type_id":"4","last_reported":1738879737,"current_range_meters":30000,"station_id":"cpo3532slgdg3j2ikp40","pricing_plan_id":"cebpf4jnsgd1na2vs0mg"},{"bike_id":"339a4f18-78ea-4e7f-a4c8-410d2cd87ef8","system_id":"levelo_inurba_marseille","lat":43.27674,"lon":5.38915,"is_reserved":false,"is_disabled":false,"rental_uris":{"android":"levelo://app?vid=339a4f18-78ea-4e7f-a4c8-410d2cd87ef8","ios":"levelo://app?vid=339a4f18-78ea-4e7f-a4c8-410d2cd87ef8"},"vehicle_type_id":"4","last_reported":1738879737,"current_range_meters":31200,"station_id":"ce4bhi12rcd13ifvqfo0","pricing_plan_id":"cebpf4jnsgd1na2vs0mg"},{"bike_id":"51330da2-8079-4b23-96d5-c24de9b6b5d9","system_id":"levelo_inurba_marseille","lat":43.279034,"lon":5.380142,"is_reserved":false,"is_disabled":false,"rental_uris":{"android":"levelo://app?vid=51330da2-8079-4b23-96d5-c24de9b6b5d9","ios":"levelo://app?vid=51330da2-8079-4b23-96d5-c24de9b6b5d9"},"vehicle_type_id":"4","last_reported":1738879737,"current_range_meters":38800,"station_id":"ce4bhf92rcd13ifvqf50","pricing_plan_id":"cebpf4jnsgd1na2vs0mg"},{"bike_id":"c130fff7-2faf-4f2e-82f9-62c219cfeda5","system_id":"levelo_inurba_marseille","lat":43.2816,"lon":5.42617,"is_reserved":false,"is_disabled":false,"rental_uris":{"android":"levelo://app?vid=c130fff7-2faf-4f2e-82f9-62c219cfeda5","ios":"levelo://app?vid=c130fff7-2faf-4f2e-82f9-62c219cfeda5"},"vehicle_type_id":"4","last_reported":1738879737,"current_range_meters":27200,"station_id":"ce4bhnh2rcd13ifvqgug","pricing_plan_id":"cebpf4jnsgd1na2vs0mg"},{"bike_id":"f1bbac45-5b32-4b97-b4ef-d7ee065546b1","system_id":"levelo_inurba_marseille","lat":43.26057,"lon":5.37538,"is_reserved":false,"is_disabled":false,"rental_uris":{"android":"levelo://app?vid=f1bbac45-5b32-4b97-b4ef-d7ee065546b1","ios":"levelo://app?vid=f1bbac45-5b32-4b97-b4ef-d7ee065546b1"},"vehicle_type_id":"4","last_reported":1738879737,"current_range_meters":38800,"station_id":"ce4bhgh2rcd13ifvqfa0","pricing_plan_id":"cebpf4jnsgd1na2vs0mg"},{"bike_id":"bfddda29-c6a5-427f-9426-0af31d6793a1","system_id":"levelo_inurba_marseille","lat":43.26489,"lon":5.39573,"is_reserved":false,"is_disabled":true,"rental_uris":{"android":"levelo://app?vid=bfddda29-c6a5-427f-9426-0af31d6793a1","ios":"levelo://app?vid=bfddda29-c6a5-427f-9426-0af31d6793a1"},"vehicle_type_id":"4","last_reported":1738879737,"current_range_meters":800,"station_id":"ce4bhi12rcd13ifvqfq0","pricing_plan_id":"cebpf4jnsgd1na2vs0mg"},{"bike_id":"a36a308c-9075-4f72-b2c9-e05163d80524","system_id":"levelo_inurba_marseille","lat":43.24421,"lon":5.37044,"is_reserved":false,"is_disabled":false,"rental_uris":{"android":"levelo://app?vid=a36a308c-9075-4f72-b2c9-e05163d80524","ios":"levelo://app?vid=a36a308c-9075-4f72-b2c9-e05163d80524"},"vehicle_type_id":"4","last_reported":1738879737,"current_range_meters":38800,"station_id":"ce4bhhh2rcd13ifvqfk0","pricing_plan_id":"cebpf4jnsgd1na2vs0mg"},{"bike_id":"5eb997aa-ba06-470a-b7fd-cd40e9642b35","system_id":"levelo_inurba_marseille","lat":43.23188,"lon":5.40001,"is_reserved":false,"is_disabled":false,"rental_uris":{"android":"levelo://app?vid=5eb997aa-ba06-470a-b7fd-cd40e9642b35","ios":"levelo://app?vid=5eb997aa-ba06-470a-b7fd-cd40e9642b35"},"vehicle_type_id":"4","last_reported":1738879737,"current_range_meters":38800,"station_id":"ce4bhn12rcd13ifvqgqg","pricing_plan_id":"cebpf4jnsgd1na2vs0mg"},{"bike_id":"e97df748-9ecd-4642-9522-6e614425fe9f","system_id":"levelo_inurba_marseille","lat":43.29256,"lon":5.40919,"is_reserved":false,"is_disabled":false,"rental_uris":{"android":"levelo://app?vid=e97df748-9ecd-4642-9522-6e614425fe9f","ios":"levelo://app?vid=e97df748-9ecd-4642-9522-6e614425fe9f"},"vehicle_type_id":"4","last_reported":1738879737,"current_range_meters":23200,"station_id":"ce4bh192rcd13ifvqdc0","pricing_plan_id":"cebpf4jnsgd1na2vs0mg"},{"bike_id":"1da8b17b-ad28-4780-a711-431647c244ed","system_id":"levelo_inurba_marseille","lat":43.239602,"lon":5.36625,"is_reserved":false,"is_disabled":false,"rental_uris":{"android":"levelo://app?vid=1da8b17b-ad28-4780-a711-431647c244ed","ios":"levelo://app?vid=1da8b17b-ad28-4780-a711-431647c244ed"},"vehicle_type_id":"4","last_reported":1738879737,"current_range_meters":30400,"station_id":"ce4bhi12rcd13ifvqfp0","pricing_plan_id":"cebpf4jnsgd1na2vs0mg"},{"bike_id":"68854bc1-b7a0-4928-a0cf-9ed3864aa9b7","system_id":"levelo_inurba_marseille","lat":43.29248,"lon":5.40902,"is_reserved":false,"is_disabled":false,"rental_uris":{"android":"levelo://app?vid=68854bc1-b7a0-4928-a0cf-9ed3864aa9b7","ios":"levelo://app?vid=68854bc1-b7a0-4928-a0cf-9ed3864aa9b7"},"vehicle_type_id":"4","last_reported":1738879737,"current_range_meters":23200,"station_id":"ce4bh192rcd13ifvqdc0","pricing_plan_id":"cebpf4jnsgd1na2vs0mg"},{"bike_id":"54630ec0-92ce-4c84-ba54-45269fbd607e","system_id":"levelo_inurba_marseille","lat":43.30373,"lon":5.41869,"is_reserved":false,"is_disabled":false,"rental_uris":{"android":"levelo://app?vid=54630ec0-92ce-4c84-ba54-45269fbd607e","ios":"levelo://app?vid=54630ec0-92ce-4c84-ba54-45269fbd607e"},"vehicle_type_id":"4","last_reported":1738879737,"current_range_meters":39200,"station_id":"ce4bhop2rcd13ifvqh7g","pricing_plan_id":"cebpf4jnsgd1na2vs0mg"},{"bike_id":"a2273def-01c8-4ea0-8135-cc77a96cc8e9","system_id":"levelo_inurba_marseille","lat":43.27575,"lon":5.38398,"is_reserved":false,"is_disabled":false,"rental_uris":{"android":"levelo://app?vid=a2273def-01c8-4ea0-8135-cc77a96cc8e9","ios":"levelo://app?vid=a2273def-01c8-4ea0-8135-cc77a96cc8e9"},"vehicle_type_id":"4","last_reported":1738879737,"current_range_meters":34000,"station_id":"ce4bhh92rcd13ifvqfi0","pricing_plan_id":"cebpf4jnsgd1na2vs0mg"},{"bike_id":"f951176f-0b25-49e1-b6cb-8147ffeb7fe1","system_id":"levelo_inurba_marseille","lat":43.25105,"lon":5.40318,"is_reserved":false,"is_disabled":false,"rental_uris":{"android":"levelo://app?vid=f951176f-0b25-49e1-b6cb-8147ffeb7fe1","ios":"levelo://app?vid=f951176f-0b25-49e1-b6cb-8147ffeb7fe1"},"vehicle_type_id":"4","last_reported":1738879737,"current_range_meters":11200,"station_id":"ce4bhlh2rcd13ifvqgig","pricing_plan_id":"cebpf4jnsgd1na2vs0mg"},{"bike_id":"9f6c3130-9a23-4f9a-9652-a76a30728a40","system_id":"levelo_inurba_marseille","lat":43.27182,"lon":5.40981,"is_reserved":false,"is_disabled":false,"rental_uris":{"android":"levelo://app?vid=9f6c3130-9a23-4f9a-9652-a76a30728a40","ios":"levelo://app?vid=9f6c3130-9a23-4f9a-9652-a76a30728a40"},"vehicle_type_id":"4","last_reported":1738879737,"current_range_meters":28400,"station_id":"ce4bhl12rcd13ifvqgf0","pricing_plan_id":"cebpf4jnsgd1na2vs0mg"},{"bike_id":"dfc563d8-6bd1-4b8f-b5c4-7a9c45b79439","system_id":"levelo_inurba_marseille","lat":43.24652,"lon":5.38888,"is_reserved":false,"is_disabled":false,"rental_uris":{"android":"levelo://app?vid=dfc563d8-6bd1-4b8f-b5c4-7a9c45b79439","ios":"levelo://app?vid=dfc563d8-6bd1-4b8f-b5c4-7a9c45b79439"},"vehicle_type_id":"4","last_reported":1738879737,"current_range_meters":39200,"station_id":"ce4bhg12rcd13ifvqf60","pricing_plan_id":"cebpf4jnsgd1na2vs0mg"},{"bike_id":"c7dc24d3-8ec8-44dc-aec3-1705d3fca788","system_id":"levelo_inurba_marseille","lat":43.2827,"lon":5.35079,"is_reserved":false,"is_disabled":false,"rental_uris":{"android":"levelo://app?vid=c7dc24d3-8ec8-44dc-aec3-1705d3fca788","ios":"levelo://app?vid=c7dc24d3-8ec8-44dc-aec3-1705d3fca788"},"vehicle_type_id":"4","last_reported":1738879737,"current_range_meters":34000,"station_id":"ce4bhbp2rcd13ifvqerg","pricing_plan_id":"cebpf4jnsgd1na2vs0mg"},{"bike_id":"052b2d36-c907-44bb-894d-ed094bec64e6","system_id":"levelo_inurba_marseille","lat":43.31758,"lon":5.39017,"is_reserved":false,"is_disabled":false,"rental_uris":{"android":"levelo://app?vid=052b2d36-c907-44bb-894d-ed094bec64e6","ios":"levelo://app?vid=052b2d36-c907-44bb-894d-ed094bec64e6"},"vehicle_type_id":"4","last_reported":1738879737,"current_range_meters":38800,"station_id":"ce4bhqp2rcd13ifvqhng","pricing_plan_id":"cebpf4jnsgd1na2vs0mg"},{"bike_id":"dcce0463-4e5e-4438-8354-e0e1b070f9b1","system_id":"levelo_inurba_marseille","lat":43.30888,"lon":5.3966,"is_reserved":false,"is_disabled":false,"rental_uris":{"android":"levelo://app?vid=dcce0463-4e5e-4438-8354-e0e1b070f9b1","ios":"levelo://app?vid=dcce0463-4e5e-4438-8354-e0e1b070f9b1"},"vehicle_type_id":"4","last_reported":1738879737,"current_range_meters":10000,"station_id":"ce4bh012rcd13ifvqcv0","pricing_plan_id":"cebpf4jnsgd1na2vs0mg"},{"bike_id":"2b671ea3-0fd8-49ca-add6-64b6d7709dd0","system_id":"levelo_inurba_marseille","lat":43.31303,"lon":5.38548,"is_reserved":false,"is_disabled":false,"rental_uris":{"android":"levelo://app?vid=2b671ea3-0fd8-49ca-add6-64b6d7709dd0","ios":"levelo://app?vid=2b671ea3-0fd8-49ca-add6-64b6d7709dd0"},"vehicle_type_id":"4","last_reported":1738879737,"current_range_meters":6000,"station_id":"","pricing_plan_id":"cebpf4jnsgd1na2vs0mg"},{"bike_id":"9fd00dbe-7d9e-4988-90b2-a1a9ad97fdf1","system_id":"levelo_inurba_marseille","lat":43.24542,"lon":5.39529,"is_reserved":false,"is_disabled":false,"rental_uris":{"android":"levelo://app?vid=9fd00dbe-7d9e-4988-90b2-a1a9ad97fdf1","ios":"levelo://app?vid=9fd00dbe-7d9e-4988-90b2-a1a9ad97fdf1"},"vehicle_type_id":"4","last_reported":1738879737,"current_range_meters":26800,"station_id":"ce4bhlp2rcd13ifvqgjg","pricing_plan_id":"cebpf4jnsgd1na2vs0mg"},{"bike_id":"f007c4c1-db59-4a07-8d7b-95ba9982ee49","system_id":"levelo_inurba_marseille","lat":43.33008,"lon":5.39082,"is_reserved":false,"is_disabled":false,"rental_uris":{"android":"levelo://app?vid=f007c4c1-db59-4a07-8d7b-95ba9982ee49","ios":"levelo://app?vid=f007c4c1-db59-4a07-8d7b-95ba9982ee49"},"vehicle_type_id":"4","last_reported":1738879737,"current_range_meters":38400,"station_id":"ce4bhr92rcd13ifvqhrg","pricing_plan_id":"cebpf4jnsgd1na2vs0mg"},{"bike_id":"97fe070a-439a-42f5-b3e3-8c2edbf86e8f","system_id":"levelo_inurba_marseille","lat":43.289323,"lon":5.383993,"is_reserved":false,"is_disabled":false,"rental_uris":{"android":"levelo://app?vid=97fe070a-439a-42f5-b3e3-8c2edbf86e8f","ios":"levelo://app?vid=97fe070a-439a-42f5-b3e3-8c2edbf86e8f"},"vehicle_type_id":"4","last_reported":1738879737,"current_range_meters":39200,"station_id":"ce4bh612rcd13ifvqe6g","pricing_plan_id":"cebpf4jnsgd1na2vs0mg"},{"bike_id":"48b06d0b-7a79-4c4a-9bef-3bde40720b51","system_id":"levelo_inurba_marseille","lat":43.33014,"lon":5.39032,"is_reserved":false,"is_disabled":false,"rental_uris":{"android":"levelo://app?vid=48b06d0b-7a79-4c4a-9bef-3bde40720b51","ios":"levelo://app?vid=48b06d0b-7a79-4c4a-9bef-3bde40720b51"},"vehicle_type_id":"4","last_reported":1738879737,"current_range_meters":38000,"station_id":"ce4bhr92rcd13ifvqhrg","pricing_plan_id":"cebpf4jnsgd1na2vs0mg"},{"bike_id":"38c47b95-ad7d-4d74-ab3c-fbd6a0ae4207","system_id":"levelo_inurba_marseille","lat":43.28411,"lon":5.37534,"is_reserved":false,"is_disabled":false,"rental_uris":{"android":"levelo://app?vid=38c47b95-ad7d-4d74-ab3c-fbd6a0ae4207","ios":"levelo://app?vid=38c47b95-ad7d-4d74-ab3c-fbd6a0ae4207"},"vehicle_type_id":"4","last_reported":1738879737,"current_range_meters":38800,"station_id":"ce4bh412rcd13ifvqds0","pricing_plan_id":"cebpf4jnsgd1na2vs0mg"},{"bike_id":"3b2260f5-8255-4612-aab0-5271c1189227","system_id":"levelo_inurba_marseille","lat":43.2928,"lon":5.40118,"is_reserved":false,"is_disabled":false,"rental_uris":{"android":"levelo://app?vid=3b2260f5-8255-4612-aab0-5271c1189227","ios":"levelo://app?vid=3b2260f5-8255-4612-aab0-5271c1189227"},"vehicle_type_id":"4","last_reported":1738879737,"current_range_meters":36800,"station_id":"ce4bh312rcd13ifvqdk0","pricing_plan_id":"cebpf4jnsgd1na2vs0mg"},{"bike_id":"952b94e4-124c-4be2-82a0-af98695bf574","system_id":"levelo_inurba_marseille","lat":43.30422,"lon":5.39755,"is_reserved":false,"is_disabled":false,"rental_uris":{"android":"levelo://app?vid=952b94e4-124c-4be2-82a0-af98695bf574","ios":"levelo://app?vid=952b94e4-124c-4be2-82a0-af98695bf574"},"vehicle_type_id":"4","last_reported":1738879737,"current_range_meters":38800,"station_id":"ce4bh092rcd13ifvqd20","pricing_plan_id":"cebpf4jnsgd1na2vs0mg"},{"bike_id":"891a7c0c-1d53-487e-b4db-7de6cd135e61","system_id":"levelo_inurba_marseille","lat":43.302156,"lon":5.400693,"is_reserved":false,"is_disabled":false,"rental_uris":{"android":"levelo://app?vid=891a7c0c-1d53-487e-b4db-7de6cd135e61","ios":"levelo://app?vid=891a7c0c-1d53-487e-b4db-7de6cd135e61"},"vehicle_type_id":"4","last_reported":1738879737,"current_range_meters":38400,"station_id":"ce4bgvh2rcd13ifvqcs0","pricing_plan_id":"cebpf4jnsgd1na2vs0mg"},{"bike_id":"da10d3b6-6e7d-4a1f-958a-0b25eceb1fc4","system_id":"levelo_inurba_marseille","lat":43.33028,"lon":5.39029,"is_reserved":false,"is_disabled":false,"rental_uris":{"android":"levelo://app?vid=da10d3b6-6e7d-4a1f-958a-0b25eceb1fc4","ios":"levelo://app?vid=da10d3b6-6e7d-4a1f-958a-0b25eceb1fc4"},"vehicle_type_id":"4","last_reported":1738879737,"current_range_meters":38800,"station_id":"ce4bhr92rcd13ifvqhrg","pricing_plan_id":"cebpf4jnsgd1na2vs0mg"},{"bike_id":"ff502147-c59e-4ff6-bd25-8b67dc6f8b4f","system_id":"levelo_inurba_marseille","lat":43.30783,"lon":5.37649,"is_reserved":false,"is_disabled":false,"rental_uris":{"android":"levelo://app?vid=ff502147-c59e-4ff6-bd25-8b67dc6f8b4f","ios":"levelo://app?vid=ff502147-c59e-4ff6-bd25-8b67dc6f8b4f"},"vehicle_type_id":"4","last_reported":1738879737,"current_range_meters":32800,"station_id":"ce4bgv92rcd13ifvqcq0","pricing_plan_id":"cebpf4jnsgd1na2vs0mg"},{"bike_id":"33e79e7c-2a29-409a-9fad-d8580744154f","system_id":"levelo_inurba_marseille","lat":43.27573,"lon":5.38426,"is_reserved":false,"is_disabled":false,"rental_uris":{"android":"levelo://app?vid=33e79e7c-2a29-409a-9fad-d8580744154f","ios":"levelo://app?vid=33e79e7c-2a29-409a-9fad-d8580744154f"},"vehicle_type_id":"4","last_reported":1738879737,"current_range_meters":30400,"station_id":"ce4bhh92rcd13ifvqfi0","pricing_plan_id":"cebpf4jnsgd1na2vs0mg"},{"bike_id":"46e45d80-2947-40e8-9f6c-f3318a1684df","system_id":"levelo_inurba_marseille","lat":43.29775,"lon":5.37113,"is_reserved":false,"is_disabled":false,"rental_uris":{"android":"levelo://app?vid=46e45d80-2947-40e8-9f6c-f3318a1684df","ios":"levelo://app?vid=46e45d80-2947-40e8-9f6c-f3318a1684df"},"vehicle_type_id":"4","last_reported":1738879737,"current_range_meters":19200,"station_id":"ce4bgop2rcd13ifvqc1g","pricing_plan_id":"cebpf4jnsgd1na2vs0mg"},{"bike_id":"64716b89-9b18-4889-acda-7e26befdf283","system_id":"levelo_inurba_marseille","lat":43.30657,"lon":5.40091,"is_reserved":false,"is_disabled":false,"rental_uris":{"android":"levelo://app?vid=64716b89-9b18-4889-acda-7e26befdf283","ios":"levelo://app?vid=64716b89-9b18-4889-acda-7e26befdf283"},"vehicle_type_id":"4","last_reported":1738879737,"current_range_meters":25200,"station_id":"ce4bh112rcd13ifvqda0","pricing_plan_id":"cebpf4jnsgd1na2vs0mg"},{"bike_id":"dba29890-40ca-4b50-91c9-4f0773bf06b1","system_id":"levelo_inurba_marseille","lat":43.25869,"lon":5.39932,"is_reserved":false,"is_disabled":false,"rental_uris":{"android":"levelo://app?vid=dba29890-40ca-4b50-91c9-4f0773bf06b1","ios":"levelo://app?vid=dba29890-40ca-4b50-91c9-4f0773bf06b1"},"vehicle_type_id":"4","last_reported":1738879737,"current_range_meters":32000,"station_id":"ce4bhl92rcd13ifvqghg","pricing_plan_id":"cebpf4jnsgd1na2vs0mg"},{"bike_id":"087f0b3a-4aea-43b2-8ccc-2a9ed614bb2e","system_id":"levelo_inurba_marseille","lat":43.31731,"lon":5.42395,"is_reserved":false,"is_disabled":false,"rental_uris":{"android":"levelo://app?vid=087f0b3a-4aea-43b2-8ccc-2a9ed614bb2e","ios":"levelo://app?vid=087f0b3a-4aea-43b2-8ccc-2a9ed614bb2e"},"vehicle_type_id":"4","last_reported":1738879737,"current_range_meters":39200,"station_id":"ce4bhp92rcd13ifvqhbg","pricing_plan_id":"cebpf4jnsgd1na2vs0mg"},{"bike_id":"20925e3b-ee65-44f7-a826-cfa76a66c880","system_id":"levelo_inurba_marseille","lat":43.31167,"lon":5.38689,"is_reserved":false,"is_disabled":false,"rental_uris":{"android":"levelo://app?vid=20925e3b-ee65-44f7-a826-cfa76a66c880","ios":"levelo://app?vid=20925e3b-ee65-44f7-a826-cfa76a66c880"},"vehicle_type_id":"4","last_reported":1738879737,"current_range_meters":38800,"station_id":"ce4bgv12rcd13ifvqcp0","pricing_plan_id":"cebpf4jnsgd1na2vs0mg"},{"bike_id":"9c0ce03a-5b91-4a8b-a474-9dd4d17d8d50","system_id":"levelo_inurba_marseille","lat":43.26582,"lon":5.39025,"is_reserved":false,"is_disabled":true,"rental_uris":{"android":"levelo://app?vid=9c0ce03a-5b91-4a8b-a474-9dd4d17d8d50","ios":"levelo://app?vid=9c0ce03a-5b91-4a8b-a474-9dd4d17d8d50"},"vehicle_type_id":"4","last_reported":1738879737,"current_range_meters":20000,"station_id":"ce4bhe12rcd13ifvqf30","pricing_plan_id":"cebpf4jnsgd1na2vs0mg"},{"bike_id":"b390db13-c71d-46ed-a51a-d1c00d35156e","system_id":"levelo_inurba_marseille","lat":43.31275,"lon":5.40171,"is_reserved":false,"is_disabled":false,"rental_uris":{"android":"levelo://app?vid=b390db13-c71d-46ed-a51a-d1c00d35156e","ios":"levelo://app?vid=b390db13-c71d-46ed-a51a-d1c00d35156e"},"vehicle_type_id":"4","last_reported":1738879737,"current_range_meters":9200,"station_id":"ce4bh092rcd13ifvqd30","pricing_plan_id":"cebpf4jnsgd1na2vs0mg"},{"bike_id":"d24de62b-f43d-4ee9-8636-eae3f9e1d596","system_id":"levelo_inurba_marseille","lat":43.27181,"lon":5.41,"is_reserved":false,"is_disabled":false,"rental_uris":{"android":"levelo://app?vid=d24de62b-f43d-4ee9-8636-eae3f9e1d596","ios":"levelo://app?vid=d24de62b-f43d-4ee9-8636-eae3f9e1d596"},"vehicle_type_id":"4","last_reported":1738879737,"current_range_meters":35600,"station_id":"ce4bhl12rcd13ifvqgf0","pricing_plan_id":"cebpf4jnsgd1na2vs0mg"},{"bike_id":"11c65c3a-3ad6-430f-acbd-cc72bfca7b6c","system_id":"levelo_inurba_marseille","lat":43.32313,"lon":5.3887,"is_reserved":false,"is_disabled":false,"rental_uris":{"android":"levelo://app?vid=11c65c3a-3ad6-430f-acbd-cc72bfca7b6c","ios":"levelo://app?vid=11c65c3a-3ad6-430f-acbd-cc72bfca7b6c"},"vehicle_type_id":"4","last_reported":1738879737,"current_range_meters":12800,"station_id":"ce4bhqp2rcd13ifvqhog","pricing_plan_id":"cebpf4jnsgd1na2vs0mg"},{"bike_id":"b5226f54-d960-4571-ad27-b0138ff1f96c","system_id":"levelo_inurba_marseille","lat":43.29723,"lon":5.36634,"is_reserved":false,"is_disabled":false,"rental_uris":{"android":"levelo://app?vid=b5226f54-d960-4571-ad27-b0138ff1f96c","ios":"levelo://app?vid=b5226f54-d960-4571-ad27-b0138ff1f96c"},"vehicle_type_id":"4","last_reported":1738879737,"current_range_meters":38800,"station_id":"ce4bgn12rcd13ifvqbt0","pricing_plan_id":"cebpf4jnsgd1na2vs0mg"},{"bike_id":"6e68b5be-2a81-41c2-a350-1acd763551d1","system_id":"levelo_inurba_marseille","lat":43.30808,"lon":5.43524,"is_reserved":false,"is_disabled":false,"rental_uris":{"android":"levelo://app?vid=6e68b5be-2a81-41c2-a350-1acd763551d1","ios":"levelo://app?vid=6e68b5be-2a81-41c2-a350-1acd763551d1"},"vehicle_type_id":"4","last_reported":1738879737,"current_range_meters":21600,"station_id":"ce4bhph2rcd13ifvqheg","pricing_plan_id":"cebpf4jnsgd1na2vs0mg"},{"bike_id":"6ab247fa-78fe-4db4-b76a-3e9b6824ff14","system_id":"levelo_inurba_marseille","lat":43.313735,"lon":5.384903,"is_reserved":false,"is_disabled":false,"rental_uris":{"android":"levelo://app?vid=6ab247fa-78fe-4db4-b76a-3e9b6824ff14","ios":"levelo://app?vid=6ab247fa-78fe-4db4-b76a-3e9b6824ff14"},"vehicle_type_id":"4","last_reported":1738879737,"current_range_meters":38800,"station_id":"ce4bgt92rcd13ifvqcf0","pricing_plan_id":"cebpf4jnsgd1na2vs0mg"},{"bike_id":"4e654cdb-894f-48c3-96fd-a44fe6ac1153","system_id":"levelo_inurba_marseille","lat":43.31194,"lon":5.36841,"is_reserved":false,"is_disabled":false,"rental_uris":{"android":"levelo://app?vid=4e654cdb-894f-48c3-96fd-a44fe6ac1153","ios":"levelo://app?vid=4e654cdb-894f-48c3-96fd-a44fe6ac1153"},"vehicle_type_id":"4","last_reported":1738879737,"current_range_meters":22400,"station_id":"ce4bgl92rcd13ifvqbq0","pricing_plan_id":"cebpf4jnsgd1na2vs0mg"},{"bike_id":"775e7c57-7e2a-41a4-bb53-8e81069898dc","system_id":"levelo_inurba_marseille","lat":43.25591,"lon":5.38256,"is_reserved":false,"is_disabled":false,"rental_uris":{"android":"levelo://app?vid=775e7c57-7e2a-41a4-bb53-8e81069898dc","ios":"levelo://app?vid=775e7c57-7e2a-41a4-bb53-8e81069898dc"},"vehicle_type_id":"4","last_reported":1738879737,"current_range_meters":6800,"station_id":"ce4bhih2rcd13ifvqfs0","pricing_plan_id":"cebpf4jnsgd1na2vs0mg"},{"bike_id":"242ecd98-897a-41c0-a6e1-9fcba3442a10","system_id":"levelo_inurba_marseille","lat":43.27176,"lon":5.40995,"is_reserved":false,"is_disabled":false,"rental_uris":{"android":"levelo://app?vid=242ecd98-897a-41c0-a6e1-9fcba3442a10","ios":"levelo://app?vid=242ecd98-897a-41c0-a6e1-9fcba3442a10"},"vehicle_type_id":"4","last_reported":1738879737,"current_range_meters":23200,"station_id":"ce4bhl12rcd13ifvqgf0","pricing_plan_id":"cebpf4jnsgd1na2vs0mg"},{"bike_id":"92167f17-7271-4d1c-9c40-7fc8f5e43d24","system_id":"levelo_inurba_marseille","lat":43.3168,"lon":5.40467,"is_reserved":false,"is_disabled":false,"rental_uris":{"android":"levelo://app?vid=92167f17-7271-4d1c-9c40-7fc8f5e43d24","ios":"levelo://app?vid=92167f17-7271-4d1c-9c40-7fc8f5e43d24"},"vehicle_type_id":"4","last_reported":1738879737,"current_range_meters":24800,"station_id":"ce4bh012rcd13ifvqd00","pricing_plan_id":"cebpf4jnsgd1na2vs0mg"},{"bike_id":"f8e1016a-0438-4d8c-9a4d-787693c9c165","system_id":"levelo_inurba_marseille","lat":43.28852,"lon":5.35858,"is_reserved":false,"is_disabled":false,"rental_uris":{"android":"levelo://app?vid=f8e1016a-0438-4d8c-9a4d-787693c9c165","ios":"levelo://app?vid=f8e1016a-0438-4d8c-9a4d-787693c9c165"},"vehicle_type_id":"4","last_reported":1738879737,"current_range_meters":28800,"station_id":"ce4bhb12rcd13ifvqem0","pricing_plan_id":"cebpf4jnsgd1na2vs0mg"},{"bike_id":"70680240-c0ce-4c00-ba26-bfa78895a67c","system_id":"levelo_inurba_marseille","lat":43.28622,"lon":5.37071,"is_reserved":false,"is_disabled":true,"rental_uris":{"android":"levelo://app?vid=70680240-c0ce-4c00-ba26-bfa78895a67c","ios":"levelo://app?vid=70680240-c0ce-4c00-ba26-bfa78895a67c"},"vehicle_type_id":"4","last_reported":1738879737,"current_range_meters":39200,"station_id":"ce4bht12rcd13ifvqi60","pricing_plan_id":"cebpf4jnsgd1na2vs0mg"},{"bike_id":"b5316ca8-d1c7-47a7-bb86-084028ef9e5d","system_id":"levelo_inurba_marseille","lat":43.29049,"lon":5.35911,"is_reserved":false,"is_disabled":false,"rental_uris":{"android":"levelo://app?vid=b5316ca8-d1c7-47a7-bb86-084028ef9e5d","ios":"levelo://app?vid=b5316ca8-d1c7-47a7-bb86-084028ef9e5d"},"vehicle_type_id":"4","last_reported":1738879737,"current_range_meters":36400,"station_id":"ce4bha92rcd13ifvqeg0","pricing_plan_id":"cebpf4jnsgd1na2vs0mg"},{"bike_id":"ef9b62b4-8d02-4e23-970e-3e7fcb88040b","system_id":"levelo_inurba_marseille","lat":43.26228,"lon":5.38829,"is_reserved":false,"is_disabled":false,"rental_uris":{"android":"levelo://app?vid=ef9b62b4-8d02-4e23-970e-3e7fcb88040b","ios":"levelo://app?vid=ef9b62b4-8d02-4e23-970e-3e7fcb88040b"},"vehicle_type_id":"4","last_reported":1738879737,"current_range_meters":14000,"station_id":"","pricing_plan_id":"cebpf4jnsgd1na2vs0mg"},{"bike_id":"e385d642-48aa-4e8d-9486-5f57838c0307","system_id":"levelo_inurba_marseille","lat":43.30376,"lon":5.41859,"is_reserved":false,"is_disabled":false,"rental_uris":{"android":"levelo://app?vid=e385d642-48aa-4e8d-9486-5f57838c0307","ios":"levelo://app?vid=e385d642-48aa-4e8d-9486-5f57838c0307"},"vehicle_type_id":"4","last_reported":1738879737,"current_range_meters":38000,"station_id":"ce4bhop2rcd13ifvqh7g","pricing_plan_id":"cebpf4jnsgd1na2vs0mg"},{"bike_id":"79a11ae0-6cda-4176-9dd3-b71924088580","system_id":"levelo_inurba_marseille","lat":43.27814,"lon":5.40709,"is_reserved":false,"is_disabled":false,"rental_uris":{"android":"levelo://app?vid=79a11ae0-6cda-4176-9dd3-b71924088580","ios":"levelo://app?vid=79a11ae0-6cda-4176-9dd3-b71924088580"},"vehicle_type_id":"4","last_reported":1738879737,"current_range_meters":38800,"station_id":"ce4bhnh2rcd13ifvqgtg","pricing_plan_id":"cebpf4jnsgd1na2vs0mg"},{"bike_id":"8dc0b4e5-9b7e-494d-a544-2c50f0f2f820","system_id":"levelo_inurba_marseille","lat":43.31883,"lon":5.40744,"is_reserved":false,"is_disabled":false,"rental_uris":{"android":"levelo://app?vid=8dc0b4e5-9b7e-494d-a544-2c50f0f2f820","ios":"levelo://app?vid=8dc0b4e5-9b7e-494d-a544-2c50f0f2f820"},"vehicle_type_id":"4","last_reported":1738879737,"current_range_meters":39200,"station_id":"ce4bhq12rcd13ifvqhig","pricing_plan_id":"cebpf4jnsgd1na2vs0mg"},{"bike_id":"46d4d974-7f9b-4028-a6ca-690a66d16989","system_id":"levelo_inurba_marseille","lat":43.29716,"lon":5.36616,"is_reserved":false,"is_disabled":false,"rental_uris":{"android":"levelo://app?vid=46d4d974-7f9b-4028-a6ca-690a66d16989","ios":"levelo://app?vid=46d4d974-7f9b-4028-a6ca-690a66d16989"},"vehicle_type_id":"4","last_reported":1738879737,"current_range_meters":26000,"station_id":"ce4bgn12rcd13ifvqbt0","pricing_plan_id":"cebpf4jnsgd1na2vs0mg"},{"bike_id":"7134c88a-9f1c-4e5d-8560-94670a1cb50b","system_id":"levelo_inurba_marseille","lat":43.29904,"lon":5.39755,"is_reserved":false,"is_disabled":false,"rental_uris":{"android":"levelo://app?vid=7134c88a-9f1c-4e5d-8560-94670a1cb50b","ios":"levelo://app?vid=7134c88a-9f1c-4e5d-8560-94670a1cb50b"},"vehicle_type_id":"4","last_reported":1738879737,"current_range_meters":30400,"station_id":"ce4bh0h2rcd13ifvqd50","pricing_plan_id":"cebpf4jnsgd1na2vs0mg"},{"bike_id":"b8887703-4b30-48de-9563-0f6c111ca7a4","system_id":"levelo_inurba_marseille","lat":43.29791,"lon":5.39339,"is_reserved":false,"is_disabled":false,"rental_uris":{"android":"levelo://app?vid=b8887703-4b30-48de-9563-0f6c111ca7a4","ios":"levelo://app?vid=b8887703-4b30-48de-9563-0f6c111ca7a4"},"vehicle_type_id":"4","last_reported":1738879737,"current_range_meters":26000,"station_id":"chh1huq6cuj3fo74tm60","pricing_plan_id":"cebpf4jnsgd1na2vs0mg"},{"bike_id":"550d392b-7589-420f-bc4e-bf34dd38b83a","system_id":"levelo_inurba_marseille","lat":43.2796,"lon":5.41053,"is_reserved":false,"is_disabled":false,"rental_uris":{"android":"levelo://app?vid=550d392b-7589-420f-bc4e-bf34dd38b83a","ios":"levelo://app?vid=550d392b-7589-420f-bc4e-bf34dd38b83a"},"vehicle_type_id":"4","last_reported":1738879737,"current_range_meters":8000,"station_id":"ce4bhnp2rcd13ifvqh0g","pricing_plan_id":"cebpf4jnsgd1na2vs0mg"},{"bike_id":"61fa4b26-20c8-466a-9fd1-66899d5ff713","system_id":"levelo_inurba_marseille","lat":43.32368,"lon":5.40603,"is_reserved":false,"is_disabled":false,"rental_uris":{"android":"levelo://app?vid=61fa4b26-20c8-466a-9fd1-66899d5ff713","ios":"levelo://app?vid=61fa4b26-20c8-466a-9fd1-66899d5ff713"},"vehicle_type_id":"4","last_reported":1738879737,"current_range_meters":26000,"station_id":"ce4bhq92rcd13ifvqhjg","pricing_plan_id":"cebpf4jnsgd1na2vs0mg"},{"bike_id":"7bc2d4b6-7844-46be-a947-040b3c3e100d","system_id":"levelo_inurba_marseille","lat":43.27921,"lon":5.39592,"is_reserved":false,"is_disabled":false,"rental_uris":{"android":"levelo://app?vid=7bc2d4b6-7844-46be-a947-040b3c3e100d","ios":"levelo://app?vid=7bc2d4b6-7844-46be-a947-040b3c3e100d"},"vehicle_type_id":"4","last_reported":1738879737,"current_range_meters":38000,"station_id":"ce4bhf92rcd13ifvqf40","pricing_plan_id":"cebpf4jnsgd1na2vs0mg"},{"bike_id":"254048ed-538f-43db-8dbf-2f9d8ee68a52","system_id":"levelo_inurba_marseille","lat":43.27204,"lon":5.40985,"is_reserved":false,"is_disabled":false,"rental_uris":{"android":"levelo://app?vid=254048ed-538f-43db-8dbf-2f9d8ee68a52","ios":"levelo://app?vid=254048ed-538f-43db-8dbf-2f9d8ee68a52"},"vehicle_type_id":"4","last_reported":1738879737,"current_range_meters":36000,"station_id":"ce4bhl12rcd13ifvqgf0","pricing_plan_id":"cebpf4jnsgd1na2vs0mg"},{"bike_id":"1e6bd623-b9e9-4650-9f6f-8b4d5252096e","system_id":"levelo_inurba_marseille","lat":43.30799,"lon":5.43514,"is_reserved":false,"is_disabled":false,"rental_uris":{"android":"levelo://app?vid=1e6bd623-b9e9-4650-9f6f-8b4d5252096e","ios":"levelo://app?vid=1e6bd623-b9e9-4650-9f6f-8b4d5252096e"},"vehicle_type_id":"4","last_reported":1738879737,"current_range_meters":39200,"station_id":"ce4bhph2rcd13ifvqheg","pricing_plan_id":"cebpf4jnsgd1na2vs0mg"},{"bike_id":"7a65236e-e55b-4305-a6c7-456e00675e76","system_id":"levelo_inurba_marseille","lat":43.27835,"lon":5.39219,"is_reserved":false,"is_disabled":false,"rental_uris":{"android":"levelo://app?vid=7a65236e-e55b-4305-a6c7-456e00675e76","ios":"levelo://app?vid=7a65236e-e55b-4305-a6c7-456e00675e76"},"vehicle_type_id":"4","last_reported":1738879737,"current_range_meters":38800,"station_id":"ce4bhjp2rcd13ifvqga0","pricing_plan_id":"cebpf4jnsgd1na2vs0mg"},{"bike_id":"0d2768c4-ffd3-49e6-ae50-223632ef44ad","system_id":"levelo_inurba_marseille","lat":43.29698,"lon":5.37295,"is_reserved":false,"is_disabled":true,"rental_uris":{"android":"levelo://app?vid=0d2768c4-ffd3-49e6-ae50-223632ef44ad","ios":"levelo://app?vid=0d2768c4-ffd3-49e6-ae50-223632ef44ad"},"vehicle_type_id":"4","last_reported":1738879737,"current_range_meters":11600,"station_id":"ce4bho92rcd13ifvqh3g","pricing_plan_id":"cebpf4jnsgd1na2vs0mg"},{"bike_id":"01481c32-4205-4cd8-9adb-76352912a793","system_id":"levelo_inurba_marseille","lat":43.30801,"lon":5.3814,"is_reserved":false,"is_disabled":false,"rental_uris":{"android":"levelo://app?vid=01481c32-4205-4cd8-9adb-76352912a793","ios":"levelo://app?vid=01481c32-4205-4cd8-9adb-76352912a793"},"vehicle_type_id":"4","last_reported":1738879737,"current_range_meters":4400,"station_id":"ce4bgt12rcd13ifvqce0","pricing_plan_id":"cebpf4jnsgd1na2vs0mg"},{"bike_id":"adea3fe0-0d5f-493f-bc7a-8db19cd779cc","system_id":"levelo_inurba_marseille","lat":43.26203,"lon":5.37937,"is_reserved":false,"is_disabled":false,"rental_uris":{"android":"levelo://app?vid=adea3fe0-0d5f-493f-bc7a-8db19cd779cc","ios":"levelo://app?vid=adea3fe0-0d5f-493f-bc7a-8db19cd779cc"},"vehicle_type_id":"4","last_reported":1738879737,"current_range_meters":38800,"station_id":"ce4bhjp2rcd13ifvqg90","pricing_plan_id":"cebpf4jnsgd1na2vs0mg"},{"bike_id":"51de6889-b180-4464-aff8-03e8a0c73f3a","system_id":"levelo_inurba_marseille","lat":43.3089,"lon":5.37201,"is_reserved":false,"is_disabled":false,"rental_uris":{"android":"levelo://app?vid=51de6889-b180-4464-aff8-03e8a0c73f3a","ios":"levelo://app?vid=51de6889-b180-4464-aff8-03e8a0c73f3a"},"vehicle_type_id":"4","last_reported":1738879737,"current_range_meters":38400,"station_id":"ce4bguh2rcd13ifvqckg","pricing_plan_id":"cebpf4jnsgd1na2vs0mg"},{"bike_id":"c6bcede6-aa04-430e-9bb4-767f52af1804","system_id":"levelo_inurba_marseille","lat":43.31354,"lon":5.38493,"is_reserved":false,"is_disabled":false,"rental_uris":{"android":"levelo://app?vid=c6bcede6-aa04-430e-9bb4-767f52af1804","ios":"levelo://app?vid=c6bcede6-aa04-430e-9bb4-767f52af1804"},"vehicle_type_id":"4","last_reported":1738879737,"current_range_meters":16000,"station_id":"ce4bgt92rcd13ifvqcf0","pricing_plan_id":"cebpf4jnsgd1na2vs0mg"},{"bike_id":"1e7a2219-8a62-4d64-ae7c-c3d6f0f90ba9","system_id":"levelo_inurba_marseille","lat":43.28447,"lon":5.39149,"is_reserved":false,"is_disabled":false,"rental_uris":{"android":"levelo://app?vid=1e7a2219-8a62-4d64-ae7c-c3d6f0f90ba9","ios":"levelo://app?vid=1e7a2219-8a62-4d64-ae7c-c3d6f0f90ba9"},"vehicle_type_id":"4","last_reported":1738879737,"current_range_meters":29600,"station_id":"","pricing_plan_id":"cebpf4jnsgd1na2vs0mg"},{"bike_id":"c24a0944-9686-4c99-bfcb-6448fb0e1bb6","system_id":"levelo_inurba_marseille","lat":43.24079,"lon":5.37726,"is_reserved":false,"is_disabled":false,"rental_uris":{"android":"levelo://app?vid=c24a0944-9686-4c99-bfcb-6448fb0e1bb6","ios":"levelo://app?vid=c24a0944-9686-4c99-bfcb-6448fb0e1bb6"},"vehicle_type_id":"4","last_reported":1738879737,"current_range_meters":30400,"station_id":"ce4bhnp2rcd13ifvqgvg","pricing_plan_id":"cebpf4jnsgd1na2vs0mg"},{"bike_id":"ddabfc2f-5038-4225-9c45-0f70b1e37cba","system_id":"levelo_inurba_marseille","lat":43.31708,"lon":5.43688,"is_reserved":false,"is_disabled":false,"rental_uris":{"android":"levelo://app?vid=ddabfc2f-5038-4225-9c45-0f70b1e37cba","ios":"levelo://app?vid=ddabfc2f-5038-4225-9c45-0f70b1e37cba"},"vehicle_type_id":"4","last_reported":1738879737,"current_range_meters":39200,"station_id":"ce4bhp92rcd13ifvqhcg","pricing_plan_id":"cebpf4jnsgd1na2vs0mg"},{"bike_id":"7cf1f61c-b313-49b8-b3a8-1e15128022cd","system_id":"levelo_inurba_marseille","lat":43.29326,"lon":5.37169,"is_reserved":false,"is_disabled":false,"rental_uris":{"android":"levelo://app?vid=7cf1f61c-b313-49b8-b3a8-1e15128022cd","ios":"levelo://app?vid=7cf1f61c-b313-49b8-b3a8-1e15128022cd"},"vehicle_type_id":"4","last_reported":1738879737,"current_range_meters":19600,"station_id":"ce4bgh92rcd13ifvqb40","pricing_plan_id":"cebpf4jnsgd1na2vs0mg"},{"bike_id":"28a8e97d-887c-4f9c-9505-5d36a555c87b","system_id":"levelo_inurba_marseille","lat":43.27972,"lon":5.41043,"is_reserved":false,"is_disabled":false,"rental_uris":{"android":"levelo://app?vid=28a8e97d-887c-4f9c-9505-5d36a555c87b","ios":"levelo://app?vid=28a8e97d-887c-4f9c-9505-5d36a555c87b"},"vehicle_type_id":"4","last_reported":1738879737,"current_range_meters":9600,"station_id":"ce4bhnp2rcd13ifvqh0g","pricing_plan_id":"cebpf4jnsgd1na2vs0mg"},{"bike_id":"3f938fb8-8354-44df-bb16-61e23a662415","system_id":"levelo_inurba_marseille","lat":43.28096,"lon":5.37869,"is_reserved":false,"is_disabled":false,"rental_uris":{"android":"levelo://app?vid=3f938fb8-8354-44df-bb16-61e23a662415","ios":"levelo://app?vid=3f938fb8-8354-44df-bb16-61e23a662415"},"vehicle_type_id":"4","last_reported":1738879737,"current_range_meters":24000,"station_id":"ce4bha12rcd13ifvqee0","pricing_plan_id":"cebpf4jnsgd1na2vs0mg"},{"bike_id":"d0d68101-69b9-4fd7-bb0f-3af8731260ee","system_id":"levelo_inurba_marseille","lat":43.31758,"lon":5.39002,"is_reserved":false,"is_disabled":false,"rental_uris":{"android":"levelo://app?vid=d0d68101-69b9-4fd7-bb0f-3af8731260ee","ios":"levelo://app?vid=d0d68101-69b9-4fd7-bb0f-3af8731260ee"},"vehicle_type_id":"4","last_reported":1738879737,"current_range_meters":39200,"station_id":"ce4bhqp2rcd13ifvqhng","pricing_plan_id":"cebpf4jnsgd1na2vs0mg"},{"bike_id":"3b064e23-213e-4c6d-87c8-e53f0679353d","system_id":"levelo_inurba_marseille","lat":43.29904,"lon":5.38129,"is_reserved":false,"is_disabled":false,"rental_uris":{"android":"levelo://app?vid=3b064e23-213e-4c6d-87c8-e53f0679353d","ios":"levelo://app?vid=3b064e23-213e-4c6d-87c8-e53f0679353d"},"vehicle_type_id":"4","last_reported":1738879737,"current_range_meters":9200,"station_id":"ce4bgj12rcd13ifvqbc0","pricing_plan_id":"cebpf4jnsgd1na2vs0mg"},{"bike_id":"8e791de0-6e91-4611-94c1-59007be40fa1","system_id":"levelo_inurba_marseille","lat":43.27566,"lon":5.3843,"is_reserved":false,"is_disabled":false,"rental_uris":{"android":"levelo://app?vid=8e791de0-6e91-4611-94c1-59007be40fa1","ios":"levelo://app?vid=8e791de0-6e91-4611-94c1-59007be40fa1"},"vehicle_type_id":"4","last_reported":1738879737,"current_range_meters":26800,"station_id":"ce4bhh92rcd13ifvqfi0","pricing_plan_id":"cebpf4jnsgd1na2vs0mg"},{"bike_id":"60f55e73-a880-4f24-b1cc-a214bb6f2753","system_id":"levelo_inurba_marseille","lat":43.25507,"lon":5.37649,"is_reserved":false,"is_disabled":false,"rental_uris":{"android":"levelo://app?vid=60f55e73-a880-4f24-b1cc-a214bb6f2753","ios":"levelo://app?vid=60f55e73-a880-4f24-b1cc-a214bb6f2753"},"vehicle_type_id":"4","last_reported":1738879737,"current_range_meters":33600,"station_id":"ce4bhh12rcd13ifvqff0","pricing_plan_id":"cebpf4jnsgd1na2vs0mg"},{"bike_id":"ca957970-bc7c-429b-80fd-e451c27e2ad9","system_id":"levelo_inurba_marseille","lat":43.33018,"lon":5.39041,"is_reserved":false,"is_disabled":false,"rental_uris":{"android":"levelo://app?vid=ca957970-bc7c-429b-80fd-e451c27e2ad9","ios":"levelo://app?vid=ca957970-bc7c-429b-80fd-e451c27e2ad9"},"vehicle_type_id":"4","last_reported":1738879737,"current_range_meters":39200,"station_id":"ce4bhr92rcd13ifvqhrg","pricing_plan_id":"cebpf4jnsgd1na2vs0mg"},{"bike_id":"59db9156-837c-4bef-bdf0-6cb05d00fb23","system_id":"levelo_inurba_marseille","lat":43.24165,"lon":5.36417,"is_reserved":false,"is_disabled":false,"rental_uris":{"android":"levelo://app?vid=59db9156-837c-4bef-bdf0-6cb05d00fb23","ios":"levelo://app?vid=59db9156-837c-4bef-bdf0-6cb05d00fb23"},"vehicle_type_id":"4","last_reported":1738879737,"current_range_meters":34000,"station_id":"cpo36qri1sfpv3e86is0","pricing_plan_id":"cebpf4jnsgd1na2vs0mg"},{"bike_id":"35461205-ef14-4919-947f-0e518669ddd6","system_id":"levelo_inurba_marseille","lat":43.31109,"lon":5.37763,"is_reserved":false,"is_disabled":false,"rental_uris":{"android":"levelo://app?vid=35461205-ef14-4919-947f-0e518669ddd6","ios":"levelo://app?vid=35461205-ef14-4919-947f-0e518669ddd6"},"vehicle_type_id":"4","last_reported":1738879737,"current_range_meters":8000,"station_id":"ce4bgt92rcd13ifvqcg0","pricing_plan_id":"cebpf4jnsgd1na2vs0mg"},{"bike_id":"a82ded2b-1090-4b11-a00f-b79e72afb961","system_id":"levelo_inurba_marseille","lat":43.27944,"lon":5.41045,"is_reserved":false,"is_disabled":false,"rental_uris":{"android":"levelo://app?vid=a82ded2b-1090-4b11-a00f-b79e72afb961","ios":"levelo://app?vid=a82ded2b-1090-4b11-a00f-b79e72afb961"},"vehicle_type_id":"4","last_reported":1738879737,"current_range_meters":9600,"station_id":"ce4bhnp2rcd13ifvqh0g","pricing_plan_id":"cebpf4jnsgd1na2vs0mg"},{"bike_id":"19c91191-64ee-4803-94d7-14a4a66340df","system_id":"levelo_inurba_marseille","lat":43.31715,"lon":5.42407,"is_reserved":false,"is_disabled":true,"rental_uris":{"android":"levelo://app?vid=19c91191-64ee-4803-94d7-14a4a66340df","ios":"levelo://app?vid=19c91191-64ee-4803-94d7-14a4a66340df"},"vehicle_type_id":"4","last_reported":1738879737,"current_range_meters":0,"station_id":"ce4bhp92rcd13ifvqhbg","pricing_plan_id":"cebpf4jnsgd1na2vs0mg"},{"bike_id":"0a6a90a0-b9a1-4553-942b-9cc8f0c94f66","system_id":"levelo_inurba_marseille","lat":43.29252,"lon":5.40905,"is_reserved":false,"is_disabled":true,"rental_uris":{"android":"levelo://app?vid=0a6a90a0-b9a1-4553-942b-9cc8f0c94f66","ios":"levelo://app?vid=0a6a90a0-b9a1-4553-942b-9cc8f0c94f66"},"vehicle_type_id":"4","last_reported":1738879737,"current_range_meters":17200,"station_id":"ce4bh192rcd13ifvqdc0","pricing_plan_id":"cebpf4jnsgd1na2vs0mg"},{"bike_id":"8a726cf3-8e30-4d02-a6ed-05ce5072f6e5","system_id":"levelo_inurba_marseille","lat":43.265,"lon":5.39543,"is_reserved":false,"is_disabled":false,"rental_uris":{"android":"levelo://app?vid=8a726cf3-8e30-4d02-a6ed-05ce5072f6e5","ios":"levelo://app?vid=8a726cf3-8e30-4d02-a6ed-05ce5072f6e5"},"vehicle_type_id":"4","last_reported":1738879737,"current_range_meters":35200,"station_id":"ce4bhi12rcd13ifvqfq0","pricing_plan_id":"cebpf4jnsgd1na2vs0mg"},{"bike_id":"fef1bd1d-2ad2-48f6-a1bb-d87aafe8c512","system_id":"levelo_inurba_marseille","lat":43.28952,"lon":5.36392,"is_reserved":false,"is_disabled":true,"rental_uris":{"android":"levelo://app?vid=fef1bd1d-2ad2-48f6-a1bb-d87aafe8c512","ios":"levelo://app?vid=fef1bd1d-2ad2-48f6-a1bb-d87aafe8c512"},"vehicle_type_id":"4","last_reported":1738879737,"current_range_meters":0,"station_id":"ce4bhc92rcd13ifvqetg","pricing_plan_id":"cebpf4jnsgd1na2vs0mg"},{"bike_id":"1df03635-8b6b-4117-9c9b-a2afa7bb927f","system_id":"levelo_inurba_marseille","lat":43.2318,"lon":5.39996,"is_reserved":false,"is_disabled":false,"rental_uris":{"android":"levelo://app?vid=1df03635-8b6b-4117-9c9b-a2afa7bb927f","ios":"levelo://app?vid=1df03635-8b6b-4117-9c9b-a2afa7bb927f"},"vehicle_type_id":"4","last_reported":1738879737,"current_range_meters":22400,"station_id":"ce4bhn12rcd13ifvqgqg","pricing_plan_id":"cebpf4jnsgd1na2vs0mg"},{"bike_id":"b6306b21-43ab-4439-b67f-29d0b5cdce20","system_id":"levelo_inurba_marseille","lat":43.29817,"lon":5.39367,"is_reserved":false,"is_disabled":false,"rental_uris":{"android":"levelo://app?vid=b6306b21-43ab-4439-b67f-29d0b5cdce20","ios":"levelo://app?vid=b6306b21-43ab-4439-b67f-29d0b5cdce20"},"vehicle_type_id":"4","last_reported":1738879737,"current_range_meters":38800,"station_id":"chh1huq6cuj3fo74tm60","pricing_plan_id":"cebpf4jnsgd1na2vs0mg"},{"bike_id":"63502e7d-71b3-44d6-b82d-6352b6e3809f","system_id":"levelo_inurba_marseille","lat":43.25837,"lon":5.394205,"is_reserved":false,"is_disabled":false,"rental_uris":{"android":"levelo://app?vid=63502e7d-71b3-44d6-b82d-6352b6e3809f","ios":"levelo://app?vid=63502e7d-71b3-44d6-b82d-6352b6e3809f"},"vehicle_type_id":"4","last_reported":1738879737,"current_range_meters":38800,"station_id":"ce4bhip2rcd13ifvqft0","pricing_plan_id":"cebpf4jnsgd1na2vs0mg"},{"bike_id":"aa20ddd3-fab3-4250-b35b-41c0ae9e33eb","system_id":"levelo_inurba_marseille","lat":43.24533,"lon":5.37275,"is_reserved":false,"is_disabled":false,"rental_uris":{"android":"levelo://app?vid=aa20ddd3-fab3-4250-b35b-41c0ae9e33eb","ios":"levelo://app?vid=aa20ddd3-fab3-4250-b35b-41c0ae9e33eb"},"vehicle_type_id":"4","last_reported":1738879737,"current_range_meters":15200,"station_id":"","pricing_plan_id":"cebpf4jnsgd1na2vs0mg"},{"bike_id":"43dc824f-84e8-4c9b-b2b0-dcb4138333f3","system_id":"levelo_inurba_marseille","lat":43.2969,"lon":5.37282,"is_reserved":false,"is_disabled":false,"rental_uris":{"android":"levelo://app?vid=43dc824f-84e8-4c9b-b2b0-dcb4138333f3","ios":"levelo://app?vid=43dc824f-84e8-4c9b-b2b0-dcb4138333f3"},"vehicle_type_id":"4","last_reported":1738879737,"current_range_meters":38800,"station_id":"ce4bgk12rcd13ifvqbj0","pricing_plan_id":"cebpf4jnsgd1na2vs0mg"},{"bike_id":"7f23238b-910d-447c-a7f0-ff4abaf289e5","system_id":"levelo_inurba_marseille","lat":43.2989,"lon":5.39754,"is_reserved":false,"is_disabled":false,"rental_uris":{"android":"levelo://app?vid=7f23238b-910d-447c-a7f0-ff4abaf289e5","ios":"levelo://app?vid=7f23238b-910d-447c-a7f0-ff4abaf289e5"},"vehicle_type_id":"4","last_reported":1738879737,"current_range_meters":38800,"station_id":"ce4bh0h2rcd13ifvqd50","pricing_plan_id":"cebpf4jnsgd1na2vs0mg"},{"bike_id":"744f4122-a65c-499d-80ba-7729a1ce92fe","system_id":"levelo_inurba_marseille","lat":43.28443,"lon":5.39219,"is_reserved":false,"is_disabled":true,"rental_uris":{"android":"levelo://app?vid=744f4122-a65c-499d-80ba-7729a1ce92fe","ios":"levelo://app?vid=744f4122-a65c-499d-80ba-7729a1ce92fe"},"vehicle_type_id":"4","last_reported":1738879737,"current_range_meters":36800,"station_id":"ce4bhoh2rcd13ifvqh5g","pricing_plan_id":"cebpf4jnsgd1na2vs0mg"},{"bike_id":"0e2ba579-8a6a-4848-b615-bb63d85e0b3c","system_id":"levelo_inurba_marseille","lat":43.27311,"lon":5.39081,"is_reserved":false,"is_disabled":true,"rental_uris":{"android":"levelo://app?vid=0e2ba579-8a6a-4848-b615-bb63d85e0b3c","ios":"levelo://app?vid=0e2ba579-8a6a-4848-b615-bb63d85e0b3c"},"vehicle_type_id":"4","last_reported":1738879737,"current_range_meters":38800,"station_id":"ce4bhgp2rcd13ifvqfe0","pricing_plan_id":"cebpf4jnsgd1na2vs0mg"},{"bike_id":"5d1dacf3-3fa1-40ba-8373-ce163dd2d283","system_id":"levelo_inurba_marseille","lat":43.26199,"lon":5.37938,"is_reserved":false,"is_disabled":false,"rental_uris":{"android":"levelo://app?vid=5d1dacf3-3fa1-40ba-8373-ce163dd2d283","ios":"levelo://app?vid=5d1dacf3-3fa1-40ba-8373-ce163dd2d283"},"vehicle_type_id":"4","last_reported":1738879737,"current_range_meters":38800,"station_id":"ce4bhjp2rcd13ifvqg90","pricing_plan_id":"cebpf4jnsgd1na2vs0mg"},{"bike_id":"afe6d814-558d-43ac-8000-542ecbb63139","system_id":"levelo_inurba_marseille","lat":43.29308,"lon":5.37117,"is_reserved":false,"is_disabled":false,"rental_uris":{"android":"levelo://app?vid=afe6d814-558d-43ac-8000-542ecbb63139","ios":"levelo://app?vid=afe6d814-558d-43ac-8000-542ecbb63139"},"vehicle_type_id":"4","last_reported":1738879737,"current_range_meters":15200,"station_id":"","pricing_plan_id":"cebpf4jnsgd1na2vs0mg"},{"bike_id":"eb192197-0219-4cdf-905a-c64bd68ab8be","system_id":"levelo_inurba_marseille","lat":43.28453,"lon":5.35902,"is_reserved":false,"is_disabled":false,"rental_uris":{"android":"levelo://app?vid=eb192197-0219-4cdf-905a-c64bd68ab8be","ios":"levelo://app?vid=eb192197-0219-4cdf-905a-c64bd68ab8be"},"vehicle_type_id":"4","last_reported":1738879737,"current_range_meters":38800,"station_id":"ce4bhah2rcd13ifvqei0","pricing_plan_id":"cebpf4jnsgd1na2vs0mg"},{"bike_id":"8b2375cd-7bac-4044-8d34-541a6bd9df3d","system_id":"levelo_inurba_marseille","lat":43.2867,"lon":5.3636,"is_reserved":false,"is_disabled":false,"rental_uris":{"android":"levelo://app?vid=8b2375cd-7bac-4044-8d34-541a6bd9df3d","ios":"levelo://app?vid=8b2375cd-7bac-4044-8d34-541a6bd9df3d"},"vehicle_type_id":"4","last_reported":1738879737,"current_range_meters":32000,"station_id":"ce4bhah2rcd13ifvqej0","pricing_plan_id":"cebpf4jnsgd1na2vs0mg"},{"bike_id":"26226eb4-bffe-4870-bfd9-66722275b374","system_id":"levelo_inurba_marseille","lat":43.28459,"lon":5.35892,"is_reserved":false,"is_disabled":false,"rental_uris":{"android":"levelo://app?vid=26226eb4-bffe-4870-bfd9-66722275b374","ios":"levelo://app?vid=26226eb4-bffe-4870-bfd9-66722275b374"},"vehicle_type_id":"4","last_reported":1738879737,"current_range_meters":38800,"station_id":"ce4bhah2rcd13ifvqei0","pricing_plan_id":"cebpf4jnsgd1na2vs0mg"},{"bike_id":"eef44ffc-844a-4401-925c-4d0ed6473a8a","system_id":"levelo_inurba_marseille","lat":43.30915,"lon":5.36846,"is_reserved":false,"is_disabled":false,"rental_uris":{"android":"levelo://app?vid=eef44ffc-844a-4401-925c-4d0ed6473a8a","ios":"levelo://app?vid=eef44ffc-844a-4401-925c-4d0ed6473a8a"},"vehicle_type_id":"4","last_reported":1738879737,"current_range_meters":38000,"station_id":"ce4bgn92rcd13ifvqbvg","pricing_plan_id":"cebpf4jnsgd1na2vs0mg"},{"bike_id":"09a9ac53-cd06-4438-9a55-77242cbf0611","system_id":"levelo_inurba_marseille","lat":43.24178,"lon":5.39734,"is_reserved":false,"is_disabled":false,"rental_uris":{"android":"levelo://app?vid=09a9ac53-cd06-4438-9a55-77242cbf0611","ios":"levelo://app?vid=09a9ac53-cd06-4438-9a55-77242cbf0611"},"vehicle_type_id":"4","last_reported":1738879737,"current_range_meters":7200,"station_id":"ce4bhn12rcd13ifvqgpg","pricing_plan_id":"cebpf4jnsgd1na2vs0mg"},{"bike_id":"35930cea-1b67-4687-96dc-d097a09d3b39","system_id":"levelo_inurba_marseille","lat":43.284583,"lon":5.3588,"is_reserved":false,"is_disabled":false,"rental_uris":{"android":"levelo://app?vid=35930cea-1b67-4687-96dc-d097a09d3b39","ios":"levelo://app?vid=35930cea-1b67-4687-96dc-d097a09d3b39"},"vehicle_type_id":"4","last_reported":1738879737,"current_range_meters":38800,"station_id":"ce4bhah2rcd13ifvqei0","pricing_plan_id":"cebpf4jnsgd1na2vs0mg"},{"bike_id":"a84f4ed9-9752-4707-9517-860f878319ee","system_id":"levelo_inurba_marseille","lat":43.23962,"lon":5.36649,"is_reserved":false,"is_disabled":false,"rental_uris":{"android":"levelo://app?vid=a84f4ed9-9752-4707-9517-860f878319ee","ios":"levelo://app?vid=a84f4ed9-9752-4707-9517-860f878319ee"},"vehicle_type_id":"4","last_reported":1738879737,"current_range_meters":22800,"station_id":"ce4bhi12rcd13ifvqfp0","pricing_plan_id":"cebpf4jnsgd1na2vs0mg"},{"bike_id":"d9d46ce6-4774-42c1-9654-aadcbb4cdfbf","system_id":"levelo_inurba_marseille","lat":43.2655,"lon":5.37271,"is_reserved":false,"is_disabled":false,"rental_uris":{"android":"levelo://app?vid=d9d46ce6-4774-42c1-9654-aadcbb4cdfbf","ios":"levelo://app?vid=d9d46ce6-4774-42c1-9654-aadcbb4cdfbf"},"vehicle_type_id":"4","last_reported":1738879737,"current_range_meters":38000,"station_id":"ce4bhg12rcd13ifvqf70","pricing_plan_id":"cebpf4jnsgd1na2vs0mg"},{"bike_id":"c98dac74-8ef2-440f-bb69-0af2b3220a11","system_id":"levelo_inurba_marseille","lat":43.29938,"lon":5.36268,"is_reserved":false,"is_disabled":true,"rental_uris":{"android":"levelo://app?vid=c98dac74-8ef2-440f-bb69-0af2b3220a11","ios":"levelo://app?vid=c98dac74-8ef2-440f-bb69-0af2b3220a11"},"vehicle_type_id":"4","last_reported":1738879737,"current_range_meters":36800,"station_id":"","pricing_plan_id":"cebpf4jnsgd1na2vs0mg"},{"bike_id":"e5174efd-1a7c-4fdb-b4af-6221476f31e1","system_id":"levelo_inurba_marseille","lat":43.28726,"lon":5.36084,"is_reserved":false,"is_disabled":false,"rental_uris":{"android":"levelo://app?vid=e5174efd-1a7c-4fdb-b4af-6221476f31e1","ios":"levelo://app?vid=e5174efd-1a7c-4fdb-b4af-6221476f31e1"},"vehicle_type_id":"4","last_reported":1738879737,"current_range_meters":27200,"station_id":"cki0cbj6b192h4jlfktg","pricing_plan_id":"cebpf4jnsgd1na2vs0mg"},{"bike_id":"f0ae8042-9c93-49df-858b-a0f2df7c0604","system_id":"levelo_inurba_marseille","lat":43.29064,"lon":5.40007,"is_reserved":false,"is_disabled":true,"rental_uris":{"android":"levelo://app?vid=f0ae8042-9c93-49df-858b-a0f2df7c0604","ios":"levelo://app?vid=f0ae8042-9c93-49df-858b-a0f2df7c0604"},"vehicle_type_id":"4","last_reported":1738879737,"current_range_meters":38000,"station_id":"ce4bh392rcd13ifvqdm0","pricing_plan_id":"cebpf4jnsgd1na2vs0mg"},{"bike_id":"fcdbb18e-f443-4be8-a446-f8efb19b4bab","system_id":"levelo_inurba_marseille","lat":43.30466,"lon":5.41269,"is_reserved":false,"is_disabled":false,"rental_uris":{"android":"levelo://app?vid=fcdbb18e-f443-4be8-a446-f8efb19b4bab","ios":"levelo://app?vid=fcdbb18e-f443-4be8-a446-f8efb19b4bab"},"vehicle_type_id":"4","last_reported":1738879737,"current_range_meters":38800,"station_id":"ce4bhop2rcd13ifvqh8g","pricing_plan_id":"cebpf4jnsgd1na2vs0mg"},{"bike_id":"a9fe8d5b-19fa-4d85-a071-0334e847aa21","system_id":"levelo_inurba_marseille","lat":43.31752,"lon":5.39038,"is_reserved":false,"is_disabled":false,"rental_uris":{"android":"levelo://app?vid=a9fe8d5b-19fa-4d85-a071-0334e847aa21","ios":"levelo://app?vid=a9fe8d5b-19fa-4d85-a071-0334e847aa21"},"vehicle_type_id":"4","last_reported":1738879737,"current_range_meters":39200,"station_id":"ce4bhqp2rcd13ifvqhng","pricing_plan_id":"cebpf4jnsgd1na2vs0mg"},{"bike_id":"fe146960-7d51-43a8-8d5f-97dd150b0e2d","system_id":"levelo_inurba_marseille","lat":43.26084,"lon":5.39378,"is_reserved":false,"is_disabled":false,"rental_uris":{"android":"levelo://app?vid=fe146960-7d51-43a8-8d5f-97dd150b0e2d","ios":"levelo://app?vid=fe146960-7d51-43a8-8d5f-97dd150b0e2d"},"vehicle_type_id":"4","last_reported":1738879737,"current_range_meters":38400,"station_id":"ce4bhh92rcd13ifvqfj0","pricing_plan_id":"cebpf4jnsgd1na2vs0mg"},{"bike_id":"79eab85b-411d-47b7-ba8c-c70679ea549f","system_id":"levelo_inurba_marseille","lat":43.23188,"lon":5.39982,"is_reserved":false,"is_disabled":false,"rental_uris":{"android":"levelo://app?vid=79eab85b-411d-47b7-ba8c-c70679ea549f","ios":"levelo://app?vid=79eab85b-411d-47b7-ba8c-c70679ea549f"},"vehicle_type_id":"4","last_reported":1738879737,"current_range_meters":17600,"station_id":"ce4bhn12rcd13ifvqgqg","pricing_plan_id":"cebpf4jnsgd1na2vs0mg"},{"bike_id":"6d3536c7-64cb-4046-ab9a-8eea3fa7c4e4","system_id":"levelo_inurba_marseille","lat":43.30789,"lon":5.3765,"is_reserved":false,"is_disabled":false,"rental_uris":{"android":"levelo://app?vid=6d3536c7-64cb-4046-ab9a-8eea3fa7c4e4","ios":"levelo://app?vid=6d3536c7-64cb-4046-ab9a-8eea3fa7c4e4"},"vehicle_type_id":"4","last_reported":1738879737,"current_range_meters":12400,"station_id":"ce4bgv92rcd13ifvqcq0","pricing_plan_id":"cebpf4jnsgd1na2vs0mg"},{"bike_id":"4e77476a-6919-43c3-944f-515b052b9fa1","system_id":"levelo_inurba_marseille","lat":43.30329,"lon":5.40442,"is_reserved":false,"is_disabled":false,"rental_uris":{"android":"levelo://app?vid=4e77476a-6919-43c3-944f-515b052b9fa1","ios":"levelo://app?vid=4e77476a-6919-43c3-944f-515b052b9fa1"},"vehicle_type_id":"4","last_reported":1738879737,"current_range_meters":36400,"station_id":"ce4bh012rcd13ifvqd10","pricing_plan_id":"cebpf4jnsgd1na2vs0mg"},{"bike_id":"341067f4-d7ed-4f99-954f-691c64a92e97","system_id":"levelo_inurba_marseille","lat":43.23189,"lon":5.39991,"is_reserved":false,"is_disabled":false,"rental_uris":{"android":"levelo://app?vid=341067f4-d7ed-4f99-954f-691c64a92e97","ios":"levelo://app?vid=341067f4-d7ed-4f99-954f-691c64a92e97"},"vehicle_type_id":"4","last_reported":1738879737,"current_range_meters":16800,"station_id":"ce4bhn12rcd13ifvqgqg","pricing_plan_id":"cebpf4jnsgd1na2vs0mg"},{"bike_id":"0fe3222f-8b2d-4209-a4f2-ed9fbf102aea","system_id":"levelo_inurba_marseille","lat":43.24138,"lon":5.37788,"is_reserved":false,"is_disabled":false,"rental_uris":{"android":"levelo://app?vid=0fe3222f-8b2d-4209-a4f2-ed9fbf102aea","ios":"levelo://app?vid=0fe3222f-8b2d-4209-a4f2-ed9fbf102aea"},"vehicle_type_id":"4","last_reported":1738879737,"current_range_meters":20000,"station_id":"ce4bhnp2rcd13ifvqgvg","pricing_plan_id":"cebpf4jnsgd1na2vs0mg"},