{"last_updated":1691849070,"ttl":30,"version":"2.2","data":{"bikes":[{"bike_id":"ab66cda6-e9da-4c79-981c-c8c056affe7c","system_id":"levelo_inurba_marseille","lat":43.312239,"lon":5.368562,"is_reserved":false,"is_disabled":false,"rental_uris":{"android":"levelo://app?vid=ab66cda6-e9da-4c79-981c-c8c056affe7c","ios":"levelo://app?vid=ab66cda6-e9da-4c79-981c-c8c056affe7c"},"vehicle_type_id":"4","last_reported":1691849071,"current_range_meters":28800,"station_id":"ce4bgl92rcd13ifvqbq0","pricing_plan_id":"free"},{"bike_id":"b92702f4-5bf8-442e-bd53-0d3372b8c891","system_id":"levelo_inurba_marseille","lat":43.312239,"lon":5.368562,"is_reserved":false,"is_disabled":false,"rental_uris":{"android":"levelo://app?vid=b92702f4-5bf8-442e-bd53-0d3372b8c891","ios":"levelo://app?vid=b92702f4-5bf8-442e-bd53-0d3372b8c891"},"vehicle_type_id":"4","last_reported":1691849071,"current_range_meters":18400,"station_id":"ce4bgl92rcd13ifvqbq0","pricing_plan_id":"free"},{"bike_id":"4211e5f4-e7cf-4b4e-9fb5-289758a07909","system_id":"levelo_inurba_marseille","lat":43.309076,"lon":5.368465,"is_reserved":false,"is_disabled":false,"rental_uris":{"android":"levelo://app?vid=4211e5f4-e7cf-4b4e-9fb5-289758a07909","ios":"levelo://app?vid=4211e5f4-e7cf-4b4e-9fb5-289758a07909"},"vehicle_type_id":"4","last_reported":1691849071,"current_range_meters":9200,"station_id":"ce4bgn92rcd13ifvqbvg","pricing_plan_id":"free"},{"bike_id":"c1e4c0b8-bd0f-4d88-89cd-0800a1355712","system_id":"levelo_inurba_marseille","lat":43.3089,"lon":5.37214,"is_reserved":false,"is_disabled":false,"rental_uris":{"android":"levelo://app?vid=c1e4c0b8-bd0f-4d88-89cd-0800a1355712","ios":"levelo://app?vid=c1e4c0b8-bd0f-4d88-89cd-0800a1355712"},"vehicle_type_id":"4","last_reported":1691849071,"current_range_meters":24400,"station_id":"ce4bguh2rcd13ifvqckg","pricing_plan_id":"free"},{"bike_id":"29475efc-183f-450d-bfee-85408c6c704c","system_id":"levelo_inurba_marseille","lat":43.30555,"lon":5.36544,"is_reserved":false,"is_disabled":false,"rental_uris":{"android":"levelo://app?vid=29475efc-183f-450d-bfee-85408c6c704c","ios":"levelo://app?vid=29475efc-183f-450d-bfee-85408c6c704c"},"vehicle_type_id":"4","last_reported":1691849071,"current_range_meters":31200,"station_id":"ce4bgs12rcd13ifvqcag","pricing_plan_id":"free"},{"bike_id":"c8e831c2-3cee-45b1-a06b-285300645c42","system_id":"levelo_inurba_marseille","lat":43.305989,"lon":5.37225,"is_reserved":false,"is_disabled":false,"rental_uris":{"android":"levelo://app?vid=c8e831c2-3cee-45b1-a06b-285300645c42","ios":"levelo://app?vid=c8e831c2-3cee-45b1-a06b-285300645c42"},"vehicle_type_id":"4","last_reported":1691849071,"current_range_meters":28800,"station_id":"ce4bgqh2rcd13ifvqc4g","pricing_plan_id":"free"},{"bike_id":"3b8ec46f-b224-472c-b465-74a9ab356188","system_id":"levelo_inurba_marseille","lat":43.305989,"lon":5.37225,"is_reserved":false,"is_disabled":false,"rental_uris":{"android":"levelo://app?vid=3b8ec46f-b224-472c-b465-74a9ab356188","ios":"levelo://app?vid=3b8ec46f-b224-472c-b465-74a9ab356188"},"vehicle_type_id":"4","last_reported":1691849071,"current_range_meters":2800,"station_id":"ce4bgqh2rcd13ifvqc4g","pricing_plan_id":"free"},{"bike_id":"54049083-15a9-42e0-8d06-fa9ecb3af1a4","system_id":"levelo_inurba_marseille","lat":43.305989,"lon":5.37225,"is_reserved":false,"is_disabled":false,"rental_uris":{"android":"levelo://app?vid=54049083-15a9-42e0-8d06-fa9ecb3af1a4","ios":"levelo://app?vid=54049083-15a9-42e0-8d06-fa9ecb3af1a4"},"vehicle_type_id":"4","last_reported":1691849071,"current_range_meters":8000,"station_id":"ce4bgqh2rcd13ifvqc4g","pricing_plan_id":"free"},{"bike_id":"719e8495-463b-4761-92ed-037f6aaef71f","system_id":"levelo_inurba_marseille","lat":43.305989,"lon":5.37225,"is_reserved":false,"is_disabled":false,"rental_uris":{"android":"levelo://app?vid=719e8495-463b-4761-92ed-037f6aaef71f","ios":"levelo://app?vid=719e8495-463b-4761-92ed-037f6aaef71f"},"vehicle_type_id":"4","last_reported":1691849071,"current_range_meters":6800,"station_id":"ce4bgqh2rcd13ifvqc4g","pricing_plan_id":"free"},{"bike_id":"0ae1e846-486f-4f15-b666-9cefeefa23ea","system_id":"levelo_inurba_marseille","lat":43.317075,"lon":5.377367,"is_reserved":false,"is_disabled":false,"rental_uris":{"android":"levelo://app?vid=0ae1e846-486f-4f15-b666-9cefeefa23ea","ios":"levelo://app?vid=0ae1e846-486f-4f15-b666-9cefeefa23ea"},"vehicle_type_id":"4","last_reported":1691849071,"current_range_meters":22800,"station_id":"ce4bgth2rcd13ifvqch0","pricing_plan_id":"free"},{"bike_id":"c2e5c9da-b71c-41a5-a04b-b7d591486c50","system_id":"levelo_inurba_marseille","lat":43.30178,"lon":5.36637,"is_reserved":false,"is_disabled":false,"rental_uris":{"android":"levelo://app?vid=c2e5c9da-b71c-41a5-a04b-b7d591486c50","ios":"levelo://app?vid=c2e5c9da-b71c-41a5-a04b-b7d591486c50"},"vehicle_type_id":"4","last_reported":1691849071,"current_range_meters":26800,"station_id":"ce4bgrh2rcd13ifvqc8g","pricing_plan_id":"free"},{"bike_id":"692b7abe-219c-4b3f-bb3f-341c61031a83","system_id":"levelo_inurba_marseille","lat":43.30798,"lon":5.38153,"is_reserved":false,"is_disabled":false,"rental_uris":{"android":"levelo://app?vid=692b7abe-219c-4b3f-bb3f-341c61031a83","ios":"levelo://app?vid=692b7abe-219c-4b3f-bb3f-341c61031a83"},"vehicle_type_id":"4","last_reported":1691849071,"current_range_meters":0,"station_id":"ce4bgt12rcd13ifvqce0","pricing_plan_id":"free"},{"bike_id":"9bb09813-cd80-4773-8579-38e9eea7d37e","system_id":"levelo_inurba_marseille","lat":43.30463,"lon":5.37893,"is_reserved":false,"is_disabled":false,"rental_uris":{"android":"levelo://app?vid=9bb09813-cd80-4773-8579-38e9eea7d37e","ios":"levelo://app?vid=9bb09813-cd80-4773-8579-38e9eea7d37e"},"vehicle_type_id":"4","last_reported":1691849071,"current_range_meters":22400,"station_id":"ce4bgup2rcd13ifvqcn0","pricing_plan_id":"free"},{"bike_id":"787e7557-31e8-4492-a3ea-40aa033be85b","system_id":"levelo_inurba_marseille","lat":43.304606,"lon":5.379026,"is_reserved":false,"is_disabled":false,"rental_uris":{"android":"levelo://app?vid=787e7557-31e8-4492-a3ea-40aa033be85b","ios":"levelo://app?vid=787e7557-31e8-4492-a3ea-40aa033be85b"},"vehicle_type_id":"4","last_reported":1691849071,"current_range_meters":3600,"station_id":"ce4bgup2rcd13ifvqcn0","pricing_plan_id":"free"},{"bike_id":"525416ba-edea-4807-9d7f-15a94905f514","system_id":"levelo_inurba_marseille","lat":43.30457,"lon":5.379,"is_reserved":false,"is_disabled":false,"rental_uris":{"android":"levelo://app?vid=525416ba-edea-4807-9d7f-15a94905f514","ios":"levelo://app?vid=525416ba-edea-4807-9d7f-15a94905f514"},"vehicle_type_id":"4","last_reported":1691849071,"current_range_meters":31200,"station_id":"ce4bgup2rcd13ifvqcn0","pricing_plan_id":"free"},{"bike_id":"eda2dd1e-5c86-4c13-8bde-d850e92c2108","system_id":"levelo_inurba_marseille","lat":43.30289,"lon":5.37704,"is_reserved":false,"is_disabled":false,"rental_uris":{"android":"levelo://app?vid=eda2dd1e-5c86-4c13-8bde-d850e92c2108","ios":"levelo://app?vid=eda2dd1e-5c86-4c13-8bde-d850e92c2108"},"vehicle_type_id":"4","last_reported":1691849071,"current_range_meters":27200,"station_id":"ce4bguh2rcd13ifvqcj0","pricing_plan_id":"free"},{"bike_id":"35550eb3-af43-40b2-84e0-506148270c20","system_id":"levelo_inurba_marseille","lat":43.302784,"lon":5.377158,"is_reserved":false,"is_disabled":false,"rental_uris":{"android":"levelo://app?vid=35550eb3-af43-40b2-84e0-506148270c20","ios":"levelo://app?vid=35550eb3-af43-40b2-84e0-506148270c20"},"vehicle_type_id":"4","last_reported":1691849071,"current_range_meters":29600,"station_id":"ce4bguh2rcd13ifvqcj0","pricing_plan_id":"free"},{"bike_id":"b2bd7be9-ce46-451c-8eae-b88c896ffd21","system_id":"levelo_inurba_marseille","lat":43.299243,"lon":5.37481,"is_reserved":false,"is_disabled":false,"rental_uris":{"android":"levelo://app?vid=b2bd7be9-ce46-451c-8eae-b88c896ffd21","ios":"levelo://app?vid=b2bd7be9-ce46-451c-8eae-b88c896ffd21"},"vehicle_type_id":"4","last_reported":1691849071,"current_range_meters":28400,"station_id":"ce4bgjh2rcd13ifvqbg0","pricing_plan_id":"free"},{"bike_id":"7bcbfbe1-c595-46e4-ad4f-12fa9b4d3b0d","system_id":"levelo_inurba_marseille","lat":43.313571,"lon":5.384829,"is_reserved":false,"is_disabled":false,"rental_uris":{"android":"levelo://app?vid=7bcbfbe1-c595-46e4-ad4f-12fa9b4d3b0d","ios":"levelo://app?vid=7bcbfbe1-c595-46e4-ad4f-12fa9b4d3b0d"},"vehicle_type_id":"4","last_reported":1691849071,"current_range_meters":20000,"station_id":"ce4bgt92rcd13ifvqcf0","pricing_plan_id":"free"},{"bike_id":"d1c58bd2-4fc8-4b84-865d-970938a7ac13","system_id":"levelo_inurba_marseille","lat":43.311722,"lon":5.387247,"is_reserved":false,"is_disabled":false,"rental_uris":{"android":"levelo://app?vid=d1c58bd2-4fc8-4b84-865d-970938a7ac13","ios":"levelo://app?vid=d1c58bd2-4fc8-4b84-865d-970938a7ac13"},"vehicle_type_id":"4","last_reported":1691849071,"current_range_meters":30000,"station_id":"ce4bgv12rcd13ifvqcp0","pricing_plan_id":"free"},{"bike_id":"253a8aa6-a0d0-41b8-a577-b567b07902a9","system_id":"levelo_inurba_marseille","lat":43.311722,"lon":5.387247,"is_reserved":false,"is_disabled":false,"rental_uris":{"android":"levelo://app?vid=253a8aa6-a0d0-41b8-a577-b567b07902a9","ios":"levelo://app?vid=253a8aa6-a0d0-41b8-a577-b567b07902a9"},"vehicle_type_id":"4","last_reported":1691849071,"current_range_meters":31200,"station_id":"ce4bgv12rcd13ifvqcp0","pricing_plan_id":"free"},{"bike_id":"e9b7a1b5-7899-4112-948b-5fcb5251123e","system_id":"levelo_inurba_marseille","lat":43.311722,"lon":5.387247,"is_reserved":false,"is_disabled":false,"rental_uris":{"android":"levelo://app?vid=e9b7a1b5-7899-4112-948b-5fcb5251123e","ios":"levelo://app?vid=e9b7a1b5-7899-4112-948b-5fcb5251123e"},"vehicle_type_id":"4","last_reported":1691849071,"current_range_meters":8800,"station_id":"ce4bgv12rcd13ifvqcp0","pricing_plan_id":"free"},{"bike_id":"67c023a6-f992-48f1-9bc4-9c241778c2d5","system_id":"levelo_inurba_marseille","lat":43.311722,"lon":5.387247,"is_reserved":false,"is_disabled":false,"rental_uris":{"android":"levelo://app?vid=67c023a6-f992-48f1-9bc4-9c241778c2d5","ios":"levelo://app?vid=67c023a6-f992-48f1-9bc4-9c241778c2d5"},"vehicle_type_id":"4","last_reported":1691849071,"current_range_meters":22000,"station_id":"ce4bgv12rcd13ifvqcp0","pricing_plan_id":"free"},{"bike_id":"60c5fe17-aedd-4023-83a3-2748b79a2e6c","system_id":"levelo_inurba_marseille","lat":43.311722,"lon":5.387247,"is_reserved":false,"is_disabled":false,"rental_uris":{"android":"levelo://app?vid=60c5fe17-aedd-4023-83a3-2748b79a2e6c","ios":"levelo://app?vid=60c5fe17-aedd-4023-83a3-2748b79a2e6c"},"vehicle_type_id":"4","last_reported":1691849071,"current_range_meters":26400,"station_id":"ce4bgv12rcd13ifvqcp0","pricing_plan_id":"free"},{"bike_id":"fe611d43-5295-4666-aa23-0d8a6f9b9d38","system_id":"levelo_inurba_marseille","lat":43.297774,"lon":5.370875,"is_reserved":false,"is_disabled":false,"rental_uris":{"android":"levelo://app?vid=fe611d43-5295-4666-aa23-0d8a6f9b9d38","ios":"levelo://app?vid=fe611d43-5295-4666-aa23-0d8a6f9b9d38"},"vehicle_type_id":"4","last_reported":1691849071,"current_range_meters":25600,"station_id":"ce4bgop2rcd13ifvqc1g","pricing_plan_id":"free"},{"bike_id":"ccde4fab-a619-4b85-80d1-631ae22c1186","system_id":"levelo_inurba_marseille","lat":43.32286,"lon":5.38264,"is_reserved":false,"is_disabled":false,"rental_uris":{"android":"levelo://app?vid=ccde4fab-a619-4b85-80d1-631ae22c1186","ios":"levelo://app?vid=ccde4fab-a619-4b85-80d1-631ae22c1186"},"vehicle_type_id":"4","last_reported":1691849071,"current_range_meters":19200,"station_id":"ce4bhr12rcd13ifvqhqg","pricing_plan_id":"free"},{"bike_id":"3d75ec31-9bc5-447c-81ba-d21539df621f","system_id":"levelo_inurba_marseille","lat":43.32287,"lon":5.38271,"is_reserved":false,"is_disabled":false,"rental_uris":{"android":"levelo://app?vid=3d75ec31-9bc5-447c-81ba-d21539df621f","ios":"levelo://app?vid=3d75ec31-9bc5-447c-81ba-d21539df621f"},"vehicle_type_id":"4","last_reported":1691849071,"current_range_meters":10400,"station_id":"ce4bhr12rcd13ifvqhqg","pricing_plan_id":"free"},{"bike_id":"2e341b8a-19ca-467a-9062-4e524deac17d","system_id":"levelo_inurba_marseille","lat":43.32292,"lon":5.38266,"is_reserved":false,"is_disabled":false,"rental_uris":{"android":"levelo://app?vid=2e341b8a-19ca-467a-9062-4e524deac17d","ios":"levelo://app?vid=2e341b8a-19ca-467a-9062-4e524deac17d"},"vehicle_type_id":"4","last_reported":1691849071,"current_range_meters":28000,"station_id":"ce4bhr12rcd13ifvqhqg","pricing_plan_id":"free"},{"bike_id":"34544adb-53d3-44b1-86f1-bb8bc7dbf546","system_id":"levelo_inurba_marseille","lat":43.32288,"lon":5.38271,"is_reserved":false,"is_disabled":false,"rental_uris":{"android":"levelo://app?vid=34544adb-53d3-44b1-86f1-bb8bc7dbf546","ios":"levelo://app?vid=34544adb-53d3-44b1-86f1-bb8bc7dbf546"},"vehicle_type_id":"4","last_reported":1691849071,"current_range_meters":24800,"station_id":"ce4bhr12rcd13ifvqhqg","pricing_plan_id":"free"},{"bike_id":"daf1c66e-67e4-446b-ab69-51ad2a5f2181","system_id":"levelo_inurba_marseille","lat":43.322872,"lon":5.382756,"is_reserved":false,"is_disabled":false,"rental_uris":{"android":"levelo://app?vid=daf1c66e-67e4-446b-ab69-51ad2a5f2181","ios":"levelo://app?vid=daf1c66e-67e4-446b-ab69-51ad2a5f2181"},"vehicle_type_id":"4","last_reported":1691849071,"current_range_meters":26800,"station_id":"ce4bhr12rcd13ifvqhqg","pricing_plan_id":"free"},{"bike_id":"5cef4262-f054-4974-9121-fc3d341ebbb0","system_id":"levelo_inurba_marseille","lat":43.32292,"lon":5.38268,"is_reserved":false,"is_disabled":false,"rental_uris":{"android":"levelo://app?vid=5cef4262-f054-4974-9121-fc3d341ebbb0","ios":"levelo://app?vid=5cef4262-f054-4974-9121-fc3d341ebbb0"},"vehicle_type_id":"4","last_reported":1691849071,"current_range_meters":13200,"station_id":"ce4bhr12rcd13ifvqhqg","pricing_plan_id":"free"},{"bike_id":"2a877c10-47b3-4336-884b-4186f2d4f096","system_id":"levelo_inurba_marseille","lat":43.32292,"lon":5.38268,"is_reserved":false,"is_disabled":false,"rental_uris":{"android":"levelo://app?vid=2a877c10-47b3-4336-884b-4186f2d4f096","ios":"levelo://app?vid=2a877c10-47b3-4336-884b-4186f2d4f096"},"vehicle_type_id":"4","last_reported":1691849071,"current_range_meters":14800,"station_id":"ce4bhr12rcd13ifvqhqg","pricing_plan_id":"free"},{"bike_id":"026ee3db-f828-4ad6-9e78-43e60a812318","system_id":"levelo_inurba_marseille","lat":43.32291,"lon":5.38272,"is_reserved":false,"is_disabled":false,"rental_uris":{"android":"levelo://app?vid=026ee3db-f828-4ad6-9e78-43e60a812318","ios":"levelo://app?vid=026ee3db-f828-4ad6-9e78-43e60a812318"},"vehicle_type_id":"4","last_reported":1691849071,"current_range_meters":20400,"station_id":"ce4bhr12rcd13ifvqhqg","pricing_plan_id":"free"},{"bike_id":"63b63e6c-c5a9-49f5-8d21-3106e36d3542","system_id":"levelo_inurba_marseille","lat":43.32291,"lon":5.38273,"is_reserved":false,"is_disabled":false,"rental_uris":{"android":"levelo://app?vid=63b63e6c-c5a9-49f5-8d21-3106e36d3542","ios":"levelo://app?vid=63b63e6c-c5a9-49f5-8d21-3106e36d3542"},"vehicle_type_id":"4","last_reported":1691849071,"current_range_meters":25200,"station_id":"ce4bhr12rcd13ifvqhqg","pricing_plan_id":"free"},{"bike_id":"4c0051b2-93b8-4cc5-a80a-2595421ac1f5","system_id":"levelo_inurba_marseille","lat":43.32294,"lon":5.3827,"is_reserved":false,"is_disabled":false,"rental_uris":{"android":"levelo://app?vid=4c0051b2-93b8-4cc5-a80a-2595421ac1f5","ios":"levelo://app?vid=4c0051b2-93b8-4cc5-a80a-2595421ac1f5"},"vehicle_type_id":"4","last_reported":1691849071,"current_range_meters":25600,"station_id":"ce4bhr12rcd13ifvqhqg","pricing_plan_id":"free"},{"bike_id":"cbdb1e2e-23aa-4305-8e8f-f1f9efca0a4f","system_id":"levelo_inurba_marseille","lat":43.32294,"lon":5.38274,"is_reserved":false,"is_disabled":false,"rental_uris":{"android":"levelo://app?vid=cbdb1e2e-23aa-4305-8e8f-f1f9efca0a4f","ios":"levelo://app?vid=cbdb1e2e-23aa-4305-8e8f-f1f9efca0a4f"},"vehicle_type_id":"4","last_reported":1691849071,"current_range_meters":22800,"station_id":"ce4bhr12rcd13ifvqhqg","pricing_plan_id":"free"},{"bike_id":"958763ba-98b0-4d88-a0e9-e411f7b129bd","system_id":"levelo_inurba_marseille","lat":43.297774,"lon":5.370875,"is_reserved":false,"is_disabled":false,"rental_uris":{"android":"levelo://app?vid=958763ba-98b0-4d88-a0e9-e411f7b129bd","ios":"levelo://app?vid=958763ba-98b0-4d88-a0e9-e411f7b129bd"},"vehicle_type_id":"4","last_reported":1691849071,"current_range_meters":12800,"station_id":"ce4bgop2rcd13ifvqc1g","pricing_plan_id":"free"},{"bike_id":"454e4186-321d-4414-91ad-51d1deee69be","system_id":"levelo_inurba_marseille","lat":43.3229,"lon":5.38284,"is_reserved":false,"is_disabled":false,"rental_uris":{"android":"levelo://app?vid=454e4186-321d-4414-91ad-51d1deee69be","ios":"levelo://app?vid=454e4186-321d-4414-91ad-51d1deee69be"},"vehicle_type_id":"4","last_reported":1691849071,"current_range_meters":29600,"station_id":"ce4bhr12rcd13ifvqhqg","pricing_plan_id":"free"},{"bike_id":"f0f1c203-cdc5-454a-b971-b7d21a23dd8c","system_id":"levelo_inurba_marseille","lat":43.297774,"lon":5.370875,"is_reserved":false,"is_disabled":false,"rental_uris":{"android":"levelo://app?vid=f0f1c203-cdc5-454a-b971-b7d21a23dd8c","ios":"levelo://app?vid=f0f1c203-cdc5-454a-b971-b7d21a23dd8c"},"vehicle_type_id":"4","last_reported":1691849071,"current_range_meters":24000,"station_id":"ce4bgop2rcd13ifvqc1g","pricing_plan_id":"free"},{"bike_id":"1b203c54-0be7-49b8-a54f-17ca79a8f7f4","system_id":"levelo_inurba_marseille","lat":43.32299,"lon":5.38275,"is_reserved":false,"is_disabled":false,"rental_uris":{"android":"levelo://app?vid=1b203c54-0be7-49b8-a54f-17ca79a8f7f4","ios":"levelo://app?vid=1b203c54-0be7-49b8-a54f-17ca79a8f7f4"},"vehicle_type_id":"4","last_reported":1691849071,"current_range_meters":21200,"station_id":"ce4bhr12rcd13ifvqhqg","pricing_plan_id":"free"},{"bike_id":"2ad03f66-227c-4f01-b4f6-3232ac648e10","system_id":"levelo_inurba_marseille","lat":43.328371,"lon":5.366909,"is_reserved":false,"is_disabled":false,"rental_uris":{"android":"levelo://app?vid=2ad03f66-227c-4f01-b4f6-3232ac648e10","ios":"levelo://app?vid=2ad03f66-227c-4f01-b4f6-3232ac648e10"},"vehicle_type_id":"4","last_reported":1691849071,"current_range_meters":17600,"station_id":"ce4bhs92rcd13ifvqi0g","pricing_plan_id":"free"},{"bike_id":"dd789220-e7b5-42c1-b9dc-dc4243148021","system_id":"levelo_inurba_marseille","lat":43.297163,"lon":5.365866,"is_reserved":false,"is_disabled":false,"rental_uris":{"android":"levelo://app?vid=dd789220-e7b5-42c1-b9dc-dc4243148021","ios":"levelo://app?vid=dd789220-e7b5-42c1-b9dc-dc4243148021"},"vehicle_type_id":"4","last_reported":1691849071,"current_range_meters":31200,"station_id":"ce4bgn12rcd13ifvqbt0","pricing_plan_id":"free"},{"bike_id":"a1a090b6-0a2d-48f0-b01e-7fd3ca4fb5a6","system_id":"levelo_inurba_marseille","lat":43.29713,"lon":5.3661,"is_reserved":false,"is_disabled":false,"rental_uris":{"android":"levelo://app?vid=a1a090b6-0a2d-48f0-b01e-7fd3ca4fb5a6","ios":"levelo://app?vid=a1a090b6-0a2d-48f0-b01e-7fd3ca4fb5a6"},"vehicle_type_id":"4","last_reported":1691849071,"current_range_meters":24400,"station_id":"ce4bgn12rcd13ifvqbt0","pricing_plan_id":"free"},{"bike_id":"b428ddc8-83c6-453c-b5dd-cb14751b674f","system_id":"levelo_inurba_marseille","lat":43.29679,"lon":5.36963,"is_reserved":false,"is_disabled":false,"rental_uris":{"android":"levelo://app?vid=b428ddc8-83c6-453c-b5dd-cb14751b674f","ios":"levelo://app?vid=b428ddc8-83c6-453c-b5dd-cb14751b674f"},"vehicle_type_id":"4","last_reported":1691849071,"current_range_meters":800,"station_id":"","pricing_plan_id":"free"},{"bike_id":"4546f8c1-0a9e-45be-b4bd-18c11f686c5c","system_id":"levelo_inurba_marseille","lat":43.2967,"lon":5.3655,"is_reserved":false,"is_disabled":false,"rental_uris":{"android":"levelo://app?vid=4546f8c1-0a9e-45be-b4bd-18c11f686c5c","ios":"levelo://app?vid=4546f8c1-0a9e-45be-b4bd-18c11f686c5c"},"vehicle_type_id":"4","last_reported":1691849071,"current_range_meters":3200,"station_id":"ce4bgn12rcd13ifvqbt0","pricing_plan_id":"free"},{"bike_id":"3d9195d3-21c8-40d1-a9a1-c7fa78437743","system_id":"levelo_inurba_marseille","lat":43.2968,"lon":5.37291,"is_reserved":false,"is_disabled":false,"rental_uris":{"android":"levelo://app?vid=3d9195d3-21c8-40d1-a9a1-c7fa78437743","ios":"levelo://app?vid=3d9195d3-21c8-40d1-a9a1-c7fa78437743"},"vehicle_type_id":"4","last_reported":1691849071,"current_range_meters":18000,"station_id":"ce4bgk12rcd13ifvqbj0","pricing_plan_id":"free"},{"bike_id":"3dae0d46-3dc7-4538-b02b-ccbaeca18205","system_id":"levelo_inurba_marseille","lat":43.29573,"lon":5.367355,"is_reserved":false,"is_disabled":false,"rental_uris":{"android":"levelo://app?vid=3dae0d46-3dc7-4538-b02b-ccbaeca18205","ios":"levelo://app?vid=3dae0d46-3dc7-4538-b02b-ccbaeca18205"},"vehicle_type_id":"4","last_reported":1691849071,"current_range_meters":15600,"station_id":"ce4bgph2rcd13ifvqc2g","pricing_plan_id":"free"},{"bike_id":"69822f6c-803f-4b06-b861-0df3407f6868","system_id":"levelo_inurba_marseille","lat":43.29643,"lon":5.37496,"is_reserved":false,"is_disabled":false,"rental_uris":{"android":"levelo://app?vid=69822f6c-803f-4b06-b861-0df3407f6868","ios":"levelo://app?vid=69822f6c-803f-4b06-b861-0df3407f6868"},"vehicle_type_id":"4","last_reported":1691849071,"current_range_meters":800,"station_id":"","pricing_plan_id":"free"},{"bike_id":"76ff3b14-d346-4134-b772-5805eda4f7f2","system_id":"levelo_inurba_marseille","lat":43.3175,"lon":5.39032,"is_reserved":false,"is_disabled":false,"rental_uris":{"android":"levelo://app?vid=76ff3b14-d346-4134-b772-5805eda4f7f2","ios":"levelo://app?vid=76ff3b14-d346-4134-b772-5805eda4f7f2"},"vehicle_type_id":"4","last_reported":1691849071,"current_range_meters":28400,"station_id":"ce4bhqp2rcd13ifvqhng","pricing_plan_id":"free"},{"bike_id":"576dff70-8b61-4279-9db0-828807e481c1","system_id":"levelo_inurba_marseille","lat":43.295748,"lon":5.37522,"is_reserved":false,"is_disabled":false,"rental_uris":{"android":"levelo://app?vid=576dff70-8b61-4279-9db0-828807e481c1","ios":"levelo://app?vid=576dff70-8b61-4279-9db0-828807e481c1"},"vehicle_type_id":"4","last_reported":1691849071,"current_range_meters":14800,"station_id":"ce4bgh92rcd13ifvqb50","pricing_plan_id":"free"},{"bike_id":"f4c0f268-370e-46a3-b6cf-daeba84044a4","system_id":"levelo_inurba_marseille","lat":43.3044,"lon":5.38892,"is_reserved":false,"is_disabled":false,"rental_uris":{"android":"levelo://app?vid=f4c0f268-370e-46a3-b6cf-daeba84044a4","ios":"levelo://app?vid=f4c0f268-370e-46a3-b6cf-daeba84044a4"},"vehicle_type_id":"4","last_reported":1691849071,"current_range_meters":4000,"station_id":"ce4bgk12rcd13ifvqbi0","pricing_plan_id":"free"},{"bike_id":"a4df99ce-0488-49dd-a888-94686f562e88","system_id":"levelo_inurba_marseille","lat":43.295748,"lon":5.37522,"is_reserved":false,"is_disabled":false,"rental_uris":{"android":"levelo://app?vid=a4df99ce-0488-49dd-a888-94686f562e88","ios":"levelo://app?vid=a4df99ce-0488-49dd-a888-94686f562e88"},"vehicle_type_id":"4","last_reported":1691849071,"current_range_meters":29600,"station_id":"ce4bgh92rcd13ifvqb50","pricing_plan_id":"free"},{"bike_id":"3e55318e-2624-40ba-ae87-46dcc9246a3d","system_id":"levelo_inurba_marseille","lat":43.30419,"lon":5.38885,"is_reserved":false,"is_disabled":false,"rental_uris":{"android":"levelo://app?vid=3e55318e-2624-40ba-ae87-46dcc9246a3d","ios":"levelo://app?vid=3e55318e-2624-40ba-ae87-46dcc9246a3d"},"vehicle_type_id":"4","last_reported":1691849071,"current_range_meters":21600,"station_id":"ce4bgk12rcd13ifvqbi0","pricing_plan_id":"free"},{"bike_id":"a5f0af78-bf14-42f0-a942-3d7c63ebc48a","system_id":"levelo_inurba_marseille","lat":43.30428,"lon":5.38897,"is_reserved":false,"is_disabled":false,"rental_uris":{"android":"levelo://app?vid=a5f0af78-bf14-42f0-a942-3d7c63ebc48a","ios":"levelo://app?vid=a5f0af78-bf14-42f0-a942-3d7c63ebc48a"},"vehicle_type_id":"4","last_reported":1691849071,"current_range_meters":29600,"station_id":"ce4bgk12rcd13ifvqbi0","pricing_plan_id":"free"},{"bike_id":"53c9955f-d449-468b-9e65-7e8013e231f1","system_id":"levelo_inurba_marseille","lat":43.29965,"lon":5.38498,"is_reserved":false,"is_disabled":false,"rental_uris":{"android":"levelo://app?vid=53c9955f-d449-468b-9e65-7e8013e231f1","ios":"levelo://app?vid=53c9955f-d449-468b-9e65-7e8013e231f1"},"vehicle_type_id":"4","last_reported":1691849071,"current_range_meters":24000,"station_id":"ce4bgj92rcd13ifvqbd0","pricing_plan_id":"free"},{"bike_id":"0337c164-8b0b-4f0b-b7b3-6790b2e9f25d","system_id":"levelo_inurba_marseille","lat":43.32367,"lon":5.388836,"is_reserved":false,"is_disabled":false,"rental_uris":{"android":"levelo://app?vid=0337c164-8b0b-4f0b-b7b3-6790b2e9f25d","ios":"levelo://app?vid=0337c164-8b0b-4f0b-b7b3-6790b2e9f25d"},"vehicle_type_id":"4","last_reported":1691849071,"current_range_meters":22400,"station_id":"ce4bhqp2rcd13ifvqhog","pricing_plan_id":"free"},{"bike_id":"7a5ccebc-5cd7-411d-b3c4-f349eba70b98","system_id":"levelo_inurba_marseille","lat":43.3237,"lon":5.38871,"is_reserved":false,"is_disabled":false,"rental_uris":{"android":"levelo://app?vid=7a5ccebc-5cd7-411d-b3c4-f349eba70b98","ios":"levelo://app?vid=7a5ccebc-5cd7-411d-b3c4-f349eba70b98"},"vehicle_type_id":"4","last_reported":1691849071,"current_range_meters":15200,"station_id":"ce4bhqp2rcd13ifvqhog","pricing_plan_id":"free"},{"bike_id":"0aa4abac-dd3c-446a-b986-ff96ec672a99","system_id":"levelo_inurba_marseille","lat":43.3237,"lon":5.38874,"is_reserved":false,"is_disabled":false,"rental_uris":{"android":"levelo://app?vid=0aa4abac-dd3c-446a-b986-ff96ec672a99","ios":"levelo://app?vid=0aa4abac-dd3c-446a-b986-ff96ec672a99"},"vehicle_type_id":"4","last_reported":1691849071,"current_range_meters":28400,"station_id":"ce4bhqp2rcd13ifvqhog","pricing_plan_id":"free"},{"bike_id":"fbe51afe-e58e-4401-bce8-142438eb5f97","system_id":"levelo_inurba_marseille","lat":43.32368,"lon":5.38878,"is_reserved":false,"is_disabled":false,"rental_uris":{"android":"levelo://app?vid=fbe51afe-e58e-4401-bce8-142438eb5f97","ios":"levelo://app?vid=fbe51afe-e58e-4401-bce8-142438eb5f97"},"vehicle_type_id":"4","last_reported":1691849071,"current_range_meters":30000,"station_id":"ce4bhqp2rcd13ifvqhog","pricing_plan_id":"free"},{"bike_id":"ca878683-6c48-40c5-a57b-a57665b4ddf7","system_id":"levelo_inurba_marseille","lat":43.32367,"lon":5.388836,"is_reserved":false,"is_disabled":false,"rental_uris":{"android":"levelo://app?vid=ca878683-6c48-40c5-a57b-a57665b4ddf7","ios":"levelo://app?vid=ca878683-6c48-40c5-a57b-a57665b4ddf7"},"vehicle_type_id":"4","last_reported":1691849071,"current_range_meters":23200,"station_id":"ce4bhqp2rcd13ifvqhog","pricing_plan_id":"free"},{"bike_id":"3b90a7a9-6af6-4693-8323-8e583745d892","system_id":"levelo_inurba_marseille","lat":43.32367,"lon":5.388836,"is_reserved":false,"is_disabled":false,"rental_uris":{"android":"levelo://app?vid=3b90a7a9-6af6-4693-8323-8e583745d892","ios":"levelo://app?vid=3b90a7a9-6af6-4693-8323-8e583745d892"},"vehicle_type_id":"4","last_reported":1691849071,"current_range_meters":8000,"station_id":"ce4bhqp2rcd13ifvqhog","pricing_plan_id":"free"},{"bike_id":"01e11d4e-126c-4d60-a749-b4934349307d","system_id":"levelo_inurba_marseille","lat":43.32367,"lon":5.388836,"is_reserved":false,"is_disabled":false,"rental_uris":{"android":"levelo://app?vid=01e11d4e-126c-4d60-a749-b4934349307d","ios":"levelo://app?vid=01e11d4e-126c-4d60-a749-b4934349307d"},"vehicle_type_id":"4","last_reported":1691849071,"current_range_meters":22800,"station_id":"ce4bhqp2rcd13ifvqhog","pricing_plan_id":"free"},{"bike_id":"a7758e93-92f2-4ba1-8882-417901e6037c","system_id":"levelo_inurba_marseille","lat":43.32367,"lon":5.388836,"is_reserved":false,"is_disabled":false,"rental_uris":{"android":"levelo://app?vid=a7758e93-92f2-4ba1-8882-417901e6037c","ios":"levelo://app?vid=a7758e93-92f2-4ba1-8882-417901e6037c"},"vehicle_type_id":"4","last_reported":1691849071,"current_range_meters":9600,"station_id":"ce4bhqp2rcd13ifvqhog","pricing_plan_id":"free"},{"bike_id":"b8cfcb5c-1fe2-48ab-b86a-5cc900079f22","system_id":"levelo_inurba_marseille","lat":43.32368,"lon":5.38894,"is_reserved":false,"is_disabled":false,"rental_uris":{"android":"levelo://app?vid=b8cfcb5c-1fe2-48ab-b86a-5cc900079f22","ios":"levelo://app?vid=b8cfcb5c-1fe2-48ab-b86a-5cc900079f22"},"vehicle_type_id":"4","last_reported":1691849071,"current_range_meters":14000,"station_id":"ce4bhqp2rcd13ifvqhog","pricing_plan_id":"free"},{"bike_id":"dbe406a0-e31d-4174-932b-0d8d584d17c2","system_id":"levelo_inurba_marseille","lat":43.292749,"lon":5.368398,"is_reserved":false,"is_disabled":false,"rental_uris":{"android":"levelo://app?vid=dbe406a0-e31d-4174-932b-0d8d584d17c2","ios":"levelo://app?vid=dbe406a0-e31d-4174-932b-0d8d584d17c2"},"vehicle_type_id":"4","last_reported":1691849071,"current_range_meters":31600,"station_id":"ce4bhbp2rcd13ifvqesg","pricing_plan_id":"free"},{"bike_id":"f19af0c4-6124-4de3-95c9-2f289698c9e8","system_id":"levelo_inurba_marseille","lat":43.302992,"lon":5.392136,"is_reserved":false,"is_disabled":false,"rental_uris":{"android":"levelo://app?vid=f19af0c4-6124-4de3-95c9-2f289698c9e8","ios":"levelo://app?vid=f19af0c4-6124-4de3-95c9-2f289698c9e8"},"vehicle_type_id":"4","last_reported":1691849071,"current_range_meters":21600,"station_id":"ce4bgkh2rcd13ifvqbk0","pricing_plan_id":"free"},{"bike_id":"ff957c5c-b24a-4908-a7ec-3a64143ddf47","system_id":"levelo_inurba_marseille","lat":43.2936,"lon":5.37835,"is_reserved":false,"is_disabled":false,"rental_uris":{"android":"levelo://app?vid=ff957c5c-b24a-4908-a7ec-3a64143ddf47","ios":"levelo://app?vid=ff957c5c-b24a-4908-a7ec-3a64143ddf47"},"vehicle_type_id":"4","last_reported":1691849071,"current_range_meters":18800,"station_id":"ce4bgjh2rcd13ifvqbf0","pricing_plan_id":"free"},{"bike_id":"23856457-d002-4299-b448-48f7ef5ccdab","system_id":"levelo_inurba_marseille","lat":43.2936,"lon":5.37835,"is_reserved":false,"is_disabled":false,"rental_uris":{"android":"levelo://app?vid=23856457-d002-4299-b448-48f7ef5ccdab","ios":"levelo://app?vid=23856457-d002-4299-b448-48f7ef5ccdab"},"vehicle_type_id":"4","last_reported":1691849071,"current_range_meters":4400,"station_id":"ce4bgjh2rcd13ifvqbf0","pricing_plan_id":"free"},{"bike_id":"0e2e081d-9b76-4cbc-816d-5c25119b0121","system_id":"levelo_inurba_marseille","lat":43.2936,"lon":5.37835,"is_reserved":false,"is_disabled":false,"rental_uris":{"android":"levelo://app?vid=0e2e081d-9b76-4cbc-816d-5c25119b0121","ios":"levelo://app?vid=0e2e081d-9b76-4cbc-816d-5c25119b0121"},"vehicle_type_id":"4","last_reported":1691849071,"current_range_meters":15200,"station_id":"ce4bgjh2rcd13ifvqbf0","pricing_plan_id":"free"},{"bike_id":"78744c46-4083-41d7-a9b9-d0ecd55ef9ca","system_id":"levelo_inurba_marseille","lat":43.29217,"lon":5.3605,"is_reserved":false,"is_disabled":false,"rental_uris":{"android":"levelo://app?vid=78744c46-4083-41d7-a9b9-d0ecd55ef9ca","ios":"levelo://app?vid=78744c46-4083-41d7-a9b9-d0ecd55ef9ca"},"vehicle_type_id":"4","last_reported":1691849071,"current_range_meters":29200,"station_id":"ce4bhbh2rcd13ifvqeqg","pricing_plan_id":"free"},{"bike_id":"bfe3122d-0cf2-4d05-8b35-e252c930d99c","system_id":"levelo_inurba_marseille","lat":43.291671,"lon":5.371575,"is_reserved":false,"is_disabled":false,"rental_uris":{"android":"levelo://app?vid=bfe3122d-0cf2-4d05-8b35-e252c930d99c","ios":"levelo://app?vid=bfe3122d-0cf2-4d05-8b35-e252c930d99c"},"vehicle_type_id":"4","last_reported":1691849071,"current_range_meters":1600,"station_id":"ce4bha92rcd13ifvqeh0","pricing_plan_id":"free"},{"bike_id":"6f4dd07a-a2fb-4274-a2be-4eef471c9329","system_id":"levelo_inurba_marseille","lat":43.313291,"lon":5.396838,"is_reserved":false,"is_disabled":false,"rental_uris":{"android":"levelo://app?vid=6f4dd07a-a2fb-4274-a2be-4eef471c9329","ios":"levelo://app?vid=6f4dd07a-a2fb-4274-a2be-4eef471c9329"},"vehicle_type_id":"4","last_reported":1691849071,"current_range_meters":27200,"station_id":"ce4bgvp2rcd13ifvqcu0","pricing_plan_id":"free"},{"bike_id":"090d93dc-4cf2-45f2-8dcb-151da4b6201a","system_id":"levelo_inurba_marseille","lat":43.29529,"lon":5.385581,"is_reserved":false,"is_disabled":false,"rental_uris":{"android":"levelo://app?vid=090d93dc-4cf2-45f2-8dcb-151da4b6201a","ios":"levelo://app?vid=090d93dc-4cf2-45f2-8dcb-151da4b6201a"},"vehicle_type_id":"4","last_reported":1691849071,"current_range_meters":10000,"station_id":"ce4bgih2rcd13ifvqba0","pricing_plan_id":"free"},{"bike_id":"81d507f8-6f45-4ae7-a103-7316f757972e","system_id":"levelo_inurba_marseille","lat":43.294153,"lon":5.386305,"is_reserved":false,"is_disabled":false,"rental_uris":{"android":"levelo://app?vid=81d507f8-6f45-4ae7-a103-7316f757972e","ios":"levelo://app?vid=81d507f8-6f45-4ae7-a103-7316f757972e"},"vehicle_type_id":"4","last_reported":1691849071,"current_range_meters":8400,"station_id":"ce4bh2h2rcd13ifvqdh0","pricing_plan_id":"free"},{"bike_id":"eef6427d-9244-4dc2-9ba5-b17ba90fe83c","system_id":"levelo_inurba_marseille","lat":43.294153,"lon":5.386305,"is_reserved":false,"is_disabled":false,"rental_uris":{"android":"levelo://app?vid=eef6427d-9244-4dc2-9ba5-b17ba90fe83c","ios":"levelo://app?vid=eef6427d-9244-4dc2-9ba5-b17ba90fe83c"},"vehicle_type_id":"4","last_reported":1691849071,"current_range_meters":0,"station_id":"ce4bh2h2rcd13ifvqdh0","pricing_plan_id":"free"},{"bike_id":"9d1e155d-74a1-4770-9a58-c6a867b279e0","system_id":"levelo_inurba_marseille","lat":43.29418,"lon":5.38626,"is_reserved":false,"is_disabled":false,"rental_uris":{"android":"levelo://app?vid=9d1e155d-74a1-4770-9a58-c6a867b279e0","ios":"levelo://app?vid=9d1e155d-74a1-4770-9a58-c6a867b279e0"},"vehicle_type_id":"4","last_reported":1691849071,"current_range_meters":0,"station_id":"ce4bh2h2rcd13ifvqdh0","pricing_plan_id":"free"},{"bike_id":"4e5253b6-68b9-405a-b770-8e676a129862","system_id":"levelo_inurba_marseille","lat":43.3043,"lon":5.39749,"is_reserved":false,"is_disabled":false,"rental_uris":{"android":"levelo://app?vid=4e5253b6-68b9-405a-b770-8e676a129862","ios":"levelo://app?vid=4e5253b6-68b9-405a-b770-8e676a129862"},"vehicle_type_id":"4","last_reported":1691849071,"current_range_meters":24400,"station_id":"ce4bh092rcd13ifvqd20","pricing_plan_id":"free"},{"bike_id":"9f8c390c-f8c5-4614-bd99-fdf815c974e4","system_id":"levelo_inurba_marseille","lat":43.292642,"lon":5.384254,"is_reserved":false,"is_disabled":false,"rental_uris":{"android":"levelo://app?vid=9f8c390c-f8c5-4614-bd99-fdf815c974e4","ios":"levelo://app?vid=9f8c390c-f8c5-4614-bd99-fdf815c974e4"},"vehicle_type_id":"4","last_reported":1691849071,"current_range_meters":24400,"station_id":"ce4bh692rcd13ifvqea0","pricing_plan_id":"free"},{"bike_id":"69c23820-b8c4-4b33-a6c2-28beb4ed1d2a","system_id":"levelo_inurba_marseille","lat":43.330357,"lon":5.38912,"is_reserved":false,"is_disabled":false,"rental_uris":{"android":"levelo://app?vid=69c23820-b8c4-4b33-a6c2-28beb4ed1d2a","ios":"levelo://app?vid=69c23820-b8c4-4b33-a6c2-28beb4ed1d2a"},"vehicle_type_id":"4","last_reported":1691849071,"current_range_meters":13200,"station_id":"","pricing_plan_id":"free"},{"bike_id":"8fede235-a3fa-4085-b5fb-515c17a98fa1","system_id":"levelo_inurba_marseille","lat":43.33042,"lon":5.38909,"is_reserved":false,"is_disabled":false,"rental_uris":{"android":"levelo://app?vid=8fede235-a3fa-4085-b5fb-515c17a98fa1","ios":"levelo://app?vid=8fede235-a3fa-4085-b5fb-515c17a98fa1"},"vehicle_type_id":"4","last_reported":1691849071,"current_range_meters":17600,"station_id":"ce4bhr92rcd13ifvqhrg","pricing_plan_id":"free"},{"bike_id":"e670912e-4d64-418d-a115-4ee484695e56","system_id":"levelo_inurba_marseille","lat":43.33048,"lon":5.38911,"is_reserved":false,"is_disabled":false,"rental_uris":{"android":"levelo://app?vid=e670912e-4d64-418d-a115-4ee484695e56","ios":"levelo://app?vid=e670912e-4d64-418d-a115-4ee484695e56"},"vehicle_type_id":"4","last_reported":1691849071,"current_range_meters":14400,"station_id":"ce4bhr92rcd13ifvqhrg","pricing_plan_id":"free"},{"bike_id":"455260f5-201e-45ac-8473-9f69d25d2f7d","system_id":"levelo_inurba_marseille","lat":43.33045,"lon":5.38918,"is_reserved":false,"is_disabled":false,"rental_uris":{"android":"levelo://app?vid=455260f5-201e-45ac-8473-9f69d25d2f7d","ios":"levelo://app?vid=455260f5-201e-45ac-8473-9f69d25d2f7d"},"vehicle_type_id":"4","last_reported":1691849071,"current_range_meters":12000,"station_id":"ce4bhr92rcd13ifvqhrg","pricing_plan_id":"free"},{"bike_id":"892867ae-c845-473e-87fc-2b3f5701ecf4","system_id":"levelo_inurba_marseille","lat":43.29005,"lon":5.35605,"is_reserved":false,"is_disabled":false,"rental_uris":{"android":"levelo://app?vid=892867ae-c845-473e-87fc-2b3f5701ecf4","ios":"levelo://app?vid=892867ae-c845-473e-87fc-2b3f5701ecf4"},"vehicle_type_id":"4","last_reported":1691849071,"current_range_meters":19600,"station_id":"ce4bhb92rcd13ifvqen0","pricing_plan_id":"free"},{"bike_id":"d92191b5-3897-428d-989c-4b986c7a7e64","system_id":"levelo_inurba_marseille","lat":43.28999,"lon":5.35612,"is_reserved":false,"is_disabled":false,"rental_uris":{"android":"levelo://app?vid=d92191b5-3897-428d-989c-4b986c7a7e64","ios":"levelo://app?vid=d92191b5-3897-428d-989c-4b986c7a7e64"},"vehicle_type_id":"4","last_reported":1691849071,"current_range_meters":19200,"station_id":"ce4bhb92rcd13ifvqen0","pricing_plan_id":"free"},{"bike_id":"62d6f144-2f84-4cfa-a371-7d594154cbd2","system_id":"levelo_inurba_marseille","lat":43.29091,"lon":5.38153,"is_reserved":false,"is_disabled":false,"rental_uris":{"android":"levelo://app?vid=62d6f144-2f84-4cfa-a371-7d594154cbd2","ios":"levelo://app?vid=62d6f144-2f84-4cfa-a371-7d594154cbd2"},"vehicle_type_id":"4","last_reported":1691849071,"current_range_meters":26400,"station_id":"ce4bh492rcd13ifvqdug","pricing_plan_id":"free"},{"bike_id":"c4b0aa63-7248-4c69-80eb-f0aa4c35dc39","system_id":"levelo_inurba_marseille","lat":43.33036,"lon":5.39103,"is_reserved":false,"is_disabled":false,"rental_uris":{"android":"levelo://app?vid=c4b0aa63-7248-4c69-80eb-f0aa4c35dc39","ios":"levelo://app?vid=c4b0aa63-7248-4c69-80eb-f0aa4c35dc39"},"vehicle_type_id":"4","last_reported":1691849071,"current_range_meters":7200,"station_id":"","pricing_plan_id":"free"},{"bike_id":"52b88303-40d8-474c-b650-da4e58122310","system_id":"levelo_inurba_marseille","lat":43.312609,"lon":5.401662,"is_reserved":false,"is_disabled":false,"rental_uris":{"android":"levelo://app?vid=52b88303-40d8-474c-b650-da4e58122310","ios":"levelo://app?vid=52b88303-40d8-474c-b650-da4e58122310"},"vehicle_type_id":"4","last_reported":1691849071,"current_range_meters":15200,"station_id":"ce4bh092rcd13ifvqd30","pricing_plan_id":"free"},{"bike_id":"88854dcd-c821-476d-ab3d-414522622dc0","system_id":"levelo_inurba_marseille","lat":43.33755,"lon":5.37451,"is_reserved":false,"is_disabled":false,"rental_uris":{"android":"levelo://app?vid=88854dcd-c821-476d-ab3d-414522622dc0","ios":"levelo://app?vid=88854dcd-c821-476d-ab3d-414522622dc0"},"vehicle_type_id":"4","last_reported":1691849071,"current_range_meters":20000,"station_id":"","pricing_plan_id":"free"},{"bike_id":"bf57533b-0278-4ddc-9cfd-75ae2b97ee8d","system_id":"levelo_inurba_marseille","lat":43.33759,"lon":5.37439,"is_reserved":false,"is_disabled":false,"rental_uris":{"android":"levelo://app?vid=bf57533b-0278-4ddc-9cfd-75ae2b97ee8d","ios":"levelo://app?vid=bf57533b-0278-4ddc-9cfd-75ae2b97ee8d"},"vehicle_type_id":"4","last_reported":1691849071,"current_range_meters":19600,"station_id":"","pricing_plan_id":"free"},{"bike_id":"7ac4ad57-e01e-49fa-818c-cc2e91fa59f6","system_id":"levelo_inurba_marseille","lat":43.33753,"lon":5.374793,"is_reserved":false,"is_disabled":false,"rental_uris":{"android":"levelo://app?vid=7ac4ad57-e01e-49fa-818c-cc2e91fa59f6","ios":"levelo://app?vid=7ac4ad57-e01e-49fa-818c-cc2e91fa59f6"},"vehicle_type_id":"4","last_reported":1691849071,"current_range_meters":4000,"station_id":"","pricing_plan_id":"free"},{"bike_id":"915f802e-f31b-4c71-8de0-2a5fc39e5970","system_id":"levelo_inurba_marseille","lat":43.32994,"lon":5.39403,"is_reserved":false,"is_disabled":false,"rental_uris":{"android":"levelo://app?vid=915f802e-f31b-4c71-8de0-2a5fc39e5970","ios":"levelo://app?vid=915f802e-f31b-4c71-8de0-2a5fc39e5970"},"vehicle_type_id":"4","last_reported":1691849071,"current_range_meters":3200,"station_id":"","pricing_plan_id":"free"},{"bike_id":"75199276-b705-4ad7-b6a9-49aeaa84628a","system_id":"levelo_inurba_marseille","lat":43.286591,"lon":5.363346,"is_reserved":false,"is_disabled":false,"rental_uris":{"android":"levelo://app?vid=75199276-b705-4ad7-b6a9-49aeaa84628a","ios":"levelo://app?vid=75199276-b705-4ad7-b6a9-49aeaa84628a"},"vehicle_type_id":"4","last_reported":1691849071,"current_range_meters":31200,"station_id":"ce4bhah2rcd13ifvqej0","pricing_plan_id":"free"},{"bike_id":"46af4e49-6993-488d-85b4-b7be69d7a34d","system_id":"levelo_inurba_marseille","lat":43.29533,"lon":5.39403,"is_reserved":false,"is_disabled":false,"rental_uris":{"android":"levelo://app?vid=46af4e49-6993-488d-85b4-b7be69d7a34d","ios":"levelo://app?vid=46af4e49-6993-488d-85b4-b7be69d7a34d"},"vehicle_type_id":"4","last_reported":1691849071,"current_range_meters":21600,"station_id":"","pricing_plan_id":"free"},{"bike_id":"49046c8e-00fc-4a22-98ef-656bca724c0b","system_id":"levelo_inurba_marseille","lat":43.290336,"lon":5.386425,"is_reserved":false,"is_disabled":false,"rental_uris":{"android":"levelo://app?vid=49046c8e-00fc-4a22-98ef-656bca724c0b","ios":"levelo://app?vid=49046c8e-00fc-4a22-98ef-656bca724c0b"},"vehicle_type_id":"4","last_reported":1691849071,"current_range_meters":11600,"station_id":"ce4bh4p2rcd13ifvqe0g","pricing_plan_id":"free"},{"bike_id":"ceea8ca0-0bfb-4822-87dc-04bad946da70","system_id":"levelo_inurba_marseille","lat":43.290336,"lon":5.386425,"is_reserved":false,"is_disabled":false,"rental_uris":{"android":"levelo://app?vid=ceea8ca0-0bfb-4822-87dc-04bad946da70","ios":"levelo://app?vid=ceea8ca0-0bfb-4822-87dc-04bad946da70"},"vehicle_type_id":"4","last_reported":1691849071,"current_range_meters":20400,"station_id":"ce4bh4p2rcd13ifvqe0g","pricing_plan_id":"free"},{"bike_id":"ea055322-5116-4f09-a1f2-3cbcfee7f60c","system_id":"levelo_inurba_marseille","lat":43.286039,"lon":5.370679,"is_reserved":false,"is_disabled":false,"rental_uris":{"android":"levelo://app?vid=ea055322-5116-4f09-a1f2-3cbcfee7f60c","ios":"levelo://app?vid=ea055322-5116-4f09-a1f2-3cbcfee7f60c"},"vehicle_type_id":"4","last_reported":1691849071,"current_range_meters":20000,"station_id":"ce4bht12rcd13ifvqi60","pricing_plan_id":"free"},{"bike_id":"62f98ea9-b3b7-4b6b-bd8a-8aeed75686f1","system_id":"levelo_inurba_marseille","lat":43.28611,"lon":5.37063,"is_reserved":false,"is_disabled":false,"rental_uris":{"android":"levelo://app?vid=62f98ea9-b3b7-4b6b-bd8a-8aeed75686f1","ios":"levelo://app?vid=62f98ea9-b3b7-4b6b-bd8a-8aeed75686f1"},"vehicle_type_id":"4","last_reported":1691849071,"current_range_meters":800,"station_id":"ce4bht12rcd13ifvqi60","pricing_plan_id":"free"},{"bike_id":"f9963c21-3390-465d-af1e-4f306ce64c25","system_id":"levelo_inurba_marseille","lat":43.28611,"lon":5.37064,"is_reserved":false,"is_disabled":false,"rental_uris":{"android":"levelo://app?vid=f9963c21-3390-465d-af1e-4f306ce64c25","ios":"levelo://app?vid=f9963c21-3390-465d-af1e-4f306ce64c25"},"vehicle_type_id":"4","last_reported":1691849071,"current_range_meters":14800,"station_id":"ce4bht12rcd13ifvqi60","pricing_plan_id":"free"},{"bike_id":"fa572cbd-eab2-4ffb-95a8-47433301dbfd","system_id":"levelo_inurba_marseille","lat":43.286039,"lon":5.370679,"is_reserved":false,"is_disabled":false,"rental_uris":{"android":"levelo://app?vid=fa572cbd-eab2-4ffb-95a8-47433301dbfd","ios":"levelo://app?vid=fa572cbd-eab2-4ffb-95a8-47433301dbfd"},"vehicle_type_id":"4","last_reported":1691849071,"current_range_meters":28400,"station_id":"ce4bht12rcd13ifvqi60","pricing_plan_id":"free"},{"bike_id":"6beb7d3f-9d2c-4a29-809f-cedf5f8f4d9a","system_id":"levelo_inurba_marseille","lat":43.286039,"lon":5.370681,"is_reserved":false,"is_disabled":false,"rental_uris":{"android":"levelo://app?vid=6beb7d3f-9d2c-4a29-809f-cedf5f8f4d9a","ios":"levelo://app?vid=6beb7d3f-9d2c-4a29-809f-cedf5f8f4d9a"},"vehicle_type_id":"4","last_reported":1691849071,"current_range_meters":18800,"station_id":"ce4bht12rcd13ifvqi60","pricing_plan_id":"free"},{"bike_id":"c167e342-02bf-4c22-82f7-cc2cdc9d7a3d","system_id":"levelo_inurba_marseille","lat":43.31634,"lon":5.4043,"is_reserved":false,"is_disabled":false,"rental_uris":{"android":"levelo://app?vid=c167e342-02bf-4c22-82f7-cc2cdc9d7a3d","ios":"levelo://app?vid=c167e342-02bf-4c22-82f7-cc2cdc9d7a3d"},"vehicle_type_id":"4","last_reported":1691849071,"current_range_meters":0,"station_id":"ce4bh012rcd13ifvqd00","pricing_plan_id":"free"},{"bike_id":"613acf69-3d92-4069-9c28-2ac77335598a","system_id":"levelo_inurba_marseille","lat":43.3164,"lon":5.40431,"is_reserved":false,"is_disabled":false,"rental_uris":{"android":"levelo://app?vid=613acf69-3d92-4069-9c28-2ac77335598a","ios":"levelo://app?vid=613acf69-3d92-4069-9c28-2ac77335598a"},"vehicle_type_id":"4","last_reported":1691849071,"current_range_meters":15600,"station_id":"ce4bh012rcd13ifvqd00","pricing_plan_id":"free"},{"bike_id":"e82405c5-9edb-488e-b5fc-9ce5b7c314ed","system_id":"levelo_inurba_marseille","lat":43.285856,"lon":5.350771,"is_reserved":false,"is_disabled":false,"rental_uris":{"android":"levelo://app?vid=e82405c5-9edb-488e-b5fc-9ce5b7c314ed","ios":"levelo://app?vid=e82405c5-9edb-488e-b5fc-9ce5b7c314ed"},"vehicle_type_id":"4","last_reported":1691849071,"current_range_meters":27600,"station_id":"ce4bhch2rcd13ifvqeug","pricing_plan_id":"free"},{"bike_id":"cdda6ce9-e4ce-487a-97ba-0bc9e65355d9","system_id":"levelo_inurba_marseille","lat":43.28616,"lon":5.35106,"is_reserved":false,"is_disabled":false,"rental_uris":{"android":"levelo://app?vid=cdda6ce9-e4ce-487a-97ba-0bc9e65355d9","ios":"levelo://app?vid=cdda6ce9-e4ce-487a-97ba-0bc9e65355d9"},"vehicle_type_id":"4","last_reported":1691849071,"current_range_meters":31200,"station_id":"ce4bhch2rcd13ifvqeug","pricing_plan_id":"free"},{"bike_id":"4aaa5293-08b9-43d3-ad44-07522886c7b9","system_id":"levelo_inurba_marseille","lat":43.28617,"lon":5.35101,"is_reserved":false,"is_disabled":false,"rental_uris":{"android":"levelo://app?vid=4aaa5293-08b9-43d3-ad44-07522886c7b9","ios":"levelo://app?vid=4aaa5293-08b9-43d3-ad44-07522886c7b9"},"vehicle_type_id":"4","last_reported":1691849071,"current_range_meters":25600,"station_id":"ce4bhch2rcd13ifvqeug","pricing_plan_id":"free"},{"bike_id":"64e5d8b2-2974-4084-bea1-3762fd7251b9","system_id":"levelo_inurba_marseille","lat":43.285856,"lon":5.350771,"is_reserved":false,"is_disabled":false,"rental_uris":{"android":"levelo://app?vid=64e5d8b2-2974-4084-bea1-3762fd7251b9","ios":"levelo://app?vid=64e5d8b2-2974-4084-bea1-3762fd7251b9"},"vehicle_type_id":"4","last_reported":1691849071,"current_range_meters":31200,"station_id":"ce4bhch2rcd13ifvqeug","pricing_plan_id":"free"},{"bike_id":"c3d9cdbe-499d-4a5a-8da8-b17d9811f7bb","system_id":"levelo_inurba_marseille","lat":43.286143,"lon":5.351012,"is_reserved":false,"is_disabled":false,"rental_uris":{"android":"levelo://app?vid=c3d9cdbe-499d-4a5a-8da8-b17d9811f7bb","ios":"levelo://app?vid=c3d9cdbe-499d-4a5a-8da8-b17d9811f7bb"},"vehicle_type_id":"4","last_reported":1691849071,"current_range_meters":20400,"station_id":"ce4bhch2rcd13ifvqeug","pricing_plan_id":"free"},{"bike_id":"2047e139-6953-4aa7-a2f4-683843892520","system_id":"levelo_inurba_marseille","lat":43.285856,"lon":5.350771,"is_reserved":false,"is_disabled":false,"rental_uris":{"android":"levelo://app?vid=2047e139-6953-4aa7-a2f4-683843892520","ios":"levelo://app?vid=2047e139-6953-4aa7-a2f4-683843892520"},"vehicle_type_id":"4","last_reported":1691849071,"current_range_meters":30800,"station_id":"ce4bhch2rcd13ifvqeug","pricing_plan_id":"free"},{"bike_id":"766d8f71-fb9c-4a05-9bdc-4100ec9edc9b","system_id":"levelo_inurba_marseille","lat":43.28427,"lon":5.37509,"is_reserved":false,"is_disabled":false,"rental_uris":{"android":"levelo://app?vid=766d8f71-fb9c-4a05-9bdc-4100ec9edc9b","ios":"levelo://app?vid=766d8f71-fb9c-4a05-9bdc-4100ec9edc9b"},"vehicle_type_id":"4","last_reported":1691849071,"current_range_meters":20800,"station_id":"ce4bh412rcd13ifvqds0","pricing_plan_id":"free"},{"bike_id":"fa2862d1-50eb-4de4-aa40-55b49de55eb9","system_id":"levelo_inurba_marseille","lat":43.283998,"lon":5.375062,"is_reserved":false,"is_disabled":false,"rental_uris":{"android":"levelo://app?vid=fa2862d1-50eb-4de4-aa40-55b49de55eb9","ios":"levelo://app?vid=fa2862d1-50eb-4de4-aa40-55b49de55eb9"},"vehicle_type_id":"4","last_reported":1691849071,"current_range_meters":8000,"station_id":"ce4bh412rcd13ifvqds0","pricing_plan_id":"free"},{"bike_id":"8fd36844-0be7-4b8b-bb52-8bbc39d54aac","system_id":"levelo_inurba_marseille","lat":43.286764,"lon":5.386618,"is_reserved":false,"is_disabled":false,"rental_uris":{"android":"levelo://app?vid=8fd36844-0be7-4b8b-bb52-8bbc39d54aac","ios":"levelo://app?vid=8fd36844-0be7-4b8b-bb52-8bbc39d54aac"},"vehicle_type_id":"4","last_reported":1691849071,"current_range_meters":29200,"station_id":"ce4bh492rcd13ifvqdug","pricing_plan_id":"free"},{"bike_id":"b2188b0d-5227-4325-bc94-84b6f1239ecf","system_id":"levelo_inurba_marseille","lat":43.323464,"lon":5.406297,"is_reserved":false,"is_disabled":false,"rental_uris":{"android":"levelo://app?vid=b2188b0d-5227-4325-bc94-84b6f1239ecf","ios":"levelo://app?vid=b2188b0d-5227-4325-bc94-84b6f1239ecf"},"vehicle_type_id":"4","last_reported":1691849071,"current_range_meters":31200,"station_id":"ce4bhq92rcd13ifvqhjg","pricing_plan_id":"free"},{"bike_id":"a7f977ab-df2a-42be-af54-1bb16c7ef5dc","system_id":"levelo_inurba_marseille","lat":43.323464,"lon":5.406297,"is_reserved":false,"is_disabled":false,"rental_uris":{"android":"levelo://app?vid=a7f977ab-df2a-42be-af54-1bb16c7ef5dc","ios":"levelo://app?vid=a7f977ab-df2a-42be-af54-1bb16c7ef5dc"},"vehicle_type_id":"4","last_reported":1691849071,"current_range_meters":31200,"station_id":"ce4bhq92rcd13ifvqhjg","pricing_plan_id":"free"},{"bike_id":"7460c8d0-5157-44e8-88a8-237d1833d417","system_id":"levelo_inurba_marseille","lat":43.323464,"lon":5.406297,"is_reserved":false,"is_disabled":false,"rental_uris":{"android":"levelo://app?vid=7460c8d0-5157-44e8-88a8-237d1833d417","ios":"levelo://app?vid=7460c8d0-5157-44e8-88a8-237d1833d417"},"vehicle_type_id":"4","last_reported":1691849071,"current_range_meters":29600,"station_id":"ce4bhq92rcd13ifvqhjg","pricing_plan_id":"free"},{"bike_id":"e2c2f663-5dd6-43cb-9f3c-986ac869dd33","system_id":"levelo_inurba_marseille","lat":43.323464,"lon":5.406297,"is_reserved":false,"is_disabled":false,"rental_uris":{"android":"levelo://app?vid=e2c2f663-5dd6-43cb-9f3c-986ac869dd33","ios":"levelo://app?vid=e2c2f663-5dd6-43cb-9f3c-986ac869dd33"},"vehicle_type_id":"4","last_reported":1691849071,"current_range_meters":8000,"station_id":"ce4bhq92rcd13ifvqhjg","pricing_plan_id":"free"},{"bike_id":"9c88b162-66af-4d80-b737-a3db75d2a885","system_id":"levelo_inurba_marseille","lat":43.323464,"lon":5.406297,"is_reserved":false,"is_disabled":false,"rental_uris":{"android":"levelo://app?vid=9c88b162-66af-4d80-b737-a3db75d2a885","ios":"levelo://app?vid=9c88b162-66af-4d80-b737-a3db75d2a885"},"vehicle_type_id":"4","last_reported":1691849071,"current_range_meters":28800,"station_id":"ce4bhq92rcd13ifvqhjg","pricing_plan_id":"free"},{"bike_id":"1e5fc929-b2e6-478f-90e9-ed5e75397a8d","system_id":"levelo_inurba_marseille","lat":43.323464,"lon":5.406297,"is_reserved":false,"is_disabled":false,"rental_uris":{"android":"levelo://app?vid=1e5fc929-b2e6-478f-90e9-ed5e75397a8d","ios":"levelo://app?vid=1e5fc929-b2e6-478f-90e9-ed5e75397a8d"},"vehicle_type_id":"4","last_reported":1691849071,"current_range_meters":31600,"station_id":"ce4bhq92rcd13ifvqhjg","pricing_plan_id":"free"},{"bike_id":"99655be4-85c4-4618-9f8f-575f85f1237b","system_id":"levelo_inurba_marseille","lat":43.323464,"lon":5.406297,"is_reserved":false,"is_disabled":false,"rental_uris":{"android":"levelo://app?vid=99655be4-85c4-4618-9f8f-575f85f1237b","ios":"levelo://app?vid=99655be4-85c4-4618-9f8f-575f85f1237b"},"vehicle_type_id":"4","last_reported":1691849071,"current_range_meters":31600,"station_id":"ce4bhq92rcd13ifvqhjg","pricing_plan_id":"free"},{"bike_id":"77387bbb-06d5-400f-b530-4b392abf819f","system_id":"levelo_inurba_marseille","lat":43.323464,"lon":5.406297,"is_reserved":false,"is_disabled":false,"rental_uris":{"android":"levelo://app?vid=77387bbb-06d5-400f-b530-4b392abf819f","ios":"levelo://app?vid=77387bbb-06d5-400f-b530-4b392abf819f"},"vehicle_type_id":"4","last_reported":1691849071,"current_range_meters":30800,"station_id":"ce4bhq92rcd13ifvqhjg","pricing_plan_id":"free"},{"bike_id":"fffcff2f-a9f9-44f0-bb09-83324346213d","system_id":"levelo_inurba_marseille","lat":43.33723,"lon":5.39186,"is_reserved":false,"is_disabled":false,"rental_uris":{"android":"levelo://app?vid=fffcff2f-a9f9-44f0-bb09-83324346213d","ios":"levelo://app?vid=fffcff2f-a9f9-44f0-bb09-83324346213d"},"vehicle_type_id":"4","last_reported":1691849071,"current_range_meters":26000,"station_id":"ce4bhr92rcd13ifvqhsg","pricing_plan_id":"free"},{"bike_id":"0f37a334-b23f-4231-8c75-c49ee23dddb1","system_id":"levelo_inurba_marseille","lat":43.323464,"lon":5.406297,"is_reserved":false,"is_disabled":false,"rental_uris":{"android":"levelo://app?vid=0f37a334-b23f-4231-8c75-c49ee23dddb1","ios":"levelo://app?vid=0f37a334-b23f-4231-8c75-c49ee23dddb1"},"vehicle_type_id":"4","last_reported":1691849071,"current_range_meters":31600,"station_id":"ce4bhq92rcd13ifvqhjg","pricing_plan_id":"free"},{"bike_id":"a369c97d-81f0-46c7-b8ce-be37c51bdc96","system_id":"levelo_inurba_marseille","lat":43.33726,"lon":5.39183,"is_reserved":false,"is_disabled":false,"rental_uris":{"android":"levelo://app?vid=a369c97d-81f0-46c7-b8ce-be37c51bdc96","ios":"levelo://app?vid=a369c97d-81f0-46c7-b8ce-be37c51bdc96"},"vehicle_type_id":"4","last_reported":1691849071,"current_range_meters":19200,"station_id":"ce4bhr92rcd13ifvqhsg","pricing_plan_id":"free"},{"bike_id":"fbfeeb75-e370-407d-81d3-a22af631e8cf","system_id":"levelo_inurba_marseille","lat":43.323464,"lon":5.406297,"is_reserved":false,"is_disabled":false,"rental_uris":{"android":"levelo://app?vid=fbfeeb75-e370-407d-81d3-a22af631e8cf","ios":"levelo://app?vid=fbfeeb75-e370-407d-81d3-a22af631e8cf"},"vehicle_type_id":"4","last_reported":1691849071,"current_range_meters":31600,"station_id":"ce4bhq92rcd13ifvqhjg","pricing_plan_id":"free"},{"bike_id":"1d1f8de5-a381-4951-8286-1972c35a95ab","system_id":"levelo_inurba_marseille","lat":43.323464,"lon":5.406297,"is_reserved":false,"is_disabled":false,"rental_uris":{"android":"levelo://app?vid=1d1f8de5-a381-4951-8286-1972c35a95ab","ios":"levelo://app?vid=1d1f8de5-a381-4951-8286-1972c35a95ab"},"vehicle_type_id":"4","last_reported":1691849071,"current_range_meters":27200,"station_id":"ce4bhq92rcd13ifvqhjg","pricing_plan_id":"free"},{"bike_id":"d0077ace-8d19-4088-b70c-82e3c4919915","system_id":"levelo_inurba_marseille","lat":43.323464,"lon":5.406297,"is_reserved":false,"is_disabled":false,"rental_uris":{"android":"levelo://app?vid=d0077ace-8d19-4088-b70c-82e3c4919915","ios":"levelo://app?vid=d0077ace-8d19-4088-b70c-82e3c4919915"},"vehicle_type_id":"4","last_reported":1691849071,"current_range_meters":31600,"station_id":"ce4bhq92rcd13ifvqhjg","pricing_plan_id":"free"},{"bike_id":"b715fbc1-3e27-463b-b010-bead04f06ee1","system_id":"levelo_inurba_marseille","lat":43.323464,"lon":5.406297,"is_reserved":false,"is_disabled":false,"rental_uris":{"android":"levelo://app?vid=b715fbc1-3e27-463b-b010-bead04f06ee1","ios":"levelo://app?vid=b715fbc1-3e27-463b-b010-bead04f06ee1"},"vehicle_type_id":"4","last_reported":1691849071,"current_range_meters":28800,"station_id":"ce4bhq92rcd13ifvqhjg","pricing_plan_id":"free"},{"bike_id":"db35e1fc-22a3-4fea-bcf1-0f98b18b8d94","system_id":"levelo_inurba_marseille","lat":43.283498,"lon":5.380948,"is_reserved":false,"is_disabled":false,"rental_uris":{"android":"levelo://app?vid=db35e1fc-22a3-4fea-bcf1-0f98b18b8d94","ios":"levelo://app?vid=db35e1fc-22a3-4fea-bcf1-0f98b18b8d94"},"vehicle_type_id":"4","last_reported":1691849071,"current_range_meters":16400,"station_id":"ce4bh412rcd13ifvqdr0","pricing_plan_id":"free"},{"bike_id":"25f095c2-2a36-4b7a-8dde-bf3ab79f1071","system_id":"levelo_inurba_marseille","lat":43.283498,"lon":5.380948,"is_reserved":false,"is_disabled":false,"rental_uris":{"android":"levelo://app?vid=25f095c2-2a36-4b7a-8dde-bf3ab79f1071","ios":"levelo://app?vid=25f095c2-2a36-4b7a-8dde-bf3ab79f1071"},"vehicle_type_id":"4","last_reported":1691849071,"current_range_meters":22000,"station_id":"ce4bh412rcd13ifvqdr0","pricing_plan_id":"free"},{"bike_id":"de8ad574-945d-45b0-b5fa-8e8c336b6512","system_id":"levelo_inurba_marseille","lat":43.32394,"lon":5.40652,"is_reserved":false,"is_disabled":false,"rental_uris":{"android":"levelo://app?vid=de8ad574-945d-45b0-b5fa-8e8c336b6512","ios":"levelo://app?vid=de8ad574-945d-45b0-b5fa-8e8c336b6512"},"vehicle_type_id":"4","last_reported":1691849071,"current_range_meters":20400,"station_id":"","pricing_plan_id":"free"},{"bike_id":"dc18e65e-4699-4c00-a77f-6c704dc3678d","system_id":"levelo_inurba_marseille","lat":43.28426,"lon":5.35008,"is_reserved":false,"is_disabled":false,"rental_uris":{"android":"levelo://app?vid=dc18e65e-4699-4c00-a77f-6c704dc3678d","ios":"levelo://app?vid=dc18e65e-4699-4c00-a77f-6c704dc3678d"},"vehicle_type_id":"4","last_reported":1691849071,"current_range_meters":25600,"station_id":"ce4bhbh2rcd13ifvqepg","pricing_plan_id":"free"},{"bike_id":"665b7da6-5b84-43eb-9356-8b03b1094cac","system_id":"levelo_inurba_marseille","lat":43.28433,"lon":5.34982,"is_reserved":false,"is_disabled":false,"rental_uris":{"android":"levelo://app?vid=665b7da6-5b84-43eb-9356-8b03b1094cac","ios":"levelo://app?vid=665b7da6-5b84-43eb-9356-8b03b1094cac"},"vehicle_type_id":"4","last_reported":1691849071,"current_range_meters":16000,"station_id":"ce4bhbh2rcd13ifvqepg","pricing_plan_id":"free"},{"bike_id":"f7b92aa7-8425-450c-be7b-da0361219fe1","system_id":"levelo_inurba_marseille","lat":43.284219,"lon":5.3497,"is_reserved":false,"is_disabled":false,"rental_uris":{"android":"levelo://app?vid=f7b92aa7-8425-450c-be7b-da0361219fe1","ios":"levelo://app?vid=f7b92aa7-8425-450c-be7b-da0361219fe1"},"vehicle_type_id":"4","last_reported":1691849071,"current_range_meters":11200,"station_id":"ce4bhbh2rcd13ifvqepg","pricing_plan_id":"free"},{"bike_id":"be128c2c-d4d2-4718-b33b-9c64bee378bc","system_id":"levelo_inurba_marseille","lat":43.28422,"lon":5.35005,"is_reserved":false,"is_disabled":false,"rental_uris":{"android":"levelo://app?vid=be128c2c-d4d2-4718-b33b-9c64bee378bc","ios":"levelo://app?vid=be128c2c-d4d2-4718-b33b-9c64bee378bc"},"vehicle_type_id":"4","last_reported":1691849071,"current_range_meters":12800,"station_id":"ce4bhbh2rcd13ifvqepg","pricing_plan_id":"free"},{"bike_id":"c5da1742-ac1c-41d3-87ef-f2cda8e48879","system_id":"levelo_inurba_marseille","lat":43.284219,"lon":5.3497,"is_reserved":false,"is_disabled":false,"rental_uris":{"android":"levelo://app?vid=c5da1742-ac1c-41d3-87ef-f2cda8e48879","ios":"levelo://app?vid=c5da1742-ac1c-41d3-87ef-f2cda8e48879"},"vehicle_type_id":"4","last_reported":1691849071,"current_range_meters":30400,"station_id":"ce4bhbh2rcd13ifvqepg","pricing_plan_id":"free"},{"bike_id":"6f5226ab-f142-443a-b9c1-709f834fe8ae","system_id":"levelo_inurba_marseille","lat":43.284219,"lon":5.3497,"is_reserved":false,"is_disabled":false,"rental_uris":{"android":"levelo://app?vid=6f5226ab-f142-443a-b9c1-709f834fe8ae","ios":"levelo://app?vid=6f5226ab-f142-443a-b9c1-709f834fe8ae"},"vehicle_type_id":"4","last_reported":1691849071,"current_range_meters":17200,"station_id":"ce4bhbh2rcd13ifvqepg","pricing_plan_id":"free"},{"bike_id":"0c3d1675-11fd-46e5-9f2c-8b820b48ed85","system_id":"levelo_inurba_marseille","lat":43.284219,"lon":5.3497,"is_reserved":false,"is_disabled":false,"rental_uris":{"android":"levelo://app?vid=0c3d1675-11fd-46e5-9f2c-8b820b48ed85","ios":"levelo://app?vid=0c3d1675-11fd-46e5-9f2c-8b820b48ed85"},"vehicle_type_id":"4","last_reported":1691849071,"current_range_meters":29600,"station_id":"ce4bhbh2rcd13ifvqepg","pricing_plan_id":"free"},{"bike_id":"7683891b-01ae-4d96-8d23-ca515d1a019a","system_id":"levelo_inurba_marseille","lat":43.28419,"lon":5.35003,"is_reserved":false,"is_disabled":false,"rental_uris":{"android":"levelo://app?vid=7683891b-01ae-4d96-8d23-ca515d1a019a","ios":"levelo://app?vid=7683891b-01ae-4d96-8d23-ca515d1a019a"},"vehicle_type_id":"4","last_reported":1691849071,"current_range_meters":31200,"station_id":"ce4bhbh2rcd13ifvqepg","pricing_plan_id":"free"},{"bike_id":"d9b584cf-c884-464b-b4e5-116a03328a04","system_id":"levelo_inurba_marseille","lat":43.284219,"lon":5.3497,"is_reserved":false,"is_disabled":false,"rental_uris":{"android":"levelo://app?vid=d9b584cf-c884-464b-b4e5-116a03328a04","ios":"levelo://app?vid=d9b584cf-c884-464b-b4e5-116a03328a04"},"vehicle_type_id":"4","last_reported":1691849071,"current_range_meters":16000,"station_id":"ce4bhbh2rcd13ifvqepg","pricing_plan_id":"free"},{"bike_id":"131b1670-8f5f-49e7-876c-0629d937d0ac","system_id":"levelo_inurba_marseille","lat":43.28417,"lon":5.35009,"is_reserved":false,"is_disabled":false,"rental_uris":{"android":"levelo://app?vid=131b1670-8f5f-49e7-876c-0629d937d0ac","ios":"levelo://app?vid=131b1670-8f5f-49e7-876c-0629d937d0ac"},"vehicle_type_id":"4","last_reported":1691849071,"current_range_meters":20800,"station_id":"ce4bhbh2rcd13ifvqepg","pricing_plan_id":"free"},{"bike_id":"67ab69a2-70b8-420a-8350-b04b247c8db5","system_id":"levelo_inurba_marseille","lat":43.28422,"lon":5.34992,"is_reserved":false,"is_disabled":false,"rental_uris":{"android":"levelo://app?vid=67ab69a2-70b8-420a-8350-b04b247c8db5","ios":"levelo://app?vid=67ab69a2-70b8-420a-8350-b04b247c8db5"},"vehicle_type_id":"4","last_reported":1691849071,"current_range_meters":21600,"station_id":"ce4bhbh2rcd13ifvqepg","pricing_plan_id":"free"},{"bike_id":"5b314571-4077-4c58-8f95-b94ed8a60cca","system_id":"levelo_inurba_marseille","lat":43.28421,"lon":5.34995,"is_reserved":false,"is_disabled":false,"rental_uris":{"android":"levelo://app?vid=5b314571-4077-4c58-8f95-b94ed8a60cca","ios":"levelo://app?vid=5b314571-4077-4c58-8f95-b94ed8a60cca"},"vehicle_type_id":"4","last_reported":1691849071,"current_range_meters":20800,"station_id":"ce4bhbh2rcd13ifvqepg","pricing_plan_id":"free"},{"bike_id":"da1589e9-f526-423a-a5df-240cc0d81d52","system_id":"levelo_inurba_marseille","lat":43.28419,"lon":5.35,"is_reserved":false,"is_disabled":false,"rental_uris":{"android":"levelo://app?vid=da1589e9-f526-423a-a5df-240cc0d81d52","ios":"levelo://app?vid=da1589e9-f526-423a-a5df-240cc0d81d52"},"vehicle_type_id":"4","last_reported":1691849071,"current_range_meters":21200,"station_id":"ce4bhbh2rcd13ifvqepg","pricing_plan_id":"free"},{"bike_id":"1480e8dd-d613-4501-9065-39fa3ad3b1c0","system_id":"levelo_inurba_marseille","lat":43.284219,"lon":5.3497,"is_reserved":false,"is_disabled":false,"rental_uris":{"android":"levelo://app?vid=1480e8dd-d613-4501-9065-39fa3ad3b1c0","ios":"levelo://app?vid=1480e8dd-d613-4501-9065-39fa3ad3b1c0"},"vehicle_type_id":"4","last_reported":1691849071,"current_range_meters":11200,"station_id":"ce4bhbh2rcd13ifvqepg","pricing_plan_id":"free"},{"bike_id":"653d7767-e989-4e56-a7f3-98440879dbc2","system_id":"levelo_inurba_marseille","lat":43.284219,"lon":5.3497,"is_reserved":false,"is_disabled":false,"rental_uris":{"android":"levelo://app?vid=653d7767-e989-4e56-a7f3-98440879dbc2","ios":"levelo://app?vid=653d7767-e989-4e56-a7f3-98440879dbc2"},"vehicle_type_id":"4","last_reported":1691849071,"current_range_meters":26400,"station_id":"ce4bhbh2rcd13ifvqepg","pricing_plan_id":"free"},{"bike_id":"d2c4ce50-f2ac-41b1-98a5-1fef4b367435","system_id":"levelo_inurba_marseille","lat":43.28418,"lon":5.34996,"is_reserved":false,"is_disabled":false,"rental_uris":{"android":"levelo://app?vid=d2c4ce50-f2ac-41b1-98a5-1fef4b367435","ios":"levelo://app?vid=d2c4ce50-f2ac-41b1-98a5-1fef4b367435"},"vehicle_type_id":"4","last_reported":1691849071,"current_range_meters":24400,"station_id":"ce4bhbh2rcd13ifvqepg","pricing_plan_id":"free"},{"bike_id":"17d6175b-d5ce-4d9d-994a-210022bb3c2f","system_id":"levelo_inurba_marseille","lat":43.284217,"lon":5.349697,"is_reserved":false,"is_disabled":false,"rental_uris":{"android":"levelo://app?vid=17d6175b-d5ce-4d9d-994a-210022bb3c2f","ios":"levelo://app?vid=17d6175b-d5ce-4d9d-994a-210022bb3c2f"},"vehicle_type_id":"4","last_reported":1691849071,"current_range_meters":31200,"station_id":"ce4bhbh2rcd13ifvqepg","pricing_plan_id":"free"},{"bike_id":"846e2777-0bf1-49a7-9280-45761edb6ab6","system_id":"levelo_inurba_marseille","lat":43.28421,"lon":5.34978,"is_reserved":false,"is_disabled":false,"rental_uris":{"android":"levelo://app?vid=846e2777-0bf1-49a7-9280-45761edb6ab6","ios":"levelo://app?vid=846e2777-0bf1-49a7-9280-45761edb6ab6"},"vehicle_type_id":"4","last_reported":1691849071,"current_range_meters":31200,"station_id":"ce4bhbh2rcd13ifvqepg","pricing_plan_id":"free"},{"bike_id":"b5757c5b-4999-4c87-9eba-fa39b5085f5f","system_id":"levelo_inurba_marseille","lat":43.284219,"lon":5.3497,"is_reserved":false,"is_disabled":false,"rental_uris":{"android":"levelo://app?vid=b5757c5b-4999-4c87-9eba-fa39b5085f5f","ios":"levelo://app?vid=b5757c5b-4999-4c87-9eba-fa39b5085f5f"},"vehicle_type_id":"4","last_reported":1691849071,"current_range_meters":25600,"station_id":"ce4bhbh2rcd13ifvqepg","pricing_plan_id":"free"},{"bike_id":"b568e77a-5147-4276-b56d-d2e37f3dfe1e","system_id":"levelo_inurba_marseille","lat":43.284219,"lon":5.3497,"is_reserved":false,"is_disabled":false,"rental_uris":{"android":"levelo://app?vid=b568e77a-5147-4276-b56d-d2e37f3dfe1e","ios":"levelo://app?vid=b568e77a-5147-4276-b56d-d2e37f3dfe1e"},"vehicle_type_id":"4","last_reported":1691849071,"current_range_meters":22800,"station_id":"ce4bhbh2rcd13ifvqepg","pricing_plan_id":"free"},{"bike_id":"0d4a1ca6-c714-4ff8-b5b9-9c153755d7ee","system_id":"levelo_inurba_marseille","lat":43.28414,"lon":5.34997,"is_reserved":false,"is_disabled":false,"rental_uris":{"android":"levelo://app?vid=0d4a1ca6-c714-4ff8-b5b9-9c153755d7ee","ios":"levelo://app?vid=0d4a1ca6-c714-4ff8-b5b9-9c153755d7ee"},"vehicle_type_id":"4","last_reported":1691849071,"current_range_meters":31200,"station_id":"ce4bhbh2rcd13ifvqepg","pricing_plan_id":"free"},{"bike_id":"823f3b4f-a689-44e6-8332-98b0afc324fc","system_id":"levelo_inurba_marseille","lat":43.284219,"lon":5.3497,"is_reserved":false,"is_disabled":false,"rental_uris":{"android":"levelo://app?vid=823f3b4f-a689-44e6-8332-98b0afc324fc","ios":"levelo://app?vid=823f3b4f-a689-44e6-8332-98b0afc324fc"},"vehicle_type_id":"4","last_reported":1691849071,"current_range_meters":28400,"station_id":"ce4bhbh2rcd13ifvqepg","pricing_plan_id":"free"},{"bike_id":"d413c25b-7dca-4442-a27f-3ca7bc3ad773","system_id":"levelo_inurba_marseille","lat":43.28414,"lon":5.34995,"is_reserved":false,"is_disabled":false,"rental_uris":{"android":"levelo://app?vid=d413c25b-7dca-4442-a27f-3ca7bc3ad773","ios":"levelo://app?vid=d413c25b-7dca-4442-a27f-3ca7bc3ad773"},"vehicle_type_id":"4","last_reported":1691849071,"current_range_meters":15200,"station_id":"ce4bhbh2rcd13ifvqepg","pricing_plan_id":"free"},{"bike_id":"757b867b-9bb6-4fba-9573-0482f336d9e1","system_id":"levelo_inurba_marseille","lat":43.28413,"lon":5.34998,"is_reserved":false,"is_disabled":false,"rental_uris":{"android":"levelo://app?vid=757b867b-9bb6-4fba-9573-0482f336d9e1","ios":"levelo://app?vid=757b867b-9bb6-4fba-9573-0482f336d9e1"},"vehicle_type_id":"4","last_reported":1691849071,"current_range_meters":2800,"station_id":"ce4bhbh2rcd13ifvqepg","pricing_plan_id":"free"},{"bike_id":"41edfc74-57ad-4c0d-a7f2-965f40fa6547","system_id":"levelo_inurba_marseille","lat":43.28418,"lon":5.3498,"is_reserved":false,"is_disabled":false,"rental_uris":{"android":"levelo://app?vid=41edfc74-57ad-4c0d-a7f2-965f40fa6547","ios":"levelo://app?vid=41edfc74-57ad-4c0d-a7f2-965f40fa6547"},"vehicle_type_id":"4","last_reported":1691849071,"current_range_meters":23600,"station_id":"ce4bhbh2rcd13ifvqepg","pricing_plan_id":"free"},{"bike_id":"f308e20f-1e1f-48eb-83e1-087eeba11b06","system_id":"levelo_inurba_marseille","lat":43.28415,"lon":5.34988,"is_reserved":false,"is_disabled":false,"rental_uris":{"android":"levelo://app?vid=f308e20f-1e1f-48eb-83e1-087eeba11b06","ios":"levelo://app?vid=f308e20f-1e1f-48eb-83e1-087eeba11b06"},"vehicle_type_id":"4","last_reported":1691849071,"current_range_meters":16800,"station_id":"ce4bhbh2rcd13ifvqepg","pricing_plan_id":"free"},{"bike_id":"5e60d11b-afc2-43a7-b83d-60e0b499fca7","system_id":"levelo_inurba_marseille","lat":43.28413,"lon":5.34993,"is_reserved":false,"is_disabled":false,"rental_uris":{"android":"levelo://app?vid=5e60d11b-afc2-43a7-b83d-60e0b499fca7","ios":"levelo://app?vid=5e60d11b-afc2-43a7-b83d-60e0b499fca7"},"vehicle_type_id":"4","last_reported":1691849071,"current_range_meters":24000,"station_id":"ce4bhbh2rcd13ifvqepg","pricing_plan_id":"free"},{"bike_id":"91daee9c-96cf-410c-ba67-cb777d4c13f4","system_id":"levelo_inurba_marseille","lat":43.28412,"lon":5.34993,"is_reserved":false,"is_disabled":false,"rental_uris":{"android":"levelo://app?vid=91daee9c-96cf-410c-ba67-cb777d4c13f4","ios":"levelo://app?vid=91daee9c-96cf-410c-ba67-cb777d4c13f4"},"vehicle_type_id":"4","last_reported":1691849071,"current_range_meters":26000,"station_id":"ce4bhbh2rcd13ifvqepg","pricing_plan_id":"free"},{"bike_id":"f3054bc0-bc1e-40f9-816b-33989caa0239","system_id":"levelo_inurba_marseille","lat":43.28416,"lon":5.34975,"is_reserved":false,"is_disabled":false,"rental_uris":{"android":"levelo://app?vid=f3054bc0-bc1e-40f9-816b-33989caa0239","ios":"levelo://app?vid=f3054bc0-bc1e-40f9-816b-33989caa0239"},"vehicle_type_id":"4","last_reported":1691849071,"current_range_meters":15200,"station_id":"ce4bhbh2rcd13ifvqepg","pricing_plan_id":"free"},{"bike_id":"abe782ba-5320-4fb0-bdd9-7a00f2589f7d","system_id":"levelo_inurba_marseille","lat":43.28406,"lon":5.34997,"is_reserved":false,"is_disabled":false,"rental_uris":{"android":"levelo://app?vid=abe782ba-5320-4fb0-bdd9-7a00f2589f7d","ios":"levelo://app?vid=abe782ba-5320-4fb0-bdd9-7a00f2589f7d"},"vehicle_type_id":"4","last_reported":1691849071,"current_range_meters":31200,"station_id":"ce4bhbh2rcd13ifvqepg","pricing_plan_id":"free"},{"bike_id":"5cec26ac-344f-432b-af34-450b75305b9b","system_id":"levelo_inurba_marseille","lat":43.292724,"lon":5.401131,"is_reserved":false,"is_disabled":false,"rental_uris":{"android":"levelo://app?vid=5cec26ac-344f-432b-af34-450b75305b9b","ios":"levelo://app?vid=5cec26ac-344f-432b-af34-450b75305b9b"},"vehicle_type_id":"4","last_reported":1691849071,"current_range_meters":31200,"station_id":"ce4bh312rcd13ifvqdk0","pricing_plan_id":"free"},{"bike_id":"26890f38-8ba2-443f-b923-26c880b05536","system_id":"levelo_inurba_marseille","lat":43.28273,"lon":5.35076,"is_reserved":false,"is_disabled":false,"rental_uris":{"android":"levelo://app?vid=26890f38-8ba2-443f-b923-26c880b05536","ios":"levelo://app?vid=26890f38-8ba2-443f-b923-26c880b05536"},"vehicle_type_id":"4","last_reported":1691849071,"current_range_meters":14400,"station_id":"ce4bhbp2rcd13ifvqerg","pricing_plan_id":"free"},{"bike_id":"cd3b6fb7-2de4-4fe3-a6ea-9b7f4f21d43a","system_id":"levelo_inurba_marseille","lat":43.28275,"lon":5.35067,"is_reserved":false,"is_disabled":false,"rental_uris":{"android":"levelo://app?vid=cd3b6fb7-2de4-4fe3-a6ea-9b7f4f21d43a","ios":"levelo://app?vid=cd3b6fb7-2de4-4fe3-a6ea-9b7f4f21d43a"},"vehicle_type_id":"4","last_reported":1691849071,"current_range_meters":28000,"station_id":"ce4bhbp2rcd13ifvqerg","pricing_plan_id":"free"},{"bike_id":"9fb1306a-3bf6-4286-bc41-f50de9558086","system_id":"levelo_inurba_marseille","lat":43.282754,"lon":5.350519,"is_reserved":false,"is_disabled":false,"rental_uris":{"android":"levelo://app?vid=9fb1306a-3bf6-4286-bc41-f50de9558086","ios":"levelo://app?vid=9fb1306a-3bf6-4286-bc41-f50de9558086"},"vehicle_type_id":"4","last_reported":1691849071,"current_range_meters":30800,"station_id":"ce4bhbp2rcd13ifvqerg","pricing_plan_id":"free"},{"bike_id":"f03c8f93-5b93-4330-8e67-aade0d22e188","system_id":"levelo_inurba_marseille","lat":43.2827,"lon":5.35073,"is_reserved":false,"is_disabled":false,"rental_uris":{"android":"levelo://app?vid=f03c8f93-5b93-4330-8e67-aade0d22e188","ios":"levelo://app?vid=f03c8f93-5b93-4330-8e67-aade0d22e188"},"vehicle_type_id":"4","last_reported":1691849071,"current_range_meters":9600,"station_id":"ce4bhbp2rcd13ifvqerg","pricing_plan_id":"free"},{"bike_id":"92e0dd09-c94d-4570-9772-69d7a7b285ad","system_id":"levelo_inurba_marseille","lat":43.28272,"lon":5.35065,"is_reserved":false,"is_disabled":false,"rental_uris":{"android":"levelo://app?vid=92e0dd09-c94d-4570-9772-69d7a7b285ad","ios":"levelo://app?vid=92e0dd09-c94d-4570-9772-69d7a7b285ad"},"vehicle_type_id":"4","last_reported":1691849071,"current_range_meters":12400,"station_id":"ce4bhbp2rcd13ifvqerg","pricing_plan_id":"free"},{"bike_id":"20b87eec-ef13-4ee0-aca6-e5afff3b9e44","system_id":"levelo_inurba_marseille","lat":43.282768,"lon":5.350479,"is_reserved":false,"is_disabled":false,"rental_uris":{"android":"levelo://app?vid=20b87eec-ef13-4ee0-aca6-e5afff3b9e44","ios":"levelo://app?vid=20b87eec-ef13-4ee0-aca6-e5afff3b9e44"},"vehicle_type_id":"4","last_reported":1691849071,"current_range_meters":400,"station_id":"ce4bhbp2rcd13ifvqerg","pricing_plan_id":"free"},{"bike_id":"bb982810-4756-4947-9c0e-38e2c8652c08","system_id":"levelo_inurba_marseille","lat":43.28267,"lon":5.35076,"is_reserved":false,"is_disabled":false,"rental_uris":{"android":"levelo://app?vid=bb982810-4756-4947-9c0e-38e2c8652c08","ios":"levelo://app?vid=bb982810-4756-4947-9c0e-38e2c8652c08"},"vehicle_type_id":"4","last_reported":1691849071,"current_range_meters":13200,"station_id":"ce4bhbp2rcd13ifvqerg","pricing_plan_id":"free"},{"bike_id":"5f06dc10-3d89-4da5-8316-0c94b46ed110","system_id":"levelo_inurba_marseille","lat":43.28265,"lon":5.35081,"is_reserved":false,"is_disabled":false,"rental_uris":{"android":"levelo://app?vid=5f06dc10-3d89-4da5-8316-0c94b46ed110","ios":"levelo://app?vid=5f06dc10-3d89-4da5-8316-0c94b46ed110"},"vehicle_type_id":"4","last_reported":1691849071,"current_range_meters":30000,"station_id":"ce4bhbp2rcd13ifvqerg","pricing_plan_id":"free"},{"bike_id":"4bdc0675-a1e3-479c-89df-b6bd0342acae","system_id":"levelo_inurba_marseille","lat":43.28265,"lon":5.35079,"is_reserved":false,"is_disabled":false,"rental_uris":{"android":"levelo://app?vid=4bdc0675-a1e3-479c-89df-b6bd0342acae","ios":"levelo://app?vid=4bdc0675-a1e3-479c-89df-b6bd0342acae"},"vehicle_type_id":"4","last_reported":1691849071,"current_range_meters":31200,"station_id":"ce4bhbp2rcd13ifvqerg","pricing_plan_id":"free"},{"bike_id":"bb250911-af31-4894-9904-10afce1e09ee","system_id":"levelo_inurba_marseille","lat":43.282684,"lon":5.350626,"is_reserved":false,"is_disabled":false,"rental_uris":{"android":"levelo://app?vid=bb250911-af31-4894-9904-10afce1e09ee","ios":"levelo://app?vid=bb250911-af31-4894-9904-10afce1e09ee"},"vehicle_type_id":"4","last_reported":1691849071,"current_range_meters":31200,"station_id":"ce4bhbp2rcd13ifvqerg","pricing_plan_id":"free"},{"bike_id":"5fe549f0-5497-4280-89ec-8505612c0f7c","system_id":"levelo_inurba_marseille","lat":43.28267,"lon":5.35067,"is_reserved":false,"is_disabled":false,"rental_uris":{"android":"levelo://app?vid=5fe549f0-5497-4280-89ec-8505612c0f7c","ios":"levelo://app?vid=5fe549f0-5497-4280-89ec-8505612c0f7c"},"vehicle_type_id":"4","last_reported":1691849071,"current_range_meters":14400,"station_id":"ce4bhbp2rcd13ifvqerg","pricing_plan_id":"free"},{"bike_id":"c582153c-c816-490a-af59-d38bada77b09","system_id":"levelo_inurba_marseille","lat":43.28261,"lon":5.35085,"is_reserved":false,"is_disabled":false,"rental_uris":{"android":"levelo://app?vid=c582153c-c816-490a-af59-d38bada77b09","ios":"levelo://app?vid=c582153c-c816-490a-af59-d38bada77b09"},"vehicle_type_id":"4","last_reported":1691849071,"current_range_meters":26400,"station_id":"ce4bhbp2rcd13ifvqerg","pricing_plan_id":"free"},{"bike_id":"05a97397-3106-42ca-be34-264070853384","system_id":"levelo_inurba_marseille","lat":43.28265,"lon":5.35069,"is_reserved":false,"is_disabled":false,"rental_uris":{"android":"levelo://app?vid=05a97397-3106-42ca-be34-264070853384","ios":"levelo://app?vid=05a97397-3106-42ca-be34-264070853384"},"vehicle_type_id":"4","last_reported":1691849071,"current_range_meters":15600,"station_id":"ce4bhbp2rcd13ifvqerg","pricing_plan_id":"free"},{"bike_id":"1fc6ade5-c86d-4c6d-9fc7-7033d45b5fe9","system_id":"levelo_inurba_marseille","lat":43.2826,"lon":5.35085,"is_reserved":false,"is_disabled":false,"rental_uris":{"android":"levelo://app?vid=1fc6ade5-c86d-4c6d-9fc7-7033d45b5fe9","ios":"levelo://app?vid=1fc6ade5-c86d-4c6d-9fc7-7033d45b5fe9"},"vehicle_type_id":"4","last_reported":1691849071,"current_range_meters":11200,"station_id":"ce4bhbp2rcd13ifvqerg","pricing_plan_id":"free"},{"bike_id":"090b741a-3cc2-484f-b22a-4c95fbb4a5e7","system_id":"levelo_inurba_marseille","lat":43.28265,"lon":5.35067,"is_reserved":false,"is_disabled":false,"rental_uris":{"android":"levelo://app?vid=090b741a-3cc2-484f-b22a-4c95fbb4a5e7","ios":"levelo://app?vid=090b741a-3cc2-484f-b22a-4c95fbb4a5e7"},"vehicle_type_id":"4","last_reported":1691849071,"current_range_meters":20800,"station_id":"ce4bhbp2rcd13ifvqerg","pricing_plan_id":"free"},{"bike_id":"a9129893-ad67-434a-8bc8-76960b860d39","system_id":"levelo_inurba_marseille","lat":43.282631,"lon":5.350702,"is_reserved":false,"is_disabled":false,"rental_uris":{"android":"levelo://app?vid=a9129893-ad67-434a-8bc8-76960b860d39","ios":"levelo://app?vid=a9129893-ad67-434a-8bc8-76960b860d39"},"vehicle_type_id":"4","last_reported":1691849071,"current_range_meters":31200,"station_id":"ce4bhbp2rcd13ifvqerg","pricing_plan_id":"free"},{"bike_id":"9e98319b-5c68-4e88-8fde-e9f704ef9730","system_id":"levelo_inurba_marseille","lat":43.282744,"lon":5.350533,"is_reserved":false,"is_disabled":false,"rental_uris":{"android":"levelo://app?vid=9e98319b-5c68-4e88-8fde-e9f704ef9730","ios":"levelo://app?vid=9e98319b-5c68-4e88-8fde-e9f704ef9730"},"vehicle_type_id":"4","last_reported":1691849071,"current_range_meters":18000,"station_id":"ce4bhbp2rcd13ifvqerg","pricing_plan_id":"free"},{"bike_id":"c8df5f82-39a0-4b76-95f6-9dea43ac50c6","system_id":"levelo_inurba_marseille","lat":43.282619,"lon":5.350663,"is_reserved":false,"is_disabled":false,"rental_uris":{"android":"levelo://app?vid=c8df5f82-39a0-4b76-95f6-9dea43ac50c6","ios":"levelo://app?vid=c8df5f82-39a0-4b76-95f6-9dea43ac50c6"},"vehicle_type_id":"4","last_reported":1691849071,"current_range_meters":18000,"station_id":"ce4bhbp2rcd13ifvqerg","pricing_plan_id":"free"},{"bike_id":"63f39ea0-2fc9-4a37-b4d7-08091e018b40","system_id":"levelo_inurba_marseille","lat":43.282602,"lon":5.350719,"is_reserved":false,"is_disabled":false,"rental_uris":{"android":"levelo://app?vid=63f39ea0-2fc9-4a37-b4d7-08091e018b40","ios":"levelo://app?vid=63f39ea0-2fc9-4a37-b4d7-08091e018b40"},"vehicle_type_id":"4","last_reported":1691849071,"current_range_meters":9200,"station_id":"ce4bhbp2rcd13ifvqerg","pricing_plan_id":"free"},{"bike_id":"973aceeb-4815-499c-a806-3e382a7b48ba","system_id":"levelo_inurba_marseille","lat":43.282744,"lon":5.350533,"is_reserved":false,"is_disabled":false,"rental_uris":{"android":"levelo://app?vid=973aceeb-4815-499c-a806-3e382a7b48ba","ios":"levelo://app?vid=973aceeb-4815-499c-a806-3e382a7b48ba"},"vehicle_type_id":"4","last_reported":1691849071,"current_range_meters":18400,"station_id":"ce4bhbp2rcd13ifvqerg","pricing_plan_id":"free"},{"bike_id":"dd95d071-fe48-4c22-aa27-f9e9528723b9","system_id":"levelo_inurba_marseille","lat":43.282744,"lon":5.350533,"is_reserved":false,"is_disabled":false,"rental_uris":{"android":"levelo://app?vid=dd95d071-fe48-4c22-aa27-f9e9528723b9","ios":"levelo://app?vid=dd95d071-fe48-4c22-aa27-f9e9528723b9"},"vehicle_type_id":"4","last_reported":1691849071,"current_range_meters":31600,"station_id":"ce4bhbp2rcd13ifvqerg","pricing_plan_id":"free"},{"bike_id":"51da7104-5525-45f2-8e18-818b5ca7adf2","system_id":"levelo_inurba_marseille","lat":43.282744,"lon":5.350533,"is_reserved":false,"is_disabled":false,"rental_uris":{"android":"levelo://app?vid=51da7104-5525-45f2-8e18-818b5ca7adf2","ios":"levelo://app?vid=51da7104-5525-45f2-8e18-818b5ca7adf2"},"vehicle_type_id":"4","last_reported":1691849071,"current_range_meters":31200,"station_id":"ce4bhbp2rcd13ifvqerg","pricing_plan_id":"free"},{"bike_id":"69f4e108-2817-4ebf-9952-19b9605f34d7","system_id":"levelo_inurba_marseille","lat":43.282744,"lon":5.350533,"is_reserved":false,"is_disabled":false,"rental_uris":{"android":"levelo://app?vid=69f4e108-2817-4ebf-9952-19b9605f34d7","ios":"levelo://app?vid=69f4e108-2817-4ebf-9952-19b9605f34d7"},"vehicle_type_id":"4","last_reported":1691849071,"current_range_meters":31600,"station_id":"ce4bhbp2rcd13ifvqerg","pricing_plan_id":"free"},{"bike_id":"88940920-727e-47f8-bee6-24feedff1167","system_id":"levelo_inurba_marseille","lat":43.282744,"lon":5.350533,"is_reserved":false,"is_disabled":false,"rental_uris":{"android":"levelo://app?vid=88940920-727e-47f8-bee6-24feedff1167","ios":"levelo://app?vid=88940920-727e-47f8-bee6-24feedff1167"},"vehicle_type_id":"4","last_reported":1691849071,"current_range_meters":31600,"station_id":"ce4bhbp2rcd13ifvqerg","pricing_plan_id":"free"},{"bike_id":"ed40e2c0-4e99-44dd-ac06-0929f208e0c0","system_id":"levelo_inurba_marseille","lat":43.282744,"lon":5.350533,"is_reserved":false,"is_disabled":false,"rental_uris":{"android":"levelo://app?vid=ed40e2c0-4e99-44dd-ac06-0929f208e0c0","ios":"levelo://app?vid=ed40e2c0-4e99-44dd-ac06-0929f208e0c0"},"vehicle_type_id":"4","last_reported":1691849071,"current_range_meters":31200,"station_id":"ce4bhbp2rcd13ifvqerg","pricing_plan_id":"free"},{"bike_id":"aeb1b629-c3bc-424c-95d8-02f767f15d57","system_id":"levelo_inurba_marseille","lat":43.282744,"lon":5.350533,"is_reserved":false,"is_disabled":false,"rental_uris":{"android":"levelo://app?vid=aeb1b629-c3bc-424c-95d8-02f767f15d57","ios":"levelo://app?vid=aeb1b629-c3bc-424c-95d8-02f767f15d57"},"vehicle_type_id":"4","last_reported":1691849071,"current_range_meters":32000,"station_id":"ce4bhbp2rcd13ifvqerg","pricing_plan_id":"free"},{"bike_id":"011ba36b-e86f-4276-86c9-29fd1ee89940","system_id":"levelo_inurba_marseille","lat":43.282744,"lon":5.350533,"is_reserved":false,"is_disabled":false,"rental_uris":{"android":"levelo://app?vid=011ba36b-e86f-4276-86c9-29fd1ee89940","ios":"levelo://app?vid=011ba36b-e86f-4276-86c9-29fd1ee89940"},"vehicle_type_id":"4","last_reported":1691849071,"current_range_meters":31200,"station_id":"ce4bhbp2rcd13ifvqerg","pricing_plan_id":"free"},{"bike_id":"6233f495-f997-436e-88aa-8230d620460c","system_id":"levelo_inurba_marseille","lat":43.283502,"lon":5.386471,"is_reserved":false,"is_disabled":false,"rental_uris":{"android":"levelo://app?vid=6233f495-f997-436e-88aa-8230d620460c","ios":"levelo://app?vid=6233f495-f997-436e-88aa-8230d620460c"},"vehicle_type_id":"4","last_reported":1691849071,"current_range_meters":10400,"station_id":"ce4bh492rcd13ifvqdvg","pricing_plan_id":"free"},{"bike_id":"3ef62f71-4cc0-4f4c-97da-dcacaefba0c7","system_id":"levelo_inurba_marseille","lat":43.28039,"lon":5.369297,"is_reserved":false,"is_disabled":false,"rental_uris":{"android":"levelo://app?vid=3ef62f71-4cc0-4f4c-97da-dcacaefba0c7","ios":"levelo://app?vid=3ef62f71-4cc0-4f4c-97da-dcacaefba0c7"},"vehicle_type_id":"4","last_reported":1691849071,"current_range_meters":31200,"station_id":"ce4bha12rcd13ifvqef0","pricing_plan_id":"free"},{"bike_id":"eb8e4c4f-5fc5-4007-ab2b-231fad0dc17c","system_id":"levelo_inurba_marseille","lat":43.29041,"lon":5.399634,"is_reserved":false,"is_disabled":false,"rental_uris":{"android":"levelo://app?vid=eb8e4c4f-5fc5-4007-ab2b-231fad0dc17c","ios":"levelo://app?vid=eb8e4c4f-5fc5-4007-ab2b-231fad0dc17c"},"vehicle_type_id":"4","last_reported":1691849071,"current_range_meters":30800,"station_id":"ce4bh392rcd13ifvqdm0","pricing_plan_id":"free"},{"bike_id":"804c8482-2b30-43d3-ae02-ef918b20c6de","system_id":"levelo_inurba_marseille","lat":43.281044,"lon":5.378308,"is_reserved":false,"is_disabled":false,"rental_uris":{"android":"levelo://app?vid=804c8482-2b30-43d3-ae02-ef918b20c6de","ios":"levelo://app?vid=804c8482-2b30-43d3-ae02-ef918b20c6de"},"vehicle_type_id":"4","last_reported":1691849071,"current_range_meters":5200,"station_id":"ce4bha12rcd13ifvqee0","pricing_plan_id":"free"},{"bike_id":"4979f364-1662-4c70-9a5f-f50ba692728b","system_id":"levelo_inurba_marseille","lat":43.281044,"lon":5.378308,"is_reserved":false,"is_disabled":false,"rental_uris":{"android":"levelo://app?vid=4979f364-1662-4c70-9a5f-f50ba692728b","ios":"levelo://app?vid=4979f364-1662-4c70-9a5f-f50ba692728b"},"vehicle_type_id":"4","last_reported":1691849071,"current_range_meters":19200,"station_id":"ce4bha12rcd13ifvqee0","pricing_plan_id":"free"},{"bike_id":"50437772-2c5c-4db0-9a57-88f03986f9a7","system_id":"levelo_inurba_marseille","lat":43.281044,"lon":5.378308,"is_reserved":false,"is_disabled":false,"rental_uris":{"android":"levelo://app?vid=50437772-2c5c-4db0-9a57-88f03986f9a7","ios":"levelo://app?vid=50437772-2c5c-4db0-9a57-88f03986f9a7"},"vehicle_type_id":"4","last_reported":1691849071,"current_range_meters":15200,"station_id":"ce4bha12rcd13ifvqee0","pricing_plan_id":"free"},{"bike_id":"0534b46e-5ed3-477f-9806-6a3fed16c9a3","system_id":"levelo_inurba_marseille","lat":43.28093,"lon":5.37836,"is_reserved":false,"is_disabled":false,"rental_uris":{"android":"levelo://app?vid=0534b46e-5ed3-477f-9806-6a3fed16c9a3","ios":"levelo://app?vid=0534b46e-5ed3-477f-9806-6a3fed16c9a3"},"vehicle_type_id":"4","last_reported":1691849071,"current_range_meters":20800,"station_id":"ce4bha12rcd13ifvqee0","pricing_plan_id":"free"},{"bike_id":"c98cc0c6-fde7-44aa-a24e-7aab7d1949fe","system_id":"levelo_inurba_marseille","lat":43.296263,"lon":5.40601,"is_reserved":false,"is_disabled":false,"rental_uris":{"android":"levelo://app?vid=c98cc0c6-fde7-44aa-a24e-7aab7d1949fe","ios":"levelo://app?vid=c98cc0c6-fde7-44aa-a24e-7aab7d1949fe"},"vehicle_type_id":"4","last_reported":1691849071,"current_range_meters":30000,"station_id":"ce4bh0h2rcd13ifvqd60","pricing_plan_id":"free"},{"bike_id":"10033fdb-f6cf-4ce1-b538-9ea084ee7559","system_id":"levelo_inurba_marseille","lat":43.284462,"lon":5.392121,"is_reserved":false,"is_disabled":false,"rental_uris":{"android":"levelo://app?vid=10033fdb-f6cf-4ce1-b538-9ea084ee7559","ios":"levelo://app?vid=10033fdb-f6cf-4ce1-b538-9ea084ee7559"},"vehicle_type_id":"4","last_reported":1691849071,"current_range_meters":11200,"station_id":"ce4bhoh2rcd13ifvqh5g","pricing_plan_id":"free"},{"bike_id":"6b925902-1bd1-4502-b103-65b33fd0945a","system_id":"levelo_inurba_marseille","lat":43.284462,"lon":5.392121,"is_reserved":false,"is_disabled":false,"rental_uris":{"android":"levelo://app?vid=6b925902-1bd1-4502-b103-65b33fd0945a","ios":"levelo://app?vid=6b925902-1bd1-4502-b103-65b33fd0945a"},"vehicle_type_id":"4","last_reported":1691849071,"current_range_meters":4400,"station_id":"ce4bhoh2rcd13ifvqh5g","pricing_plan_id":"free"},{"bike_id":"a0f258ed-ced3-412c-a3a0-592502c28464","system_id":"levelo_inurba_marseille","lat":43.32661,"lon":5.40929,"is_reserved":false,"is_disabled":false,"rental_uris":{"android":"levelo://app?vid=a0f258ed-ced3-412c-a3a0-592502c28464","ios":"levelo://app?vid=a0f258ed-ced3-412c-a3a0-592502c28464"},"vehicle_type_id":"4","last_reported":1691849071,"current_range_meters":15600,"station_id":"","pricing_plan_id":"free"},{"bike_id":"482fc622-e271-488a-83f0-3334b6aee62d","system_id":"levelo_inurba_marseille","lat":43.3266,"lon":5.40983,"is_reserved":false,"is_disabled":false,"rental_uris":{"android":"levelo://app?vid=482fc622-e271-488a-83f0-3334b6aee62d","ios":"levelo://app?vid=482fc622-e271-488a-83f0-3334b6aee62d"},"vehicle_type_id":"4","last_reported":1691849071,"current_range_meters":31200,"station_id":"ce4bhpp2rcd13ifvqhgg","pricing_plan_id":"free"},{"bike_id":"17871fac-3496-4a57-be8e-0acb60dc3de5","system_id":"levelo_inurba_marseille","lat":43.32661,"lon":5.40984,"is_reserved":false,"is_disabled":false,"rental_uris":{"android":"levelo://app?vid=17871fac-3496-4a57-be8e-0acb60dc3de5","ios":"levelo://app?vid=17871fac-3496-4a57-be8e-0acb60dc3de5"},"vehicle_type_id":"4","last_reported":1691849071,"current_range_meters":31200,"station_id":"ce4bhpp2rcd13ifvqhgg","pricing_plan_id":"free"},{"bike_id":"7d20c6f9-54b3-482c-9f46-2975184da393","system_id":"levelo_inurba_marseille","lat":43.3265,"lon":5.40991,"is_reserved":false,"is_disabled":false,"rental_uris":{"android":"levelo://app?vid=7d20c6f9-54b3-482c-9f46-2975184da393","ios":"levelo://app?vid=7d20c6f9-54b3-482c-9f46-2975184da393"},"vehicle_type_id":"4","last_reported":1691849071,"current_range_meters":10400,"station_id":"ce4bhpp2rcd13ifvqhgg","pricing_plan_id":"free"},{"bike_id":"a198a2b7-0bb3-43a3-a883-3f9fd89f016e","system_id":"levelo_inurba_marseille","lat":43.32662,"lon":5.40984,"is_reserved":false,"is_disabled":false,"rental_uris":{"android":"levelo://app?vid=a198a2b7-0bb3-43a3-a883-3f9fd89f016e","ios":"levelo://app?vid=a198a2b7-0bb3-43a3-a883-3f9fd89f016e"},"vehicle_type_id":"4","last_reported":1691849071,"current_range_meters":31200,"station_id":"ce4bhpp2rcd13ifvqhgg","pricing_plan_id":"free"},{"bike_id":"686ee020-b9e3-45bf-bf4e-92cda32b1d0e","system_id":"levelo_inurba_marseille","lat":43.32654,"lon":5.4099,"is_reserved":false,"is_disabled":false,"rental_uris":{"android":"levelo://app?vid=686ee020-b9e3-45bf-bf4e-92cda32b1d0e","ios":"levelo://app?vid=686ee020-b9e3-45bf-bf4e-92cda32b1d0e"},"vehicle_type_id":"4","last_reported":1691849071,"current_range_meters":18800,"station_id":"ce4bhpp2rcd13ifvqhgg","pricing_plan_id":"free"},{"bike_id":"338897be-2ef3-4769-b926-4ebf115f9f86","system_id":"levelo_inurba_marseille","lat":43.32659,"lon":5.40988,"is_reserved":false,"is_disabled":false,"rental_uris":{"android":"levelo://app?vid=338897be-2ef3-4769-b926-4ebf115f9f86","ios":"levelo://app?vid=338897be-2ef3-4769-b926-4ebf115f9f86"},"vehicle_type_id":"4","last_reported":1691849071,"current_range_meters":23200,"station_id":"ce4bhpp2rcd13ifvqhgg","pricing_plan_id":"free"},{"bike_id":"b2296d5a-5356-4f93-b2c1-a43c9f125823","system_id":"levelo_inurba_marseille","lat":43.32658,"lon":5.4099,"is_reserved":false,"is_disabled":false,"rental_uris":{"android":"levelo://app?vid=b2296d5a-5356-4f93-b2c1-a43c9f125823","ios":"levelo://app?vid=b2296d5a-5356-4f93-b2c1-a43c9f125823"},"vehicle_type_id":"4","last_reported":1691849071,"current_range_meters":14400,"station_id":"ce4bhpp2rcd13ifvqhgg","pricing_plan_id":"free"},{"bike_id":"1c14edb4-41c5-4b75-ba63-7b8ce648a4b7","system_id":"levelo_inurba_marseille","lat":43.326605,"lon":5.409903,"is_reserved":false,"is_disabled":false,"rental_uris":{"android":"levelo://app?vid=1c14edb4-41c5-4b75-ba63-7b8ce648a4b7","ios":"levelo://app?vid=1c14edb4-41c5-4b75-ba63-7b8ce648a4b7"},"vehicle_type_id":"4","last_reported":1691849071,"current_range_meters":30000,"station_id":"ce4bhpp2rcd13ifvqhgg","pricing_plan_id":"free"},{"bike_id":"8564272a-d2cb-4a76-8fec-689de58873d0","system_id":"levelo_inurba_marseille","lat":43.3266,"lon":5.40992,"is_reserved":false,"is_disabled":false,"rental_uris":{"android":"levelo://app?vid=8564272a-d2cb-4a76-8fec-689de58873d0","ios":"levelo://app?vid=8564272a-d2cb-4a76-8fec-689de58873d0"},"vehicle_type_id":"4","last_reported":1691849071,"current_range_meters":14400,"station_id":"ce4bhpp2rcd13ifvqhgg","pricing_plan_id":"free"},{"bike_id":"6db1ed63-c6bf-4be4-8f0e-06d6a83c8f5d","system_id":"levelo_inurba_marseille","lat":43.304188,"lon":5.412904,"is_reserved":false,"is_disabled":false,"rental_uris":{"android":"levelo://app?vid=6db1ed63-c6bf-4be4-8f0e-06d6a83c8f5d","ios":"levelo://app?vid=6db1ed63-c6bf-4be4-8f0e-06d6a83c8f5d"},"vehicle_type_id":"4","last_reported":1691849071,"current_range_meters":26800,"station_id":"ce4bhop2rcd13ifvqh8g","pricing_plan_id":"free"},{"bike_id":"da6fbcb8-e009-46da-a322-fd6b91e19038","system_id":"levelo_inurba_marseille","lat":43.304188,"lon":5.412904,"is_reserved":false,"is_disabled":false,"rental_uris":{"android":"levelo://app?vid=da6fbcb8-e009-46da-a322-fd6b91e19038","ios":"levelo://app?vid=da6fbcb8-e009-46da-a322-fd6b91e19038"},"vehicle_type_id":"4","last_reported":1691849071,"current_range_meters":31200,"station_id":"ce4bhop2rcd13ifvqh8g","pricing_plan_id":"free"},{"bike_id":"2dee6e6c-6cde-4f9e-a78f-64c4175f80ae","system_id":"levelo_inurba_marseille","lat":43.304188,"lon":5.412904,"is_reserved":false,"is_disabled":false,"rental_uris":{"android":"levelo://app?vid=2dee6e6c-6cde-4f9e-a78f-64c4175f80ae","ios":"levelo://app?vid=2dee6e6c-6cde-4f9e-a78f-64c4175f80ae"},"vehicle_type_id":"4","last_reported":1691849071,"current_range_meters":25200,"station_id":"ce4bhop2rcd13ifvqh8g","pricing_plan_id":"free"},{"bike_id":"f1a80c81-32ab-41ea-80dd-001891b9c055","system_id":"levelo_inurba_marseille","lat":43.304188,"lon":5.412904,"is_reserved":false,"is_disabled":false,"rental_uris":{"android":"levelo://app?vid=f1a80c81-32ab-41ea-80dd-001891b9c055","ios":"levelo://app?vid=f1a80c81-32ab-41ea-80dd-001891b9c055"},"vehicle_type_id":"4","last_reported":1691849071,"current_range_meters":31200,"station_id":"ce4bhop2rcd13ifvqh8g","pricing_plan_id":"free"},{"bike_id":"25ce7b32-1f4c-4a94-858c-d0a14cbe9d75","system_id":"levelo_inurba_marseille","lat":43.304188,"lon":5.412904,"is_reserved":false,"is_disabled":false,"rental_uris":{"android":"levelo://app?vid=25ce7b32-1f4c-4a94-858c-d0a14cbe9d75","ios":"levelo://app?vid=25ce7b32-1f4c-4a94-858c-d0a14cbe9d75"},"vehicle_type_id":"4","last_reported":1691849071,"current_range_meters":31200,"station_id":"ce4bhop2rcd13ifvqh8g","pricing_plan_id":"free"},{"bike_id":"2ec1a3ae-43c9-405f-a1e1-b78ee0392aa4","system_id":"levelo_inurba_marseille","lat":43.33148,"lon":5.40859,"is_reserved":false,"is_disabled":false,"rental_uris":{"android":"levelo://app?vid=2ec1a3ae-43c9-405f-a1e1-b78ee0392aa4","ios":"levelo://app?vid=2ec1a3ae-43c9-405f-a1e1-b78ee0392aa4"},"vehicle_type_id":"4","last_reported":1691849071,"current_range_meters":4400,"station_id":"","pricing_plan_id":"free"},{"bike_id":"738d49be-9570-4611-a11f-7d3113a06ee9","system_id":"levelo_inurba_marseille","lat":43.33144,"lon":5.40869,"is_reserved":false,"is_disabled":false,"rental_uris":{"android":"levelo://app?vid=738d49be-9570-4611-a11f-7d3113a06ee9","ios":"levelo://app?vid=738d49be-9570-4611-a11f-7d3113a06ee9"},"vehicle_type_id":"4","last_reported":1691849071,"current_range_meters":30800,"station_id":"","pricing_plan_id":"free"},{"bike_id":"897014e0-5f5e-412d-97e8-3d8d4cf1982d","system_id":"levelo_inurba_marseille","lat":43.29965,"lon":5.41297,"is_reserved":false,"is_disabled":false,"rental_uris":{"android":"levelo://app?vid=897014e0-5f5e-412d-97e8-3d8d4cf1982d","ios":"levelo://app?vid=897014e0-5f5e-412d-97e8-3d8d4cf1982d"},"vehicle_type_id":"4","last_reported":1691849071,"current_range_meters":17200,"station_id":"ce4bhp12rcd13ifvqh9g","pricing_plan_id":"free"},{"bike_id":"1ea7b9ab-3639-49c4-a737-1fd9e86ec593","system_id":"levelo_inurba_marseille","lat":43.32049,"lon":5.41524,"is_reserved":false,"is_disabled":false,"rental_uris":{"android":"levelo://app?vid=1ea7b9ab-3639-49c4-a737-1fd9e86ec593","ios":"levelo://app?vid=1ea7b9ab-3639-49c4-a737-1fd9e86ec593"},"vehicle_type_id":"4","last_reported":1691849071,"current_range_meters":29600,"station_id":"ce4bhq92rcd13ifvqhkg","pricing_plan_id":"free"},{"bike_id":"598b481c-3115-4a1f-89b7-a84b9b98dd44","system_id":"levelo_inurba_marseille","lat":43.320045,"lon":5.415048,"is_reserved":false,"is_disabled":false,"rental_uris":{"android":"levelo://app?vid=598b481c-3115-4a1f-89b7-a84b9b98dd44","ios":"levelo://app?vid=598b481c-3115-4a1f-89b7-a84b9b98dd44"},"vehicle_type_id":"4","last_reported":1691849071,"current_range_meters":31200,"station_id":"ce4bhq92rcd13ifvqhkg","pricing_plan_id":"free"},{"bike_id":"c327718a-8fe6-4791-a349-aba0f8f94e82","system_id":"levelo_inurba_marseille","lat":43.279742,"lon":5.38744,"is_reserved":false,"is_disabled":false,"rental_uris":{"android":"levelo://app?vid=c327718a-8fe6-4791-a349-aba0f8f94e82","ios":"levelo://app?vid=c327718a-8fe6-4791-a349-aba0f8f94e82"},"vehicle_type_id":"4","last_reported":1691849071,"current_range_meters":28400,"station_id":"ce4bhg12rcd13ifvqf80","pricing_plan_id":"free"},{"bike_id":"a91a698d-512d-427a-9b4a-f7a33d5144dc","system_id":"levelo_inurba_marseille","lat":43.32065,"lon":5.41545,"is_reserved":false,"is_disabled":false,"rental_uris":{"android":"levelo://app?vid=a91a698d-512d-427a-9b4a-f7a33d5144dc","ios":"levelo://app?vid=a91a698d-512d-427a-9b4a-f7a33d5144dc"},"vehicle_type_id":"4","last_reported":1691849071,"current_range_meters":31200,"station_id":"ce4bhq92rcd13ifvqhkg","pricing_plan_id":"free"},{"bike_id":"c95bf7ff-289b-4d92-9230-999355366606","system_id":"levelo_inurba_marseille","lat":43.320045,"lon":5.415046,"is_reserved":false,"is_disabled":false,"rental_uris":{"android":"levelo://app?vid=c95bf7ff-289b-4d92-9230-999355366606","ios":"levelo://app?vid=c95bf7ff-289b-4d92-9230-999355366606"},"vehicle_type_id":"4","last_reported":1691849071,"current_range_meters":31200,"station_id":"ce4bhq92rcd13ifvqhkg","pricing_plan_id":"free"},{"bike_id":"74e2fbc7-c794-4c5e-9d35-ca4945fb0ce5","system_id":"levelo_inurba_marseille","lat":43.320045,"lon":5.415046,"is_reserved":false,"is_disabled":false,"rental_uris":{"android":"levelo://app?vid=74e2fbc7-c794-4c5e-9d35-ca4945fb0ce5","ios":"levelo://app?vid=74e2fbc7-c794-4c5e-9d35-ca4945fb0ce5"},"vehicle_type_id":"4","last_reported":1691849071,"current_range_meters":30400,"station_id":"ce4bhq92rcd13ifvqhkg","pricing_plan_id":"free"},{"bike_id":"30780a95-e0ec-4e95-bd4e-52046a4c1f15","system_id":"levelo_inurba_marseille","lat":43.29254,"lon":5.40908,"is_reserved":false,"is_disabled":false,"rental_uris":{"android":"levelo://app?vid=30780a95-e0ec-4e95-bd4e-52046a4c1f15","ios":"levelo://app?vid=30780a95-e0ec-4e95-bd4e-52046a4c1f15"},"vehicle_type_id":"4","last_reported":1691849071,"current_range_meters":31200,"station_id":"ce4bh192rcd13ifvqdc0","pricing_plan_id":"free"},{"bike_id":"386ed8e3-b71e-4f68-86af-202c5b76503e","system_id":"levelo_inurba_marseille","lat":43.27618,"lon":5.36113,"is_reserved":false,"is_disabled":false,"rental_uris":{"android":"levelo://app?vid=386ed8e3-b71e-4f68-86af-202c5b76503e","ios":"levelo://app?vid=386ed8e3-b71e-4f68-86af-202c5b76503e"},"vehicle_type_id":"4","last_reported":1691849071,"current_range_meters":24000,"station_id":"ce4bgj92rcd13ifvqbe0","pricing_plan_id":"free"},{"bike_id":"e054d7f3-9372-409e-9f0c-ac68b3331341","system_id":"levelo_inurba_marseille","lat":43.303837,"lon":5.418724,"is_reserved":false,"is_disabled":false,"rental_uris":{"android":"levelo://app?vid=e054d7f3-9372-409e-9f0c-ac68b3331341","ios":"levelo://app?vid=e054d7f3-9372-409e-9f0c-ac68b3331341"},"vehicle_type_id":"4","last_reported":1691849071,"current_range_meters":14000,"station_id":"ce4bhop2rcd13ifvqh7g","pricing_plan_id":"free"},{"bike_id":"82b97d4b-7d6f-46b6-8859-fff29ba54af7","system_id":"levelo_inurba_marseille","lat":43.278399,"lon":5.392139,"is_reserved":false,"is_disabled":false,"rental_uris":{"android":"levelo://app?vid=82b97d4b-7d6f-46b6-8859-fff29ba54af7","ios":"levelo://app?vid=82b97d4b-7d6f-46b6-8859-fff29ba54af7"},"vehicle_type_id":"4","last_reported":1691849071,"current_range_meters":8000,"station_id":"ce4bhjp2rcd13ifvqga0","pricing_plan_id":"free"},{"bike_id":"df9cb19a-be75-406e-957d-03a8696c64f6","system_id":"levelo_inurba_marseille","lat":43.303837,"lon":5.418724,"is_reserved":false,"is_disabled":false,"rental_uris":{"android":"levelo://app?vid=df9cb19a-be75-406e-957d-03a8696c64f6","ios":"levelo://app?vid=df9cb19a-be75-406e-957d-03a8696c64f6"},"vehicle_type_id":"4","last_reported":1691849071,"current_range_meters":7600,"station_id":"ce4bhop2rcd13ifvqh7g","pricing_plan_id":"free"},{"bike_id":"ed1cf672-9a17-4aff-8109-9e682fa711f9","system_id":"levelo_inurba_marseille","lat":43.27385,"lon":5.36241,"is_reserved":false,"is_disabled":false,"rental_uris":{"android":"levelo://app?vid=ed1cf672-9a17-4aff-8109-9e682fa711f9","ios":"levelo://app?vid=ed1cf672-9a17-4aff-8109-9e682fa711f9"},