{"last_updated":1728583898,"ttl":60,"version":"2.2","data":{"bikes":[{"bike_id":"d2ab3b17-6f8b-4091-978e-76a56cb68f4b","system_id":"levelo_inurba_marseille","lat":43.29312,"lon":5.37459,"is_reserved":false,"is_disabled":false,"rental_uris":{"android":"levelo://app?vid=d2ab3b17-6f8b-4091-978e-76a56cb68f4b","ios":"levelo://app?vid=d2ab3b17-6f8b-4091-978e-76a56cb68f4b"},"vehicle_type_id":"4","last_reported":1728583898,"current_range_meters":12400,"station_id":"ce4bgi12rcd13ifvqb70","pricing_plan_id":"cebpf4jnsgd1na2vs0mg"},{"bike_id":"e41b295b-a447-435d-bd15-4f7caef335a1","system_id":"levelo_inurba_marseille","lat":43.31647,"lon":5.404222,"is_reserved":false,"is_disabled":false,"rental_uris":{"android":"levelo://app?vid=e41b295b-a447-435d-bd15-4f7caef335a1","ios":"levelo://app?vid=e41b295b-a447-435d-bd15-4f7caef335a1"},"vehicle_type_id":"4","last_reported":1728583898,"current_range_meters":16800,"station_id":"ce4bh012rcd13ifvqd00","pricing_plan_id":"cebpf4jnsgd1na2vs0mg"},{"bike_id":"7fd72049-7395-40b4-9360-92afb1a93988","system_id":"levelo_inurba_marseille","lat":43.29015,"lon":5.38132,"is_reserved":false,"is_disabled":false,"rental_uris":{"android":"levelo://app?vid=7fd72049-7395-40b4-9360-92afb1a93988","ios":"levelo://app?vid=7fd72049-7395-40b4-9360-92afb1a93988"},"vehicle_type_id":"4","last_reported":1728583898,"current_range_meters":14000,"station_id":"ce4bh4p2rcd13ifvqe1g","pricing_plan_id":"cebpf4jnsgd1na2vs0mg"},{"bike_id":"b108af46-2e3f-45d6-9ba2-3e1208efa122","system_id":"levelo_inurba_marseille","lat":43.311493,"lon":5.396095,"is_reserved":false,"is_disabled":false,"rental_uris":{"android":"levelo://app?vid=b108af46-2e3f-45d6-9ba2-3e1208efa122","ios":"levelo://app?vid=b108af46-2e3f-45d6-9ba2-3e1208efa122"},"vehicle_type_id":"4","last_reported":1728583898,"current_range_meters":8000,"station_id":"ce4bha92rcd13ifvqeh0","pricing_plan_id":"cebpf4jnsgd1na2vs0mg"},{"bike_id":"6cb2fd54-0aca-4f7d-aadb-bc057dc4fb59","system_id":"levelo_inurba_marseille","lat":43.23063,"lon":5.35492,"is_reserved":false,"is_disabled":false,"rental_uris":{"android":"levelo://app?vid=6cb2fd54-0aca-4f7d-aadb-bc057dc4fb59","ios":"levelo://app?vid=6cb2fd54-0aca-4f7d-aadb-bc057dc4fb59"},"vehicle_type_id":"4","last_reported":1728583898,"current_range_meters":32000,"station_id":"cpo3342slgdg3j2ifvpg","pricing_plan_id":"cebpf4jnsgd1na2vs0mg"},{"bike_id":"30c10d19-e37c-4bb5-9b6d-11fa2f8a369a","system_id":"levelo_inurba_marseille","lat":43.28156,"lon":5.42648,"is_reserved":false,"is_disabled":false,"rental_uris":{"android":"levelo://app?vid=30c10d19-e37c-4bb5-9b6d-11fa2f8a369a","ios":"levelo://app?vid=30c10d19-e37c-4bb5-9b6d-11fa2f8a369a"},"vehicle_type_id":"4","last_reported":1728583898,"current_range_meters":2800,"station_id":"ce4bhnh2rcd13ifvqgug","pricing_plan_id":"cebpf4jnsgd1na2vs0mg"},{"bike_id":"71f09f4d-23fe-4d11-a7ae-c9ae04e5446a","system_id":"levelo_inurba_marseille","lat":43.29224,"lon":5.36056,"is_reserved":false,"is_disabled":false,"rental_uris":{"android":"levelo://app?vid=71f09f4d-23fe-4d11-a7ae-c9ae04e5446a","ios":"levelo://app?vid=71f09f4d-23fe-4d11-a7ae-c9ae04e5446a"},"vehicle_type_id":"4","last_reported":1728583898,"current_range_meters":39200,"station_id":"ce4bhbh2rcd13ifvqeqg","pricing_plan_id":"cebpf4jnsgd1na2vs0mg"},{"bike_id":"6f712c18-a6c2-4a33-b7d6-5e038f08a329","system_id":"levelo_inurba_marseille","lat":43.31113,"lon":5.37769,"is_reserved":false,"is_disabled":false,"rental_uris":{"android":"levelo://app?vid=6f712c18-a6c2-4a33-b7d6-5e038f08a329","ios":"levelo://app?vid=6f712c18-a6c2-4a33-b7d6-5e038f08a329"},"vehicle_type_id":"4","last_reported":1728583898,"current_range_meters":17600,"station_id":"ce4bgt92rcd13ifvqcg0","pricing_plan_id":"cebpf4jnsgd1na2vs0mg"},{"bike_id":"667ccb35-23e5-4be9-8577-7b9fc040f9e1","system_id":"levelo_inurba_marseille","lat":43.24664,"lon":5.38164,"is_reserved":false,"is_disabled":false,"rental_uris":{"android":"levelo://app?vid=667ccb35-23e5-4be9-8577-7b9fc040f9e1","ios":"levelo://app?vid=667ccb35-23e5-4be9-8577-7b9fc040f9e1"},"vehicle_type_id":"4","last_reported":1728583898,"current_range_meters":8000,"station_id":"ce4bhih2rcd13ifvqfr0","pricing_plan_id":"cebpf4jnsgd1na2vs0mg"},{"bike_id":"c2151432-ab6f-446e-bbf2-fb32cd332dc5","system_id":"levelo_inurba_marseille","lat":43.28861,"lon":5.35855,"is_reserved":false,"is_disabled":false,"rental_uris":{"android":"levelo://app?vid=c2151432-ab6f-446e-bbf2-fb32cd332dc5","ios":"levelo://app?vid=c2151432-ab6f-446e-bbf2-fb32cd332dc5"},"vehicle_type_id":"4","last_reported":1728583898,"current_range_meters":32800,"station_id":"ce4bhb12rcd13ifvqem0","pricing_plan_id":"cebpf4jnsgd1na2vs0mg"},{"bike_id":"e3922387-448d-47fb-a213-f4adf9e12e50","system_id":"levelo_inurba_marseille","lat":43.28277,"lon":5.39832,"is_reserved":false,"is_disabled":false,"rental_uris":{"android":"levelo://app?vid=e3922387-448d-47fb-a213-f4adf9e12e50","ios":"levelo://app?vid=e3922387-448d-47fb-a213-f4adf9e12e50"},"vehicle_type_id":"4","last_reported":1728583898,"current_range_meters":4000,"station_id":"ce4bhn92rcd13ifvqgrg","pricing_plan_id":"cebpf4jnsgd1na2vs0mg"},{"bike_id":"6fccb379-adca-4617-bbeb-442137e4c023","system_id":"levelo_inurba_marseille","lat":43.28461,"lon":5.35887,"is_reserved":false,"is_disabled":false,"rental_uris":{"android":"levelo://app?vid=6fccb379-adca-4617-bbeb-442137e4c023","ios":"levelo://app?vid=6fccb379-adca-4617-bbeb-442137e4c023"},"vehicle_type_id":"4","last_reported":1728583898,"current_range_meters":22400,"station_id":"ce4bhah2rcd13ifvqei0","pricing_plan_id":"cebpf4jnsgd1na2vs0mg"},{"bike_id":"739fdaaa-da2e-418c-849b-f79d59c9c7ba","system_id":"levelo_inurba_marseille","lat":43.29769,"lon":5.3712,"is_reserved":false,"is_disabled":false,"rental_uris":{"android":"levelo://app?vid=739fdaaa-da2e-418c-849b-f79d59c9c7ba","ios":"levelo://app?vid=739fdaaa-da2e-418c-849b-f79d59c9c7ba"},"vehicle_type_id":"4","last_reported":1728583898,"current_range_meters":7200,"station_id":"ce4bgop2rcd13ifvqc1g","pricing_plan_id":"cebpf4jnsgd1na2vs0mg"},{"bike_id":"f21ff7cf-a5e7-4036-9a78-a2aa83b6340b","system_id":"levelo_inurba_marseille","lat":43.23193,"lon":5.3555,"is_reserved":false,"is_disabled":false,"rental_uris":{"android":"levelo://app?vid=f21ff7cf-a5e7-4036-9a78-a2aa83b6340b","ios":"levelo://app?vid=f21ff7cf-a5e7-4036-9a78-a2aa83b6340b"},"vehicle_type_id":"4","last_reported":1728583898,"current_range_meters":39200,"station_id":"ce4bhu92rcd13ifvqi70","pricing_plan_id":"cebpf4jnsgd1na2vs0mg"},{"bike_id":"0cfd7c61-a6d0-4d60-83c0-a317d5fcd3c2","system_id":"levelo_inurba_marseille","lat":43.28572,"lon":5.39502,"is_reserved":false,"is_disabled":false,"rental_uris":{"android":"levelo://app?vid=0cfd7c61-a6d0-4d60-83c0-a317d5fcd3c2","ios":"levelo://app?vid=0cfd7c61-a6d0-4d60-83c0-a317d5fcd3c2"},"vehicle_type_id":"4","last_reported":1728583898,"current_range_meters":30800,"station_id":"ce4bh292rcd13ifvqdg0","pricing_plan_id":"cebpf4jnsgd1na2vs0mg"},{"bike_id":"e872fc30-3c57-4a83-b46e-c9748d4c279a","system_id":"levelo_inurba_marseille","lat":43.33722,"lon":5.39195,"is_reserved":false,"is_disabled":false,"rental_uris":{"android":"levelo://app?vid=e872fc30-3c57-4a83-b46e-c9748d4c279a","ios":"levelo://app?vid=e872fc30-3c57-4a83-b46e-c9748d4c279a"},"vehicle_type_id":"4","last_reported":1728583898,"current_range_meters":24800,"station_id":"ce4bhr92rcd13ifvqhsg","pricing_plan_id":"cebpf4jnsgd1na2vs0mg"},{"bike_id":"7bec4e5a-f548-4c60-a81c-a04af8c2d871","system_id":"levelo_inurba_marseille","lat":43.31172,"lon":5.38716,"is_reserved":false,"is_disabled":false,"rental_uris":{"android":"levelo://app?vid=7bec4e5a-f548-4c60-a81c-a04af8c2d871","ios":"levelo://app?vid=7bec4e5a-f548-4c60-a81c-a04af8c2d871"},"vehicle_type_id":"4","last_reported":1728583898,"current_range_meters":15200,"station_id":"ce4bgv12rcd13ifvqcp0","pricing_plan_id":"cebpf4jnsgd1na2vs0mg"},{"bike_id":"9db4d985-7949-4b7f-b898-6a0ca7ba3693","system_id":"levelo_inurba_marseille","lat":43.33778,"lon":5.37452,"is_reserved":false,"is_disabled":false,"rental_uris":{"android":"levelo://app?vid=9db4d985-7949-4b7f-b898-6a0ca7ba3693","ios":"levelo://app?vid=9db4d985-7949-4b7f-b898-6a0ca7ba3693"},"vehicle_type_id":"4","last_reported":1728583898,"current_range_meters":34000,"station_id":"ce4rr2p2rcd13i802rgg","pricing_plan_id":"cebpf4jnsgd1na2vs0mg"},{"bike_id":"414a662d-2990-4b96-93c3-67ce64a4d528","system_id":"levelo_inurba_marseille","lat":43.28346,"lon":5.38109,"is_reserved":false,"is_disabled":false,"rental_uris":{"android":"levelo://app?vid=414a662d-2990-4b96-93c3-67ce64a4d528","ios":"levelo://app?vid=414a662d-2990-4b96-93c3-67ce64a4d528"},"vehicle_type_id":"4","last_reported":1728583898,"current_range_meters":28800,"station_id":"ce4bh412rcd13ifvqdr0","pricing_plan_id":"cebpf4jnsgd1na2vs0mg"},{"bike_id":"ab6bdfea-eaa9-4032-98fe-bcc9269785d9","system_id":"levelo_inurba_marseille","lat":43.29625,"lon":5.3717,"is_reserved":false,"is_disabled":false,"rental_uris":{"android":"levelo://app?vid=ab6bdfea-eaa9-4032-98fe-bcc9269785d9","ios":"levelo://app?vid=ab6bdfea-eaa9-4032-98fe-bcc9269785d9"},"vehicle_type_id":"4","last_reported":1728583898,"current_range_meters":6400,"station_id":"ce4bgnh2rcd13ifvqc0g","pricing_plan_id":"cebpf4jnsgd1na2vs0mg"},{"bike_id":"1798682c-f166-4663-9f21-1c2e11a9a2e4","system_id":"levelo_inurba_marseille","lat":43.31119,"lon":5.37761,"is_reserved":false,"is_disabled":false,"rental_uris":{"android":"levelo://app?vid=1798682c-f166-4663-9f21-1c2e11a9a2e4","ios":"levelo://app?vid=1798682c-f166-4663-9f21-1c2e11a9a2e4"},"vehicle_type_id":"4","last_reported":1728583898,"current_range_meters":37600,"station_id":"ce4bgt92rcd13ifvqcg0","pricing_plan_id":"cebpf4jnsgd1na2vs0mg"},{"bike_id":"c2709d8c-182c-4c66-9678-32143d413767","system_id":"levelo_inurba_marseille","lat":43.22936,"lon":5.35378,"is_reserved":false,"is_disabled":false,"rental_uris":{"android":"levelo://app?vid=c2709d8c-182c-4c66-9678-32143d413767","ios":"levelo://app?vid=c2709d8c-182c-4c66-9678-32143d413767"},"vehicle_type_id":"4","last_reported":1728583898,"current_range_meters":36000,"station_id":"cpo3532slgdg3j2ikp40","pricing_plan_id":"cebpf4jnsgd1na2vs0mg"},{"bike_id":"1c4e0746-726a-4224-9a81-41e39f8a9347","system_id":"levelo_inurba_marseille","lat":43.29096,"lon":5.38116,"is_reserved":false,"is_disabled":false,"rental_uris":{"android":"levelo://app?vid=1c4e0746-726a-4224-9a81-41e39f8a9347","ios":"levelo://app?vid=1c4e0746-726a-4224-9a81-41e39f8a9347"},"vehicle_type_id":"4","last_reported":1728583898,"current_range_meters":8400,"station_id":"ce4bh512rcd13ifvqe2g","pricing_plan_id":"cebpf4jnsgd1na2vs0mg"},{"bike_id":"2dcdaca2-70d4-4d82-abf5-701ba4136335","system_id":"levelo_inurba_marseille","lat":43.28701,"lon":5.37392,"is_reserved":false,"is_disabled":false,"rental_uris":{"android":"levelo://app?vid=2dcdaca2-70d4-4d82-abf5-701ba4136335","ios":"levelo://app?vid=2dcdaca2-70d4-4d82-abf5-701ba4136335"},"vehicle_type_id":"4","last_reported":1728583898,"current_range_meters":4000,"station_id":"ce4bh3p2rcd13ifvqdq0","pricing_plan_id":"cebpf4jnsgd1na2vs0mg"},{"bike_id":"888639c8-8d32-44cb-9318-2a2d80625d8d","system_id":"levelo_inurba_marseille","lat":43.26064,"lon":5.394,"is_reserved":false,"is_disabled":false,"rental_uris":{"android":"levelo://app?vid=888639c8-8d32-44cb-9318-2a2d80625d8d","ios":"levelo://app?vid=888639c8-8d32-44cb-9318-2a2d80625d8d"},"vehicle_type_id":"4","last_reported":1728583898,"current_range_meters":19200,"station_id":"ce4bhh92rcd13ifvqfj0","pricing_plan_id":"cebpf4jnsgd1na2vs0mg"},{"bike_id":"0c32259c-d461-41ae-bf96-2c1fa553979c","system_id":"levelo_inurba_marseille","lat":43.30135,"lon":5.38792,"is_reserved":false,"is_disabled":false,"rental_uris":{"android":"levelo://app?vid=0c32259c-d461-41ae-bf96-2c1fa553979c","ios":"levelo://app?vid=0c32259c-d461-41ae-bf96-2c1fa553979c"},"vehicle_type_id":"4","last_reported":1728583898,"current_range_meters":8800,"station_id":"ce4bghh2rcd13ifvqb60","pricing_plan_id":"cebpf4jnsgd1na2vs0mg"},{"bike_id":"b4e8bd77-a3ff-4b3b-85c3-f17839ebfc15","system_id":"levelo_inurba_marseille","lat":43.31752,"lon":5.3903,"is_reserved":false,"is_disabled":false,"rental_uris":{"android":"levelo://app?vid=b4e8bd77-a3ff-4b3b-85c3-f17839ebfc15","ios":"levelo://app?vid=b4e8bd77-a3ff-4b3b-85c3-f17839ebfc15"},"vehicle_type_id":"4","last_reported":1728583898,"current_range_meters":7200,"station_id":"ce4bhqp2rcd13ifvqhng","pricing_plan_id":"cebpf4jnsgd1na2vs0mg"},{"bike_id":"0f930c1c-d332-4864-ac6e-660916694ec2","system_id":"levelo_inurba_marseille","lat":43.27626,"lon":5.36114,"is_reserved":false,"is_disabled":false,"rental_uris":{"android":"levelo://app?vid=0f930c1c-d332-4864-ac6e-660916694ec2","ios":"levelo://app?vid=0f930c1c-d332-4864-ac6e-660916694ec2"},"vehicle_type_id":"4","last_reported":1728583898,"current_range_meters":3600,"station_id":"ce4bgj92rcd13ifvqbe0","pricing_plan_id":"cebpf4jnsgd1na2vs0mg"},{"bike_id":"f92a9fb8-9f73-4cf9-bc9b-2bdf5b520248","system_id":"levelo_inurba_marseille","lat":43.32534,"lon":5.41449,"is_reserved":false,"is_disabled":false,"rental_uris":{"android":"levelo://app?vid=f92a9fb8-9f73-4cf9-bc9b-2bdf5b520248","ios":"levelo://app?vid=f92a9fb8-9f73-4cf9-bc9b-2bdf5b520248"},"vehicle_type_id":"4","last_reported":1728583898,"current_range_meters":38800,"station_id":"ce4bhq12rcd13ifvqhhg","pricing_plan_id":"cebpf4jnsgd1na2vs0mg"},{"bike_id":"4b7be203-7111-4ecd-9808-00597656e983","system_id":"levelo_inurba_marseille","lat":43.33025,"lon":5.39048,"is_reserved":false,"is_disabled":false,"rental_uris":{"android":"levelo://app?vid=4b7be203-7111-4ecd-9808-00597656e983","ios":"levelo://app?vid=4b7be203-7111-4ecd-9808-00597656e983"},"vehicle_type_id":"4","last_reported":1728583898,"current_range_meters":36800,"station_id":"ce4bhr92rcd13ifvqhrg","pricing_plan_id":"cebpf4jnsgd1na2vs0mg"},{"bike_id":"50aa4af7-94b4-48c9-959d-eeec3eaec001","system_id":"levelo_inurba_marseille","lat":43.23195,"lon":5.35549,"is_reserved":false,"is_disabled":false,"rental_uris":{"android":"levelo://app?vid=50aa4af7-94b4-48c9-959d-eeec3eaec001","ios":"levelo://app?vid=50aa4af7-94b4-48c9-959d-eeec3eaec001"},"vehicle_type_id":"4","last_reported":1728583898,"current_range_meters":38800,"station_id":"ce4bhu92rcd13ifvqi70","pricing_plan_id":"cebpf4jnsgd1na2vs0mg"},{"bike_id":"62099658-e9a3-4289-a1f6-32ec4a0e1bf3","system_id":"levelo_inurba_marseille","lat":43.29853,"lon":5.36291,"is_reserved":false,"is_disabled":false,"rental_uris":{"android":"levelo://app?vid=62099658-e9a3-4289-a1f6-32ec4a0e1bf3","ios":"levelo://app?vid=62099658-e9a3-4289-a1f6-32ec4a0e1bf3"},"vehicle_type_id":"4","last_reported":1728583898,"current_range_meters":8400,"station_id":"ce4bgpp2rcd13ifvqc3g","pricing_plan_id":"cebpf4jnsgd1na2vs0mg"},{"bike_id":"255093a8-c98a-4773-851f-60ca2d6fabdf","system_id":"levelo_inurba_marseille","lat":43.33495,"lon":5.36777,"is_reserved":false,"is_disabled":false,"rental_uris":{"android":"levelo://app?vid=255093a8-c98a-4773-851f-60ca2d6fabdf","ios":"levelo://app?vid=255093a8-c98a-4773-851f-60ca2d6fabdf"},"vehicle_type_id":"4","last_reported":1728583898,"current_range_meters":35200,"station_id":"","pricing_plan_id":"cebpf4jnsgd1na2vs0mg"},{"bike_id":"04cdfc0e-0712-459a-a56c-8097add52c1d","system_id":"levelo_inurba_marseille","lat":43.2808,"lon":5.39673,"is_reserved":false,"is_disabled":false,"rental_uris":{"android":"levelo://app?vid=04cdfc0e-0712-459a-a56c-8097add52c1d","ios":"levelo://app?vid=04cdfc0e-0712-459a-a56c-8097add52c1d"},"vehicle_type_id":"4","last_reported":1728583898,"current_range_meters":9200,"station_id":"ce4bho12rcd13ifvqh2g","pricing_plan_id":"cebpf4jnsgd1na2vs0mg"},{"bike_id":"407d064c-f3e3-44de-b4e9-6e7ed80ca683","system_id":"levelo_inurba_marseille","lat":43.28977,"lon":5.37841,"is_reserved":false,"is_disabled":false,"rental_uris":{"android":"levelo://app?vid=407d064c-f3e3-44de-b4e9-6e7ed80ca683","ios":"levelo://app?vid=407d064c-f3e3-44de-b4e9-6e7ed80ca683"},"vehicle_type_id":"4","last_reported":1728583898,"current_range_meters":39200,"station_id":"ce4bh9p2rcd13ifvqed0","pricing_plan_id":"cebpf4jnsgd1na2vs0mg"},{"bike_id":"6eb4bcb5-8136-49c0-b3b3-91d254fcd8da","system_id":"levelo_inurba_marseille","lat":43.28688,"lon":5.37402,"is_reserved":false,"is_disabled":false,"rental_uris":{"android":"levelo://app?vid=6eb4bcb5-8136-49c0-b3b3-91d254fcd8da","ios":"levelo://app?vid=6eb4bcb5-8136-49c0-b3b3-91d254fcd8da"},"vehicle_type_id":"4","last_reported":1728583898,"current_range_meters":12000,"station_id":"ce4bh3p2rcd13ifvqdq0","pricing_plan_id":"cebpf4jnsgd1na2vs0mg"},{"bike_id":"ff68b789-7173-415f-860f-fb58c1b9d01d","system_id":"levelo_inurba_marseille","lat":43.22928,"lon":5.35376,"is_reserved":false,"is_disabled":false,"rental_uris":{"android":"levelo://app?vid=ff68b789-7173-415f-860f-fb58c1b9d01d","ios":"levelo://app?vid=ff68b789-7173-415f-860f-fb58c1b9d01d"},"vehicle_type_id":"4","last_reported":1728583898,"current_range_meters":35600,"station_id":"cpo3532slgdg3j2ikp40","pricing_plan_id":"cebpf4jnsgd1na2vs0mg"},{"bike_id":"f7098787-baf6-4117-a16f-5a13836a5732","system_id":"levelo_inurba_marseille","lat":43.31364,"lon":5.38494,"is_reserved":false,"is_disabled":false,"rental_uris":{"android":"levelo://app?vid=f7098787-baf6-4117-a16f-5a13836a5732","ios":"levelo://app?vid=f7098787-baf6-4117-a16f-5a13836a5732"},"vehicle_type_id":"4","last_reported":1728583898,"current_range_meters":32800,"station_id":"ce4bgt92rcd13ifvqcf0","pricing_plan_id":"cebpf4jnsgd1na2vs0mg"},{"bike_id":"764a1729-cabc-4a4a-8bd7-5563f0826569","system_id":"levelo_inurba_marseille","lat":43.23193,"lon":5.35555,"is_reserved":false,"is_disabled":false,"rental_uris":{"android":"levelo://app?vid=764a1729-cabc-4a4a-8bd7-5563f0826569","ios":"levelo://app?vid=764a1729-cabc-4a4a-8bd7-5563f0826569"},"vehicle_type_id":"4","last_reported":1728583898,"current_range_meters":8800,"station_id":"ce4bhu92rcd13ifvqi70","pricing_plan_id":"cebpf4jnsgd1na2vs0mg"},{"bike_id":"6cb5b02c-2401-484a-8b7d-b4d2106d6b08","system_id":"levelo_inurba_marseille","lat":43.23185,"lon":5.35564,"is_reserved":false,"is_disabled":false,"rental_uris":{"android":"levelo://app?vid=6cb5b02c-2401-484a-8b7d-b4d2106d6b08","ios":"levelo://app?vid=6cb5b02c-2401-484a-8b7d-b4d2106d6b08"},"vehicle_type_id":"4","last_reported":1728583898,"current_range_meters":38800,"station_id":"ce4bhu92rcd13ifvqi70","pricing_plan_id":"cebpf4jnsgd1na2vs0mg"},{"bike_id":"f255bdbb-a497-4549-91a5-4dbe27c9af42","system_id":"levelo_inurba_marseille","lat":43.24663,"lon":5.38159,"is_reserved":false,"is_disabled":false,"rental_uris":{"android":"levelo://app?vid=f255bdbb-a497-4549-91a5-4dbe27c9af42","ios":"levelo://app?vid=f255bdbb-a497-4549-91a5-4dbe27c9af42"},"vehicle_type_id":"4","last_reported":1728583898,"current_range_meters":27200,"station_id":"ce4bhih2rcd13ifvqfr0","pricing_plan_id":"cebpf4jnsgd1na2vs0mg"},{"bike_id":"fc34a4c2-5dda-43dc-8c76-0302a62a6427","system_id":"levelo_inurba_marseille","lat":43.23192,"lon":5.35555,"is_reserved":false,"is_disabled":false,"rental_uris":{"android":"levelo://app?vid=fc34a4c2-5dda-43dc-8c76-0302a62a6427","ios":"levelo://app?vid=fc34a4c2-5dda-43dc-8c76-0302a62a6427"},"vehicle_type_id":"4","last_reported":1728583898,"current_range_meters":35600,"station_id":"ce4bhu92rcd13ifvqi70","pricing_plan_id":"cebpf4jnsgd1na2vs0mg"},{"bike_id":"228fe6a5-d5fa-4ad2-a6e8-5da974f8160d","system_id":"levelo_inurba_marseille","lat":43.26945,"lon":5.40252,"is_reserved":false,"is_disabled":false,"rental_uris":{"android":"levelo://app?vid=228fe6a5-d5fa-4ad2-a6e8-5da974f8160d","ios":"levelo://app?vid=228fe6a5-d5fa-4ad2-a6e8-5da974f8160d"},"vehicle_type_id":"4","last_reported":1728583898,"current_range_meters":21600,"station_id":"cjm6bp8fraef2m0cb0m0","pricing_plan_id":"cebpf4jnsgd1na2vs0mg"},{"bike_id":"b43e010f-69ea-40f6-9796-119442586a51","system_id":"levelo_inurba_marseille","lat":43.31334,"lon":5.39702,"is_reserved":false,"is_disabled":false,"rental_uris":{"android":"levelo://app?vid=b43e010f-69ea-40f6-9796-119442586a51","ios":"levelo://app?vid=b43e010f-69ea-40f6-9796-119442586a51"},"vehicle_type_id":"4","last_reported":1728583898,"current_range_meters":8800,"station_id":"ce4bgvp2rcd13ifvqcu0","pricing_plan_id":"cebpf4jnsgd1na2vs0mg"},{"bike_id":"b88acc46-208f-442f-82c2-468418a3d08f","system_id":"levelo_inurba_marseille","lat":43.33723,"lon":5.39185,"is_reserved":false,"is_disabled":false,"rental_uris":{"android":"levelo://app?vid=b88acc46-208f-442f-82c2-468418a3d08f","ios":"levelo://app?vid=b88acc46-208f-442f-82c2-468418a3d08f"},"vehicle_type_id":"4","last_reported":1728583898,"current_range_meters":36400,"station_id":"ce4bhr92rcd13ifvqhsg","pricing_plan_id":"cebpf4jnsgd1na2vs0mg"},{"bike_id":"9a3ef8f3-8740-4e39-9c24-cf98b0108ac8","system_id":"levelo_inurba_marseille","lat":43.28038,"lon":5.36942,"is_reserved":false,"is_disabled":false,"rental_uris":{"android":"levelo://app?vid=9a3ef8f3-8740-4e39-9c24-cf98b0108ac8","ios":"levelo://app?vid=9a3ef8f3-8740-4e39-9c24-cf98b0108ac8"},"vehicle_type_id":"4","last_reported":1728583898,"current_range_meters":19200,"station_id":"ce4bha12rcd13ifvqef0","pricing_plan_id":"cebpf4jnsgd1na2vs0mg"},{"bike_id":"b09dbff8-a830-491c-a572-644fce18b85a","system_id":"levelo_inurba_marseille","lat":43.24664,"lon":5.38167,"is_reserved":false,"is_disabled":false,"rental_uris":{"android":"levelo://app?vid=b09dbff8-a830-491c-a572-644fce18b85a","ios":"levelo://app?vid=b09dbff8-a830-491c-a572-644fce18b85a"},"vehicle_type_id":"4","last_reported":1728583898,"current_range_meters":38400,"station_id":"ce4bhih2rcd13ifvqfr0","pricing_plan_id":"cebpf4jnsgd1na2vs0mg"},{"bike_id":"eac3f28a-d7e5-443c-abd3-17fc49a6636a","system_id":"levelo_inurba_marseille","lat":43.28275,"lon":5.35063,"is_reserved":false,"is_disabled":false,"rental_uris":{"android":"levelo://app?vid=eac3f28a-d7e5-443c-abd3-17fc49a6636a","ios":"levelo://app?vid=eac3f28a-d7e5-443c-abd3-17fc49a6636a"},"vehicle_type_id":"4","last_reported":1728583898,"current_range_meters":23200,"station_id":"ce4bhbp2rcd13ifvqerg","pricing_plan_id":"cebpf4jnsgd1na2vs0mg"},{"bike_id":"85871c01-d2d0-4cc9-8922-dce432635c5d","system_id":"levelo_inurba_marseille","lat":43.24258,"lon":5.39686,"is_reserved":false,"is_disabled":false,"rental_uris":{"android":"levelo://app?vid=85871c01-d2d0-4cc9-8922-dce432635c5d","ios":"levelo://app?vid=85871c01-d2d0-4cc9-8922-dce432635c5d"},"vehicle_type_id":"4","last_reported":1728583898,"current_range_meters":22000,"station_id":"ce4bhn12rcd13ifvqgpg","pricing_plan_id":"cebpf4jnsgd1na2vs0mg"},{"bike_id":"95ca0007-9c90-47ab-88c0-e4a20724c850","system_id":"levelo_inurba_marseille","lat":43.3234,"lon":5.40626,"is_reserved":false,"is_disabled":false,"rental_uris":{"android":"levelo://app?vid=95ca0007-9c90-47ab-88c0-e4a20724c850","ios":"levelo://app?vid=95ca0007-9c90-47ab-88c0-e4a20724c850"},"vehicle_type_id":"4","last_reported":1728583898,"current_range_meters":18000,"station_id":"ce4bhq92rcd13ifvqhjg","pricing_plan_id":"cebpf4jnsgd1na2vs0mg"},{"bike_id":"00f5a79f-613e-426c-9405-d21df5a992f8","system_id":"levelo_inurba_marseille","lat":43.29706,"lon":5.36606,"is_reserved":false,"is_disabled":false,"rental_uris":{"android":"levelo://app?vid=00f5a79f-613e-426c-9405-d21df5a992f8","ios":"levelo://app?vid=00f5a79f-613e-426c-9405-d21df5a992f8"},"vehicle_type_id":"4","last_reported":1728583898,"current_range_meters":38800,"station_id":"ce4bgn12rcd13ifvqbt0","pricing_plan_id":"cebpf4jnsgd1na2vs0mg"},{"bike_id":"877ed964-322f-4757-a88a-affb2f324e4f","system_id":"levelo_inurba_marseille","lat":43.28079,"lon":5.39666,"is_reserved":false,"is_disabled":false,"rental_uris":{"android":"levelo://app?vid=877ed964-322f-4757-a88a-affb2f324e4f","ios":"levelo://app?vid=877ed964-322f-4757-a88a-affb2f324e4f"},"vehicle_type_id":"4","last_reported":1728583898,"current_range_meters":38000,"station_id":"ce4bho12rcd13ifvqh2g","pricing_plan_id":"cebpf4jnsgd1na2vs0mg"},{"bike_id":"2f26830c-1ed1-4d07-86d6-8ffc62212e8c","system_id":"levelo_inurba_marseille","lat":43.31131,"lon":5.37762,"is_reserved":false,"is_disabled":false,"rental_uris":{"android":"levelo://app?vid=2f26830c-1ed1-4d07-86d6-8ffc62212e8c","ios":"levelo://app?vid=2f26830c-1ed1-4d07-86d6-8ffc62212e8c"},"vehicle_type_id":"4","last_reported":1728583898,"current_range_meters":8400,"station_id":"ce4bgt92rcd13ifvqcg0","pricing_plan_id":"cebpf4jnsgd1na2vs0mg"},{"bike_id":"bd91f40e-2903-42b1-a0f3-193484e0182b","system_id":"levelo_inurba_marseille","lat":43.33387,"lon":5.41039,"is_reserved":false,"is_disabled":false,"rental_uris":{"android":"levelo://app?vid=bd91f40e-2903-42b1-a0f3-193484e0182b","ios":"levelo://app?vid=bd91f40e-2903-42b1-a0f3-193484e0182b"},"vehicle_type_id":"4","last_reported":1728583898,"current_range_meters":25200,"station_id":"ce4bhqh2rcd13ifvqhmg","pricing_plan_id":"cebpf4jnsgd1na2vs0mg"},{"bike_id":"3e3cbfc5-44a1-440b-89a3-99ba51569c02","system_id":"levelo_inurba_marseille","lat":43.29258,"lon":5.40919,"is_reserved":false,"is_disabled":false,"rental_uris":{"android":"levelo://app?vid=3e3cbfc5-44a1-440b-89a3-99ba51569c02","ios":"levelo://app?vid=3e3cbfc5-44a1-440b-89a3-99ba51569c02"},"vehicle_type_id":"4","last_reported":1728583898,"current_range_meters":1600,"station_id":"ce4bh192rcd13ifvqdc0","pricing_plan_id":"cebpf4jnsgd1na2vs0mg"},{"bike_id":"484a4c63-4ef1-4433-b27a-9a9ca5ad2f9a","system_id":"levelo_inurba_marseille","lat":43.22929,"lon":5.35377,"is_reserved":false,"is_disabled":false,"rental_uris":{"android":"levelo://app?vid=484a4c63-4ef1-4433-b27a-9a9ca5ad2f9a","ios":"levelo://app?vid=484a4c63-4ef1-4433-b27a-9a9ca5ad2f9a"},"vehicle_type_id":"4","last_reported":1728583898,"current_range_meters":20800,"station_id":"cpo3532slgdg3j2ikp40","pricing_plan_id":"cebpf4jnsgd1na2vs0mg"},{"bike_id":"5ec0da4d-2e3f-4eda-b8c4-7d5d1acb5833","system_id":"levelo_inurba_marseille","lat":43.28276,"lon":5.35068,"is_reserved":false,"is_disabled":false,"rental_uris":{"android":"levelo://app?vid=5ec0da4d-2e3f-4eda-b8c4-7d5d1acb5833","ios":"levelo://app?vid=5ec0da4d-2e3f-4eda-b8c4-7d5d1acb5833"},"vehicle_type_id":"4","last_reported":1728583898,"current_range_meters":20400,"station_id":"ce4bhbp2rcd13ifvqerg","pricing_plan_id":"cebpf4jnsgd1na2vs0mg"},{"bike_id":"a8f8f41f-a014-4b6a-a6b5-97b610735aef","system_id":"levelo_inurba_marseille","lat":43.31991,"lon":5.38168,"is_reserved":false,"is_disabled":false,"rental_uris":{"android":"levelo://app?vid=a8f8f41f-a014-4b6a-a6b5-97b610735aef","ios":"levelo://app?vid=a8f8f41f-a014-4b6a-a6b5-97b610735aef"},"vehicle_type_id":"4","last_reported":1728583898,"current_range_meters":18000,"station_id":"ce4bhr12rcd13ifvqhpg","pricing_plan_id":"cebpf4jnsgd1na2vs0mg"},{"bike_id":"830a55b5-b356-49d6-b4bd-23022c4ba6b3","system_id":"levelo_inurba_marseille","lat":43.28464,"lon":5.35893,"is_reserved":false,"is_disabled":false,"rental_uris":{"android":"levelo://app?vid=830a55b5-b356-49d6-b4bd-23022c4ba6b3","ios":"levelo://app?vid=830a55b5-b356-49d6-b4bd-23022c4ba6b3"},"vehicle_type_id":"4","last_reported":1728583898,"current_range_meters":8000,"station_id":"ce4bhah2rcd13ifvqei0","pricing_plan_id":"cebpf4jnsgd1na2vs0mg"},{"bike_id":"c1e08b3b-b03e-4111-a178-8682308c8aff","system_id":"levelo_inurba_marseille","lat":43.29226,"lon":5.36053,"is_reserved":false,"is_disabled":false,"rental_uris":{"android":"levelo://app?vid=c1e08b3b-b03e-4111-a178-8682308c8aff","ios":"levelo://app?vid=c1e08b3b-b03e-4111-a178-8682308c8aff"},"vehicle_type_id":"4","last_reported":1728583898,"current_range_meters":38800,"station_id":"ce4bhbh2rcd13ifvqeqg","pricing_plan_id":"cebpf4jnsgd1na2vs0mg"},{"bike_id":"0882165b-267f-48c9-b8f7-c0ac203e6f1c","system_id":"levelo_inurba_marseille","lat":43.29968,"lon":5.37179,"is_reserved":false,"is_disabled":false,"rental_uris":{"android":"levelo://app?vid=0882165b-267f-48c9-b8f7-c0ac203e6f1c","ios":"levelo://app?vid=0882165b-267f-48c9-b8f7-c0ac203e6f1c"},"vehicle_type_id":"4","last_reported":1728583898,"current_range_meters":29600,"station_id":"ce4bgr92rcd13ifvqc7g","pricing_plan_id":"cebpf4jnsgd1na2vs0mg"},{"bike_id":"ba7cd5d2-2f1c-45a9-96f4-809395bdde3a","system_id":"levelo_inurba_marseille","lat":43.28924,"lon":5.36399,"is_reserved":false,"is_disabled":false,"rental_uris":{"android":"levelo://app?vid=ba7cd5d2-2f1c-45a9-96f4-809395bdde3a","ios":"levelo://app?vid=ba7cd5d2-2f1c-45a9-96f4-809395bdde3a"},"vehicle_type_id":"4","last_reported":1728583898,"current_range_meters":6400,"station_id":"ce4bhc92rcd13ifvqetg","pricing_plan_id":"cebpf4jnsgd1na2vs0mg"},{"bike_id":"08e9d98e-ed64-49c8-9484-3901d624b471","system_id":"levelo_inurba_marseille","lat":43.29721,"lon":5.3771,"is_reserved":false,"is_disabled":false,"rental_uris":{"android":"levelo://app?vid=08e9d98e-ed64-49c8-9484-3901d624b471","ios":"levelo://app?vid=08e9d98e-ed64-49c8-9484-3901d624b471"},"vehicle_type_id":"4","last_reported":1728583898,"current_range_meters":38000,"station_id":"ce4bgkh2rcd13ifvqbl0","pricing_plan_id":"cebpf4jnsgd1na2vs0mg"},{"bike_id":"3372ba1c-93af-4ac9-8ffa-34868b7baae2","system_id":"levelo_inurba_marseille","lat":43.31761,"lon":5.39022,"is_reserved":false,"is_disabled":false,"rental_uris":{"android":"levelo://app?vid=3372ba1c-93af-4ac9-8ffa-34868b7baae2","ios":"levelo://app?vid=3372ba1c-93af-4ac9-8ffa-34868b7baae2"},"vehicle_type_id":"4","last_reported":1728583898,"current_range_meters":16800,"station_id":"ce4bhqp2rcd13ifvqhng","pricing_plan_id":"cebpf4jnsgd1na2vs0mg"},{"bike_id":"95df0637-4095-48d9-8eaa-5a6c8c4d8acd","system_id":"levelo_inurba_marseille","lat":43.29846,"lon":5.36275,"is_reserved":false,"is_disabled":false,"rental_uris":{"android":"levelo://app?vid=95df0637-4095-48d9-8eaa-5a6c8c4d8acd","ios":"levelo://app?vid=95df0637-4095-48d9-8eaa-5a6c8c4d8acd"},"vehicle_type_id":"4","last_reported":1728583898,"current_range_meters":25600,"station_id":"ce4bgpp2rcd13ifvqc3g","pricing_plan_id":"cebpf4jnsgd1na2vs0mg"},{"bike_id":"d536ef4b-b253-4bee-9285-eb782f8f6cab","system_id":"levelo_inurba_marseille","lat":43.32611,"lon":5.40475,"is_reserved":false,"is_disabled":false,"rental_uris":{"android":"levelo://app?vid=d536ef4b-b253-4bee-9285-eb782f8f6cab","ios":"levelo://app?vid=d536ef4b-b253-4bee-9285-eb782f8f6cab"},"vehicle_type_id":"4","last_reported":1728583898,"current_range_meters":30800,"station_id":"","pricing_plan_id":"cebpf4jnsgd1na2vs0mg"},{"bike_id":"2fbd776f-eb6d-4eec-82f6-9578b46169b6","system_id":"levelo_inurba_marseille","lat":43.24648,"lon":5.3889,"is_reserved":false,"is_disabled":false,"rental_uris":{"android":"levelo://app?vid=2fbd776f-eb6d-4eec-82f6-9578b46169b6","ios":"levelo://app?vid=2fbd776f-eb6d-4eec-82f6-9578b46169b6"},"vehicle_type_id":"4","last_reported":1728583898,"current_range_meters":32800,"station_id":"ce4bhg12rcd13ifvqf60","pricing_plan_id":"cebpf4jnsgd1na2vs0mg"},{"bike_id":"8fb2b431-bcb9-46ba-80fb-e26e84592fc5","system_id":"levelo_inurba_marseille","lat":43.23187,"lon":5.35561,"is_reserved":false,"is_disabled":false,"rental_uris":{"android":"levelo://app?vid=8fb2b431-bcb9-46ba-80fb-e26e84592fc5","ios":"levelo://app?vid=8fb2b431-bcb9-46ba-80fb-e26e84592fc5"},"vehicle_type_id":"4","last_reported":1728583898,"current_range_meters":38800,"station_id":"ce4bhu92rcd13ifvqi70","pricing_plan_id":"cebpf4jnsgd1na2vs0mg"},{"bike_id":"b52993a9-e462-498b-b487-23dcf260a615","system_id":"levelo_inurba_marseille","lat":43.28278,"lon":5.35066,"is_reserved":false,"is_disabled":false,"rental_uris":{"android":"levelo://app?vid=b52993a9-e462-498b-b487-23dcf260a615","ios":"levelo://app?vid=b52993a9-e462-498b-b487-23dcf260a615"},"vehicle_type_id":"4","last_reported":1728583898,"current_range_meters":28000,"station_id":"ce4bhbp2rcd13ifvqerg","pricing_plan_id":"cebpf4jnsgd1na2vs0mg"},{"bike_id":"1098d8a6-c886-4012-befc-b4d80f05b561","system_id":"levelo_inurba_marseille","lat":43.30606,"lon":5.37247,"is_reserved":false,"is_disabled":false,"rental_uris":{"android":"levelo://app?vid=1098d8a6-c886-4012-befc-b4d80f05b561","ios":"levelo://app?vid=1098d8a6-c886-4012-befc-b4d80f05b561"},"vehicle_type_id":"4","last_reported":1728583898,"current_range_meters":24800,"station_id":"ce4bgqh2rcd13ifvqc4g","pricing_plan_id":"cebpf4jnsgd1na2vs0mg"},{"bike_id":"1d0c1677-0550-4316-b757-dab8c90e2832","system_id":"levelo_inurba_marseille","lat":43.31708,"lon":5.37755,"is_reserved":false,"is_disabled":false,"rental_uris":{"android":"levelo://app?vid=1d0c1677-0550-4316-b757-dab8c90e2832","ios":"levelo://app?vid=1d0c1677-0550-4316-b757-dab8c90e2832"},"vehicle_type_id":"4","last_reported":1728583898,"current_range_meters":28400,"station_id":"ce4bgth2rcd13ifvqch0","pricing_plan_id":"cebpf4jnsgd1na2vs0mg"},{"bike_id":"47e58452-78e8-4b80-bd1b-533509c8cfcd","system_id":"levelo_inurba_marseille","lat":43.25935,"lon":5.40909,"is_reserved":false,"is_disabled":false,"rental_uris":{"android":"levelo://app?vid=47e58452-78e8-4b80-bd1b-533509c8cfcd","ios":"levelo://app?vid=47e58452-78e8-4b80-bd1b-533509c8cfcd"},"vehicle_type_id":"4","last_reported":1728583898,"current_range_meters":14800,"station_id":"ce4bhm92rcd13ifvqglg","pricing_plan_id":"cebpf4jnsgd1na2vs0mg"},{"bike_id":"308cc5b1-650a-46f5-8879-e00584558dc5","system_id":"levelo_inurba_marseille","lat":43.29813,"lon":5.37125,"is_reserved":false,"is_disabled":false,"rental_uris":{"android":"levelo://app?vid=308cc5b1-650a-46f5-8879-e00584558dc5","ios":"levelo://app?vid=308cc5b1-650a-46f5-8879-e00584558dc5"},"vehicle_type_id":"4","last_reported":1728583898,"current_range_meters":37600,"station_id":"ce4bgop2rcd13ifvqc1g","pricing_plan_id":"cebpf4jnsgd1na2vs0mg"},{"bike_id":"4587c7d1-e216-4690-8215-080af0170237","system_id":"levelo_inurba_marseille","lat":43.31478,"lon":5.37309,"is_reserved":false,"is_disabled":false,"rental_uris":{"android":"levelo://app?vid=4587c7d1-e216-4690-8215-080af0170237","ios":"levelo://app?vid=4587c7d1-e216-4690-8215-080af0170237"},"vehicle_type_id":"4","last_reported":1728583898,"current_range_meters":38800,"station_id":"ce4bgt12rcd13ifvqcd0","pricing_plan_id":"cebpf4jnsgd1na2vs0mg"},{"bike_id":"ad46e3d5-dec8-4f3c-8268-c4ab89585c4a","system_id":"levelo_inurba_marseille","lat":43.2418,"lon":5.39735,"is_reserved":false,"is_disabled":false,"rental_uris":{"android":"levelo://app?vid=ad46e3d5-dec8-4f3c-8268-c4ab89585c4a","ios":"levelo://app?vid=ad46e3d5-dec8-4f3c-8268-c4ab89585c4a"},"vehicle_type_id":"4","last_reported":1728583898,"current_range_meters":12800,"station_id":"ce4bhn12rcd13ifvqgpg","pricing_plan_id":"cebpf4jnsgd1na2vs0mg"},{"bike_id":"b5e6b795-3a0f-4449-9327-8534f16d90c4","system_id":"levelo_inurba_marseille","lat":43.30779,"lon":5.37657,"is_reserved":false,"is_disabled":false,"rental_uris":{"android":"levelo://app?vid=b5e6b795-3a0f-4449-9327-8534f16d90c4","ios":"levelo://app?vid=b5e6b795-3a0f-4449-9327-8534f16d90c4"},"vehicle_type_id":"4","last_reported":1728583898,"current_range_meters":28400,"station_id":"ce4bgth2rcd13ifvqch0","pricing_plan_id":"cebpf4jnsgd1na2vs0mg"},{"bike_id":"4e6a08ae-9e79-48c6-89f4-c318fef764a9","system_id":"levelo_inurba_marseille","lat":43.32001,"lon":5.38162,"is_reserved":false,"is_disabled":false,"rental_uris":{"android":"levelo://app?vid=4e6a08ae-9e79-48c6-89f4-c318fef764a9","ios":"levelo://app?vid=4e6a08ae-9e79-48c6-89f4-c318fef764a9"},"vehicle_type_id":"4","last_reported":1728583898,"current_range_meters":4000,"station_id":"ce4bhr12rcd13ifvqhpg","pricing_plan_id":"cebpf4jnsgd1na2vs0mg"},{"bike_id":"5925f0ae-7d99-4e2e-abc1-f75468371a12","system_id":"levelo_inurba_marseille","lat":43.301483,"lon":5.380879,"is_reserved":false,"is_disabled":false,"rental_uris":{"android":"levelo://app?vid=5925f0ae-7d99-4e2e-abc1-f75468371a12","ios":"levelo://app?vid=5925f0ae-7d99-4e2e-abc1-f75468371a12"},"vehicle_type_id":"4","last_reported":1728583898,"current_range_meters":36400,"station_id":"ce4bgjp2rcd13ifvqbh0","pricing_plan_id":"cebpf4jnsgd1na2vs0mg"},{"bike_id":"373a48bc-cfe9-4d7d-894e-d667be905335","system_id":"levelo_inurba_marseille","lat":43.3171,"lon":5.43706,"is_reserved":false,"is_disabled":false,"rental_uris":{"android":"levelo://app?vid=373a48bc-cfe9-4d7d-894e-d667be905335","ios":"levelo://app?vid=373a48bc-cfe9-4d7d-894e-d667be905335"},"vehicle_type_id":"4","last_reported":1728583898,"current_range_meters":22800,"station_id":"ce4bhp92rcd13ifvqhcg","pricing_plan_id":"cebpf4jnsgd1na2vs0mg"},{"bike_id":"9571fff0-808d-466f-a871-fba1b630d721","system_id":"levelo_inurba_marseille","lat":43.29913,"lon":5.38162,"is_reserved":false,"is_disabled":false,"rental_uris":{"android":"levelo://app?vid=9571fff0-808d-466f-a871-fba1b630d721","ios":"levelo://app?vid=9571fff0-808d-466f-a871-fba1b630d721"},"vehicle_type_id":"4","last_reported":1728583898,"current_range_meters":400,"station_id":"ce4bgj12rcd13ifvqbc0","pricing_plan_id":"cebpf4jnsgd1na2vs0mg"},{"bike_id":"8cadd3c0-2c1d-4793-8eda-8de52098ed5d","system_id":"levelo_inurba_marseille","lat":43.27052,"lon":5.40264,"is_reserved":false,"is_disabled":false,"rental_uris":{"android":"levelo://app?vid=8cadd3c0-2c1d-4793-8eda-8de52098ed5d","ios":"levelo://app?vid=8cadd3c0-2c1d-4793-8eda-8de52098ed5d"},"vehicle_type_id":"4","last_reported":1728583898,"current_range_meters":11600,"station_id":"ce4bhk92rcd13ifvqgc0","pricing_plan_id":"cebpf4jnsgd1na2vs0mg"},{"bike_id":"08b46243-3630-4c53-a526-3855366113b7","system_id":"levelo_inurba_marseille","lat":43.28002,"lon":5.40025,"is_reserved":false,"is_disabled":false,"rental_uris":{"android":"levelo://app?vid=08b46243-3630-4c53-a526-3855366113b7","ios":"levelo://app?vid=08b46243-3630-4c53-a526-3855366113b7"},"vehicle_type_id":"4","last_reported":1728583898,"current_range_meters":30800,"station_id":"ce4bho92rcd13ifvqh4g","pricing_plan_id":"cebpf4jnsgd1na2vs0mg"},{"bike_id":"ea4fd3ce-2aeb-477a-8868-7495fd3d80bd","system_id":"levelo_inurba_marseille","lat":43.28678,"lon":5.38683,"is_reserved":false,"is_disabled":false,"rental_uris":{"android":"levelo://app?vid=ea4fd3ce-2aeb-477a-8868-7495fd3d80bd","ios":"levelo://app?vid=ea4fd3ce-2aeb-477a-8868-7495fd3d80bd"},"vehicle_type_id":"4","last_reported":1728583898,"current_range_meters":10800,"station_id":"ce4bh492rcd13ifvqdug","pricing_plan_id":"cebpf4jnsgd1na2vs0mg"},{"bike_id":"aa75c41c-1391-4d5a-b0ad-fb29c317877d","system_id":"levelo_inurba_marseille","lat":43.2307,"lon":5.35496,"is_reserved":false,"is_disabled":false,"rental_uris":{"android":"levelo://app?vid=aa75c41c-1391-4d5a-b0ad-fb29c317877d","ios":"levelo://app?vid=aa75c41c-1391-4d5a-b0ad-fb29c317877d"},"vehicle_type_id":"4","last_reported":1728583898,"current_range_meters":10000,"station_id":"cpo3342slgdg3j2ifvpg","pricing_plan_id":"cebpf4jnsgd1na2vs0mg"},{"bike_id":"7edd9691-307e-4fc2-8c0a-63c5f9181ba8","system_id":"levelo_inurba_marseille","lat":43.27998,"lon":5.40011,"is_reserved":false,"is_disabled":false,"rental_uris":{"android":"levelo://app?vid=7edd9691-307e-4fc2-8c0a-63c5f9181ba8","ios":"levelo://app?vid=7edd9691-307e-4fc2-8c0a-63c5f9181ba8"},"vehicle_type_id":"4","last_reported":1728583898,"current_range_meters":19200,"station_id":"ce4bho92rcd13ifvqh4g","pricing_plan_id":"cebpf4jnsgd1na2vs0mg"},{"bike_id":"b1009450-6152-462c-a724-90df51eeb6db","system_id":"levelo_inurba_marseille","lat":43.32382,"lon":5.38917,"is_reserved":false,"is_disabled":false,"rental_uris":{"android":"levelo://app?vid=b1009450-6152-462c-a724-90df51eeb6db","ios":"levelo://app?vid=b1009450-6152-462c-a724-90df51eeb6db"},"vehicle_type_id":"4","last_reported":1728583898,"current_range_meters":9200,"station_id":"ce4bhqp2rcd13ifvqhog","pricing_plan_id":"cebpf4jnsgd1na2vs0mg"},{"bike_id":"8d3c1ee5-9b92-4994-9417-4a5d3329b003","system_id":"levelo_inurba_marseille","lat":43.289368,"lon":5.366572,"is_reserved":false,"is_disabled":false,"rental_uris":{"android":"levelo://app?vid=8d3c1ee5-9b92-4994-9417-4a5d3329b003","ios":"levelo://app?vid=8d3c1ee5-9b92-4994-9417-4a5d3329b003"},"vehicle_type_id":"4","last_reported":1728583898,"current_range_meters":32800,"station_id":"ce4bgr92rcd13ifvqc7g","pricing_plan_id":"cebpf4jnsgd1na2vs0mg"},{"bike_id":"7b1506f5-4ef4-4b73-9a92-fc36650aa83d","system_id":"levelo_inurba_marseille","lat":43.28003,"lon":5.40008,"is_reserved":false,"is_disabled":false,"rental_uris":{"android":"levelo://app?vid=7b1506f5-4ef4-4b73-9a92-fc36650aa83d","ios":"levelo://app?vid=7b1506f5-4ef4-4b73-9a92-fc36650aa83d"},"vehicle_type_id":"4","last_reported":1728583898,"current_range_meters":24000,"station_id":"ce4bho92rcd13ifvqh4g","pricing_plan_id":"cebpf4jnsgd1na2vs0mg"},{"bike_id":"3e6857ab-6d71-40eb-8179-31a16e8da2bb","system_id":"levelo_inurba_marseille","lat":43.28466,"lon":5.35889,"is_reserved":false,"is_disabled":false,"rental_uris":{"android":"levelo://app?vid=3e6857ab-6d71-40eb-8179-31a16e8da2bb","ios":"levelo://app?vid=3e6857ab-6d71-40eb-8179-31a16e8da2bb"},"vehicle_type_id":"4","last_reported":1728583898,"current_range_meters":7200,"station_id":"ce4bhah2rcd13ifvqei0","pricing_plan_id":"cebpf4jnsgd1na2vs0mg"},{"bike_id":"a1f9acd4-c2e4-45fc-b38b-0e0aceb1d442","system_id":"levelo_inurba_marseille","lat":43.24679,"lon":5.38157,"is_reserved":false,"is_disabled":false,"rental_uris":{"android":"levelo://app?vid=a1f9acd4-c2e4-45fc-b38b-0e0aceb1d442","ios":"levelo://app?vid=a1f9acd4-c2e4-45fc-b38b-0e0aceb1d442"},"vehicle_type_id":"4","last_reported":1728583898,"current_range_meters":13600,"station_id":"ce4bhih2rcd13ifvqfr0","pricing_plan_id":"cebpf4jnsgd1na2vs0mg"},{"bike_id":"7e9118c7-ac91-4dfd-a123-fd0171c1170c","system_id":"levelo_inurba_marseille","lat":43.32526,"lon":5.36871,"is_reserved":false,"is_disabled":false,"rental_uris":{"android":"levelo://app?vid=7e9118c7-ac91-4dfd-a123-fd0171c1170c","ios":"levelo://app?vid=7e9118c7-ac91-4dfd-a123-fd0171c1170c"},"vehicle_type_id":"4","last_reported":1728583898,"current_range_meters":7200,"station_id":"","pricing_plan_id":"cebpf4jnsgd1na2vs0mg"},{"bike_id":"085fc684-a5f8-48f2-8dee-3eac9ddc90e0","system_id":"levelo_inurba_marseille","lat":43.2558,"lon":5.3823,"is_reserved":false,"is_disabled":false,"rental_uris":{"android":"levelo://app?vid=085fc684-a5f8-48f2-8dee-3eac9ddc90e0","ios":"levelo://app?vid=085fc684-a5f8-48f2-8dee-3eac9ddc90e0"},"vehicle_type_id":"4","last_reported":1728583898,"current_range_meters":27200,"station_id":"ce4bhih2rcd13ifvqfs0","pricing_plan_id":"cebpf4jnsgd1na2vs0mg"},{"bike_id":"2a084294-d1d6-41dd-b4ed-5c278ec0afa7","system_id":"levelo_inurba_marseille","lat":43.29978,"lon":5.3719,"is_reserved":false,"is_disabled":false,"rental_uris":{"android":"levelo://app?vid=2a084294-d1d6-41dd-b4ed-5c278ec0afa7","ios":"levelo://app?vid=2a084294-d1d6-41dd-b4ed-5c278ec0afa7"},"vehicle_type_id":"4","last_reported":1728583898,"current_range_meters":8000,"station_id":"ce4bgr92rcd13ifvqc7g","pricing_plan_id":"cebpf4jnsgd1na2vs0mg"},{"bike_id":"8aae69b9-6809-49f0-a2f7-ef20f88037f5","system_id":"levelo_inurba_marseille","lat":43.30787,"lon":5.37646,"is_reserved":false,"is_disabled":false,"rental_uris":{"android":"levelo://app?vid=8aae69b9-6809-49f0-a2f7-ef20f88037f5","ios":"levelo://app?vid=8aae69b9-6809-49f0-a2f7-ef20f88037f5"},"vehicle_type_id":"4","last_reported":1728583898,"current_range_meters":26800,"station_id":"ce4bgv92rcd13ifvqcq0","pricing_plan_id":"cebpf4jnsgd1na2vs0mg"},{"bike_id":"e4d69715-31b8-43a3-9208-69b751e15fcd","system_id":"levelo_inurba_marseille","lat":43.32365,"lon":5.3889,"is_reserved":false,"is_disabled":false,"rental_uris":{"android":"levelo://app?vid=e4d69715-31b8-43a3-9208-69b751e15fcd","ios":"levelo://app?vid=e4d69715-31b8-43a3-9208-69b751e15fcd"},"vehicle_type_id":"4","last_reported":1728583898,"current_range_meters":32000,"station_id":"ce4bhqp2rcd13ifvqhog","pricing_plan_id":"cebpf4jnsgd1na2vs0mg"},{"bike_id":"8d884358-db18-4f58-8a46-d053069e40e2","system_id":"levelo_inurba_marseille","lat":43.31064,"lon":5.38356,"is_reserved":false,"is_disabled":false,"rental_uris":{"android":"levelo://app?vid=8d884358-db18-4f58-8a46-d053069e40e2","ios":"levelo://app?vid=8d884358-db18-4f58-8a46-d053069e40e2"},"vehicle_type_id":"4","last_reported":1728583898,"current_range_meters":2800,"station_id":"ce4bgv92rcd13ifvqcr0","pricing_plan_id":"cebpf4jnsgd1na2vs0mg"},{"bike_id":"5211300e-8cc7-4ce3-90b9-f9f7a4a80867","system_id":"levelo_inurba_marseille","lat":43.2396,"lon":5.36637,"is_reserved":false,"is_disabled":false,"rental_uris":{"android":"levelo://app?vid=5211300e-8cc7-4ce3-90b9-f9f7a4a80867","ios":"levelo://app?vid=5211300e-8cc7-4ce3-90b9-f9f7a4a80867"},"vehicle_type_id":"4","last_reported":1728583898,"current_range_meters":18800,"station_id":"ce4bhi12rcd13ifvqfp0","pricing_plan_id":"cebpf4jnsgd1na2vs0mg"},{"bike_id":"2d7e9a09-7370-425f-a18a-b24d45ae2760","system_id":"levelo_inurba_marseille","lat":43.28932,"lon":5.36392,"is_reserved":false,"is_disabled":false,"rental_uris":{"android":"levelo://app?vid=2d7e9a09-7370-425f-a18a-b24d45ae2760","ios":"levelo://app?vid=2d7e9a09-7370-425f-a18a-b24d45ae2760"},"vehicle_type_id":"4","last_reported":1728583898,"current_range_meters":12400,"station_id":"ce4bhc92rcd13ifvqetg","pricing_plan_id":"cebpf4jnsgd1na2vs0mg"},{"bike_id":"b3c5eab7-f50b-4fb8-ba0f-81f34bbfb9a3","system_id":"levelo_inurba_marseille","lat":43.29057,"lon":5.35583,"is_reserved":false,"is_disabled":false,"rental_uris":{"android":"levelo://app?vid=b3c5eab7-f50b-4fb8-ba0f-81f34bbfb9a3","ios":"levelo://app?vid=b3c5eab7-f50b-4fb8-ba0f-81f34bbfb9a3"},"vehicle_type_id":"4","last_reported":1728583898,"current_range_meters":26000,"station_id":"","pricing_plan_id":"cebpf4jnsgd1na2vs0mg"},{"bike_id":"bddabd11-ca19-4f46-9a6a-c5c059e44818","system_id":"levelo_inurba_marseille","lat":43.23194,"lon":5.35558,"is_reserved":false,"is_disabled":false,"rental_uris":{"android":"levelo://app?vid=bddabd11-ca19-4f46-9a6a-c5c059e44818","ios":"levelo://app?vid=bddabd11-ca19-4f46-9a6a-c5c059e44818"},"vehicle_type_id":"4","last_reported":1728583898,"current_range_meters":38800,"station_id":"ce4bhu92rcd13ifvqi70","pricing_plan_id":"cebpf4jnsgd1na2vs0mg"},{"bike_id":"3ae18fed-f345-4ef0-8ed2-3540202f3e73","system_id":"levelo_inurba_marseille","lat":43.33751,"lon":5.37446,"is_reserved":false,"is_disabled":false,"rental_uris":{"android":"levelo://app?vid=3ae18fed-f345-4ef0-8ed2-3540202f3e73","ios":"levelo://app?vid=3ae18fed-f345-4ef0-8ed2-3540202f3e73"},"vehicle_type_id":"4","last_reported":1728583898,"current_range_meters":31200,"station_id":"","pricing_plan_id":"cebpf4jnsgd1na2vs0mg"},{"bike_id":"11807e6b-d0f0-4a56-8136-5f9d78337ca2","system_id":"levelo_inurba_marseille","lat":43.28257,"lon":5.35074,"is_reserved":false,"is_disabled":false,"rental_uris":{"android":"levelo://app?vid=11807e6b-d0f0-4a56-8136-5f9d78337ca2","ios":"levelo://app?vid=11807e6b-d0f0-4a56-8136-5f9d78337ca2"},"vehicle_type_id":"4","last_reported":1728583898,"current_range_meters":38800,"station_id":"ce4bhbp2rcd13ifvqerg","pricing_plan_id":"cebpf4jnsgd1na2vs0mg"},{"bike_id":"e0f6e71a-7ca2-4194-8245-64d6c6e6aad8","system_id":"levelo_inurba_marseille","lat":43.30796,"lon":5.43529,"is_reserved":false,"is_disabled":false,"rental_uris":{"android":"levelo://app?vid=e0f6e71a-7ca2-4194-8245-64d6c6e6aad8","ios":"levelo://app?vid=e0f6e71a-7ca2-4194-8245-64d6c6e6aad8"},"vehicle_type_id":"4","last_reported":1728583898,"current_range_meters":38400,"station_id":"ce4bhph2rcd13ifvqheg","pricing_plan_id":"cebpf4jnsgd1na2vs0mg"},{"bike_id":"373b70b0-0a1d-4a4e-ae70-790a85baad32","system_id":"levelo_inurba_marseille","lat":43.27173,"lon":5.40994,"is_reserved":false,"is_disabled":false,"rental_uris":{"android":"levelo://app?vid=373b70b0-0a1d-4a4e-ae70-790a85baad32","ios":"levelo://app?vid=373b70b0-0a1d-4a4e-ae70-790a85baad32"},"vehicle_type_id":"4","last_reported":1728583898,"current_range_meters":7200,"station_id":"ce4bhl12rcd13ifvqgf0","pricing_plan_id":"cebpf4jnsgd1na2vs0mg"},{"bike_id":"da542b8f-f75c-48ce-943d-f378af4a2254","system_id":"levelo_inurba_marseille","lat":43.29259,"lon":5.38452,"is_reserved":false,"is_disabled":false,"rental_uris":{"android":"levelo://app?vid=da542b8f-f75c-48ce-943d-f378af4a2254","ios":"levelo://app?vid=da542b8f-f75c-48ce-943d-f378af4a2254"},"vehicle_type_id":"4","last_reported":1728583898,"current_range_meters":37600,"station_id":"ce4bh692rcd13ifvqea0","pricing_plan_id":"cebpf4jnsgd1na2vs0mg"},{"bike_id":"25bceaf4-d997-4124-b35f-044782445973","system_id":"levelo_inurba_marseille","lat":43.31709,"lon":5.4371,"is_reserved":false,"is_disabled":false,"rental_uris":{"android":"levelo://app?vid=25bceaf4-d997-4124-b35f-044782445973","ios":"levelo://app?vid=25bceaf4-d997-4124-b35f-044782445973"},"vehicle_type_id":"4","last_reported":1728583898,"current_range_meters":24800,"station_id":"ce4bhp92rcd13ifvqhcg","pricing_plan_id":"cebpf4jnsgd1na2vs0mg"},{"bike_id":"5485a6a3-392d-4a23-a74e-f7b1eda144b8","system_id":"levelo_inurba_marseille","lat":43.29937,"lon":5.37491,"is_reserved":false,"is_disabled":false,"rental_uris":{"android":"levelo://app?vid=5485a6a3-392d-4a23-a74e-f7b1eda144b8","ios":"levelo://app?vid=5485a6a3-392d-4a23-a74e-f7b1eda144b8"},"vehicle_type_id":"4","last_reported":1728583898,"current_range_meters":20400,"station_id":"ce4bgjh2rcd13ifvqbg0","pricing_plan_id":"cebpf4jnsgd1na2vs0mg"},{"bike_id":"f0590bff-03be-419a-880c-bb5991755c48","system_id":"levelo_inurba_marseille","lat":43.26556,"lon":5.39016,"is_reserved":false,"is_disabled":false,"rental_uris":{"android":"levelo://app?vid=f0590bff-03be-419a-880c-bb5991755c48","ios":"levelo://app?vid=f0590bff-03be-419a-880c-bb5991755c48"},"vehicle_type_id":"4","last_reported":1728583898,"current_range_meters":12400,"station_id":"ce4bhe12rcd13ifvqf30","pricing_plan_id":"cebpf4jnsgd1na2vs0mg"},{"bike_id":"72eecb27-b432-4793-adf6-633ad57fe1c1","system_id":"levelo_inurba_marseille","lat":43.31872,"lon":5.40763,"is_reserved":false,"is_disabled":false,"rental_uris":{"android":"levelo://app?vid=72eecb27-b432-4793-adf6-633ad57fe1c1","ios":"levelo://app?vid=72eecb27-b432-4793-adf6-633ad57fe1c1"},"vehicle_type_id":"4","last_reported":1728583898,"current_range_meters":38000,"station_id":"ce4bhq12rcd13ifvqhig","pricing_plan_id":"cebpf4jnsgd1na2vs0mg"},{"bike_id":"d3515cc2-9931-4d17-a2b9-231072d9e4d2","system_id":"levelo_inurba_marseille","lat":43.23195,"lon":5.35554,"is_reserved":false,"is_disabled":false,"rental_uris":{"android":"levelo://app?vid=d3515cc2-9931-4d17-a2b9-231072d9e4d2","ios":"levelo://app?vid=d3515cc2-9931-4d17-a2b9-231072d9e4d2"},"vehicle_type_id":"4","last_reported":1728583898,"current_range_meters":27200,"station_id":"ce4bhu92rcd13ifvqi70","pricing_plan_id":"cebpf4jnsgd1na2vs0mg"},{"bike_id":"ac4cb82b-ab13-45ee-be9e-27314186ba8e","system_id":"levelo_inurba_marseille","lat":43.25825,"lon":5.39441,"is_reserved":false,"is_disabled":false,"rental_uris":{"android":"levelo://app?vid=ac4cb82b-ab13-45ee-be9e-27314186ba8e","ios":"levelo://app?vid=ac4cb82b-ab13-45ee-be9e-27314186ba8e"},"vehicle_type_id":"4","last_reported":1728583898,"current_range_meters":22000,"station_id":"ce4bhip2rcd13ifvqft0","pricing_plan_id":"cebpf4jnsgd1na2vs0mg"},{"bike_id":"3eb19325-22a4-425e-a8ef-87280c633e2f","system_id":"levelo_inurba_marseille","lat":43.33018,"lon":5.3904,"is_reserved":false,"is_disabled":false,"rental_uris":{"android":"levelo://app?vid=3eb19325-22a4-425e-a8ef-87280c633e2f","ios":"levelo://app?vid=3eb19325-22a4-425e-a8ef-87280c633e2f"},"vehicle_type_id":"4","last_reported":1728583898,"current_range_meters":10000,"station_id":"ce4bhr92rcd13ifvqhrg","pricing_plan_id":"cebpf4jnsgd1na2vs0mg"},{"bike_id":"9815c07a-3e9c-4ac4-a5ba-9fa9ddce5ff8","system_id":"levelo_inurba_marseille","lat":43.29032,"lon":5.3863,"is_reserved":false,"is_disabled":false,"rental_uris":{"android":"levelo://app?vid=9815c07a-3e9c-4ac4-a5ba-9fa9ddce5ff8","ios":"levelo://app?vid=9815c07a-3e9c-4ac4-a5ba-9fa9ddce5ff8"},"vehicle_type_id":"4","last_reported":1728583898,"current_range_meters":4800,"station_id":"ce4bh4p2rcd13ifvqe0g","pricing_plan_id":"cebpf4jnsgd1na2vs0mg"},{"bike_id":"a0fb88cf-e15f-423a-a54b-b8a7e300f138","system_id":"levelo_inurba_marseille","lat":43.31072,"lon":5.38359,"is_reserved":false,"is_disabled":false,"rental_uris":{"android":"levelo://app?vid=a0fb88cf-e15f-423a-a54b-b8a7e300f138","ios":"levelo://app?vid=a0fb88cf-e15f-423a-a54b-b8a7e300f138"},"vehicle_type_id":"4","last_reported":1728583898,"current_range_meters":12000,"station_id":"ce4bgv92rcd13ifvqcr0","pricing_plan_id":"cebpf4jnsgd1na2vs0mg"},{"bike_id":"e3178d47-687f-409c-852e-554ca6d41303","system_id":"levelo_inurba_marseille","lat":43.27374,"lon":5.3626,"is_reserved":false,"is_disabled":false,"rental_uris":{"android":"levelo://app?vid=e3178d47-687f-409c-852e-554ca6d41303","ios":"levelo://app?vid=e3178d47-687f-409c-852e-554ca6d41303"},"vehicle_type_id":"4","last_reported":1728583898,"current_range_meters":23200,"station_id":"ce4bhbh2rcd13ifvqeo0","pricing_plan_id":"cebpf4jnsgd1na2vs0mg"},{"bike_id":"6a158244-c600-487a-b8e5-f769bbd77945","system_id":"levelo_inurba_marseille","lat":43.26686,"lon":5.38273,"is_reserved":false,"is_disabled":false,"rental_uris":{"android":"levelo://app?vid=6a158244-c600-487a-b8e5-f769bbd77945","ios":"levelo://app?vid=6a158244-c600-487a-b8e5-f769bbd77945"},"vehicle_type_id":"4","last_reported":1728583898,"current_range_meters":6800,"station_id":"ce4bhg92rcd13ifvqf90","pricing_plan_id":"cebpf4jnsgd1na2vs0mg"},{"bike_id":"8efb4f4d-ad45-4140-be1a-2b495b781748","system_id":"levelo_inurba_marseille","lat":43.26554,"lon":5.39036,"is_reserved":false,"is_disabled":false,"rental_uris":{"android":"levelo://app?vid=8efb4f4d-ad45-4140-be1a-2b495b781748","ios":"levelo://app?vid=8efb4f4d-ad45-4140-be1a-2b495b781748"},"vehicle_type_id":"4","last_reported":1728583898,"current_range_meters":4000,"station_id":"ce4bhe12rcd13ifvqf30","pricing_plan_id":"cebpf4jnsgd1na2vs0mg"},{"bike_id":"9697dbdf-cd4f-4047-a8bd-b48a32d44365","system_id":"levelo_inurba_marseille","lat":43.288576,"lon":5.35869,"is_reserved":false,"is_disabled":false,"rental_uris":{"android":"levelo://app?vid=9697dbdf-cd4f-4047-a8bd-b48a32d44365","ios":"levelo://app?vid=9697dbdf-cd4f-4047-a8bd-b48a32d44365"},"vehicle_type_id":"4","last_reported":1728583898,"current_range_meters":7200,"station_id":"ce4bhb12rcd13ifvqem0","pricing_plan_id":"cebpf4jnsgd1na2vs0mg"},{"bike_id":"134221d1-b882-4e18-a906-df55efd551f5","system_id":"levelo_inurba_marseille","lat":43.25121,"lon":5.40317,"is_reserved":false,"is_disabled":false,"rental_uris":{"android":"levelo://app?vid=134221d1-b882-4e18-a906-df55efd551f5","ios":"levelo://app?vid=134221d1-b882-4e18-a906-df55efd551f5"},"vehicle_type_id":"4","last_reported":1728583898,"current_range_meters":7200,"station_id":"ce4bhlh2rcd13ifvqgig","pricing_plan_id":"cebpf4jnsgd1na2vs0mg"},{"bike_id":"900b105d-fa8a-46a6-9a94-e96f53e4c987","system_id":"levelo_inurba_marseille","lat":43.292169,"lon":5.360571,"is_reserved":false,"is_disabled":false,"rental_uris":{"android":"levelo://app?vid=900b105d-fa8a-46a6-9a94-e96f53e4c987","ios":"levelo://app?vid=900b105d-fa8a-46a6-9a94-e96f53e4c987"},"vehicle_type_id":"4","last_reported":1728583898,"current_range_meters":38800,"station_id":"ce4bhbh2rcd13ifvqeqg","pricing_plan_id":"cebpf4jnsgd1na2vs0mg"},{"bike_id":"c462ac31-e294-4267-bc1b-a4f664716350","system_id":"levelo_inurba_marseille","lat":43.23198,"lon":5.35551,"is_reserved":false,"is_disabled":false,"rental_uris":{"android":"levelo://app?vid=c462ac31-e294-4267-bc1b-a4f664716350","ios":"levelo://app?vid=c462ac31-e294-4267-bc1b-a4f664716350"},"vehicle_type_id":"4","last_reported":1728583898,"current_range_meters":29600,"station_id":"ce4bhu92rcd13ifvqi70","pricing_plan_id":"cebpf4jnsgd1na2vs0mg"},{"bike_id":"bb76c0b8-200b-47f4-a67b-2ee565b17479","system_id":"levelo_inurba_marseille","lat":43.29713,"lon":5.36616,"is_reserved":false,"is_disabled":false,"rental_uris":{"android":"levelo://app?vid=bb76c0b8-200b-47f4-a67b-2ee565b17479","ios":"levelo://app?vid=bb76c0b8-200b-47f4-a67b-2ee565b17479"},"vehicle_type_id":"4","last_reported":1728583898,"current_range_meters":33600,"station_id":"ce4bgn12rcd13ifvqbt0","pricing_plan_id":"cebpf4jnsgd1na2vs0mg"},{"bike_id":"50609abc-8576-4139-ab3a-468d8ab73772","system_id":"levelo_inurba_marseille","lat":43.29848,"lon":5.36288,"is_reserved":false,"is_disabled":false,"rental_uris":{"android":"levelo://app?vid=50609abc-8576-4139-ab3a-468d8ab73772","ios":"levelo://app?vid=50609abc-8576-4139-ab3a-468d8ab73772"},"vehicle_type_id":"4","last_reported":1728583898,"current_range_meters":16400,"station_id":"ce4bgpp2rcd13ifvqc3g","pricing_plan_id":"cebpf4jnsgd1na2vs0mg"},{"bike_id":"0b7f0a4e-9893-4842-867d-cde95d21d292","system_id":"levelo_inurba_marseille","lat":43.30617,"lon":5.37241,"is_reserved":false,"is_disabled":false,"rental_uris":{"android":"levelo://app?vid=0b7f0a4e-9893-4842-867d-cde95d21d292","ios":"levelo://app?vid=0b7f0a4e-9893-4842-867d-cde95d21d292"},"vehicle_type_id":"4","last_reported":1728583898,"current_range_meters":27200,"station_id":"ce4bgqh2rcd13ifvqc4g","pricing_plan_id":"cebpf4jnsgd1na2vs0mg"},{"bike_id":"7784f0f1-9f3e-4e75-b867-37f41e26f8ca","system_id":"levelo_inurba_marseille","lat":43.283505,"lon":5.381061,"is_reserved":false,"is_disabled":false,"rental_uris":{"android":"levelo://app?vid=7784f0f1-9f3e-4e75-b867-37f41e26f8ca","ios":"levelo://app?vid=7784f0f1-9f3e-4e75-b867-37f41e26f8ca"},"vehicle_type_id":"4","last_reported":1728583898,"current_range_meters":14000,"station_id":"ce4bh412rcd13ifvqdr0","pricing_plan_id":"cebpf4jnsgd1na2vs0mg"},{"bike_id":"d61b01cc-a7bc-49bf-8410-62c4fe23afdf","system_id":"levelo_inurba_marseille","lat":43.26199,"lon":5.37934,"is_reserved":false,"is_disabled":false,"rental_uris":{"android":"levelo://app?vid=d61b01cc-a7bc-49bf-8410-62c4fe23afdf","ios":"levelo://app?vid=d61b01cc-a7bc-49bf-8410-62c4fe23afdf"},"vehicle_type_id":"4","last_reported":1728583898,"current_range_meters":11200,"station_id":"ce4bhjp2rcd13ifvqg90","pricing_plan_id":"cebpf4jnsgd1na2vs0mg"},{"bike_id":"79705559-d0ef-4f22-a273-d9ab0aad9c4f","system_id":"levelo_inurba_marseille","lat":43.31759,"lon":5.39026,"is_reserved":false,"is_disabled":false,"rental_uris":{"android":"levelo://app?vid=79705559-d0ef-4f22-a273-d9ab0aad9c4f","ios":"levelo://app?vid=79705559-d0ef-4f22-a273-d9ab0aad9c4f"},"vehicle_type_id":"4","last_reported":1728583898,"current_range_meters":9600,"station_id":"ce4bhqp2rcd13ifvqhng","pricing_plan_id":"cebpf4jnsgd1na2vs0mg"},{"bike_id":"9ab0c13d-92ab-4674-bfad-aa671cba6dd5","system_id":"levelo_inurba_marseille","lat":43.31533,"lon":5.38046,"is_reserved":false,"is_disabled":false,"rental_uris":{"android":"levelo://app?vid=9ab0c13d-92ab-4674-bfad-aa671cba6dd5","ios":"levelo://app?vid=9ab0c13d-92ab-4674-bfad-aa671cba6dd5"},"vehicle_type_id":"4","last_reported":1728583898,"current_range_meters":19200,"station_id":"ce4bhsp2rcd13ifvqi50","pricing_plan_id":"cebpf4jnsgd1na2vs0mg"},{"bike_id":"90566049-4d52-436b-958a-c32a9644687e","system_id":"levelo_inurba_marseille","lat":43.33023,"lon":5.39048,"is_reserved":false,"is_disabled":false,"rental_uris":{"android":"levelo://app?vid=90566049-4d52-436b-958a-c32a9644687e","ios":"levelo://app?vid=90566049-4d52-436b-958a-c32a9644687e"},"vehicle_type_id":"4","last_reported":1728583898,"current_range_meters":28800,"station_id":"ce4bhr92rcd13ifvqhrg","pricing_plan_id":"cebpf4jnsgd1na2vs0mg"},{"bike_id":"daa275ea-ac44-47b4-ac61-333e5afbc9ef","system_id":"levelo_inurba_marseille","lat":43.3172,"lon":5.42394,"is_reserved":false,"is_disabled":false,"rental_uris":{"android":"levelo://app?vid=daa275ea-ac44-47b4-ac61-333e5afbc9ef","ios":"levelo://app?vid=daa275ea-ac44-47b4-ac61-333e5afbc9ef"},"vehicle_type_id":"4","last_reported":1728583898,"current_range_meters":38800,"station_id":"ce4bhp92rcd13ifvqhbg","pricing_plan_id":"cebpf4jnsgd1na2vs0mg"},{"bike_id":"47cacfc8-4c61-44e8-81c7-7b05ca1a72d4","system_id":"levelo_inurba_marseille","lat":43.29842,"lon":5.36272,"is_reserved":false,"is_disabled":false,"rental_uris":{"android":"levelo://app?vid=47cacfc8-4c61-44e8-81c7-7b05ca1a72d4","ios":"levelo://app?vid=47cacfc8-4c61-44e8-81c7-7b05ca1a72d4"},"vehicle_type_id":"4","last_reported":1728583898,"current_range_meters":21600,"station_id":"ce4bgpp2rcd13ifvqc3g","pricing_plan_id":"cebpf4jnsgd1na2vs0mg"},{"bike_id":"3d017fa2-8be3-4783-a893-f56472ef0b6e","system_id":"levelo_inurba_marseille","lat":43.315258,"lon":5.380322,"is_reserved":false,"is_disabled":false,"rental_uris":{"android":"levelo://app?vid=3d017fa2-8be3-4783-a893-f56472ef0b6e","ios":"levelo://app?vid=3d017fa2-8be3-4783-a893-f56472ef0b6e"},"vehicle_type_id":"4","last_reported":1728583898,"current_range_meters":29600,"station_id":"ce4bhsp2rcd13ifvqi50","pricing_plan_id":"cebpf4jnsgd1na2vs0mg"},{"bike_id":"9cf3db70-1431-4372-b452-2d0770d0c15d","system_id":"levelo_inurba_marseille","lat":43.23194,"lon":5.35553,"is_reserved":false,"is_disabled":false,"rental_uris":{"android":"levelo://app?vid=9cf3db70-1431-4372-b452-2d0770d0c15d","ios":"levelo://app?vid=9cf3db70-1431-4372-b452-2d0770d0c15d"},"vehicle_type_id":"4","last_reported":1728583898,"current_range_meters":38000,"station_id":"ce4bhu92rcd13ifvqi70","pricing_plan_id":"cebpf4jnsgd1na2vs0mg"},{"bike_id":"cdf123f8-4ca4-481a-8d7d-70350d7f56f5","system_id":"levelo_inurba_marseille","lat":43.31727,"lon":5.424,"is_reserved":false,"is_disabled":false,"rental_uris":{"android":"levelo://app?vid=cdf123f8-4ca4-481a-8d7d-70350d7f56f5","ios":"levelo://app?vid=cdf123f8-4ca4-481a-8d7d-70350d7f56f5"},"vehicle_type_id":"4","last_reported":1728583898,"current_range_meters":36800,"station_id":"ce4bhp92rcd13ifvqhbg","pricing_plan_id":"cebpf4jnsgd1na2vs0mg"},{"bike_id":"3c25dded-f8d5-4193-a336-9fad641c4aac","system_id":"levelo_inurba_marseille","lat":43.33766,"lon":5.37447,"is_reserved":false,"is_disabled":false,"rental_uris":{"android":"levelo://app?vid=3c25dded-f8d5-4193-a336-9fad641c4aac","ios":"levelo://app?vid=3c25dded-f8d5-4193-a336-9fad641c4aac"},"vehicle_type_id":"4","last_reported":1728583898,"current_range_meters":15200,"station_id":"","pricing_plan_id":"cebpf4jnsgd1na2vs0mg"},{"bike_id":"fb62ed8a-f4da-456a-97ef-66c75d60f962","system_id":"levelo_inurba_marseille","lat":43.29053,"lon":5.38359,"is_reserved":false,"is_disabled":false,"rental_uris":{"android":"levelo://app?vid=fb62ed8a-f4da-456a-97ef-66c75d60f962","ios":"levelo://app?vid=fb62ed8a-f4da-456a-97ef-66c75d60f962"},"vehicle_type_id":"4","last_reported":1728583898,"current_range_meters":16000,"station_id":"ce4bh9p2rcd13ifvqed0","pricing_plan_id":"cebpf4jnsgd1na2vs0mg"},{"bike_id":"d64a3d13-7fe3-429b-9880-a1f6ed0f8f37","system_id":"levelo_inurba_marseille","lat":43.27947,"lon":5.41055,"is_reserved":false,"is_disabled":false,"rental_uris":{"android":"levelo://app?vid=d64a3d13-7fe3-429b-9880-a1f6ed0f8f37","ios":"levelo://app?vid=d64a3d13-7fe3-429b-9880-a1f6ed0f8f37"},"vehicle_type_id":"4","last_reported":1728583898,"current_range_meters":10000,"station_id":"ce4bhnp2rcd13ifvqh0g","pricing_plan_id":"cebpf4jnsgd1na2vs0mg"},{"bike_id":"3af4e8c0-9d50-4259-9383-c5a3004e9350","system_id":"levelo_inurba_marseille","lat":43.29844,"lon":5.36281,"is_reserved":false,"is_disabled":false,"rental_uris":{"android":"levelo://app?vid=3af4e8c0-9d50-4259-9383-c5a3004e9350","ios":"levelo://app?vid=3af4e8c0-9d50-4259-9383-c5a3004e9350"},"vehicle_type_id":"4","last_reported":1728583898,"current_range_meters":16000,"station_id":"ce4bgpp2rcd13ifvqc3g","pricing_plan_id":"cebpf4jnsgd1na2vs0mg"},{"bike_id":"7975faaf-f260-41c7-87cd-147b9a3b3ebf","system_id":"levelo_inurba_marseille","lat":43.23057,"lon":5.3549,"is_reserved":false,"is_disabled":false,"rental_uris":{"android":"levelo://app?vid=7975faaf-f260-41c7-87cd-147b9a3b3ebf","ios":"levelo://app?vid=7975faaf-f260-41c7-87cd-147b9a3b3ebf"},"vehicle_type_id":"4","last_reported":1728583898,"current_range_meters":18800,"station_id":"cpo3342slgdg3j2ifvpg","pricing_plan_id":"cebpf4jnsgd1na2vs0mg"},{"bike_id":"a3ebfb13-1f95-4f7c-adb4-8a08b86f19ff","system_id":"levelo_inurba_marseille","lat":43.24169,"lon":5.36403,"is_reserved":false,"is_disabled":false,"rental_uris":{"android":"levelo://app?vid=a3ebfb13-1f95-4f7c-adb4-8a08b86f19ff","ios":"levelo://app?vid=a3ebfb13-1f95-4f7c-adb4-8a08b86f19ff"},"vehicle_type_id":"4","last_reported":1728583898,"current_range_meters":38800,"station_id":"cpo36qri1sfpv3e86is0","pricing_plan_id":"cebpf4jnsgd1na2vs0mg"},{"bike_id":"703d5faf-e8f5-42e8-a15c-36acb1ae64d2","system_id":"levelo_inurba_marseille","lat":43.22932,"lon":5.35382,"is_reserved":false,"is_disabled":false,"rental_uris":{"android":"levelo://app?vid=703d5faf-e8f5-42e8-a15c-36acb1ae64d2","ios":"levelo://app?vid=703d5faf-e8f5-42e8-a15c-36acb1ae64d2"},"vehicle_type_id":"4","last_reported":1728583898,"current_range_meters":8000,"station_id":"cpo3532slgdg3j2ikp40","pricing_plan_id":"cebpf4jnsgd1na2vs0mg"},{"bike_id":"930f0083-674f-4786-97b3-73836b5894b0","system_id":"levelo_inurba_marseille","lat":43.30607,"lon":5.39359,"is_reserved":false,"is_disabled":false,"rental_uris":{"android":"levelo://app?vid=930f0083-674f-4786-97b3-73836b5894b0","ios":"levelo://app?vid=930f0083-674f-4786-97b3-73836b5894b0"},"vehicle_type_id":"4","last_reported":1728583898,"current_range_meters":23200,"station_id":"ce4bgvp2rcd13ifvqcu0","pricing_plan_id":"cebpf4jnsgd1na2vs0mg"},{"bike_id":"4b65e5e5-d568-4114-bfd6-70b281240118","system_id":"levelo_inurba_marseille","lat":43.31718,"lon":5.42401,"is_reserved":false,"is_disabled":false,"rental_uris":{"android":"levelo://app?vid=4b65e5e5-d568-4114-bfd6-70b281240118","ios":"levelo://app?vid=4b65e5e5-d568-4114-bfd6-70b281240118"},"vehicle_type_id":"4","last_reported":1728583898,"current_range_meters":25200,"station_id":"ce4bhp92rcd13ifvqhbg","pricing_plan_id":"cebpf4jnsgd1na2vs0mg"},{"bike_id":"0259e87c-13c9-481d-850c-941a43d3bffa","system_id":"levelo_inurba_marseille","lat":43.31754,"lon":5.39022,"is_reserved":false,"is_disabled":false,"rental_uris":{"android":"levelo://app?vid=0259e87c-13c9-481d-850c-941a43d3bffa","ios":"levelo://app?vid=0259e87c-13c9-481d-850c-941a43d3bffa"},"vehicle_type_id":"4","last_reported":1728583898,"current_range_meters":2000,"station_id":"ce4bhqp2rcd13ifvqhng","pricing_plan_id":"cebpf4jnsgd1na2vs0mg"},{"bike_id":"23a059cc-637e-41ac-b002-c7d45048a6e8","system_id":"levelo_inurba_marseille","lat":43.28036,"lon":5.36953,"is_reserved":false,"is_disabled":false,"rental_uris":{"android":"levelo://app?vid=23a059cc-637e-41ac-b002-c7d45048a6e8","ios":"levelo://app?vid=23a059cc-637e-41ac-b002-c7d45048a6e8"},"vehicle_type_id":"4","last_reported":1728583898,"current_range_meters":27600,"station_id":"ce4bha12rcd13ifvqef0","pricing_plan_id":"cebpf4jnsgd1na2vs0mg"},{"bike_id":"149456fc-aaff-4c55-80a8-d1e259466ba1","system_id":"levelo_inurba_marseille","lat":43.30298,"lon":5.39242,"is_reserved":false,"is_disabled":false,"rental_uris":{"android":"levelo://app?vid=149456fc-aaff-4c55-80a8-d1e259466ba1","ios":"levelo://app?vid=149456fc-aaff-4c55-80a8-d1e259466ba1"},"vehicle_type_id":"4","last_reported":1728583898,"current_range_meters":14000,"station_id":"ce4bgkh2rcd13ifvqbk0","pricing_plan_id":"cebpf4jnsgd1na2vs0mg"},{"bike_id":"c1ff16e2-e195-454a-9d8c-b2dce54b201a","system_id":"levelo_inurba_marseille","lat":43.29263,"lon":5.40905,"is_reserved":false,"is_disabled":false,"rental_uris":{"android":"levelo://app?vid=c1ff16e2-e195-454a-9d8c-b2dce54b201a","ios":"levelo://app?vid=c1ff16e2-e195-454a-9d8c-b2dce54b201a"},"vehicle_type_id":"4","last_reported":1728583898,"current_range_meters":15200,"station_id":"ce4bh192rcd13ifvqdc0","pricing_plan_id":"cebpf4jnsgd1na2vs0mg"},{"bike_id":"e7b49636-cefa-450a-ba52-4d5362cb1c52","system_id":"levelo_inurba_marseille","lat":43.23193,"lon":5.3555,"is_reserved":false,"is_disabled":false,"rental_uris":{"android":"levelo://app?vid=e7b49636-cefa-450a-ba52-4d5362cb1c52","ios":"levelo://app?vid=e7b49636-cefa-450a-ba52-4d5362cb1c52"},"vehicle_type_id":"4","last_reported":1728583898,"current_range_meters":27600,"station_id":"ce4bhu92rcd13ifvqi70","pricing_plan_id":"cebpf4jnsgd1na2vs0mg"},{"bike_id":"fe12a443-b839-480e-ab15-aabf66370332","system_id":"levelo_inurba_marseille","lat":43.26496,"lon":5.39539,"is_reserved":false,"is_disabled":false,"rental_uris":{"android":"levelo://app?vid=fe12a443-b839-480e-ab15-aabf66370332","ios":"levelo://app?vid=fe12a443-b839-480e-ab15-aabf66370332"},"vehicle_type_id":"4","last_reported":1728583898,"current_range_meters":8400,"station_id":"ce4bhi12rcd13ifvqfq0","pricing_plan_id":"cebpf4jnsgd1na2vs0mg"},{"bike_id":"a82c6e41-0fa1-446d-b911-0cdace477784","system_id":"levelo_inurba_marseille","lat":43.25869,"lon":5.39897,"is_reserved":false,"is_disabled":false,"rental_uris":{"android":"levelo://app?vid=a82c6e41-0fa1-446d-b911-0cdace477784","ios":"levelo://app?vid=a82c6e41-0fa1-446d-b911-0cdace477784"},"vehicle_type_id":"4","last_reported":1728583898,"current_range_meters":10800,"station_id":"ce4bhl92rcd13ifvqghg","pricing_plan_id":"cebpf4jnsgd1na2vs0mg"},{"bike_id":"7788f1b0-a0a1-4809-87aa-403960545fee","system_id":"levelo_inurba_marseille","lat":43.29866,"lon":5.38917,"is_reserved":false,"is_disabled":false,"rental_uris":{"android":"levelo://app?vid=7788f1b0-a0a1-4809-87aa-403960545fee","ios":"levelo://app?vid=7788f1b0-a0a1-4809-87aa-403960545fee"},"vehicle_type_id":"4","last_reported":1728583898,"current_range_meters":10000,"station_id":"ce4bh392rcd13ifvqdl0","pricing_plan_id":"cebpf4jnsgd1na2vs0mg"},{"bike_id":"f1586f91-66d6-42b7-bc3f-acfdf3a01285","system_id":"levelo_inurba_marseille","lat":43.31233,"lon":5.36855,"is_reserved":false,"is_disabled":false,"rental_uris":{"android":"levelo://app?vid=f1586f91-66d6-42b7-bc3f-acfdf3a01285","ios":"levelo://app?vid=f1586f91-66d6-42b7-bc3f-acfdf3a01285"},"vehicle_type_id":"4","last_reported":1728583898,"current_range_meters":38000,"station_id":"ce4bgl92rcd13ifvqbq0","pricing_plan_id":"cebpf4jnsgd1na2vs0mg"},{"bike_id":"e3ca7a26-ae57-4b06-ab30-0c20268ce91f","system_id":"levelo_inurba_marseille","lat":43.28158,"lon":5.42644,"is_reserved":false,"is_disabled":false,"rental_uris":{"android":"levelo://app?vid=e3ca7a26-ae57-4b06-ab30-0c20268ce91f","ios":"levelo://app?vid=e3ca7a26-ae57-4b06-ab30-0c20268ce91f"},"vehicle_type_id":"4","last_reported":1728583898,"current_range_meters":9200,"station_id":"ce4bhnh2rcd13ifvqgug","pricing_plan_id":"cebpf4jnsgd1na2vs0mg"},{"bike_id":"0dbd4948-ef92-4b90-9043-f113e3e6d47c","system_id":"levelo_inurba_marseille","lat":43.29173,"lon":5.37163,"is_reserved":false,"is_disabled":false,"rental_uris":{"android":"levelo://app?vid=0dbd4948-ef92-4b90-9043-f113e3e6d47c","ios":"levelo://app?vid=0dbd4948-ef92-4b90-9043-f113e3e6d47c"},"vehicle_type_id":"4","last_reported":1728583898,"current_range_meters":16800,"station_id":"ce4bha92rcd13ifvqeh0","pricing_plan_id":"cebpf4jnsgd1na2vs0mg"},{"bike_id":"351f679a-a940-4e48-aaf6-88373129e2b5","system_id":"levelo_inurba_marseille","lat":43.31328,"lon":5.39701,"is_reserved":false,"is_disabled":false,"rental_uris":{"android":"levelo://app?vid=351f679a-a940-4e48-aaf6-88373129e2b5","ios":"levelo://app?vid=351f679a-a940-4e48-aaf6-88373129e2b5"},"vehicle_type_id":"4","last_reported":1728583898,"current_range_meters":22000,"station_id":"ce4bgvp2rcd13ifvqcu0","pricing_plan_id":"cebpf4jnsgd1na2vs0mg"},{"bike_id":"245fbd72-a8ea-4a50-b396-f3860863893b","system_id":"levelo_inurba_marseille","lat":43.23187,"lon":5.35563,"is_reserved":false,"is_disabled":false,"rental_uris":{"android":"levelo://app?vid=245fbd72-a8ea-4a50-b396-f3860863893b","ios":"levelo://app?vid=245fbd72-a8ea-4a50-b396-f3860863893b"},"vehicle_type_id":"4","last_reported":1728583898,"current_range_meters":36400,"station_id":"ce4bhu92rcd13ifvqi70","pricing_plan_id":"cebpf4jnsgd1na2vs0mg"},{"bike_id":"43e99bd4-1ff8-4327-b36d-28d3c9ca8a0f","system_id":"levelo_inurba_marseille","lat":43.25826,"lon":5.39434,"is_reserved":false,"is_disabled":false,"rental_uris":{"android":"levelo://app?vid=43e99bd4-1ff8-4327-b36d-28d3c9ca8a0f","ios":"levelo://app?vid=43e99bd4-1ff8-4327-b36d-28d3c9ca8a0f"},"vehicle_type_id":"4","last_reported":1728583898,"current_range_meters":22800,"station_id":"ce4bhip2rcd13ifvqft0","pricing_plan_id":"cebpf4jnsgd1na2vs0mg"},{"bike_id":"dfede448-606d-4d3f-a34c-f20980b5bcec","system_id":"levelo_inurba_marseille","lat":43.3176,"lon":5.38096,"is_reserved":false,"is_disabled":false,"rental_uris":{"android":"levelo://app?vid=dfede448-606d-4d3f-a34c-f20980b5bcec","ios":"levelo://app?vid=dfede448-606d-4d3f-a34c-f20980b5bcec"},"vehicle_type_id":"4","last_reported":1728583898,"current_range_meters":18800,"station_id":"ce4bgth2rcd13ifvqch0","pricing_plan_id":"cebpf4jnsgd1na2vs0mg"},{"bike_id":"f93d9265-39f1-41da-8721-86ad9864d50f","system_id":"levelo_inurba_marseille","lat":43.27376,"lon":5.36259,"is_reserved":false,"is_disabled":false,"rental_uris":{"android":"levelo://app?vid=f93d9265-39f1-41da-8721-86ad9864d50f","ios":"levelo://app?vid=f93d9265-39f1-41da-8721-86ad9864d50f"},"vehicle_type_id":"4","last_reported":1728583898,"current_range_meters":7200,"station_id":"ce4bhbh2rcd13ifvqeo0","pricing_plan_id":"cebpf4jnsgd1na2vs0mg"},{"bike_id":"6461cf45-08a8-4e34-a193-568beb7de18d","system_id":"levelo_inurba_marseille","lat":43.26062,"lon":5.39395,"is_reserved":false,"is_disabled":false,"rental_uris":{"android":"levelo://app?vid=6461cf45-08a8-4e34-a193-568beb7de18d","ios":"levelo://app?vid=6461cf45-08a8-4e34-a193-568beb7de18d"},"vehicle_type_id":"4","last_reported":1728583898,"current_range_meters":27200,"station_id":"ce4bhh92rcd13ifvqfj0","pricing_plan_id":"cebpf4jnsgd1na2vs0mg"},{"bike_id":"d0af47d5-71a2-4e6e-a4f7-a2d225b8e53a","system_id":"levelo_inurba_marseille","lat":43.23055,"lon":5.35493,"is_reserved":false,"is_disabled":false,"rental_uris":{"android":"levelo://app?vid=d0af47d5-71a2-4e6e-a4f7-a2d225b8e53a","ios":"levelo://app?vid=d0af47d5-71a2-4e6e-a4f7-a2d225b8e53a"},"vehicle_type_id":"4","last_reported":1728583898,"current_range_meters":20000,"station_id":"cpo3342slgdg3j2ifvpg","pricing_plan_id":"cebpf4jnsgd1na2vs0mg"},{"bike_id":"e3589fd5-da25-45cb-b980-0c6398254322","system_id":"levelo_inurba_marseille","lat":43.29849,"lon":5.36289,"is_reserved":false,"is_disabled":false,"rental_uris":{"android":"levelo://app?vid=e3589fd5-da25-45cb-b980-0c6398254322","ios":"levelo://app?vid=e3589fd5-da25-45cb-b980-0c6398254322"},"vehicle_type_id":"4","last_reported":1728583898,"current_range_meters":17600,"station_id":"ce4bgpp2rcd13ifvqc3g","pricing_plan_id":"cebpf4jnsgd1na2vs0mg"},{"bike_id":"d560e107-768b-474d-93a5-834a1e408d16","system_id":"levelo_inurba_marseille","lat":43.31503,"lon":5.37294,"is_reserved":false,"is_disabled":false,"rental_uris":{"android":"levelo://app?vid=d560e107-768b-474d-93a5-834a1e408d16","ios":"levelo://app?vid=d560e107-768b-474d-93a5-834a1e408d16"},"vehicle_type_id":"4","last_reported":1728583898,"current_range_meters":39200,"station_id":"ce4bgt12rcd13ifvqcd0","pricing_plan_id":"cebpf4jnsgd1na2vs0mg"},{"bike_id":"ddfa012d-5d82-4137-a1a2-3f7f821a6eda","system_id":"levelo_inurba_marseille","lat":43.27718,"lon":5.36175,"is_reserved":false,"is_disabled":false,"rental_uris":{"android":"levelo://app?vid=ddfa012d-5d82-4137-a1a2-3f7f821a6eda","ios":"levelo://app?vid=ddfa012d-5d82-4137-a1a2-3f7f821a6eda"},"vehicle_type_id":"4","last_reported":1728583898,"current_range_meters":26000,"station_id":"ce4bhgh2rcd13ifvqfb0","pricing_plan_id":"cebpf4jnsgd1na2vs0mg"},{"bike_id":"1025d20c-8df0-4e1b-b227-7ed788c9969d","system_id":"levelo_inurba_marseille","lat":43.252777,"lon":5.394488,"is_reserved":false,"is_disabled":false,"rental_uris":{"android":"levelo://app?vid=1025d20c-8df0-4e1b-b227-7ed788c9969d","ios":"levelo://app?vid=1025d20c-8df0-4e1b-b227-7ed788c9969d"},"vehicle_type_id":"4","last_reported":1728583898,"current_range_meters":25200,"station_id":"","pricing_plan_id":"cebpf4jnsgd1na2vs0mg"},{"bike_id":"5a0e2fd0-334c-430c-b9d8-3af456dd6cde","system_id":"levelo_inurba_marseille","lat":43.31487,"lon":5.37313,"is_reserved":false,"is_disabled":false,"rental_uris":{"android":"levelo://app?vid=5a0e2fd0-334c-430c-b9d8-3af456dd6cde","ios":"levelo://app?vid=5a0e2fd0-334c-430c-b9d8-3af456dd6cde"},"vehicle_type_id":"4","last_reported":1728583898,"current_range_meters":7200,"station_id":"ce4bgt12rcd13ifvqcd0","pricing_plan_id":"cebpf4jnsgd1na2vs0mg"},{"bike_id":"37d387eb-2a79-4857-8da3-e1b7d2a05e6b","system_id":"levelo_inurba_marseille","lat":43.32361,"lon":5.38885,"is_reserved":false,"is_disabled":false,"rental_uris":{"android":"levelo://app?vid=37d387eb-2a79-4857-8da3-e1b7d2a05e6b","ios":"levelo://app?vid=37d387eb-2a79-4857-8da3-e1b7d2a05e6b"},"vehicle_type_id":"4","last_reported":1728583898,"current_range_meters":32800,"station_id":"ce4bhqp2rcd13ifvqhog","pricing_plan_id":"cebpf4jnsgd1na2vs0mg"},{"bike_id":"e6e5a6a7-2184-4c56-b7b2-3371a2bbc454","system_id":"levelo_inurba_marseille","lat":43.29049,"lon":5.39974,"is_reserved":false,"is_disabled":false,"rental_uris":{"android":"levelo://app?vid=e6e5a6a7-2184-4c56-b7b2-3371a2bbc454","ios":"levelo://app?vid=e6e5a6a7-2184-4c56-b7b2-3371a2bbc454"},"vehicle_type_id":"4","last_reported":1728583898,"current_range_meters":32800,"station_id":"ce4bh392rcd13ifvqdm0","pricing_plan_id":"cebpf4jnsgd1na2vs0mg"},{"bike_id":"1b3c14bd-b88b-41c8-abcb-848fe02866d9","system_id":"levelo_inurba_marseille","lat":43.33024,"lon":5.39043,"is_reserved":false,"is_disabled":false,"rental_uris":{"android":"levelo://app?vid=1b3c14bd-b88b-41c8-abcb-848fe02866d9","ios":"levelo://app?vid=1b3c14bd-b88b-41c8-abcb-848fe02866d9"},"vehicle_type_id":"4","last_reported":1728583898,"current_range_meters":8800,"station_id":"ce4bhr92rcd13ifvqhrg","pricing_plan_id":"cebpf4jnsgd1na2vs0mg"},{"bike_id":"2255e9ab-5af7-4c9f-a097-8d3a28576663","system_id":"levelo_inurba_marseille","lat":43.28407,"lon":5.34993,"is_reserved":false,"is_disabled":false,"rental_uris":{"android":"levelo://app?vid=2255e9ab-5af7-4c9f-a097-8d3a28576663","ios":"levelo://app?vid=2255e9ab-5af7-4c9f-a097-8d3a28576663"},"vehicle_type_id":"4","last_reported":1728583898,"current_range_meters":27600,"station_id":"ce4bhbh2rcd13ifvqepg","pricing_plan_id":"cebpf4jnsgd1na2vs0mg"},{"bike_id":"46d84256-020e-4118-8cbc-4cb14713c009","system_id":"levelo_inurba_marseille","lat":43.26565,"lon":5.39026,"is_reserved":false,"is_disabled":false,"rental_uris":{"android":"levelo://app?vid=46d84256-020e-4118-8cbc-4cb14713c009","ios":"levelo://app?vid=46d84256-020e-4118-8cbc-4cb14713c009"},"vehicle_type_id":"4","last_reported":1728583898,"current_range_meters":24000,"station_id":"ce4bhe12rcd13ifvqf30","pricing_plan_id":"cebpf4jnsgd1na2vs0mg"},{"bike_id":"5d8156d1-3aa4-46d4-9b21-ecbce5eebedd","system_id":"levelo_inurba_marseille","lat":43.33725,"lon":5.3919,"is_reserved":false,"is_disabled":false,"rental_uris":{"android":"levelo://app?vid=5d8156d1-3aa4-46d4-9b21-ecbce5eebedd","ios":"levelo://app?vid=5d8156d1-3aa4-46d4-9b21-ecbce5eebedd"},"vehicle_type_id":"4","last_reported":1728583898,"current_range_meters":18000,"station_id":"ce4bhr92rcd13ifvqhsg","pricing_plan_id":"cebpf4jnsgd1na2vs0mg"},{"bike_id":"a1745677-805b-4741-9f66-8eb851f48deb","system_id":"levelo_inurba_marseille","lat":43.31757,"lon":5.39018,"is_reserved":false,"is_disabled":false,"rental_uris":{"android":"levelo://app?vid=a1745677-805b-4741-9f66-8eb851f48deb","ios":"levelo://app?vid=a1745677-805b-4741-9f66-8eb851f48deb"},"vehicle_type_id":"4","last_reported":1728583898,"current_range_meters":17200,"station_id":"ce4bhqp2rcd13ifvqhng","pricing_plan_id":"cebpf4jnsgd1na2vs0mg"},{"bike_id":"9119bfed-6fe0-44c1-92af-8f9f407caeeb","system_id":"levelo_inurba_marseille","lat":43.22933,"lon":5.3538,"is_reserved":false,"is_disabled":false,"rental_uris":{"android":"levelo://app?vid=9119bfed-6fe0-44c1-92af-8f9f407caeeb","ios":"levelo://app?vid=9119bfed-6fe0-44c1-92af-8f9f407caeeb"},"vehicle_type_id":"4","last_reported":1728583898,"current_range_meters":36400,"station_id":"cpo3532slgdg3j2ikp40","pricing_plan_id":"cebpf4jnsgd1na2vs0mg"},{"bike_id":"8e6f8e5c-4d3f-49e3-a2e0-723bf06ce8eb","system_id":"levelo_inurba_marseille","lat":43.28866,"lon":5.35865,"is_reserved":false,"is_disabled":false,"rental_uris":{"android":"levelo://app?vid=8e6f8e5c-4d3f-49e3-a2e0-723bf06ce8eb","ios":"levelo://app?vid=8e6f8e5c-4d3f-49e3-a2e0-723bf06ce8eb"},"vehicle_type_id":"4","last_reported":1728583898,"current_range_meters":38800,"station_id":"ce4bhb12rcd13ifvqem0","pricing_plan_id":"cebpf4jnsgd1na2vs0mg"},{"bike_id":"e436950b-de81-4c36-9150-1c36c0fba666","system_id":"levelo_inurba_marseille","lat":43.28538,"lon":5.38378,"is_reserved":false,"is_disabled":false,"rental_uris":{"android":"levelo://app?vid=e436950b-de81-4c36-9150-1c36c0fba666","ios":"levelo://app?vid=e436950b-de81-4c36-9150-1c36c0fba666"},"vehicle_type_id":"4","last_reported":1728583898,"current_range_meters":22000,"station_id":"ce4bh412rcd13ifvqdr0","pricing_plan_id":"cebpf4jnsgd1na2vs0mg"},{"bike_id":"4780c9bc-62e9-44f2-9578-8694fcdbb5a4","system_id":"levelo_inurba_marseille","lat":43.28277,"lon":5.35073,"is_reserved":false,"is_disabled":false,"rental_uris":{"android":"levelo://app?vid=4780c9bc-62e9-44f2-9578-8694fcdbb5a4","ios":"levelo://app?vid=4780c9bc-62e9-44f2-9578-8694fcdbb5a4"},"vehicle_type_id":"4","last_reported":1728583898,"current_range_meters":38800,"station_id":"ce4bhbp2rcd13ifvqerg","pricing_plan_id":"cebpf4jnsgd1na2vs0mg"},{"bike_id":"60fed49f-05bf-4364-940a-2c15c8232436","system_id":"levelo_inurba_marseille","lat":43.27328,"lon":5.39073,"is_reserved":false,"is_disabled":false,"rental_uris":{"android":"levelo://app?vid=60fed49f-05bf-4364-940a-2c15c8232436","ios":"levelo://app?vid=60fed49f-05bf-4364-940a-2c15c8232436"},"vehicle_type_id":"4","last_reported":1728583898,"current_range_meters":5600,"station_id":"ce4bhgp2rcd13ifvqfe0","pricing_plan_id":"cebpf4jnsgd1na2vs0mg"},{"bike_id":"508c2580-b400-4bea-87f0-7fab570766b6","system_id":"levelo_inurba_marseille","lat":43.32168,"lon":5.3884,"is_reserved":false,"is_disabled":false,"rental_uris":{"android":"levelo://app?vid=508c2580-b400-4bea-87f0-7fab570766b6","ios":"levelo://app?vid=508c2580-b400-4bea-87f0-7fab570766b6"},"vehicle_type_id":"4","last_reported":1728583898,"current_range_meters":3200,"station_id":"","pricing_plan_id":"cebpf4jnsgd1na2vs0mg"},{"bike_id":"19fe1959-c93b-42fe-a582-87651ad6b59b","system_id":"levelo_inurba_marseille","lat":43.24663,"lon":5.38171,"is_reserved":false,"is_disabled":false,"rental_uris":{"android":"levelo://app?vid=19fe1959-c93b-42fe-a582-87651ad6b59b","ios":"levelo://app?vid=19fe1959-c93b-42fe-a582-87651ad6b59b"},"vehicle_type_id":"4","last_reported":1728583898,"current_range_meters":8800,"station_id":"ce4bhih2rcd13ifvqfr0","pricing_plan_id":"cebpf4jnsgd1na2vs0mg"},{"bike_id":"3ec223fe-381f-4181-80d0-41c3679a5179","system_id":"levelo_inurba_marseille","lat":43.29986,"lon":5.38495,"is_reserved":false,"is_disabled":false,"rental_uris":{"android":"levelo://app?vid=3ec223fe-381f-4181-80d0-41c3679a5179","ios":"levelo://app?vid=3ec223fe-381f-4181-80d0-41c3679a5179"},"vehicle_type_id":"4","last_reported":1728583898,"current_range_meters":1200,"station_id":"ce4bgj92rcd13ifvqbd0","pricing_plan_id":"cebpf4jnsgd1na2vs0mg"},{"bike_id":"aa5cca9f-2af6-4eb3-a36d-a7bf442b42c1","system_id":"levelo_inurba_marseille","lat":43.23061,"lon":5.35494,"is_reserved":false,"is_disabled":false,"rental_uris":{"android":"levelo://app?vid=aa5cca9f-2af6-4eb3-a36d-a7bf442b42c1","ios":"levelo://app?vid=aa5cca9f-2af6-4eb3-a36d-a7bf442b42c1"},"vehicle_type_id":"4","last_reported":1728583898,"current_range_meters":11200,"station_id":"cpo3342slgdg3j2ifvpg","pricing_plan_id":"cebpf4jnsgd1na2vs0mg"},{"bike_id":"1280219c-376c-45c8-9304-8e5c997a68b3","system_id":"levelo_inurba_marseille","lat":43.29018,"lon":5.38129,"is_reserved":false,"is_disabled":false,"rental_uris":{"android":"levelo://app?vid=1280219c-376c-45c8-9304-8e5c997a68b3","ios":"levelo://app?vid=1280219c-376c-45c8-9304-8e5c997a68b3"},"vehicle_type_id":"4","last_reported":1728583898,"current_range_meters":2800,"station_id":"ce4bh4p2rcd13ifvqe1g","pricing_plan_id":"cebpf4jnsgd1na2vs0mg"},{"bike_id":"c075fa89-d4dd-4783-8d59-6c918d3df626","system_id":"levelo_inurba_marseille","lat":43.24647,"lon":5.38895,"is_reserved":false,"is_disabled":false,"rental_uris":{"android":"levelo://app?vid=c075fa89-d4dd-4783-8d59-6c918d3df626","ios":"levelo://app?vid=c075fa89-d4dd-4783-8d59-6c918d3df626"},"vehicle_type_id":"4","last_reported":1728583898,"current_range_meters":38800,"station_id":"ce4bhg12rcd13ifvqf60","pricing_plan_id":"cebpf4jnsgd1na2vs0mg"},{"bike_id":"252a13d5-f6b3-4756-a2fd-ea1610a07869","system_id":"levelo_inurba_marseille","lat":43.31168,"lon":5.38728,"is_reserved":false,"is_disabled":false,"rental_uris":{"android":"levelo://app?vid=252a13d5-f6b3-4756-a2fd-ea1610a07869","ios":"levelo://app?vid=252a13d5-f6b3-4756-a2fd-ea1610a07869"},"vehicle_type_id":"4","last_reported":1728583898,"current_range_meters":800,"station_id":"ce4bgv12rcd13ifvqcp0","pricing_plan_id":"cebpf4jnsgd1na2vs0mg"},{"bike_id":"04dab84d-86fb-4c5b-a191-8dcbd14cf8ce","system_id":"levelo_inurba_marseille","lat":43.302704,"lon":5.377033,"is_reserved":false,"is_disabled":false,"rental_uris":{"android":"levelo://app?vid=04dab84d-86fb-4c5b-a191-8dcbd14cf8ce","ios":"levelo://app?vid=04dab84d-86fb-4c5b-a191-8dcbd14cf8ce"},"vehicle_type_id":"4","last_reported":1728583898,"current_range_meters":36000,"station_id":"ce4bguh2rcd13ifvqcj0","pricing_plan_id":"cebpf4jnsgd1na2vs0mg"},{"bike_id":"15e0bdef-b003-428c-a749-550e7f990297","system_id":"levelo_inurba_marseille","lat":43.28705,"lon":5.39985,"is_reserved":false,"is_disabled":false,"rental_uris":{"android":"levelo://app?vid=15e0bdef-b003-428c-a749-550e7f990297","ios":"levelo://app?vid=15e0bdef-b003-428c-a749-550e7f990297"},"vehicle_type_id":"4","last_reported":1728583898,"current_range_meters":10800,"station_id":"ce4bho92rcd13ifvqh3g","pricing_plan_id":"cebpf4jnsgd1na2vs0mg"},{"bike_id":"e30177f8-5c65-43ba-9981-f728fc9f65ba","system_id":"levelo_inurba_marseille","lat":43.2811,"lon":5.37848,"is_reserved":false,"is_disabled":false,"rental_uris":{"android":"levelo://app?vid=e30177f8-5c65-43ba-9981-f728fc9f65ba","ios":"levelo://app?vid=e30177f8-5c65-43ba-9981-f728fc9f65ba"},"vehicle_type_id":"4","last_reported":1728583898,"current_range_meters":29600,"station_id":"ce4bha12rcd13ifvqee0","pricing_plan_id":"cebpf4jnsgd1na2vs0mg"},{"bike_id":"fe0071ad-50ff-4ba2-932d-19d883ba0a15","system_id":"levelo_inurba_marseille","lat":43.29226,"lon":5.36059,"is_reserved":false,"is_disabled":false,"rental_uris":{"android":"levelo://app?vid=fe0071ad-50ff-4ba2-932d-19d883ba0a15","ios":"levelo://app?vid=fe0071ad-50ff-4ba2-932d-19d883ba0a15"},"vehicle_type_id":"4","last_reported":1728583898,"current_range_meters":38800,"station_id":"ce4bhbh2rcd13ifvqeqg","pricing_plan_id":"cebpf4jnsgd1na2vs0mg"},{"bike_id":"2e2d0f4c-f612-4b58-859d-73f4a8a82205","system_id":"levelo_inurba_marseille","lat":43.27618,"lon":5.36104,"is_reserved":false,"is_disabled":false,"rental_uris":{"android":"levelo://app?vid=2e2d0f4c-f612-4b58-859d-73f4a8a82205","ios":"levelo://app?vid=2e2d0f4c-f612-4b58-859d-73f4a8a82205"},"vehicle_type_id":"4","last_reported":1728583898,"current_range_meters":20000,"station_id":"ce4bgj92rcd13ifvqbe0","pricing_plan_id":"cebpf4jnsgd1na2vs0mg"},{"bike_id":"6631039b-78e3-42ae-b3f5-987abeda35e5","system_id":"levelo_inurba_marseille","lat":43.3046,"lon":5.40178,"is_reserved":false,"is_disabled":false,"rental_uris":{"android":"levelo://app?vid=6631039b-78e3-42ae-b3f5-987abeda35e5","ios":"levelo://app?vid=6631039b-78e3-42ae-b3f5-987abeda35e5"},"vehicle_type_id":"4","last_reported":1728583898,"current_range_meters":13600,"station_id":"","pricing_plan_id":"cebpf4jnsgd1na2vs0mg"},{"bike_id":"faecf2d4-6bd4-4344-9aac-3ddc5aaf3cac","system_id":"levelo_inurba_marseille","lat":43.28571,"lon":5.38642,"is_reserved":false,"is_disabled":false,"rental_uris":{"android":"levelo://app?vid=faecf2d4-6bd4-4344-9aac-3ddc5aaf3cac","ios":"levelo://app?vid=faecf2d4-6bd4-4344-9aac-3ddc5aaf3cac"},"vehicle_type_id":"4","last_reported":1728583898,"current_range_meters":28000,"station_id":"ce4bh8p2rcd13ifvqeb0","pricing_plan_id":"cebpf4jnsgd1na2vs0mg"},{"bike_id":"5d612f2f-370e-4f9d-9a4a-586fa8f60105","system_id":"levelo_inurba_marseille","lat":43.2971,"lon":5.36607,"is_reserved":false,"is_disabled":false,"rental_uris":{"android":"levelo://app?vid=5d612f2f-370e-4f9d-9a4a-586fa8f60105","ios":"levelo://app?vid=5d612f2f-370e-4f9d-9a4a-586fa8f60105"},"vehicle_type_id":"4","last_reported":1728583898,"current_range_meters":34800,"station_id":"ce4bgn12rcd13ifvqbt0","pricing_plan_id":"cebpf4jnsgd1na2vs0mg"},{"bike_id":"bdee3219-57c1-49d1-a2d1-d02ddf7e4ac9","system_id":"levelo_inurba_marseille","lat":43.23054,"lon":5.35498,"is_reserved":false,"is_disabled":false,"rental_uris":{"android":"levelo://app?vid=bdee3219-57c1-49d1-a2d1-d02ddf7e4ac9","ios":"levelo://app?vid=bdee3219-57c1-49d1-a2d1-d02ddf7e4ac9"},"vehicle_type_id":"4","last_reported":1728583898,"current_range_meters":22800,"station_id":"cpo3342slgdg3j2ifvpg","pricing_plan_id":"cebpf4jnsgd1na2vs0mg"},{"bike_id":"59e19892-b810-4e45-be31-7f07ccb1312a","system_id":"levelo_inurba_marseille","lat":43.31124,"lon":5.37771,"is_reserved":false,"is_disabled":false,"rental_uris":{"android":"levelo://app?vid=59e19892-b810-4e45-be31-7f07ccb1312a","ios":"levelo://app?vid=59e19892-b810-4e45-be31-7f07ccb1312a"},"vehicle_type_id":"4","last_reported":1728583898,"current_range_meters":8800,"station_id":"ce4bgt92rcd13ifvqcg0","pricing_plan_id":"cebpf4jnsgd1na2vs0mg"},{"bike_id":"7d0c25c9-79e7-44d1-9387-8d7a415b1fca","system_id":"levelo_inurba_marseille","lat":43.25864,"lon":5.399,"is_reserved":false,"is_disabled":false,"rental_uris":{"android":"levelo://app?vid=7d0c25c9-79e7-44d1-9387-8d7a415b1fca","ios":"levelo://app?vid=7d0c25c9-79e7-44d1-9387-8d7a415b1fca"},"vehicle_type_id":"4","last_reported":1728583898,"current_range_meters":33600,"station_id":"ce4bhl92rcd13ifvqghg","pricing_plan_id":"cebpf4jnsgd1na2vs0mg"},{"bike_id":"eed02832-8879-480c-ab67-90837c719887","system_id":"levelo_inurba_marseille","lat":43.29447,"lon":5.39749,"is_reserved":false,"is_disabled":false,"rental_uris":{"android":"levelo://app?vid=eed02832-8879-480c-ab67-90837c719887","ios":"levelo://app?vid=eed02832-8879-480c-ab67-90837c719887"},"vehicle_type_id":"4","last_reported":1728583898,"current_range_meters":1600,"station_id":"ce4bh3h2rcd13ifvqdo0","pricing_plan_id":"cebpf4jnsgd1na2vs0mg"},{"bike_id":"0e8b8305-7b77-4340-9faa-83a4dc301921","system_id":"levelo_inurba_marseille","lat":43.28362,"lon":5.3863,"is_reserved":false,"is_disabled":false,"rental_uris":{"android":"levelo://app?vid=0e8b8305-7b77-4340-9faa-83a4dc301921","ios":"levelo://app?vid=0e8b8305-7b77-4340-9faa-83a4dc301921"},"vehicle_type_id":"4","last_reported":1728583898,"current_range_meters":16800,"station_id":"ce4bh492rcd13ifvqdvg","pricing_plan_id":"cebpf4jnsgd1na2vs0mg"},{"bike_id":"a562589d-ef23-4da1-8f06-8dd5c89e7ebf","system_id":"levelo_inurba_marseille","lat":43.302842,"lon":5.368567,"is_reserved":false,"is_disabled":false,"rental_uris":{"android":"levelo://app?vid=a562589d-ef23-4da1-8f06-8dd5c89e7ebf","ios":"levelo://app?vid=a562589d-ef23-4da1-8f06-8dd5c89e7ebf"},"vehicle_type_id":"4","last_reported":1728583898,"current_range_meters":14400,"station_id":"ce4bgqh2rcd13ifvqc5g","pricing_plan_id":"cebpf4jnsgd1na2vs0mg"},{"bike_id":"04424ced-cef1-4da1-905f-898ad275f10e","system_id":"levelo_inurba_marseille","lat":43.25084,"lon":5.39529,"is_reserved":false,"is_disabled":false,"rental_uris":{"android":"levelo://app?vid=04424ced-cef1-4da1-905f-898ad275f10e","ios":"levelo://app?vid=04424ced-cef1-4da1-905f-898ad275f10e"},"vehicle_type_id":"4","last_reported":1728583898,"current_range_meters":14800,"station_id":"ce4bhm12rcd13ifvqgkg","pricing_plan_id":"cebpf4jnsgd1na2vs0mg"},{"bike_id":"4dd3c32e-e266-48b3-9818-a81951ae46fb","system_id":"levelo_inurba_marseille","lat":43.24659,"lon":5.38171,"is_reserved":false,"is_disabled":false,"rental_uris":{"android":"levelo://app?vid=4dd3c32e-e266-48b3-9818-a81951ae46fb","ios":"levelo://app?vid=4dd3c32e-e266-48b3-9818-a81951ae46fb"},"vehicle_type_id":"4","last_reported":1728583898,"current_range_meters":22800,"station_id":"ce4bhih2rcd13ifvqfr0","pricing_plan_id":"cebpf4jnsgd1na2vs0mg"},{"bike_id":"f502d691-988a-418b-aa02-fef449f95ccb","system_id":"levelo_inurba_marseille","lat":43.26935,"lon":5.38921,"is_reserved":false,"is_disabled":false,"rental_uris":{"android":"levelo://app?vid=f502d691-988a-418b-aa02-fef449f95ccb","ios":"levelo://app?vid=f502d691-988a-418b-aa02-fef449f95ccb"},"vehicle_type_id":"4","last_reported":1728583898,"current_range_meters":36800,"station_id":"ce4bhhh2rcd13ifvqfl0","pricing_plan_id":"cebpf4jnsgd1na2vs0mg"},{"bike_id":"1df745c9-7d60-48ee-8d04-4e7d247b5fcc","system_id":"levelo_inurba_marseille","lat":43.28151,"lon":5.42631,"is_reserved":false,"is_disabled":false,"rental_uris":{"android":"levelo://app?vid=1df745c9-7d60-48ee-8d04-4e7d247b5fcc","ios":"levelo://app?vid=1df745c9-7d60-48ee-8d04-4e7d247b5fcc"},"vehicle_type_id":"4","last_reported":1728583898,"current_range_meters":2800,"station_id":"ce4bhnh2rcd13ifvqgug","pricing_plan_id":"cebpf4jnsgd1na2vs0mg"},{"bike_id":"2a466383-24a3-4904-bba7-854c29b593e4","system_id":"levelo_inurba_marseille","lat":43.29848,"lon":5.36274,"is_reserved":false,"is_disabled":false,"rental_uris":{"android":"levelo://app?vid=2a466383-24a3-4904-bba7-854c29b593e4","ios":"levelo://app?vid=2a466383-24a3-4904-bba7-854c29b593e4"},"vehicle_type_id":"4","last_reported":1728583898,"current_range_meters":18000,"station_id":"ce4bgpp2rcd13ifvqc3g","pricing_plan_id":"cebpf4jnsgd1na2vs0mg"},{"bike_id":"767526be-82ff-4621-a55b-4ed24f3aea9f","system_id":"levelo_inurba_marseille","lat":43.29257,"lon":5.38434,"is_reserved":false,"is_disabled":false,"rental_uris":{"android":"levelo://app?vid=767526be-82ff-4621-a55b-4ed24f3aea9f","ios":"levelo://app?vid=767526be-82ff-4621-a55b-4ed24f3aea9f"},"vehicle_type_id":"4","last_reported":1728583898,"current_range_meters":3600,"station_id":"ce4bh692rcd13ifvqea0","pricing_plan_id":"cebpf4jnsgd1na2vs0mg"},{"bike_id":"ff370754-0e1a-42a8-aad5-62ea4d51412b","system_id":"levelo_inurba_marseille","lat":43.31754,"lon":5.39028,"is_reserved":false,"is_disabled":false,"rental_uris":{"android":"levelo://app?vid=ff370754-0e1a-42a8-aad5-62ea4d51412b","ios":"levelo://app?vid=ff370754-0e1a-42a8-aad5-62ea4d51412b"},"vehicle_type_id":"4","last_reported":1728583898,"current_range_meters":27600,"station_id":"ce4bhqp2rcd13ifvqhng","pricing_plan_id":"cebpf4jnsgd1na2vs0mg"},{"bike_id":"72545255-892c-499a-bf5a-7c426b7f1057","system_id":"levelo_inurba_marseille","lat":43.28458,"lon":5.35893,"is_reserved":false,"is_disabled":false,"rental_uris":{"android":"levelo://app?vid=72545255-892c-499a-bf5a-7c426b7f1057","ios":"levelo://app?vid=72545255-892c-499a-bf5a-7c426b7f1057"},"vehicle_type_id":"4","last_reported":1728583898,"current_range_meters":3600,"station_id":"ce4bhah2rcd13ifvqei0","pricing_plan_id":"cebpf4jnsgd1na2vs0mg"},{"bike_id":"60aa31d1-2cfd-47bf-86ba-85d833f6f955","system_id":"levelo_inurba_marseille","lat":43.27066,"lon":5.42284,"is_reserved":false,"is_disabled":false,"rental_uris":{"android":"levelo://app?vid=60aa31d1-2cfd-47bf-86ba-85d833f6f955","ios":"levelo://app?vid=60aa31d1-2cfd-47bf-86ba-85d833f6f955"},"vehicle_type_id":"4","last_reported":1728583898,"current_range_meters":20000,"station_id":"ce4bhk92rcd13ifvqgb0","pricing_plan_id":"cebpf4jnsgd1na2vs0mg"},{"bike_id":"49c27e4c-5f26-47ed-ac1f-61c2758c9ff3","system_id":"levelo_inurba_marseille","lat":43.29897,"lon":5.43671,"is_reserved":false,"is_disabled":false,"rental_uris":{"android":"levelo://app?vid=49c27e4c-5f26-47ed-ac1f-61c2758c9ff3","ios":"levelo://app?vid=49c27e4c-5f26-47ed-ac1f-61c2758c9ff3"},"vehicle_type_id":"4","last_reported":1728583898,"current_range_meters":24000,"station_id":"ce4bhpp2rcd13ifvqhfg","pricing_plan_id":"cebpf4jnsgd1na2vs0mg"},{"bike_id":"07d95d33-42ae-4ff6-b02a-40424f7059b9","system_id":"levelo_inurba_marseille","lat":43.33723,"lon":5.3919,"is_reserved":false,"is_disabled":false,"rental_uris":{"android":"levelo://app?vid=07d95d33-42ae-4ff6-b02a-40424f7059b9","ios":"levelo://app?vid=07d95d33-42ae-4ff6-b02a-40424f7059b9"},"vehicle_type_id":"4","last_reported":1728583898,"current_range_meters":12400,"station_id":"ce4bhr92rcd13ifvqhsg","pricing_plan_id":"cebpf4jnsgd1na2vs0mg"},{"bike_id":"d7b53285-c0ea-479b-95ed-f08633646462","system_id":"levelo_inurba_marseille","lat":43.28037,"lon":5.36955,"is_reserved":false,"is_disabled":false,"rental_uris":{"android":"levelo://app?vid=d7b53285-c0ea-479b-95ed-f08633646462","ios":"levelo://app?vid=d7b53285-c0ea-479b-95ed-f08633646462"},"vehicle_type_id":"4","last_reported":1728583898,"current_range_meters":38800,"station_id":"ce4bha12rcd13ifvqef0","pricing_plan_id":"cebpf4jnsgd1na2vs0mg"},{"bike_id":"a6393f25-3f35-402e-aab6-a6d42b3dcb39","system_id":"levelo_inurba_marseille","lat":43.23198,"lon":5.35549,"is_reserved":false,"is_disabled":false,"rental_uris":{"android":"levelo://app?vid=a6393f25-3f35-402e-aab6-a6d42b3dcb39","ios":"levelo://app?vid=a6393f25-3f35-402e-aab6-a6d42b3dcb39"},"vehicle_type_id":"4","last_reported":1728583898,"current_range_meters":28800,"station_id":"ce4bhu92rcd13ifvqi70","pricing_plan_id":"cebpf4jnsgd1na2vs0mg"},{"bike_id":"de287cdb-78e1-4a94-ac17-376eac436600","system_id":"levelo_inurba_marseille","lat":43.24647,"lon":5.38893,"is_reserved":false,"is_disabled":false,"rental_uris":{"android":"levelo://app?vid=de287cdb-78e1-4a94-ac17-376eac436600","ios":"levelo://app?vid=de287cdb-78e1-4a94-ac17-376eac436600"},"vehicle_type_id":"4","last_reported":1728583898,"current_range_meters":25200,"station_id":"ce4bhg12rcd13ifvqf60","pricing_plan_id":"cebpf4jnsgd1na2vs0mg"},{"bike_id":"f2aed75c-b571-4a98-80aa-d52b9dc28daf","system_id":"levelo_inurba_marseille","lat":43.23059,"lon":5.3549,"is_reserved":false,"is_disabled":false,"rental_uris":{"android":"levelo://app?vid=f2aed75c-b571-4a98-80aa-d52b9dc28daf","ios":"levelo://app?vid=f2aed75c-b571-4a98-80aa-d52b9dc28daf"},"vehicle_type_id":"4","last_reported":1728583898,"current_range_meters":26800,"station_id":"cpo3342slgdg3j2ifvpg","pricing_plan_id":"cebpf4jnsgd1na2vs0mg"},{"bike_id":"9bd93412-6f3a-4572-9446-f4da0f8a3da8","system_id":"levelo_inurba_marseille","lat":43.24653,"lon":5.38891,"is_reserved":false,"is_disabled":false,"rental_uris":{"android":"levelo://app?vid=9bd93412-6f3a-4572-9446-f4da0f8a3da8","ios":"levelo://app?vid=9bd93412-6f3a-4572-9446-f4da0f8a3da8"},"vehicle_type_id":"4","last_reported":1728583898,"current_range_meters":38800,"station_id":"ce4bhg12rcd13ifvqf60","pricing_plan_id":"cebpf4jnsgd1na2vs0mg"},{"bike_id":"f7cfdbf1-68fe-4df9-84ac-19e9e5c14631","system_id":"levelo_inurba_marseille","lat":43.23189,"lon":5.39979,"is_reserved":false,"is_disabled":false,"rental_uris":{"android":"levelo://app?vid=f7cfdbf1-68fe-4df9-84ac-19e9e5c14631","ios":"levelo://app?vid=f7cfdbf1-68fe-4df9-84ac-19e9e5c14631"},"vehicle_type_id":"4","last_reported":1728583898,"current_range_meters":30800,"station_id":"ce4bhn12rcd13ifvqgqg","pricing_plan_id":"cebpf4jnsgd1na2vs0mg"},{"bike_id":"f6f546b9-0768-435c-804f-f566003a2a3a","system_id":"levelo_inurba_marseille","lat":43.27054,"lon":5.40266,"is_reserved":false,"is_disabled":false,"rental_uris":{"android":"levelo://app?vid=f6f546b9-0768-435c-804f-f566003a2a3a","ios":"levelo://app?vid=f6f546b9-0768-435c-804f-f566003a2a3a"},"vehicle_type_id":"4","last_reported":1728583898,"current_range_meters":14400,"station_id":"ce4bhk92rcd13ifvqgc0","pricing_plan_id":"cebpf4jnsgd1na2vs0mg"},{"bike_id":"1f23150d-0194-49ca-8d0e-fbc98d557432","system_id":"levelo_inurba_marseille","lat":43.31481,"lon":5.37312,"is_reserved":false,"is_disabled":false,"rental_uris":{"android":"levelo://app?vid=1f23150d-0194-49ca-8d0e-fbc98d557432","ios":"levelo://app?vid=1f23150d-0194-49ca-8d0e-fbc98d557432"},"vehicle_type_id":"4","last_reported":1728583898,"current_range_meters":24000,"station_id":"ce4bgt12rcd13ifvqcd0","pricing_plan_id":"cebpf4jnsgd1na2vs0mg"},{"bike_id":"87028750-433d-4b53-8a2f-6e9378336727","system_id":"levelo_inurba_marseille","lat":43.32366,"lon":5.38881,"is_reserved":false,"is_disabled":false,"rental_uris":{"android":"levelo://app?vid=87028750-433d-4b53-8a2f-6e9378336727","ios":"levelo://app?vid=87028750-433d-4b53-8a2f-6e9378336727"},"vehicle_type_id":"4","last_reported":1728583898,"current_range_meters":7200,"station_id":"ce4bhqp2rcd13ifvqhog","pricing_plan_id":"cebpf4jnsgd1na2vs0mg"},