{"last_updated":1725030544,"ttl":30,"version":"2.2","data":{"bikes":[{"bike_id":"e42003b1-8735-457b-9dbd-3cc2e82aeac6","system_id":"levelo_inurba_marseille","lat":43.309076,"lon":5.368465,"is_reserved":false,"is_disabled":false,"rental_uris":{"android":"levelo://app?vid=e42003b1-8735-457b-9dbd-3cc2e82aeac6","ios":"levelo://app?vid=e42003b1-8735-457b-9dbd-3cc2e82aeac6"},"vehicle_type_id":"4","last_reported":1725030544,"current_range_meters":31200,"station_id":"ce4bgn92rcd13ifvqbvg","pricing_plan_id":"cebpf4jnsgd1na2vs0mg"},{"bike_id":"be5705fb-95f4-4143-8e20-44e938ac82a9","system_id":"levelo_inurba_marseille","lat":43.30913,"lon":5.36845,"is_reserved":false,"is_disabled":false,"rental_uris":{"android":"levelo://app?vid=be5705fb-95f4-4143-8e20-44e938ac82a9","ios":"levelo://app?vid=be5705fb-95f4-4143-8e20-44e938ac82a9"},"vehicle_type_id":"4","last_reported":1725030544,"current_range_meters":22400,"station_id":"ce4bgn92rcd13ifvqbvg","pricing_plan_id":"cebpf4jnsgd1na2vs0mg"},{"bike_id":"0b3faeb0-4eee-408a-a0fd-db80bcf1fe89","system_id":"levelo_inurba_marseille","lat":43.309076,"lon":5.368465,"is_reserved":false,"is_disabled":false,"rental_uris":{"android":"levelo://app?vid=0b3faeb0-4eee-408a-a0fd-db80bcf1fe89","ios":"levelo://app?vid=0b3faeb0-4eee-408a-a0fd-db80bcf1fe89"},"vehicle_type_id":"4","last_reported":1725030544,"current_range_meters":25200,"station_id":"ce4bgn92rcd13ifvqbvg","pricing_plan_id":"cebpf4jnsgd1na2vs0mg"},{"bike_id":"901dea50-f35c-40bb-9863-e2411154d739","system_id":"levelo_inurba_marseille","lat":43.30906,"lon":5.36855,"is_reserved":false,"is_disabled":false,"rental_uris":{"android":"levelo://app?vid=901dea50-f35c-40bb-9863-e2411154d739","ios":"levelo://app?vid=901dea50-f35c-40bb-9863-e2411154d739"},"vehicle_type_id":"4","last_reported":1725030544,"current_range_meters":19200,"station_id":"ce4bgn92rcd13ifvqbvg","pricing_plan_id":"cebpf4jnsgd1na2vs0mg"},{"bike_id":"afcfa5dc-1a08-4b4b-a148-618c0c8a58c3","system_id":"levelo_inurba_marseille","lat":43.314811,"lon":5.373103,"is_reserved":false,"is_disabled":false,"rental_uris":{"android":"levelo://app?vid=afcfa5dc-1a08-4b4b-a148-618c0c8a58c3","ios":"levelo://app?vid=afcfa5dc-1a08-4b4b-a148-618c0c8a58c3"},"vehicle_type_id":"4","last_reported":1725030544,"current_range_meters":25600,"station_id":"ce4bgt12rcd13ifvqcd0","pricing_plan_id":"cebpf4jnsgd1na2vs0mg"},{"bike_id":"c7d28cc5-8a26-4c17-b714-e8aa87d023e8","system_id":"levelo_inurba_marseille","lat":43.31489,"lon":5.37306,"is_reserved":false,"is_disabled":false,"rental_uris":{"android":"levelo://app?vid=c7d28cc5-8a26-4c17-b714-e8aa87d023e8","ios":"levelo://app?vid=c7d28cc5-8a26-4c17-b714-e8aa87d023e8"},"vehicle_type_id":"4","last_reported":1725030544,"current_range_meters":26000,"station_id":"ce4bgt12rcd13ifvqcd0","pricing_plan_id":"cebpf4jnsgd1na2vs0mg"},{"bike_id":"63527db1-9e8b-44ae-9b14-f75c5d37e021","system_id":"levelo_inurba_marseille","lat":43.314811,"lon":5.373103,"is_reserved":false,"is_disabled":false,"rental_uris":{"android":"levelo://app?vid=63527db1-9e8b-44ae-9b14-f75c5d37e021","ios":"levelo://app?vid=63527db1-9e8b-44ae-9b14-f75c5d37e021"},"vehicle_type_id":"4","last_reported":1725030544,"current_range_meters":6000,"station_id":"ce4bgt12rcd13ifvqcd0","pricing_plan_id":"cebpf4jnsgd1na2vs0mg"},{"bike_id":"86847f4d-44fe-4833-a0e6-7bfc7f096062","system_id":"levelo_inurba_marseille","lat":43.31495,"lon":5.37303,"is_reserved":false,"is_disabled":false,"rental_uris":{"android":"levelo://app?vid=86847f4d-44fe-4833-a0e6-7bfc7f096062","ios":"levelo://app?vid=86847f4d-44fe-4833-a0e6-7bfc7f096062"},"vehicle_type_id":"4","last_reported":1725030544,"current_range_meters":15600,"station_id":"ce4bgt12rcd13ifvqcd0","pricing_plan_id":"cebpf4jnsgd1na2vs0mg"},{"bike_id":"bdd76907-b088-49fa-9fba-fdf44e1dbfa7","system_id":"levelo_inurba_marseille","lat":43.309039,"lon":5.371797,"is_reserved":false,"is_disabled":false,"rental_uris":{"android":"levelo://app?vid=bdd76907-b088-49fa-9fba-fdf44e1dbfa7","ios":"levelo://app?vid=bdd76907-b088-49fa-9fba-fdf44e1dbfa7"},"vehicle_type_id":"4","last_reported":1725030544,"current_range_meters":11600,"station_id":"ce4bguh2rcd13ifvqckg","pricing_plan_id":"cebpf4jnsgd1na2vs0mg"},{"bike_id":"de47a020-7725-4aee-b894-578451ded093","system_id":"levelo_inurba_marseille","lat":43.309039,"lon":5.371797,"is_reserved":false,"is_disabled":false,"rental_uris":{"android":"levelo://app?vid=de47a020-7725-4aee-b894-578451ded093","ios":"levelo://app?vid=de47a020-7725-4aee-b894-578451ded093"},"vehicle_type_id":"4","last_reported":1725030544,"current_range_meters":31600,"station_id":"ce4bguh2rcd13ifvqckg","pricing_plan_id":"cebpf4jnsgd1na2vs0mg"},{"bike_id":"d4a078af-7a9c-4154-a2db-9809223fc382","system_id":"levelo_inurba_marseille","lat":43.309034,"lon":5.371783,"is_reserved":false,"is_disabled":false,"rental_uris":{"android":"levelo://app?vid=d4a078af-7a9c-4154-a2db-9809223fc382","ios":"levelo://app?vid=d4a078af-7a9c-4154-a2db-9809223fc382"},"vehicle_type_id":"4","last_reported":1725030544,"current_range_meters":8000,"station_id":"ce4bguh2rcd13ifvqckg","pricing_plan_id":"cebpf4jnsgd1na2vs0mg"},{"bike_id":"88c8f588-d9a3-4b1d-b9e4-a4d375b498e2","system_id":"levelo_inurba_marseille","lat":43.309034,"lon":5.371783,"is_reserved":false,"is_disabled":false,"rental_uris":{"android":"levelo://app?vid=88c8f588-d9a3-4b1d-b9e4-a4d375b498e2","ios":"levelo://app?vid=88c8f588-d9a3-4b1d-b9e4-a4d375b498e2"},"vehicle_type_id":"4","last_reported":1725030544,"current_range_meters":27600,"station_id":"ce4bguh2rcd13ifvqckg","pricing_plan_id":"cebpf4jnsgd1na2vs0mg"},{"bike_id":"6c15e696-b91c-4c86-b76c-314d3fedea64","system_id":"levelo_inurba_marseille","lat":43.305505,"lon":5.366783,"is_reserved":false,"is_disabled":false,"rental_uris":{"android":"levelo://app?vid=6c15e696-b91c-4c86-b76c-314d3fedea64","ios":"levelo://app?vid=6c15e696-b91c-4c86-b76c-314d3fedea64"},"vehicle_type_id":"4","last_reported":1725030544,"current_range_meters":29200,"station_id":"ce4bgrp2rcd13ifvqc9g","pricing_plan_id":"cebpf4jnsgd1na2vs0mg"},{"bike_id":"c9a79af3-05ac-4bfe-984d-92191f13df46","system_id":"levelo_inurba_marseille","lat":43.30537,"lon":5.367345,"is_reserved":false,"is_disabled":false,"rental_uris":{"android":"levelo://app?vid=c9a79af3-05ac-4bfe-984d-92191f13df46","ios":"levelo://app?vid=c9a79af3-05ac-4bfe-984d-92191f13df46"},"vehicle_type_id":"4","last_reported":1725030544,"current_range_meters":22400,"station_id":"ce4bgrp2rcd13ifvqc9g","pricing_plan_id":"cebpf4jnsgd1na2vs0mg"},{"bike_id":"b6b2166d-8d27-4f7d-a290-fc2ba3bec066","system_id":"levelo_inurba_marseille","lat":43.30543,"lon":5.36707,"is_reserved":false,"is_disabled":false,"rental_uris":{"android":"levelo://app?vid=b6b2166d-8d27-4f7d-a290-fc2ba3bec066","ios":"levelo://app?vid=b6b2166d-8d27-4f7d-a290-fc2ba3bec066"},"vehicle_type_id":"4","last_reported":1725030544,"current_range_meters":24800,"station_id":"ce4bgrp2rcd13ifvqc9g","pricing_plan_id":"cebpf4jnsgd1na2vs0mg"},{"bike_id":"15b7895d-2bc3-4c35-91d9-8d9c003eb8ff","system_id":"levelo_inurba_marseille","lat":43.305368,"lon":5.367343,"is_reserved":false,"is_disabled":false,"rental_uris":{"android":"levelo://app?vid=15b7895d-2bc3-4c35-91d9-8d9c003eb8ff","ios":"levelo://app?vid=15b7895d-2bc3-4c35-91d9-8d9c003eb8ff"},"vehicle_type_id":"4","last_reported":1725030544,"current_range_meters":14800,"station_id":"ce4bgrp2rcd13ifvqc9g","pricing_plan_id":"cebpf4jnsgd1na2vs0mg"},{"bike_id":"f865586b-1a44-495e-a1f6-7c93e0ef692b","system_id":"levelo_inurba_marseille","lat":43.30541,"lon":5.36549,"is_reserved":false,"is_disabled":false,"rental_uris":{"android":"levelo://app?vid=f865586b-1a44-495e-a1f6-7c93e0ef692b","ios":"levelo://app?vid=f865586b-1a44-495e-a1f6-7c93e0ef692b"},"vehicle_type_id":"4","last_reported":1725030544,"current_range_meters":0,"station_id":"ce4bgs12rcd13ifvqcag","pricing_plan_id":"cebpf4jnsgd1na2vs0mg"},{"bike_id":"d01f7521-aea3-49bc-a3f9-f2417aafccec","system_id":"levelo_inurba_marseille","lat":43.30603,"lon":5.37232,"is_reserved":false,"is_disabled":false,"rental_uris":{"android":"levelo://app?vid=d01f7521-aea3-49bc-a3f9-f2417aafccec","ios":"levelo://app?vid=d01f7521-aea3-49bc-a3f9-f2417aafccec"},"vehicle_type_id":"4","last_reported":1725030544,"current_range_meters":0,"station_id":"ce4bgqh2rcd13ifvqc4g","pricing_plan_id":"cebpf4jnsgd1na2vs0mg"},{"bike_id":"c7a556d5-a488-42aa-82fa-2b917181faea","system_id":"levelo_inurba_marseille","lat":43.311125,"lon":5.377624,"is_reserved":false,"is_disabled":false,"rental_uris":{"android":"levelo://app?vid=c7a556d5-a488-42aa-82fa-2b917181faea","ios":"levelo://app?vid=c7a556d5-a488-42aa-82fa-2b917181faea"},"vehicle_type_id":"4","last_reported":1725030544,"current_range_meters":28000,"station_id":"ce4bgt92rcd13ifvqcg0","pricing_plan_id":"cebpf4jnsgd1na2vs0mg"},{"bike_id":"405fcade-0a19-4554-8447-1c1eabecc69b","system_id":"levelo_inurba_marseille","lat":43.31121,"lon":5.377745,"is_reserved":false,"is_disabled":false,"rental_uris":{"android":"levelo://app?vid=405fcade-0a19-4554-8447-1c1eabecc69b","ios":"levelo://app?vid=405fcade-0a19-4554-8447-1c1eabecc69b"},"vehicle_type_id":"4","last_reported":1725030544,"current_range_meters":14800,"station_id":"ce4bgt92rcd13ifvqcg0","pricing_plan_id":"cebpf4jnsgd1na2vs0mg"},{"bike_id":"81a29471-144e-4c2c-b009-687e93ac0b60","system_id":"levelo_inurba_marseille","lat":43.3169,"lon":5.37671,"is_reserved":false,"is_disabled":false,"rental_uris":{"android":"levelo://app?vid=81a29471-144e-4c2c-b009-687e93ac0b60","ios":"levelo://app?vid=81a29471-144e-4c2c-b009-687e93ac0b60"},"vehicle_type_id":"4","last_reported":1725030544,"current_range_meters":5600,"station_id":"","pricing_plan_id":"cebpf4jnsgd1na2vs0mg"},{"bike_id":"4cae7d97-943a-43e2-b8ad-ad822d393ed4","system_id":"levelo_inurba_marseille","lat":43.307945,"lon":5.376487,"is_reserved":false,"is_disabled":false,"rental_uris":{"android":"levelo://app?vid=4cae7d97-943a-43e2-b8ad-ad822d393ed4","ios":"levelo://app?vid=4cae7d97-943a-43e2-b8ad-ad822d393ed4"},"vehicle_type_id":"4","last_reported":1725030544,"current_range_meters":15200,"station_id":"ce4bgv92rcd13ifvqcq0","pricing_plan_id":"cebpf4jnsgd1na2vs0mg"},{"bike_id":"b2c94df2-7a35-47c1-8012-51b87e837882","system_id":"levelo_inurba_marseille","lat":43.31708,"lon":5.37752,"is_reserved":false,"is_disabled":false,"rental_uris":{"android":"levelo://app?vid=b2c94df2-7a35-47c1-8012-51b87e837882","ios":"levelo://app?vid=b2c94df2-7a35-47c1-8012-51b87e837882"},"vehicle_type_id":"4","last_reported":1725030544,"current_range_meters":0,"station_id":"ce4bgth2rcd13ifvqch0","pricing_plan_id":"cebpf4jnsgd1na2vs0mg"},{"bike_id":"121f667c-73f3-4f23-8da2-6af63c6d5464","system_id":"levelo_inurba_marseille","lat":43.317029,"lon":5.377579,"is_reserved":false,"is_disabled":false,"rental_uris":{"android":"levelo://app?vid=121f667c-73f3-4f23-8da2-6af63c6d5464","ios":"levelo://app?vid=121f667c-73f3-4f23-8da2-6af63c6d5464"},"vehicle_type_id":"4","last_reported":1725030544,"current_range_meters":1200,"station_id":"ce4bgth2rcd13ifvqch0","pricing_plan_id":"cebpf4jnsgd1na2vs0mg"},{"bike_id":"d506e799-5710-4c66-9f02-15b74993c60c","system_id":"levelo_inurba_marseille","lat":43.31205,"lon":5.37945,"is_reserved":false,"is_disabled":false,"rental_uris":{"android":"levelo://app?vid=d506e799-5710-4c66-9f02-15b74993c60c","ios":"levelo://app?vid=d506e799-5710-4c66-9f02-15b74993c60c"},"vehicle_type_id":"4","last_reported":1725030544,"current_range_meters":19200,"station_id":"","pricing_plan_id":"cebpf4jnsgd1na2vs0mg"},{"bike_id":"b267ce73-4a9e-4167-a3c0-6ef467297da4","system_id":"levelo_inurba_marseille","lat":43.30304,"lon":5.368987,"is_reserved":false,"is_disabled":false,"rental_uris":{"android":"levelo://app?vid=b267ce73-4a9e-4167-a3c0-6ef467297da4","ios":"levelo://app?vid=b267ce73-4a9e-4167-a3c0-6ef467297da4"},"vehicle_type_id":"4","last_reported":1725030544,"current_range_meters":22400,"station_id":"ce4bgqh2rcd13ifvqc5g","pricing_plan_id":"cebpf4jnsgd1na2vs0mg"},{"bike_id":"7292e9ca-dbdb-4555-a414-9b5abb903015","system_id":"levelo_inurba_marseille","lat":43.303046,"lon":5.368981,"is_reserved":false,"is_disabled":false,"rental_uris":{"android":"levelo://app?vid=7292e9ca-dbdb-4555-a414-9b5abb903015","ios":"levelo://app?vid=7292e9ca-dbdb-4555-a414-9b5abb903015"},"vehicle_type_id":"4","last_reported":1725030544,"current_range_meters":8400,"station_id":"ce4bgqh2rcd13ifvqc5g","pricing_plan_id":"cebpf4jnsgd1na2vs0mg"},{"bike_id":"bb0299e4-0bcb-4361-a821-42885ab6cc38","system_id":"levelo_inurba_marseille","lat":43.303046,"lon":5.368981,"is_reserved":false,"is_disabled":false,"rental_uris":{"android":"levelo://app?vid=bb0299e4-0bcb-4361-a821-42885ab6cc38","ios":"levelo://app?vid=bb0299e4-0bcb-4361-a821-42885ab6cc38"},"vehicle_type_id":"4","last_reported":1725030544,"current_range_meters":0,"station_id":"ce4bgqh2rcd13ifvqc5g","pricing_plan_id":"cebpf4jnsgd1na2vs0mg"},{"bike_id":"83ad24c0-dcc2-4074-84a7-0b26645f8207","system_id":"levelo_inurba_marseille","lat":43.315289,"lon":5.380349,"is_reserved":false,"is_disabled":false,"rental_uris":{"android":"levelo://app?vid=83ad24c0-dcc2-4074-84a7-0b26645f8207","ios":"levelo://app?vid=83ad24c0-dcc2-4074-84a7-0b26645f8207"},"vehicle_type_id":"4","last_reported":1725030544,"current_range_meters":23200,"station_id":"ce4bhsp2rcd13ifvqi50","pricing_plan_id":"cebpf4jnsgd1na2vs0mg"},{"bike_id":"584198fe-2c4c-4ba9-be0f-257a037ba941","system_id":"levelo_inurba_marseille","lat":43.324771,"lon":5.36557,"is_reserved":false,"is_disabled":false,"rental_uris":{"android":"levelo://app?vid=584198fe-2c4c-4ba9-be0f-257a037ba941","ios":"levelo://app?vid=584198fe-2c4c-4ba9-be0f-257a037ba941"},"vehicle_type_id":"4","last_reported":1725030544,"current_range_meters":18000,"station_id":"ce4bhs12rcd13ifvqhvg","pricing_plan_id":"cebpf4jnsgd1na2vs0mg"},{"bike_id":"6427e6d6-e4a5-4778-ba0f-7f0e55b183e3","system_id":"levelo_inurba_marseille","lat":43.30467,"lon":5.37903,"is_reserved":false,"is_disabled":false,"rental_uris":{"android":"levelo://app?vid=6427e6d6-e4a5-4778-ba0f-7f0e55b183e3","ios":"levelo://app?vid=6427e6d6-e4a5-4778-ba0f-7f0e55b183e3"},"vehicle_type_id":"4","last_reported":1725030544,"current_range_meters":0,"station_id":"ce4bgup2rcd13ifvqcn0","pricing_plan_id":"cebpf4jnsgd1na2vs0mg"},{"bike_id":"9c88b328-62fe-47d8-afbf-929f9fa6aa57","system_id":"levelo_inurba_marseille","lat":43.324811,"lon":5.365734,"is_reserved":false,"is_disabled":false,"rental_uris":{"android":"levelo://app?vid=9c88b328-62fe-47d8-afbf-929f9fa6aa57","ios":"levelo://app?vid=9c88b328-62fe-47d8-afbf-929f9fa6aa57"},"vehicle_type_id":"4","last_reported":1725030544,"current_range_meters":16400,"station_id":"ce4bhs12rcd13ifvqhvg","pricing_plan_id":"cebpf4jnsgd1na2vs0mg"},{"bike_id":"b39a0a2d-cf4b-4b71-a462-218c84d2983c","system_id":"levelo_inurba_marseille","lat":43.324811,"lon":5.365722,"is_reserved":false,"is_disabled":false,"rental_uris":{"android":"levelo://app?vid=b39a0a2d-cf4b-4b71-a462-218c84d2983c","ios":"levelo://app?vid=b39a0a2d-cf4b-4b71-a462-218c84d2983c"},"vehicle_type_id":"4","last_reported":1725030544,"current_range_meters":9600,"station_id":"ce4bhs12rcd13ifvqhvg","pricing_plan_id":"cebpf4jnsgd1na2vs0mg"},{"bike_id":"737e825e-3aff-465a-a647-b74ed357f018","system_id":"levelo_inurba_marseille","lat":43.324771,"lon":5.36557,"is_reserved":false,"is_disabled":false,"rental_uris":{"android":"levelo://app?vid=737e825e-3aff-465a-a647-b74ed357f018","ios":"levelo://app?vid=737e825e-3aff-465a-a647-b74ed357f018"},"vehicle_type_id":"4","last_reported":1725030544,"current_range_meters":26400,"station_id":"ce4bhs12rcd13ifvqhvg","pricing_plan_id":"cebpf4jnsgd1na2vs0mg"},{"bike_id":"394baa34-43e3-4bd0-b7f6-034c03637f5b","system_id":"levelo_inurba_marseille","lat":43.324771,"lon":5.36557,"is_reserved":false,"is_disabled":false,"rental_uris":{"android":"levelo://app?vid=394baa34-43e3-4bd0-b7f6-034c03637f5b","ios":"levelo://app?vid=394baa34-43e3-4bd0-b7f6-034c03637f5b"},"vehicle_type_id":"4","last_reported":1725030544,"current_range_meters":31200,"station_id":"ce4bhs12rcd13ifvqhvg","pricing_plan_id":"cebpf4jnsgd1na2vs0mg"},{"bike_id":"317d3ff4-472c-4d6f-9b21-e7529d810659","system_id":"levelo_inurba_marseille","lat":43.324771,"lon":5.36557,"is_reserved":false,"is_disabled":false,"rental_uris":{"android":"levelo://app?vid=317d3ff4-472c-4d6f-9b21-e7529d810659","ios":"levelo://app?vid=317d3ff4-472c-4d6f-9b21-e7529d810659"},"vehicle_type_id":"4","last_reported":1725030544,"current_range_meters":2000,"station_id":"ce4bhs12rcd13ifvqhvg","pricing_plan_id":"cebpf4jnsgd1na2vs0mg"},{"bike_id":"1e519404-2498-413f-86f5-5b4e2261bd2a","system_id":"levelo_inurba_marseille","lat":43.310804,"lon":5.38359,"is_reserved":false,"is_disabled":false,"rental_uris":{"android":"levelo://app?vid=1e519404-2498-413f-86f5-5b4e2261bd2a","ios":"levelo://app?vid=1e519404-2498-413f-86f5-5b4e2261bd2a"},"vehicle_type_id":"4","last_reported":1725030544,"current_range_meters":13200,"station_id":"ce4bgv92rcd13ifvqcr0","pricing_plan_id":"cebpf4jnsgd1na2vs0mg"},{"bike_id":"f979f36b-bdb2-4890-8f77-ada43ed30f40","system_id":"levelo_inurba_marseille","lat":43.310804,"lon":5.38359,"is_reserved":false,"is_disabled":false,"rental_uris":{"android":"levelo://app?vid=f979f36b-bdb2-4890-8f77-ada43ed30f40","ios":"levelo://app?vid=f979f36b-bdb2-4890-8f77-ada43ed30f40"},"vehicle_type_id":"4","last_reported":1725030544,"current_range_meters":10000,"station_id":"ce4bgv92rcd13ifvqcr0","pricing_plan_id":"cebpf4jnsgd1na2vs0mg"},{"bike_id":"a6ce5cf9-a92b-4175-b1ff-17d188854e52","system_id":"levelo_inurba_marseille","lat":43.310804,"lon":5.38359,"is_reserved":false,"is_disabled":false,"rental_uris":{"android":"levelo://app?vid=a6ce5cf9-a92b-4175-b1ff-17d188854e52","ios":"levelo://app?vid=a6ce5cf9-a92b-4175-b1ff-17d188854e52"},"vehicle_type_id":"4","last_reported":1725030544,"current_range_meters":19600,"station_id":"ce4bgv92rcd13ifvqcr0","pricing_plan_id":"cebpf4jnsgd1na2vs0mg"},{"bike_id":"8bb47bfc-1453-472b-ae4e-141311d1fd9f","system_id":"levelo_inurba_marseille","lat":43.301429,"lon":5.37413,"is_reserved":false,"is_disabled":false,"rental_uris":{"android":"levelo://app?vid=8bb47bfc-1453-472b-ae4e-141311d1fd9f","ios":"levelo://app?vid=8bb47bfc-1453-472b-ae4e-141311d1fd9f"},"vehicle_type_id":"4","last_reported":1725030544,"current_range_meters":6800,"station_id":"ce4bgs92rcd13ifvqcc0","pricing_plan_id":"cebpf4jnsgd1na2vs0mg"},{"bike_id":"ff8de418-aba5-46d8-82b3-14bbc739f9e4","system_id":"levelo_inurba_marseille","lat":43.30143,"lon":5.37413,"is_reserved":false,"is_disabled":false,"rental_uris":{"android":"levelo://app?vid=ff8de418-aba5-46d8-82b3-14bbc739f9e4","ios":"levelo://app?vid=ff8de418-aba5-46d8-82b3-14bbc739f9e4"},"vehicle_type_id":"4","last_reported":1725030544,"current_range_meters":29600,"station_id":"ce4bgs92rcd13ifvqcc0","pricing_plan_id":"cebpf4jnsgd1na2vs0mg"},{"bike_id":"6207c27f-7267-4f69-97f7-714a80cfa293","system_id":"levelo_inurba_marseille","lat":43.31984,"lon":5.38146,"is_reserved":false,"is_disabled":false,"rental_uris":{"android":"levelo://app?vid=6207c27f-7267-4f69-97f7-714a80cfa293","ios":"levelo://app?vid=6207c27f-7267-4f69-97f7-714a80cfa293"},"vehicle_type_id":"4","last_reported":1725030544,"current_range_meters":0,"station_id":"","pricing_plan_id":"cebpf4jnsgd1na2vs0mg"},{"bike_id":"eed7d355-3afe-4cb9-98a4-0c4a1483e4c2","system_id":"levelo_inurba_marseille","lat":43.319935,"lon":5.381699,"is_reserved":false,"is_disabled":false,"rental_uris":{"android":"levelo://app?vid=eed7d355-3afe-4cb9-98a4-0c4a1483e4c2","ios":"levelo://app?vid=eed7d355-3afe-4cb9-98a4-0c4a1483e4c2"},"vehicle_type_id":"4","last_reported":1725030544,"current_range_meters":16800,"station_id":"ce4bhr12rcd13ifvqhpg","pricing_plan_id":"cebpf4jnsgd1na2vs0mg"},{"bike_id":"5b8cf1be-49b8-4fa9-af3c-9576cf4d3996","system_id":"levelo_inurba_marseille","lat":43.319935,"lon":5.381699,"is_reserved":false,"is_disabled":false,"rental_uris":{"android":"levelo://app?vid=5b8cf1be-49b8-4fa9-af3c-9576cf4d3996","ios":"levelo://app?vid=5b8cf1be-49b8-4fa9-af3c-9576cf4d3996"},"vehicle_type_id":"4","last_reported":1725030544,"current_range_meters":11200,"station_id":"ce4bhr12rcd13ifvqhpg","pricing_plan_id":"cebpf4jnsgd1na2vs0mg"},{"bike_id":"17d48a27-3ded-4bd7-8490-bddfb1b3913f","system_id":"levelo_inurba_marseille","lat":43.313571,"lon":5.384829,"is_reserved":false,"is_disabled":false,"rental_uris":{"android":"levelo://app?vid=17d48a27-3ded-4bd7-8490-bddfb1b3913f","ios":"levelo://app?vid=17d48a27-3ded-4bd7-8490-bddfb1b3913f"},"vehicle_type_id":"4","last_reported":1725030544,"current_range_meters":3200,"station_id":"ce4bgt92rcd13ifvqcf0","pricing_plan_id":"cebpf4jnsgd1na2vs0mg"},{"bike_id":"cc3e4a6a-540b-4ae5-9c9f-fc5b3a68c127","system_id":"levelo_inurba_marseille","lat":43.299222,"lon":5.365554,"is_reserved":false,"is_disabled":false,"rental_uris":{"android":"levelo://app?vid=cc3e4a6a-540b-4ae5-9c9f-fc5b3a68c127","ios":"levelo://app?vid=cc3e4a6a-540b-4ae5-9c9f-fc5b3a68c127"},"vehicle_type_id":"4","last_reported":1725030544,"current_range_meters":21200,"station_id":"ce4bgm92rcd13ifvqbr0","pricing_plan_id":"cebpf4jnsgd1na2vs0mg"},{"bike_id":"73b95e77-0c64-45a3-8c48-39130d3b72f8","system_id":"levelo_inurba_marseille","lat":43.299724,"lon":5.371829,"is_reserved":false,"is_disabled":false,"rental_uris":{"android":"levelo://app?vid=73b95e77-0c64-45a3-8c48-39130d3b72f8","ios":"levelo://app?vid=73b95e77-0c64-45a3-8c48-39130d3b72f8"},"vehicle_type_id":"4","last_reported":1725030544,"current_range_meters":9600,"station_id":"ce4bgr92rcd13ifvqc7g","pricing_plan_id":"cebpf4jnsgd1na2vs0mg"},{"bike_id":"ddca04cd-c574-474e-ad7a-a99454cd9736","system_id":"levelo_inurba_marseille","lat":43.29992,"lon":5.3759,"is_reserved":false,"is_disabled":false,"rental_uris":{"android":"levelo://app?vid=ddca04cd-c574-474e-ad7a-a99454cd9736","ios":"levelo://app?vid=ddca04cd-c574-474e-ad7a-a99454cd9736"},"vehicle_type_id":"4","last_reported":1725030544,"current_range_meters":22400,"station_id":"","pricing_plan_id":"cebpf4jnsgd1na2vs0mg"},{"bike_id":"95864f4e-74d6-41e8-a0e8-0aca97a2f16f","system_id":"levelo_inurba_marseille","lat":43.305364,"lon":5.384119,"is_reserved":false,"is_disabled":false,"rental_uris":{"android":"levelo://app?vid=95864f4e-74d6-41e8-a0e8-0aca97a2f16f","ios":"levelo://app?vid=95864f4e-74d6-41e8-a0e8-0aca97a2f16f"},"vehicle_type_id":"4","last_reported":1725030544,"current_range_meters":13600,"station_id":"ce4bgg92rcd13ifvqb30","pricing_plan_id":"cebpf4jnsgd1na2vs0mg"},{"bike_id":"2bb1d6a7-5052-461e-a0ad-176bc8e8e9dd","system_id":"levelo_inurba_marseille","lat":43.31183,"lon":5.38711,"is_reserved":false,"is_disabled":false,"rental_uris":{"android":"levelo://app?vid=2bb1d6a7-5052-461e-a0ad-176bc8e8e9dd","ios":"levelo://app?vid=2bb1d6a7-5052-461e-a0ad-176bc8e8e9dd"},"vehicle_type_id":"4","last_reported":1725030544,"current_range_meters":0,"station_id":"ce4bgv12rcd13ifvqcp0","pricing_plan_id":"cebpf4jnsgd1na2vs0mg"},{"bike_id":"ca964045-35e3-4c5a-bba5-18f792bf96c8","system_id":"levelo_inurba_marseille","lat":43.31167,"lon":5.38717,"is_reserved":false,"is_disabled":false,"rental_uris":{"android":"levelo://app?vid=ca964045-35e3-4c5a-bba5-18f792bf96c8","ios":"levelo://app?vid=ca964045-35e3-4c5a-bba5-18f792bf96c8"},"vehicle_type_id":"4","last_reported":1725030544,"current_range_meters":0,"station_id":"ce4bgv12rcd13ifvqcp0","pricing_plan_id":"cebpf4jnsgd1na2vs0mg"},{"bike_id":"6efedb48-4f9c-4608-8a20-6a83bc80c371","system_id":"levelo_inurba_marseille","lat":43.311722,"lon":5.387247,"is_reserved":false,"is_disabled":false,"rental_uris":{"android":"levelo://app?vid=6efedb48-4f9c-4608-8a20-6a83bc80c371","ios":"levelo://app?vid=6efedb48-4f9c-4608-8a20-6a83bc80c371"},"vehicle_type_id":"4","last_reported":1725030544,"current_range_meters":16400,"station_id":"ce4bgv12rcd13ifvqcp0","pricing_plan_id":"cebpf4jnsgd1na2vs0mg"},{"bike_id":"7d9e0480-37fa-4742-aecb-d2fbd8b2f237","system_id":"levelo_inurba_marseille","lat":43.298433,"lon":5.362774,"is_reserved":false,"is_disabled":false,"rental_uris":{"android":"levelo://app?vid=7d9e0480-37fa-4742-aecb-d2fbd8b2f237","ios":"levelo://app?vid=7d9e0480-37fa-4742-aecb-d2fbd8b2f237"},"vehicle_type_id":"4","last_reported":1725030544,"current_range_meters":26400,"station_id":"ce4bgpp2rcd13ifvqc3g","pricing_plan_id":"cebpf4jnsgd1na2vs0mg"},{"bike_id":"45620409-6bf1-4e52-a778-233259f4b2f5","system_id":"levelo_inurba_marseille","lat":43.301417,"lon":5.3809,"is_reserved":false,"is_disabled":false,"rental_uris":{"android":"levelo://app?vid=45620409-6bf1-4e52-a778-233259f4b2f5","ios":"levelo://app?vid=45620409-6bf1-4e52-a778-233259f4b2f5"},"vehicle_type_id":"4","last_reported":1725030544,"current_range_meters":8000,"station_id":"ce4bgjp2rcd13ifvqbh0","pricing_plan_id":"cebpf4jnsgd1na2vs0mg"},{"bike_id":"c0ab6931-a1fc-4d9e-9bef-1d20493c1ff8","system_id":"levelo_inurba_marseille","lat":43.301417,"lon":5.3809,"is_reserved":false,"is_disabled":false,"rental_uris":{"android":"levelo://app?vid=c0ab6931-a1fc-4d9e-9bef-1d20493c1ff8","ios":"levelo://app?vid=c0ab6931-a1fc-4d9e-9bef-1d20493c1ff8"},"vehicle_type_id":"4","last_reported":1725030544,"current_range_meters":24800,"station_id":"ce4bgjp2rcd13ifvqbh0","pricing_plan_id":"cebpf4jnsgd1na2vs0mg"},{"bike_id":"cb73b66e-dfa6-4f93-80b9-a70c2f549e78","system_id":"levelo_inurba_marseille","lat":43.32294,"lon":5.38259,"is_reserved":false,"is_disabled":false,"rental_uris":{"android":"levelo://app?vid=cb73b66e-dfa6-4f93-80b9-a70c2f549e78","ios":"levelo://app?vid=cb73b66e-dfa6-4f93-80b9-a70c2f549e78"},"vehicle_type_id":"4","last_reported":1725030544,"current_range_meters":24000,"station_id":"ce4bhr12rcd13ifvqhqg","pricing_plan_id":"cebpf4jnsgd1na2vs0mg"},{"bike_id":"362c03bc-6a28-4cdb-8a8a-77181789a6ff","system_id":"levelo_inurba_marseille","lat":43.311722,"lon":5.387247,"is_reserved":false,"is_disabled":false,"rental_uris":{"android":"levelo://app?vid=362c03bc-6a28-4cdb-8a8a-77181789a6ff","ios":"levelo://app?vid=362c03bc-6a28-4cdb-8a8a-77181789a6ff"},"vehicle_type_id":"4","last_reported":1725030544,"current_range_meters":24800,"station_id":"ce4bgv12rcd13ifvqcp0","pricing_plan_id":"cebpf4jnsgd1na2vs0mg"},{"bike_id":"0a2e097d-4fe6-4331-9548-6f866bc3058c","system_id":"levelo_inurba_marseille","lat":43.29573,"lon":5.367355,"is_reserved":false,"is_disabled":false,"rental_uris":{"android":"levelo://app?vid=0a2e097d-4fe6-4331-9548-6f866bc3058c","ios":"levelo://app?vid=0a2e097d-4fe6-4331-9548-6f866bc3058c"},"vehicle_type_id":"4","last_reported":1725030544,"current_range_meters":15600,"station_id":"ce4bgph2rcd13ifvqc2g","pricing_plan_id":"cebpf4jnsgd1na2vs0mg"},{"bike_id":"d8f7857b-72f7-4244-95c5-3e4d315f5263","system_id":"levelo_inurba_marseille","lat":43.2993,"lon":5.38135,"is_reserved":false,"is_disabled":false,"rental_uris":{"android":"levelo://app?vid=d8f7857b-72f7-4244-95c5-3e4d315f5263","ios":"levelo://app?vid=d8f7857b-72f7-4244-95c5-3e4d315f5263"},"vehicle_type_id":"4","last_reported":1725030544,"current_range_meters":16400,"station_id":"","pricing_plan_id":"cebpf4jnsgd1na2vs0mg"},{"bike_id":"37530926-59f3-4d35-8611-8cbca3a1856c","system_id":"levelo_inurba_marseille","lat":43.29727,"lon":5.37693,"is_reserved":false,"is_disabled":false,"rental_uris":{"android":"levelo://app?vid=37530926-59f3-4d35-8611-8cbca3a1856c","ios":"levelo://app?vid=37530926-59f3-4d35-8611-8cbca3a1856c"},"vehicle_type_id":"4","last_reported":1725030544,"current_range_meters":18400,"station_id":"ce4bgkh2rcd13ifvqbl0","pricing_plan_id":"cebpf4jnsgd1na2vs0mg"},{"bike_id":"0de6233b-89c8-4f36-8749-7e9c3e9365f9","system_id":"levelo_inurba_marseille","lat":43.2972,"lon":5.37692,"is_reserved":false,"is_disabled":false,"rental_uris":{"android":"levelo://app?vid=0de6233b-89c8-4f36-8749-7e9c3e9365f9","ios":"levelo://app?vid=0de6233b-89c8-4f36-8749-7e9c3e9365f9"},"vehicle_type_id":"4","last_reported":1725030544,"current_range_meters":0,"station_id":"ce4bgkh2rcd13ifvqbl0","pricing_plan_id":"cebpf4jnsgd1na2vs0mg"},{"bike_id":"27b63707-af0b-4050-9536-bee914a92b52","system_id":"levelo_inurba_marseille","lat":43.309589,"lon":5.390258,"is_reserved":false,"is_disabled":false,"rental_uris":{"android":"levelo://app?vid=27b63707-af0b-4050-9536-bee914a92b52","ios":"levelo://app?vid=27b63707-af0b-4050-9536-bee914a92b52"},"vehicle_type_id":"4","last_reported":1725030544,"current_range_meters":20400,"station_id":"ce4bgup2rcd13ifvqco0","pricing_plan_id":"cebpf4jnsgd1na2vs0mg"},{"bike_id":"ec975aca-e95e-4011-936c-911cd65496e5","system_id":"levelo_inurba_marseille","lat":43.309589,"lon":5.390258,"is_reserved":false,"is_disabled":false,"rental_uris":{"android":"levelo://app?vid=ec975aca-e95e-4011-936c-911cd65496e5","ios":"levelo://app?vid=ec975aca-e95e-4011-936c-911cd65496e5"},"vehicle_type_id":"4","last_reported":1725030544,"current_range_meters":15600,"station_id":"ce4bgup2rcd13ifvqco0","pricing_plan_id":"cebpf4jnsgd1na2vs0mg"},{"bike_id":"719bba9b-54a9-4d95-845e-3d602acadbf0","system_id":"levelo_inurba_marseille","lat":43.296921,"lon":5.376579,"is_reserved":false,"is_disabled":false,"rental_uris":{"android":"levelo://app?vid=719bba9b-54a9-4d95-845e-3d602acadbf0","ios":"levelo://app?vid=719bba9b-54a9-4d95-845e-3d602acadbf0"},"vehicle_type_id":"4","last_reported":1725030544,"current_range_meters":8800,"station_id":"ce4bgkh2rcd13ifvqbl0","pricing_plan_id":"cebpf4jnsgd1na2vs0mg"},{"bike_id":"69311b30-be50-4381-8ee7-f15cec0d2c10","system_id":"levelo_inurba_marseille","lat":43.30951,"lon":5.39023,"is_reserved":false,"is_disabled":false,"rental_uris":{"android":"levelo://app?vid=69311b30-be50-4381-8ee7-f15cec0d2c10","ios":"levelo://app?vid=69311b30-be50-4381-8ee7-f15cec0d2c10"},"vehicle_type_id":"4","last_reported":1725030544,"current_range_meters":23200,"station_id":"ce4bgup2rcd13ifvqco0","pricing_plan_id":"cebpf4jnsgd1na2vs0mg"},{"bike_id":"1ac4fd91-c24a-46bb-80f6-b4f624686a30","system_id":"levelo_inurba_marseille","lat":43.309654,"lon":5.390309,"is_reserved":false,"is_disabled":false,"rental_uris":{"android":"levelo://app?vid=1ac4fd91-c24a-46bb-80f6-b4f624686a30","ios":"levelo://app?vid=1ac4fd91-c24a-46bb-80f6-b4f624686a30"},"vehicle_type_id":"4","last_reported":1725030544,"current_range_meters":14800,"station_id":"ce4bgup2rcd13ifvqco0","pricing_plan_id":"cebpf4jnsgd1na2vs0mg"},{"bike_id":"04259758-950b-4405-a9f3-73e77c76fb0d","system_id":"levelo_inurba_marseille","lat":43.309607,"lon":5.3903,"is_reserved":false,"is_disabled":false,"rental_uris":{"android":"levelo://app?vid=04259758-950b-4405-a9f3-73e77c76fb0d","ios":"levelo://app?vid=04259758-950b-4405-a9f3-73e77c76fb0d"},"vehicle_type_id":"4","last_reported":1725030544,"current_range_meters":17600,"station_id":"ce4bgup2rcd13ifvqco0","pricing_plan_id":"cebpf4jnsgd1na2vs0mg"},{"bike_id":"017cd3bc-e092-4543-96b4-c0e6b24615ac","system_id":"levelo_inurba_marseille","lat":43.309589,"lon":5.390258,"is_reserved":false,"is_disabled":false,"rental_uris":{"android":"levelo://app?vid=017cd3bc-e092-4543-96b4-c0e6b24615ac","ios":"levelo://app?vid=017cd3bc-e092-4543-96b4-c0e6b24615ac"},"vehicle_type_id":"4","last_reported":1725030544,"current_range_meters":27600,"station_id":"ce4bgup2rcd13ifvqco0","pricing_plan_id":"cebpf4jnsgd1na2vs0mg"},{"bike_id":"9d6250bb-2d7b-49fe-8873-e0374864b036","system_id":"levelo_inurba_marseille","lat":43.309589,"lon":5.390258,"is_reserved":false,"is_disabled":false,"rental_uris":{"android":"levelo://app?vid=9d6250bb-2d7b-49fe-8873-e0374864b036","ios":"levelo://app?vid=9d6250bb-2d7b-49fe-8873-e0374864b036"},"vehicle_type_id":"4","last_reported":1725030544,"current_range_meters":14800,"station_id":"ce4bgup2rcd13ifvqco0","pricing_plan_id":"cebpf4jnsgd1na2vs0mg"},{"bike_id":"56b623b9-bda1-46c5-8d70-8221e586fd05","system_id":"levelo_inurba_marseille","lat":43.309589,"lon":5.390258,"is_reserved":false,"is_disabled":false,"rental_uris":{"android":"levelo://app?vid=56b623b9-bda1-46c5-8d70-8221e586fd05","ios":"levelo://app?vid=56b623b9-bda1-46c5-8d70-8221e586fd05"},"vehicle_type_id":"4","last_reported":1725030544,"current_range_meters":13600,"station_id":"ce4bgup2rcd13ifvqco0","pricing_plan_id":"cebpf4jnsgd1na2vs0mg"},{"bike_id":"531d5fc2-50c0-4c1f-88de-12dbb38718ae","system_id":"levelo_inurba_marseille","lat":43.30957,"lon":5.3904,"is_reserved":false,"is_disabled":false,"rental_uris":{"android":"levelo://app?vid=531d5fc2-50c0-4c1f-88de-12dbb38718ae","ios":"levelo://app?vid=531d5fc2-50c0-4c1f-88de-12dbb38718ae"},"vehicle_type_id":"4","last_reported":1725030544,"current_range_meters":26000,"station_id":"ce4bgup2rcd13ifvqco0","pricing_plan_id":"cebpf4jnsgd1na2vs0mg"},{"bike_id":"20aaafb7-f23e-45a1-afd5-571f9f56fafd","system_id":"levelo_inurba_marseille","lat":43.29574,"lon":5.37497,"is_reserved":false,"is_disabled":false,"rental_uris":{"android":"levelo://app?vid=20aaafb7-f23e-45a1-afd5-571f9f56fafd","ios":"levelo://app?vid=20aaafb7-f23e-45a1-afd5-571f9f56fafd"},"vehicle_type_id":"4","last_reported":1725030544,"current_range_meters":10000,"station_id":"ce4bgh92rcd13ifvqb50","pricing_plan_id":"cebpf4jnsgd1na2vs0mg"},{"bike_id":"8a8887de-5c7d-4b1c-91b2-78e9c920b48d","system_id":"levelo_inurba_marseille","lat":43.29578,"lon":5.37521,"is_reserved":false,"is_disabled":false,"rental_uris":{"android":"levelo://app?vid=8a8887de-5c7d-4b1c-91b2-78e9c920b48d","ios":"levelo://app?vid=8a8887de-5c7d-4b1c-91b2-78e9c920b48d"},"vehicle_type_id":"4","last_reported":1725030544,"current_range_meters":29600,"station_id":"ce4bgh92rcd13ifvqb50","pricing_plan_id":"cebpf4jnsgd1na2vs0mg"},{"bike_id":"f01c6996-fd3b-4038-a071-0ed22f336200","system_id":"levelo_inurba_marseille","lat":43.29969,"lon":5.38496,"is_reserved":false,"is_disabled":false,"rental_uris":{"android":"levelo://app?vid=f01c6996-fd3b-4038-a071-0ed22f336200","ios":"levelo://app?vid=f01c6996-fd3b-4038-a071-0ed22f336200"},"vehicle_type_id":"4","last_reported":1725030544,"current_range_meters":0,"station_id":"ce4bgj92rcd13ifvqbd0","pricing_plan_id":"cebpf4jnsgd1na2vs0mg"},{"bike_id":"dc7f9fc4-ec54-4356-8c1f-be447a12b071","system_id":"levelo_inurba_marseille","lat":43.30135,"lon":5.38763,"is_reserved":false,"is_disabled":false,"rental_uris":{"android":"levelo://app?vid=dc7f9fc4-ec54-4356-8c1f-be447a12b071","ios":"levelo://app?vid=dc7f9fc4-ec54-4356-8c1f-be447a12b071"},"vehicle_type_id":"4","last_reported":1725030544,"current_range_meters":23600,"station_id":"ce4bghh2rcd13ifvqb60","pricing_plan_id":"cebpf4jnsgd1na2vs0mg"},{"bike_id":"7f57aed7-ba64-4b44-be79-a5a94d04f698","system_id":"levelo_inurba_marseille","lat":43.30138,"lon":5.38769,"is_reserved":false,"is_disabled":false,"rental_uris":{"android":"levelo://app?vid=7f57aed7-ba64-4b44-be79-a5a94d04f698","ios":"levelo://app?vid=7f57aed7-ba64-4b44-be79-a5a94d04f698"},"vehicle_type_id":"4","last_reported":1725030544,"current_range_meters":5600,"station_id":"ce4bghh2rcd13ifvqb60","pricing_plan_id":"cebpf4jnsgd1na2vs0mg"},{"bike_id":"5f65083e-3e3e-4e95-b1e1-166a50bfe7db","system_id":"levelo_inurba_marseille","lat":43.314545,"lon":5.392865,"is_reserved":false,"is_disabled":false,"rental_uris":{"android":"levelo://app?vid=5f65083e-3e3e-4e95-b1e1-166a50bfe7db","ios":"levelo://app?vid=5f65083e-3e3e-4e95-b1e1-166a50bfe7db"},"vehicle_type_id":"4","last_reported":1725030544,"current_range_meters":26000,"station_id":"","pricing_plan_id":"cebpf4jnsgd1na2vs0mg"},{"bike_id":"8450867d-adac-4cf9-a0eb-51e9c5a19ec3","system_id":"levelo_inurba_marseille","lat":43.301396,"lon":5.387812,"is_reserved":false,"is_disabled":false,"rental_uris":{"android":"levelo://app?vid=8450867d-adac-4cf9-a0eb-51e9c5a19ec3","ios":"levelo://app?vid=8450867d-adac-4cf9-a0eb-51e9c5a19ec3"},"vehicle_type_id":"4","last_reported":1725030544,"current_range_meters":30000,"station_id":"ce4bghh2rcd13ifvqb60","pricing_plan_id":"cebpf4jnsgd1na2vs0mg"},{"bike_id":"c3cf4b8d-a4ee-4f22-b805-fc4029876dcd","system_id":"levelo_inurba_marseille","lat":43.311562,"lon":5.393346,"is_reserved":false,"is_disabled":false,"rental_uris":{"android":"levelo://app?vid=c3cf4b8d-a4ee-4f22-b805-fc4029876dcd","ios":"levelo://app?vid=c3cf4b8d-a4ee-4f22-b805-fc4029876dcd"},"vehicle_type_id":"4","last_reported":1725030544,"current_range_meters":3600,"station_id":"","pricing_plan_id":"cebpf4jnsgd1na2vs0mg"},{"bike_id":"593c9e1b-07b1-4c60-8993-6b149f4fa4a7","system_id":"levelo_inurba_marseille","lat":43.311192,"lon":5.393646,"is_reserved":false,"is_disabled":false,"rental_uris":{"android":"levelo://app?vid=593c9e1b-07b1-4c60-8993-6b149f4fa4a7","ios":"levelo://app?vid=593c9e1b-07b1-4c60-8993-6b149f4fa4a7"},"vehicle_type_id":"4","last_reported":1725030544,"current_range_meters":1600,"station_id":"","pricing_plan_id":"cebpf4jnsgd1na2vs0mg"},{"bike_id":"4ab5e112-d452-41b2-a66a-9b989fe8c7e5","system_id":"levelo_inurba_marseille","lat":43.314284,"lon":5.393735,"is_reserved":false,"is_disabled":false,"rental_uris":{"android":"levelo://app?vid=4ab5e112-d452-41b2-a66a-9b989fe8c7e5","ios":"levelo://app?vid=4ab5e112-d452-41b2-a66a-9b989fe8c7e5"},"vehicle_type_id":"4","last_reported":1725030544,"current_range_meters":24400,"station_id":"","pricing_plan_id":"cebpf4jnsgd1na2vs0mg"},{"bike_id":"a86d2970-18af-4ada-8e50-558e5d5e6f28","system_id":"levelo_inurba_marseille","lat":43.29602,"lon":5.381084,"is_reserved":false,"is_disabled":false,"rental_uris":{"android":"levelo://app?vid=a86d2970-18af-4ada-8e50-558e5d5e6f28","ios":"levelo://app?vid=a86d2970-18af-4ada-8e50-558e5d5e6f28"},"vehicle_type_id":"4","last_reported":1725030544,"current_range_meters":20400,"station_id":"ce4bgl12rcd13ifvqbo0","pricing_plan_id":"cebpf4jnsgd1na2vs0mg"},{"bike_id":"50f6121f-20a7-44c9-b407-0dc2db199c78","system_id":"levelo_inurba_marseille","lat":43.292749,"lon":5.368402,"is_reserved":false,"is_disabled":false,"rental_uris":{"android":"levelo://app?vid=50f6121f-20a7-44c9-b407-0dc2db199c78","ios":"levelo://app?vid=50f6121f-20a7-44c9-b407-0dc2db199c78"},"vehicle_type_id":"4","last_reported":1725030544,"current_range_meters":24400,"station_id":"ce4bhbp2rcd13ifvqesg","pricing_plan_id":"cebpf4jnsgd1na2vs0mg"},{"bike_id":"07a6a666-36a0-4570-afa8-26b490647bbd","system_id":"levelo_inurba_marseille","lat":43.29281,"lon":5.36844,"is_reserved":false,"is_disabled":false,"rental_uris":{"android":"levelo://app?vid=07a6a666-36a0-4570-afa8-26b490647bbd","ios":"levelo://app?vid=07a6a666-36a0-4570-afa8-26b490647bbd"},"vehicle_type_id":"4","last_reported":1725030544,"current_range_meters":5200,"station_id":"ce4bhbp2rcd13ifvqesg","pricing_plan_id":"cebpf4jnsgd1na2vs0mg"},{"bike_id":"304feeb8-98df-437f-bf55-5457e306ca9b","system_id":"levelo_inurba_marseille","lat":43.293249,"lon":5.371578,"is_reserved":false,"is_disabled":false,"rental_uris":{"android":"levelo://app?vid=304feeb8-98df-437f-bf55-5457e306ca9b","ios":"levelo://app?vid=304feeb8-98df-437f-bf55-5457e306ca9b"},"vehicle_type_id":"4","last_reported":1725030544,"current_range_meters":31200,"station_id":"ce4bgh92rcd13ifvqb40","pricing_plan_id":"cebpf4jnsgd1na2vs0mg"},{"bike_id":"494aa51f-6714-420c-9be5-cba45dff5cf0","system_id":"levelo_inurba_marseille","lat":43.292749,"lon":5.368402,"is_reserved":false,"is_disabled":false,"rental_uris":{"android":"levelo://app?vid=494aa51f-6714-420c-9be5-cba45dff5cf0","ios":"levelo://app?vid=494aa51f-6714-420c-9be5-cba45dff5cf0"},"vehicle_type_id":"4","last_reported":1725030544,"current_range_meters":11600,"station_id":"ce4bhbp2rcd13ifvqesg","pricing_plan_id":"cebpf4jnsgd1na2vs0mg"},{"bike_id":"6e68fe10-0e44-4061-b9a8-1dbdd2a2438c","system_id":"levelo_inurba_marseille","lat":43.29271,"lon":5.36852,"is_reserved":false,"is_disabled":false,"rental_uris":{"android":"levelo://app?vid=6e68fe10-0e44-4061-b9a8-1dbdd2a2438c","ios":"levelo://app?vid=6e68fe10-0e44-4061-b9a8-1dbdd2a2438c"},"vehicle_type_id":"4","last_reported":1725030544,"current_range_meters":0,"station_id":"ce4bhbp2rcd13ifvqesg","pricing_plan_id":"cebpf4jnsgd1na2vs0mg"},{"bike_id":"a72fea7a-2529-4428-b316-8fff2c42a5e2","system_id":"levelo_inurba_marseille","lat":43.29264,"lon":5.36851,"is_reserved":false,"is_disabled":false,"rental_uris":{"android":"levelo://app?vid=a72fea7a-2529-4428-b316-8fff2c42a5e2","ios":"levelo://app?vid=a72fea7a-2529-4428-b316-8fff2c42a5e2"},"vehicle_type_id":"4","last_reported":1725030544,"current_range_meters":0,"station_id":"ce4bhbp2rcd13ifvqesg","pricing_plan_id":"cebpf4jnsgd1na2vs0mg"},{"bike_id":"2156d4cd-c501-45ea-b314-95ac0f651425","system_id":"levelo_inurba_marseille","lat":43.293155,"lon":5.374503,"is_reserved":false,"is_disabled":false,"rental_uris":{"android":"levelo://app?vid=2156d4cd-c501-45ea-b314-95ac0f651425","ios":"levelo://app?vid=2156d4cd-c501-45ea-b314-95ac0f651425"},"vehicle_type_id":"4","last_reported":1725030544,"current_range_meters":4400,"station_id":"ce4bgi12rcd13ifvqb70","pricing_plan_id":"cebpf4jnsgd1na2vs0mg"},{"bike_id":"b67d6e1b-f43e-4147-872a-90184a5748de","system_id":"levelo_inurba_marseille","lat":43.29301,"lon":5.37447,"is_reserved":false,"is_disabled":false,"rental_uris":{"android":"levelo://app?vid=b67d6e1b-f43e-4147-872a-90184a5748de","ios":"levelo://app?vid=b67d6e1b-f43e-4147-872a-90184a5748de"},"vehicle_type_id":"4","last_reported":1725030544,"current_range_meters":0,"station_id":"ce4bgi12rcd13ifvqb70","pricing_plan_id":"cebpf4jnsgd1na2vs0mg"},{"bike_id":"6554b7e0-8b9b-4290-92c9-3cfc501d5e8f","system_id":"levelo_inurba_marseille","lat":43.305994,"lon":5.393687,"is_reserved":false,"is_disabled":false,"rental_uris":{"android":"levelo://app?vid=6554b7e0-8b9b-4290-92c9-3cfc501d5e8f","ios":"levelo://app?vid=6554b7e0-8b9b-4290-92c9-3cfc501d5e8f"},"vehicle_type_id":"4","last_reported":1725030544,"current_range_meters":31200,"station_id":"ce4bh0p2rcd13ifvqd80","pricing_plan_id":"cebpf4jnsgd1na2vs0mg"},{"bike_id":"038c3e08-0bd1-4ca3-aff2-0ac3fa0c3945","system_id":"levelo_inurba_marseille","lat":43.305808,"lon":5.39356,"is_reserved":false,"is_disabled":false,"rental_uris":{"android":"levelo://app?vid=038c3e08-0bd1-4ca3-aff2-0ac3fa0c3945","ios":"levelo://app?vid=038c3e08-0bd1-4ca3-aff2-0ac3fa0c3945"},"vehicle_type_id":"4","last_reported":1725030544,"current_range_meters":29600,"station_id":"ce4bh0p2rcd13ifvqd80","pricing_plan_id":"cebpf4jnsgd1na2vs0mg"},{"bike_id":"f6969a05-ad4a-4cf0-9804-0f033ad18398","system_id":"levelo_inurba_marseille","lat":43.303002,"lon":5.392142,"is_reserved":false,"is_disabled":false,"rental_uris":{"android":"levelo://app?vid=f6969a05-ad4a-4cf0-9804-0f033ad18398","ios":"levelo://app?vid=f6969a05-ad4a-4cf0-9804-0f033ad18398"},"vehicle_type_id":"4","last_reported":1725030544,"current_range_meters":14800,"station_id":"ce4bgkh2rcd13ifvqbk0","pricing_plan_id":"cebpf4jnsgd1na2vs0mg"},{"bike_id":"a73c62fd-4af6-476e-b9cb-a589f5987a0f","system_id":"levelo_inurba_marseille","lat":43.303002,"lon":5.392142,"is_reserved":false,"is_disabled":false,"rental_uris":{"android":"levelo://app?vid=a73c62fd-4af6-476e-b9cb-a589f5987a0f","ios":"levelo://app?vid=a73c62fd-4af6-476e-b9cb-a589f5987a0f"},"vehicle_type_id":"4","last_reported":1725030544,"current_range_meters":25600,"station_id":"ce4bgkh2rcd13ifvqbk0","pricing_plan_id":"cebpf4jnsgd1na2vs0mg"},{"bike_id":"68e83ffb-3a11-43f8-a862-a17340fa8319","system_id":"levelo_inurba_marseille","lat":43.292311,"lon":5.360731,"is_reserved":false,"is_disabled":false,"rental_uris":{"android":"levelo://app?vid=68e83ffb-3a11-43f8-a862-a17340fa8319","ios":"levelo://app?vid=68e83ffb-3a11-43f8-a862-a17340fa8319"},"vehicle_type_id":"4","last_reported":1725030544,"current_range_meters":28000,"station_id":"ce4bhbh2rcd13ifvqeqg","pricing_plan_id":"cebpf4jnsgd1na2vs0mg"},{"bike_id":"c9bd3d4f-d72d-4ff3-b538-88dc8d8a51db","system_id":"levelo_inurba_marseille","lat":43.292311,"lon":5.360731,"is_reserved":false,"is_disabled":false,"rental_uris":{"android":"levelo://app?vid=c9bd3d4f-d72d-4ff3-b538-88dc8d8a51db","ios":"levelo://app?vid=c9bd3d4f-d72d-4ff3-b538-88dc8d8a51db"},"vehicle_type_id":"4","last_reported":1725030544,"current_range_meters":0,"station_id":"ce4bhbh2rcd13ifvqeqg","pricing_plan_id":"cebpf4jnsgd1na2vs0mg"},{"bike_id":"3ab55a3b-9891-49e9-b6f3-ff4b3d7721e8","system_id":"levelo_inurba_marseille","lat":43.292311,"lon":5.360731,"is_reserved":false,"is_disabled":false,"rental_uris":{"android":"levelo://app?vid=3ab55a3b-9891-49e9-b6f3-ff4b3d7721e8","ios":"levelo://app?vid=3ab55a3b-9891-49e9-b6f3-ff4b3d7721e8"},"vehicle_type_id":"4","last_reported":1725030544,"current_range_meters":10000,"station_id":"ce4bhbh2rcd13ifvqeqg","pricing_plan_id":"cebpf4jnsgd1na2vs0mg"},{"bike_id":"4f2a3c46-1c6e-4dfb-9b4a-003fd354640f","system_id":"levelo_inurba_marseille","lat":43.300852,"lon":5.390859,"is_reserved":false,"is_disabled":false,"rental_uris":{"android":"levelo://app?vid=4f2a3c46-1c6e-4dfb-9b4a-003fd354640f","ios":"levelo://app?vid=4f2a3c46-1c6e-4dfb-9b4a-003fd354640f"},"vehicle_type_id":"4","last_reported":1725030544,"current_range_meters":11200,"station_id":"ce4bh192rcd13ifvqdb0","pricing_plan_id":"cebpf4jnsgd1na2vs0mg"},{"bike_id":"751943b7-6a00-47b4-bd7c-23e5671f8490","system_id":"levelo_inurba_marseille","lat":43.298764,"lon":5.388973,"is_reserved":false,"is_disabled":false,"rental_uris":{"android":"levelo://app?vid=751943b7-6a00-47b4-bd7c-23e5671f8490","ios":"levelo://app?vid=751943b7-6a00-47b4-bd7c-23e5671f8490"},"vehicle_type_id":"4","last_reported":1725030544,"current_range_meters":11200,"station_id":"ce4bh392rcd13ifvqdl0","pricing_plan_id":"cebpf4jnsgd1na2vs0mg"},{"bike_id":"aa8c3858-16fc-43b9-9005-31017eee8d92","system_id":"levelo_inurba_marseille","lat":43.298764,"lon":5.388973,"is_reserved":false,"is_disabled":false,"rental_uris":{"android":"levelo://app?vid=aa8c3858-16fc-43b9-9005-31017eee8d92","ios":"levelo://app?vid=aa8c3858-16fc-43b9-9005-31017eee8d92"},"vehicle_type_id":"4","last_reported":1725030544,"current_range_meters":0,"station_id":"ce4bh392rcd13ifvqdl0","pricing_plan_id":"cebpf4jnsgd1na2vs0mg"},{"bike_id":"85878811-aacd-452f-bcd6-b4dad395ebfb","system_id":"levelo_inurba_marseille","lat":43.313291,"lon":5.396838,"is_reserved":false,"is_disabled":false,"rental_uris":{"android":"levelo://app?vid=85878811-aacd-452f-bcd6-b4dad395ebfb","ios":"levelo://app?vid=85878811-aacd-452f-bcd6-b4dad395ebfb"},"vehicle_type_id":"4","last_reported":1725030544,"current_range_meters":22400,"station_id":"ce4bgvp2rcd13ifvqcu0","pricing_plan_id":"cebpf4jnsgd1na2vs0mg"},{"bike_id":"12e9be23-5838-4ce0-9abd-d6ee2f792ac6","system_id":"levelo_inurba_marseille","lat":43.313291,"lon":5.396838,"is_reserved":false,"is_disabled":false,"rental_uris":{"android":"levelo://app?vid=12e9be23-5838-4ce0-9abd-d6ee2f792ac6","ios":"levelo://app?vid=12e9be23-5838-4ce0-9abd-d6ee2f792ac6"},"vehicle_type_id":"4","last_reported":1725030544,"current_range_meters":20000,"station_id":"ce4bgvp2rcd13ifvqcu0","pricing_plan_id":"cebpf4jnsgd1na2vs0mg"},{"bike_id":"4dd3ad64-bd82-432c-a6f1-493fa2dd8d3e","system_id":"levelo_inurba_marseille","lat":43.29196,"lon":5.35806,"is_reserved":false,"is_disabled":false,"rental_uris":{"android":"levelo://app?vid=4dd3ad64-bd82-432c-a6f1-493fa2dd8d3e","ios":"levelo://app?vid=4dd3ad64-bd82-432c-a6f1-493fa2dd8d3e"},"vehicle_type_id":"4","last_reported":1725030544,"current_range_meters":7600,"station_id":"ce4bhb12rcd13ifvqel0","pricing_plan_id":"cebpf4jnsgd1na2vs0mg"},{"bike_id":"f80ff572-4f7e-4288-ad09-92d8f0059708","system_id":"levelo_inurba_marseille","lat":43.292005,"lon":5.357875,"is_reserved":false,"is_disabled":false,"rental_uris":{"android":"levelo://app?vid=f80ff572-4f7e-4288-ad09-92d8f0059708","ios":"levelo://app?vid=f80ff572-4f7e-4288-ad09-92d8f0059708"},"vehicle_type_id":"4","last_reported":1725030544,"current_range_meters":18000,"station_id":"ce4bhb12rcd13ifvqel0","pricing_plan_id":"cebpf4jnsgd1na2vs0mg"},{"bike_id":"eb764f11-cf77-4ca9-848b-e7724e2eb283","system_id":"levelo_inurba_marseille","lat":43.313291,"lon":5.396838,"is_reserved":false,"is_disabled":false,"rental_uris":{"android":"levelo://app?vid=eb764f11-cf77-4ca9-848b-e7724e2eb283","ios":"levelo://app?vid=eb764f11-cf77-4ca9-848b-e7724e2eb283"},"vehicle_type_id":"4","last_reported":1725030544,"current_range_meters":25600,"station_id":"ce4bgvp2rcd13ifvqcu0","pricing_plan_id":"cebpf4jnsgd1na2vs0mg"},{"bike_id":"356a3af9-8be4-402e-bfa2-5de63cb55808","system_id":"levelo_inurba_marseille","lat":43.313291,"lon":5.396838,"is_reserved":false,"is_disabled":false,"rental_uris":{"android":"levelo://app?vid=356a3af9-8be4-402e-bfa2-5de63cb55808","ios":"levelo://app?vid=356a3af9-8be4-402e-bfa2-5de63cb55808"},"vehicle_type_id":"4","last_reported":1725030544,"current_range_meters":19200,"station_id":"ce4bgvp2rcd13ifvqcu0","pricing_plan_id":"cebpf4jnsgd1na2vs0mg"},{"bike_id":"84c87908-c74b-4017-8787-0064bebe040d","system_id":"levelo_inurba_marseille","lat":43.313291,"lon":5.396838,"is_reserved":false,"is_disabled":false,"rental_uris":{"android":"levelo://app?vid=84c87908-c74b-4017-8787-0064bebe040d","ios":"levelo://app?vid=84c87908-c74b-4017-8787-0064bebe040d"},"vehicle_type_id":"4","last_reported":1725030544,"current_range_meters":19600,"station_id":"ce4bgvp2rcd13ifvqcu0","pricing_plan_id":"cebpf4jnsgd1na2vs0mg"},{"bike_id":"18966396-2304-4b2f-8d58-bf1ee552b706","system_id":"levelo_inurba_marseille","lat":43.29526,"lon":5.38532,"is_reserved":false,"is_disabled":false,"rental_uris":{"android":"levelo://app?vid=18966396-2304-4b2f-8d58-bf1ee552b706","ios":"levelo://app?vid=18966396-2304-4b2f-8d58-bf1ee552b706"},"vehicle_type_id":"4","last_reported":1725030544,"current_range_meters":10000,"station_id":"ce4bgih2rcd13ifvqba0","pricing_plan_id":"cebpf4jnsgd1na2vs0mg"},{"bike_id":"d11a18d2-c4a6-47a3-98ca-fedd9a7780af","system_id":"levelo_inurba_marseille","lat":43.290631,"lon":5.359244,"is_reserved":false,"is_disabled":false,"rental_uris":{"android":"levelo://app?vid=d11a18d2-c4a6-47a3-98ca-fedd9a7780af","ios":"levelo://app?vid=d11a18d2-c4a6-47a3-98ca-fedd9a7780af"},"vehicle_type_id":"4","last_reported":1725030544,"current_range_meters":12000,"station_id":"ce4bha92rcd13ifvqeg0","pricing_plan_id":"cebpf4jnsgd1na2vs0mg"},{"bike_id":"835c6dd6-65ba-4be8-a659-de9d62e1a0bc","system_id":"levelo_inurba_marseille","lat":43.290631,"lon":5.359244,"is_reserved":false,"is_disabled":false,"rental_uris":{"android":"levelo://app?vid=835c6dd6-65ba-4be8-a659-de9d62e1a0bc","ios":"levelo://app?vid=835c6dd6-65ba-4be8-a659-de9d62e1a0bc"},"vehicle_type_id":"4","last_reported":1725030544,"current_range_meters":9200,"station_id":"ce4bha92rcd13ifvqeg0","pricing_plan_id":"cebpf4jnsgd1na2vs0mg"},{"bike_id":"0eb2fc6a-37a0-4125-89ca-307e7d371464","system_id":"levelo_inurba_marseille","lat":43.290631,"lon":5.359244,"is_reserved":false,"is_disabled":false,"rental_uris":{"android":"levelo://app?vid=0eb2fc6a-37a0-4125-89ca-307e7d371464","ios":"levelo://app?vid=0eb2fc6a-37a0-4125-89ca-307e7d371464"},"vehicle_type_id":"4","last_reported":1725030544,"current_range_meters":25600,"station_id":"ce4bha92rcd13ifvqeg0","pricing_plan_id":"cebpf4jnsgd1na2vs0mg"},{"bike_id":"7a95e059-1d08-49ae-a7ec-47252e35bb63","system_id":"levelo_inurba_marseille","lat":43.294153,"lon":5.386305,"is_reserved":false,"is_disabled":false,"rental_uris":{"android":"levelo://app?vid=7a95e059-1d08-49ae-a7ec-47252e35bb63","ios":"levelo://app?vid=7a95e059-1d08-49ae-a7ec-47252e35bb63"},"vehicle_type_id":"4","last_reported":1725030544,"current_range_meters":0,"station_id":"ce4bh2h2rcd13ifvqdh0","pricing_plan_id":"cebpf4jnsgd1na2vs0mg"},{"bike_id":"e1d96bf5-f260-4796-8625-68846f19f541","system_id":"levelo_inurba_marseille","lat":43.290327,"lon":5.375711,"is_reserved":false,"is_disabled":false,"rental_uris":{"android":"levelo://app?vid=e1d96bf5-f260-4796-8625-68846f19f541","ios":"levelo://app?vid=e1d96bf5-f260-4796-8625-68846f19f541"},"vehicle_type_id":"4","last_reported":1725030544,"current_range_meters":5200,"station_id":"ce4bh692rcd13ifvqe90","pricing_plan_id":"cebpf4jnsgd1na2vs0mg"},{"bike_id":"93082d61-c1b3-4664-a574-636a9d9b508a","system_id":"levelo_inurba_marseille","lat":43.29414,"lon":5.38633,"is_reserved":false,"is_disabled":false,"rental_uris":{"android":"levelo://app?vid=93082d61-c1b3-4664-a574-636a9d9b508a","ios":"levelo://app?vid=93082d61-c1b3-4664-a574-636a9d9b508a"},"vehicle_type_id":"4","last_reported":1725030544,"current_range_meters":0,"station_id":"ce4bh2h2rcd13ifvqdh0","pricing_plan_id":"cebpf4jnsgd1na2vs0mg"},{"bike_id":"ad73c618-c4f4-4e93-b0ef-65dda75e4f6e","system_id":"levelo_inurba_marseille","lat":43.2927,"lon":5.38436,"is_reserved":false,"is_disabled":false,"rental_uris":{"android":"levelo://app?vid=ad73c618-c4f4-4e93-b0ef-65dda75e4f6e","ios":"levelo://app?vid=ad73c618-c4f4-4e93-b0ef-65dda75e4f6e"},"vehicle_type_id":"4","last_reported":1725030544,"current_range_meters":29600,"station_id":"ce4bh692rcd13ifvqea0","pricing_plan_id":"cebpf4jnsgd1na2vs0mg"},{"bike_id":"d4bf22ae-6bee-441a-b74f-45f5d6959caa","system_id":"levelo_inurba_marseille","lat":43.29264,"lon":5.38433,"is_reserved":false,"is_disabled":false,"rental_uris":{"android":"levelo://app?vid=d4bf22ae-6bee-441a-b74f-45f5d6959caa","ios":"levelo://app?vid=d4bf22ae-6bee-441a-b74f-45f5d6959caa"},"vehicle_type_id":"4","last_reported":1725030544,"current_range_meters":29600,"station_id":"ce4bh692rcd13ifvqea0","pricing_plan_id":"cebpf4jnsgd1na2vs0mg"},{"bike_id":"fdce4b23-e3ac-40f0-969a-3e6c786eef72","system_id":"levelo_inurba_marseille","lat":43.292644,"lon":5.384257,"is_reserved":false,"is_disabled":false,"rental_uris":{"android":"levelo://app?vid=fdce4b23-e3ac-40f0-969a-3e6c786eef72","ios":"levelo://app?vid=fdce4b23-e3ac-40f0-969a-3e6c786eef72"},"vehicle_type_id":"4","last_reported":1725030544,"current_range_meters":8000,"station_id":"ce4bh692rcd13ifvqea0","pricing_plan_id":"cebpf4jnsgd1na2vs0mg"},{"bike_id":"10d43a1c-8fab-420a-8457-4e40fd0a52bd","system_id":"levelo_inurba_marseille","lat":43.290103,"lon":5.356114,"is_reserved":false,"is_disabled":false,"rental_uris":{"android":"levelo://app?vid=10d43a1c-8fab-420a-8457-4e40fd0a52bd","ios":"levelo://app?vid=10d43a1c-8fab-420a-8457-4e40fd0a52bd"},"vehicle_type_id":"4","last_reported":1725030544,"current_range_meters":24000,"station_id":"ce4bhb92rcd13ifvqen0","pricing_plan_id":"cebpf4jnsgd1na2vs0mg"},{"bike_id":"c971e77c-f52d-450b-87c2-b38e27369edd","system_id":"levelo_inurba_marseille","lat":43.290995,"lon":5.381361,"is_reserved":false,"is_disabled":false,"rental_uris":{"android":"levelo://app?vid=c971e77c-f52d-450b-87c2-b38e27369edd","ios":"levelo://app?vid=c971e77c-f52d-450b-87c2-b38e27369edd"},"vehicle_type_id":"4","last_reported":1725030544,"current_range_meters":2000,"station_id":"ce4bh512rcd13ifvqe2g","pricing_plan_id":"cebpf4jnsgd1na2vs0mg"},{"bike_id":"503e348c-dde1-4d26-b4b0-114e3b7a1b99","system_id":"levelo_inurba_marseille","lat":43.290995,"lon":5.381361,"is_reserved":false,"is_disabled":false,"rental_uris":{"android":"levelo://app?vid=503e348c-dde1-4d26-b4b0-114e3b7a1b99","ios":"levelo://app?vid=503e348c-dde1-4d26-b4b0-114e3b7a1b99"},"vehicle_type_id":"4","last_reported":1725030544,"current_range_meters":6400,"station_id":"ce4bh512rcd13ifvqe2g","pricing_plan_id":"cebpf4jnsgd1na2vs0mg"},{"bike_id":"c9c3efe5-fc58-41e5-b27a-3eb7c330e482","system_id":"levelo_inurba_marseille","lat":43.290995,"lon":5.381361,"is_reserved":false,"is_disabled":false,"rental_uris":{"android":"levelo://app?vid=c9c3efe5-fc58-41e5-b27a-3eb7c330e482","ios":"levelo://app?vid=c9c3efe5-fc58-41e5-b27a-3eb7c330e482"},"vehicle_type_id":"4","last_reported":1725030544,"current_range_meters":20000,"station_id":"ce4bh512rcd13ifvqe2g","pricing_plan_id":"cebpf4jnsgd1na2vs0mg"},{"bike_id":"ab438601-ccf5-4cbd-97f6-9c7b6f366815","system_id":"levelo_inurba_marseille","lat":43.295169,"lon":5.390426,"is_reserved":false,"is_disabled":false,"rental_uris":{"android":"levelo://app?vid=ab438601-ccf5-4cbd-97f6-9c7b6f366815","ios":"levelo://app?vid=ab438601-ccf5-4cbd-97f6-9c7b6f366815"},"vehicle_type_id":"4","last_reported":1725030544,"current_range_meters":12400,"station_id":"ce4bh3p2rcd13ifvqdp0","pricing_plan_id":"cebpf4jnsgd1na2vs0mg"},{"bike_id":"6138a29d-3a78-427b-af80-1e803748c1df","system_id":"levelo_inurba_marseille","lat":43.295169,"lon":5.390426,"is_reserved":false,"is_disabled":false,"rental_uris":{"android":"levelo://app?vid=6138a29d-3a78-427b-af80-1e803748c1df","ios":"levelo://app?vid=6138a29d-3a78-427b-af80-1e803748c1df"},"vehicle_type_id":"4","last_reported":1725030544,"current_range_meters":6000,"station_id":"ce4bh3p2rcd13ifvqdp0","pricing_plan_id":"cebpf4jnsgd1na2vs0mg"},{"bike_id":"45209c04-95ba-42ef-bf49-767bead22c92","system_id":"levelo_inurba_marseille","lat":43.28868,"lon":5.3726,"is_reserved":false,"is_disabled":false,"rental_uris":{"android":"levelo://app?vid=45209c04-95ba-42ef-bf49-767bead22c92","ios":"levelo://app?vid=45209c04-95ba-42ef-bf49-767bead22c92"},"vehicle_type_id":"4","last_reported":1725030544,"current_range_meters":3200,"station_id":"","pricing_plan_id":"cebpf4jnsgd1na2vs0mg"},{"bike_id":"745c155e-5e96-4393-a4d6-08a18ea37f3c","system_id":"levelo_inurba_marseille","lat":43.295169,"lon":5.390426,"is_reserved":false,"is_disabled":false,"rental_uris":{"android":"levelo://app?vid=745c155e-5e96-4393-a4d6-08a18ea37f3c","ios":"levelo://app?vid=745c155e-5e96-4393-a4d6-08a18ea37f3c"},"vehicle_type_id":"4","last_reported":1725030544,"current_range_meters":800,"station_id":"ce4bh3p2rcd13ifvqdp0","pricing_plan_id":"cebpf4jnsgd1na2vs0mg"},{"bike_id":"ef805e57-d14b-4c72-9a56-60a0c4e0d70f","system_id":"levelo_inurba_marseille","lat":43.330442,"lon":5.389148,"is_reserved":false,"is_disabled":false,"rental_uris":{"android":"levelo://app?vid=ef805e57-d14b-4c72-9a56-60a0c4e0d70f","ios":"levelo://app?vid=ef805e57-d14b-4c72-9a56-60a0c4e0d70f"},"vehicle_type_id":"4","last_reported":1725030544,"current_range_meters":6400,"station_id":"ce4bhr92rcd13ifvqhrg","pricing_plan_id":"cebpf4jnsgd1na2vs0mg"},{"bike_id":"e3517522-d9e1-42b2-ba98-060b0a29bb09","system_id":"levelo_inurba_marseille","lat":43.290094,"lon":5.381264,"is_reserved":false,"is_disabled":false,"rental_uris":{"android":"levelo://app?vid=e3517522-d9e1-42b2-ba98-060b0a29bb09","ios":"levelo://app?vid=e3517522-d9e1-42b2-ba98-060b0a29bb09"},"vehicle_type_id":"4","last_reported":1725030544,"current_range_meters":2000,"station_id":"ce4bh4p2rcd13ifvqe1g","pricing_plan_id":"cebpf4jnsgd1na2vs0mg"},{"bike_id":"e10a741b-845b-48d1-9549-1b6ff6f338ea","system_id":"levelo_inurba_marseille","lat":43.2901,"lon":5.381269,"is_reserved":false,"is_disabled":false,"rental_uris":{"android":"levelo://app?vid=e10a741b-845b-48d1-9549-1b6ff6f338ea","ios":"levelo://app?vid=e10a741b-845b-48d1-9549-1b6ff6f338ea"},"vehicle_type_id":"4","last_reported":1725030544,"current_range_meters":19600,"station_id":"ce4bh4p2rcd13ifvqe1g","pricing_plan_id":"cebpf4jnsgd1na2vs0mg"},{"bike_id":"66ba8fcd-8bd3-4dab-81ab-a5c4c51cdeb3","system_id":"levelo_inurba_marseille","lat":43.28856,"lon":5.358371,"is_reserved":false,"is_disabled":false,"rental_uris":{"android":"levelo://app?vid=66ba8fcd-8bd3-4dab-81ab-a5c4c51cdeb3","ios":"levelo://app?vid=66ba8fcd-8bd3-4dab-81ab-a5c4c51cdeb3"},"vehicle_type_id":"4","last_reported":1725030544,"current_range_meters":0,"station_id":"ce4bhb12rcd13ifvqem0","pricing_plan_id":"cebpf4jnsgd1na2vs0mg"},{"bike_id":"d160cda5-8150-476b-b4b2-bd8d1f9e276a","system_id":"levelo_inurba_marseille","lat":43.28851,"lon":5.35844,"is_reserved":false,"is_disabled":false,"rental_uris":{"android":"levelo://app?vid=d160cda5-8150-476b-b4b2-bd8d1f9e276a","ios":"levelo://app?vid=d160cda5-8150-476b-b4b2-bd8d1f9e276a"},"vehicle_type_id":"4","last_reported":1725030544,"current_range_meters":25200,"station_id":"ce4bhb12rcd13ifvqem0","pricing_plan_id":"cebpf4jnsgd1na2vs0mg"},{"bike_id":"a3588dbb-9c57-4b57-8590-e6ece378ef83","system_id":"levelo_inurba_marseille","lat":43.28856,"lon":5.358371,"is_reserved":false,"is_disabled":false,"rental_uris":{"android":"levelo://app?vid=a3588dbb-9c57-4b57-8590-e6ece378ef83","ios":"levelo://app?vid=a3588dbb-9c57-4b57-8590-e6ece378ef83"},"vehicle_type_id":"4","last_reported":1725030544,"current_range_meters":27600,"station_id":"ce4bhb12rcd13ifvqem0","pricing_plan_id":"cebpf4jnsgd1na2vs0mg"},{"bike_id":"fb5c2f29-7cb3-4a84-a875-8edacc204ec2","system_id":"levelo_inurba_marseille","lat":43.312609,"lon":5.401662,"is_reserved":false,"is_disabled":false,"rental_uris":{"android":"levelo://app?vid=fb5c2f29-7cb3-4a84-a875-8edacc204ec2","ios":"levelo://app?vid=fb5c2f29-7cb3-4a84-a875-8edacc204ec2"},"vehicle_type_id":"4","last_reported":1725030544,"current_range_meters":10800,"station_id":"ce4bh092rcd13ifvqd30","pricing_plan_id":"cebpf4jnsgd1na2vs0mg"},{"bike_id":"f49ac45c-eccb-4aac-85cb-40603630178a","system_id":"levelo_inurba_marseille","lat":43.312609,"lon":5.401662,"is_reserved":false,"is_disabled":false,"rental_uris":{"android":"levelo://app?vid=f49ac45c-eccb-4aac-85cb-40603630178a","ios":"levelo://app?vid=f49ac45c-eccb-4aac-85cb-40603630178a"},"vehicle_type_id":"4","last_reported":1725030544,"current_range_meters":12000,"station_id":"ce4bh092rcd13ifvqd30","pricing_plan_id":"cebpf4jnsgd1na2vs0mg"},{"bike_id":"1e8f011e-d4a1-401d-a0ca-296787f25da0","system_id":"levelo_inurba_marseille","lat":43.33746,"lon":5.37448,"is_reserved":false,"is_disabled":false,"rental_uris":{"android":"levelo://app?vid=1e8f011e-d4a1-401d-a0ca-296787f25da0","ios":"levelo://app?vid=1e8f011e-d4a1-401d-a0ca-296787f25da0"},"vehicle_type_id":"4","last_reported":1725030544,"current_range_meters":14400,"station_id":"","pricing_plan_id":"cebpf4jnsgd1na2vs0mg"},{"bike_id":"e010a9af-4683-4d49-8703-7afe33fa4fb9","system_id":"levelo_inurba_marseille","lat":43.312609,"lon":5.401662,"is_reserved":false,"is_disabled":false,"rental_uris":{"android":"levelo://app?vid=e010a9af-4683-4d49-8703-7afe33fa4fb9","ios":"levelo://app?vid=e010a9af-4683-4d49-8703-7afe33fa4fb9"},"vehicle_type_id":"4","last_reported":1725030544,"current_range_meters":19600,"station_id":"ce4bh092rcd13ifvqd30","pricing_plan_id":"cebpf4jnsgd1na2vs0mg"},{"bike_id":"0dc530af-2bd8-4e87-af51-1339e21f0cad","system_id":"levelo_inurba_marseille","lat":43.309371,"lon":5.401449,"is_reserved":false,"is_disabled":false,"rental_uris":{"android":"levelo://app?vid=0dc530af-2bd8-4e87-af51-1339e21f0cad","ios":"levelo://app?vid=0dc530af-2bd8-4e87-af51-1339e21f0cad"},"vehicle_type_id":"4","last_reported":1725030544,"current_range_meters":12000,"station_id":"ce4bgvp2rcd13ifvqct0","pricing_plan_id":"cebpf4jnsgd1na2vs0mg"},{"bike_id":"f7c22a0a-f9f2-4247-987e-ca19900ccd59","system_id":"levelo_inurba_marseille","lat":43.309371,"lon":5.401449,"is_reserved":false,"is_disabled":false,"rental_uris":{"android":"levelo://app?vid=f7c22a0a-f9f2-4247-987e-ca19900ccd59","ios":"levelo://app?vid=f7c22a0a-f9f2-4247-987e-ca19900ccd59"},"vehicle_type_id":"4","last_reported":1725030544,"current_range_meters":0,"station_id":"ce4bgvp2rcd13ifvqct0","pricing_plan_id":"cebpf4jnsgd1na2vs0mg"},{"bike_id":"fb825c6b-5f61-4ccc-9aad-c2e2b10dac9b","system_id":"levelo_inurba_marseille","lat":43.309371,"lon":5.401449,"is_reserved":false,"is_disabled":false,"rental_uris":{"android":"levelo://app?vid=fb825c6b-5f61-4ccc-9aad-c2e2b10dac9b","ios":"levelo://app?vid=fb825c6b-5f61-4ccc-9aad-c2e2b10dac9b"},"vehicle_type_id":"4","last_reported":1725030544,"current_range_meters":12400,"station_id":"ce4bgvp2rcd13ifvqct0","pricing_plan_id":"cebpf4jnsgd1na2vs0mg"},{"bike_id":"40b14f62-1032-41aa-99cc-4ce627a28f5a","system_id":"levelo_inurba_marseille","lat":43.33757,"lon":5.37485,"is_reserved":false,"is_disabled":false,"rental_uris":{"android":"levelo://app?vid=40b14f62-1032-41aa-99cc-4ce627a28f5a","ios":"levelo://app?vid=40b14f62-1032-41aa-99cc-4ce627a28f5a"},"vehicle_type_id":"4","last_reported":1725030544,"current_range_meters":6800,"station_id":"","pricing_plan_id":"cebpf4jnsgd1na2vs0mg"},{"bike_id":"a7029d00-c10b-408e-be23-9e77cc35d9e0","system_id":"levelo_inurba_marseille","lat":43.301117,"lon":5.398795,"is_reserved":false,"is_disabled":false,"rental_uris":{"android":"levelo://app?vid=a7029d00-c10b-408e-be23-9e77cc35d9e0","ios":"levelo://app?vid=a7029d00-c10b-408e-be23-9e77cc35d9e0"},"vehicle_type_id":"4","last_reported":1725030544,"current_range_meters":16000,"station_id":"ce4bh0h2rcd13ifvqd40","pricing_plan_id":"cebpf4jnsgd1na2vs0mg"},{"bike_id":"46cad8a3-4861-4349-abfd-982f18a3d727","system_id":"levelo_inurba_marseille","lat":43.28728,"lon":5.36081,"is_reserved":false,"is_disabled":false,"rental_uris":{"android":"levelo://app?vid=46cad8a3-4861-4349-abfd-982f18a3d727","ios":"levelo://app?vid=46cad8a3-4861-4349-abfd-982f18a3d727"},"vehicle_type_id":"4","last_reported":1725030544,"current_range_meters":0,"station_id":"cki0cbj6b192h4jlfktg","pricing_plan_id":"cebpf4jnsgd1na2vs0mg"},{"bike_id":"1e4ffd91-ae0b-4913-9bdc-14bf97b49033","system_id":"levelo_inurba_marseille","lat":43.28726,"lon":5.36093,"is_reserved":false,"is_disabled":false,"rental_uris":{"android":"levelo://app?vid=1e4ffd91-ae0b-4913-9bdc-14bf97b49033","ios":"levelo://app?vid=1e4ffd91-ae0b-4913-9bdc-14bf97b49033"},"vehicle_type_id":"4","last_reported":1725030544,"current_range_meters":0,"station_id":"cki0cbj6b192h4jlfktg","pricing_plan_id":"cebpf4jnsgd1na2vs0mg"},{"bike_id":"6a60294d-4e19-4922-89d2-5af00df90459","system_id":"levelo_inurba_marseille","lat":43.28727,"lon":5.36078,"is_reserved":false,"is_disabled":false,"rental_uris":{"android":"levelo://app?vid=6a60294d-4e19-4922-89d2-5af00df90459","ios":"levelo://app?vid=6a60294d-4e19-4922-89d2-5af00df90459"},"vehicle_type_id":"4","last_reported":1725030544,"current_range_meters":2800,"station_id":"cki0cbj6b192h4jlfktg","pricing_plan_id":"cebpf4jnsgd1na2vs0mg"},{"bike_id":"3f718989-2cb2-48fd-9ed2-ef4da342431b","system_id":"levelo_inurba_marseille","lat":43.286961,"lon":5.373785,"is_reserved":false,"is_disabled":false,"rental_uris":{"android":"levelo://app?vid=3f718989-2cb2-48fd-9ed2-ef4da342431b","ios":"levelo://app?vid=3f718989-2cb2-48fd-9ed2-ef4da342431b"},"vehicle_type_id":"4","last_reported":1725030544,"current_range_meters":29200,"station_id":"ce4bh3p2rcd13ifvqdq0","pricing_plan_id":"cebpf4jnsgd1na2vs0mg"},{"bike_id":"e1109ac3-6da4-456c-9641-da1fb6f96739","system_id":"levelo_inurba_marseille","lat":43.286961,"lon":5.373785,"is_reserved":false,"is_disabled":false,"rental_uris":{"android":"levelo://app?vid=e1109ac3-6da4-456c-9641-da1fb6f96739","ios":"levelo://app?vid=e1109ac3-6da4-456c-9641-da1fb6f96739"},"vehicle_type_id":"4","last_reported":1725030544,"current_range_meters":23200,"station_id":"ce4bh3p2rcd13ifvqdq0","pricing_plan_id":"cebpf4jnsgd1na2vs0mg"},{"bike_id":"94b2714d-52dd-4276-949d-5234b3d1d4e4","system_id":"levelo_inurba_marseille","lat":43.298681,"lon":5.397225,"is_reserved":false,"is_disabled":false,"rental_uris":{"android":"levelo://app?vid=94b2714d-52dd-4276-949d-5234b3d1d4e4","ios":"levelo://app?vid=94b2714d-52dd-4276-949d-5234b3d1d4e4"},"vehicle_type_id":"4","last_reported":1725030544,"current_range_meters":10000,"station_id":"ce4bh0h2rcd13ifvqd50","pricing_plan_id":"cebpf4jnsgd1na2vs0mg"},{"bike_id":"150cf83d-d730-44b9-bd34-af57c1668552","system_id":"levelo_inurba_marseille","lat":43.286961,"lon":5.373785,"is_reserved":false,"is_disabled":false,"rental_uris":{"android":"levelo://app?vid=150cf83d-d730-44b9-bd34-af57c1668552","ios":"levelo://app?vid=150cf83d-d730-44b9-bd34-af57c1668552"},"vehicle_type_id":"4","last_reported":1725030544,"current_range_meters":16400,"station_id":"ce4bh3p2rcd13ifvqdq0","pricing_plan_id":"cebpf4jnsgd1na2vs0mg"},{"bike_id":"fd2ffee0-8781-4aa1-8a35-f8ad54f15305","system_id":"levelo_inurba_marseille","lat":43.286728,"lon":5.362602,"is_reserved":false,"is_disabled":false,"rental_uris":{"android":"levelo://app?vid=fd2ffee0-8781-4aa1-8a35-f8ad54f15305","ios":"levelo://app?vid=fd2ffee0-8781-4aa1-8a35-f8ad54f15305"},"vehicle_type_id":"4","last_reported":1725030544,"current_range_meters":0,"station_id":"","pricing_plan_id":"cebpf4jnsgd1na2vs0mg"},{"bike_id":"db1dea5c-06a7-4fa9-b267-a8d0913244ed","system_id":"levelo_inurba_marseille","lat":43.289307,"lon":5.38406,"is_reserved":false,"is_disabled":false,"rental_uris":{"android":"levelo://app?vid=db1dea5c-06a7-4fa9-b267-a8d0913244ed","ios":"levelo://app?vid=db1dea5c-06a7-4fa9-b267-a8d0913244ed"},"vehicle_type_id":"4","last_reported":1725030544,"current_range_meters":11200,"station_id":"ce4bh612rcd13ifvqe6g","pricing_plan_id":"cebpf4jnsgd1na2vs0mg"},{"bike_id":"83a62a57-9751-48a6-91dc-7191f4a7fe4b","system_id":"levelo_inurba_marseille","lat":43.290345,"lon":5.38646,"is_reserved":false,"is_disabled":false,"rental_uris":{"android":"levelo://app?vid=83a62a57-9751-48a6-91dc-7191f4a7fe4b","ios":"levelo://app?vid=83a62a57-9751-48a6-91dc-7191f4a7fe4b"},"vehicle_type_id":"4","last_reported":1725030544,"current_range_meters":18000,"station_id":"ce4bh4p2rcd13ifvqe0g","pricing_plan_id":"cebpf4jnsgd1na2vs0mg"},{"bike_id":"de674594-44ad-4a5b-95f5-231cfb2fa978","system_id":"levelo_inurba_marseille","lat":43.290336,"lon":5.386425,"is_reserved":false,"is_disabled":false,"rental_uris":{"android":"levelo://app?vid=de674594-44ad-4a5b-95f5-231cfb2fa978","ios":"levelo://app?vid=de674594-44ad-4a5b-95f5-231cfb2fa978"},"vehicle_type_id":"4","last_reported":1725030544,"current_range_meters":0,"station_id":"ce4bh4p2rcd13ifvqe0g","pricing_plan_id":"cebpf4jnsgd1na2vs0mg"},{"bike_id":"ad90c259-cd38-4f52-8da1-b10fc02ead1d","system_id":"levelo_inurba_marseille","lat":43.289307,"lon":5.38406,"is_reserved":false,"is_disabled":false,"rental_uris":{"android":"levelo://app?vid=ad90c259-cd38-4f52-8da1-b10fc02ead1d","ios":"levelo://app?vid=ad90c259-cd38-4f52-8da1-b10fc02ead1d"},"vehicle_type_id":"4","last_reported":1725030544,"current_range_meters":19200,"station_id":"ce4bh612rcd13ifvqe6g","pricing_plan_id":"cebpf4jnsgd1na2vs0mg"},{"bike_id":"dce486b1-9ec6-4ae5-ad20-dccda199e5be","system_id":"levelo_inurba_marseille","lat":43.290336,"lon":5.386425,"is_reserved":false,"is_disabled":false,"rental_uris":{"android":"levelo://app?vid=dce486b1-9ec6-4ae5-ad20-dccda199e5be","ios":"levelo://app?vid=dce486b1-9ec6-4ae5-ad20-dccda199e5be"},"vehicle_type_id":"4","last_reported":1725030544,"current_range_meters":20000,"station_id":"ce4bh4p2rcd13ifvqe0g","pricing_plan_id":"cebpf4jnsgd1na2vs0mg"},{"bike_id":"4eae7672-df14-4c65-9f0b-2e425c31259c","system_id":"levelo_inurba_marseille","lat":43.286039,"lon":5.370679,"is_reserved":false,"is_disabled":false,"rental_uris":{"android":"levelo://app?vid=4eae7672-df14-4c65-9f0b-2e425c31259c","ios":"levelo://app?vid=4eae7672-df14-4c65-9f0b-2e425c31259c"},"vehicle_type_id":"4","last_reported":1725030544,"current_range_meters":8400,"station_id":"ce4bht12rcd13ifvqi60","pricing_plan_id":"cebpf4jnsgd1na2vs0mg"},{"bike_id":"29b16561-ac25-4504-bf8e-5ea6616a1f79","system_id":"levelo_inurba_marseille","lat":43.287913,"lon":5.382628,"is_reserved":false,"is_disabled":false,"rental_uris":{"android":"levelo://app?vid=29b16561-ac25-4504-bf8e-5ea6616a1f79","ios":"levelo://app?vid=29b16561-ac25-4504-bf8e-5ea6616a1f79"},"vehicle_type_id":"4","last_reported":1725030544,"current_range_meters":24000,"station_id":"","pricing_plan_id":"cebpf4jnsgd1na2vs0mg"},{"bike_id":"9ecf9b78-e161-4ad6-8a8f-92509a27d211","system_id":"levelo_inurba_marseille","lat":43.316828,"lon":5.404723,"is_reserved":false,"is_disabled":false,"rental_uris":{"android":"levelo://app?vid=9ecf9b78-e161-4ad6-8a8f-92509a27d211","ios":"levelo://app?vid=9ecf9b78-e161-4ad6-8a8f-92509a27d211"},"vehicle_type_id":"4","last_reported":1725030544,"current_range_meters":26400,"station_id":"ce4bh012rcd13ifvqd00","pricing_plan_id":"cebpf4jnsgd1na2vs0mg"},{"bike_id":"b54cbf6d-6781-4730-be6a-72c8557503c3","system_id":"levelo_inurba_marseille","lat":43.316828,"lon":5.404723,"is_reserved":false,"is_disabled":false,"rental_uris":{"android":"levelo://app?vid=b54cbf6d-6781-4730-be6a-72c8557503c3","ios":"levelo://app?vid=b54cbf6d-6781-4730-be6a-72c8557503c3"},"vehicle_type_id":"4","last_reported":1725030544,"current_range_meters":26800,"station_id":"ce4bh012rcd13ifvqd00","pricing_plan_id":"cebpf4jnsgd1na2vs0mg"},{"bike_id":"59f0869a-4575-4b72-97e7-e4f8e10ecf71","system_id":"levelo_inurba_marseille","lat":43.291994,"lon":5.392907,"is_reserved":false,"is_disabled":false,"rental_uris":{"android":"levelo://app?vid=59f0869a-4575-4b72-97e7-e4f8e10ecf71","ios":"levelo://app?vid=59f0869a-4575-4b72-97e7-e4f8e10ecf71"},"vehicle_type_id":"4","last_reported":1725030544,"current_range_meters":29600,"station_id":"ce4bh192rcd13ifvqdd0","pricing_plan_id":"cebpf4jnsgd1na2vs0mg"},{"bike_id":"0667b806-4281-4607-8143-9b63170bd117","system_id":"levelo_inurba_marseille","lat":43.2848,"lon":5.374713,"is_reserved":false,"is_disabled":false,"rental_uris":{"android":"levelo://app?vid=0667b806-4281-4607-8143-9b63170bd117","ios":"levelo://app?vid=0667b806-4281-4607-8143-9b63170bd117"},"vehicle_type_id":"4","last_reported":1725030544,"current_range_meters":14400,"station_id":"","pricing_plan_id":"cebpf4jnsgd1na2vs0mg"},{"bike_id":"1d8d0f22-cdb2-42df-8ff2-629da276daac","system_id":"levelo_inurba_marseille","lat":43.317592,"lon":5.40576,"is_reserved":false,"is_disabled":false,"rental_uris":{"android":"levelo://app?vid=1d8d0f22-cdb2-42df-8ff2-629da276daac","ios":"levelo://app?vid=1d8d0f22-cdb2-42df-8ff2-629da276daac"},"vehicle_type_id":"4","last_reported":1725030544,"current_range_meters":9600,"station_id":"","pricing_plan_id":"cebpf4jnsgd1na2vs0mg"},{"bike_id":"ca878ee2-710e-420c-98a3-0c1443dfa3a7","system_id":"levelo_inurba_marseille","lat":43.294314,"lon":5.397498,"is_reserved":false,"is_disabled":false,"rental_uris":{"android":"levelo://app?vid=ca878ee2-710e-420c-98a3-0c1443dfa3a7","ios":"levelo://app?vid=ca878ee2-710e-420c-98a3-0c1443dfa3a7"},"vehicle_type_id":"4","last_reported":1725030544,"current_range_meters":3600,"station_id":"ce4bh3h2rcd13ifvqdo0","pricing_plan_id":"cebpf4jnsgd1na2vs0mg"},{"bike_id":"20d27d70-8509-4c3c-aa90-03d0d5418ccf","system_id":"levelo_inurba_marseille","lat":43.294314,"lon":5.397498,"is_reserved":false,"is_disabled":false,"rental_uris":{"android":"levelo://app?vid=20d27d70-8509-4c3c-aa90-03d0d5418ccf","ios":"levelo://app?vid=20d27d70-8509-4c3c-aa90-03d0d5418ccf"},"vehicle_type_id":"4","last_reported":1725030544,"current_range_meters":9200,"station_id":"ce4bh3h2rcd13ifvqdo0","pricing_plan_id":"cebpf4jnsgd1na2vs0mg"},{"bike_id":"179c7f97-f135-4460-91b2-7bf1a21ca572","system_id":"levelo_inurba_marseille","lat":43.231919,"lon":5.355532,"is_reserved":false,"is_disabled":false,"rental_uris":{"android":"levelo://app?vid=179c7f97-f135-4460-91b2-7bf1a21ca572","ios":"levelo://app?vid=179c7f97-f135-4460-91b2-7bf1a21ca572"},"vehicle_type_id":"4","last_reported":1725030544,"current_range_meters":30400,"station_id":"ce4bhu92rcd13ifvqi70","pricing_plan_id":"cebpf4jnsgd1na2vs0mg"},{"bike_id":"726bfe1f-a80b-44ec-ab3d-c9011dafbce1","system_id":"levelo_inurba_marseille","lat":43.303256,"lon":5.404389,"is_reserved":false,"is_disabled":false,"rental_uris":{"android":"levelo://app?vid=726bfe1f-a80b-44ec-ab3d-c9011dafbce1","ios":"levelo://app?vid=726bfe1f-a80b-44ec-ab3d-c9011dafbce1"},"vehicle_type_id":"4","last_reported":1725030544,"current_range_meters":13600,"station_id":"ce4bh012rcd13ifvqd10","pricing_plan_id":"cebpf4jnsgd1na2vs0mg"},{"bike_id":"d82d2de6-6e4b-4619-8261-e1460a021152","system_id":"levelo_inurba_marseille","lat":43.28622,"lon":5.35103,"is_reserved":false,"is_disabled":false,"rental_uris":{"android":"levelo://app?vid=d82d2de6-6e4b-4619-8261-e1460a021152","ios":"levelo://app?vid=d82d2de6-6e4b-4619-8261-e1460a021152"},"vehicle_type_id":"4","last_reported":1725030544,"current_range_meters":0,"station_id":"ce4bhch2rcd13ifvqeug","pricing_plan_id":"cebpf4jnsgd1na2vs0mg"},{"bike_id":"99e121cb-a560-4871-a6a7-d99d9cffff30","system_id":"levelo_inurba_marseille","lat":43.28621,"lon":5.35102,"is_reserved":false,"is_disabled":false,"rental_uris":{"android":"levelo://app?vid=99e121cb-a560-4871-a6a7-d99d9cffff30","ios":"levelo://app?vid=99e121cb-a560-4871-a6a7-d99d9cffff30"},"vehicle_type_id":"4","last_reported":1725030544,"current_range_meters":0,"station_id":"ce4bhch2rcd13ifvqeug","pricing_plan_id":"cebpf4jnsgd1na2vs0mg"},{"bike_id":"49a0f8ea-76b7-4219-b27f-1a915cd267a5","system_id":"levelo_inurba_marseille","lat":43.28621,"lon":5.35101,"is_reserved":false,"is_disabled":false,"rental_uris":{"android":"levelo://app?vid=49a0f8ea-76b7-4219-b27f-1a915cd267a5","ios":"levelo://app?vid=49a0f8ea-76b7-4219-b27f-1a915cd267a5"},"vehicle_type_id":"4","last_reported":1725030544,"current_range_meters":31200,"station_id":"ce4bhch2rcd13ifvqeug","pricing_plan_id":"cebpf4jnsgd1na2vs0mg"},{"bike_id":"393d0f65-9517-4723-87c2-05daea577835","system_id":"levelo_inurba_marseille","lat":43.28621,"lon":5.35101,"is_reserved":false,"is_disabled":false,"rental_uris":{"android":"levelo://app?vid=393d0f65-9517-4723-87c2-05daea577835","ios":"levelo://app?vid=393d0f65-9517-4723-87c2-05daea577835"},"vehicle_type_id":"4","last_reported":1725030544,"current_range_meters":18000,"station_id":"ce4bhch2rcd13ifvqeug","pricing_plan_id":"cebpf4jnsgd1na2vs0mg"},{"bike_id":"fe4309e1-bdd9-4a07-ba89-4c7916e6a873","system_id":"levelo_inurba_marseille","lat":43.286191,"lon":5.351051,"is_reserved":false,"is_disabled":false,"rental_uris":{"android":"levelo://app?vid=fe4309e1-bdd9-4a07-ba89-4c7916e6a873","ios":"levelo://app?vid=fe4309e1-bdd9-4a07-ba89-4c7916e6a873"},"vehicle_type_id":"4","last_reported":1725030544,"current_range_meters":0,"station_id":"","pricing_plan_id":"cebpf4jnsgd1na2vs0mg"},{"bike_id":"dfc8b114-11af-4632-8704-98cdbcf4efe9","system_id":"levelo_inurba_marseille","lat":43.286198,"lon":5.350988,"is_reserved":false,"is_disabled":false,"rental_uris":{"android":"levelo://app?vid=dfc8b114-11af-4632-8704-98cdbcf4efe9","ios":"levelo://app?vid=dfc8b114-11af-4632-8704-98cdbcf4efe9"},"vehicle_type_id":"4","last_reported":1725030544,"current_range_meters":16400,"station_id":"ce4bhch2rcd13ifvqeug","pricing_plan_id":"cebpf4jnsgd1na2vs0mg"},{"bike_id":"4e318558-3480-473a-9615-2c0f372276d7","system_id":"levelo_inurba_marseille","lat":43.28616,"lon":5.3511,"is_reserved":false,"is_disabled":false,"rental_uris":{"android":"levelo://app?vid=4e318558-3480-473a-9615-2c0f372276d7","ios":"levelo://app?vid=4e318558-3480-473a-9615-2c0f372276d7"},"vehicle_type_id":"4","last_reported":1725030544,"current_range_meters":4000,"station_id":"ce4bhch2rcd13ifvqeug","pricing_plan_id":"cebpf4jnsgd1na2vs0mg"},{"bike_id":"616a58bb-77dc-4abf-aa61-6097e5031ba3","system_id":"levelo_inurba_marseille","lat":43.285848,"lon":5.350787,"is_reserved":false,"is_disabled":false,"rental_uris":{"android":"levelo://app?vid=616a58bb-77dc-4abf-aa61-6097e5031ba3","ios":"levelo://app?vid=616a58bb-77dc-4abf-aa61-6097e5031ba3"},"vehicle_type_id":"4","last_reported":1725030544,"current_range_meters":30800,"station_id":"ce4bhch2rcd13ifvqeug","pricing_plan_id":"cebpf4jnsgd1na2vs0mg"},{"bike_id":"812567fa-7525-4343-b710-068673bc6a5c","system_id":"levelo_inurba_marseille","lat":43.28616,"lon":5.35103,"is_reserved":false,"is_disabled":false,"rental_uris":{"android":"levelo://app?vid=812567fa-7525-4343-b710-068673bc6a5c","ios":"levelo://app?vid=812567fa-7525-4343-b710-068673bc6a5c"},"vehicle_type_id":"4","last_reported":1725030544,"current_range_meters":6800,"station_id":"ce4bhch2rcd13ifvqeug","pricing_plan_id":"cebpf4jnsgd1na2vs0mg"},{"bike_id":"6394c286-4209-4896-ad3a-2eff1ca1577d","system_id":"levelo_inurba_marseille","lat":43.28616,"lon":5.35101,"is_reserved":false,"is_disabled":false,"rental_uris":{"android":"levelo://app?vid=6394c286-4209-4896-ad3a-2eff1ca1577d","ios":"levelo://app?vid=6394c286-4209-4896-ad3a-2eff1ca1577d"},"vehicle_type_id":"4","last_reported":1725030544,"current_range_meters":30800,"station_id":"ce4bhch2rcd13ifvqeug","pricing_plan_id":"cebpf4jnsgd1na2vs0mg"},{"bike_id":"c38ecb6f-69d3-498a-a2f9-f23a0edc01c0","system_id":"levelo_inurba_marseille","lat":43.28615,"lon":5.35097,"is_reserved":false,"is_disabled":false,"rental_uris":{"android":"levelo://app?vid=c38ecb6f-69d3-498a-a2f9-f23a0edc01c0","ios":"levelo://app?vid=c38ecb6f-69d3-498a-a2f9-f23a0edc01c0"},"vehicle_type_id":"4","last_reported":1725030544,"current_range_meters":28400,"station_id":"ce4bhch2rcd13ifvqeug","pricing_plan_id":"cebpf4jnsgd1na2vs0mg"},{"bike_id":"37c5acf0-6f22-4274-86fb-5ea68a88e053","system_id":"levelo_inurba_marseille","lat":43.285848,"lon":5.350787,"is_reserved":false,"is_disabled":false,"rental_uris":{"android":"levelo://app?vid=37c5acf0-6f22-4274-86fb-5ea68a88e053","ios":"levelo://app?vid=37c5acf0-6f22-4274-86fb-5ea68a88e053"},"vehicle_type_id":"4","last_reported":1725030544,"current_range_meters":13200,"station_id":"ce4bhch2rcd13ifvqeug","pricing_plan_id":"cebpf4jnsgd1na2vs0mg"},{"bike_id":"83638d32-050b-4f58-b5d9-18f0432caa70","system_id":"levelo_inurba_marseille","lat":43.283998,"lon":5.375062,"is_reserved":false,"is_disabled":false,"rental_uris":{"android":"levelo://app?vid=83638d32-050b-4f58-b5d9-18f0432caa70","ios":"levelo://app?vid=83638d32-050b-4f58-b5d9-18f0432caa70"},"vehicle_type_id":"4","last_reported":1725030544,"current_range_meters":13600,"station_id":"ce4bh412rcd13ifvqds0","pricing_plan_id":"cebpf4jnsgd1na2vs0mg"},{"bike_id":"398f355b-d7bb-4b73-ab49-abee53460ad2","system_id":"levelo_inurba_marseille","lat":43.283998,"lon":5.375062,"is_reserved":false,"is_disabled":false,"rental_uris":{"android":"levelo://app?vid=398f355b-d7bb-4b73-ab49-abee53460ad2","ios":"levelo://app?vid=398f355b-d7bb-4b73-ab49-abee53460ad2"},"vehicle_type_id":"4","last_reported":1725030544,"current_range_meters":7200,"station_id":"ce4bh412rcd13ifvqds0","pricing_plan_id":"cebpf4jnsgd1na2vs0mg"},{"bike_id":"e83c6cc6-ce75-4527-95f8-0c0e44d7861c","system_id":"levelo_inurba_marseille","lat":43.283998,"lon":5.375062,"is_reserved":false,"is_disabled":false,"rental_uris":{"android":"levelo://app?vid=e83c6cc6-ce75-4527-95f8-0c0e44d7861c","ios":"levelo://app?vid=e83c6cc6-ce75-4527-95f8-0c0e44d7861c"},"vehicle_type_id":"4","last_reported":1725030544,"current_range_meters":800,"station_id":"ce4bh412rcd13ifvqds0","pricing_plan_id":"cebpf4jnsgd1na2vs0mg"},{"bike_id":"0548b1a8-34ea-4b83-af9e-ed23df7830fc","system_id":"levelo_inurba_marseille","lat":43.283998,"lon":5.375062,"is_reserved":false,"is_disabled":false,"rental_uris":{"android":"levelo://app?vid=0548b1a8-34ea-4b83-af9e-ed23df7830fc","ios":"levelo://app?vid=0548b1a8-34ea-4b83-af9e-ed23df7830fc"},"vehicle_type_id":"4","last_reported":1725030544,"current_range_meters":3200,"station_id":"ce4bh412rcd13ifvqds0","pricing_plan_id":"cebpf4jnsgd1na2vs0mg"},{"bike_id":"e6c72151-b85f-4f5d-970e-1b95ce230453","system_id":"levelo_inurba_marseille","lat":43.295713,"lon":5.399639,"is_reserved":false,"is_disabled":false,"rental_uris":{"android":"levelo://app?vid=e6c72151-b85f-4f5d-970e-1b95ce230453","ios":"levelo://app?vid=e6c72151-b85f-4f5d-970e-1b95ce230453"},"vehicle_type_id":"4","last_reported":1725030544,"current_range_meters":7200,"station_id":"ce4bh312rcd13ifvqdj0","pricing_plan_id":"cebpf4jnsgd1na2vs0mg"},{"bike_id":"4d901ab9-115b-4a78-b936-ebf25424dbd5","system_id":"levelo_inurba_marseille","lat":43.29577,"lon":5.39964,"is_reserved":false,"is_disabled":false,"rental_uris":{"android":"levelo://app?vid=4d901ab9-115b-4a78-b936-ebf25424dbd5","ios":"levelo://app?vid=4d901ab9-115b-4a78-b936-ebf25424dbd5"},"vehicle_type_id":"4","last_reported":1725030544,"current_range_meters":0,"station_id":"ce4bh312rcd13ifvqdj0","pricing_plan_id":"cebpf4jnsgd1na2vs0mg"},{"bike_id":"956fa3d1-a69a-4775-b00c-a1669abf1555","system_id":"levelo_inurba_marseille","lat":43.295713,"lon":5.399639,"is_reserved":false,"is_disabled":false,"rental_uris":{"android":"levelo://app?vid=956fa3d1-a69a-4775-b00c-a1669abf1555","ios":"levelo://app?vid=956fa3d1-a69a-4775-b00c-a1669abf1555"},"vehicle_type_id":"4","last_reported":1725030544,"current_range_meters":12800,"station_id":"ce4bh312rcd13ifvqdj0","pricing_plan_id":"cebpf4jnsgd1na2vs0mg"},{"bike_id":"7150d769-12b1-4f13-92aa-ce99694d8c00","system_id":"levelo_inurba_marseille","lat":43.295713,"lon":5.399639,"is_reserved":false,"is_disabled":false,"rental_uris":{"android":"levelo://app?vid=7150d769-12b1-4f13-92aa-ce99694d8c00","ios":"levelo://app?vid=7150d769-12b1-4f13-92aa-ce99694d8c00"},"vehicle_type_id":"4","last_reported":1725030544,"current_range_meters":13200,"station_id":"ce4bh312rcd13ifvqdj0","pricing_plan_id":"cebpf4jnsgd1na2vs0mg"},{"bike_id":"cbd40662-8ce0-43ed-8cc5-ed3d1856152a","system_id":"levelo_inurba_marseille","lat":43.295713,"lon":5.399639,"is_reserved":false,"is_disabled":false,"rental_uris":{"android":"levelo://app?vid=cbd40662-8ce0-43ed-8cc5-ed3d1856152a","ios":"levelo://app?vid=cbd40662-8ce0-43ed-8cc5-ed3d1856152a"},"vehicle_type_id":"4","last_reported":1725030544,"current_range_meters":12800,"station_id":"ce4bh312rcd13ifvqdj0","pricing_plan_id":"cebpf4jnsgd1na2vs0mg"},{"bike_id":"54aa6740-0116-45e9-9fc2-c709fc6523b9","system_id":"levelo_inurba_marseille","lat":43.295713,"lon":5.399639,"is_reserved":false,"is_disabled":false,"rental_uris":{"android":"levelo://app?vid=54aa6740-0116-45e9-9fc2-c709fc6523b9","ios":"levelo://app?vid=54aa6740-0116-45e9-9fc2-c709fc6523b9"},"vehicle_type_id":"4","last_reported":1725030544,"current_range_meters":21600,"station_id":"ce4bh312rcd13ifvqdj0","pricing_plan_id":"cebpf4jnsgd1na2vs0mg"},{"bike_id":"ada00819-bd51-4c10-88f8-afe4be01f209","system_id":"levelo_inurba_marseille","lat":43.286595,"lon":5.386795,"is_reserved":false,"is_disabled":false,"rental_uris":{"android":"levelo://app?vid=ada00819-bd51-4c10-88f8-afe4be01f209","ios":"levelo://app?vid=ada00819-bd51-4c10-88f8-afe4be01f209"},"vehicle_type_id":"4","last_reported":1725030544,"current_range_meters":14000,"station_id":"ce4bh492rcd13ifvqdug","pricing_plan_id":"cebpf4jnsgd1na2vs0mg"},{"bike_id":"245334b0-9c47-40ea-a142-5f3f1cbec7cb","system_id":"levelo_inurba_marseille","lat":43.286595,"lon":5.386795,"is_reserved":false,"is_disabled":false,"rental_uris":{"android":"levelo://app?vid=245334b0-9c47-40ea-a142-5f3f1cbec7cb","ios":"levelo://app?vid=245334b0-9c47-40ea-a142-5f3f1cbec7cb"},"vehicle_type_id":"4","last_reported":1725030544,"current_range_meters":2000,"station_id":"ce4bh492rcd13ifvqdug","pricing_plan_id":"cebpf4jnsgd1na2vs0mg"},{"bike_id":"4121c41f-0ce0-4a8e-b856-fe4236c1b24f","system_id":"levelo_inurba_marseille","lat":43.286595,"lon":5.386795,"is_reserved":false,"is_disabled":false,"rental_uris":{"android":"levelo://app?vid=4121c41f-0ce0-4a8e-b856-fe4236c1b24f","ios":"levelo://app?vid=4121c41f-0ce0-4a8e-b856-fe4236c1b24f"},"vehicle_type_id":"4","last_reported":1725030544,"current_range_meters":14800,"station_id":"ce4bh492rcd13ifvqdug","pricing_plan_id":"cebpf4jnsgd1na2vs0mg"},{"bike_id":"712bd222-3081-4a84-b850-9cfbe0687747","system_id":"levelo_inurba_marseille","lat":43.32668,"lon":5.40308,"is_reserved":false,"is_disabled":false,"rental_uris":{"android":"levelo://app?vid=712bd222-3081-4a84-b850-9cfbe0687747","ios":"levelo://app?vid=712bd222-3081-4a84-b850-9cfbe0687747"},"vehicle_type_id":"4","last_reported":1725030544,"current_range_meters":5200,"station_id":"ce4rr2p2rcd13i802rgg","pricing_plan_id":"cebpf4jnsgd1na2vs0mg"},{"bike_id":"77e5d9bc-b315-4dc5-a220-9d5083eb15fa","system_id":"levelo_inurba_marseille","lat":43.297946,"lon":5.404063,"is_reserved":false,"is_disabled":false,"rental_uris":{"android":"levelo://app?vid=77e5d9bc-b315-4dc5-a220-9d5083eb15fa","ios":"levelo://app?vid=77e5d9bc-b315-4dc5-a220-9d5083eb15fa"},"vehicle_type_id":"4","last_reported":1725030544,"current_range_meters":8800,"station_id":"ce4bh112rcd13ifvqd90","pricing_plan_id":"cebpf4jnsgd1na2vs0mg"},{"bike_id":"8786a59f-c230-4592-b4ec-c67411dab3a2","system_id":"levelo_inurba_marseille","lat":43.3231,"lon":5.40621,"is_reserved":false,"is_disabled":false,"rental_uris":{"android":"levelo://app?vid=8786a59f-c230-4592-b4ec-c67411dab3a2","ios":"levelo://app?vid=8786a59f-c230-4592-b4ec-c67411dab3a2"},"vehicle_type_id":"4","last_reported":1725030544,"current_range_meters":4800,"station_id":"ce4bhq92rcd13ifvqhjg","pricing_plan_id":"cebpf4jnsgd1na2vs0mg"},{"bike_id":"4c0f134b-e15a-4e94-ae0a-1168594b6ca4","system_id":"levelo_inurba_marseille","lat":43.33717,"lon":5.391857,"is_reserved":false,"is_disabled":false,"rental_uris":{"android":"levelo://app?vid=4c0f134b-e15a-4e94-ae0a-1168594b6ca4","ios":"levelo://app?vid=4c0f134b-e15a-4e94-ae0a-1168594b6ca4"},"vehicle_type_id":"4","last_reported":1725030544,"current_range_meters":23600,"station_id":"ce4bhr92rcd13ifvqhsg","pricing_plan_id":"cebpf4jnsgd1na2vs0mg"},{"bike_id":"d6cac55c-6e4e-4573-bd11-a60f7b67b5ba","system_id":"levelo_inurba_marseille","lat":43.33728,"lon":5.39198,"is_reserved":false,"is_disabled":false,"rental_uris":{"android":"levelo://app?vid=d6cac55c-6e4e-4573-bd11-a60f7b67b5ba","ios":"levelo://app?vid=d6cac55c-6e4e-4573-bd11-a60f7b67b5ba"},"vehicle_type_id":"4","last_reported":1725030544,"current_range_meters":18000,"station_id":"ce4bhr92rcd13ifvqhsg","pricing_plan_id":"cebpf4jnsgd1na2vs0mg"},{"bike_id":"4ab059e9-e8a3-454f-8d83-1bd49a9acb70","system_id":"levelo_inurba_marseille","lat":43.32361,"lon":5.40631,"is_reserved":false,"is_disabled":false,"rental_uris":{"android":"levelo://app?vid=4ab059e9-e8a3-454f-8d83-1bd49a9acb70","ios":"levelo://app?vid=4ab059e9-e8a3-454f-8d83-1bd49a9acb70"},"vehicle_type_id":"4","last_reported":1725030544,"current_range_meters":8400,"station_id":"ce4bhq92rcd13ifvqhjg","pricing_plan_id":"cebpf4jnsgd1na2vs0mg"},{"bike_id":"f3288b9e-4f00-4570-a978-1448f4be40cb","system_id":"levelo_inurba_marseille","lat":43.284787,"lon":5.384116,"is_reserved":false,"is_disabled":false,"rental_uris":{"android":"levelo://app?vid=f3288b9e-4f00-4570-a978-1448f4be40cb","ios":"levelo://app?vid=f3288b9e-4f00-4570-a978-1448f4be40cb"},"vehicle_type_id":"4","last_reported":1725030544,"current_range_meters":1200,"station_id":"ce4bh512rcd13ifvqe3g","pricing_plan_id":"cebpf4jnsgd1na2vs0mg"},{"bike_id":"f2c8382c-bda8-4048-8d1f-ca2658335163","system_id":"levelo_inurba_marseille","lat":43.297946,"lon":5.404063,"is_reserved":false,"is_disabled":false,"rental_uris":{"android":"levelo://app?vid=f2c8382c-bda8-4048-8d1f-ca2658335163","ios":"levelo://app?vid=f2c8382c-bda8-4048-8d1f-ca2658335163"},"vehicle_type_id":"4","last_reported":1725030544,"current_range_meters":11600,"station_id":"ce4bh112rcd13ifvqd90","pricing_plan_id":"cebpf4jnsgd1na2vs0mg"},{"bike_id":"1a065138-75c2-4853-94d2-367d06b96a0c","system_id":"levelo_inurba_marseille","lat":43.288497,"lon":5.393089,"is_reserved":false,"is_disabled":false,"rental_uris":{"android":"levelo://app?vid=1a065138-75c2-4853-94d2-367d06b96a0c","ios":"levelo://app?vid=1a065138-75c2-4853-94d2-367d06b96a0c"},"vehicle_type_id":"4","last_reported":1725030544,"current_range_meters":18800,"station_id":"ce4bh2p2rcd13ifvqdi0","pricing_plan_id":"cebpf4jnsgd1na2vs0mg"},{"bike_id":"5b1571a0-a1d9-4c4e-af3d-96702cb3294c","system_id":"levelo_inurba_marseille","lat":43.284793,"lon":5.384119,"is_reserved":false,"is_disabled":false,"rental_uris":{"android":"levelo://app?vid=5b1571a0-a1d9-4c4e-af3d-96702cb3294c","ios":"levelo://app?vid=5b1571a0-a1d9-4c4e-af3d-96702cb3294c"},"vehicle_type_id":"4","last_reported":1725030544,"current_range_meters":5600,"station_id":"ce4bh512rcd13ifvqe3g","pricing_plan_id":"cebpf4jnsgd1na2vs0mg"},{"bike_id":"b9cd7c5b-c470-46d7-9d77-3f9f2c991f8c","system_id":"levelo_inurba_marseille","lat":43.283498,"lon":5.380948,"is_reserved":false,"is_disabled":false,"rental_uris":{"android":"levelo://app?vid=b9cd7c5b-c470-46d7-9d77-3f9f2c991f8c","ios":"levelo://app?vid=b9cd7c5b-c470-46d7-9d77-3f9f2c991f8c"},"vehicle_type_id":"4","last_reported":1725030544,"current_range_meters":7200,"station_id":"ce4bh412rcd13ifvqdr0","pricing_plan_id":"cebpf4jnsgd1na2vs0mg"},{"bike_id":"9479b2ac-3928-4a57-a47e-c6bb8ca87faf","system_id":"levelo_inurba_marseille","lat":43.284219,"lon":5.3497,"is_reserved":false,"is_disabled":false,"rental_uris":{"android":"levelo://app?vid=9479b2ac-3928-4a57-a47e-c6bb8ca87faf","ios":"levelo://app?vid=9479b2ac-3928-4a57-a47e-c6bb8ca87faf"},"vehicle_type_id":"4","last_reported":1725030544,"current_range_meters":11600,"station_id":"ce4bhbh2rcd13ifvqepg","pricing_plan_id":"cebpf4jnsgd1na2vs0mg"},{"bike_id":"3d913ff2-dda8-487a-a08e-cf0c574692da","system_id":"levelo_inurba_marseille","lat":43.284219,"lon":5.3497,"is_reserved":false,"is_disabled":false,"rental_uris":{"android":"levelo://app?vid=3d913ff2-dda8-487a-a08e-cf0c574692da","ios":"levelo://app?vid=3d913ff2-dda8-487a-a08e-cf0c574692da"},"vehicle_type_id":"4","last_reported":1725030544,"current_range_meters":18800,"station_id":"ce4bhbh2rcd13ifvqepg","pricing_plan_id":"cebpf4jnsgd1na2vs0mg"},{"bike_id":"33e7b818-72d1-4ee5-a323-d75456ee54dd","system_id":"levelo_inurba_marseille","lat":43.284219,"lon":5.3497,"is_reserved":false,"is_disabled":false,"rental_uris":{"android":"levelo://app?vid=33e7b818-72d1-4ee5-a323-d75456ee54dd","ios":"levelo://app?vid=33e7b818-72d1-4ee5-a323-d75456ee54dd"},"vehicle_type_id":"4","last_reported":1725030544,"current_range_meters":18800,"station_id":"ce4bhbh2rcd13ifvqepg","pricing_plan_id":"cebpf4jnsgd1na2vs0mg"},{"bike_id":"6cc90288-e88c-4bff-b85b-0c62b6dd8b57","system_id":"levelo_inurba_marseille","lat":43.284214,"lon":5.349706,"is_reserved":false,"is_disabled":false,"rental_uris":{"android":"levelo://app?vid=6cc90288-e88c-4bff-b85b-0c62b6dd8b57","ios":"levelo://app?vid=6cc90288-e88c-4bff-b85b-0c62b6dd8b57"},"vehicle_type_id":"4","last_reported":1725030544,"current_range_meters":16000,"station_id":"ce4bhbh2rcd13ifvqepg","pricing_plan_id":"cebpf4jnsgd1na2vs0mg"},{"bike_id":"c53e45da-edc5-465d-b8d6-9e101a9954e8","system_id":"levelo_inurba_marseille","lat":43.284219,"lon":5.3497,"is_reserved":false,"is_disabled":false,"rental_uris":{"android":"levelo://app?vid=c53e45da-edc5-465d-b8d6-9e101a9954e8","ios":"levelo://app?vid=c53e45da-edc5-465d-b8d6-9e101a9954e8"},"vehicle_type_id":"4","last_reported":1725030544,"current_range_meters":31600,"station_id":"ce4bhbh2rcd13ifvqepg","pricing_plan_id":"cebpf4jnsgd1na2vs0mg"},{"bike_id":"3db4056c-e5f4-4e0c-9744-c5f7f9e0022b","system_id":"levelo_inurba_marseille","lat":43.284214,"lon":5.349706,"is_reserved":false,"is_disabled":false,"rental_uris":{"android":"levelo://app?vid=3db4056c-e5f4-4e0c-9744-c5f7f9e0022b","ios":"levelo://app?vid=3db4056c-e5f4-4e0c-9744-c5f7f9e0022b"},"vehicle_type_id":"4","last_reported":1725030544,"current_range_meters":22800,"station_id":"ce4bhbh2rcd13ifvqepg","pricing_plan_id":"cebpf4jnsgd1na2vs0mg"},{"bike_id":"13bfacbc-765f-472c-83f2-80f49b6de425","system_id":"levelo_inurba_marseille","lat":43.284214,"lon":5.349706,"is_reserved":false,"is_disabled":false,"rental_uris":{"android":"levelo://app?vid=13bfacbc-765f-472c-83f2-80f49b6de425","ios":"levelo://app?vid=13bfacbc-765f-472c-83f2-80f49b6de425"},"vehicle_type_id":"4","last_reported":1725030544,"current_range_meters":16000,"station_id":"ce4bhbh2rcd13ifvqepg","pricing_plan_id":"cebpf4jnsgd1na2vs0mg"},{"bike_id":"554de789-0d4b-409f-b10e-faa6c688c183","system_id":"levelo_inurba_marseille","lat":43.284219,"lon":5.3497,"is_reserved":false,"is_disabled":false,"rental_uris":{"android":"levelo://app?vid=554de789-0d4b-409f-b10e-faa6c688c183","ios":"levelo://app?vid=554de789-0d4b-409f-b10e-faa6c688c183"},"vehicle_type_id":"4","last_reported":1725030544,"current_range_meters":8800,"station_id":"ce4bhbh2rcd13ifvqepg","pricing_plan_id":"cebpf4jnsgd1na2vs0mg"},{"bike_id":"1c17cd7c-6b08-4b31-b85a-006b5cd2d061","system_id":"levelo_inurba_marseille","lat":43.284219,"lon":5.3497,"is_reserved":false,"is_disabled":false,"rental_uris":{"android":"levelo://app?vid=1c17cd7c-6b08-4b31-b85a-006b5cd2d061","ios":"levelo://app?vid=1c17cd7c-6b08-4b31-b85a-006b5cd2d061"},"vehicle_type_id":"4","last_reported":1725030544,"current_range_meters":31200,"station_id":"ce4bhbh2rcd13ifvqepg","pricing_plan_id":"cebpf4jnsgd1na2vs0mg"},{"bike_id":"b8455847-dea9-4913-83a0-337a134300e5","system_id":"levelo_inurba_marseille","lat":43.284219,"lon":5.3497,"is_reserved":false,"is_disabled":false,"rental_uris":{"android":"levelo://app?vid=b8455847-dea9-4913-83a0-337a134300e5","ios":"levelo://app?vid=b8455847-dea9-4913-83a0-337a134300e5"},"vehicle_type_id":"4","last_reported":1725030544,"current_range_meters":17600,"station_id":"ce4bhbh2rcd13ifvqepg","pricing_plan_id":"cebpf4jnsgd1na2vs0mg"},{"bike_id":"2dc2f519-afcf-4dc0-abe3-1244f8885dc7","system_id":"levelo_inurba_marseille","lat":43.284219,"lon":5.3497,"is_reserved":false,"is_disabled":false,"rental_uris":{"android":"levelo://app?vid=2dc2f519-afcf-4dc0-abe3-1244f8885dc7","ios":"levelo://app?vid=2dc2f519-afcf-4dc0-abe3-1244f8885dc7"},"vehicle_type_id":"4","last_reported":1725030544,"current_range_meters":18000,"station_id":"ce4bhbh2rcd13ifvqepg","pricing_plan_id":"cebpf4jnsgd1na2vs0mg"},{"bike_id":"ad5df1b5-d150-4c55-bc8d-8d25df200472","system_id":"levelo_inurba_marseille","lat":43.284219,"lon":5.3497,"is_reserved":false,"is_disabled":false,"rental_uris":{"android":"levelo://app?vid=ad5df1b5-d150-4c55-bc8d-8d25df200472","ios":"levelo://app?vid=ad5df1b5-d150-4c55-bc8d-8d25df200472"},"vehicle_type_id":"4","last_reported":1725030544,"current_range_meters":30800,"station_id":"ce4bhbh2rcd13ifvqepg","pricing_plan_id":"cebpf4jnsgd1na2vs0mg"},{"bike_id":"9ecb3a0b-2e25-40d9-a145-e9d04a11c11a","system_id":"levelo_inurba_marseille","lat":43.284212,"lon":5.34989,"is_reserved":false,"is_disabled":false,"rental_uris":{"android":"levelo://app?vid=9ecb3a0b-2e25-40d9-a145-e9d04a11c11a","ios":"levelo://app?vid=9ecb3a0b-2e25-40d9-a145-e9d04a11c11a"},"vehicle_type_id":"4","last_reported":1725030544,"current_range_meters":25200,"station_id":"ce4bhbh2rcd13ifvqepg","pricing_plan_id":"cebpf4jnsgd1na2vs0mg"},{"bike_id":"b07d622f-8e73-481b-a5db-d12694b5bf62","system_id":"levelo_inurba_marseille","lat":43.28419,"lon":5.34995,"is_reserved":false,"is_disabled":false,"rental_uris":{"android":"levelo://app?vid=b07d622f-8e73-481b-a5db-d12694b5bf62","ios":"levelo://app?vid=b07d622f-8e73-481b-a5db-d12694b5bf62"},"vehicle_type_id":"4","last_reported":1725030544,"current_range_meters":400,"station_id":"ce4bhbh2rcd13ifvqepg","pricing_plan_id":"cebpf4jnsgd1na2vs0mg"},{"bike_id":"4cdaeb9e-b45e-496f-87d0-66545d4f0c31","system_id":"levelo_inurba_marseille","lat":43.28424,"lon":5.34979,"is_reserved":false,"is_disabled":false,"rental_uris":{"android":"levelo://app?vid=4cdaeb9e-b45e-496f-87d0-66545d4f0c31","ios":"levelo://app?vid=4cdaeb9e-b45e-496f-87d0-66545d4f0c31"},"vehicle_type_id":"4","last_reported":1725030544,"current_range_meters":6800,"station_id":"ce4bhbh2rcd13ifvqepg","pricing_plan_id":"cebpf4jnsgd1na2vs0mg"},{"bike_id":"1713e5e8-5914-4d8d-ae8d-90ba1797129a","system_id":"levelo_inurba_marseille","lat":43.284219,"lon":5.3497,"is_reserved":false,"is_disabled":false,"rental_uris":{"android":"levelo://app?vid=1713e5e8-5914-4d8d-ae8d-90ba1797129a","ios":"levelo://app?vid=1713e5e8-5914-4d8d-ae8d-90ba1797129a"},"vehicle_type_id":"4","last_reported":1725030544,"current_range_meters":5200,"station_id":"ce4bhbh2rcd13ifvqepg","pricing_plan_id":"cebpf4jnsgd1na2vs0mg"},{"bike_id":"beac6a7f-5f84-40bd-b05b-5357f83ba833","system_id":"levelo_inurba_marseille","lat":43.284205,"lon":5.34988,"is_reserved":false,"is_disabled":false,"rental_uris":{"android":"levelo://app?vid=beac6a7f-5f84-40bd-b05b-5357f83ba833","ios":"levelo://app?vid=beac6a7f-5f84-40bd-b05b-5357f83ba833"},"vehicle_type_id":"4","last_reported":1725030544,"current_range_meters":10000,"station_id":"ce4bhbh2rcd13ifvqepg","pricing_plan_id":"cebpf4jnsgd1na2vs0mg"},{"bike_id":"918cdc14-89f7-4a11-bc09-645959223594","system_id":"levelo_inurba_marseille","lat":43.284219,"lon":5.3497,"is_reserved":false,"is_disabled":false,"rental_uris":{"android":"levelo://app?vid=918cdc14-89f7-4a11-bc09-645959223594","ios":"levelo://app?vid=918cdc14-89f7-4a11-bc09-645959223594"},"vehicle_type_id":"4","last_reported":1725030544,"current_range_meters":4400,"station_id":"ce4bhbh2rcd13ifvqepg","pricing_plan_id":"cebpf4jnsgd1na2vs0mg"},{"bike_id":"8d2b16fc-d294-473b-89b9-efb0ec7a7d65","system_id":"levelo_inurba_marseille","lat":43.28416,"lon":5.35002,"is_reserved":false,"is_disabled":false,"rental_uris":{"android":"levelo://app?vid=8d2b16fc-d294-473b-89b9-efb0ec7a7d65","ios":"levelo://app?vid=8d2b16fc-d294-473b-89b9-efb0ec7a7d65"},"vehicle_type_id":"4","last_reported":1725030544,"current_range_meters":31200,"station_id":"ce4bhbh2rcd13ifvqepg","pricing_plan_id":"cebpf4jnsgd1na2vs0mg"},