{"last_updated":1760461798,"ttl":60,"version":"2.2","data":{"bikes":[{"bike_id":"1b78d50e-e95b-419e-a5ec-c3093b7e141a","system_id":"levelo_inurba_marseille","lat":43.337444,"lon":5.374475,"is_reserved":false,"is_disabled":true,"rental_uris":{"android":"levelo://app?vid=1b78d50e-e95b-419e-a5ec-c3093b7e141a","ios":"levelo://app?vid=1b78d50e-e95b-419e-a5ec-c3093b7e141a"},"vehicle_type_id":"4","last_reported":1760461798,"current_range_meters":0,"station_id":"","pricing_plan_id":"cebpf4jnsgd1na2vs0mg"},{"bike_id":"84c22208-7ddb-49b8-be8e-b34b5bdf05b2","system_id":"levelo_inurba_marseille","lat":43.33771,"lon":5.37424,"is_reserved":false,"is_disabled":true,"rental_uris":{"android":"levelo://app?vid=84c22208-7ddb-49b8-be8e-b34b5bdf05b2","ios":"levelo://app?vid=84c22208-7ddb-49b8-be8e-b34b5bdf05b2"},"vehicle_type_id":"4","last_reported":1760461798,"current_range_meters":0,"station_id":"","pricing_plan_id":"cebpf4jnsgd1na2vs0mg"},{"bike_id":"da90025a-3512-4db8-9c5c-f808888b7e59","system_id":"levelo_inurba_marseille","lat":43.33751,"lon":5.37456,"is_reserved":false,"is_disabled":true,"rental_uris":{"android":"levelo://app?vid=da90025a-3512-4db8-9c5c-f808888b7e59","ios":"levelo://app?vid=da90025a-3512-4db8-9c5c-f808888b7e59"},"vehicle_type_id":"4","last_reported":1760461798,"current_range_meters":0,"station_id":"","pricing_plan_id":"cebpf4jnsgd1na2vs0mg"},{"bike_id":"783b0905-e73e-4043-b791-e38f037df91f","system_id":"levelo_inurba_marseille","lat":43.33747,"lon":5.37463,"is_reserved":false,"is_disabled":true,"rental_uris":{"android":"levelo://app?vid=783b0905-e73e-4043-b791-e38f037df91f","ios":"levelo://app?vid=783b0905-e73e-4043-b791-e38f037df91f"},"vehicle_type_id":"1","last_reported":1760461798,"current_range_meters":0,"station_id":"","pricing_plan_id":"cebpf4jnsgd1na2vs0mg"},{"bike_id":"8d89ee17-9f9e-4689-8ca8-8bd05eb5782d","system_id":"levelo_inurba_marseille","lat":43.33737,"lon":5.37465,"is_reserved":false,"is_disabled":true,"rental_uris":{"android":"levelo://app?vid=8d89ee17-9f9e-4689-8ca8-8bd05eb5782d","ios":"levelo://app?vid=8d89ee17-9f9e-4689-8ca8-8bd05eb5782d"},"vehicle_type_id":"4","last_reported":1760461798,"current_range_meters":0,"station_id":"","pricing_plan_id":"cebpf4jnsgd1na2vs0mg"},{"bike_id":"0ab0967e-1041-44e0-b599-5f9a08360f34","system_id":"levelo_inurba_marseille","lat":43.33755,"lon":5.37468,"is_reserved":false,"is_disabled":true,"rental_uris":{"android":"levelo://app?vid=0ab0967e-1041-44e0-b599-5f9a08360f34","ios":"levelo://app?vid=0ab0967e-1041-44e0-b599-5f9a08360f34"},"vehicle_type_id":"4","last_reported":1760461798,"current_range_meters":0,"station_id":"","pricing_plan_id":"cebpf4jnsgd1na2vs0mg"},{"bike_id":"9c663c84-2f76-412b-9e1c-c4f7922734cb","system_id":"levelo_inurba_marseille","lat":43.337444,"lon":5.374475,"is_reserved":false,"is_disabled":true,"rental_uris":{"android":"levelo://app?vid=9c663c84-2f76-412b-9e1c-c4f7922734cb","ios":"levelo://app?vid=9c663c84-2f76-412b-9e1c-c4f7922734cb"},"vehicle_type_id":"4","last_reported":1760461798,"current_range_meters":0,"station_id":"","pricing_plan_id":"cebpf4jnsgd1na2vs0mg"},{"bike_id":"44c5d8b8-3b93-4ee7-95d3-747bcabcce2c","system_id":"levelo_inurba_marseille","lat":43.337444,"lon":5.374475,"is_reserved":false,"is_disabled":true,"rental_uris":{"android":"levelo://app?vid=44c5d8b8-3b93-4ee7-95d3-747bcabcce2c","ios":"levelo://app?vid=44c5d8b8-3b93-4ee7-95d3-747bcabcce2c"},"vehicle_type_id":"4","last_reported":1760461798,"current_range_meters":0,"station_id":"","pricing_plan_id":"cebpf4jnsgd1na2vs0mg"},{"bike_id":"132126b7-5666-425a-a1ed-3e9c9286f003","system_id":"levelo_inurba_marseille","lat":43.28025,"lon":5.41052,"is_reserved":false,"is_disabled":true,"rental_uris":{"android":"levelo://app?vid=132126b7-5666-425a-a1ed-3e9c9286f003","ios":"levelo://app?vid=132126b7-5666-425a-a1ed-3e9c9286f003"},"vehicle_type_id":"4","last_reported":1760461798,"current_range_meters":0,"station_id":"","pricing_plan_id":"cebpf4jnsgd1na2vs0mg"},{"bike_id":"b6e738e7-12c2-4364-8894-29911cb0bf49","system_id":"levelo_inurba_marseille","lat":43.27297,"lon":5.41173,"is_reserved":false,"is_disabled":true,"rental_uris":{"android":"levelo://app?vid=b6e738e7-12c2-4364-8894-29911cb0bf49","ios":"levelo://app?vid=b6e738e7-12c2-4364-8894-29911cb0bf49"},"vehicle_type_id":"4","last_reported":1760461798,"current_range_meters":0,"station_id":"","pricing_plan_id":"cebpf4jnsgd1na2vs0mg"},{"bike_id":"bfd1c949-95ce-40b4-9988-1a7f25d1e8bb","system_id":"levelo_inurba_marseille","lat":43.3377,"lon":5.37469,"is_reserved":false,"is_disabled":true,"rental_uris":{"android":"levelo://app?vid=bfd1c949-95ce-40b4-9988-1a7f25d1e8bb","ios":"levelo://app?vid=bfd1c949-95ce-40b4-9988-1a7f25d1e8bb"},"vehicle_type_id":"4","last_reported":1760461798,"current_range_meters":0,"station_id":"","pricing_plan_id":"cebpf4jnsgd1na2vs0mg"},{"bike_id":"7b9218c0-a88e-435b-9c19-d4bcf6d04d64","system_id":"levelo_inurba_marseille","lat":43.28161,"lon":5.38954,"is_reserved":false,"is_disabled":true,"rental_uris":{"android":"levelo://app?vid=7b9218c0-a88e-435b-9c19-d4bcf6d04d64","ios":"levelo://app?vid=7b9218c0-a88e-435b-9c19-d4bcf6d04d64"},"vehicle_type_id":"4","last_reported":1760461798,"current_range_meters":0,"station_id":"","pricing_plan_id":"cebpf4jnsgd1na2vs0mg"},{"bike_id":"af233c89-ff22-4fc0-a87b-2353168c05dd","system_id":"levelo_inurba_marseille","lat":43.27476,"lon":5.40943,"is_reserved":false,"is_disabled":true,"rental_uris":{"android":"levelo://app?vid=af233c89-ff22-4fc0-a87b-2353168c05dd","ios":"levelo://app?vid=af233c89-ff22-4fc0-a87b-2353168c05dd"},"vehicle_type_id":"4","last_reported":1760461798,"current_range_meters":0,"station_id":"","pricing_plan_id":"cebpf4jnsgd1na2vs0mg"},{"bike_id":"d8fa82b2-79f5-4ec9-8d18-af024ce017dc","system_id":"levelo_inurba_marseille","lat":43.314471,"lon":5.373797,"is_reserved":false,"is_disabled":true,"rental_uris":{"android":"levelo://app?vid=d8fa82b2-79f5-4ec9-8d18-af024ce017dc","ios":"levelo://app?vid=d8fa82b2-79f5-4ec9-8d18-af024ce017dc"},"vehicle_type_id":"4","last_reported":1760461798,"current_range_meters":0,"station_id":"","pricing_plan_id":"cebpf4jnsgd1na2vs0mg"},{"bike_id":"9acca831-b89c-4de4-b60e-f8496fdefc49","system_id":"levelo_inurba_marseille","lat":43.21196,"lon":5.350776,"is_reserved":false,"is_disabled":true,"rental_uris":{"android":"levelo://app?vid=9acca831-b89c-4de4-b60e-f8496fdefc49","ios":"levelo://app?vid=9acca831-b89c-4de4-b60e-f8496fdefc49"},"vehicle_type_id":"4","last_reported":1760461798,"current_range_meters":0,"station_id":"","pricing_plan_id":"cebpf4jnsgd1na2vs0mg"},{"bike_id":"c1893587-e5ad-4b72-a3e6-189c91e5c719","system_id":"levelo_inurba_marseille","lat":43.282504,"lon":5.391876,"is_reserved":false,"is_disabled":true,"rental_uris":{"android":"levelo://app?vid=c1893587-e5ad-4b72-a3e6-189c91e5c719","ios":"levelo://app?vid=c1893587-e5ad-4b72-a3e6-189c91e5c719"},"vehicle_type_id":"4","last_reported":1760461798,"current_range_meters":0,"station_id":"","pricing_plan_id":"cebpf4jnsgd1na2vs0mg"},{"bike_id":"fb91a4b3-d04f-4265-8799-16d970b96ecf","system_id":"levelo_inurba_marseille","lat":43.27499,"lon":5.39666,"is_reserved":false,"is_disabled":true,"rental_uris":{"android":"levelo://app?vid=fb91a4b3-d04f-4265-8799-16d970b96ecf","ios":"levelo://app?vid=fb91a4b3-d04f-4265-8799-16d970b96ecf"},"vehicle_type_id":"4","last_reported":1760461798,"current_range_meters":0,"station_id":"","pricing_plan_id":"cebpf4jnsgd1na2vs0mg"},{"bike_id":"38688758-b3ed-4057-9bf8-8f917be1ff91","system_id":"levelo_inurba_marseille","lat":43.24437,"lon":5.37459,"is_reserved":false,"is_disabled":true,"rental_uris":{"android":"levelo://app?vid=38688758-b3ed-4057-9bf8-8f917be1ff91","ios":"levelo://app?vid=38688758-b3ed-4057-9bf8-8f917be1ff91"},"vehicle_type_id":"4","last_reported":1760461798,"current_range_meters":0,"station_id":"","pricing_plan_id":"cebpf4jnsgd1na2vs0mg"},{"bike_id":"3327e998-6a1b-431b-a68a-176444eaf7d0","system_id":"levelo_inurba_marseille","lat":43.29662,"lon":5.36757,"is_reserved":false,"is_disabled":true,"rental_uris":{"android":"levelo://app?vid=3327e998-6a1b-431b-a68a-176444eaf7d0","ios":"levelo://app?vid=3327e998-6a1b-431b-a68a-176444eaf7d0"},"vehicle_type_id":"4","last_reported":1760461798,"current_range_meters":0,"station_id":"","pricing_plan_id":"cebpf4jnsgd1na2vs0mg"},{"bike_id":"4c49ff48-f815-4dd0-8fd4-375b27e08d94","system_id":"levelo_inurba_marseille","lat":43.29182,"lon":5.40813,"is_reserved":false,"is_disabled":true,"rental_uris":{"android":"levelo://app?vid=4c49ff48-f815-4dd0-8fd4-375b27e08d94","ios":"levelo://app?vid=4c49ff48-f815-4dd0-8fd4-375b27e08d94"},"vehicle_type_id":"4","last_reported":1760461798,"current_range_meters":0,"station_id":"","pricing_plan_id":"cebpf4jnsgd1na2vs0mg"},{"bike_id":"8cb05ac1-63eb-4f75-bd62-0d7be5d46a89","system_id":"levelo_inurba_marseille","lat":43.323749,"lon":5.388764,"is_reserved":false,"is_disabled":true,"rental_uris":{"android":"levelo://app?vid=8cb05ac1-63eb-4f75-bd62-0d7be5d46a89","ios":"levelo://app?vid=8cb05ac1-63eb-4f75-bd62-0d7be5d46a89"},"vehicle_type_id":"4","last_reported":1760461798,"current_range_meters":0,"station_id":"","pricing_plan_id":"cebpf4jnsgd1na2vs0mg"},{"bike_id":"6776cb03-734b-4d27-9345-e3fc5cb1d40c","system_id":"levelo_inurba_marseille","lat":43.26343,"lon":5.40102,"is_reserved":false,"is_disabled":true,"rental_uris":{"android":"levelo://app?vid=6776cb03-734b-4d27-9345-e3fc5cb1d40c","ios":"levelo://app?vid=6776cb03-734b-4d27-9345-e3fc5cb1d40c"},"vehicle_type_id":"4","last_reported":1760461798,"current_range_meters":0,"station_id":"","pricing_plan_id":"cebpf4jnsgd1na2vs0mg"},{"bike_id":"4e5823dd-04b9-4af9-af35-592ce2b15bb5","system_id":"levelo_inurba_marseille","lat":43.270557,"lon":5.392632,"is_reserved":false,"is_disabled":true,"rental_uris":{"android":"levelo://app?vid=4e5823dd-04b9-4af9-af35-592ce2b15bb5","ios":"levelo://app?vid=4e5823dd-04b9-4af9-af35-592ce2b15bb5"},"vehicle_type_id":"4","last_reported":1760461798,"current_range_meters":0,"station_id":"","pricing_plan_id":"cebpf4jnsgd1na2vs0mg"},{"bike_id":"bde82eb3-0c19-4da9-8ab7-08c81d160d36","system_id":"levelo_inurba_marseille","lat":43.27476,"lon":5.40788,"is_reserved":false,"is_disabled":true,"rental_uris":{"android":"levelo://app?vid=bde82eb3-0c19-4da9-8ab7-08c81d160d36","ios":"levelo://app?vid=bde82eb3-0c19-4da9-8ab7-08c81d160d36"},"vehicle_type_id":"4","last_reported":1760461798,"current_range_meters":0,"station_id":"","pricing_plan_id":"cebpf4jnsgd1na2vs0mg"},{"bike_id":"124077fa-3fea-4e89-99ac-8687f87c4c44","system_id":"levelo_inurba_marseille","lat":43.2954,"lon":5.383068,"is_reserved":false,"is_disabled":true,"rental_uris":{"android":"levelo://app?vid=124077fa-3fea-4e89-99ac-8687f87c4c44","ios":"levelo://app?vid=124077fa-3fea-4e89-99ac-8687f87c4c44"},"vehicle_type_id":"4","last_reported":1760461798,"current_range_meters":0,"station_id":"","pricing_plan_id":"cebpf4jnsgd1na2vs0mg"},{"bike_id":"06bd1e21-8c48-4b31-837e-75d7d808f749","system_id":"levelo_inurba_marseille","lat":43.29532,"lon":5.38559,"is_reserved":false,"is_disabled":true,"rental_uris":{"android":"levelo://app?vid=06bd1e21-8c48-4b31-837e-75d7d808f749","ios":"levelo://app?vid=06bd1e21-8c48-4b31-837e-75d7d808f749"},"vehicle_type_id":"4","last_reported":1760461798,"current_range_meters":0,"station_id":"ce4bgih2rcd13ifvqba0","pricing_plan_id":"cebpf4jnsgd1na2vs0mg"},{"bike_id":"f7c9a7d3-4d32-433e-aa0f-e41d750d7250","system_id":"levelo_inurba_marseille","lat":43.29931,"lon":5.37488,"is_reserved":false,"is_disabled":true,"rental_uris":{"android":"levelo://app?vid=f7c9a7d3-4d32-433e-aa0f-e41d750d7250","ios":"levelo://app?vid=f7c9a7d3-4d32-433e-aa0f-e41d750d7250"},"vehicle_type_id":"4","last_reported":1760461798,"current_range_meters":0,"station_id":"ce4bgjh2rcd13ifvqbg0","pricing_plan_id":"cebpf4jnsgd1na2vs0mg"},{"bike_id":"30a0f7d1-25be-4aef-beb0-a7112860639f","system_id":"levelo_inurba_marseille","lat":43.307996,"lon":5.381458,"is_reserved":false,"is_disabled":true,"rental_uris":{"android":"levelo://app?vid=30a0f7d1-25be-4aef-beb0-a7112860639f","ios":"levelo://app?vid=30a0f7d1-25be-4aef-beb0-a7112860639f"},"vehicle_type_id":"4","last_reported":1760461798,"current_range_meters":0,"station_id":"ce4bgt12rcd13ifvqce0","pricing_plan_id":"cebpf4jnsgd1na2vs0mg"},{"bike_id":"c51da54e-9b90-44d1-a534-186334dff709","system_id":"levelo_inurba_marseille","lat":43.30326,"lon":5.40432,"is_reserved":false,"is_disabled":true,"rental_uris":{"android":"levelo://app?vid=c51da54e-9b90-44d1-a534-186334dff709","ios":"levelo://app?vid=c51da54e-9b90-44d1-a534-186334dff709"},"vehicle_type_id":"4","last_reported":1760461798,"current_range_meters":0,"station_id":"ce4bh012rcd13ifvqd10","pricing_plan_id":"cebpf4jnsgd1na2vs0mg"},{"bike_id":"c809cd40-0f30-4120-a039-93088dbb22e4","system_id":"levelo_inurba_marseille","lat":43.29032,"lon":5.37562,"is_reserved":false,"is_disabled":true,"rental_uris":{"android":"levelo://app?vid=c809cd40-0f30-4120-a039-93088dbb22e4","ios":"levelo://app?vid=c809cd40-0f30-4120-a039-93088dbb22e4"},"vehicle_type_id":"4","last_reported":1760461798,"current_range_meters":0,"station_id":"ce4bh692rcd13ifvqe90","pricing_plan_id":"cebpf4jnsgd1na2vs0mg"},{"bike_id":"a64ff1cf-46c1-41a2-8033-ab3025f7c4d0","system_id":"levelo_inurba_marseille","lat":43.27973,"lon":5.38737,"is_reserved":false,"is_disabled":true,"rental_uris":{"android":"levelo://app?vid=a64ff1cf-46c1-41a2-8033-ab3025f7c4d0","ios":"levelo://app?vid=a64ff1cf-46c1-41a2-8033-ab3025f7c4d0"},"vehicle_type_id":"4","last_reported":1760461798,"current_range_meters":0,"station_id":"ce4bhg12rcd13ifvqf80","pricing_plan_id":"cebpf4jnsgd1na2vs0mg"},{"bike_id":"d87e6a2d-2a00-4e75-9e52-db767cc817f8","system_id":"levelo_inurba_marseille","lat":43.26958,"lon":5.38634,"is_reserved":false,"is_disabled":true,"rental_uris":{"android":"levelo://app?vid=d87e6a2d-2a00-4e75-9e52-db767cc817f8","ios":"levelo://app?vid=d87e6a2d-2a00-4e75-9e52-db767cc817f8"},"vehicle_type_id":"4","last_reported":1760461798,"current_range_meters":0,"station_id":"ce4bhh92rcd13ifvqfh0","pricing_plan_id":"cebpf4jnsgd1na2vs0mg"},{"bike_id":"a2d522f1-a6fb-4885-8442-fadc3b66f07e","system_id":"levelo_inurba_marseille","lat":43.2175,"lon":5.34566,"is_reserved":false,"is_disabled":true,"rental_uris":{"android":"levelo://app?vid=a2d522f1-a6fb-4885-8442-fadc3b66f07e","ios":"levelo://app?vid=a2d522f1-a6fb-4885-8442-fadc3b66f07e"},"vehicle_type_id":"4","last_reported":1760461798,"current_range_meters":0,"station_id":"st_cvj6r9ubvosntc0bgbag","pricing_plan_id":"cebpf4jnsgd1na2vs0mg"},{"bike_id":"87720cc6-7490-40a1-914b-8abc20f162f3","system_id":"levelo_inurba_marseille","lat":43.253457,"lon":5.421659,"is_reserved":false,"is_disabled":true,"rental_uris":{"android":"levelo://app?vid=87720cc6-7490-40a1-914b-8abc20f162f3","ios":"levelo://app?vid=87720cc6-7490-40a1-914b-8abc20f162f3"},"vehicle_type_id":"4","last_reported":1760461798,"current_range_meters":0,"station_id":"st_d3n2fo6cfp8s73cte1j0","pricing_plan_id":"cebpf4jnsgd1na2vs0mg"},{"bike_id":"42ca15f4-d777-45df-9a5c-a2992d10370d","system_id":"levelo_inurba_marseille","lat":43.28876,"lon":5.3787,"is_reserved":false,"is_disabled":true,"rental_uris":{"android":"levelo://app?vid=42ca15f4-d777-45df-9a5c-a2992d10370d","ios":"levelo://app?vid=42ca15f4-d777-45df-9a5c-a2992d10370d"},"vehicle_type_id":"4","last_reported":1760461798,"current_range_meters":400,"station_id":"","pricing_plan_id":"cebpf4jnsgd1na2vs0mg"},{"bike_id":"44e3724a-a525-44af-b655-81f8b27dc9f8","system_id":"levelo_inurba_marseille","lat":43.286131,"lon":5.350995,"is_reserved":false,"is_disabled":true,"rental_uris":{"android":"levelo://app?vid=44e3724a-a525-44af-b655-81f8b27dc9f8","ios":"levelo://app?vid=44e3724a-a525-44af-b655-81f8b27dc9f8"},"vehicle_type_id":"4","last_reported":1760461798,"current_range_meters":400,"station_id":"ce4bhch2rcd13ifvqeug","pricing_plan_id":"cebpf4jnsgd1na2vs0mg"},{"bike_id":"1e0f6a2b-ba0a-4134-b74b-f2495ed0c0d5","system_id":"levelo_inurba_marseille","lat":43.26574,"lon":5.39046,"is_reserved":false,"is_disabled":true,"rental_uris":{"android":"levelo://app?vid=1e0f6a2b-ba0a-4134-b74b-f2495ed0c0d5","ios":"levelo://app?vid=1e0f6a2b-ba0a-4134-b74b-f2495ed0c0d5"},"vehicle_type_id":"4","last_reported":1760461798,"current_range_meters":400,"station_id":"ce4bhe12rcd13ifvqf30","pricing_plan_id":"cebpf4jnsgd1na2vs0mg"},{"bike_id":"4387d22a-ac81-4ba2-8035-eeea7b39498d","system_id":"levelo_inurba_marseille","lat":43.30805,"lon":5.38147,"is_reserved":false,"is_disabled":true,"rental_uris":{"android":"levelo://app?vid=4387d22a-ac81-4ba2-8035-eeea7b39498d","ios":"levelo://app?vid=4387d22a-ac81-4ba2-8035-eeea7b39498d"},"vehicle_type_id":"4","last_reported":1760461798,"current_range_meters":1200,"station_id":"ce4bgt12rcd13ifvqce0","pricing_plan_id":"cebpf4jnsgd1na2vs0mg"},{"bike_id":"59e4adb6-2471-4860-9641-1f9f7bd4a23a","system_id":"levelo_inurba_marseille","lat":43.28349,"lon":5.38105,"is_reserved":false,"is_disabled":true,"rental_uris":{"android":"levelo://app?vid=59e4adb6-2471-4860-9641-1f9f7bd4a23a","ios":"levelo://app?vid=59e4adb6-2471-4860-9641-1f9f7bd4a23a"},"vehicle_type_id":"4","last_reported":1760461798,"current_range_meters":1200,"station_id":"ce4bh412rcd13ifvqdr0","pricing_plan_id":"cebpf4jnsgd1na2vs0mg"},{"bike_id":"2ed14410-cb8b-41d6-a496-100a457a4b6a","system_id":"levelo_inurba_marseille","lat":43.28418,"lon":5.34977,"is_reserved":false,"is_disabled":true,"rental_uris":{"android":"levelo://app?vid=2ed14410-cb8b-41d6-a496-100a457a4b6a","ios":"levelo://app?vid=2ed14410-cb8b-41d6-a496-100a457a4b6a"},"vehicle_type_id":"4","last_reported":1760461798,"current_range_meters":1200,"station_id":"ce4bhbh2rcd13ifvqepg","pricing_plan_id":"cebpf4jnsgd1na2vs0mg"},{"bike_id":"0ff48938-ad8b-47cf-a468-f352cee5478e","system_id":"levelo_inurba_marseille","lat":43.27943,"lon":5.41046,"is_reserved":false,"is_disabled":true,"rental_uris":{"android":"levelo://app?vid=0ff48938-ad8b-47cf-a468-f352cee5478e","ios":"levelo://app?vid=0ff48938-ad8b-47cf-a468-f352cee5478e"},"vehicle_type_id":"4","last_reported":1760461798,"current_range_meters":1200,"station_id":"ce4bhnp2rcd13ifvqh0g","pricing_plan_id":"cebpf4jnsgd1na2vs0mg"},{"bike_id":"c7dc5b1b-69a8-400c-8947-eb26ad31dcdc","system_id":"levelo_inurba_marseille","lat":43.2808,"lon":5.39656,"is_reserved":false,"is_disabled":true,"rental_uris":{"android":"levelo://app?vid=c7dc5b1b-69a8-400c-8947-eb26ad31dcdc","ios":"levelo://app?vid=c7dc5b1b-69a8-400c-8947-eb26ad31dcdc"},"vehicle_type_id":"4","last_reported":1760461798,"current_range_meters":1200,"station_id":"ce4bho12rcd13ifvqh2g","pricing_plan_id":"cebpf4jnsgd1na2vs0mg"},{"bike_id":"5878256c-5d12-4bbf-b352-1e26d5809d96","system_id":"levelo_inurba_marseille","lat":43.21738,"lon":5.34588,"is_reserved":false,"is_disabled":true,"rental_uris":{"android":"levelo://app?vid=5878256c-5d12-4bbf-b352-1e26d5809d96","ios":"levelo://app?vid=5878256c-5d12-4bbf-b352-1e26d5809d96"},"vehicle_type_id":"4","last_reported":1760461798,"current_range_meters":1200,"station_id":"st_cvj6r9ubvosntc0bgbag","pricing_plan_id":"cebpf4jnsgd1na2vs0mg"},{"bike_id":"d64a6796-c00c-4efe-bd73-68239cf186cc","system_id":"levelo_inurba_marseille","lat":43.31364,"lon":5.38489,"is_reserved":false,"is_disabled":true,"rental_uris":{"android":"levelo://app?vid=d64a6796-c00c-4efe-bd73-68239cf186cc","ios":"levelo://app?vid=d64a6796-c00c-4efe-bd73-68239cf186cc"},"vehicle_type_id":"4","last_reported":1760461798,"current_range_meters":1600,"station_id":"ce4bgt92rcd13ifvqcf0","pricing_plan_id":"cebpf4jnsgd1na2vs0mg"},{"bike_id":"122abe79-dad0-423e-ad87-8530fbd169f8","system_id":"levelo_inurba_marseille","lat":43.30099,"lon":5.39077,"is_reserved":false,"is_disabled":true,"rental_uris":{"android":"levelo://app?vid=122abe79-dad0-423e-ad87-8530fbd169f8","ios":"levelo://app?vid=122abe79-dad0-423e-ad87-8530fbd169f8"},"vehicle_type_id":"4","last_reported":1760461798,"current_range_meters":1600,"station_id":"ce4bh192rcd13ifvqdb0","pricing_plan_id":"cebpf4jnsgd1na2vs0mg"},{"bike_id":"28c15af2-4df6-497a-9f41-5e8e2925c5d6","system_id":"levelo_inurba_marseille","lat":43.25073,"lon":5.39505,"is_reserved":false,"is_disabled":true,"rental_uris":{"android":"levelo://app?vid=28c15af2-4df6-497a-9f41-5e8e2925c5d6","ios":"levelo://app?vid=28c15af2-4df6-497a-9f41-5e8e2925c5d6"},"vehicle_type_id":"4","last_reported":1760461798,"current_range_meters":1600,"station_id":"ce4bhm12rcd13ifvqgkg","pricing_plan_id":"cebpf4jnsgd1na2vs0mg"},{"bike_id":"c1f3830b-67dc-46ec-973a-1744fe12ae26","system_id":"levelo_inurba_marseille","lat":43.282305,"lon":5.390704,"is_reserved":false,"is_disabled":true,"rental_uris":{"android":"levelo://app?vid=c1f3830b-67dc-46ec-973a-1744fe12ae26","ios":"levelo://app?vid=c1f3830b-67dc-46ec-973a-1744fe12ae26"},"vehicle_type_id":"4","last_reported":1760461798,"current_range_meters":1600,"station_id":"ce4bhn92rcd13ifvqgsg","pricing_plan_id":"cebpf4jnsgd1na2vs0mg"},{"bike_id":"dcdc1961-b423-4d55-9f06-7900959b7d82","system_id":"levelo_inurba_marseille","lat":43.2961,"lon":5.37729,"is_reserved":false,"is_disabled":true,"rental_uris":{"android":"levelo://app?vid=dcdc1961-b423-4d55-9f06-7900959b7d82","ios":"levelo://app?vid=dcdc1961-b423-4d55-9f06-7900959b7d82"},"vehicle_type_id":"4","last_reported":1760461798,"current_range_meters":2000,"station_id":"ce4bgi92rcd13ifvqb90","pricing_plan_id":"cebpf4jnsgd1na2vs0mg"},{"bike_id":"9adad242-f6b8-45c8-9719-cba7c321b1cc","system_id":"levelo_inurba_marseille","lat":43.297817,"lon":5.371023,"is_reserved":false,"is_disabled":true,"rental_uris":{"android":"levelo://app?vid=9adad242-f6b8-45c8-9719-cba7c321b1cc","ios":"levelo://app?vid=9adad242-f6b8-45c8-9719-cba7c321b1cc"},"vehicle_type_id":"4","last_reported":1760461798,"current_range_meters":2000,"station_id":"ce4bgop2rcd13ifvqc1g","pricing_plan_id":"cebpf4jnsgd1na2vs0mg"},{"bike_id":"dd9b4822-6f73-4678-8763-f80ac90c8f96","system_id":"levelo_inurba_marseille","lat":43.28866,"lon":5.39312,"is_reserved":false,"is_disabled":true,"rental_uris":{"android":"levelo://app?vid=dd9b4822-6f73-4678-8763-f80ac90c8f96","ios":"levelo://app?vid=dd9b4822-6f73-4678-8763-f80ac90c8f96"},"vehicle_type_id":"4","last_reported":1760461798,"current_range_meters":2000,"station_id":"ce4bh2p2rcd13ifvqdi0","pricing_plan_id":"cebpf4jnsgd1na2vs0mg"},{"bike_id":"33678752-04e2-4f8a-85a1-b917d0e3e07a","system_id":"levelo_inurba_marseille","lat":43.29271,"lon":5.36851,"is_reserved":false,"is_disabled":true,"rental_uris":{"android":"levelo://app?vid=33678752-04e2-4f8a-85a1-b917d0e3e07a","ios":"levelo://app?vid=33678752-04e2-4f8a-85a1-b917d0e3e07a"},"vehicle_type_id":"4","last_reported":1760461798,"current_range_meters":2000,"station_id":"ce4bhbp2rcd13ifvqesg","pricing_plan_id":"cebpf4jnsgd1na2vs0mg"},{"bike_id":"ded2992e-4be4-4c46-bf6c-a7ad88efa360","system_id":"levelo_inurba_marseille","lat":43.27764,"lon":5.406714,"is_reserved":false,"is_disabled":true,"rental_uris":{"android":"levelo://app?vid=ded2992e-4be4-4c46-bf6c-a7ad88efa360","ios":"levelo://app?vid=ded2992e-4be4-4c46-bf6c-a7ad88efa360"},"vehicle_type_id":"4","last_reported":1760461798,"current_range_meters":2000,"station_id":"ce4bhnh2rcd13ifvqgtg","pricing_plan_id":"cebpf4jnsgd1na2vs0mg"},{"bike_id":"da1acbd8-c7dd-49a2-a093-e30d916ecb9a","system_id":"levelo_inurba_marseille","lat":43.29706,"lon":5.37685,"is_reserved":false,"is_disabled":false,"rental_uris":{"android":"levelo://app?vid=da1acbd8-c7dd-49a2-a093-e30d916ecb9a","ios":"levelo://app?vid=da1acbd8-c7dd-49a2-a093-e30d916ecb9a"},"vehicle_type_id":"4","last_reported":1760461798,"current_range_meters":2800,"station_id":"ce4bgkh2rcd13ifvqbl0","pricing_plan_id":"cebpf4jnsgd1na2vs0mg"},{"bike_id":"6c137318-c9d6-4784-a6b9-2b612e541f7a","system_id":"levelo_inurba_marseille","lat":43.29432,"lon":5.38661,"is_reserved":false,"is_disabled":false,"rental_uris":{"android":"levelo://app?vid=6c137318-c9d6-4784-a6b9-2b612e541f7a","ios":"levelo://app?vid=6c137318-c9d6-4784-a6b9-2b612e541f7a"},"vehicle_type_id":"4","last_reported":1760461798,"current_range_meters":3200,"station_id":"","pricing_plan_id":"cebpf4jnsgd1na2vs0mg"},{"bike_id":"0f18dab9-f68e-4ffc-9446-2eae57a9fe56","system_id":"levelo_inurba_marseille","lat":43.28414,"lon":5.37523,"is_reserved":false,"is_disabled":false,"rental_uris":{"android":"levelo://app?vid=0f18dab9-f68e-4ffc-9446-2eae57a9fe56","ios":"levelo://app?vid=0f18dab9-f68e-4ffc-9446-2eae57a9fe56"},"vehicle_type_id":"4","last_reported":1760461798,"current_range_meters":3200,"station_id":"ce4bh412rcd13ifvqds0","pricing_plan_id":"cebpf4jnsgd1na2vs0mg"},{"bike_id":"b3661381-d1d1-46ce-8473-8d291c268047","system_id":"levelo_inurba_marseille","lat":43.287103,"lon":5.379477,"is_reserved":false,"is_disabled":false,"rental_uris":{"android":"levelo://app?vid=b3661381-d1d1-46ce-8473-8d291c268047","ios":"levelo://app?vid=b3661381-d1d1-46ce-8473-8d291c268047"},"vehicle_type_id":"4","last_reported":1760461798,"current_range_meters":3200,"station_id":"ce4bh9p2rcd13ifvqec0","pricing_plan_id":"cebpf4jnsgd1na2vs0mg"},{"bike_id":"27e3d50c-a3f8-481a-a87b-1c1cde3def8b","system_id":"levelo_inurba_marseille","lat":43.2808,"lon":5.39661,"is_reserved":false,"is_disabled":false,"rental_uris":{"android":"levelo://app?vid=27e3d50c-a3f8-481a-a87b-1c1cde3def8b","ios":"levelo://app?vid=27e3d50c-a3f8-481a-a87b-1c1cde3def8b"},"vehicle_type_id":"4","last_reported":1760461798,"current_range_meters":3200,"station_id":"ce4bho12rcd13ifvqh2g","pricing_plan_id":"cebpf4jnsgd1na2vs0mg"},{"bike_id":"9319f991-453f-4cd0-97aa-31050ede8522","system_id":"levelo_inurba_marseille","lat":43.30459,"lon":5.379,"is_reserved":false,"is_disabled":false,"rental_uris":{"android":"levelo://app?vid=9319f991-453f-4cd0-97aa-31050ede8522","ios":"levelo://app?vid=9319f991-453f-4cd0-97aa-31050ede8522"},"vehicle_type_id":"4","last_reported":1760461798,"current_range_meters":3600,"station_id":"ce4bgup2rcd13ifvqcn0","pricing_plan_id":"cebpf4jnsgd1na2vs0mg"},{"bike_id":"c914d2d5-77ce-44da-8531-6bbf7d8b9b8f","system_id":"levelo_inurba_marseille","lat":43.29262,"lon":5.38444,"is_reserved":false,"is_disabled":false,"rental_uris":{"android":"levelo://app?vid=c914d2d5-77ce-44da-8531-6bbf7d8b9b8f","ios":"levelo://app?vid=c914d2d5-77ce-44da-8531-6bbf7d8b9b8f"},"vehicle_type_id":"4","last_reported":1760461798,"current_range_meters":3600,"station_id":"ce4bh692rcd13ifvqea0","pricing_plan_id":"cebpf4jnsgd1na2vs0mg"},{"bike_id":"e2e4b549-8162-4db3-a94a-e67ec6d80694","system_id":"levelo_inurba_marseille","lat":43.28454,"lon":5.35883,"is_reserved":false,"is_disabled":false,"rental_uris":{"android":"levelo://app?vid=e2e4b549-8162-4db3-a94a-e67ec6d80694","ios":"levelo://app?vid=e2e4b549-8162-4db3-a94a-e67ec6d80694"},"vehicle_type_id":"4","last_reported":1760461798,"current_range_meters":3600,"station_id":"ce4bhah2rcd13ifvqei0","pricing_plan_id":"cebpf4jnsgd1na2vs0mg"},{"bike_id":"ba40c4a2-5742-4815-a4ae-a43145c57b1f","system_id":"levelo_inurba_marseille","lat":43.28936,"lon":5.36646,"is_reserved":false,"is_disabled":false,"rental_uris":{"android":"levelo://app?vid=ba40c4a2-5742-4815-a4ae-a43145c57b1f","ios":"levelo://app?vid=ba40c4a2-5742-4815-a4ae-a43145c57b1f"},"vehicle_type_id":"4","last_reported":1760461798,"current_range_meters":3600,"station_id":"ce4bhap2rcd13ifvqek0","pricing_plan_id":"cebpf4jnsgd1na2vs0mg"},{"bike_id":"83560911-40e0-4475-b727-bda6aeb6ed60","system_id":"levelo_inurba_marseille","lat":43.225331,"lon":5.348328,"is_reserved":false,"is_disabled":false,"rental_uris":{"android":"levelo://app?vid=83560911-40e0-4475-b727-bda6aeb6ed60","ios":"levelo://app?vid=83560911-40e0-4475-b727-bda6aeb6ed60"},"vehicle_type_id":"4","last_reported":1760461798,"current_range_meters":4000,"station_id":"","pricing_plan_id":"cebpf4jnsgd1na2vs0mg"},{"bike_id":"8f3ac66a-2e77-47a4-9f00-c56670bd8bcb","system_id":"levelo_inurba_marseille","lat":43.29744,"lon":5.41,"is_reserved":false,"is_disabled":false,"rental_uris":{"android":"levelo://app?vid=8f3ac66a-2e77-47a4-9f00-c56670bd8bcb","ios":"levelo://app?vid=8f3ac66a-2e77-47a4-9f00-c56670bd8bcb"},"vehicle_type_id":"4","last_reported":1760461798,"current_range_meters":4000,"station_id":"","pricing_plan_id":"cebpf4jnsgd1na2vs0mg"},{"bike_id":"39c1197b-695e-4655-a69b-cfd4d2592e59","system_id":"levelo_inurba_marseille","lat":43.290183,"lon":5.399567,"is_reserved":false,"is_disabled":false,"rental_uris":{"android":"levelo://app?vid=39c1197b-695e-4655-a69b-cfd4d2592e59","ios":"levelo://app?vid=39c1197b-695e-4655-a69b-cfd4d2592e59"},"vehicle_type_id":"4","last_reported":1760461798,"current_range_meters":4000,"station_id":"ce4bh392rcd13ifvqdm0","pricing_plan_id":"cebpf4jnsgd1na2vs0mg"},{"bike_id":"709adc9b-e1a6-4b65-9677-837e425ee617","system_id":"levelo_inurba_marseille","lat":43.28416,"lon":5.37517,"is_reserved":false,"is_disabled":false,"rental_uris":{"android":"levelo://app?vid=709adc9b-e1a6-4b65-9677-837e425ee617","ios":"levelo://app?vid=709adc9b-e1a6-4b65-9677-837e425ee617"},"vehicle_type_id":"4","last_reported":1760461798,"current_range_meters":4000,"station_id":"ce4bh412rcd13ifvqds0","pricing_plan_id":"cebpf4jnsgd1na2vs0mg"},{"bike_id":"a82b4dcb-4ab6-4587-bc1a-c93b897d6dd3","system_id":"levelo_inurba_marseille","lat":43.29073,"lon":5.37168,"is_reserved":false,"is_disabled":false,"rental_uris":{"android":"levelo://app?vid=a82b4dcb-4ab6-4587-bc1a-c93b897d6dd3","ios":"levelo://app?vid=a82b4dcb-4ab6-4587-bc1a-c93b897d6dd3"},"vehicle_type_id":"4","last_reported":1760461798,"current_range_meters":4000,"station_id":"ce4bh5p2rcd13ifvqe4g","pricing_plan_id":"cebpf4jnsgd1na2vs0mg"},{"bike_id":"6c3ba0e0-ce84-4a09-b8e2-29a151b60467","system_id":"levelo_inurba_marseille","lat":43.27496,"lon":5.42448,"is_reserved":false,"is_disabled":false,"rental_uris":{"android":"levelo://app?vid=6c3ba0e0-ce84-4a09-b8e2-29a151b60467","ios":"levelo://app?vid=6c3ba0e0-ce84-4a09-b8e2-29a151b60467"},"vehicle_type_id":"4","last_reported":1760461798,"current_range_meters":4000,"station_id":"ce4bhn92rcd13ifvqgrg","pricing_plan_id":"cebpf4jnsgd1na2vs0mg"},{"bike_id":"6cbd013d-1b6f-4f0c-acc6-c75302fa8de8","system_id":"levelo_inurba_marseille","lat":43.33771,"lon":5.374327,"is_reserved":false,"is_disabled":false,"rental_uris":{"android":"levelo://app?vid=6cbd013d-1b6f-4f0c-acc6-c75302fa8de8","ios":"levelo://app?vid=6cbd013d-1b6f-4f0c-acc6-c75302fa8de8"},"vehicle_type_id":"4","last_reported":1760461798,"current_range_meters":4400,"station_id":"","pricing_plan_id":"cebpf4jnsgd1na2vs0mg"},{"bike_id":"409fdf06-d465-4bcd-ba0f-af158b2c3eb3","system_id":"levelo_inurba_marseille","lat":43.2836,"lon":5.38108,"is_reserved":false,"is_disabled":false,"rental_uris":{"android":"levelo://app?vid=409fdf06-d465-4bcd-ba0f-af158b2c3eb3","ios":"levelo://app?vid=409fdf06-d465-4bcd-ba0f-af158b2c3eb3"},"vehicle_type_id":"4","last_reported":1760461798,"current_range_meters":4400,"station_id":"ce4bh412rcd13ifvqdr0","pricing_plan_id":"cebpf4jnsgd1na2vs0mg"},{"bike_id":"feed38e8-2988-4b1c-baf3-5f52035372cf","system_id":"levelo_inurba_marseille","lat":43.28728,"lon":5.37941,"is_reserved":false,"is_disabled":false,"rental_uris":{"android":"levelo://app?vid=feed38e8-2988-4b1c-baf3-5f52035372cf","ios":"levelo://app?vid=feed38e8-2988-4b1c-baf3-5f52035372cf"},"vehicle_type_id":"4","last_reported":1760461798,"current_range_meters":4400,"station_id":"ce4bh9p2rcd13ifvqec0","pricing_plan_id":"cebpf4jnsgd1na2vs0mg"},{"bike_id":"9b2e782e-e1b8-4b93-933e-d5aab1490739","system_id":"levelo_inurba_marseille","lat":43.27944,"lon":5.41053,"is_reserved":false,"is_disabled":false,"rental_uris":{"android":"levelo://app?vid=9b2e782e-e1b8-4b93-933e-d5aab1490739","ios":"levelo://app?vid=9b2e782e-e1b8-4b93-933e-d5aab1490739"},"vehicle_type_id":"4","last_reported":1760461798,"current_range_meters":4400,"station_id":"ce4bhnp2rcd13ifvqh0g","pricing_plan_id":"cebpf4jnsgd1na2vs0mg"},{"bike_id":"e89a8d24-1367-4f9c-86cf-2b167fb62c56","system_id":"levelo_inurba_marseille","lat":43.25335,"lon":5.42176,"is_reserved":false,"is_disabled":false,"rental_uris":{"android":"levelo://app?vid=e89a8d24-1367-4f9c-86cf-2b167fb62c56","ios":"levelo://app?vid=e89a8d24-1367-4f9c-86cf-2b167fb62c56"},"vehicle_type_id":"4","last_reported":1760461798,"current_range_meters":4400,"station_id":"st_d2m65c5bi1j21697t3ng","pricing_plan_id":"cebpf4jnsgd1na2vs0mg"},{"bike_id":"f2cef0ef-1267-4a21-945a-83f0bdb8eea7","system_id":"levelo_inurba_marseille","lat":43.273713,"lon":5.362622,"is_reserved":false,"is_disabled":false,"rental_uris":{"android":"levelo://app?vid=f2cef0ef-1267-4a21-945a-83f0bdb8eea7","ios":"levelo://app?vid=f2cef0ef-1267-4a21-945a-83f0bdb8eea7"},"vehicle_type_id":"4","last_reported":1760461798,"current_range_meters":4800,"station_id":"ce4bhbh2rcd13ifvqeo0","pricing_plan_id":"cebpf4jnsgd1na2vs0mg"},{"bike_id":"c5db11be-bc98-47f8-8421-720ce366d7ff","system_id":"levelo_inurba_marseille","lat":43.26788,"lon":5.39407,"is_reserved":false,"is_disabled":false,"rental_uris":{"android":"levelo://app?vid=c5db11be-bc98-47f8-8421-720ce366d7ff","ios":"levelo://app?vid=c5db11be-bc98-47f8-8421-720ce366d7ff"},"vehicle_type_id":"4","last_reported":1760461798,"current_range_meters":4800,"station_id":"ce4bhh12rcd13ifvqfg0","pricing_plan_id":"cebpf4jnsgd1na2vs0mg"},{"bike_id":"add38705-7ba0-4309-b101-d5e03ac1a3cf","system_id":"levelo_inurba_marseille","lat":43.329,"lon":5.39109,"is_reserved":false,"is_disabled":false,"rental_uris":{"android":"levelo://app?vid=add38705-7ba0-4309-b101-d5e03ac1a3cf","ios":"levelo://app?vid=add38705-7ba0-4309-b101-d5e03ac1a3cf"},"vehicle_type_id":"4","last_reported":1760461798,"current_range_meters":5600,"station_id":"","pricing_plan_id":"cebpf4jnsgd1na2vs0mg"},{"bike_id":"4068831e-c6a9-4293-9082-22cd56aab7d8","system_id":"levelo_inurba_marseille","lat":43.30834,"lon":5.40257,"is_reserved":false,"is_disabled":false,"rental_uris":{"android":"levelo://app?vid=4068831e-c6a9-4293-9082-22cd56aab7d8","ios":"levelo://app?vid=4068831e-c6a9-4293-9082-22cd56aab7d8"},"vehicle_type_id":"4","last_reported":1760461798,"current_range_meters":5600,"station_id":"","pricing_plan_id":"cebpf4jnsgd1na2vs0mg"},{"bike_id":"bb78d24a-e684-4ccd-b68e-8dd70c3814a0","system_id":"levelo_inurba_marseille","lat":43.30188,"lon":5.36625,"is_reserved":false,"is_disabled":false,"rental_uris":{"android":"levelo://app?vid=bb78d24a-e684-4ccd-b68e-8dd70c3814a0","ios":"levelo://app?vid=bb78d24a-e684-4ccd-b68e-8dd70c3814a0"},"vehicle_type_id":"4","last_reported":1760461798,"current_range_meters":5600,"station_id":"ce4bgrh2rcd13ifvqc8g","pricing_plan_id":"cebpf4jnsgd1na2vs0mg"},{"bike_id":"c9221b9c-05a4-4b0e-ae97-561e9b4205c2","system_id":"levelo_inurba_marseille","lat":43.30648,"lon":5.40098,"is_reserved":false,"is_disabled":false,"rental_uris":{"android":"levelo://app?vid=c9221b9c-05a4-4b0e-ae97-561e9b4205c2","ios":"levelo://app?vid=c9221b9c-05a4-4b0e-ae97-561e9b4205c2"},"vehicle_type_id":"4","last_reported":1760461798,"current_range_meters":5600,"station_id":"ce4bh112rcd13ifvqda0","pricing_plan_id":"cebpf4jnsgd1na2vs0mg"},{"bike_id":"abaeded1-ae32-4410-b601-d3ed02b6eb9b","system_id":"levelo_inurba_marseille","lat":43.29262,"lon":5.38447,"is_reserved":false,"is_disabled":false,"rental_uris":{"android":"levelo://app?vid=abaeded1-ae32-4410-b601-d3ed02b6eb9b","ios":"levelo://app?vid=abaeded1-ae32-4410-b601-d3ed02b6eb9b"},"vehicle_type_id":"4","last_reported":1760461798,"current_range_meters":5600,"station_id":"ce4bh692rcd13ifvqea0","pricing_plan_id":"cebpf4jnsgd1na2vs0mg"},{"bike_id":"2626c77f-63b9-4beb-8894-10f16b5e356c","system_id":"levelo_inurba_marseille","lat":43.27907,"lon":5.38015,"is_reserved":false,"is_disabled":false,"rental_uris":{"android":"levelo://app?vid=2626c77f-63b9-4beb-8894-10f16b5e356c","ios":"levelo://app?vid=2626c77f-63b9-4beb-8894-10f16b5e356c"},"vehicle_type_id":"4","last_reported":1760461798,"current_range_meters":5600,"station_id":"ce4bhf92rcd13ifvqf50","pricing_plan_id":"cebpf4jnsgd1na2vs0mg"},{"bike_id":"40dd6cbe-92bf-47f1-a435-b5a036bd1ca9","system_id":"levelo_inurba_marseille","lat":43.258443,"lon":5.4098,"is_reserved":false,"is_disabled":false,"rental_uris":{"android":"levelo://app?vid=40dd6cbe-92bf-47f1-a435-b5a036bd1ca9","ios":"levelo://app?vid=40dd6cbe-92bf-47f1-a435-b5a036bd1ca9"},"vehicle_type_id":"4","last_reported":1760461798,"current_range_meters":5600,"station_id":"ce4bhkp2rcd13ifvqgd0","pricing_plan_id":"cebpf4jnsgd1na2vs0mg"},{"bike_id":"07600ff5-0ffd-4a8c-8773-ee3246432fd3","system_id":"levelo_inurba_marseille","lat":43.27177,"lon":5.40998,"is_reserved":false,"is_disabled":false,"rental_uris":{"android":"levelo://app?vid=07600ff5-0ffd-4a8c-8773-ee3246432fd3","ios":"levelo://app?vid=07600ff5-0ffd-4a8c-8773-ee3246432fd3"},"vehicle_type_id":"4","last_reported":1760461798,"current_range_meters":5600,"station_id":"ce4bhl12rcd13ifvqgf0","pricing_plan_id":"cebpf4jnsgd1na2vs0mg"},{"bike_id":"d1cb03c5-50a7-4d16-95f1-0d4c452c649c","system_id":"levelo_inurba_marseille","lat":43.269165,"lon":5.402483,"is_reserved":false,"is_disabled":false,"rental_uris":{"android":"levelo://app?vid=d1cb03c5-50a7-4d16-95f1-0d4c452c649c","ios":"levelo://app?vid=d1cb03c5-50a7-4d16-95f1-0d4c452c649c"},"vehicle_type_id":"4","last_reported":1760461798,"current_range_meters":5600,"station_id":"cjm6bp8fraef2m0cb0m0","pricing_plan_id":"cebpf4jnsgd1na2vs0mg"},{"bike_id":"b1bdd791-8565-4395-ae42-ff40e0ea515b","system_id":"levelo_inurba_marseille","lat":43.29773,"lon":5.38354,"is_reserved":false,"is_disabled":false,"rental_uris":{"android":"levelo://app?vid=b1bdd791-8565-4395-ae42-ff40e0ea515b","ios":"levelo://app?vid=b1bdd791-8565-4395-ae42-ff40e0ea515b"},"vehicle_type_id":"4","last_reported":1760461798,"current_range_meters":6000,"station_id":"","pricing_plan_id":"cebpf4jnsgd1na2vs0mg"},{"bike_id":"e2f4e535-9a8c-4029-b493-6187e9ef7538","system_id":"levelo_inurba_marseille","lat":43.29692,"lon":5.37055,"is_reserved":false,"is_disabled":false,"rental_uris":{"android":"levelo://app?vid=e2f4e535-9a8c-4029-b493-6187e9ef7538","ios":"levelo://app?vid=e2f4e535-9a8c-4029-b493-6187e9ef7538"},"vehicle_type_id":"4","last_reported":1760461798,"current_range_meters":6000,"station_id":"","pricing_plan_id":"cebpf4jnsgd1na2vs0mg"},{"bike_id":"5f2814a8-550f-4d90-b7ad-44889b7067b9","system_id":"levelo_inurba_marseille","lat":43.29867,"lon":5.39735,"is_reserved":false,"is_disabled":false,"rental_uris":{"android":"levelo://app?vid=5f2814a8-550f-4d90-b7ad-44889b7067b9","ios":"levelo://app?vid=5f2814a8-550f-4d90-b7ad-44889b7067b9"},"vehicle_type_id":"4","last_reported":1760461798,"current_range_meters":6000,"station_id":"ce4bh0h2rcd13ifvqd50","pricing_plan_id":"cebpf4jnsgd1na2vs0mg"},{"bike_id":"fdb935cf-dc15-408d-a02f-1a83616f4ce1","system_id":"levelo_inurba_marseille","lat":43.26569,"lon":5.39011,"is_reserved":false,"is_disabled":false,"rental_uris":{"android":"levelo://app?vid=fdb935cf-dc15-408d-a02f-1a83616f4ce1","ios":"levelo://app?vid=fdb935cf-dc15-408d-a02f-1a83616f4ce1"},"vehicle_type_id":"4","last_reported":1760461798,"current_range_meters":6000,"station_id":"ce4bhe12rcd13ifvqf30","pricing_plan_id":"cebpf4jnsgd1na2vs0mg"},{"bike_id":"e37732ac-a080-4c08-955f-1bcb4aedaa03","system_id":"levelo_inurba_marseille","lat":43.300648,"lon":5.371112,"is_reserved":false,"is_disabled":false,"rental_uris":{"android":"levelo://app?vid=e37732ac-a080-4c08-955f-1bcb4aedaa03","ios":"levelo://app?vid=e37732ac-a080-4c08-955f-1bcb4aedaa03"},"vehicle_type_id":"4","last_reported":1760461798,"current_range_meters":6400,"station_id":"","pricing_plan_id":"cebpf4jnsgd1na2vs0mg"},{"bike_id":"26bc7d11-b4e6-4f76-9edd-085e00624ef8","system_id":"levelo_inurba_marseille","lat":43.29192,"lon":5.39353,"is_reserved":false,"is_disabled":false,"rental_uris":{"android":"levelo://app?vid=26bc7d11-b4e6-4f76-9edd-085e00624ef8","ios":"levelo://app?vid=26bc7d11-b4e6-4f76-9edd-085e00624ef8"},"vehicle_type_id":"4","last_reported":1760461798,"current_range_meters":6400,"station_id":"","pricing_plan_id":"cebpf4jnsgd1na2vs0mg"},{"bike_id":"f667fda4-e16e-437a-a5d3-2fb6a19da8db","system_id":"levelo_inurba_marseille","lat":43.29039,"lon":5.37698,"is_reserved":false,"is_disabled":false,"rental_uris":{"android":"levelo://app?vid=f667fda4-e16e-437a-a5d3-2fb6a19da8db","ios":"levelo://app?vid=f667fda4-e16e-437a-a5d3-2fb6a19da8db"},"vehicle_type_id":"4","last_reported":1760461798,"current_range_meters":6400,"station_id":"","pricing_plan_id":"cebpf4jnsgd1na2vs0mg"},{"bike_id":"08debafd-7b26-4438-ab9f-4607fa2c18d3","system_id":"levelo_inurba_marseille","lat":43.29439,"lon":5.39755,"is_reserved":false,"is_disabled":false,"rental_uris":{"android":"levelo://app?vid=08debafd-7b26-4438-ab9f-4607fa2c18d3","ios":"levelo://app?vid=08debafd-7b26-4438-ab9f-4607fa2c18d3"},"vehicle_type_id":"4","last_reported":1760461798,"current_range_meters":6400,"station_id":"ce4bh3h2rcd13ifvqdo0","pricing_plan_id":"cebpf4jnsgd1na2vs0mg"},{"bike_id":"cd8da6c3-6f9f-4791-9b19-902db635b899","system_id":"levelo_inurba_marseille","lat":43.29277,"lon":5.36848,"is_reserved":false,"is_disabled":false,"rental_uris":{"android":"levelo://app?vid=cd8da6c3-6f9f-4791-9b19-902db635b899","ios":"levelo://app?vid=cd8da6c3-6f9f-4791-9b19-902db635b899"},"vehicle_type_id":"4","last_reported":1760461798,"current_range_meters":6400,"station_id":"ce4bhbp2rcd13ifvqesg","pricing_plan_id":"cebpf4jnsgd1na2vs0mg"},{"bike_id":"bcc94798-1c88-4d24-a3a7-82ac8c0d3b6e","system_id":"levelo_inurba_marseille","lat":43.27968,"lon":5.38732,"is_reserved":false,"is_disabled":false,"rental_uris":{"android":"levelo://app?vid=bcc94798-1c88-4d24-a3a7-82ac8c0d3b6e","ios":"levelo://app?vid=bcc94798-1c88-4d24-a3a7-82ac8c0d3b6e"},"vehicle_type_id":"4","last_reported":1760461798,"current_range_meters":6400,"station_id":"ce4bhg12rcd13ifvqf80","pricing_plan_id":"cebpf4jnsgd1na2vs0mg"},{"bike_id":"66ad0b8f-7545-4787-9128-b5959cd1371a","system_id":"levelo_inurba_marseille","lat":43.28703,"lon":5.39991,"is_reserved":false,"is_disabled":false,"rental_uris":{"android":"levelo://app?vid=66ad0b8f-7545-4787-9128-b5959cd1371a","ios":"levelo://app?vid=66ad0b8f-7545-4787-9128-b5959cd1371a"},"vehicle_type_id":"4","last_reported":1760461798,"current_range_meters":6400,"station_id":"ce4bho92rcd13ifvqh3g","pricing_plan_id":"cebpf4jnsgd1na2vs0mg"},{"bike_id":"31f51f33-cf35-4c08-bd96-65c546883800","system_id":"levelo_inurba_marseille","lat":43.29253,"lon":5.38448,"is_reserved":false,"is_disabled":false,"rental_uris":{"android":"levelo://app?vid=31f51f33-cf35-4c08-bd96-65c546883800","ios":"levelo://app?vid=31f51f33-cf35-4c08-bd96-65c546883800"},"vehicle_type_id":"4","last_reported":1760461798,"current_range_meters":6800,"station_id":"ce4bh692rcd13ifvqea0","pricing_plan_id":"cebpf4jnsgd1na2vs0mg"},{"bike_id":"5bb855a2-1ef6-4000-9cff-f64c4d3fb3be","system_id":"levelo_inurba_marseille","lat":43.28932,"lon":5.36641,"is_reserved":false,"is_disabled":false,"rental_uris":{"android":"levelo://app?vid=5bb855a2-1ef6-4000-9cff-f64c4d3fb3be","ios":"levelo://app?vid=5bb855a2-1ef6-4000-9cff-f64c4d3fb3be"},"vehicle_type_id":"4","last_reported":1760461798,"current_range_meters":6800,"station_id":"ce4bhap2rcd13ifvqek0","pricing_plan_id":"cebpf4jnsgd1na2vs0mg"},{"bike_id":"77aca15c-aa0d-494b-b158-97e67ef453da","system_id":"levelo_inurba_marseille","lat":43.28863,"lon":5.42521,"is_reserved":false,"is_disabled":false,"rental_uris":{"android":"levelo://app?vid=77aca15c-aa0d-494b-b158-97e67ef453da","ios":"levelo://app?vid=77aca15c-aa0d-494b-b158-97e67ef453da"},"vehicle_type_id":"4","last_reported":1760461798,"current_range_meters":6800,"station_id":"st_d3b462108ojc7389ooeg","pricing_plan_id":"cebpf4jnsgd1na2vs0mg"},{"bike_id":"78fec9f0-9e6a-4082-80a7-ac176ccd6bde","system_id":"levelo_inurba_marseille","lat":43.30736,"lon":5.3719,"is_reserved":false,"is_disabled":false,"rental_uris":{"android":"levelo://app?vid=78fec9f0-9e6a-4082-80a7-ac176ccd6bde","ios":"levelo://app?vid=78fec9f0-9e6a-4082-80a7-ac176ccd6bde"},"vehicle_type_id":"4","last_reported":1760461798,"current_range_meters":7200,"station_id":"","pricing_plan_id":"cebpf4jnsgd1na2vs0mg"},{"bike_id":"92bb1028-cdea-41ab-8230-dd962790252f","system_id":"levelo_inurba_marseille","lat":43.2499,"lon":5.37731,"is_reserved":false,"is_disabled":false,"rental_uris":{"android":"levelo://app?vid=92bb1028-cdea-41ab-8230-dd962790252f","ios":"levelo://app?vid=92bb1028-cdea-41ab-8230-dd962790252f"},"vehicle_type_id":"4","last_reported":1760461798,"current_range_meters":7200,"station_id":"","pricing_plan_id":"cebpf4jnsgd1na2vs0mg"},{"bike_id":"37a4ffcb-ae9b-4d3e-8474-362b59da7503","system_id":"levelo_inurba_marseille","lat":43.280334,"lon":5.405984,"is_reserved":false,"is_disabled":false,"rental_uris":{"android":"levelo://app?vid=37a4ffcb-ae9b-4d3e-8474-362b59da7503","ios":"levelo://app?vid=37a4ffcb-ae9b-4d3e-8474-362b59da7503"},"vehicle_type_id":"4","last_reported":1760461798,"current_range_meters":7200,"station_id":"","pricing_plan_id":"cebpf4jnsgd1na2vs0mg"},{"bike_id":"630a57ec-0d93-46ca-a836-95b88867b779","system_id":"levelo_inurba_marseille","lat":43.295225,"lon":5.390296,"is_reserved":false,"is_disabled":false,"rental_uris":{"android":"levelo://app?vid=630a57ec-0d93-46ca-a836-95b88867b779","ios":"levelo://app?vid=630a57ec-0d93-46ca-a836-95b88867b779"},"vehicle_type_id":"4","last_reported":1760461798,"current_range_meters":7200,"station_id":"ce4bh3p2rcd13ifvqdp0","pricing_plan_id":"cebpf4jnsgd1na2vs0mg"},{"bike_id":"2ffb77d1-9689-4daf-95a5-44fd6020812f","system_id":"levelo_inurba_marseille","lat":43.281517,"lon":5.42647,"is_reserved":false,"is_disabled":false,"rental_uris":{"android":"levelo://app?vid=2ffb77d1-9689-4daf-95a5-44fd6020812f","ios":"levelo://app?vid=2ffb77d1-9689-4daf-95a5-44fd6020812f"},"vehicle_type_id":"4","last_reported":1760461798,"current_range_meters":7200,"station_id":"ce4bhnh2rcd13ifvqgug","pricing_plan_id":"cebpf4jnsgd1na2vs0mg"},{"bike_id":"dec7e4c6-a0a4-4873-8ee6-48e73ffe7b7c","system_id":"levelo_inurba_marseille","lat":43.25335,"lon":5.42173,"is_reserved":false,"is_disabled":false,"rental_uris":{"android":"levelo://app?vid=dec7e4c6-a0a4-4873-8ee6-48e73ffe7b7c","ios":"levelo://app?vid=dec7e4c6-a0a4-4873-8ee6-48e73ffe7b7c"},"vehicle_type_id":"4","last_reported":1760461798,"current_range_meters":7200,"station_id":"st_d2m65c5bi1j21697t3ng","pricing_plan_id":"cebpf4jnsgd1na2vs0mg"},{"bike_id":"ea5e7697-3aae-4d18-8e8e-47ba3140046e","system_id":"levelo_inurba_marseille","lat":43.29965,"lon":5.38498,"is_reserved":false,"is_disabled":false,"rental_uris":{"android":"levelo://app?vid=ea5e7697-3aae-4d18-8e8e-47ba3140046e","ios":"levelo://app?vid=ea5e7697-3aae-4d18-8e8e-47ba3140046e"},"vehicle_type_id":"4","last_reported":1760461798,"current_range_meters":8000,"station_id":"ce4bgj92rcd13ifvqbd0","pricing_plan_id":"cebpf4jnsgd1na2vs0mg"},{"bike_id":"f8457498-6f98-4910-8507-b12cf74050a2","system_id":"levelo_inurba_marseille","lat":43.29929,"lon":5.36523,"is_reserved":false,"is_disabled":false,"rental_uris":{"android":"levelo://app?vid=f8457498-6f98-4910-8507-b12cf74050a2","ios":"levelo://app?vid=f8457498-6f98-4910-8507-b12cf74050a2"},"vehicle_type_id":"4","last_reported":1760461798,"current_range_meters":8000,"station_id":"ce4bgm92rcd13ifvqbr0","pricing_plan_id":"cebpf4jnsgd1na2vs0mg"},{"bike_id":"e18ac5dc-d3d0-42f4-96eb-96dcdbf228ea","system_id":"levelo_inurba_marseille","lat":43.25498,"lon":5.37652,"is_reserved":false,"is_disabled":false,"rental_uris":{"android":"levelo://app?vid=e18ac5dc-d3d0-42f4-96eb-96dcdbf228ea","ios":"levelo://app?vid=e18ac5dc-d3d0-42f4-96eb-96dcdbf228ea"},"vehicle_type_id":"4","last_reported":1760461798,"current_range_meters":8000,"station_id":"ce4bhh12rcd13ifvqff0","pricing_plan_id":"cebpf4jnsgd1na2vs0mg"},{"bike_id":"e47ad3e5-391e-4a18-8048-b8692c739dec","system_id":"levelo_inurba_marseille","lat":43.243873,"lon":5.370553,"is_reserved":false,"is_disabled":false,"rental_uris":{"android":"levelo://app?vid=e47ad3e5-391e-4a18-8048-b8692c739dec","ios":"levelo://app?vid=e47ad3e5-391e-4a18-8048-b8692c739dec"},"vehicle_type_id":"4","last_reported":1760461798,"current_range_meters":8000,"station_id":"ce4bhhh2rcd13ifvqfk0","pricing_plan_id":"cebpf4jnsgd1na2vs0mg"},{"bike_id":"5803f392-1d5a-4b59-944d-8d33ba524331","system_id":"levelo_inurba_marseille","lat":43.279473,"lon":5.410499,"is_reserved":false,"is_disabled":false,"rental_uris":{"android":"levelo://app?vid=5803f392-1d5a-4b59-944d-8d33ba524331","ios":"levelo://app?vid=5803f392-1d5a-4b59-944d-8d33ba524331"},"vehicle_type_id":"4","last_reported":1760461798,"current_range_meters":8400,"station_id":"","pricing_plan_id":"cebpf4jnsgd1na2vs0mg"},{"bike_id":"e3405ce8-d0ab-45b2-8b84-f2f6b0a9e0e9","system_id":"levelo_inurba_marseille","lat":43.30255,"lon":5.40061,"is_reserved":false,"is_disabled":false,"rental_uris":{"android":"levelo://app?vid=e3405ce8-d0ab-45b2-8b84-f2f6b0a9e0e9","ios":"levelo://app?vid=e3405ce8-d0ab-45b2-8b84-f2f6b0a9e0e9"},"vehicle_type_id":"4","last_reported":1760461798,"current_range_meters":8400,"station_id":"ce4bgvh2rcd13ifvqcs0","pricing_plan_id":"cebpf4jnsgd1na2vs0mg"},{"bike_id":"7f6dc9cf-16d6-43ee-aea4-f21abc2ea740","system_id":"levelo_inurba_marseille","lat":43.31331,"lon":5.39689,"is_reserved":false,"is_disabled":false,"rental_uris":{"android":"levelo://app?vid=7f6dc9cf-16d6-43ee-aea4-f21abc2ea740","ios":"levelo://app?vid=7f6dc9cf-16d6-43ee-aea4-f21abc2ea740"},"vehicle_type_id":"4","last_reported":1760461798,"current_range_meters":8400,"station_id":"ce4bgvp2rcd13ifvqcu0","pricing_plan_id":"cebpf4jnsgd1na2vs0mg"},{"bike_id":"285d655c-9bd0-42a1-b7b5-ba8fcd74a34a","system_id":"levelo_inurba_marseille","lat":43.2907,"lon":5.37172,"is_reserved":false,"is_disabled":false,"rental_uris":{"android":"levelo://app?vid=285d655c-9bd0-42a1-b7b5-ba8fcd74a34a","ios":"levelo://app?vid=285d655c-9bd0-42a1-b7b5-ba8fcd74a34a"},"vehicle_type_id":"4","last_reported":1760461798,"current_range_meters":8400,"station_id":"ce4bh5p2rcd13ifvqe4g","pricing_plan_id":"cebpf4jnsgd1na2vs0mg"},{"bike_id":"84cd580b-cee3-45cd-ab7d-6024e16c9498","system_id":"levelo_inurba_marseille","lat":43.28729,"lon":5.37949,"is_reserved":false,"is_disabled":false,"rental_uris":{"android":"levelo://app?vid=84cd580b-cee3-45cd-ab7d-6024e16c9498","ios":"levelo://app?vid=84cd580b-cee3-45cd-ab7d-6024e16c9498"},"vehicle_type_id":"4","last_reported":1760461798,"current_range_meters":8400,"station_id":"ce4bh9p2rcd13ifvqec0","pricing_plan_id":"cebpf4jnsgd1na2vs0mg"},{"bike_id":"29bf1eb0-2c8b-4bd0-aa97-7495200d9a98","system_id":"levelo_inurba_marseille","lat":43.25862,"lon":5.39901,"is_reserved":false,"is_disabled":false,"rental_uris":{"android":"levelo://app?vid=29bf1eb0-2c8b-4bd0-aa97-7495200d9a98","ios":"levelo://app?vid=29bf1eb0-2c8b-4bd0-aa97-7495200d9a98"},"vehicle_type_id":"4","last_reported":1760461798,"current_range_meters":8400,"station_id":"ce4bhl92rcd13ifvqghg","pricing_plan_id":"cebpf4jnsgd1na2vs0mg"},{"bike_id":"e4e3900b-e860-48f7-bded-13ac039f45dd","system_id":"levelo_inurba_marseille","lat":43.23799,"lon":5.43066,"is_reserved":false,"is_disabled":false,"rental_uris":{"android":"levelo://app?vid=e4e3900b-e860-48f7-bded-13ac039f45dd","ios":"levelo://app?vid=e4e3900b-e860-48f7-bded-13ac039f45dd"},"vehicle_type_id":"4","last_reported":1760461798,"current_range_meters":8800,"station_id":"","pricing_plan_id":"cebpf4jnsgd1na2vs0mg"},{"bike_id":"cbd438d8-29a2-4b52-a25b-dd7ec71e6cba","system_id":"levelo_inurba_marseille","lat":43.30335,"lon":5.40424,"is_reserved":false,"is_disabled":false,"rental_uris":{"android":"levelo://app?vid=cbd438d8-29a2-4b52-a25b-dd7ec71e6cba","ios":"levelo://app?vid=cbd438d8-29a2-4b52-a25b-dd7ec71e6cba"},"vehicle_type_id":"4","last_reported":1760461798,"current_range_meters":8800,"station_id":"ce4bh012rcd13ifvqd10","pricing_plan_id":"cebpf4jnsgd1na2vs0mg"},{"bike_id":"58c7b038-507c-4616-b0f7-0698c9befd04","system_id":"levelo_inurba_marseille","lat":43.29097,"lon":5.372,"is_reserved":false,"is_disabled":false,"rental_uris":{"android":"levelo://app?vid=58c7b038-507c-4616-b0f7-0698c9befd04","ios":"levelo://app?vid=58c7b038-507c-4616-b0f7-0698c9befd04"},"vehicle_type_id":"4","last_reported":1760461798,"current_range_meters":8800,"station_id":"ce4bh5p2rcd13ifvqe4g","pricing_plan_id":"cebpf4jnsgd1na2vs0mg"},{"bike_id":"de01fd86-8e5c-4265-acfb-fd0a04a29e53","system_id":"levelo_inurba_marseille","lat":43.26498,"lon":5.3954,"is_reserved":false,"is_disabled":false,"rental_uris":{"android":"levelo://app?vid=de01fd86-8e5c-4265-acfb-fd0a04a29e53","ios":"levelo://app?vid=de01fd86-8e5c-4265-acfb-fd0a04a29e53"},"vehicle_type_id":"4","last_reported":1760461798,"current_range_meters":8800,"station_id":"ce4bhi12rcd13ifvqfq0","pricing_plan_id":"cebpf4jnsgd1na2vs0mg"},{"bike_id":"8b3e3da1-2785-4491-adce-517c0ed9b703","system_id":"levelo_inurba_marseille","lat":43.25581,"lon":5.38233,"is_reserved":false,"is_disabled":false,"rental_uris":{"android":"levelo://app?vid=8b3e3da1-2785-4491-adce-517c0ed9b703","ios":"levelo://app?vid=8b3e3da1-2785-4491-adce-517c0ed9b703"},"vehicle_type_id":"4","last_reported":1760461798,"current_range_meters":8800,"station_id":"ce4bhih2rcd13ifvqfs0","pricing_plan_id":"cebpf4jnsgd1na2vs0mg"},{"bike_id":"ce5356b0-f26e-4b97-93bd-e354e78d8106","system_id":"levelo_inurba_marseille","lat":43.29864,"lon":5.36267,"is_reserved":false,"is_disabled":false,"rental_uris":{"android":"levelo://app?vid=ce5356b0-f26e-4b97-93bd-e354e78d8106","ios":"levelo://app?vid=ce5356b0-f26e-4b97-93bd-e354e78d8106"},"vehicle_type_id":"4","last_reported":1760461798,"current_range_meters":9200,"station_id":"ce4bgpp2rcd13ifvqc3g","pricing_plan_id":"cebpf4jnsgd1na2vs0mg"},{"bike_id":"0c41fdaa-d7cd-4d83-bb21-f5d4b773d45b","system_id":"levelo_inurba_marseille","lat":43.28712,"lon":5.37938,"is_reserved":false,"is_disabled":false,"rental_uris":{"android":"levelo://app?vid=0c41fdaa-d7cd-4d83-bb21-f5d4b773d45b","ios":"levelo://app?vid=0c41fdaa-d7cd-4d83-bb21-f5d4b773d45b"},"vehicle_type_id":"4","last_reported":1760461798,"current_range_meters":9200,"station_id":"ce4bh9p2rcd13ifvqec0","pricing_plan_id":"cebpf4jnsgd1na2vs0mg"},{"bike_id":"883e806a-e95f-480f-b62a-124d0b8610b0","system_id":"levelo_inurba_marseille","lat":43.291179,"lon":5.383588,"is_reserved":false,"is_disabled":false,"rental_uris":{"android":"levelo://app?vid=883e806a-e95f-480f-b62a-124d0b8610b0","ios":"levelo://app?vid=883e806a-e95f-480f-b62a-124d0b8610b0"},"vehicle_type_id":"4","last_reported":1760461798,"current_range_meters":9200,"station_id":"ce4bhjp2rcd13ifvqga0","pricing_plan_id":"cebpf4jnsgd1na2vs0mg"},{"bike_id":"87fcede7-22d4-4b19-b780-192a8d232424","system_id":"levelo_inurba_marseille","lat":43.27812,"lon":5.40709,"is_reserved":false,"is_disabled":false,"rental_uris":{"android":"levelo://app?vid=87fcede7-22d4-4b19-b780-192a8d232424","ios":"levelo://app?vid=87fcede7-22d4-4b19-b780-192a8d232424"},"vehicle_type_id":"4","last_reported":1760461798,"current_range_meters":9200,"station_id":"ce4bhnh2rcd13ifvqgtg","pricing_plan_id":"cebpf4jnsgd1na2vs0mg"},{"bike_id":"562f5c21-4bf7-49cc-b6ec-63031ed5c949","system_id":"levelo_inurba_marseille","lat":43.30413,"lon":5.41291,"is_reserved":false,"is_disabled":false,"rental_uris":{"android":"levelo://app?vid=562f5c21-4bf7-49cc-b6ec-63031ed5c949","ios":"levelo://app?vid=562f5c21-4bf7-49cc-b6ec-63031ed5c949"},"vehicle_type_id":"4","last_reported":1760461798,"current_range_meters":9200,"station_id":"ce4bhop2rcd13ifvqh8g","pricing_plan_id":"cebpf4jnsgd1na2vs0mg"},{"bike_id":"45362544-ce4d-4893-95fe-e97a267a2ce4","system_id":"levelo_inurba_marseille","lat":43.30631,"lon":5.36876,"is_reserved":false,"is_disabled":false,"rental_uris":{"android":"levelo://app?vid=45362544-ce4d-4893-95fe-e97a267a2ce4","ios":"levelo://app?vid=45362544-ce4d-4893-95fe-e97a267a2ce4"},"vehicle_type_id":"4","last_reported":1760461798,"current_range_meters":9600,"station_id":"","pricing_plan_id":"cebpf4jnsgd1na2vs0mg"},{"bike_id":"ea138590-3792-43ac-a8db-daad289de59e","system_id":"levelo_inurba_marseille","lat":43.2923,"lon":5.36064,"is_reserved":false,"is_disabled":false,"rental_uris":{"android":"levelo://app?vid=ea138590-3792-43ac-a8db-daad289de59e","ios":"levelo://app?vid=ea138590-3792-43ac-a8db-daad289de59e"},"vehicle_type_id":"4","last_reported":1760461798,"current_range_meters":9600,"station_id":"ce4bhbh2rcd13ifvqeqg","pricing_plan_id":"cebpf4jnsgd1na2vs0mg"},{"bike_id":"ae232e1c-39e2-4884-905a-c45b4d5ea135","system_id":"levelo_inurba_marseille","lat":43.29454,"lon":5.3753,"is_reserved":false,"is_disabled":false,"rental_uris":{"android":"levelo://app?vid=ae232e1c-39e2-4884-905a-c45b4d5ea135","ios":"levelo://app?vid=ae232e1c-39e2-4884-905a-c45b4d5ea135"},"vehicle_type_id":"4","last_reported":1760461798,"current_range_meters":10000,"station_id":"","pricing_plan_id":"cebpf4jnsgd1na2vs0mg"},{"bike_id":"b4052f7a-27b6-479b-bdb3-900e233c35a7","system_id":"levelo_inurba_marseille","lat":43.295696,"lon":5.364148,"is_reserved":false,"is_disabled":false,"rental_uris":{"android":"levelo://app?vid=b4052f7a-27b6-479b-bdb3-900e233c35a7","ios":"levelo://app?vid=b4052f7a-27b6-479b-bdb3-900e233c35a7"},"vehicle_type_id":"4","last_reported":1760461798,"current_range_meters":10000,"station_id":"","pricing_plan_id":"cebpf4jnsgd1na2vs0mg"},{"bike_id":"78169122-010e-4f91-8a06-68f2a52ade49","system_id":"levelo_inurba_marseille","lat":43.246328,"lon":5.431434,"is_reserved":false,"is_disabled":false,"rental_uris":{"android":"levelo://app?vid=78169122-010e-4f91-8a06-68f2a52ade49","ios":"levelo://app?vid=78169122-010e-4f91-8a06-68f2a52ade49"},"vehicle_type_id":"4","last_reported":1760461798,"current_range_meters":10000,"station_id":"","pricing_plan_id":"cebpf4jnsgd1na2vs0mg"},{"bike_id":"c20304ba-ea05-4bfa-833d-6c996850ef50","system_id":"levelo_inurba_marseille","lat":43.28707,"lon":5.37383,"is_reserved":false,"is_disabled":false,"rental_uris":{"android":"levelo://app?vid=c20304ba-ea05-4bfa-833d-6c996850ef50","ios":"levelo://app?vid=c20304ba-ea05-4bfa-833d-6c996850ef50"},"vehicle_type_id":"4","last_reported":1760461798,"current_range_meters":10000,"station_id":"ce4bh3p2rcd13ifvqdq0","pricing_plan_id":"cebpf4jnsgd1na2vs0mg"},{"bike_id":"7a8b9946-2481-486f-affd-b232b020340b","system_id":"levelo_inurba_marseille","lat":43.28256,"lon":5.35067,"is_reserved":false,"is_disabled":false,"rental_uris":{"android":"levelo://app?vid=7a8b9946-2481-486f-affd-b232b020340b","ios":"levelo://app?vid=7a8b9946-2481-486f-affd-b232b020340b"},"vehicle_type_id":"4","last_reported":1760461798,"current_range_meters":10000,"station_id":"ce4bhbp2rcd13ifvqerg","pricing_plan_id":"cebpf4jnsgd1na2vs0mg"},{"bike_id":"37200953-def7-4997-b032-1848e656f9e0","system_id":"levelo_inurba_marseille","lat":43.295572,"lon":5.396957,"is_reserved":false,"is_disabled":false,"rental_uris":{"android":"levelo://app?vid=37200953-def7-4997-b032-1848e656f9e0","ios":"levelo://app?vid=37200953-def7-4997-b032-1848e656f9e0"},"vehicle_type_id":"4","last_reported":1760461798,"current_range_meters":10800,"station_id":"","pricing_plan_id":"cebpf4jnsgd1na2vs0mg"},{"bike_id":"d91fc386-13a8-4766-b01c-ba3dfb8220bd","system_id":"levelo_inurba_marseille","lat":43.31877,"lon":5.39993,"is_reserved":false,"is_disabled":false,"rental_uris":{"android":"levelo://app?vid=d91fc386-13a8-4766-b01c-ba3dfb8220bd","ios":"levelo://app?vid=d91fc386-13a8-4766-b01c-ba3dfb8220bd"},"vehicle_type_id":"4","last_reported":1760461798,"current_range_meters":10800,"station_id":"","pricing_plan_id":"cebpf4jnsgd1na2vs0mg"},{"bike_id":"3cddc70d-ce90-4f1e-9f37-c757d0963741","system_id":"levelo_inurba_marseille","lat":43.2953,"lon":5.38543,"is_reserved":false,"is_disabled":false,"rental_uris":{"android":"levelo://app?vid=3cddc70d-ce90-4f1e-9f37-c757d0963741","ios":"levelo://app?vid=3cddc70d-ce90-4f1e-9f37-c757d0963741"},"vehicle_type_id":"4","last_reported":1760461798,"current_range_meters":10800,"station_id":"ce4bgih2rcd13ifvqba0","pricing_plan_id":"cebpf4jnsgd1na2vs0mg"},{"bike_id":"ea3b0251-9560-4d32-8168-e34bd12d9609","system_id":"levelo_inurba_marseille","lat":43.28485,"lon":5.38563,"is_reserved":false,"is_disabled":false,"rental_uris":{"android":"levelo://app?vid=ea3b0251-9560-4d32-8168-e34bd12d9609","ios":"levelo://app?vid=ea3b0251-9560-4d32-8168-e34bd12d9609"},"vehicle_type_id":"4","last_reported":1760461798,"current_range_meters":10800,"station_id":"ce4bh8p2rcd13ifvqeb0","pricing_plan_id":"cebpf4jnsgd1na2vs0mg"},{"bike_id":"ebeb08c7-7c97-4ec8-80aa-e7b6743f507e","system_id":"levelo_inurba_marseille","lat":43.28938,"lon":5.3662,"is_reserved":false,"is_disabled":false,"rental_uris":{"android":"levelo://app?vid=ebeb08c7-7c97-4ec8-80aa-e7b6743f507e","ios":"levelo://app?vid=ebeb08c7-7c97-4ec8-80aa-e7b6743f507e"},"vehicle_type_id":"4","last_reported":1760461798,"current_range_meters":10800,"station_id":"ce4bhap2rcd13ifvqek0","pricing_plan_id":"cebpf4jnsgd1na2vs0mg"},{"bike_id":"c88e3de4-3afd-4251-8846-d538d736f880","system_id":"levelo_inurba_marseille","lat":43.30754,"lon":5.42445,"is_reserved":false,"is_disabled":false,"rental_uris":{"android":"levelo://app?vid=c88e3de4-3afd-4251-8846-d538d736f880","ios":"levelo://app?vid=c88e3de4-3afd-4251-8846-d538d736f880"},"vehicle_type_id":"4","last_reported":1760461798,"current_range_meters":10800,"station_id":"st_cvj6ca6bvosntc0bfgr0","pricing_plan_id":"cebpf4jnsgd1na2vs0mg"},{"bike_id":"bee9c75b-e1f3-40ee-89d8-e67943c4f1db","system_id":"levelo_inurba_marseille","lat":43.28632,"lon":5.3521,"is_reserved":false,"is_disabled":false,"rental_uris":{"android":"levelo://app?vid=bee9c75b-e1f3-40ee-89d8-e67943c4f1db","ios":"levelo://app?vid=bee9c75b-e1f3-40ee-89d8-e67943c4f1db"},"vehicle_type_id":"4","last_reported":1760461798,"current_range_meters":11200,"station_id":"","pricing_plan_id":"cebpf4jnsgd1na2vs0mg"},{"bike_id":"1937a027-d752-496d-9442-79efb082a791","system_id":"levelo_inurba_marseille","lat":43.31987,"lon":5.38161,"is_reserved":false,"is_disabled":false,"rental_uris":{"android":"levelo://app?vid=1937a027-d752-496d-9442-79efb082a791","ios":"levelo://app?vid=1937a027-d752-496d-9442-79efb082a791"},"vehicle_type_id":"4","last_reported":1760461798,"current_range_meters":11200,"station_id":"ce4bhr12rcd13ifvqhpg","pricing_plan_id":"cebpf4jnsgd1na2vs0mg"},{"bike_id":"323e2197-bd27-4a86-bfeb-2e7ab09fa957","system_id":"levelo_inurba_marseille","lat":43.307121,"lon":5.37309,"is_reserved":false,"is_disabled":false,"rental_uris":{"android":"levelo://app?vid=323e2197-bd27-4a86-bfeb-2e7ab09fa957","ios":"levelo://app?vid=323e2197-bd27-4a86-bfeb-2e7ab09fa957"},"vehicle_type_id":"4","last_reported":1760461798,"current_range_meters":11600,"station_id":"","pricing_plan_id":"cebpf4jnsgd1na2vs0mg"},{"bike_id":"5c478302-f4a0-4ed9-a539-3dd7f11ab53a","system_id":"levelo_inurba_marseille","lat":43.29295,"lon":5.37463,"is_reserved":false,"is_disabled":false,"rental_uris":{"android":"levelo://app?vid=5c478302-f4a0-4ed9-a539-3dd7f11ab53a","ios":"levelo://app?vid=5c478302-f4a0-4ed9-a539-3dd7f11ab53a"},"vehicle_type_id":"4","last_reported":1760461798,"current_range_meters":11600,"station_id":"ce4bgi12rcd13ifvqb70","pricing_plan_id":"cebpf4jnsgd1na2vs0mg"},{"bike_id":"1a712b7e-94c5-412c-9088-eb59e3dc52e3","system_id":"levelo_inurba_marseille","lat":43.29266,"lon":5.38447,"is_reserved":false,"is_disabled":false,"rental_uris":{"android":"levelo://app?vid=1a712b7e-94c5-412c-9088-eb59e3dc52e3","ios":"levelo://app?vid=1a712b7e-94c5-412c-9088-eb59e3dc52e3"},"vehicle_type_id":"4","last_reported":1760461798,"current_range_meters":11600,"station_id":"ce4bh692rcd13ifvqea0","pricing_plan_id":"cebpf4jnsgd1na2vs0mg"},{"bike_id":"534c89cb-432b-43e0-abae-3f8c81aaf1fd","system_id":"levelo_inurba_marseille","lat":43.286144,"lon":5.350875,"is_reserved":false,"is_disabled":false,"rental_uris":{"android":"levelo://app?vid=534c89cb-432b-43e0-abae-3f8c81aaf1fd","ios":"levelo://app?vid=534c89cb-432b-43e0-abae-3f8c81aaf1fd"},"vehicle_type_id":"4","last_reported":1760461798,"current_range_meters":11600,"station_id":"ce4bhch2rcd13ifvqeug","pricing_plan_id":"cebpf4jnsgd1na2vs0mg"},{"bike_id":"c7bdf86e-01c5-4c30-bea8-865e4faacf07","system_id":"levelo_inurba_marseille","lat":43.28153,"lon":5.42643,"is_reserved":false,"is_disabled":false,"rental_uris":{"android":"levelo://app?vid=c7bdf86e-01c5-4c30-bea8-865e4faacf07","ios":"levelo://app?vid=c7bdf86e-01c5-4c30-bea8-865e4faacf07"},"vehicle_type_id":"4","last_reported":1760461798,"current_range_meters":11600,"station_id":"ce4bhnh2rcd13ifvqgug","pricing_plan_id":"cebpf4jnsgd1na2vs0mg"},{"bike_id":"255234e4-5e97-46f7-a802-d8f009cccbfd","system_id":"levelo_inurba_marseille","lat":43.26804,"lon":5.40272,"is_reserved":false,"is_disabled":false,"rental_uris":{"android":"levelo://app?vid=255234e4-5e97-46f7-a802-d8f009cccbfd","ios":"levelo://app?vid=255234e4-5e97-46f7-a802-d8f009cccbfd"},"vehicle_type_id":"4","last_reported":1760461798,"current_range_meters":11600,"station_id":"ce501612rcd8frsf0b60","pricing_plan_id":"cebpf4jnsgd1na2vs0mg"},{"bike_id":"96a429dc-a225-4502-8349-ce62a46a3032","system_id":"levelo_inurba_marseille","lat":43.2981,"lon":5.44073,"is_reserved":false,"is_disabled":false,"rental_uris":{"android":"levelo://app?vid=96a429dc-a225-4502-8349-ce62a46a3032","ios":"levelo://app?vid=96a429dc-a225-4502-8349-ce62a46a3032"},"vehicle_type_id":"4","last_reported":1760461798,"current_range_meters":11600,"station_id":"st_d3jp68qikq2c7381ktn0","pricing_plan_id":"cebpf4jnsgd1na2vs0mg"},{"bike_id":"afd3a141-6f64-4928-ba91-fca21b7af038","system_id":"levelo_inurba_marseille","lat":43.29565,"lon":5.3646,"is_reserved":false,"is_disabled":false,"rental_uris":{"android":"levelo://app?vid=afd3a141-6f64-4928-ba91-fca21b7af038","ios":"levelo://app?vid=afd3a141-6f64-4928-ba91-fca21b7af038"},"vehicle_type_id":"4","last_reported":1760461798,"current_range_meters":12000,"station_id":"","pricing_plan_id":"cebpf4jnsgd1na2vs0mg"},{"bike_id":"faf5245f-0cbd-40a1-b3b6-daf9edde3b08","system_id":"levelo_inurba_marseille","lat":43.31362,"lon":5.38507,"is_reserved":false,"is_disabled":false,"rental_uris":{"android":"levelo://app?vid=faf5245f-0cbd-40a1-b3b6-daf9edde3b08","ios":"levelo://app?vid=faf5245f-0cbd-40a1-b3b6-daf9edde3b08"},"vehicle_type_id":"4","last_reported":1760461798,"current_range_meters":12000,"station_id":"ce4bgt92rcd13ifvqcf0","pricing_plan_id":"cebpf4jnsgd1na2vs0mg"},{"bike_id":"52adc992-3004-43b5-85e9-e20db47fef5f","system_id":"levelo_inurba_marseille","lat":43.30648,"lon":5.40096,"is_reserved":false,"is_disabled":false,"rental_uris":{"android":"levelo://app?vid=52adc992-3004-43b5-85e9-e20db47fef5f","ios":"levelo://app?vid=52adc992-3004-43b5-85e9-e20db47fef5f"},"vehicle_type_id":"4","last_reported":1760461798,"current_range_meters":12000,"station_id":"ce4bh112rcd13ifvqda0","pricing_plan_id":"cebpf4jnsgd1na2vs0mg"},{"bike_id":"24d9c63e-e14e-475e-b808-608bafd3289f","system_id":"levelo_inurba_marseille","lat":43.22428,"lon":5.34657,"is_reserved":false,"is_disabled":false,"rental_uris":{"android":"levelo://app?vid=24d9c63e-e14e-475e-b808-608bafd3289f","ios":"levelo://app?vid=24d9c63e-e14e-475e-b808-608bafd3289f"},"vehicle_type_id":"4","last_reported":1760461798,"current_range_meters":12400,"station_id":"","pricing_plan_id":"cebpf4jnsgd1na2vs0mg"},{"bike_id":"d2d7f8aa-3987-4eb0-aa7d-e73b4a032d0e","system_id":"levelo_inurba_marseille","lat":43.296275,"lon":5.377172,"is_reserved":false,"is_disabled":false,"rental_uris":{"android":"levelo://app?vid=d2d7f8aa-3987-4eb0-aa7d-e73b4a032d0e","ios":"levelo://app?vid=d2d7f8aa-3987-4eb0-aa7d-e73b4a032d0e"},"vehicle_type_id":"4","last_reported":1760461798,"current_range_meters":12400,"station_id":"","pricing_plan_id":"cebpf4jnsgd1na2vs0mg"},{"bike_id":"2a0f341d-f192-4bb1-95bc-be9c43f6e3f8","system_id":"levelo_inurba_marseille","lat":43.32555,"lon":5.40123,"is_reserved":false,"is_disabled":false,"rental_uris":{"android":"levelo://app?vid=2a0f341d-f192-4bb1-95bc-be9c43f6e3f8","ios":"levelo://app?vid=2a0f341d-f192-4bb1-95bc-be9c43f6e3f8"},"vehicle_type_id":"4","last_reported":1760461798,"current_range_meters":12400,"station_id":"","pricing_plan_id":"cebpf4jnsgd1na2vs0mg"},{"bike_id":"85101574-693c-44d7-a933-ea15f45c963f","system_id":"levelo_inurba_marseille","lat":43.291717,"lon":5.371567,"is_reserved":false,"is_disabled":false,"rental_uris":{"android":"levelo://app?vid=85101574-693c-44d7-a933-ea15f45c963f","ios":"levelo://app?vid=85101574-693c-44d7-a933-ea15f45c963f"},"vehicle_type_id":"4","last_reported":1760461798,"current_range_meters":12400,"station_id":"","pricing_plan_id":"cebpf4jnsgd1na2vs0mg"},{"bike_id":"98d82565-fe2d-44c6-9884-38ffb9451871","system_id":"levelo_inurba_marseille","lat":43.28461,"lon":5.358825,"is_reserved":false,"is_disabled":false,"rental_uris":{"android":"levelo://app?vid=98d82565-fe2d-44c6-9884-38ffb9451871","ios":"levelo://app?vid=98d82565-fe2d-44c6-9884-38ffb9451871"},"vehicle_type_id":"4","last_reported":1760461798,"current_range_meters":12400,"station_id":"","pricing_plan_id":"cebpf4jnsgd1na2vs0mg"},{"bike_id":"cab64786-fa3e-4992-a3a2-8ea682ea6a96","system_id":"levelo_inurba_marseille","lat":43.28153,"lon":5.42639,"is_reserved":false,"is_disabled":false,"rental_uris":{"android":"levelo://app?vid=cab64786-fa3e-4992-a3a2-8ea682ea6a96","ios":"levelo://app?vid=cab64786-fa3e-4992-a3a2-8ea682ea6a96"},"vehicle_type_id":"4","last_reported":1760461798,"current_range_meters":12400,"station_id":"ce4bhnh2rcd13ifvqgug","pricing_plan_id":"cebpf4jnsgd1na2vs0mg"},{"bike_id":"e5f7a4cd-8432-4fbc-817b-224c4c885856","system_id":"levelo_inurba_marseille","lat":43.31754,"lon":5.39017,"is_reserved":false,"is_disabled":false,"rental_uris":{"android":"levelo://app?vid=e5f7a4cd-8432-4fbc-817b-224c4c885856","ios":"levelo://app?vid=e5f7a4cd-8432-4fbc-817b-224c4c885856"},"vehicle_type_id":"4","last_reported":1760461798,"current_range_meters":12400,"station_id":"ce4bhqp2rcd13ifvqhng","pricing_plan_id":"cebpf4jnsgd1na2vs0mg"},{"bike_id":"214912e7-ba77-48a3-87d1-94cbeff10443","system_id":"levelo_inurba_marseille","lat":43.329,"lon":5.39113,"is_reserved":false,"is_disabled":false,"rental_uris":{"android":"levelo://app?vid=214912e7-ba77-48a3-87d1-94cbeff10443","ios":"levelo://app?vid=214912e7-ba77-48a3-87d1-94cbeff10443"},"vehicle_type_id":"4","last_reported":1760461798,"current_range_meters":12800,"station_id":"","pricing_plan_id":"cebpf4jnsgd1na2vs0mg"},{"bike_id":"7ee9332e-c3df-4a10-90c3-df738febeb64","system_id":"levelo_inurba_marseille","lat":43.29462,"lon":5.39582,"is_reserved":false,"is_disabled":false,"rental_uris":{"android":"levelo://app?vid=7ee9332e-c3df-4a10-90c3-df738febeb64","ios":"levelo://app?vid=7ee9332e-c3df-4a10-90c3-df738febeb64"},"vehicle_type_id":"4","last_reported":1760461798,"current_range_meters":12800,"station_id":"","pricing_plan_id":"cebpf4jnsgd1na2vs0mg"},{"bike_id":"3dff8362-ad96-4aa6-86aa-6568060d5f5e","system_id":"levelo_inurba_marseille","lat":43.29567,"lon":5.37531,"is_reserved":false,"is_disabled":false,"rental_uris":{"android":"levelo://app?vid=3dff8362-ad96-4aa6-86aa-6568060d5f5e","ios":"levelo://app?vid=3dff8362-ad96-4aa6-86aa-6568060d5f5e"},"vehicle_type_id":"4","last_reported":1760461798,"current_range_meters":12800,"station_id":"ce4bgh92rcd13ifvqb50","pricing_plan_id":"cebpf4jnsgd1na2vs0mg"},{"bike_id":"e74e7f51-9d0d-47d6-9ab3-ea72bbadee4f","system_id":"levelo_inurba_marseille","lat":43.298216,"lon":5.362469,"is_reserved":false,"is_disabled":false,"rental_uris":{"android":"levelo://app?vid=e74e7f51-9d0d-47d6-9ab3-ea72bbadee4f","ios":"levelo://app?vid=e74e7f51-9d0d-47d6-9ab3-ea72bbadee4f"},"vehicle_type_id":"4","last_reported":1760461798,"current_range_meters":12800,"station_id":"ce4bgpp2rcd13ifvqc3g","pricing_plan_id":"cebpf4jnsgd1na2vs0mg"},{"bike_id":"88b6ca47-6cde-4ac0-80e3-f0be6604b12a","system_id":"levelo_inurba_marseille","lat":43.29579,"lon":5.39975,"is_reserved":false,"is_disabled":false,"rental_uris":{"android":"levelo://app?vid=88b6ca47-6cde-4ac0-80e3-f0be6604b12a","ios":"levelo://app?vid=88b6ca47-6cde-4ac0-80e3-f0be6604b12a"},"vehicle_type_id":"4","last_reported":1760461798,"current_range_meters":12800,"station_id":"ce4bh312rcd13ifvqdj0","pricing_plan_id":"cebpf4jnsgd1na2vs0mg"},{"bike_id":"efc4896a-3bf8-4621-9ac5-54d5417f8de2","system_id":"levelo_inurba_marseille","lat":43.26565,"lon":5.39026,"is_reserved":false,"is_disabled":false,"rental_uris":{"android":"levelo://app?vid=efc4896a-3bf8-4621-9ac5-54d5417f8de2","ios":"levelo://app?vid=efc4896a-3bf8-4621-9ac5-54d5417f8de2"},"vehicle_type_id":"4","last_reported":1760461798,"current_range_meters":12800,"station_id":"ce4bhe12rcd13ifvqf30","pricing_plan_id":"cebpf4jnsgd1na2vs0mg"},{"bike_id":"935bf8ed-2e2a-489d-b402-af72c5ee6695","system_id":"levelo_inurba_marseille","lat":43.28533,"lon":5.44101,"is_reserved":false,"is_disabled":false,"rental_uris":{"android":"levelo://app?vid=935bf8ed-2e2a-489d-b402-af72c5ee6695","ios":"levelo://app?vid=935bf8ed-2e2a-489d-b402-af72c5ee6695"},"vehicle_type_id":"4","last_reported":1760461798,"current_range_meters":12800,"station_id":"st_d3j3df2ikq2c7380ej80","pricing_plan_id":"cebpf4jnsgd1na2vs0mg"},{"bike_id":"b8020bf7-8078-4092-bfed-8394b1a5db76","system_id":"levelo_inurba_marseille","lat":43.283506,"lon":5.396803,"is_reserved":false,"is_disabled":false,"rental_uris":{"android":"levelo://app?vid=b8020bf7-8078-4092-bfed-8394b1a5db76","ios":"levelo://app?vid=b8020bf7-8078-4092-bfed-8394b1a5db76"},"vehicle_type_id":"4","last_reported":1760461798,"current_range_meters":13600,"station_id":"","pricing_plan_id":"cebpf4jnsgd1na2vs0mg"},{"bike_id":"c07edc17-6ca5-442c-ab2e-bdfbb7da40da","system_id":"levelo_inurba_marseille","lat":43.29651,"lon":5.37181,"is_reserved":false,"is_disabled":false,"rental_uris":{"android":"levelo://app?vid=c07edc17-6ca5-442c-ab2e-bdfbb7da40da","ios":"levelo://app?vid=c07edc17-6ca5-442c-ab2e-bdfbb7da40da"},"vehicle_type_id":"4","last_reported":1760461798,"current_range_meters":13600,"station_id":"ce4bgnh2rcd13ifvqc0g","pricing_plan_id":"cebpf4jnsgd1na2vs0mg"},{"bike_id":"44551ff0-561e-430c-9e9f-b6155aa72113","system_id":"levelo_inurba_marseille","lat":43.27904,"lon":5.38013,"is_reserved":false,"is_disabled":false,"rental_uris":{"android":"levelo://app?vid=44551ff0-561e-430c-9e9f-b6155aa72113","ios":"levelo://app?vid=44551ff0-561e-430c-9e9f-b6155aa72113"},"vehicle_type_id":"4","last_reported":1760461798,"current_range_meters":13600,"station_id":"ce4bhf92rcd13ifvqf50","pricing_plan_id":"cebpf4jnsgd1na2vs0mg"},{"bike_id":"7efdb160-d854-4462-9094-f1ef1aaea74c","system_id":"levelo_inurba_marseille","lat":43.26957,"lon":5.38638,"is_reserved":false,"is_disabled":false,"rental_uris":{"android":"levelo://app?vid=7efdb160-d854-4462-9094-f1ef1aaea74c","ios":"levelo://app?vid=7efdb160-d854-4462-9094-f1ef1aaea74c"},"vehicle_type_id":"4","last_reported":1760461798,"current_range_meters":13600,"station_id":"ce4bhh92rcd13ifvqfh0","pricing_plan_id":"cebpf4jnsgd1na2vs0mg"},{"bike_id":"a84be867-cb68-46f8-a20b-2f18f398499c","system_id":"levelo_inurba_marseille","lat":43.2587,"lon":5.39895,"is_reserved":false,"is_disabled":false,"rental_uris":{"android":"levelo://app?vid=a84be867-cb68-46f8-a20b-2f18f398499c","ios":"levelo://app?vid=a84be867-cb68-46f8-a20b-2f18f398499c"},"vehicle_type_id":"4","last_reported":1760461798,"current_range_meters":13600,"station_id":"ce4bhl92rcd13ifvqghg","pricing_plan_id":"cebpf4jnsgd1na2vs0mg"},{"bike_id":"e77795ba-f98d-454a-8570-a4eb3c299a73","system_id":"levelo_inurba_marseille","lat":43.26229,"lon":5.40449,"is_reserved":false,"is_disabled":false,"rental_uris":{"android":"levelo://app?vid=e77795ba-f98d-454a-8570-a4eb3c299a73","ios":"levelo://app?vid=e77795ba-f98d-454a-8570-a4eb3c299a73"},"vehicle_type_id":"4","last_reported":1760461798,"current_range_meters":13600,"station_id":"ce4bhmh2rcd13ifvqgmg","pricing_plan_id":"cebpf4jnsgd1na2vs0mg"},{"bike_id":"ad768729-4428-4a43-9a8d-521de0b87ea3","system_id":"levelo_inurba_marseille","lat":43.32092,"lon":5.36785,"is_reserved":false,"is_disabled":false,"rental_uris":{"android":"levelo://app?vid=ad768729-4428-4a43-9a8d-521de0b87ea3","ios":"levelo://app?vid=ad768729-4428-4a43-9a8d-521de0b87ea3"},"vehicle_type_id":"4","last_reported":1760461798,"current_range_meters":13600,"station_id":"ce4bhrh2rcd13ifvqhug","pricing_plan_id":"cebpf4jnsgd1na2vs0mg"},{"bike_id":"85669a3e-1b14-4f03-b3e1-3e7ea9243f33","system_id":"levelo_inurba_marseille","lat":43.30306,"lon":5.36905,"is_reserved":false,"is_disabled":false,"rental_uris":{"android":"levelo://app?vid=85669a3e-1b14-4f03-b3e1-3e7ea9243f33","ios":"levelo://app?vid=85669a3e-1b14-4f03-b3e1-3e7ea9243f33"},"vehicle_type_id":"4","last_reported":1760461798,"current_range_meters":14000,"station_id":"ce4bgqh2rcd13ifvqc5g","pricing_plan_id":"cebpf4jnsgd1na2vs0mg"},{"bike_id":"bb671f98-1b24-4dfb-9542-cca74d04ee28","system_id":"levelo_inurba_marseille","lat":43.28417,"lon":5.34981,"is_reserved":false,"is_disabled":false,"rental_uris":{"android":"levelo://app?vid=bb671f98-1b24-4dfb-9542-cca74d04ee28","ios":"levelo://app?vid=bb671f98-1b24-4dfb-9542-cca74d04ee28"},"vehicle_type_id":"4","last_reported":1760461798,"current_range_meters":14000,"station_id":"ce4bhbh2rcd13ifvqepg","pricing_plan_id":"cebpf4jnsgd1na2vs0mg"},{"bike_id":"7d360f2d-4cd6-41c5-939c-ed6889e05d64","system_id":"levelo_inurba_marseille","lat":43.30141,"lon":5.37418,"is_reserved":false,"is_disabled":false,"rental_uris":{"android":"levelo://app?vid=7d360f2d-4cd6-41c5-939c-ed6889e05d64","ios":"levelo://app?vid=7d360f2d-4cd6-41c5-939c-ed6889e05d64"},"vehicle_type_id":"4","last_reported":1760461798,"current_range_meters":14400,"station_id":"ce4bgs92rcd13ifvqcc0","pricing_plan_id":"cebpf4jnsgd1na2vs0mg"},{"bike_id":"4526b897-7f98-4669-928d-48e2c64b845e","system_id":"levelo_inurba_marseille","lat":43.3025,"lon":5.40069,"is_reserved":false,"is_disabled":false,"rental_uris":{"android":"levelo://app?vid=4526b897-7f98-4669-928d-48e2c64b845e","ios":"levelo://app?vid=4526b897-7f98-4669-928d-48e2c64b845e"},"vehicle_type_id":"4","last_reported":1760461798,"current_range_meters":14400,"station_id":"ce4bgvh2rcd13ifvqcs0","pricing_plan_id":"cebpf4jnsgd1na2vs0mg"},{"bike_id":"5f86347b-4741-4a0e-8495-2bdd811dfe7d","system_id":"levelo_inurba_marseille","lat":43.31327,"lon":5.39694,"is_reserved":false,"is_disabled":false,"rental_uris":{"android":"levelo://app?vid=5f86347b-4741-4a0e-8495-2bdd811dfe7d","ios":"levelo://app?vid=5f86347b-4741-4a0e-8495-2bdd811dfe7d"},"vehicle_type_id":"4","last_reported":1760461798,"current_range_meters":14400,"station_id":"ce4bgvp2rcd13ifvqcu0","pricing_plan_id":"cebpf4jnsgd1na2vs0mg"},{"bike_id":"f429855c-0a29-4187-88af-e4078a11b539","system_id":"levelo_inurba_marseille","lat":43.28567,"lon":5.39501,"is_reserved":false,"is_disabled":false,"rental_uris":{"android":"levelo://app?vid=f429855c-0a29-4187-88af-e4078a11b539","ios":"levelo://app?vid=f429855c-0a29-4187-88af-e4078a11b539"},"vehicle_type_id":"4","last_reported":1760461798,"current_range_meters":14400,"station_id":"ce4bh292rcd13ifvqdg0","pricing_plan_id":"cebpf4jnsgd1na2vs0mg"},{"bike_id":"aa42909c-ecfa-4748-8e06-e9461b0f3d22","system_id":"levelo_inurba_marseille","lat":43.29258,"lon":5.38445,"is_reserved":false,"is_disabled":false,"rental_uris":{"android":"levelo://app?vid=aa42909c-ecfa-4748-8e06-e9461b0f3d22","ios":"levelo://app?vid=aa42909c-ecfa-4748-8e06-e9461b0f3d22"},"vehicle_type_id":"4","last_reported":1760461798,"current_range_meters":14400,"station_id":"ce4bh692rcd13ifvqea0","pricing_plan_id":"cebpf4jnsgd1na2vs0mg"},{"bike_id":"fff110cf-39c5-425c-a898-a4d21f51e1fc","system_id":"levelo_inurba_marseille","lat":43.28452,"lon":5.35895,"is_reserved":false,"is_disabled":false,"rental_uris":{"android":"levelo://app?vid=fff110cf-39c5-425c-a898-a4d21f51e1fc","ios":"levelo://app?vid=fff110cf-39c5-425c-a898-a4d21f51e1fc"},"vehicle_type_id":"4","last_reported":1760461798,"current_range_meters":14400,"station_id":"ce4bhah2rcd13ifvqei0","pricing_plan_id":"cebpf4jnsgd1na2vs0mg"},{"bike_id":"50a1b858-ec49-431e-8da6-77d4de966f33","system_id":"levelo_inurba_marseille","lat":43.29768,"lon":5.39339,"is_reserved":false,"is_disabled":false,"rental_uris":{"android":"levelo://app?vid=50a1b858-ec49-431e-8da6-77d4de966f33","ios":"levelo://app?vid=50a1b858-ec49-431e-8da6-77d4de966f33"},"vehicle_type_id":"4","last_reported":1760461798,"current_range_meters":14400,"station_id":"chh1huq6cuj3fo74tm60","pricing_plan_id":"cebpf4jnsgd1na2vs0mg"},{"bike_id":"586b84c1-974f-4ade-aa62-9daa48e0fa11","system_id":"levelo_inurba_marseille","lat":43.284314,"lon":5.386695,"is_reserved":false,"is_disabled":false,"rental_uris":{"android":"levelo://app?vid=586b84c1-974f-4ade-aa62-9daa48e0fa11","ios":"levelo://app?vid=586b84c1-974f-4ade-aa62-9daa48e0fa11"},"vehicle_type_id":"4","last_reported":1760461798,"current_range_meters":14800,"station_id":"","pricing_plan_id":"cebpf4jnsgd1na2vs0mg"},{"bike_id":"26545edc-91b5-4eb9-98b7-e06eae770ff2","system_id":"levelo_inurba_marseille","lat":43.31732,"lon":5.43913,"is_reserved":false,"is_disabled":false,"rental_uris":{"android":"levelo://app?vid=26545edc-91b5-4eb9-98b7-e06eae770ff2","ios":"levelo://app?vid=26545edc-91b5-4eb9-98b7-e06eae770ff2"},"vehicle_type_id":"4","last_reported":1760461798,"current_range_meters":14800,"station_id":"","pricing_plan_id":"cebpf4jnsgd1na2vs0mg"},{"bike_id":"810c3306-16a5-41fc-a0d9-703a192713c7","system_id":"levelo_inurba_marseille","lat":43.30574,"lon":5.36578,"is_reserved":false,"is_disabled":false,"rental_uris":{"android":"levelo://app?vid=810c3306-16a5-41fc-a0d9-703a192713c7","ios":"levelo://app?vid=810c3306-16a5-41fc-a0d9-703a192713c7"},"vehicle_type_id":"4","last_reported":1760461798,"current_range_meters":14800,"station_id":"ce4bgs12rcd13ifvqcag","pricing_plan_id":"cebpf4jnsgd1na2vs0mg"},{"bike_id":"2e66d19a-f07b-43aa-ac09-3c86c4b5ba2b","system_id":"levelo_inurba_marseille","lat":43.31329,"lon":5.39686,"is_reserved":false,"is_disabled":false,"rental_uris":{"android":"levelo://app?vid=2e66d19a-f07b-43aa-ac09-3c86c4b5ba2b","ios":"levelo://app?vid=2e66d19a-f07b-43aa-ac09-3c86c4b5ba2b"},"vehicle_type_id":"4","last_reported":1760461798,"current_range_meters":14800,"station_id":"ce4bgvp2rcd13ifvqcu0","pricing_plan_id":"cebpf4jnsgd1na2vs0mg"},{"bike_id":"91ab1363-742f-48b4-afbf-c5038ebf28ea","system_id":"levelo_inurba_marseille","lat":43.28111,"lon":5.37795,"is_reserved":false,"is_disabled":false,"rental_uris":{"android":"levelo://app?vid=91ab1363-742f-48b4-afbf-c5038ebf28ea","ios":"levelo://app?vid=91ab1363-742f-48b4-afbf-c5038ebf28ea"},"vehicle_type_id":"4","last_reported":1760461798,"current_range_meters":14800,"station_id":"ce4bha12rcd13ifvqee0","pricing_plan_id":"cebpf4jnsgd1na2vs0mg"},{"bike_id":"a570ca24-80a4-438e-a579-c13a45b588c4","system_id":"levelo_inurba_marseille","lat":43.2894,"lon":5.3664,"is_reserved":false,"is_disabled":false,"rental_uris":{"android":"levelo://app?vid=a570ca24-80a4-438e-a579-c13a45b588c4","ios":"levelo://app?vid=a570ca24-80a4-438e-a579-c13a45b588c4"},"vehicle_type_id":"4","last_reported":1760461798,"current_range_meters":14800,"station_id":"ce4bhap2rcd13ifvqek0","pricing_plan_id":"cebpf4jnsgd1na2vs0mg"},{"bike_id":"1184c0c0-fbfa-4005-a84d-07bb8bf4b1c9","system_id":"levelo_inurba_marseille","lat":43.25487,"lon":5.37647,"is_reserved":false,"is_disabled":false,"rental_uris":{"android":"levelo://app?vid=1184c0c0-fbfa-4005-a84d-07bb8bf4b1c9","ios":"levelo://app?vid=1184c0c0-fbfa-4005-a84d-07bb8bf4b1c9"},"vehicle_type_id":"4","last_reported":1760461798,"current_range_meters":14800,"station_id":"ce4bhh12rcd13ifvqff0","pricing_plan_id":"cebpf4jnsgd1na2vs0mg"},{"bike_id":"8ef9cb96-3e1a-4007-8d0a-e7a9a059f5eb","system_id":"levelo_inurba_marseille","lat":43.297424,"lon":5.397321,"is_reserved":false,"is_disabled":false,"rental_uris":{"android":"levelo://app?vid=8ef9cb96-3e1a-4007-8d0a-e7a9a059f5eb","ios":"levelo://app?vid=8ef9cb96-3e1a-4007-8d0a-e7a9a059f5eb"},"vehicle_type_id":"4","last_reported":1760461798,"current_range_meters":15200,"station_id":"ce4bh0h2rcd13ifvqd50","pricing_plan_id":"cebpf4jnsgd1na2vs0mg"},{"bike_id":"0aadf935-55e9-4e9a-9648-1c4f90a7c626","system_id":"levelo_inurba_marseille","lat":43.29511,"lon":5.39398,"is_reserved":false,"is_disabled":false,"rental_uris":{"android":"levelo://app?vid=0aadf935-55e9-4e9a-9648-1c4f90a7c626","ios":"levelo://app?vid=0aadf935-55e9-4e9a-9648-1c4f90a7c626"},"vehicle_type_id":"4","last_reported":1760461798,"current_range_meters":15200,"station_id":"ce4bh292rcd13ifvqdf0","pricing_plan_id":"cebpf4jnsgd1na2vs0mg"},{"bike_id":"69c1a886-6dae-4432-902b-54dcf5392075","system_id":"levelo_inurba_marseille","lat":43.289234,"lon":5.383951,"is_reserved":false,"is_disabled":false,"rental_uris":{"android":"levelo://app?vid=69c1a886-6dae-4432-902b-54dcf5392075","ios":"levelo://app?vid=69c1a886-6dae-4432-902b-54dcf5392075"},"vehicle_type_id":"4","last_reported":1760461798,"current_range_meters":15200,"station_id":"ce4bh612rcd13ifvqe6g","pricing_plan_id":"cebpf4jnsgd1na2vs0mg"},{"bike_id":"339a0663-835f-4ee7-8ab0-aaecc925644a","system_id":"levelo_inurba_marseille","lat":43.317075,"lon":5.437009,"is_reserved":false,"is_disabled":false,"rental_uris":{"android":"levelo://app?vid=339a0663-835f-4ee7-8ab0-aaecc925644a","ios":"levelo://app?vid=339a0663-835f-4ee7-8ab0-aaecc925644a"},"vehicle_type_id":"4","last_reported":1760461798,"current_range_meters":15200,"station_id":"ce4bhp92rcd13ifvqhcg","pricing_plan_id":"cebpf4jnsgd1na2vs0mg"},{"bike_id":"5c6a4de2-89e3-4336-96b7-a4fdae893565","system_id":"levelo_inurba_marseille","lat":43.23202,"lon":5.35547,"is_reserved":false,"is_disabled":false,"rental_uris":{"android":"levelo://app?vid=5c6a4de2-89e3-4336-96b7-a4fdae893565","ios":"levelo://app?vid=5c6a4de2-89e3-4336-96b7-a4fdae893565"},"vehicle_type_id":"4","last_reported":1760461798,"current_range_meters":15200,"station_id":"ce4bhu92rcd13ifvqi70","pricing_plan_id":"cebpf4jnsgd1na2vs0mg"},{"bike_id":"d414bc65-e4d4-4fb5-8cd7-acad503398d6","system_id":"levelo_inurba_marseille","lat":43.283826,"lon":5.394538,"is_reserved":false,"is_disabled":false,"rental_uris":{"android":"levelo://app?vid=d414bc65-e4d4-4fb5-8cd7-acad503398d6","ios":"levelo://app?vid=d414bc65-e4d4-4fb5-8cd7-acad503398d6"},"vehicle_type_id":"4","last_reported":1760461798,"current_range_meters":16000,"station_id":"","pricing_plan_id":"cebpf4jnsgd1na2vs0mg"},{"bike_id":"1c2977c1-cfa3-469e-870d-77c2a817f7ae","system_id":"levelo_inurba_marseille","lat":43.29263,"lon":5.38442,"is_reserved":false,"is_disabled":false,"rental_uris":{"android":"levelo://app?vid=1c2977c1-cfa3-469e-870d-77c2a817f7ae","ios":"levelo://app?vid=1c2977c1-cfa3-469e-870d-77c2a817f7ae"},"vehicle_type_id":"4","last_reported":1760461798,"current_range_meters":16000,"station_id":"ce4bh692rcd13ifvqea0","pricing_plan_id":"cebpf4jnsgd1na2vs0mg"},{"bike_id":"329cb01c-dd47-400b-9e9c-b06a5bc37e8d","system_id":"levelo_inurba_marseille","lat":43.27977,"lon":5.38748,"is_reserved":false,"is_disabled":false,"rental_uris":{"android":"levelo://app?vid=329cb01c-dd47-400b-9e9c-b06a5bc37e8d","ios":"levelo://app?vid=329cb01c-dd47-400b-9e9c-b06a5bc37e8d"},"vehicle_type_id":"4","last_reported":1760461798,"current_range_meters":16000,"station_id":"ce4bhg12rcd13ifvqf80","pricing_plan_id":"cebpf4jnsgd1na2vs0mg"},{"bike_id":"7a6354e6-848d-49f8-8d1f-d5d9146a8922","system_id":"levelo_inurba_marseille","lat":43.271773,"lon":5.409979,"is_reserved":false,"is_disabled":false,"rental_uris":{"android":"levelo://app?vid=7a6354e6-848d-49f8-8d1f-d5d9146a8922","ios":"levelo://app?vid=7a6354e6-848d-49f8-8d1f-d5d9146a8922"},"vehicle_type_id":"4","last_reported":1760461798,"current_range_meters":16000,"station_id":"ce4bhl12rcd13ifvqgf0","pricing_plan_id":"cebpf4jnsgd1na2vs0mg"},{"bike_id":"e148baac-c797-49b1-b3f6-9e1c44f69fa3","system_id":"levelo_inurba_marseille","lat":43.23179,"lon":5.3999,"is_reserved":false,"is_disabled":false,"rental_uris":{"android":"levelo://app?vid=e148baac-c797-49b1-b3f6-9e1c44f69fa3","ios":"levelo://app?vid=e148baac-c797-49b1-b3f6-9e1c44f69fa3"},"vehicle_type_id":"4","last_reported":1760461798,"current_range_meters":16000,"station_id":"ce4bhn12rcd13ifvqgqg","pricing_plan_id":"cebpf4jnsgd1na2vs0mg"},{"bike_id":"6f901d00-06b1-4dee-8259-dba268244e4e","system_id":"levelo_inurba_marseille","lat":43.27814,"lon":5.40711,"is_reserved":false,"is_disabled":false,"rental_uris":{"android":"levelo://app?vid=6f901d00-06b1-4dee-8259-dba268244e4e","ios":"levelo://app?vid=6f901d00-06b1-4dee-8259-dba268244e4e"},"vehicle_type_id":"4","last_reported":1760461798,"current_range_meters":16000,"station_id":"ce4bhnh2rcd13ifvqgtg","pricing_plan_id":"cebpf4jnsgd1na2vs0mg"},{"bike_id":"56e8f168-0239-4dab-a231-9caf80fb776c","system_id":"levelo_inurba_marseille","lat":43.292676,"lon":5.376168,"is_reserved":false,"is_disabled":false,"rental_uris":{"android":"levelo://app?vid=56e8f168-0239-4dab-a231-9caf80fb776c","ios":"levelo://app?vid=56e8f168-0239-4dab-a231-9caf80fb776c"},"vehicle_type_id":"4","last_reported":1760461798,"current_range_meters":16400,"station_id":"","pricing_plan_id":"cebpf4jnsgd1na2vs0mg"},{"bike_id":"f4428b8c-db4a-47be-a45d-ab703e6c0f49","system_id":"levelo_inurba_marseille","lat":43.30582,"lon":5.39361,"is_reserved":false,"is_disabled":false,"rental_uris":{"android":"levelo://app?vid=f4428b8c-db4a-47be-a45d-ab703e6c0f49","ios":"levelo://app?vid=f4428b8c-db4a-47be-a45d-ab703e6c0f49"},"vehicle_type_id":"4","last_reported":1760461798,"current_range_meters":16400,"station_id":"ce4bh0p2rcd13ifvqd80","pricing_plan_id":"cebpf4jnsgd1na2vs0mg"},{"bike_id":"676400c6-855f-4bb2-aa44-fa012a2a3807","system_id":"levelo_inurba_marseille","lat":43.27372,"lon":5.36262,"is_reserved":false,"is_disabled":false,"rental_uris":{"android":"levelo://app?vid=676400c6-855f-4bb2-aa44-fa012a2a3807","ios":"levelo://app?vid=676400c6-855f-4bb2-aa44-fa012a2a3807"},"vehicle_type_id":"4","last_reported":1760461798,"current_range_meters":16400,"station_id":"ce4bhbh2rcd13ifvqeo0","pricing_plan_id":"cebpf4jnsgd1na2vs0mg"},{"bike_id":"6b6d1d89-9100-43c0-b3ec-9af284619810","system_id":"levelo_inurba_marseille","lat":43.27068,"lon":5.42284,"is_reserved":false,"is_disabled":false,"rental_uris":{"android":"levelo://app?vid=6b6d1d89-9100-43c0-b3ec-9af284619810","ios":"levelo://app?vid=6b6d1d89-9100-43c0-b3ec-9af284619810"},"vehicle_type_id":"4","last_reported":1760461798,"current_range_meters":16400,"station_id":"ce4bhk92rcd13ifvqgb0","pricing_plan_id":"cebpf4jnsgd1na2vs0mg"},{"bike_id":"445ba92b-94b1-47eb-8cf8-1be01b7fd67f","system_id":"levelo_inurba_marseille","lat":43.29786,"lon":5.39337,"is_reserved":false,"is_disabled":false,"rental_uris":{"android":"levelo://app?vid=445ba92b-94b1-47eb-8cf8-1be01b7fd67f","ios":"levelo://app?vid=445ba92b-94b1-47eb-8cf8-1be01b7fd67f"},"vehicle_type_id":"4","last_reported":1760461798,"current_range_meters":16400,"station_id":"chh1huq6cuj3fo74tm60","pricing_plan_id":"cebpf4jnsgd1na2vs0mg"},{"bike_id":"b0e3fac0-2cba-43db-8a27-05393f9977ec","system_id":"levelo_inurba_marseille","lat":43.297242,"lon":5.373265,"is_reserved":false,"is_disabled":false,"rental_uris":{"android":"levelo://app?vid=b0e3fac0-2cba-43db-8a27-05393f9977ec","ios":"levelo://app?vid=b0e3fac0-2cba-43db-8a27-05393f9977ec"},"vehicle_type_id":"4","last_reported":1760461798,"current_range_meters":16800,"station_id":"","pricing_plan_id":"cebpf4jnsgd1na2vs0mg"},{"bike_id":"5b401871-9d17-4733-a016-b33d95da7104","system_id":"levelo_inurba_marseille","lat":43.29294,"lon":5.3835,"is_reserved":false,"is_disabled":false,"rental_uris":{"android":"levelo://app?vid=5b401871-9d17-4733-a016-b33d95da7104","ios":"levelo://app?vid=5b401871-9d17-4733-a016-b33d95da7104"},"vehicle_type_id":"4","last_reported":1760461798,"current_range_meters":16800,"station_id":"","pricing_plan_id":"cebpf4jnsgd1na2vs0mg"},{"bike_id":"0ffc73a8-05c8-4c08-b190-0dae30b06188","system_id":"levelo_inurba_marseille","lat":43.31335,"lon":5.39665,"is_reserved":false,"is_disabled":false,"rental_uris":{"android":"levelo://app?vid=0ffc73a8-05c8-4c08-b190-0dae30b06188","ios":"levelo://app?vid=0ffc73a8-05c8-4c08-b190-0dae30b06188"},"vehicle_type_id":"4","last_reported":1760461798,"current_range_meters":16800,"station_id":"ce4bgvp2rcd13ifvqcu0","pricing_plan_id":"cebpf4jnsgd1na2vs0mg"},{"bike_id":"a23bdabc-a047-4fd5-8468-ce4e62c5a592","system_id":"levelo_inurba_marseille","lat":43.30327,"lon":5.40446,"is_reserved":false,"is_disabled":false,"rental_uris":{"android":"levelo://app?vid=a23bdabc-a047-4fd5-8468-ce4e62c5a592","ios":"levelo://app?vid=a23bdabc-a047-4fd5-8468-ce4e62c5a592"},"vehicle_type_id":"4","last_reported":1760461798,"current_range_meters":16800,"station_id":"ce4bh012rcd13ifvqd10","pricing_plan_id":"cebpf4jnsgd1na2vs0mg"},{"bike_id":"32f1909b-2a10-43a0-9ebf-b0a265770bb6","system_id":"levelo_inurba_marseille","lat":43.286072,"lon":5.350969,"is_reserved":false,"is_disabled":false,"rental_uris":{"android":"levelo://app?vid=32f1909b-2a10-43a0-9ebf-b0a265770bb6","ios":"levelo://app?vid=32f1909b-2a10-43a0-9ebf-b0a265770bb6"},"vehicle_type_id":"4","last_reported":1760461798,"current_range_meters":16800,"station_id":"ce4bhch2rcd13ifvqeug","pricing_plan_id":"cebpf4jnsgd1na2vs0mg"},{"bike_id":"8010eec6-71e6-4044-8a53-648b9d8c08b1","system_id":"levelo_inurba_marseille","lat":43.28069,"lon":5.39633,"is_reserved":false,"is_disabled":false,"rental_uris":{"android":"levelo://app?vid=8010eec6-71e6-4044-8a53-648b9d8c08b1","ios":"levelo://app?vid=8010eec6-71e6-4044-8a53-648b9d8c08b1"},"vehicle_type_id":"4","last_reported":1760461798,"current_range_meters":16800,"station_id":"ce4bho12rcd13ifvqh2g","pricing_plan_id":"cebpf4jnsgd1na2vs0mg"},{"bike_id":"e77ec678-919c-43c3-be13-d8b65c865932","system_id":"levelo_inurba_marseille","lat":43.32291,"lon":5.38267,"is_reserved":false,"is_disabled":false,"rental_uris":{"android":"levelo://app?vid=e77ec678-919c-43c3-be13-d8b65c865932","ios":"levelo://app?vid=e77ec678-919c-43c3-be13-d8b65c865932"},"vehicle_type_id":"4","last_reported":1760461798,"current_range_meters":16800,"station_id":"ce4bhr12rcd13ifvqhqg","pricing_plan_id":"cebpf4jnsgd1na2vs0mg"},{"bike_id":"3a7ce59c-efd7-4f5e-801a-674ec8b40a8b","system_id":"levelo_inurba_marseille","lat":43.299652,"lon":5.38489,"is_reserved":false,"is_disabled":false,"rental_uris":{"android":"levelo://app?vid=3a7ce59c-efd7-4f5e-801a-674ec8b40a8b","ios":"levelo://app?vid=3a7ce59c-efd7-4f5e-801a-674ec8b40a8b"},"vehicle_type_id":"4","last_reported":1760461798,"current_range_meters":17200,"station_id":"ce4bgj92rcd13ifvqbd0","pricing_plan_id":"cebpf4jnsgd1na2vs0mg"},{"bike_id":"b3d0b631-9f26-479a-a1ee-fd2b4f9efa7d","system_id":"levelo_inurba_marseille","lat":43.298445,"lon":5.362758,"is_reserved":false,"is_disabled":false,"rental_uris":{"android":"levelo://app?vid=b3d0b631-9f26-479a-a1ee-fd2b4f9efa7d","ios":"levelo://app?vid=b3d0b631-9f26-479a-a1ee-fd2b4f9efa7d"},"vehicle_type_id":"4","last_reported":1760461798,"current_range_meters":17200,"station_id":"ce4bgpp2rcd13ifvqc3g","pricing_plan_id":"cebpf4jnsgd1na2vs0mg"},{"bike_id":"48e309be-e474-4267-accf-290b23897aa5","system_id":"levelo_inurba_marseille","lat":43.28107,"lon":5.37835,"is_reserved":false,"is_disabled":false,"rental_uris":{"android":"levelo://app?vid=48e309be-e474-4267-accf-290b23897aa5","ios":"levelo://app?vid=48e309be-e474-4267-accf-290b23897aa5"},"vehicle_type_id":"4","last_reported":1760461798,"current_range_meters":17200,"station_id":"ce4bha12rcd13ifvqee0","pricing_plan_id":"cebpf4jnsgd1na2vs0mg"},{"bike_id":"56f71959-b3d0-4db3-95a2-2009d4a79091","system_id":"levelo_inurba_marseille","lat":43.291784,"lon":5.371446,"is_reserved":false,"is_disabled":false,"rental_uris":{"android":"levelo://app?vid=56f71959-b3d0-4db3-95a2-2009d4a79091","ios":"levelo://app?vid=56f71959-b3d0-4db3-95a2-2009d4a79091"},"vehicle_type_id":"4","last_reported":1760461798,"current_range_meters":17200,"station_id":"ce4bha92rcd13ifvqeh0","pricing_plan_id":"cebpf4jnsgd1na2vs0mg"},{"bike_id":"3f885c0c-c546-4552-bf8c-d440f8f990d5","system_id":"levelo_inurba_marseille","lat":43.29198,"lon":5.35805,"is_reserved":false,"is_disabled":false,"rental_uris":{"android":"levelo://app?vid=3f885c0c-c546-4552-bf8c-d440f8f990d5","ios":"levelo://app?vid=3f885c0c-c546-4552-bf8c-d440f8f990d5"},"vehicle_type_id":"4","last_reported":1760461798,"current_range_meters":17200,"station_id":"ce4bhb12rcd13ifvqel0","pricing_plan_id":"cebpf4jnsgd1na2vs0mg"},{"bike_id":"f910c771-a262-4166-a6ff-9e85527b5b55","system_id":"levelo_inurba_marseille","lat":43.27941,"lon":5.41049,"is_reserved":false,"is_disabled":false,"rental_uris":{"android":"levelo://app?vid=f910c771-a262-4166-a6ff-9e85527b5b55","ios":"levelo://app?vid=f910c771-a262-4166-a6ff-9e85527b5b55"},"vehicle_type_id":"4","last_reported":1760461798,"current_range_meters":17200,"station_id":"ce4bhnp2rcd13ifvqh0g","pricing_plan_id":"cebpf4jnsgd1na2vs0mg"},{"bike_id":"48779559-1d9d-4fc4-ace6-a6ff98726518","system_id":"levelo_inurba_marseille","lat":43.31871,"lon":5.39995,"is_reserved":false,"is_disabled":false,"rental_uris":{"android":"levelo://app?vid=48779559-1d9d-4fc4-ace6-a6ff98726518","ios":"levelo://app?vid=48779559-1d9d-4fc4-ace6-a6ff98726518"},"vehicle_type_id":"4","last_reported":1760461798,"current_range_meters":17600,"station_id":"","pricing_plan_id":"cebpf4jnsgd1na2vs0mg"},{"bike_id":"03297d37-9c9c-4a16-851f-c73c12708452","system_id":"levelo_inurba_marseille","lat":43.29367,"lon":5.37869,"is_reserved":false,"is_disabled":false,"rental_uris":{"android":"levelo://app?vid=03297d37-9c9c-4a16-851f-c73c12708452","ios":"levelo://app?vid=03297d37-9c9c-4a16-851f-c73c12708452"},"vehicle_type_id":"4","last_reported":1760461798,"current_range_meters":17600,"station_id":"ce4bgjh2rcd13ifvqbf0","pricing_plan_id":"cebpf4jnsgd1na2vs0mg"},{"bike_id":"9fe70fa1-56c1-4a41-b1e3-0e811948e5b7","system_id":"levelo_inurba_marseille","lat":43.2927,"lon":5.36856,"is_reserved":false,"is_disabled":false,"rental_uris":{"android":"levelo://app?vid=9fe70fa1-56c1-4a41-b1e3-0e811948e5b7","ios":"levelo://app?vid=9fe70fa1-56c1-4a41-b1e3-0e811948e5b7"},"vehicle_type_id":"4","last_reported":1760461798,"current_range_meters":17600,"station_id":"ce4bhbp2rcd13ifvqesg","pricing_plan_id":"cebpf4jnsgd1na2vs0mg"},{"bike_id":"0d948803-03d5-40ec-9682-b3523679ec69","system_id":"levelo_inurba_marseille","lat":43.26575,"lon":5.39018,"is_reserved":false,"is_disabled":false,"rental_uris":{"android":"levelo://app?vid=0d948803-03d5-40ec-9682-b3523679ec69","ios":"levelo://app?vid=0d948803-03d5-40ec-9682-b3523679ec69"},"vehicle_type_id":"4","last_reported":1760461798,"current_range_meters":17600,"station_id":"ce4bhe12rcd13ifvqf30","pricing_plan_id":"cebpf4jnsgd1na2vs0mg"},{"bike_id":"a68260ee-0331-40d8-8d92-48ab82d7a17e","system_id":"levelo_inurba_marseille","lat":43.23192,"lon":5.39987,"is_reserved":false,"is_disabled":false,"rental_uris":{"android":"levelo://app?vid=a68260ee-0331-40d8-8d92-48ab82d7a17e","ios":"levelo://app?vid=a68260ee-0331-40d8-8d92-48ab82d7a17e"},"vehicle_type_id":"4","last_reported":1760461798,"current_range_meters":17600,"station_id":"ce4bhn12rcd13ifvqgqg","pricing_plan_id":"cebpf4jnsgd1na2vs0mg"},{"bike_id":"e1f4e2e7-e979-4bb5-8ac3-370c17ac4622","system_id":"levelo_inurba_marseille","lat":43.28864,"lon":5.42514,"is_reserved":false,"is_disabled":false,"rental_uris":{"android":"levelo://app?vid=e1f4e2e7-e979-4bb5-8ac3-370c17ac4622","ios":"levelo://app?vid=e1f4e2e7-e979-4bb5-8ac3-370c17ac4622"},"vehicle_type_id":"4","last_reported":1760461798,"current_range_meters":17600,"station_id":"st_d3b462108ojc7389ooeg","pricing_plan_id":"cebpf4jnsgd1na2vs0mg"},{"bike_id":"9cda5293-931e-42ac-a5c7-e82fc205048f","system_id":"levelo_inurba_marseille","lat":43.289268,"lon":5.363952,"is_reserved":false,"is_disabled":false,"rental_uris":{"android":"levelo://app?vid=9cda5293-931e-42ac-a5c7-e82fc205048f","ios":"levelo://app?vid=9cda5293-931e-42ac-a5c7-e82fc205048f"},"vehicle_type_id":"4","last_reported":1760461798,"current_range_meters":18000,"station_id":"","pricing_plan_id":"cebpf4jnsgd1na2vs0mg"},{"bike_id":"6d02532e-4cb4-4048-bfac-6338972aaf99","system_id":"levelo_inurba_marseille","lat":43.343133,"lon":5.350066,"is_reserved":false,"is_disabled":false,"rental_uris":{"android":"levelo://app?vid=6d02532e-4cb4-4048-bfac-6338972aaf99","ios":"levelo://app?vid=6d02532e-4cb4-4048-bfac-6338972aaf99"},"vehicle_type_id":"4","last_reported":1760461798,"current_range_meters":18000,"station_id":"","pricing_plan_id":"cebpf4jnsgd1na2vs0mg"},