{"last_updated":1737551771,"ttl":60,"version":"2.2","data":{"bikes":[{"bike_id":"de2f4539-ccf4-4eb6-9b90-2fbe44b32730","system_id":"levelo_inurba_marseille","lat":43.28435,"lon":5.39176,"is_reserved":false,"is_disabled":false,"rental_uris":{"android":"levelo://app?vid=de2f4539-ccf4-4eb6-9b90-2fbe44b32730","ios":"levelo://app?vid=de2f4539-ccf4-4eb6-9b90-2fbe44b32730"},"vehicle_type_id":"4","last_reported":1737551771,"current_range_meters":19600,"station_id":"ce4bhoh2rcd13ifvqh5g","pricing_plan_id":"cebpf4jnsgd1na2vs0mg"},{"bike_id":"18323fd3-f826-4341-bdcf-16d7892d33f9","system_id":"levelo_inurba_marseille","lat":43.30452,"lon":5.3791,"is_reserved":false,"is_disabled":false,"rental_uris":{"android":"levelo://app?vid=18323fd3-f826-4341-bdcf-16d7892d33f9","ios":"levelo://app?vid=18323fd3-f826-4341-bdcf-16d7892d33f9"},"vehicle_type_id":"4","last_reported":1737551771,"current_range_meters":27200,"station_id":"ce4bgup2rcd13ifvqcn0","pricing_plan_id":"cebpf4jnsgd1na2vs0mg"},{"bike_id":"52bd1362-589c-457d-bceb-056d515e97d5","system_id":"levelo_inurba_marseille","lat":43.23141,"lon":5.43721,"is_reserved":false,"is_disabled":false,"rental_uris":{"android":"levelo://app?vid=52bd1362-589c-457d-bceb-056d515e97d5","ios":"levelo://app?vid=52bd1362-589c-457d-bceb-056d515e97d5"},"vehicle_type_id":"4","last_reported":1737551771,"current_range_meters":27600,"station_id":"ce4bhmp2rcd13ifvqgog","pricing_plan_id":"cebpf4jnsgd1na2vs0mg"},{"bike_id":"23c4bbe7-ca4b-43b3-be1b-ee273fb7f307","system_id":"levelo_inurba_marseille","lat":43.29556,"lon":5.42296,"is_reserved":false,"is_disabled":false,"rental_uris":{"android":"levelo://app?vid=23c4bbe7-ca4b-43b3-be1b-ee273fb7f307","ios":"levelo://app?vid=23c4bbe7-ca4b-43b3-be1b-ee273fb7f307"},"vehicle_type_id":"4","last_reported":1737551771,"current_range_meters":27600,"station_id":"ce4bhph2rcd13ifvqhdg","pricing_plan_id":"cebpf4jnsgd1na2vs0mg"},{"bike_id":"a4fa50ac-f498-48af-a472-624159680442","system_id":"levelo_inurba_marseille","lat":43.27373,"lon":5.36253,"is_reserved":false,"is_disabled":false,"rental_uris":{"android":"levelo://app?vid=a4fa50ac-f498-48af-a472-624159680442","ios":"levelo://app?vid=a4fa50ac-f498-48af-a472-624159680442"},"vehicle_type_id":"4","last_reported":1737551771,"current_range_meters":36400,"station_id":"ce4bhbh2rcd13ifvqeo0","pricing_plan_id":"cebpf4jnsgd1na2vs0mg"},{"bike_id":"588640af-992b-489a-97c5-519825b255e5","system_id":"levelo_inurba_marseille","lat":43.2884,"lon":5.39343,"is_reserved":false,"is_disabled":false,"rental_uris":{"android":"levelo://app?vid=588640af-992b-489a-97c5-519825b255e5","ios":"levelo://app?vid=588640af-992b-489a-97c5-519825b255e5"},"vehicle_type_id":"4","last_reported":1737551771,"current_range_meters":12800,"station_id":"ce4bh2p2rcd13ifvqdi0","pricing_plan_id":"cebpf4jnsgd1na2vs0mg"},{"bike_id":"ac56ab6e-17f9-4c37-a633-143e28045cf0","system_id":"levelo_inurba_marseille","lat":43.320445,"lon":5.415655,"is_reserved":false,"is_disabled":false,"rental_uris":{"android":"levelo://app?vid=ac56ab6e-17f9-4c37-a633-143e28045cf0","ios":"levelo://app?vid=ac56ab6e-17f9-4c37-a633-143e28045cf0"},"vehicle_type_id":"4","last_reported":1737551771,"current_range_meters":33600,"station_id":"ce4bhq92rcd13ifvqhkg","pricing_plan_id":"cebpf4jnsgd1na2vs0mg"},{"bike_id":"5095b2fc-57d8-4a1f-81eb-5b8024b00ddc","system_id":"levelo_inurba_marseille","lat":43.29632,"lon":5.40594,"is_reserved":false,"is_disabled":false,"rental_uris":{"android":"levelo://app?vid=5095b2fc-57d8-4a1f-81eb-5b8024b00ddc","ios":"levelo://app?vid=5095b2fc-57d8-4a1f-81eb-5b8024b00ddc"},"vehicle_type_id":"4","last_reported":1737551771,"current_range_meters":38800,"station_id":"ce4bh0h2rcd13ifvqd60","pricing_plan_id":"cebpf4jnsgd1na2vs0mg"},{"bike_id":"a9915b48-6368-4e82-bb5e-e6fd8bbe793e","system_id":"levelo_inurba_marseille","lat":43.30134,"lon":5.37417,"is_reserved":false,"is_disabled":false,"rental_uris":{"android":"levelo://app?vid=a9915b48-6368-4e82-bb5e-e6fd8bbe793e","ios":"levelo://app?vid=a9915b48-6368-4e82-bb5e-e6fd8bbe793e"},"vehicle_type_id":"4","last_reported":1737551771,"current_range_meters":11600,"station_id":"ce4bgs92rcd13ifvqcc0","pricing_plan_id":"cebpf4jnsgd1na2vs0mg"},{"bike_id":"bfb62230-2683-4e51-a165-d8eabb8755a4","system_id":"levelo_inurba_marseille","lat":43.27828,"lon":5.40722,"is_reserved":false,"is_disabled":false,"rental_uris":{"android":"levelo://app?vid=bfb62230-2683-4e51-a165-d8eabb8755a4","ios":"levelo://app?vid=bfb62230-2683-4e51-a165-d8eabb8755a4"},"vehicle_type_id":"4","last_reported":1737551771,"current_range_meters":32800,"station_id":"ce4bhnh2rcd13ifvqgtg","pricing_plan_id":"cebpf4jnsgd1na2vs0mg"},{"bike_id":"a1763a7c-1139-4e94-94ba-75f40470248a","system_id":"levelo_inurba_marseille","lat":43.30935,"lon":5.40146,"is_reserved":false,"is_disabled":false,"rental_uris":{"android":"levelo://app?vid=a1763a7c-1139-4e94-94ba-75f40470248a","ios":"levelo://app?vid=a1763a7c-1139-4e94-94ba-75f40470248a"},"vehicle_type_id":"4","last_reported":1737551771,"current_range_meters":28800,"station_id":"ce4bgvp2rcd13ifvqct0","pricing_plan_id":"cebpf4jnsgd1na2vs0mg"},{"bike_id":"0b49530f-ec57-45b5-ac89-77dd7a74aa21","system_id":"levelo_inurba_marseille","lat":43.29611,"lon":5.37731,"is_reserved":false,"is_disabled":false,"rental_uris":{"android":"levelo://app?vid=0b49530f-ec57-45b5-ac89-77dd7a74aa21","ios":"levelo://app?vid=0b49530f-ec57-45b5-ac89-77dd7a74aa21"},"vehicle_type_id":"4","last_reported":1737551771,"current_range_meters":38800,"station_id":"ce4bgi92rcd13ifvqb90","pricing_plan_id":"cebpf4jnsgd1na2vs0mg"},{"bike_id":"e8e44628-123e-497a-b45f-ab73192f3de0","system_id":"levelo_inurba_marseille","lat":43.33025,"lon":5.39045,"is_reserved":false,"is_disabled":false,"rental_uris":{"android":"levelo://app?vid=e8e44628-123e-497a-b45f-ab73192f3de0","ios":"levelo://app?vid=e8e44628-123e-497a-b45f-ab73192f3de0"},"vehicle_type_id":"4","last_reported":1737551771,"current_range_meters":38800,"station_id":"ce4bhr92rcd13ifvqhrg","pricing_plan_id":"cebpf4jnsgd1na2vs0mg"},{"bike_id":"7a3150f3-3724-41da-897e-c23994bed659","system_id":"levelo_inurba_marseille","lat":43.22925,"lon":5.35385,"is_reserved":false,"is_disabled":false,"rental_uris":{"android":"levelo://app?vid=7a3150f3-3724-41da-897e-c23994bed659","ios":"levelo://app?vid=7a3150f3-3724-41da-897e-c23994bed659"},"vehicle_type_id":"4","last_reported":1737551771,"current_range_meters":38800,"station_id":"cpo3532slgdg3j2ikp40","pricing_plan_id":"cebpf4jnsgd1na2vs0mg"},{"bike_id":"ed03287c-bbc9-48c4-acf3-dd0968e4fb88","system_id":"levelo_inurba_marseille","lat":43.31217,"lon":5.36866,"is_reserved":false,"is_disabled":false,"rental_uris":{"android":"levelo://app?vid=ed03287c-bbc9-48c4-acf3-dd0968e4fb88","ios":"levelo://app?vid=ed03287c-bbc9-48c4-acf3-dd0968e4fb88"},"vehicle_type_id":"4","last_reported":1737551771,"current_range_meters":3600,"station_id":"ce4bgl92rcd13ifvqbq0","pricing_plan_id":"cebpf4jnsgd1na2vs0mg"},{"bike_id":"835f2917-8490-4958-ad36-b74d1478c256","system_id":"levelo_inurba_marseille","lat":43.26207,"lon":5.37445,"is_reserved":false,"is_disabled":false,"rental_uris":{"android":"levelo://app?vid=835f2917-8490-4958-ad36-b74d1478c256","ios":"levelo://app?vid=835f2917-8490-4958-ad36-b74d1478c256"},"vehicle_type_id":"4","last_reported":1737551771,"current_range_meters":32000,"station_id":"ce4bhgp2rcd13ifvqfc0","pricing_plan_id":"cebpf4jnsgd1na2vs0mg"},{"bike_id":"2aaf194b-e843-496b-800b-ffbb038c4de7","system_id":"levelo_inurba_marseille","lat":43.32286,"lon":5.38235,"is_reserved":false,"is_disabled":false,"rental_uris":{"android":"levelo://app?vid=2aaf194b-e843-496b-800b-ffbb038c4de7","ios":"levelo://app?vid=2aaf194b-e843-496b-800b-ffbb038c4de7"},"vehicle_type_id":"4","last_reported":1737551771,"current_range_meters":38000,"station_id":"ce4bhr12rcd13ifvqhqg","pricing_plan_id":"cebpf4jnsgd1na2vs0mg"},{"bike_id":"4ed164de-2141-412b-8700-48c5db38d29a","system_id":"levelo_inurba_marseille","lat":43.2903,"lon":5.38641,"is_reserved":false,"is_disabled":false,"rental_uris":{"android":"levelo://app?vid=4ed164de-2141-412b-8700-48c5db38d29a","ios":"levelo://app?vid=4ed164de-2141-412b-8700-48c5db38d29a"},"vehicle_type_id":"4","last_reported":1737551771,"current_range_meters":36400,"station_id":"ce4bh4p2rcd13ifvqe0g","pricing_plan_id":"cebpf4jnsgd1na2vs0mg"},{"bike_id":"32291b8c-f042-4090-b00c-b24ef92d5bba","system_id":"levelo_inurba_marseille","lat":43.28659,"lon":5.36348,"is_reserved":false,"is_disabled":false,"rental_uris":{"android":"levelo://app?vid=32291b8c-f042-4090-b00c-b24ef92d5bba","ios":"levelo://app?vid=32291b8c-f042-4090-b00c-b24ef92d5bba"},"vehicle_type_id":"4","last_reported":1737551771,"current_range_meters":30800,"station_id":"ce4bhah2rcd13ifvqej0","pricing_plan_id":"cebpf4jnsgd1na2vs0mg"},{"bike_id":"6661a075-3684-4dee-9c67-ef0b4376c594","system_id":"levelo_inurba_marseille","lat":43.23202,"lon":5.35557,"is_reserved":false,"is_disabled":false,"rental_uris":{"android":"levelo://app?vid=6661a075-3684-4dee-9c67-ef0b4376c594","ios":"levelo://app?vid=6661a075-3684-4dee-9c67-ef0b4376c594"},"vehicle_type_id":"4","last_reported":1737551771,"current_range_meters":38000,"station_id":"ce4bhu92rcd13ifvqi70","pricing_plan_id":"cebpf4jnsgd1na2vs0mg"},{"bike_id":"01f673e9-9f75-4f0c-ad1a-67f83cb20237","system_id":"levelo_inurba_marseille","lat":43.29951,"lon":5.37176,"is_reserved":false,"is_disabled":false,"rental_uris":{"android":"levelo://app?vid=01f673e9-9f75-4f0c-ad1a-67f83cb20237","ios":"levelo://app?vid=01f673e9-9f75-4f0c-ad1a-67f83cb20237"},"vehicle_type_id":"4","last_reported":1737551771,"current_range_meters":25200,"station_id":"ce4bgr92rcd13ifvqc7g","pricing_plan_id":"cebpf4jnsgd1na2vs0mg"},{"bike_id":"03029508-7ed2-4693-b735-f7deaf763344","system_id":"levelo_inurba_marseille","lat":43.25573,"lon":5.38244,"is_reserved":false,"is_disabled":false,"rental_uris":{"android":"levelo://app?vid=03029508-7ed2-4693-b735-f7deaf763344","ios":"levelo://app?vid=03029508-7ed2-4693-b735-f7deaf763344"},"vehicle_type_id":"4","last_reported":1737551771,"current_range_meters":22400,"station_id":"ce4bhih2rcd13ifvqfs0","pricing_plan_id":"cebpf4jnsgd1na2vs0mg"},{"bike_id":"ed525b36-d54d-4cb1-8043-ea9a939505b1","system_id":"levelo_inurba_marseille","lat":43.29723,"lon":5.37701,"is_reserved":false,"is_disabled":false,"rental_uris":{"android":"levelo://app?vid=ed525b36-d54d-4cb1-8043-ea9a939505b1","ios":"levelo://app?vid=ed525b36-d54d-4cb1-8043-ea9a939505b1"},"vehicle_type_id":"4","last_reported":1737551771,"current_range_meters":20800,"station_id":"ce4bgkh2rcd13ifvqbl0","pricing_plan_id":"cebpf4jnsgd1na2vs0mg"},{"bike_id":"465a47b7-ea5f-4514-a8aa-b6ad138f3761","system_id":"levelo_inurba_marseille","lat":43.24395,"lon":5.37052,"is_reserved":false,"is_disabled":false,"rental_uris":{"android":"levelo://app?vid=465a47b7-ea5f-4514-a8aa-b6ad138f3761","ios":"levelo://app?vid=465a47b7-ea5f-4514-a8aa-b6ad138f3761"},"vehicle_type_id":"4","last_reported":1737551771,"current_range_meters":24000,"station_id":"ce4bhhh2rcd13ifvqfk0","pricing_plan_id":"cebpf4jnsgd1na2vs0mg"},{"bike_id":"88851e03-71e6-4017-8e2a-ee6d6c1268c0","system_id":"levelo_inurba_marseille","lat":43.27068,"lon":5.42284,"is_reserved":false,"is_disabled":false,"rental_uris":{"android":"levelo://app?vid=88851e03-71e6-4017-8e2a-ee6d6c1268c0","ios":"levelo://app?vid=88851e03-71e6-4017-8e2a-ee6d6c1268c0"},"vehicle_type_id":"4","last_reported":1737551771,"current_range_meters":33600,"station_id":"ce4bhk92rcd13ifvqgb0","pricing_plan_id":"cebpf4jnsgd1na2vs0mg"},{"bike_id":"8b2fb933-ccc6-4beb-9e45-9dbbc569353d","system_id":"levelo_inurba_marseille","lat":43.29245,"lon":5.40889,"is_reserved":false,"is_disabled":false,"rental_uris":{"android":"levelo://app?vid=8b2fb933-ccc6-4beb-9e45-9dbbc569353d","ios":"levelo://app?vid=8b2fb933-ccc6-4beb-9e45-9dbbc569353d"},"vehicle_type_id":"4","last_reported":1737551771,"current_range_meters":22800,"station_id":"ce4bh192rcd13ifvqdc0","pricing_plan_id":"cebpf4jnsgd1na2vs0mg"},{"bike_id":"7a2809fc-0099-4c79-939a-8df140ba6979","system_id":"levelo_inurba_marseille","lat":43.29602,"lon":5.37716,"is_reserved":false,"is_disabled":false,"rental_uris":{"android":"levelo://app?vid=7a2809fc-0099-4c79-939a-8df140ba6979","ios":"levelo://app?vid=7a2809fc-0099-4c79-939a-8df140ba6979"},"vehicle_type_id":"4","last_reported":1737551771,"current_range_meters":38800,"station_id":"ce4bgi92rcd13ifvqb90","pricing_plan_id":"cebpf4jnsgd1na2vs0mg"},{"bike_id":"cac15169-486f-43a5-9e95-33c702c4876b","system_id":"levelo_inurba_marseille","lat":43.30798,"lon":5.43529,"is_reserved":false,"is_disabled":false,"rental_uris":{"android":"levelo://app?vid=cac15169-486f-43a5-9e95-33c702c4876b","ios":"levelo://app?vid=cac15169-486f-43a5-9e95-33c702c4876b"},"vehicle_type_id":"4","last_reported":1737551771,"current_range_meters":36000,"station_id":"ce4bhph2rcd13ifvqheg","pricing_plan_id":"cebpf4jnsgd1na2vs0mg"},{"bike_id":"8f39037d-6b70-4ec1-aca4-c32fd0dff772","system_id":"levelo_inurba_marseille","lat":43.31347,"lon":5.36721,"is_reserved":false,"is_disabled":false,"rental_uris":{"android":"levelo://app?vid=8f39037d-6b70-4ec1-aca4-c32fd0dff772","ios":"levelo://app?vid=8f39037d-6b70-4ec1-aca4-c32fd0dff772"},"vehicle_type_id":"4","last_reported":1737551771,"current_range_meters":34800,"station_id":"ce4bgr92rcd13ifvqc6g","pricing_plan_id":"cebpf4jnsgd1na2vs0mg"},{"bike_id":"e3d76a58-1761-4656-923a-c19c9b0f6727","system_id":"levelo_inurba_marseille","lat":43.30141,"lon":5.38094,"is_reserved":false,"is_disabled":false,"rental_uris":{"android":"levelo://app?vid=e3d76a58-1761-4656-923a-c19c9b0f6727","ios":"levelo://app?vid=e3d76a58-1761-4656-923a-c19c9b0f6727"},"vehicle_type_id":"4","last_reported":1737551771,"current_range_meters":31200,"station_id":"ce4bgjp2rcd13ifvqbh0","pricing_plan_id":"cebpf4jnsgd1na2vs0mg"},{"bike_id":"5a874f97-e53a-486b-bf03-022b93e71acd","system_id":"levelo_inurba_marseille","lat":43.25496,"lon":5.37652,"is_reserved":false,"is_disabled":false,"rental_uris":{"android":"levelo://app?vid=5a874f97-e53a-486b-bf03-022b93e71acd","ios":"levelo://app?vid=5a874f97-e53a-486b-bf03-022b93e71acd"},"vehicle_type_id":"4","last_reported":1737551771,"current_range_meters":26800,"station_id":"ce4bhh12rcd13ifvqff0","pricing_plan_id":"cebpf4jnsgd1na2vs0mg"},{"bike_id":"7c0ecca9-2d3b-4f03-a520-6be799a0fa00","system_id":"levelo_inurba_marseille","lat":43.30933,"lon":5.40147,"is_reserved":false,"is_disabled":false,"rental_uris":{"android":"levelo://app?vid=7c0ecca9-2d3b-4f03-a520-6be799a0fa00","ios":"levelo://app?vid=7c0ecca9-2d3b-4f03-a520-6be799a0fa00"},"vehicle_type_id":"4","last_reported":1737551771,"current_range_meters":36400,"station_id":"ce4bgvp2rcd13ifvqct0","pricing_plan_id":"cebpf4jnsgd1na2vs0mg"},{"bike_id":"1743cc63-e9e7-44fa-a999-728d0f063951","system_id":"levelo_inurba_marseille","lat":43.26558,"lon":5.37289,"is_reserved":false,"is_disabled":false,"rental_uris":{"android":"levelo://app?vid=1743cc63-e9e7-44fa-a999-728d0f063951","ios":"levelo://app?vid=1743cc63-e9e7-44fa-a999-728d0f063951"},"vehicle_type_id":"4","last_reported":1737551771,"current_range_meters":36800,"station_id":"ce4bhg12rcd13ifvqf70","pricing_plan_id":"cebpf4jnsgd1na2vs0mg"},{"bike_id":"03c6fe95-7910-41a5-959c-506240b17826","system_id":"levelo_inurba_marseille","lat":43.26943,"lon":5.40253,"is_reserved":false,"is_disabled":false,"rental_uris":{"android":"levelo://app?vid=03c6fe95-7910-41a5-959c-506240b17826","ios":"levelo://app?vid=03c6fe95-7910-41a5-959c-506240b17826"},"vehicle_type_id":"4","last_reported":1737551771,"current_range_meters":38800,"station_id":"cjm6bp8fraef2m0cb0m0","pricing_plan_id":"cebpf4jnsgd1na2vs0mg"},{"bike_id":"025e7424-ca9f-468a-ab53-bc97a654c9ac","system_id":"levelo_inurba_marseille","lat":43.28927,"lon":5.36399,"is_reserved":false,"is_disabled":true,"rental_uris":{"android":"levelo://app?vid=025e7424-ca9f-468a-ab53-bc97a654c9ac","ios":"levelo://app?vid=025e7424-ca9f-468a-ab53-bc97a654c9ac"},"vehicle_type_id":"4","last_reported":1737551771,"current_range_meters":0,"station_id":"ce4bhc92rcd13ifvqetg","pricing_plan_id":"cebpf4jnsgd1na2vs0mg"},{"bike_id":"e29d5d6a-774f-4b30-92fa-7b0f5591c3c5","system_id":"levelo_inurba_marseille","lat":43.31717,"lon":5.43705,"is_reserved":false,"is_disabled":false,"rental_uris":{"android":"levelo://app?vid=e29d5d6a-774f-4b30-92fa-7b0f5591c3c5","ios":"levelo://app?vid=e29d5d6a-774f-4b30-92fa-7b0f5591c3c5"},"vehicle_type_id":"4","last_reported":1737551771,"current_range_meters":13600,"station_id":"ce4bhp92rcd13ifvqhcg","pricing_plan_id":"cebpf4jnsgd1na2vs0mg"},{"bike_id":"fb07722b-6c4a-4667-a97b-6fa04f98ca7a","system_id":"levelo_inurba_marseille","lat":43.29856,"lon":5.36272,"is_reserved":false,"is_disabled":false,"rental_uris":{"android":"levelo://app?vid=fb07722b-6c4a-4667-a97b-6fa04f98ca7a","ios":"levelo://app?vid=fb07722b-6c4a-4667-a97b-6fa04f98ca7a"},"vehicle_type_id":"4","last_reported":1737551771,"current_range_meters":38800,"station_id":"ce4bgpp2rcd13ifvqc3g","pricing_plan_id":"cebpf4jnsgd1na2vs0mg"},{"bike_id":"0adf4aee-8b0e-4132-844c-54a9ff5e2cf5","system_id":"levelo_inurba_marseille","lat":43.29617,"lon":5.38108,"is_reserved":false,"is_disabled":false,"rental_uris":{"android":"levelo://app?vid=0adf4aee-8b0e-4132-844c-54a9ff5e2cf5","ios":"levelo://app?vid=0adf4aee-8b0e-4132-844c-54a9ff5e2cf5"},"vehicle_type_id":"4","last_reported":1737551771,"current_range_meters":28400,"station_id":"ce4bgl12rcd13ifvqbo0","pricing_plan_id":"cebpf4jnsgd1na2vs0mg"},{"bike_id":"674ce491-61c6-4603-bccf-12cb08529bac","system_id":"levelo_inurba_marseille","lat":43.33601,"lon":5.41027,"is_reserved":false,"is_disabled":false,"rental_uris":{"android":"levelo://app?vid=674ce491-61c6-4603-bccf-12cb08529bac","ios":"levelo://app?vid=674ce491-61c6-4603-bccf-12cb08529bac"},"vehicle_type_id":"4","last_reported":1737551771,"current_range_meters":35200,"station_id":"ce4bhqh2rcd13ifvqhmg","pricing_plan_id":"cebpf4jnsgd1na2vs0mg"},{"bike_id":"a8ea4c0e-bffe-4e75-9e3c-1f3c77dc4584","system_id":"levelo_inurba_marseille","lat":43.3383,"lon":5.37662,"is_reserved":false,"is_disabled":false,"rental_uris":{"android":"levelo://app?vid=a8ea4c0e-bffe-4e75-9e3c-1f3c77dc4584","ios":"levelo://app?vid=a8ea4c0e-bffe-4e75-9e3c-1f3c77dc4584"},"vehicle_type_id":"4","last_reported":1737551771,"current_range_meters":30000,"station_id":"ce4bgvp2rcd13ifvqct0","pricing_plan_id":"cebpf4jnsgd1na2vs0mg"},{"bike_id":"67cd0fb0-d75d-4de9-9761-e14d9676ec4c","system_id":"levelo_inurba_marseille","lat":43.29272,"lon":5.36846,"is_reserved":false,"is_disabled":false,"rental_uris":{"android":"levelo://app?vid=67cd0fb0-d75d-4de9-9761-e14d9676ec4c","ios":"levelo://app?vid=67cd0fb0-d75d-4de9-9761-e14d9676ec4c"},"vehicle_type_id":"4","last_reported":1737551771,"current_range_meters":18800,"station_id":"ce4bhbp2rcd13ifvqesg","pricing_plan_id":"cebpf4jnsgd1na2vs0mg"},{"bike_id":"42ffd8be-59bd-4e3d-829a-b035d16c04f3","system_id":"levelo_inurba_marseille","lat":43.28394,"lon":5.37531,"is_reserved":false,"is_disabled":false,"rental_uris":{"android":"levelo://app?vid=42ffd8be-59bd-4e3d-829a-b035d16c04f3","ios":"levelo://app?vid=42ffd8be-59bd-4e3d-829a-b035d16c04f3"},"vehicle_type_id":"4","last_reported":1737551771,"current_range_meters":22000,"station_id":"ce4bh412rcd13ifvqds0","pricing_plan_id":"cebpf4jnsgd1na2vs0mg"},{"bike_id":"f4064b91-d50f-4faa-b80a-c4b38df2d08b","system_id":"levelo_inurba_marseille","lat":43.22933,"lon":5.35385,"is_reserved":false,"is_disabled":false,"rental_uris":{"android":"levelo://app?vid=f4064b91-d50f-4faa-b80a-c4b38df2d08b","ios":"levelo://app?vid=f4064b91-d50f-4faa-b80a-c4b38df2d08b"},"vehicle_type_id":"4","last_reported":1737551771,"current_range_meters":38800,"station_id":"cpo3532slgdg3j2ikp40","pricing_plan_id":"cebpf4jnsgd1na2vs0mg"},{"bike_id":"1c5c6c97-e589-4b16-a350-502643230369","system_id":"levelo_inurba_marseille","lat":43.23167,"lon":5.43664,"is_reserved":false,"is_disabled":false,"rental_uris":{"android":"levelo://app?vid=1c5c6c97-e589-4b16-a350-502643230369","ios":"levelo://app?vid=1c5c6c97-e589-4b16-a350-502643230369"},"vehicle_type_id":"4","last_reported":1737551771,"current_range_meters":36800,"station_id":"ce4bhmp2rcd13ifvqgog","pricing_plan_id":"cebpf4jnsgd1na2vs0mg"},{"bike_id":"c608a355-799a-42b0-8df8-e6a61a956853","system_id":"levelo_inurba_marseille","lat":43.31731,"lon":5.42412,"is_reserved":false,"is_disabled":false,"rental_uris":{"android":"levelo://app?vid=c608a355-799a-42b0-8df8-e6a61a956853","ios":"levelo://app?vid=c608a355-799a-42b0-8df8-e6a61a956853"},"vehicle_type_id":"4","last_reported":1737551771,"current_range_meters":38800,"station_id":"ce4bhp92rcd13ifvqhbg","pricing_plan_id":"cebpf4jnsgd1na2vs0mg"},{"bike_id":"41b9e971-fd43-4216-a93f-9058662c9ea0","system_id":"levelo_inurba_marseille","lat":43.25802,"lon":5.39425,"is_reserved":false,"is_disabled":false,"rental_uris":{"android":"levelo://app?vid=41b9e971-fd43-4216-a93f-9058662c9ea0","ios":"levelo://app?vid=41b9e971-fd43-4216-a93f-9058662c9ea0"},"vehicle_type_id":"4","last_reported":1737551771,"current_range_meters":7200,"station_id":"ce4bhip2rcd13ifvqft0","pricing_plan_id":"cebpf4jnsgd1na2vs0mg"},{"bike_id":"e1b89984-b5cc-4df5-889d-b87c33e3719c","system_id":"levelo_inurba_marseille","lat":43.29034,"lon":5.37565,"is_reserved":false,"is_disabled":false,"rental_uris":{"android":"levelo://app?vid=e1b89984-b5cc-4df5-889d-b87c33e3719c","ios":"levelo://app?vid=e1b89984-b5cc-4df5-889d-b87c33e3719c"},"vehicle_type_id":"4","last_reported":1737551771,"current_range_meters":38000,"station_id":"ce4bh692rcd13ifvqe90","pricing_plan_id":"cebpf4jnsgd1na2vs0mg"},{"bike_id":"c6aacc24-d57e-460d-9c0e-cbadebe9fecb","system_id":"levelo_inurba_marseille","lat":43.29774,"lon":5.37105,"is_reserved":false,"is_disabled":false,"rental_uris":{"android":"levelo://app?vid=c6aacc24-d57e-460d-9c0e-cbadebe9fecb","ios":"levelo://app?vid=c6aacc24-d57e-460d-9c0e-cbadebe9fecb"},"vehicle_type_id":"4","last_reported":1737551771,"current_range_meters":36800,"station_id":"ce4bgop2rcd13ifvqc1g","pricing_plan_id":"cebpf4jnsgd1na2vs0mg"},{"bike_id":"4b766d21-35a9-4e2d-8535-3688332a270a","system_id":"levelo_inurba_marseille","lat":43.31085,"lon":5.42437,"is_reserved":false,"is_disabled":false,"rental_uris":{"android":"levelo://app?vid=4b766d21-35a9-4e2d-8535-3688332a270a","ios":"levelo://app?vid=4b766d21-35a9-4e2d-8535-3688332a270a"},"vehicle_type_id":"4","last_reported":1737551771,"current_range_meters":6000,"station_id":"ce4bhp92rcd13ifvqhag","pricing_plan_id":"cebpf4jnsgd1na2vs0mg"},{"bike_id":"bed079e3-b66e-4289-81fc-431bd0b5e8b5","system_id":"levelo_inurba_marseille","lat":43.30537,"lon":5.36537,"is_reserved":false,"is_disabled":false,"rental_uris":{"android":"levelo://app?vid=bed079e3-b66e-4289-81fc-431bd0b5e8b5","ios":"levelo://app?vid=bed079e3-b66e-4289-81fc-431bd0b5e8b5"},"vehicle_type_id":"4","last_reported":1737551771,"current_range_meters":33600,"station_id":"ce4bgs12rcd13ifvqcag","pricing_plan_id":"cebpf4jnsgd1na2vs0mg"},{"bike_id":"2fc2ee69-aa4b-45f9-9488-21abae1e33f5","system_id":"levelo_inurba_marseille","lat":43.30445,"lon":5.37917,"is_reserved":false,"is_disabled":false,"rental_uris":{"android":"levelo://app?vid=2fc2ee69-aa4b-45f9-9488-21abae1e33f5","ios":"levelo://app?vid=2fc2ee69-aa4b-45f9-9488-21abae1e33f5"},"vehicle_type_id":"4","last_reported":1737551771,"current_range_meters":26800,"station_id":"ce4bgup2rcd13ifvqcn0","pricing_plan_id":"cebpf4jnsgd1na2vs0mg"},{"bike_id":"8a725843-205b-4bfa-b181-c5d4ae148cad","system_id":"levelo_inurba_marseille","lat":43.26686,"lon":5.38267,"is_reserved":false,"is_disabled":false,"rental_uris":{"android":"levelo://app?vid=8a725843-205b-4bfa-b181-c5d4ae148cad","ios":"levelo://app?vid=8a725843-205b-4bfa-b181-c5d4ae148cad"},"vehicle_type_id":"4","last_reported":1737551771,"current_range_meters":38800,"station_id":"ce4bhg92rcd13ifvqf90","pricing_plan_id":"cebpf4jnsgd1na2vs0mg"},{"bike_id":"c782a173-9bc8-4ea6-a8ed-fc1e44a445ce","system_id":"levelo_inurba_marseille","lat":43.25122,"lon":5.40318,"is_reserved":false,"is_disabled":false,"rental_uris":{"android":"levelo://app?vid=c782a173-9bc8-4ea6-a8ed-fc1e44a445ce","ios":"levelo://app?vid=c782a173-9bc8-4ea6-a8ed-fc1e44a445ce"},"vehicle_type_id":"4","last_reported":1737551771,"current_range_meters":24000,"station_id":"ce4bhlh2rcd13ifvqgig","pricing_plan_id":"cebpf4jnsgd1na2vs0mg"},{"bike_id":"11864e56-3c6c-40e6-a2f3-a21fa722ad48","system_id":"levelo_inurba_marseille","lat":43.30541,"lon":5.36522,"is_reserved":false,"is_disabled":false,"rental_uris":{"android":"levelo://app?vid=11864e56-3c6c-40e6-a2f3-a21fa722ad48","ios":"levelo://app?vid=11864e56-3c6c-40e6-a2f3-a21fa722ad48"},"vehicle_type_id":"4","last_reported":1737551771,"current_range_meters":38400,"station_id":"ce4bgs12rcd13ifvqcag","pricing_plan_id":"cebpf4jnsgd1na2vs0mg"},{"bike_id":"f3735232-5d15-4e84-82f3-d2ea82b3c299","system_id":"levelo_inurba_marseille","lat":43.32357,"lon":5.36755,"is_reserved":false,"is_disabled":false,"rental_uris":{"android":"levelo://app?vid=f3735232-5d15-4e84-82f3-d2ea82b3c299","ios":"levelo://app?vid=f3735232-5d15-4e84-82f3-d2ea82b3c299"},"vehicle_type_id":"4","last_reported":1737551771,"current_range_meters":28400,"station_id":"ce4bhsh2rcd13ifvqi2g","pricing_plan_id":"cebpf4jnsgd1na2vs0mg"},{"bike_id":"8b98cf62-9f2e-4a5b-957d-7bcf08dfd2a7","system_id":"levelo_inurba_marseille","lat":43.26554,"lon":5.37303,"is_reserved":false,"is_disabled":false,"rental_uris":{"android":"levelo://app?vid=8b98cf62-9f2e-4a5b-957d-7bcf08dfd2a7","ios":"levelo://app?vid=8b98cf62-9f2e-4a5b-957d-7bcf08dfd2a7"},"vehicle_type_id":"4","last_reported":1737551771,"current_range_meters":28400,"station_id":"ce4bhg12rcd13ifvqf70","pricing_plan_id":"cebpf4jnsgd1na2vs0mg"},{"bike_id":"9d094da5-5fa4-4358-a503-db0f0481f1cc","system_id":"levelo_inurba_marseille","lat":43.29058,"lon":5.35926,"is_reserved":false,"is_disabled":false,"rental_uris":{"android":"levelo://app?vid=9d094da5-5fa4-4358-a503-db0f0481f1cc","ios":"levelo://app?vid=9d094da5-5fa4-4358-a503-db0f0481f1cc"},"vehicle_type_id":"4","last_reported":1737551771,"current_range_meters":38800,"station_id":"ce4bha92rcd13ifvqeg0","pricing_plan_id":"cebpf4jnsgd1na2vs0mg"},{"bike_id":"07656937-ab32-4288-8757-0c43aa56903f","system_id":"levelo_inurba_marseille","lat":43.284583,"lon":5.358902,"is_reserved":false,"is_disabled":false,"rental_uris":{"android":"levelo://app?vid=07656937-ab32-4288-8757-0c43aa56903f","ios":"levelo://app?vid=07656937-ab32-4288-8757-0c43aa56903f"},"vehicle_type_id":"4","last_reported":1737551771,"current_range_meters":39200,"station_id":"ce4bhah2rcd13ifvqei0","pricing_plan_id":"cebpf4jnsgd1na2vs0mg"},{"bike_id":"329546d5-20c8-4c94-98ed-c5ec6037fca1","system_id":"levelo_inurba_marseille","lat":43.3016,"lon":5.38089,"is_reserved":false,"is_disabled":false,"rental_uris":{"android":"levelo://app?vid=329546d5-20c8-4c94-98ed-c5ec6037fca1","ios":"levelo://app?vid=329546d5-20c8-4c94-98ed-c5ec6037fca1"},"vehicle_type_id":"4","last_reported":1737551771,"current_range_meters":29600,"station_id":"ce4bgjp2rcd13ifvqbh0","pricing_plan_id":"cebpf4jnsgd1na2vs0mg"},{"bike_id":"fc7d0896-a0d9-4784-82a6-858cbf9807fe","system_id":"levelo_inurba_marseille","lat":43.30781,"lon":5.37656,"is_reserved":false,"is_disabled":false,"rental_uris":{"android":"levelo://app?vid=fc7d0896-a0d9-4784-82a6-858cbf9807fe","ios":"levelo://app?vid=fc7d0896-a0d9-4784-82a6-858cbf9807fe"},"vehicle_type_id":"4","last_reported":1737551771,"current_range_meters":28000,"station_id":"ce4bgv92rcd13ifvqcq0","pricing_plan_id":"cebpf4jnsgd1na2vs0mg"},{"bike_id":"1cb09300-f279-41bf-927f-8ba0e91a59ca","system_id":"levelo_inurba_marseille","lat":43.25574,"lon":5.38242,"is_reserved":false,"is_disabled":false,"rental_uris":{"android":"levelo://app?vid=1cb09300-f279-41bf-927f-8ba0e91a59ca","ios":"levelo://app?vid=1cb09300-f279-41bf-927f-8ba0e91a59ca"},"vehicle_type_id":"4","last_reported":1737551771,"current_range_meters":33200,"station_id":"ce4bhih2rcd13ifvqfs0","pricing_plan_id":"cebpf4jnsgd1na2vs0mg"},{"bike_id":"7e034d53-14af-4f50-9dca-08e722d3e1df","system_id":"levelo_inurba_marseille","lat":43.31362,"lon":5.36722,"is_reserved":false,"is_disabled":false,"rental_uris":{"android":"levelo://app?vid=7e034d53-14af-4f50-9dca-08e722d3e1df","ios":"levelo://app?vid=7e034d53-14af-4f50-9dca-08e722d3e1df"},"vehicle_type_id":"4","last_reported":1737551771,"current_range_meters":27200,"station_id":"ce4bgr92rcd13ifvqc6g","pricing_plan_id":"cebpf4jnsgd1na2vs0mg"},{"bike_id":"110f4d36-27c9-49b8-86bf-d85558408b80","system_id":"levelo_inurba_marseille","lat":43.32347,"lon":5.38911,"is_reserved":false,"is_disabled":false,"rental_uris":{"android":"levelo://app?vid=110f4d36-27c9-49b8-86bf-d85558408b80","ios":"levelo://app?vid=110f4d36-27c9-49b8-86bf-d85558408b80"},"vehicle_type_id":"4","last_reported":1737551771,"current_range_meters":24000,"station_id":"ce4bhqp2rcd13ifvqhog","pricing_plan_id":"cebpf4jnsgd1na2vs0mg"},{"bike_id":"a17a397b-8871-470c-9a4f-542397f8613e","system_id":"levelo_inurba_marseille","lat":43.32041,"lon":5.41546,"is_reserved":false,"is_disabled":false,"rental_uris":{"android":"levelo://app?vid=a17a397b-8871-470c-9a4f-542397f8613e","ios":"levelo://app?vid=a17a397b-8871-470c-9a4f-542397f8613e"},"vehicle_type_id":"4","last_reported":1737551771,"current_range_meters":27600,"station_id":"ce4bhq92rcd13ifvqhkg","pricing_plan_id":"cebpf4jnsgd1na2vs0mg"},{"bike_id":"04b3bc81-80fe-492e-ad11-4bdb82b97680","system_id":"levelo_inurba_marseille","lat":43.30451,"lon":5.37916,"is_reserved":false,"is_disabled":true,"rental_uris":{"android":"levelo://app?vid=04b3bc81-80fe-492e-ad11-4bdb82b97680","ios":"levelo://app?vid=04b3bc81-80fe-492e-ad11-4bdb82b97680"},"vehicle_type_id":"4","last_reported":1737551771,"current_range_meters":38800,"station_id":"ce4bgup2rcd13ifvqcn0","pricing_plan_id":"cebpf4jnsgd1na2vs0mg"},{"bike_id":"3bcd921d-810c-4845-87ab-d96c2ac5451e","system_id":"levelo_inurba_marseille","lat":43.27819,"lon":5.407187,"is_reserved":false,"is_disabled":false,"rental_uris":{"android":"levelo://app?vid=3bcd921d-810c-4845-87ab-d96c2ac5451e","ios":"levelo://app?vid=3bcd921d-810c-4845-87ab-d96c2ac5451e"},"vehicle_type_id":"4","last_reported":1737551771,"current_range_meters":12400,"station_id":"ce4bhnh2rcd13ifvqgtg","pricing_plan_id":"cebpf4jnsgd1na2vs0mg"},{"bike_id":"492741a9-7a01-4c84-a730-a955cd6628db","system_id":"levelo_inurba_marseille","lat":43.29924,"lon":5.37486,"is_reserved":false,"is_disabled":false,"rental_uris":{"android":"levelo://app?vid=492741a9-7a01-4c84-a730-a955cd6628db","ios":"levelo://app?vid=492741a9-7a01-4c84-a730-a955cd6628db"},"vehicle_type_id":"4","last_reported":1737551771,"current_range_meters":26000,"station_id":"ce4bgjh2rcd13ifvqbg0","pricing_plan_id":"cebpf4jnsgd1na2vs0mg"},{"bike_id":"c01ff322-934e-4fed-b8ab-096213fbdb3c","system_id":"levelo_inurba_marseille","lat":43.31992,"lon":5.38153,"is_reserved":false,"is_disabled":false,"rental_uris":{"android":"levelo://app?vid=c01ff322-934e-4fed-b8ab-096213fbdb3c","ios":"levelo://app?vid=c01ff322-934e-4fed-b8ab-096213fbdb3c"},"vehicle_type_id":"4","last_reported":1737551771,"current_range_meters":39200,"station_id":"ce4bhr12rcd13ifvqhpg","pricing_plan_id":"cebpf4jnsgd1na2vs0mg"},{"bike_id":"7c6e630a-6bc1-4ec6-8b6d-3f136b03c518","system_id":"levelo_inurba_marseille","lat":43.29185,"lon":5.39326,"is_reserved":false,"is_disabled":false,"rental_uris":{"android":"levelo://app?vid=7c6e630a-6bc1-4ec6-8b6d-3f136b03c518","ios":"levelo://app?vid=7c6e630a-6bc1-4ec6-8b6d-3f136b03c518"},"vehicle_type_id":"4","last_reported":1737551771,"current_range_meters":39200,"station_id":"ce4bh192rcd13ifvqdd0","pricing_plan_id":"cebpf4jnsgd1na2vs0mg"},{"bike_id":"f904ba01-3cf0-4620-96e1-2bc4df337c5f","system_id":"levelo_inurba_marseille","lat":43.24393,"lon":5.37066,"is_reserved":false,"is_disabled":false,"rental_uris":{"android":"levelo://app?vid=f904ba01-3cf0-4620-96e1-2bc4df337c5f","ios":"levelo://app?vid=f904ba01-3cf0-4620-96e1-2bc4df337c5f"},"vehicle_type_id":"4","last_reported":1737551771,"current_range_meters":27200,"station_id":"ce4bhhh2rcd13ifvqfk0","pricing_plan_id":"cebpf4jnsgd1na2vs0mg"},{"bike_id":"6440f376-b0ac-4979-8b74-813c76d7599b","system_id":"levelo_inurba_marseille","lat":43.24176,"lon":5.3973,"is_reserved":false,"is_disabled":false,"rental_uris":{"android":"levelo://app?vid=6440f376-b0ac-4979-8b74-813c76d7599b","ios":"levelo://app?vid=6440f376-b0ac-4979-8b74-813c76d7599b"},"vehicle_type_id":"4","last_reported":1737551771,"current_range_meters":28800,"station_id":"ce4bhn12rcd13ifvqgpg","pricing_plan_id":"cebpf4jnsgd1na2vs0mg"},{"bike_id":"399562cb-200c-42e5-9323-afe751683da6","system_id":"levelo_inurba_marseille","lat":43.32478,"lon":5.36566,"is_reserved":false,"is_disabled":false,"rental_uris":{"android":"levelo://app?vid=399562cb-200c-42e5-9323-afe751683da6","ios":"levelo://app?vid=399562cb-200c-42e5-9323-afe751683da6"},"vehicle_type_id":"4","last_reported":1737551771,"current_range_meters":25600,"station_id":"ce4bhs12rcd13ifvqhvg","pricing_plan_id":"cebpf4jnsgd1na2vs0mg"},{"bike_id":"87f6cf51-494c-42eb-b123-0d465580e8d6","system_id":"levelo_inurba_marseille","lat":43.25823,"lon":5.39422,"is_reserved":false,"is_disabled":false,"rental_uris":{"android":"levelo://app?vid=87f6cf51-494c-42eb-b123-0d465580e8d6","ios":"levelo://app?vid=87f6cf51-494c-42eb-b123-0d465580e8d6"},"vehicle_type_id":"4","last_reported":1737551771,"current_range_meters":36000,"station_id":"ce4bhip2rcd13ifvqft0","pricing_plan_id":"cebpf4jnsgd1na2vs0mg"},{"bike_id":"06ef8b3b-76b6-417a-b738-faed7ce730fc","system_id":"levelo_inurba_marseille","lat":43.30304,"lon":5.36891,"is_reserved":false,"is_disabled":false,"rental_uris":{"android":"levelo://app?vid=06ef8b3b-76b6-417a-b738-faed7ce730fc","ios":"levelo://app?vid=06ef8b3b-76b6-417a-b738-faed7ce730fc"},"vehicle_type_id":"4","last_reported":1737551771,"current_range_meters":35200,"station_id":"ce4bgqh2rcd13ifvqc5g","pricing_plan_id":"cebpf4jnsgd1na2vs0mg"},{"bike_id":"f078ee67-a8a1-445b-aae9-37077c47a19f","system_id":"levelo_inurba_marseille","lat":43.310735,"lon":5.38352,"is_reserved":false,"is_disabled":false,"rental_uris":{"android":"levelo://app?vid=f078ee67-a8a1-445b-aae9-37077c47a19f","ios":"levelo://app?vid=f078ee67-a8a1-445b-aae9-37077c47a19f"},"vehicle_type_id":"4","last_reported":1737551771,"current_range_meters":20800,"station_id":"ce4bgv92rcd13ifvqcr0","pricing_plan_id":"cebpf4jnsgd1na2vs0mg"},{"bike_id":"8d687d01-0086-487a-a814-0afe95bbf5e0","system_id":"levelo_inurba_marseille","lat":43.28464,"lon":5.35895,"is_reserved":false,"is_disabled":false,"rental_uris":{"android":"levelo://app?vid=8d687d01-0086-487a-a814-0afe95bbf5e0","ios":"levelo://app?vid=8d687d01-0086-487a-a814-0afe95bbf5e0"},"vehicle_type_id":"4","last_reported":1737551771,"current_range_meters":28000,"station_id":"ce4bhah2rcd13ifvqei0","pricing_plan_id":"cebpf4jnsgd1na2vs0mg"},{"bike_id":"5bb6b0a2-9fe2-4845-928f-e2732fd313d2","system_id":"levelo_inurba_marseille","lat":43.29306,"lon":5.37178,"is_reserved":false,"is_disabled":false,"rental_uris":{"android":"levelo://app?vid=5bb6b0a2-9fe2-4845-928f-e2732fd313d2","ios":"levelo://app?vid=5bb6b0a2-9fe2-4845-928f-e2732fd313d2"},"vehicle_type_id":"4","last_reported":1737551771,"current_range_meters":38800,"station_id":"ce4bgh92rcd13ifvqb40","pricing_plan_id":"cebpf4jnsgd1na2vs0mg"},{"bike_id":"9ce58c07-1f1f-4400-a77c-ba259b250e9f","system_id":"levelo_inurba_marseille","lat":43.27828,"lon":5.40717,"is_reserved":false,"is_disabled":false,"rental_uris":{"android":"levelo://app?vid=9ce58c07-1f1f-4400-a77c-ba259b250e9f","ios":"levelo://app?vid=9ce58c07-1f1f-4400-a77c-ba259b250e9f"},"vehicle_type_id":"4","last_reported":1737551771,"current_range_meters":38400,"station_id":"ce4bhnh2rcd13ifvqgtg","pricing_plan_id":"cebpf4jnsgd1na2vs0mg"},{"bike_id":"0cd05b59-24ef-4644-a8d9-7f4268641e56","system_id":"levelo_inurba_marseille","lat":43.27943,"lon":5.41048,"is_reserved":false,"is_disabled":false,"rental_uris":{"android":"levelo://app?vid=0cd05b59-24ef-4644-a8d9-7f4268641e56","ios":"levelo://app?vid=0cd05b59-24ef-4644-a8d9-7f4268641e56"},"vehicle_type_id":"4","last_reported":1737551771,"current_range_meters":17600,"station_id":"ce4bhnp2rcd13ifvqh0g","pricing_plan_id":"cebpf4jnsgd1na2vs0mg"},{"bike_id":"19736d4d-26c1-4d09-a409-61d53f5cd6d4","system_id":"levelo_inurba_marseille","lat":43.30468,"lon":5.37907,"is_reserved":false,"is_disabled":false,"rental_uris":{"android":"levelo://app?vid=19736d4d-26c1-4d09-a409-61d53f5cd6d4","ios":"levelo://app?vid=19736d4d-26c1-4d09-a409-61d53f5cd6d4"},"vehicle_type_id":"4","last_reported":1737551771,"current_range_meters":32000,"station_id":"ce4bgup2rcd13ifvqcn0","pricing_plan_id":"cebpf4jnsgd1na2vs0mg"},{"bike_id":"b90fb3f4-c671-4fb2-9e88-a71eeae815b6","system_id":"levelo_inurba_marseille","lat":43.31387,"lon":5.38498,"is_reserved":false,"is_disabled":true,"rental_uris":{"android":"levelo://app?vid=b90fb3f4-c671-4fb2-9e88-a71eeae815b6","ios":"levelo://app?vid=b90fb3f4-c671-4fb2-9e88-a71eeae815b6"},"vehicle_type_id":"4","last_reported":1737551771,"current_range_meters":0,"station_id":"ce4bgt92rcd13ifvqcf0","pricing_plan_id":"cebpf4jnsgd1na2vs0mg"},{"bike_id":"2a6a4225-a768-49ff-b39c-88b81eb205c0","system_id":"levelo_inurba_marseille","lat":43.27066,"lon":5.40259,"is_reserved":false,"is_disabled":true,"rental_uris":{"android":"levelo://app?vid=2a6a4225-a768-49ff-b39c-88b81eb205c0","ios":"levelo://app?vid=2a6a4225-a768-49ff-b39c-88b81eb205c0"},"vehicle_type_id":"4","last_reported":1737551771,"current_range_meters":1600,"station_id":"ce4bhk92rcd13ifvqgc0","pricing_plan_id":"cebpf4jnsgd1na2vs0mg"},{"bike_id":"2965a976-302f-43d1-97a6-16afd2455155","system_id":"levelo_inurba_marseille","lat":43.27369,"lon":5.3625,"is_reserved":false,"is_disabled":false,"rental_uris":{"android":"levelo://app?vid=2965a976-302f-43d1-97a6-16afd2455155","ios":"levelo://app?vid=2965a976-302f-43d1-97a6-16afd2455155"},"vehicle_type_id":"4","last_reported":1737551771,"current_range_meters":25600,"station_id":"ce4bhbh2rcd13ifvqeo0","pricing_plan_id":"cebpf4jnsgd1na2vs0mg"},{"bike_id":"9eeabac4-cc66-4446-9589-cd2264b98d29","system_id":"levelo_inurba_marseille","lat":43.33762,"lon":5.3747,"is_reserved":false,"is_disabled":false,"rental_uris":{"android":"levelo://app?vid=9eeabac4-cc66-4446-9589-cd2264b98d29","ios":"levelo://app?vid=9eeabac4-cc66-4446-9589-cd2264b98d29"},"vehicle_type_id":"4","last_reported":1737551771,"current_range_meters":36800,"station_id":"","pricing_plan_id":"cebpf4jnsgd1na2vs0mg"},{"bike_id":"8ab0346c-8001-4067-8852-009244e2b53d","system_id":"levelo_inurba_marseille","lat":43.31083,"lon":5.42435,"is_reserved":false,"is_disabled":false,"rental_uris":{"android":"levelo://app?vid=8ab0346c-8001-4067-8852-009244e2b53d","ios":"levelo://app?vid=8ab0346c-8001-4067-8852-009244e2b53d"},"vehicle_type_id":"4","last_reported":1737551771,"current_range_meters":38800,"station_id":"ce4bhp92rcd13ifvqhag","pricing_plan_id":"cebpf4jnsgd1na2vs0mg"},{"bike_id":"b4548c16-c192-4910-9c21-2ba57df40c73","system_id":"levelo_inurba_marseille","lat":43.29607,"lon":5.37732,"is_reserved":false,"is_disabled":false,"rental_uris":{"android":"levelo://app?vid=b4548c16-c192-4910-9c21-2ba57df40c73","ios":"levelo://app?vid=b4548c16-c192-4910-9c21-2ba57df40c73"},"vehicle_type_id":"4","last_reported":1737551771,"current_range_meters":37600,"station_id":"ce4bgi92rcd13ifvqb90","pricing_plan_id":"cebpf4jnsgd1na2vs0mg"},{"bike_id":"d6550eb1-0e0b-4eb8-b93c-dcb89f46c177","system_id":"levelo_inurba_marseille","lat":43.317063,"lon":5.377389,"is_reserved":false,"is_disabled":false,"rental_uris":{"android":"levelo://app?vid=d6550eb1-0e0b-4eb8-b93c-dcb89f46c177","ios":"levelo://app?vid=d6550eb1-0e0b-4eb8-b93c-dcb89f46c177"},"vehicle_type_id":"4","last_reported":1737551771,"current_range_meters":38800,"station_id":"ce4bgth2rcd13ifvqch0","pricing_plan_id":"cebpf4jnsgd1na2vs0mg"},{"bike_id":"7b78977a-0009-409b-bc13-46c0de0ee7bd","system_id":"levelo_inurba_marseille","lat":43.28453,"lon":5.35889,"is_reserved":false,"is_disabled":false,"rental_uris":{"android":"levelo://app?vid=7b78977a-0009-409b-bc13-46c0de0ee7bd","ios":"levelo://app?vid=7b78977a-0009-409b-bc13-46c0de0ee7bd"},"vehicle_type_id":"4","last_reported":1737551771,"current_range_meters":22400,"station_id":"ce4bhah2rcd13ifvqei0","pricing_plan_id":"cebpf4jnsgd1na2vs0mg"},{"bike_id":"e1a344b0-1af1-4839-9fc5-2bded306edb6","system_id":"levelo_inurba_marseille","lat":43.30156,"lon":5.37423,"is_reserved":false,"is_disabled":false,"rental_uris":{"android":"levelo://app?vid=e1a344b0-1af1-4839-9fc5-2bded306edb6","ios":"levelo://app?vid=e1a344b0-1af1-4839-9fc5-2bded306edb6"},"vehicle_type_id":"4","last_reported":1737551771,"current_range_meters":38800,"station_id":"ce4bgs92rcd13ifvqcc0","pricing_plan_id":"cebpf4jnsgd1na2vs0mg"},{"bike_id":"2bebf64d-2eff-4607-b617-986c9d9aab7f","system_id":"levelo_inurba_marseille","lat":43.266896,"lon":5.382746,"is_reserved":false,"is_disabled":false,"rental_uris":{"android":"levelo://app?vid=2bebf64d-2eff-4607-b617-986c9d9aab7f","ios":"levelo://app?vid=2bebf64d-2eff-4607-b617-986c9d9aab7f"},"vehicle_type_id":"4","last_reported":1737551771,"current_range_meters":38800,"station_id":"ce4bhg92rcd13ifvqf90","pricing_plan_id":"cebpf4jnsgd1na2vs0mg"},{"bike_id":"0e8c2c8b-daac-43cc-92bc-067394fe74b9","system_id":"levelo_inurba_marseille","lat":43.292373,"lon":5.401177,"is_reserved":false,"is_disabled":false,"rental_uris":{"android":"levelo://app?vid=0e8c2c8b-daac-43cc-92bc-067394fe74b9","ios":"levelo://app?vid=0e8c2c8b-daac-43cc-92bc-067394fe74b9"},"vehicle_type_id":"4","last_reported":1737551771,"current_range_meters":6800,"station_id":"ce4bh312rcd13ifvqdk0","pricing_plan_id":"cebpf4jnsgd1na2vs0mg"},{"bike_id":"bb903e76-66e9-47a7-a21b-9c74eee3f530","system_id":"levelo_inurba_marseille","lat":43.25015,"lon":5.38931,"is_reserved":false,"is_disabled":false,"rental_uris":{"android":"levelo://app?vid=bb903e76-66e9-47a7-a21b-9c74eee3f530","ios":"levelo://app?vid=bb903e76-66e9-47a7-a21b-9c74eee3f530"},"vehicle_type_id":"4","last_reported":1737551771,"current_range_meters":35600,"station_id":"ce4bhgp2rcd13ifvqfd0","pricing_plan_id":"cebpf4jnsgd1na2vs0mg"},{"bike_id":"3c2852e8-3d8e-4b8c-9510-44a66e24c469","system_id":"levelo_inurba_marseille","lat":43.26194,"lon":5.37455,"is_reserved":false,"is_disabled":false,"rental_uris":{"android":"levelo://app?vid=3c2852e8-3d8e-4b8c-9510-44a66e24c469","ios":"levelo://app?vid=3c2852e8-3d8e-4b8c-9510-44a66e24c469"},"vehicle_type_id":"4","last_reported":1737551771,"current_range_meters":18800,"station_id":"ce4bhgp2rcd13ifvqfc0","pricing_plan_id":"cebpf4jnsgd1na2vs0mg"},{"bike_id":"17ab229c-2217-4a42-bb3f-bb0f263af9ad","system_id":"levelo_inurba_marseille","lat":43.28866,"lon":5.35861,"is_reserved":false,"is_disabled":false,"rental_uris":{"android":"levelo://app?vid=17ab229c-2217-4a42-bb3f-bb0f263af9ad","ios":"levelo://app?vid=17ab229c-2217-4a42-bb3f-bb0f263af9ad"},"vehicle_type_id":"4","last_reported":1737551771,"current_range_meters":26800,"station_id":"ce4bhb12rcd13ifvqem0","pricing_plan_id":"cebpf4jnsgd1na2vs0mg"},{"bike_id":"49838f35-8770-4b60-b326-4d678d8fb3d2","system_id":"levelo_inurba_marseille","lat":43.29533,"lon":5.3855,"is_reserved":false,"is_disabled":false,"rental_uris":{"android":"levelo://app?vid=49838f35-8770-4b60-b326-4d678d8fb3d2","ios":"levelo://app?vid=49838f35-8770-4b60-b326-4d678d8fb3d2"},"vehicle_type_id":"4","last_reported":1737551771,"current_range_meters":38800,"station_id":"ce4bgih2rcd13ifvqba0","pricing_plan_id":"cebpf4jnsgd1na2vs0mg"},{"bike_id":"e9263957-353d-4eae-80a5-2938c853663b","system_id":"levelo_inurba_marseille","lat":43.28362,"lon":5.38632,"is_reserved":false,"is_disabled":false,"rental_uris":{"android":"levelo://app?vid=e9263957-353d-4eae-80a5-2938c853663b","ios":"levelo://app?vid=e9263957-353d-4eae-80a5-2938c853663b"},"vehicle_type_id":"4","last_reported":1737551771,"current_range_meters":33200,"station_id":"ce4bh492rcd13ifvqdvg","pricing_plan_id":"cebpf4jnsgd1na2vs0mg"},{"bike_id":"18110634-8656-4425-868c-91f0e5cdb086","system_id":"levelo_inurba_marseille","lat":43.25083,"lon":5.39514,"is_reserved":false,"is_disabled":false,"rental_uris":{"android":"levelo://app?vid=18110634-8656-4425-868c-91f0e5cdb086","ios":"levelo://app?vid=18110634-8656-4425-868c-91f0e5cdb086"},"vehicle_type_id":"4","last_reported":1737551771,"current_range_meters":38800,"station_id":"ce4bhm12rcd13ifvqgkg","pricing_plan_id":"cebpf4jnsgd1na2vs0mg"},{"bike_id":"a6b3292d-85f8-47d2-bdd7-a9cc142866b1","system_id":"levelo_inurba_marseille","lat":43.29264,"lon":5.38445,"is_reserved":false,"is_disabled":false,"rental_uris":{"android":"levelo://app?vid=a6b3292d-85f8-47d2-bdd7-a9cc142866b1","ios":"levelo://app?vid=a6b3292d-85f8-47d2-bdd7-a9cc142866b1"},"vehicle_type_id":"4","last_reported":1737551771,"current_range_meters":19600,"station_id":"ce4bh692rcd13ifvqea0","pricing_plan_id":"cebpf4jnsgd1na2vs0mg"},{"bike_id":"c59e854e-b7e1-4dd9-951c-c12cf587190e","system_id":"levelo_inurba_marseille","lat":43.25505,"lon":5.37665,"is_reserved":false,"is_disabled":false,"rental_uris":{"android":"levelo://app?vid=c59e854e-b7e1-4dd9-951c-c12cf587190e","ios":"levelo://app?vid=c59e854e-b7e1-4dd9-951c-c12cf587190e"},"vehicle_type_id":"4","last_reported":1737551771,"current_range_meters":35200,"station_id":"ce4bhh12rcd13ifvqff0","pricing_plan_id":"cebpf4jnsgd1na2vs0mg"},{"bike_id":"47c814c0-6ef6-4d1f-befb-d3d5966eee57","system_id":"levelo_inurba_marseille","lat":43.307801,"lon":5.376603,"is_reserved":false,"is_disabled":false,"rental_uris":{"android":"levelo://app?vid=47c814c0-6ef6-4d1f-befb-d3d5966eee57","ios":"levelo://app?vid=47c814c0-6ef6-4d1f-befb-d3d5966eee57"},"vehicle_type_id":"4","last_reported":1737551771,"current_range_meters":16400,"station_id":"ce4bgv92rcd13ifvqcq0","pricing_plan_id":"cebpf4jnsgd1na2vs0mg"},{"bike_id":"848ac81b-be26-48f9-b1dd-81f279eaf95c","system_id":"levelo_inurba_marseille","lat":43.28939,"lon":5.36643,"is_reserved":false,"is_disabled":false,"rental_uris":{"android":"levelo://app?vid=848ac81b-be26-48f9-b1dd-81f279eaf95c","ios":"levelo://app?vid=848ac81b-be26-48f9-b1dd-81f279eaf95c"},"vehicle_type_id":"4","last_reported":1737551771,"current_range_meters":37600,"station_id":"ce4bhap2rcd13ifvqek0","pricing_plan_id":"cebpf4jnsgd1na2vs0mg"},{"bike_id":"1450bd64-05c1-4364-83aa-daa0fb011f91","system_id":"levelo_inurba_marseille","lat":43.29952,"lon":5.4132,"is_reserved":false,"is_disabled":false,"rental_uris":{"android":"levelo://app?vid=1450bd64-05c1-4364-83aa-daa0fb011f91","ios":"levelo://app?vid=1450bd64-05c1-4364-83aa-daa0fb011f91"},"vehicle_type_id":"4","last_reported":1737551771,"current_range_meters":38000,"station_id":"ce4bhp12rcd13ifvqh9g","pricing_plan_id":"cebpf4jnsgd1na2vs0mg"},{"bike_id":"d3889cdb-521e-4006-be71-929ad8599317","system_id":"levelo_inurba_marseille","lat":43.28841,"lon":5.39321,"is_reserved":false,"is_disabled":false,"rental_uris":{"android":"levelo://app?vid=d3889cdb-521e-4006-be71-929ad8599317","ios":"levelo://app?vid=d3889cdb-521e-4006-be71-929ad8599317"},"vehicle_type_id":"4","last_reported":1737551771,"current_range_meters":30400,"station_id":"ce4bh2p2rcd13ifvqdi0","pricing_plan_id":"cebpf4jnsgd1na2vs0mg"},{"bike_id":"e7ebdef9-55cf-4766-85b7-598a4a606e46","system_id":"levelo_inurba_marseille","lat":43.29622,"lon":5.37152,"is_reserved":false,"is_disabled":false,"rental_uris":{"android":"levelo://app?vid=e7ebdef9-55cf-4766-85b7-598a4a606e46","ios":"levelo://app?vid=e7ebdef9-55cf-4766-85b7-598a4a606e46"},"vehicle_type_id":"4","last_reported":1737551771,"current_range_meters":17600,"station_id":"ce4bgnh2rcd13ifvqc0g","pricing_plan_id":"cebpf4jnsgd1na2vs0mg"},{"bike_id":"280781e9-fa6e-4bc8-b42e-4972478cf13d","system_id":"levelo_inurba_marseille","lat":43.31533,"lon":5.38034,"is_reserved":false,"is_disabled":false,"rental_uris":{"android":"levelo://app?vid=280781e9-fa6e-4bc8-b42e-4972478cf13d","ios":"levelo://app?vid=280781e9-fa6e-4bc8-b42e-4972478cf13d"},"vehicle_type_id":"4","last_reported":1737551771,"current_range_meters":38800,"station_id":"ce4bhsp2rcd13ifvqi50","pricing_plan_id":"cebpf4jnsgd1na2vs0mg"},{"bike_id":"1cb80510-b978-491c-af49-6598dcbc03ad","system_id":"levelo_inurba_marseille","lat":43.30917,"lon":5.36851,"is_reserved":false,"is_disabled":false,"rental_uris":{"android":"levelo://app?vid=1cb80510-b978-491c-af49-6598dcbc03ad","ios":"levelo://app?vid=1cb80510-b978-491c-af49-6598dcbc03ad"},"vehicle_type_id":"4","last_reported":1737551771,"current_range_meters":32000,"station_id":"ce4bgn92rcd13ifvqbvg","pricing_plan_id":"cebpf4jnsgd1na2vs0mg"},{"bike_id":"27e80083-366b-4daa-89a1-00d558d14c86","system_id":"levelo_inurba_marseille","lat":43.32476,"lon":5.36566,"is_reserved":false,"is_disabled":false,"rental_uris":{"android":"levelo://app?vid=27e80083-366b-4daa-89a1-00d558d14c86","ios":"levelo://app?vid=27e80083-366b-4daa-89a1-00d558d14c86"},"vehicle_type_id":"4","last_reported":1737551771,"current_range_meters":20400,"station_id":"ce4bhs12rcd13ifvqhvg","pricing_plan_id":"cebpf4jnsgd1na2vs0mg"},{"bike_id":"65dccb82-e0d5-464f-9ab0-52b1f760eca6","system_id":"levelo_inurba_marseille","lat":43.27373,"lon":5.36252,"is_reserved":false,"is_disabled":false,"rental_uris":{"android":"levelo://app?vid=65dccb82-e0d5-464f-9ab0-52b1f760eca6","ios":"levelo://app?vid=65dccb82-e0d5-464f-9ab0-52b1f760eca6"},"vehicle_type_id":"4","last_reported":1737551771,"current_range_meters":37600,"station_id":"ce4bhbh2rcd13ifvqeo0","pricing_plan_id":"cebpf4jnsgd1na2vs0mg"},{"bike_id":"01a62aad-27ed-4a1b-9567-1dda5f235805","system_id":"levelo_inurba_marseille","lat":43.32361,"lon":5.3889,"is_reserved":false,"is_disabled":false,"rental_uris":{"android":"levelo://app?vid=01a62aad-27ed-4a1b-9567-1dda5f235805","ios":"levelo://app?vid=01a62aad-27ed-4a1b-9567-1dda5f235805"},"vehicle_type_id":"4","last_reported":1737551771,"current_range_meters":18000,"station_id":"ce4bhqp2rcd13ifvqhog","pricing_plan_id":"cebpf4jnsgd1na2vs0mg"},{"bike_id":"fe2089a7-9e7b-4a7a-8bc3-781431ea9568","system_id":"levelo_inurba_marseille","lat":43.25929,"lon":5.40885,"is_reserved":false,"is_disabled":false,"rental_uris":{"android":"levelo://app?vid=fe2089a7-9e7b-4a7a-8bc3-781431ea9568","ios":"levelo://app?vid=fe2089a7-9e7b-4a7a-8bc3-781431ea9568"},"vehicle_type_id":"4","last_reported":1737551771,"current_range_meters":38800,"station_id":"ce4bhm92rcd13ifvqglg","pricing_plan_id":"cebpf4jnsgd1na2vs0mg"},{"bike_id":"d0cae785-4197-4664-82a9-07ebe2236019","system_id":"levelo_inurba_marseille","lat":43.26198,"lon":5.37458,"is_reserved":false,"is_disabled":false,"rental_uris":{"android":"levelo://app?vid=d0cae785-4197-4664-82a9-07ebe2236019","ios":"levelo://app?vid=d0cae785-4197-4664-82a9-07ebe2236019"},"vehicle_type_id":"4","last_reported":1737551771,"current_range_meters":38400,"station_id":"ce4bhgp2rcd13ifvqfc0","pricing_plan_id":"cebpf4jnsgd1na2vs0mg"},{"bike_id":"7d3a62e7-dc66-4cce-99b3-4d0e48129f5d","system_id":"levelo_inurba_marseille","lat":43.31346,"lon":5.3675,"is_reserved":false,"is_disabled":false,"rental_uris":{"android":"levelo://app?vid=7d3a62e7-dc66-4cce-99b3-4d0e48129f5d","ios":"levelo://app?vid=7d3a62e7-dc66-4cce-99b3-4d0e48129f5d"},"vehicle_type_id":"4","last_reported":1737551771,"current_range_meters":10800,"station_id":"ce4bgr92rcd13ifvqc6g","pricing_plan_id":"cebpf4jnsgd1na2vs0mg"},{"bike_id":"95c4ea82-109e-436e-8974-d7779531ddcf","system_id":"levelo_inurba_marseille","lat":43.31876,"lon":5.40737,"is_reserved":false,"is_disabled":false,"rental_uris":{"android":"levelo://app?vid=95c4ea82-109e-436e-8974-d7779531ddcf","ios":"levelo://app?vid=95c4ea82-109e-436e-8974-d7779531ddcf"},"vehicle_type_id":"4","last_reported":1737551771,"current_range_meters":30400,"station_id":"ce4bhq12rcd13ifvqhig","pricing_plan_id":"cebpf4jnsgd1na2vs0mg"},{"bike_id":"28513575-b7c6-4140-bca2-6e6c02c6c39a","system_id":"levelo_inurba_marseille","lat":43.30271,"lon":5.37718,"is_reserved":false,"is_disabled":false,"rental_uris":{"android":"levelo://app?vid=28513575-b7c6-4140-bca2-6e6c02c6c39a","ios":"levelo://app?vid=28513575-b7c6-4140-bca2-6e6c02c6c39a"},"vehicle_type_id":"4","last_reported":1737551771,"current_range_meters":39200,"station_id":"ce4bguh2rcd13ifvqcj0","pricing_plan_id":"cebpf4jnsgd1na2vs0mg"},{"bike_id":"cf7c1ff3-eb6e-4246-9e1f-dc39ef7c83fe","system_id":"levelo_inurba_marseille","lat":43.3254,"lon":5.41432,"is_reserved":false,"is_disabled":false,"rental_uris":{"android":"levelo://app?vid=cf7c1ff3-eb6e-4246-9e1f-dc39ef7c83fe","ios":"levelo://app?vid=cf7c1ff3-eb6e-4246-9e1f-dc39ef7c83fe"},"vehicle_type_id":"4","last_reported":1737551771,"current_range_meters":38800,"station_id":"ce4bhq12rcd13ifvqhhg","pricing_plan_id":"cebpf4jnsgd1na2vs0mg"},{"bike_id":"ab3af0c5-7ad6-4eca-b600-00bd11d690c7","system_id":"levelo_inurba_marseille","lat":43.24645,"lon":5.38894,"is_reserved":false,"is_disabled":false,"rental_uris":{"android":"levelo://app?vid=ab3af0c5-7ad6-4eca-b600-00bd11d690c7","ios":"levelo://app?vid=ab3af0c5-7ad6-4eca-b600-00bd11d690c7"},"vehicle_type_id":"4","last_reported":1737551771,"current_range_meters":38000,"station_id":"ce4bhg12rcd13ifvqf60","pricing_plan_id":"cebpf4jnsgd1na2vs0mg"},{"bike_id":"4784f4d0-8541-4160-ac19-b8ca95746303","system_id":"levelo_inurba_marseille","lat":43.25088,"lon":5.39531,"is_reserved":false,"is_disabled":false,"rental_uris":{"android":"levelo://app?vid=4784f4d0-8541-4160-ac19-b8ca95746303","ios":"levelo://app?vid=4784f4d0-8541-4160-ac19-b8ca95746303"},"vehicle_type_id":"4","last_reported":1737551771,"current_range_meters":38800,"station_id":"ce4bhm12rcd13ifvqgkg","pricing_plan_id":"cebpf4jnsgd1na2vs0mg"},{"bike_id":"dc7c28c2-2288-4581-80b1-41d66191fb14","system_id":"levelo_inurba_marseille","lat":43.305141,"lon":5.365481,"is_reserved":false,"is_disabled":false,"rental_uris":{"android":"levelo://app?vid=dc7c28c2-2288-4581-80b1-41d66191fb14","ios":"levelo://app?vid=dc7c28c2-2288-4581-80b1-41d66191fb14"},"vehicle_type_id":"4","last_reported":1737551771,"current_range_meters":32800,"station_id":"","pricing_plan_id":"cebpf4jnsgd1na2vs0mg"},{"bike_id":"697c7688-551f-4a2c-be64-c01612435aa4","system_id":"levelo_inurba_marseille","lat":43.29276,"lon":5.40126,"is_reserved":false,"is_disabled":false,"rental_uris":{"android":"levelo://app?vid=697c7688-551f-4a2c-be64-c01612435aa4","ios":"levelo://app?vid=697c7688-551f-4a2c-be64-c01612435aa4"},"vehicle_type_id":"4","last_reported":1737551771,"current_range_meters":31200,"station_id":"ce4bh312rcd13ifvqdk0","pricing_plan_id":"cebpf4jnsgd1na2vs0mg"},{"bike_id":"50dded3e-4013-4be8-8da7-f25cddf5bfd0","system_id":"levelo_inurba_marseille","lat":43.30601,"lon":5.39336,"is_reserved":false,"is_disabled":false,"rental_uris":{"android":"levelo://app?vid=50dded3e-4013-4be8-8da7-f25cddf5bfd0","ios":"levelo://app?vid=50dded3e-4013-4be8-8da7-f25cddf5bfd0"},"vehicle_type_id":"4","last_reported":1737551771,"current_range_meters":36800,"station_id":"ce4bh0p2rcd13ifvqd80","pricing_plan_id":"cebpf4jnsgd1na2vs0mg"},{"bike_id":"1554b635-0b72-46ef-90fe-ca2792c8995c","system_id":"levelo_inurba_marseille","lat":43.24999,"lon":5.38933,"is_reserved":false,"is_disabled":false,"rental_uris":{"android":"levelo://app?vid=1554b635-0b72-46ef-90fe-ca2792c8995c","ios":"levelo://app?vid=1554b635-0b72-46ef-90fe-ca2792c8995c"},"vehicle_type_id":"4","last_reported":1737551771,"current_range_meters":38000,"station_id":"ce4bhgp2rcd13ifvqfd0","pricing_plan_id":"cebpf4jnsgd1na2vs0mg"},{"bike_id":"d807dd58-a71d-49b0-8d0e-2fb62116a2d6","system_id":"levelo_inurba_marseille","lat":43.29877,"lon":5.39732,"is_reserved":false,"is_disabled":false,"rental_uris":{"android":"levelo://app?vid=d807dd58-a71d-49b0-8d0e-2fb62116a2d6","ios":"levelo://app?vid=d807dd58-a71d-49b0-8d0e-2fb62116a2d6"},"vehicle_type_id":"4","last_reported":1737551771,"current_range_meters":9600,"station_id":"ce4bh0h2rcd13ifvqd50","pricing_plan_id":"cebpf4jnsgd1na2vs0mg"},{"bike_id":"86fce387-d25e-46bb-928c-c6923257e7fb","system_id":"levelo_inurba_marseille","lat":43.28415,"lon":5.37511,"is_reserved":false,"is_disabled":false,"rental_uris":{"android":"levelo://app?vid=86fce387-d25e-46bb-928c-c6923257e7fb","ios":"levelo://app?vid=86fce387-d25e-46bb-928c-c6923257e7fb"},"vehicle_type_id":"4","last_reported":1737551771,"current_range_meters":9600,"station_id":"ce4bh412rcd13ifvqds0","pricing_plan_id":"cebpf4jnsgd1na2vs0mg"},{"bike_id":"d7a28120-a7b4-4fe8-91f5-461f37dfeebd","system_id":"levelo_inurba_marseille","lat":43.30271,"lon":5.37726,"is_reserved":false,"is_disabled":false,"rental_uris":{"android":"levelo://app?vid=d7a28120-a7b4-4fe8-91f5-461f37dfeebd","ios":"levelo://app?vid=d7a28120-a7b4-4fe8-91f5-461f37dfeebd"},"vehicle_type_id":"4","last_reported":1737551771,"current_range_meters":16400,"station_id":"ce4bguh2rcd13ifvqcj0","pricing_plan_id":"cebpf4jnsgd1na2vs0mg"},{"bike_id":"f25b6234-b810-482a-97d2-96e88a0f1670","system_id":"levelo_inurba_marseille","lat":43.28454,"lon":5.35883,"is_reserved":false,"is_disabled":true,"rental_uris":{"android":"levelo://app?vid=f25b6234-b810-482a-97d2-96e88a0f1670","ios":"levelo://app?vid=f25b6234-b810-482a-97d2-96e88a0f1670"},"vehicle_type_id":"4","last_reported":1737551771,"current_range_meters":0,"station_id":"ce4bhah2rcd13ifvqei0","pricing_plan_id":"cebpf4jnsgd1na2vs0mg"},{"bike_id":"e9e6cc9f-d1f4-4833-ac1e-33312476aaeb","system_id":"levelo_inurba_marseille","lat":43.30934,"lon":5.40143,"is_reserved":false,"is_disabled":false,"rental_uris":{"android":"levelo://app?vid=e9e6cc9f-d1f4-4833-ac1e-33312476aaeb","ios":"levelo://app?vid=e9e6cc9f-d1f4-4833-ac1e-33312476aaeb"},"vehicle_type_id":"4","last_reported":1737551771,"current_range_meters":39200,"station_id":"ce4bgvp2rcd13ifvqct0","pricing_plan_id":"cebpf4jnsgd1na2vs0mg"},{"bike_id":"d33489ae-32a4-4c11-ab80-8cbc6906d4f3","system_id":"levelo_inurba_marseille","lat":43.299205,"lon":5.374795,"is_reserved":false,"is_disabled":false,"rental_uris":{"android":"levelo://app?vid=d33489ae-32a4-4c11-ab80-8cbc6906d4f3","ios":"levelo://app?vid=d33489ae-32a4-4c11-ab80-8cbc6906d4f3"},"vehicle_type_id":"4","last_reported":1737551771,"current_range_meters":8400,"station_id":"ce4bgjh2rcd13ifvqbg0","pricing_plan_id":"cebpf4jnsgd1na2vs0mg"},{"bike_id":"da03f92c-2cc3-4e46-babd-ad47286635c7","system_id":"levelo_inurba_marseille","lat":43.29016,"lon":5.35618,"is_reserved":false,"is_disabled":false,"rental_uris":{"android":"levelo://app?vid=da03f92c-2cc3-4e46-babd-ad47286635c7","ios":"levelo://app?vid=da03f92c-2cc3-4e46-babd-ad47286635c7"},"vehicle_type_id":"4","last_reported":1737551771,"current_range_meters":36000,"station_id":"ce4bhb92rcd13ifvqen0","pricing_plan_id":"cebpf4jnsgd1na2vs0mg"},{"bike_id":"9863b7f9-4316-4322-9f6c-3cc66b0448e2","system_id":"levelo_inurba_marseille","lat":43.279439,"lon":5.389008,"is_reserved":false,"is_disabled":true,"rental_uris":{"android":"levelo://app?vid=9863b7f9-4316-4322-9f6c-3cc66b0448e2","ios":"levelo://app?vid=9863b7f9-4316-4322-9f6c-3cc66b0448e2"},"vehicle_type_id":"4","last_reported":1737551771,"current_range_meters":28800,"station_id":"","pricing_plan_id":"cebpf4jnsgd1na2vs0mg"},{"bike_id":"d5934e9b-de00-4ee3-9abe-fc50af8cc420","system_id":"levelo_inurba_marseille","lat":43.27999,"lon":5.40015,"is_reserved":false,"is_disabled":false,"rental_uris":{"android":"levelo://app?vid=d5934e9b-de00-4ee3-9abe-fc50af8cc420","ios":"levelo://app?vid=d5934e9b-de00-4ee3-9abe-fc50af8cc420"},"vehicle_type_id":"4","last_reported":1737551771,"current_range_meters":25200,"station_id":"ce4bho92rcd13ifvqh4g","pricing_plan_id":"cebpf4jnsgd1na2vs0mg"},{"bike_id":"8480fdd5-0499-492a-8f90-090d137451f7","system_id":"levelo_inurba_marseille","lat":43.3266,"lon":5.40989,"is_reserved":false,"is_disabled":false,"rental_uris":{"android":"levelo://app?vid=8480fdd5-0499-492a-8f90-090d137451f7","ios":"levelo://app?vid=8480fdd5-0499-492a-8f90-090d137451f7"},"vehicle_type_id":"4","last_reported":1737551771,"current_range_meters":38800,"station_id":"ce4bhpp2rcd13ifvqhgg","pricing_plan_id":"cebpf4jnsgd1na2vs0mg"},{"bike_id":"eddb6b89-082b-479c-b34f-44c352a03897","system_id":"levelo_inurba_marseille","lat":43.25502,"lon":5.37662,"is_reserved":false,"is_disabled":false,"rental_uris":{"android":"levelo://app?vid=eddb6b89-082b-479c-b34f-44c352a03897","ios":"levelo://app?vid=eddb6b89-082b-479c-b34f-44c352a03897"},"vehicle_type_id":"4","last_reported":1737551771,"current_range_meters":38800,"station_id":"ce4bhh12rcd13ifvqff0","pricing_plan_id":"cebpf4jnsgd1na2vs0mg"},{"bike_id":"ebeb268b-eff7-49dd-aa60-a6071a505737","system_id":"levelo_inurba_marseille","lat":43.29716,"lon":5.37694,"is_reserved":false,"is_disabled":false,"rental_uris":{"android":"levelo://app?vid=ebeb268b-eff7-49dd-aa60-a6071a505737","ios":"levelo://app?vid=ebeb268b-eff7-49dd-aa60-a6071a505737"},"vehicle_type_id":"4","last_reported":1737551771,"current_range_meters":24800,"station_id":"ce4bgkh2rcd13ifvqbl0","pricing_plan_id":"cebpf4jnsgd1na2vs0mg"},{"bike_id":"f315bc93-4512-466f-b8ea-ac633e98ac21","system_id":"levelo_inurba_marseille","lat":43.28429,"lon":5.34996,"is_reserved":false,"is_disabled":false,"rental_uris":{"android":"levelo://app?vid=f315bc93-4512-466f-b8ea-ac633e98ac21","ios":"levelo://app?vid=f315bc93-4512-466f-b8ea-ac633e98ac21"},"vehicle_type_id":"4","last_reported":1737551771,"current_range_meters":38800,"station_id":"ce4bhbh2rcd13ifvqepg","pricing_plan_id":"cebpf4jnsgd1na2vs0mg"},{"bike_id":"5d981eee-e647-4952-b788-f2087bdc17c4","system_id":"levelo_inurba_marseille","lat":43.31886,"lon":5.40743,"is_reserved":false,"is_disabled":false,"rental_uris":{"android":"levelo://app?vid=5d981eee-e647-4952-b788-f2087bdc17c4","ios":"levelo://app?vid=5d981eee-e647-4952-b788-f2087bdc17c4"},"vehicle_type_id":"4","last_reported":1737551771,"current_range_meters":34800,"station_id":"ce4bhq12rcd13ifvqhig","pricing_plan_id":"cebpf4jnsgd1na2vs0mg"},{"bike_id":"e09a977b-a306-4b91-8529-ca49defddeae","system_id":"levelo_inurba_marseille","lat":43.26785,"lon":5.39414,"is_reserved":false,"is_disabled":false,"rental_uris":{"android":"levelo://app?vid=e09a977b-a306-4b91-8529-ca49defddeae","ios":"levelo://app?vid=e09a977b-a306-4b91-8529-ca49defddeae"},"vehicle_type_id":"4","last_reported":1737551771,"current_range_meters":30800,"station_id":"ce4bhh12rcd13ifvqfg0","pricing_plan_id":"cebpf4jnsgd1na2vs0mg"},{"bike_id":"44e5aafb-1416-4ca5-b7fb-1015161f1513","system_id":"levelo_inurba_marseille","lat":43.27973,"lon":5.38742,"is_reserved":false,"is_disabled":false,"rental_uris":{"android":"levelo://app?vid=44e5aafb-1416-4ca5-b7fb-1015161f1513","ios":"levelo://app?vid=44e5aafb-1416-4ca5-b7fb-1015161f1513"},"vehicle_type_id":"4","last_reported":1737551771,"current_range_meters":30000,"station_id":"ce4bhg12rcd13ifvqf80","pricing_plan_id":"cebpf4jnsgd1na2vs0mg"},{"bike_id":"c13c5a90-81d4-46ba-8cf0-c46f064a6660","system_id":"levelo_inurba_marseille","lat":43.2861,"lon":5.37068,"is_reserved":false,"is_disabled":false,"rental_uris":{"android":"levelo://app?vid=c13c5a90-81d4-46ba-8cf0-c46f064a6660","ios":"levelo://app?vid=c13c5a90-81d4-46ba-8cf0-c46f064a6660"},"vehicle_type_id":"4","last_reported":1737551771,"current_range_meters":32400,"station_id":"ce4bht12rcd13ifvqi60","pricing_plan_id":"cebpf4jnsgd1na2vs0mg"},{"bike_id":"4075edde-d7ec-4366-bf2d-d982e309ec1b","system_id":"levelo_inurba_marseille","lat":43.29567,"lon":5.37528,"is_reserved":false,"is_disabled":false,"rental_uris":{"android":"levelo://app?vid=4075edde-d7ec-4366-bf2d-d982e309ec1b","ios":"levelo://app?vid=4075edde-d7ec-4366-bf2d-d982e309ec1b"},"vehicle_type_id":"4","last_reported":1737551771,"current_range_meters":26000,"station_id":"ce4bgh92rcd13ifvqb50","pricing_plan_id":"cebpf4jnsgd1na2vs0mg"},{"bike_id":"e3aa3f38-7cb9-4920-b43b-7baba0f4e664","system_id":"levelo_inurba_marseille","lat":43.2656,"lon":5.37285,"is_reserved":false,"is_disabled":false,"rental_uris":{"android":"levelo://app?vid=e3aa3f38-7cb9-4920-b43b-7baba0f4e664","ios":"levelo://app?vid=e3aa3f38-7cb9-4920-b43b-7baba0f4e664"},"vehicle_type_id":"4","last_reported":1737551771,"current_range_meters":38800,"station_id":"ce4bhg12rcd13ifvqf70","pricing_plan_id":"cebpf4jnsgd1na2vs0mg"},{"bike_id":"e3a27e03-4bc2-4b5e-b171-42cf8e50856d","system_id":"levelo_inurba_marseille","lat":43.29017,"lon":5.38125,"is_reserved":false,"is_disabled":false,"rental_uris":{"android":"levelo://app?vid=e3a27e03-4bc2-4b5e-b171-42cf8e50856d","ios":"levelo://app?vid=e3a27e03-4bc2-4b5e-b171-42cf8e50856d"},"vehicle_type_id":"4","last_reported":1737551771,"current_range_meters":39200,"station_id":"ce4bh4p2rcd13ifvqe1g","pricing_plan_id":"cebpf4jnsgd1na2vs0mg"},{"bike_id":"0d555cab-a3ac-493c-97d1-05fb30170afc","system_id":"levelo_inurba_marseille","lat":43.27825,"lon":5.40725,"is_reserved":false,"is_disabled":false,"rental_uris":{"android":"levelo://app?vid=0d555cab-a3ac-493c-97d1-05fb30170afc","ios":"levelo://app?vid=0d555cab-a3ac-493c-97d1-05fb30170afc"},"vehicle_type_id":"4","last_reported":1737551771,"current_range_meters":10000,"station_id":"ce4bhnh2rcd13ifvqgtg","pricing_plan_id":"cebpf4jnsgd1na2vs0mg"},{"bike_id":"b35f309a-1fb6-4a22-aa20-ebd1b1bde321","system_id":"levelo_inurba_marseille","lat":43.27839,"lon":5.39193,"is_reserved":false,"is_disabled":true,"rental_uris":{"android":"levelo://app?vid=b35f309a-1fb6-4a22-aa20-ebd1b1bde321","ios":"levelo://app?vid=b35f309a-1fb6-4a22-aa20-ebd1b1bde321"},"vehicle_type_id":"4","last_reported":1737551771,"current_range_meters":27600,"station_id":"ce4bhjp2rcd13ifvqga0","pricing_plan_id":"cebpf4jnsgd1na2vs0mg"},{"bike_id":"31a1a8bf-aef8-45a2-832a-da409b64645e","system_id":"levelo_inurba_marseille","lat":43.28669,"lon":5.36348,"is_reserved":false,"is_disabled":false,"rental_uris":{"android":"levelo://app?vid=31a1a8bf-aef8-45a2-832a-da409b64645e","ios":"levelo://app?vid=31a1a8bf-aef8-45a2-832a-da409b64645e"},"vehicle_type_id":"4","last_reported":1737551771,"current_range_meters":25600,"station_id":"ce4bhah2rcd13ifvqej0","pricing_plan_id":"cebpf4jnsgd1na2vs0mg"},{"bike_id":"e4261134-4427-4663-a176-8c03fab09833","system_id":"levelo_inurba_marseille","lat":43.301637,"lon":5.38088,"is_reserved":false,"is_disabled":false,"rental_uris":{"android":"levelo://app?vid=e4261134-4427-4663-a176-8c03fab09833","ios":"levelo://app?vid=e4261134-4427-4663-a176-8c03fab09833"},"vehicle_type_id":"4","last_reported":1737551771,"current_range_meters":24800,"station_id":"ce4bgjp2rcd13ifvqbh0","pricing_plan_id":"cebpf4jnsgd1na2vs0mg"},{"bike_id":"1ba94b3d-ce70-4756-8267-c3ed882fbfb5","system_id":"levelo_inurba_marseille","lat":43.29922,"lon":5.38148,"is_reserved":false,"is_disabled":false,"rental_uris":{"android":"levelo://app?vid=1ba94b3d-ce70-4756-8267-c3ed882fbfb5","ios":"levelo://app?vid=1ba94b3d-ce70-4756-8267-c3ed882fbfb5"},"vehicle_type_id":"4","last_reported":1737551771,"current_range_meters":31200,"station_id":"ce4bgj12rcd13ifvqbc0","pricing_plan_id":"cebpf4jnsgd1na2vs0mg"},{"bike_id":"b66f0b5b-2dbb-4a8f-91af-b0d5995e5e1d","system_id":"levelo_inurba_marseille","lat":43.31438,"lon":5.36657,"is_reserved":false,"is_disabled":false,"rental_uris":{"android":"levelo://app?vid=b66f0b5b-2dbb-4a8f-91af-b0d5995e5e1d","ios":"levelo://app?vid=b66f0b5b-2dbb-4a8f-91af-b0d5995e5e1d"},"vehicle_type_id":"4","last_reported":1737551771,"current_range_meters":37600,"station_id":"","pricing_plan_id":"cebpf4jnsgd1na2vs0mg"},{"bike_id":"4868f9c1-f778-4932-8fcb-6f79138895b7","system_id":"levelo_inurba_marseille","lat":43.244,"lon":5.37051,"is_reserved":false,"is_disabled":false,"rental_uris":{"android":"levelo://app?vid=4868f9c1-f778-4932-8fcb-6f79138895b7","ios":"levelo://app?vid=4868f9c1-f778-4932-8fcb-6f79138895b7"},"vehicle_type_id":"4","last_reported":1737551771,"current_range_meters":38800,"station_id":"ce4bhhh2rcd13ifvqfk0","pricing_plan_id":"cebpf4jnsgd1na2vs0mg"},{"bike_id":"fcd4837f-6e09-4786-bcf5-c3a686cbcfef","system_id":"levelo_inurba_marseille","lat":43.299,"lon":5.43652,"is_reserved":false,"is_disabled":false,"rental_uris":{"android":"levelo://app?vid=fcd4837f-6e09-4786-bcf5-c3a686cbcfef","ios":"levelo://app?vid=fcd4837f-6e09-4786-bcf5-c3a686cbcfef"},"vehicle_type_id":"4","last_reported":1737551771,"current_range_meters":30000,"station_id":"ce4bhpp2rcd13ifvqhfg","pricing_plan_id":"cebpf4jnsgd1na2vs0mg"},{"bike_id":"7e30054b-a98f-4636-acb1-0772bfc040be","system_id":"levelo_inurba_marseille","lat":43.31084,"lon":5.42431,"is_reserved":false,"is_disabled":false,"rental_uris":{"android":"levelo://app?vid=7e30054b-a98f-4636-acb1-0772bfc040be","ios":"levelo://app?vid=7e30054b-a98f-4636-acb1-0772bfc040be"},"vehicle_type_id":"4","last_reported":1737551771,"current_range_meters":38800,"station_id":"ce4bhp92rcd13ifvqhag","pricing_plan_id":"cebpf4jnsgd1na2vs0mg"},{"bike_id":"8240d0ed-6e7f-4cac-935e-b1e9bab8bd24","system_id":"levelo_inurba_marseille","lat":43.29176,"lon":5.41443,"is_reserved":false,"is_disabled":true,"rental_uris":{"android":"levelo://app?vid=8240d0ed-6e7f-4cac-935e-b1e9bab8bd24","ios":"levelo://app?vid=8240d0ed-6e7f-4cac-935e-b1e9bab8bd24"},"vehicle_type_id":"4","last_reported":1737551771,"current_range_meters":0,"station_id":"ce4bhnh2rcd13ifvqgug","pricing_plan_id":"cebpf4jnsgd1na2vs0mg"},{"bike_id":"720f1bd4-b805-4549-913b-58e0db646266","system_id":"levelo_inurba_marseille","lat":43.323546,"lon":5.367612,"is_reserved":false,"is_disabled":false,"rental_uris":{"android":"levelo://app?vid=720f1bd4-b805-4549-913b-58e0db646266","ios":"levelo://app?vid=720f1bd4-b805-4549-913b-58e0db646266"},"vehicle_type_id":"4","last_reported":1737551771,"current_range_meters":16400,"station_id":"ce4bhsh2rcd13ifvqi2g","pricing_plan_id":"cebpf4jnsgd1na2vs0mg"},{"bike_id":"f2d580fd-eeb3-4838-8e22-59723910edba","system_id":"levelo_inurba_marseille","lat":43.31986,"lon":5.38127,"is_reserved":false,"is_disabled":false,"rental_uris":{"android":"levelo://app?vid=f2d580fd-eeb3-4838-8e22-59723910edba","ios":"levelo://app?vid=f2d580fd-eeb3-4838-8e22-59723910edba"},"vehicle_type_id":"4","last_reported":1737551771,"current_range_meters":24000,"station_id":"ce4bhr12rcd13ifvqhpg","pricing_plan_id":"cebpf4jnsgd1na2vs0mg"},{"bike_id":"61f488de-0e8a-4294-8c12-0963029cf453","system_id":"levelo_inurba_marseille","lat":43.2571,"lon":5.41123,"is_reserved":false,"is_disabled":false,"rental_uris":{"android":"levelo://app?vid=61f488de-0e8a-4294-8c12-0963029cf453","ios":"levelo://app?vid=61f488de-0e8a-4294-8c12-0963029cf453"},"vehicle_type_id":"4","last_reported":1737551771,"current_range_meters":38800,"station_id":"ce4bhkp2rcd13ifvqgd0","pricing_plan_id":"cebpf4jnsgd1na2vs0mg"},{"bike_id":"f14dc71a-66db-4337-af73-af7f94ea4b53","system_id":"levelo_inurba_marseille","lat":43.23149,"lon":5.43707,"is_reserved":false,"is_disabled":false,"rental_uris":{"android":"levelo://app?vid=f14dc71a-66db-4337-af73-af7f94ea4b53","ios":"levelo://app?vid=f14dc71a-66db-4337-af73-af7f94ea4b53"},"vehicle_type_id":"4","last_reported":1737551771,"current_range_meters":39200,"station_id":"ce4bhmp2rcd13ifvqgog","pricing_plan_id":"cebpf4jnsgd1na2vs0mg"},{"bike_id":"671e0054-fdc2-4584-9fff-295779d49c7f","system_id":"levelo_inurba_marseille","lat":43.27176,"lon":5.40994,"is_reserved":false,"is_disabled":false,"rental_uris":{"android":"levelo://app?vid=671e0054-fdc2-4584-9fff-295779d49c7f","ios":"levelo://app?vid=671e0054-fdc2-4584-9fff-295779d49c7f"},"vehicle_type_id":"4","last_reported":1737551771,"current_range_meters":0,"station_id":"ce4bhl12rcd13ifvqgf0","pricing_plan_id":"cebpf4jnsgd1na2vs0mg"},{"bike_id":"61f1989e-b749-4026-b635-ab10416e127c","system_id":"levelo_inurba_marseille","lat":43.27908,"lon":5.38004,"is_reserved":false,"is_disabled":false,"rental_uris":{"android":"levelo://app?vid=61f1989e-b749-4026-b635-ab10416e127c","ios":"levelo://app?vid=61f1989e-b749-4026-b635-ab10416e127c"},"vehicle_type_id":"4","last_reported":1737551771,"current_range_meters":38000,"station_id":"ce4bhf92rcd13ifvqf50","pricing_plan_id":"cebpf4jnsgd1na2vs0mg"},{"bike_id":"c48b9990-0d74-4233-8820-0ca5b3e958e8","system_id":"levelo_inurba_marseille","lat":43.28443,"lon":5.39212,"is_reserved":false,"is_disabled":false,"rental_uris":{"android":"levelo://app?vid=c48b9990-0d74-4233-8820-0ca5b3e958e8","ios":"levelo://app?vid=c48b9990-0d74-4233-8820-0ca5b3e958e8"},"vehicle_type_id":"4","last_reported":1737551771,"current_range_meters":38000,"station_id":"ce4bhoh2rcd13ifvqh5g","pricing_plan_id":"cebpf4jnsgd1na2vs0mg"},{"bike_id":"30049ba7-1f4d-4f56-803b-91326731ed6b","system_id":"levelo_inurba_marseille","lat":43.30163,"lon":5.38764,"is_reserved":false,"is_disabled":false,"rental_uris":{"android":"levelo://app?vid=30049ba7-1f4d-4f56-803b-91326731ed6b","ios":"levelo://app?vid=30049ba7-1f4d-4f56-803b-91326731ed6b"},"vehicle_type_id":"4","last_reported":1737551771,"current_range_meters":20400,"station_id":"ce4bhoh2rcd13ifvqh6g","pricing_plan_id":"cebpf4jnsgd1na2vs0mg"},{"bike_id":"67f2105b-9b76-4c4b-998d-2cda2af28b3f","system_id":"levelo_inurba_marseille","lat":43.27055,"lon":5.40265,"is_reserved":false,"is_disabled":false,"rental_uris":{"android":"levelo://app?vid=67f2105b-9b76-4c4b-998d-2cda2af28b3f","ios":"levelo://app?vid=67f2105b-9b76-4c4b-998d-2cda2af28b3f"},"vehicle_type_id":"4","last_reported":1737551771,"current_range_meters":18000,"station_id":"ce4bhk92rcd13ifvqgc0","pricing_plan_id":"cebpf4jnsgd1na2vs0mg"},{"bike_id":"e99fd1fc-8351-45b5-ba1a-e5fee695a58f","system_id":"levelo_inurba_marseille","lat":43.33732,"lon":5.39187,"is_reserved":false,"is_disabled":false,"rental_uris":{"android":"levelo://app?vid=e99fd1fc-8351-45b5-ba1a-e5fee695a58f","ios":"levelo://app?vid=e99fd1fc-8351-45b5-ba1a-e5fee695a58f"},"vehicle_type_id":"4","last_reported":1737551771,"current_range_meters":34800,"station_id":"ce4bhr92rcd13ifvqhsg","pricing_plan_id":"cebpf4jnsgd1na2vs0mg"},{"bike_id":"298c42be-ec2d-4ea1-a639-d24a5cbdd049","system_id":"levelo_inurba_marseille","lat":43.30464,"lon":5.37915,"is_reserved":false,"is_disabled":false,"rental_uris":{"android":"levelo://app?vid=298c42be-ec2d-4ea1-a639-d24a5cbdd049","ios":"levelo://app?vid=298c42be-ec2d-4ea1-a639-d24a5cbdd049"},"vehicle_type_id":"4","last_reported":1737551771,"current_range_meters":38800,"station_id":"ce4bgup2rcd13ifvqcn0","pricing_plan_id":"cebpf4jnsgd1na2vs0mg"},{"bike_id":"816fb48d-2910-4e57-bdec-923f1a84e6bb","system_id":"levelo_inurba_marseille","lat":43.246483,"lon":5.38895,"is_reserved":false,"is_disabled":false,"rental_uris":{"android":"levelo://app?vid=816fb48d-2910-4e57-bdec-923f1a84e6bb","ios":"levelo://app?vid=816fb48d-2910-4e57-bdec-923f1a84e6bb"},"vehicle_type_id":"4","last_reported":1737551771,"current_range_meters":25600,"station_id":"ce4bhg12rcd13ifvqf60","pricing_plan_id":"cebpf4jnsgd1na2vs0mg"},{"bike_id":"cff1680f-636c-4c21-adec-aee2428512db","system_id":"levelo_inurba_marseille","lat":43.28606,"lon":5.37064,"is_reserved":false,"is_disabled":false,"rental_uris":{"android":"levelo://app?vid=cff1680f-636c-4c21-adec-aee2428512db","ios":"levelo://app?vid=cff1680f-636c-4c21-adec-aee2428512db"},"vehicle_type_id":"4","last_reported":1737551771,"current_range_meters":38000,"station_id":"ce4bht12rcd13ifvqi60","pricing_plan_id":"cebpf4jnsgd1na2vs0mg"},{"bike_id":"13ff516e-16cf-4543-8540-9030b8b296b4","system_id":"levelo_inurba_marseille","lat":43.23191,"lon":5.35572,"is_reserved":false,"is_disabled":false,"rental_uris":{"android":"levelo://app?vid=13ff516e-16cf-4543-8540-9030b8b296b4","ios":"levelo://app?vid=13ff516e-16cf-4543-8540-9030b8b296b4"},"vehicle_type_id":"4","last_reported":1737551771,"current_range_meters":33600,"station_id":"ce4bhu92rcd13ifvqi70","pricing_plan_id":"cebpf4jnsgd1na2vs0mg"},{"bike_id":"81f2072d-317e-4ceb-a4f5-594b967ebaaf","system_id":"levelo_inurba_marseille","lat":43.28424,"lon":5.37524,"is_reserved":false,"is_disabled":false,"rental_uris":{"android":"levelo://app?vid=81f2072d-317e-4ceb-a4f5-594b967ebaaf","ios":"levelo://app?vid=81f2072d-317e-4ceb-a4f5-594b967ebaaf"},"vehicle_type_id":"4","last_reported":1737551771,"current_range_meters":36000,"station_id":"ce4bh412rcd13ifvqds0","pricing_plan_id":"cebpf4jnsgd1na2vs0mg"},{"bike_id":"9984a19d-448e-4ed2-8c95-d1103fd0e167","system_id":"levelo_inurba_marseille","lat":43.31754,"lon":5.39034,"is_reserved":false,"is_disabled":true,"rental_uris":{"android":"levelo://app?vid=9984a19d-448e-4ed2-8c95-d1103fd0e167","ios":"levelo://app?vid=9984a19d-448e-4ed2-8c95-d1103fd0e167"},"vehicle_type_id":"4","last_reported":1737551771,"current_range_meters":0,"station_id":"ce4bhqp2rcd13ifvqhng","pricing_plan_id":"cebpf4jnsgd1na2vs0mg"},{"bike_id":"dc9afc0d-d533-431b-a32f-6f6423d7880b","system_id":"levelo_inurba_marseille","lat":43.31726,"lon":5.4241,"is_reserved":false,"is_disabled":false,"rental_uris":{"android":"levelo://app?vid=dc9afc0d-d533-431b-a32f-6f6423d7880b","ios":"levelo://app?vid=dc9afc0d-d533-431b-a32f-6f6423d7880b"},"vehicle_type_id":"4","last_reported":1737551771,"current_range_meters":35200,"station_id":"ce4bhp92rcd13ifvqhbg","pricing_plan_id":"cebpf4jnsgd1na2vs0mg"},{"bike_id":"a7f3c160-c351-4b7c-85a7-03df9006e355","system_id":"levelo_inurba_marseille","lat":43.24168,"lon":5.36404,"is_reserved":false,"is_disabled":false,"rental_uris":{"android":"levelo://app?vid=a7f3c160-c351-4b7c-85a7-03df9006e355","ios":"levelo://app?vid=a7f3c160-c351-4b7c-85a7-03df9006e355"},"vehicle_type_id":"4","last_reported":1737551771,"current_range_meters":38800,"station_id":"cpo36qri1sfpv3e86is0","pricing_plan_id":"cebpf4jnsgd1na2vs0mg"},{"bike_id":"7d38a8d7-356a-430f-9866-33e957a4367b","system_id":"levelo_inurba_marseille","lat":43.286154,"lon":5.370586,"is_reserved":false,"is_disabled":false,"rental_uris":{"android":"levelo://app?vid=7d38a8d7-356a-430f-9866-33e957a4367b","ios":"levelo://app?vid=7d38a8d7-356a-430f-9866-33e957a4367b"},"vehicle_type_id":"4","last_reported":1737551771,"current_range_meters":10800,"station_id":"ce4bht12rcd13ifvqi60","pricing_plan_id":"cebpf4jnsgd1na2vs0mg"},{"bike_id":"020b3f37-10cd-4b03-8488-1eb167bcfbcf","system_id":"levelo_inurba_marseille","lat":43.29613,"lon":5.37724,"is_reserved":false,"is_disabled":false,"rental_uris":{"android":"levelo://app?vid=020b3f37-10cd-4b03-8488-1eb167bcfbcf","ios":"levelo://app?vid=020b3f37-10cd-4b03-8488-1eb167bcfbcf"},"vehicle_type_id":"4","last_reported":1737551771,"current_range_meters":22000,"station_id":"ce4bgi92rcd13ifvqb90","pricing_plan_id":"cebpf4jnsgd1na2vs0mg"},{"bike_id":"fa01b258-7c04-42f2-8c05-a1c359f6b225","system_id":"levelo_inurba_marseille","lat":43.28466,"lon":5.35892,"is_reserved":false,"is_disabled":false,"rental_uris":{"android":"levelo://app?vid=fa01b258-7c04-42f2-8c05-a1c359f6b225","ios":"levelo://app?vid=fa01b258-7c04-42f2-8c05-a1c359f6b225"},"vehicle_type_id":"4","last_reported":1737551771,"current_range_meters":38800,"station_id":"ce4bhah2rcd13ifvqei0","pricing_plan_id":"cebpf4jnsgd1na2vs0mg"},{"bike_id":"4296adba-bff9-4921-b1c6-7f31b7ec3dbc","system_id":"levelo_inurba_marseille","lat":43.33011,"lon":5.39053,"is_reserved":false,"is_disabled":false,"rental_uris":{"android":"levelo://app?vid=4296adba-bff9-4921-b1c6-7f31b7ec3dbc","ios":"levelo://app?vid=4296adba-bff9-4921-b1c6-7f31b7ec3dbc"},"vehicle_type_id":"4","last_reported":1737551771,"current_range_meters":3200,"station_id":"ce4bhr92rcd13ifvqhrg","pricing_plan_id":"cebpf4jnsgd1na2vs0mg"},{"bike_id":"357536c7-1f45-4617-b06e-0042bcc2bbca","system_id":"levelo_inurba_marseille","lat":43.23956,"lon":5.36642,"is_reserved":false,"is_disabled":false,"rental_uris":{"android":"levelo://app?vid=357536c7-1f45-4617-b06e-0042bcc2bbca","ios":"levelo://app?vid=357536c7-1f45-4617-b06e-0042bcc2bbca"},"vehicle_type_id":"4","last_reported":1737551771,"current_range_meters":24800,"station_id":"ce4bhi12rcd13ifvqfp0","pricing_plan_id":"cebpf4jnsgd1na2vs0mg"},{"bike_id":"0a247c4c-5adf-463d-bc52-549aabe510f5","system_id":"levelo_inurba_marseille","lat":43.29969,"lon":5.37182,"is_reserved":false,"is_disabled":false,"rental_uris":{"android":"levelo://app?vid=0a247c4c-5adf-463d-bc52-549aabe510f5","ios":"levelo://app?vid=0a247c4c-5adf-463d-bc52-549aabe510f5"},"vehicle_type_id":"4","last_reported":1737551771,"current_range_meters":21600,"station_id":"ce4bgr92rcd13ifvqc7g","pricing_plan_id":"cebpf4jnsgd1na2vs0mg"},{"bike_id":"bb3a4d64-44c2-4308-809d-a49952b6cb5e","system_id":"levelo_inurba_marseille","lat":43.29274,"lon":5.36841,"is_reserved":false,"is_disabled":false,"rental_uris":{"android":"levelo://app?vid=bb3a4d64-44c2-4308-809d-a49952b6cb5e","ios":"levelo://app?vid=bb3a4d64-44c2-4308-809d-a49952b6cb5e"},"vehicle_type_id":"4","last_reported":1737551771,"current_range_meters":12000,"station_id":"ce4bhbp2rcd13ifvqesg","pricing_plan_id":"cebpf4jnsgd1na2vs0mg"},{"bike_id":"85656f86-bedd-4b43-85f3-e346ba2751cb","system_id":"levelo_inurba_marseille","lat":43.30544,"lon":5.38418,"is_reserved":false,"is_disabled":false,"rental_uris":{"android":"levelo://app?vid=85656f86-bedd-4b43-85f3-e346ba2751cb","ios":"levelo://app?vid=85656f86-bedd-4b43-85f3-e346ba2751cb"},"vehicle_type_id":"4","last_reported":1737551771,"current_range_meters":28400,"station_id":"ce4bgg92rcd13ifvqb30","pricing_plan_id":"cebpf4jnsgd1na2vs0mg"},{"bike_id":"23b4d82f-6045-4d97-adf5-3bc3d5274225","system_id":"levelo_inurba_marseille","lat":43.28008,"lon":5.40018,"is_reserved":false,"is_disabled":false,"rental_uris":{"android":"levelo://app?vid=23b4d82f-6045-4d97-adf5-3bc3d5274225","ios":"levelo://app?vid=23b4d82f-6045-4d97-adf5-3bc3d5274225"},"vehicle_type_id":"4","last_reported":1737551771,"current_range_meters":35200,"station_id":"ce4bho92rcd13ifvqh4g","pricing_plan_id":"cebpf4jnsgd1na2vs0mg"},{"bike_id":"d25bd425-6815-43e4-975a-24891a0a0ca0","system_id":"levelo_inurba_marseille","lat":43.3041,"lon":5.41286,"is_reserved":false,"is_disabled":true,"rental_uris":{"android":"levelo://app?vid=d25bd425-6815-43e4-975a-24891a0a0ca0","ios":"levelo://app?vid=d25bd425-6815-43e4-975a-24891a0a0ca0"},"vehicle_type_id":"4","last_reported":1737551771,"current_range_meters":800,"station_id":"ce4bhop2rcd13ifvqh8g","pricing_plan_id":"cebpf4jnsgd1na2vs0mg"},{"bike_id":"13911699-0577-4679-ac2d-b9fc0255de34","system_id":"levelo_inurba_marseille","lat":43.2956,"lon":5.42298,"is_reserved":false,"is_disabled":false,"rental_uris":{"android":"levelo://app?vid=13911699-0577-4679-ac2d-b9fc0255de34","ios":"levelo://app?vid=13911699-0577-4679-ac2d-b9fc0255de34"},"vehicle_type_id":"4","last_reported":1737551771,"current_range_meters":38000,"station_id":"ce4bhph2rcd13ifvqhdg","pricing_plan_id":"cebpf4jnsgd1na2vs0mg"},{"bike_id":"262612a0-7ded-4117-8043-874725ae06d8","system_id":"levelo_inurba_marseille","lat":43.2677,"lon":5.39425,"is_reserved":false,"is_disabled":true,"rental_uris":{"android":"levelo://app?vid=262612a0-7ded-4117-8043-874725ae06d8","ios":"levelo://app?vid=262612a0-7ded-4117-8043-874725ae06d8"},"vehicle_type_id":"4","last_reported":1737551771,"current_range_meters":38000,"station_id":"ce4bhh12rcd13ifvqfg0","pricing_plan_id":"cebpf4jnsgd1na2vs0mg"},{"bike_id":"87faa1a9-d605-45e8-80cf-9cbd6362b719","system_id":"levelo_inurba_marseille","lat":43.29607,"lon":5.38103,"is_reserved":false,"is_disabled":false,"rental_uris":{"android":"levelo://app?vid=87faa1a9-d605-45e8-80cf-9cbd6362b719","ios":"levelo://app?vid=87faa1a9-d605-45e8-80cf-9cbd6362b719"},"vehicle_type_id":"4","last_reported":1737551771,"current_range_meters":16800,"station_id":"ce4bgl12rcd13ifvqbo0","pricing_plan_id":"cebpf4jnsgd1na2vs0mg"},{"bike_id":"b8c90d4f-3f8a-4b55-b26b-474dd8938571","system_id":"levelo_inurba_marseille","lat":43.29525,"lon":5.37484,"is_reserved":false,"is_disabled":false,"rental_uris":{"android":"levelo://app?vid=b8c90d4f-3f8a-4b55-b26b-474dd8938571","ios":"levelo://app?vid=b8c90d4f-3f8a-4b55-b26b-474dd8938571"},"vehicle_type_id":"4","last_reported":1737551771,"current_range_meters":20400,"station_id":"ce4bgkp2rcd13ifvqbmg","pricing_plan_id":"cebpf4jnsgd1na2vs0mg"},{"bike_id":"1b38ef88-45a1-4c66-b5d9-5c5310a31145","system_id":"levelo_inurba_marseille","lat":43.26807,"lon":5.4027,"is_reserved":false,"is_disabled":false,"rental_uris":{"android":"levelo://app?vid=1b38ef88-45a1-4c66-b5d9-5c5310a31145","ios":"levelo://app?vid=1b38ef88-45a1-4c66-b5d9-5c5310a31145"},"vehicle_type_id":"4","last_reported":1737551771,"current_range_meters":14800,"station_id":"ce501612rcd8frsf0b60","pricing_plan_id":"cebpf4jnsgd1na2vs0mg"},{"bike_id":"a4ffcc1c-f07a-4480-8f2e-95f5309cc93e","system_id":"levelo_inurba_marseille","lat":43.25483,"lon":5.3766,"is_reserved":false,"is_disabled":false,"rental_uris":{"android":"levelo://app?vid=a4ffcc1c-f07a-4480-8f2e-95f5309cc93e","ios":"levelo://app?vid=a4ffcc1c-f07a-4480-8f2e-95f5309cc93e"},"vehicle_type_id":"4","last_reported":1737551771,"current_range_meters":39200,"station_id":"ce4bhh12rcd13ifvqff0","pricing_plan_id":"cebpf4jnsgd1na2vs0mg"},{"bike_id":"d0f83ca8-9ae5-472a-a447-2229d84a32d1","system_id":"levelo_inurba_marseille","lat":43.3236,"lon":5.36768,"is_reserved":false,"is_disabled":false,"rental_uris":{"android":"levelo://app?vid=d0f83ca8-9ae5-472a-a447-2229d84a32d1","ios":"levelo://app?vid=d0f83ca8-9ae5-472a-a447-2229d84a32d1"},"vehicle_type_id":"4","last_reported":1737551771,"current_range_meters":28000,"station_id":"ce4bhsh2rcd13ifvqi2g","pricing_plan_id":"cebpf4jnsgd1na2vs0mg"},{"bike_id":"3504234b-91bd-43e4-8868-29326074682e","system_id":"levelo_inurba_marseille","lat":43.29556,"lon":5.42296,"is_reserved":false,"is_disabled":false,"rental_uris":{"android":"levelo://app?vid=3504234b-91bd-43e4-8868-29326074682e","ios":"levelo://app?vid=3504234b-91bd-43e4-8868-29326074682e"},"vehicle_type_id":"4","last_reported":1737551771,"current_range_meters":20800,"station_id":"ce4bhph2rcd13ifvqhdg","pricing_plan_id":"cebpf4jnsgd1na2vs0mg"},{"bike_id":"6f824729-72f6-40e3-a22d-9f70ac2c6041","system_id":"levelo_inurba_marseille","lat":43.30544,"lon":5.36522,"is_reserved":false,"is_disabled":false,"rental_uris":{"android":"levelo://app?vid=6f824729-72f6-40e3-a22d-9f70ac2c6041","ios":"levelo://app?vid=6f824729-72f6-40e3-a22d-9f70ac2c6041"},"vehicle_type_id":"4","last_reported":1737551771,"current_range_meters":30800,"station_id":"ce4bgs12rcd13ifvqcag","pricing_plan_id":"cebpf4jnsgd1na2vs0mg"},{"bike_id":"f5b52696-dada-4db8-ac63-486420d431ea","system_id":"levelo_inurba_marseille","lat":43.24654,"lon":5.38898,"is_reserved":false,"is_disabled":false,"rental_uris":{"android":"levelo://app?vid=f5b52696-dada-4db8-ac63-486420d431ea","ios":"levelo://app?vid=f5b52696-dada-4db8-ac63-486420d431ea"},"vehicle_type_id":"4","last_reported":1737551771,"current_range_meters":38800,"station_id":"ce4bhg12rcd13ifvqf60","pricing_plan_id":"cebpf4jnsgd1na2vs0mg"},{"bike_id":"67406dea-6b4a-4664-a7b5-eb12a6267ed8","system_id":"levelo_inurba_marseille","lat":43.32289,"lon":5.38284,"is_reserved":false,"is_disabled":false,"rental_uris":{"android":"levelo://app?vid=67406dea-6b4a-4664-a7b5-eb12a6267ed8","ios":"levelo://app?vid=67406dea-6b4a-4664-a7b5-eb12a6267ed8"},"vehicle_type_id":"4","last_reported":1737551771,"current_range_meters":24400,"station_id":"ce4bhr12rcd13ifvqhqg","pricing_plan_id":"cebpf4jnsgd1na2vs0mg"},{"bike_id":"f6af6aef-3841-40a7-9b6f-9e2ad2b736bf","system_id":"levelo_inurba_marseille","lat":43.29003,"lon":5.35615,"is_reserved":false,"is_disabled":false,"rental_uris":{"android":"levelo://app?vid=f6af6aef-3841-40a7-9b6f-9e2ad2b736bf","ios":"levelo://app?vid=f6af6aef-3841-40a7-9b6f-9e2ad2b736bf"},"vehicle_type_id":"4","last_reported":1737551771,"current_range_meters":38800,"station_id":"ce4bhb92rcd13ifvqen0","pricing_plan_id":"cebpf4jnsgd1na2vs0mg"},{"bike_id":"b2fef445-19f8-4583-a8e0-7c28dcf1a0a7","system_id":"levelo_inurba_marseille","lat":43.30152,"lon":5.39848,"is_reserved":false,"is_disabled":true,"rental_uris":{"android":"levelo://app?vid=b2fef445-19f8-4583-a8e0-7c28dcf1a0a7","ios":"levelo://app?vid=b2fef445-19f8-4583-a8e0-7c28dcf1a0a7"},"vehicle_type_id":"4","last_reported":1737551771,"current_range_meters":0,"station_id":"ce4bh0h2rcd13ifvqd40","pricing_plan_id":"cebpf4jnsgd1na2vs0mg"},{"bike_id":"7b9618e5-f073-41a0-b410-007d3084e088","system_id":"levelo_inurba_marseille","lat":43.30934,"lon":5.40146,"is_reserved":false,"is_disabled":false,"rental_uris":{"android":"levelo://app?vid=7b9618e5-f073-41a0-b410-007d3084e088","ios":"levelo://app?vid=7b9618e5-f073-41a0-b410-007d3084e088"},"vehicle_type_id":"4","last_reported":1737551771,"current_range_meters":37600,"station_id":"ce4bgvp2rcd13ifvqct0","pricing_plan_id":"cebpf4jnsgd1na2vs0mg"},{"bike_id":"fc10c96f-66ce-4601-bb14-a5feb1ce78f0","system_id":"levelo_inurba_marseille","lat":43.30183,"lon":5.37425,"is_reserved":false,"is_disabled":false,"rental_uris":{"android":"levelo://app?vid=fc10c96f-66ce-4601-bb14-a5feb1ce78f0","ios":"levelo://app?vid=fc10c96f-66ce-4601-bb14-a5feb1ce78f0"},"vehicle_type_id":"4","last_reported":1737551771,"current_range_meters":4000,"station_id":"ce4bgs92rcd13ifvqcc0","pricing_plan_id":"cebpf4jnsgd1na2vs0mg"},{"bike_id":"9d897738-a396-404a-8b40-b317117a1268","system_id":"levelo_inurba_marseille","lat":43.28147,"lon":5.42644,"is_reserved":false,"is_disabled":true,"rental_uris":{"android":"levelo://app?vid=9d897738-a396-404a-8b40-b317117a1268","ios":"levelo://app?vid=9d897738-a396-404a-8b40-b317117a1268"},"vehicle_type_id":"4","last_reported":1737551771,"current_range_meters":0,"station_id":"ce4bhnh2rcd13ifvqgug","pricing_plan_id":"cebpf4jnsgd1na2vs0mg"},{"bike_id":"bda40032-ae81-40f3-9885-73c2f8a4c2f3","system_id":"levelo_inurba_marseille","lat":43.28942,"lon":5.36629,"is_reserved":false,"is_disabled":false,"rental_uris":{"android":"levelo://app?vid=bda40032-ae81-40f3-9885-73c2f8a4c2f3","ios":"levelo://app?vid=bda40032-ae81-40f3-9885-73c2f8a4c2f3"},"vehicle_type_id":"4","last_reported":1737551771,"current_range_meters":36000,"station_id":"ce4bhap2rcd13ifvqek0","pricing_plan_id":"cebpf4jnsgd1na2vs0mg"},{"bike_id":"1cacc39b-8464-4517-8719-a5b46245be93","system_id":"levelo_inurba_marseille","lat":43.31085,"lon":5.42428,"is_reserved":false,"is_disabled":false,"rental_uris":{"android":"levelo://app?vid=1cacc39b-8464-4517-8719-a5b46245be93","ios":"levelo://app?vid=1cacc39b-8464-4517-8719-a5b46245be93"},"vehicle_type_id":"4","last_reported":1737551771,"current_range_meters":38800,"station_id":"ce4bhp92rcd13ifvqhag","pricing_plan_id":"cebpf4jnsgd1na2vs0mg"},{"bike_id":"cc8dd4d9-c41b-4e62-8f16-686e77afe1cc","system_id":"levelo_inurba_marseille","lat":43.278243,"lon":5.407133,"is_reserved":false,"is_disabled":false,"rental_uris":{"android":"levelo://app?vid=cc8dd4d9-c41b-4e62-8f16-686e77afe1cc","ios":"levelo://app?vid=cc8dd4d9-c41b-4e62-8f16-686e77afe1cc"},"vehicle_type_id":"4","last_reported":1737551771,"current_range_meters":39200,"station_id":"ce4bhnh2rcd13ifvqgtg","pricing_plan_id":"cebpf4jnsgd1na2vs0mg"},{"bike_id":"713b4e02-a459-45c2-8b7f-670ded946bdb","system_id":"levelo_inurba_marseille","lat":43.29629,"lon":5.37149,"is_reserved":false,"is_disabled":false,"rental_uris":{"android":"levelo://app?vid=713b4e02-a459-45c2-8b7f-670ded946bdb","ios":"levelo://app?vid=713b4e02-a459-45c2-8b7f-670ded946bdb"},"vehicle_type_id":"4","last_reported":1737551771,"current_range_meters":39200,"station_id":"ce4bgnh2rcd13ifvqc0g","pricing_plan_id":"cebpf4jnsgd1na2vs0mg"},{"bike_id":"b9a68446-aede-4d36-bcca-e0035550b060","system_id":"levelo_inurba_marseille","lat":43.29085,"lon":5.38152,"is_reserved":false,"is_disabled":false,"rental_uris":{"android":"levelo://app?vid=b9a68446-aede-4d36-bcca-e0035550b060","ios":"levelo://app?vid=b9a68446-aede-4d36-bcca-e0035550b060"},"vehicle_type_id":"4","last_reported":1737551771,"current_range_meters":32800,"station_id":"ce4bh512rcd13ifvqe2g","pricing_plan_id":"cebpf4jnsgd1na2vs0mg"},{"bike_id":"f3c3dcd7-0707-416c-82a7-5f0cb4b39c15","system_id":"levelo_inurba_marseille","lat":43.30303,"lon":5.3689,"is_reserved":false,"is_disabled":false,"rental_uris":{"android":"levelo://app?vid=f3c3dcd7-0707-416c-82a7-5f0cb4b39c15","ios":"levelo://app?vid=f3c3dcd7-0707-416c-82a7-5f0cb4b39c15"},"vehicle_type_id":"4","last_reported":1737551771,"current_range_meters":19600,"station_id":"ce4bgqh2rcd13ifvqc5g","pricing_plan_id":"cebpf4jnsgd1na2vs0mg"},{"bike_id":"38a62f0f-5642-4b4d-ab65-8ce22514d290","system_id":"levelo_inurba_marseille","lat":43.24664,"lon":5.389,"is_reserved":false,"is_disabled":false,"rental_uris":{"android":"levelo://app?vid=38a62f0f-5642-4b4d-ab65-8ce22514d290","ios":"levelo://app?vid=38a62f0f-5642-4b4d-ab65-8ce22514d290"},"vehicle_type_id":"4","last_reported":1737551771,"current_range_meters":38800,"station_id":"ce4bhg12rcd13ifvqf60","pricing_plan_id":"cebpf4jnsgd1na2vs0mg"},{"bike_id":"88ea7f03-7552-4bce-81ca-15e4a595fcdc","system_id":"levelo_inurba_marseille","lat":43.32037,"lon":5.41538,"is_reserved":false,"is_disabled":false,"rental_uris":{"android":"levelo://app?vid=88ea7f03-7552-4bce-81ca-15e4a595fcdc","ios":"levelo://app?vid=88ea7f03-7552-4bce-81ca-15e4a595fcdc"},"vehicle_type_id":"4","last_reported":1737551771,"current_range_meters":23200,"station_id":"ce4bhq92rcd13ifvqhkg","pricing_plan_id":"cebpf4jnsgd1na2vs0mg"},{"bike_id":"639da96b-6257-48a8-94dd-c06c83bce6a0","system_id":"levelo_inurba_marseille","lat":43.2707,"lon":5.42284,"is_reserved":false,"is_disabled":false,"rental_uris":{"android":"levelo://app?vid=639da96b-6257-48a8-94dd-c06c83bce6a0","ios":"levelo://app?vid=639da96b-6257-48a8-94dd-c06c83bce6a0"},"vehicle_type_id":"4","last_reported":1737551771,"current_range_meters":36000,"station_id":"ce4bhk92rcd13ifvqgb0","pricing_plan_id":"cebpf4jnsgd1na2vs0mg"},{"bike_id":"71982b72-be52-4482-bf6e-465ac623ec8c","system_id":"levelo_inurba_marseille","lat":43.27512,"lon":5.39776,"is_reserved":false,"is_disabled":false,"rental_uris":{"android":"levelo://app?vid=71982b72-be52-4482-bf6e-465ac623ec8c","ios":"levelo://app?vid=71982b72-be52-4482-bf6e-465ac623ec8c"},"vehicle_type_id":"4","last_reported":1737551771,"current_range_meters":8800,"station_id":"","pricing_plan_id":"cebpf4jnsgd1na2vs0mg"},{"bike_id":"cdad9069-5f64-49a5-9711-8106614c7600","system_id":"levelo_inurba_marseille","lat":43.28841,"lon":5.39312,"is_reserved":false,"is_disabled":false,"rental_uris":{"android":"levelo://app?vid=cdad9069-5f64-49a5-9711-8106614c7600","ios":"levelo://app?vid=cdad9069-5f64-49a5-9711-8106614c7600"},"vehicle_type_id":"4","last_reported":1737551771,"current_range_meters":21600,"station_id":"ce4bh2p2rcd13ifvqdi0","pricing_plan_id":"cebpf4jnsgd1na2vs0mg"},{"bike_id":"1f7c87db-d399-4f13-923d-8a98a4f000e9","system_id":"levelo_inurba_marseille","lat":43.23957,"lon":5.36644,"is_reserved":false,"is_disabled":false,"rental_uris":{"android":"levelo://app?vid=1f7c87db-d399-4f13-923d-8a98a4f000e9","ios":"levelo://app?vid=1f7c87db-d399-4f13-923d-8a98a4f000e9"},"vehicle_type_id":"4","last_reported":1737551771,"current_range_meters":9200,"station_id":"ce4bhi12rcd13ifvqfp0","pricing_plan_id":"cebpf4jnsgd1na2vs0mg"},{"bike_id":"50bbdc77-dc55-4a46-aed7-5ccf83de52fe","system_id":"levelo_inurba_marseille","lat":43.292,"lon":5.39315,"is_reserved":false,"is_disabled":false,"rental_uris":{"android":"levelo://app?vid=50bbdc77-dc55-4a46-aed7-5ccf83de52fe","ios":"levelo://app?vid=50bbdc77-dc55-4a46-aed7-5ccf83de52fe"},"vehicle_type_id":"4","last_reported":1737551771,"current_range_meters":24800,"station_id":"ce4bh192rcd13ifvqdd0","pricing_plan_id":"cebpf4jnsgd1na2vs0mg"},{"bike_id":"50537ac8-98c1-440f-9c64-8d280d06a39b","system_id":"levelo_inurba_marseille","lat":43.29537,"lon":5.38551,"is_reserved":false,"is_disabled":false,"rental_uris":{"android":"levelo://app?vid=50537ac8-98c1-440f-9c64-8d280d06a39b","ios":"levelo://app?vid=50537ac8-98c1-440f-9c64-8d280d06a39b"},"vehicle_type_id":"4","last_reported":1737551771,"current_range_meters":4000,"station_id":"ce4bgih2rcd13ifvqba0","pricing_plan_id":"cebpf4jnsgd1na2vs0mg"},{"bike_id":"c7aa9f67-ce9b-4a77-9ba4-672a3cde181e","system_id":"levelo_inurba_marseille","lat":43.30316,"lon":5.36897,"is_reserved":false,"is_disabled":false,"rental_uris":{"android":"levelo://app?vid=c7aa9f67-ce9b-4a77-9ba4-672a3cde181e","ios":"levelo://app?vid=c7aa9f67-ce9b-4a77-9ba4-672a3cde181e"},"vehicle_type_id":"4","last_reported":1737551771,"current_range_meters":6800,"station_id":"ce4bgqh2rcd13ifvqc5g","pricing_plan_id":"cebpf4jnsgd1na2vs0mg"},{"bike_id":"cb7322b4-1ac1-4114-8157-c83aeac75b76","system_id":"levelo_inurba_marseille","lat":43.32071,"lon":5.36802,"is_reserved":false,"is_disabled":false,"rental_uris":{"android":"levelo://app?vid=cb7322b4-1ac1-4114-8157-c83aeac75b76","ios":"levelo://app?vid=cb7322b4-1ac1-4114-8157-c83aeac75b76"},"vehicle_type_id":"4","last_reported":1737551771,"current_range_meters":22000,"station_id":"ce4bhrh2rcd13ifvqhug","pricing_plan_id":"cebpf4jnsgd1na2vs0mg"},{"bike_id":"ac5e9094-6e01-4a43-8ee7-189da8fe965a","system_id":"levelo_inurba_marseille","lat":43.32612,"lon":5.41101,"is_reserved":false,"is_disabled":false,"rental_uris":{"android":"levelo://app?vid=ac5e9094-6e01-4a43-8ee7-189da8fe965a","ios":"levelo://app?vid=ac5e9094-6e01-4a43-8ee7-189da8fe965a"},"vehicle_type_id":"4","last_reported":1737551771,"current_range_meters":6400,"station_id":"ce4bhpp2rcd13ifvqhgg","pricing_plan_id":"cebpf4jnsgd1na2vs0mg"},{"bike_id":"76fe8171-a171-4602-bb26-90651dd3df6e","system_id":"levelo_inurba_marseille","lat":43.279191,"lon":5.411966,"is_reserved":false,"is_disabled":true,"rental_uris":{"android":"levelo://app?vid=76fe8171-a171-4602-bb26-90651dd3df6e","ios":"levelo://app?vid=76fe8171-a171-4602-bb26-90651dd3df6e"},"vehicle_type_id":"4","last_reported":1737551771,"current_range_meters":0,"station_id":"","pricing_plan_id":"cebpf4jnsgd1na2vs0mg"},{"bike_id":"2c115182-c42c-491c-9297-b7a7447bfbd5","system_id":"levelo_inurba_marseille","lat":43.292256,"lon":5.360629,"is_reserved":false,"is_disabled":false,"rental_uris":{"android":"levelo://app?vid=2c115182-c42c-491c-9297-b7a7447bfbd5","ios":"levelo://app?vid=2c115182-c42c-491c-9297-b7a7447bfbd5"},"vehicle_type_id":"4","last_reported":1737551771,"current_range_meters":34800,"station_id":"ce4bhbh2rcd13ifvqeqg","pricing_plan_id":"cebpf4jnsgd1na2vs0mg"},{"bike_id":"58d4fe39-be91-4520-9307-1adcc3a01557","system_id":"levelo_inurba_marseille","lat":43.27835,"lon":5.39212,"is_reserved":false,"is_disabled":false,"rental_uris":{"android":"levelo://app?vid=58d4fe39-be91-4520-9307-1adcc3a01557","ios":"levelo://app?vid=58d4fe39-be91-4520-9307-1adcc3a01557"},"vehicle_type_id":"4","last_reported":1737551771,"current_range_meters":11600,"station_id":"ce4bhjp2rcd13ifvqga0","pricing_plan_id":"cebpf4jnsgd1na2vs0mg"},{"bike_id":"05eefeca-618b-4f43-bbb2-cd86ee63b097","system_id":"levelo_inurba_marseille","lat":43.23193,"lon":5.35561,"is_reserved":false,"is_disabled":false,"rental_uris":{"android":"levelo://app?vid=05eefeca-618b-4f43-bbb2-cd86ee63b097","ios":"levelo://app?vid=05eefeca-618b-4f43-bbb2-cd86ee63b097"},"vehicle_type_id":"4","last_reported":1737551771,"current_range_meters":30400,"station_id":"ce4bhu92rcd13ifvqi70","pricing_plan_id":"cebpf4jnsgd1na2vs0mg"},{"bike_id":"4ab6bab9-65ef-4a48-b3d5-29619c43e132","system_id":"levelo_inurba_marseille","lat":43.23184,"lon":5.39985,"is_reserved":false,"is_disabled":false,"rental_uris":{"android":"levelo://app?vid=4ab6bab9-65ef-4a48-b3d5-29619c43e132","ios":"levelo://app?vid=4ab6bab9-65ef-4a48-b3d5-29619c43e132"},"vehicle_type_id":"4","last_reported":1737551771,"current_range_meters":32400,"station_id":"ce4bhn12rcd13ifvqgqg","pricing_plan_id":"cebpf4jnsgd1na2vs0mg"},{"bike_id":"2269f299-8387-4ed7-b380-ae3324ba50c0","system_id":"levelo_inurba_marseille","lat":43.28265,"lon":5.35075,"is_reserved":false,"is_disabled":false,"rental_uris":{"android":"levelo://app?vid=2269f299-8387-4ed7-b380-ae3324ba50c0","ios":"levelo://app?vid=2269f299-8387-4ed7-b380-ae3324ba50c0"},"vehicle_type_id":"4","last_reported":1737551771,"current_range_meters":29600,"station_id":"ce4bhbp2rcd13ifvqerg","pricing_plan_id":"cebpf4jnsgd1na2vs0mg"},{"bike_id":"66af6a21-136c-488c-a2d1-a85012fbfa02","system_id":"levelo_inurba_marseille","lat":43.23155,"lon":5.43703,"is_reserved":false,"is_disabled":false,"rental_uris":{"android":"levelo://app?vid=66af6a21-136c-488c-a2d1-a85012fbfa02","ios":"levelo://app?vid=66af6a21-136c-488c-a2d1-a85012fbfa02"},"vehicle_type_id":"4","last_reported":1737551771,"current_range_meters":16400,"station_id":"ce4bhmp2rcd13ifvqgog","pricing_plan_id":"cebpf4jnsgd1na2vs0mg"},