{"last_updated":1767802682,"ttl":60,"version":"2.2","data":{"bikes":[{"bike_id":"e67ff8dc-5e9c-4d05-a8d9-0b82aac4d6dc","system_id":"levelo_inurba_marseille","lat":43.27058,"lon":5.40257,"is_reserved":false,"is_disabled":false,"rental_uris":{"android":"levelo://app?vid=e67ff8dc-5e9c-4d05-a8d9-0b82aac4d6dc","ios":"levelo://app?vid=e67ff8dc-5e9c-4d05-a8d9-0b82aac4d6dc"},"vehicle_type_id":"4","last_reported":1767802683,"current_range_meters":2800,"station_id":"ce4bhk92rcd13ifvqgc0","pricing_plan_id":"cebpf4jnsgd1na2vs0mg"},{"bike_id":"5c78052d-8b4f-4e51-8ddb-87be6fb225ca","system_id":"levelo_inurba_marseille","lat":43.23197,"lon":5.35564,"is_reserved":false,"is_disabled":false,"rental_uris":{"android":"levelo://app?vid=5c78052d-8b4f-4e51-8ddb-87be6fb225ca","ios":"levelo://app?vid=5c78052d-8b4f-4e51-8ddb-87be6fb225ca"},"vehicle_type_id":"4","last_reported":1767802683,"current_range_meters":2800,"station_id":"ce4bhu92rcd13ifvqi70","pricing_plan_id":"cebpf4jnsgd1na2vs0mg"},{"bike_id":"9543aad1-f2c5-4f3f-ab6a-e1b8918ce8ce","system_id":"levelo_inurba_marseille","lat":43.29899,"lon":5.38499,"is_reserved":false,"is_disabled":false,"rental_uris":{"android":"levelo://app?vid=9543aad1-f2c5-4f3f-ab6a-e1b8918ce8ce","ios":"levelo://app?vid=9543aad1-f2c5-4f3f-ab6a-e1b8918ce8ce"},"vehicle_type_id":"4","last_reported":1767802683,"current_range_meters":2800,"station_id":"","pricing_plan_id":"cebpf4jnsgd1na2vs0mg"},{"bike_id":"de695034-1c82-42cc-92af-62b404725db8","system_id":"levelo_inurba_marseille","lat":43.297294,"lon":5.38032,"is_reserved":false,"is_disabled":false,"rental_uris":{"android":"levelo://app?vid=de695034-1c82-42cc-92af-62b404725db8","ios":"levelo://app?vid=de695034-1c82-42cc-92af-62b404725db8"},"vehicle_type_id":"4","last_reported":1767802683,"current_range_meters":2800,"station_id":"","pricing_plan_id":"cebpf4jnsgd1na2vs0mg"},{"bike_id":"e271dcd8-0584-4ad8-9c29-480ecfdaeef5","system_id":"levelo_inurba_marseille","lat":43.337444,"lon":5.374475,"is_reserved":false,"is_disabled":false,"rental_uris":{"android":"levelo://app?vid=e271dcd8-0584-4ad8-9c29-480ecfdaeef5","ios":"levelo://app?vid=e271dcd8-0584-4ad8-9c29-480ecfdaeef5"},"vehicle_type_id":"4","last_reported":1767802683,"current_range_meters":2800,"station_id":"","pricing_plan_id":"cebpf4jnsgd1na2vs0mg"},{"bike_id":"51bab64f-1b87-4acc-8f72-1bf6c05e5090","system_id":"levelo_inurba_marseille","lat":43.231917,"lon":5.355514,"is_reserved":false,"is_disabled":false,"rental_uris":{"android":"levelo://app?vid=51bab64f-1b87-4acc-8f72-1bf6c05e5090","ios":"levelo://app?vid=51bab64f-1b87-4acc-8f72-1bf6c05e5090"},"vehicle_type_id":"4","last_reported":1767802683,"current_range_meters":2800,"station_id":"ce4bhu92rcd13ifvqi70","pricing_plan_id":"cebpf4jnsgd1na2vs0mg"},{"bike_id":"bf0a0489-ec91-406d-a7a0-4b4e36bfc3bb","system_id":"levelo_inurba_marseille","lat":43.229333,"lon":5.353798,"is_reserved":false,"is_disabled":false,"rental_uris":{"android":"levelo://app?vid=bf0a0489-ec91-406d-a7a0-4b4e36bfc3bb","ios":"levelo://app?vid=bf0a0489-ec91-406d-a7a0-4b4e36bfc3bb"},"vehicle_type_id":"4","last_reported":1767802683,"current_range_meters":2800,"station_id":"cpo3532slgdg3j2ikp40","pricing_plan_id":"cebpf4jnsgd1na2vs0mg"},{"bike_id":"1b240573-af7c-4639-b255-1918d3ddd5a2","system_id":"levelo_inurba_marseille","lat":43.30543,"lon":5.36553,"is_reserved":false,"is_disabled":false,"rental_uris":{"android":"levelo://app?vid=1b240573-af7c-4639-b255-1918d3ddd5a2","ios":"levelo://app?vid=1b240573-af7c-4639-b255-1918d3ddd5a2"},"vehicle_type_id":"4","last_reported":1767802683,"current_range_meters":2800,"station_id":"ce4bgs12rcd13ifvqcag","pricing_plan_id":"cebpf4jnsgd1na2vs0mg"},{"bike_id":"9265da08-af6b-41f8-a564-a7a5e4a8d66e","system_id":"levelo_inurba_marseille","lat":43.28483,"lon":5.48393,"is_reserved":false,"is_disabled":false,"rental_uris":{"android":"levelo://app?vid=9265da08-af6b-41f8-a564-a7a5e4a8d66e","ios":"levelo://app?vid=9265da08-af6b-41f8-a564-a7a5e4a8d66e"},"vehicle_type_id":"4","last_reported":1767802683,"current_range_meters":2800,"station_id":"","pricing_plan_id":"cebpf4jnsgd1na2vs0mg"},{"bike_id":"fa53338b-6e99-4c30-914a-bfec8c10d025","system_id":"levelo_inurba_marseille","lat":43.28708,"lon":5.37385,"is_reserved":false,"is_disabled":false,"rental_uris":{"android":"levelo://app?vid=fa53338b-6e99-4c30-914a-bfec8c10d025","ios":"levelo://app?vid=fa53338b-6e99-4c30-914a-bfec8c10d025"},"vehicle_type_id":"4","last_reported":1767802683,"current_range_meters":2800,"station_id":"ce4bh3p2rcd13ifvqdq0","pricing_plan_id":"cebpf4jnsgd1na2vs0mg"},{"bike_id":"ac31bea5-0179-47a9-a8f9-4edcadbef3b6","system_id":"levelo_inurba_marseille","lat":43.233799,"lon":5.399416,"is_reserved":false,"is_disabled":false,"rental_uris":{"android":"levelo://app?vid=ac31bea5-0179-47a9-a8f9-4edcadbef3b6","ios":"levelo://app?vid=ac31bea5-0179-47a9-a8f9-4edcadbef3b6"},"vehicle_type_id":"4","last_reported":1767802683,"current_range_meters":2800,"station_id":"ce4bhn12rcd13ifvqgqg","pricing_plan_id":"cebpf4jnsgd1na2vs0mg"},{"bike_id":"9429cadb-a739-4f5f-8c2b-cc91a27439eb","system_id":"levelo_inurba_marseille","lat":43.27689,"lon":5.42018,"is_reserved":false,"is_disabled":false,"rental_uris":{"android":"levelo://app?vid=9429cadb-a739-4f5f-8c2b-cc91a27439eb","ios":"levelo://app?vid=9429cadb-a739-4f5f-8c2b-cc91a27439eb"},"vehicle_type_id":"4","last_reported":1767802683,"current_range_meters":3200,"station_id":"","pricing_plan_id":"cebpf4jnsgd1na2vs0mg"},{"bike_id":"65adcb48-fd70-4e3a-9d63-9c88a9b10948","system_id":"levelo_inurba_marseille","lat":43.290077,"lon":5.35616,"is_reserved":false,"is_disabled":false,"rental_uris":{"android":"levelo://app?vid=65adcb48-fd70-4e3a-9d63-9c88a9b10948","ios":"levelo://app?vid=65adcb48-fd70-4e3a-9d63-9c88a9b10948"},"vehicle_type_id":"4","last_reported":1767802683,"current_range_meters":3200,"station_id":"ce4bhb92rcd13ifvqen0","pricing_plan_id":"cebpf4jnsgd1na2vs0mg"},{"bike_id":"a3da1827-148b-41c2-bd04-cbeb3bb21a64","system_id":"levelo_inurba_marseille","lat":43.2796,"lon":5.38734,"is_reserved":false,"is_disabled":false,"rental_uris":{"android":"levelo://app?vid=a3da1827-148b-41c2-bd04-cbeb3bb21a64","ios":"levelo://app?vid=a3da1827-148b-41c2-bd04-cbeb3bb21a64"},"vehicle_type_id":"4","last_reported":1767802683,"current_range_meters":3200,"station_id":"ce4bhg12rcd13ifvqf80","pricing_plan_id":"cebpf4jnsgd1na2vs0mg"},{"bike_id":"174e0a88-28ce-484e-8861-adcbe3a929da","system_id":"levelo_inurba_marseille","lat":43.28482,"lon":5.4837,"is_reserved":false,"is_disabled":false,"rental_uris":{"android":"levelo://app?vid=174e0a88-28ce-484e-8861-adcbe3a929da","ios":"levelo://app?vid=174e0a88-28ce-484e-8861-adcbe3a929da"},"vehicle_type_id":"4","last_reported":1767802683,"current_range_meters":3200,"station_id":"st_d3svhcjqgbts73a3dn0g","pricing_plan_id":"cebpf4jnsgd1na2vs0mg"},{"bike_id":"22dae6dd-dbc9-43ba-ba0a-32a2f351161b","system_id":"levelo_inurba_marseille","lat":43.30534,"lon":5.36724,"is_reserved":false,"is_disabled":false,"rental_uris":{"android":"levelo://app?vid=22dae6dd-dbc9-43ba-ba0a-32a2f351161b","ios":"levelo://app?vid=22dae6dd-dbc9-43ba-ba0a-32a2f351161b"},"vehicle_type_id":"4","last_reported":1767802683,"current_range_meters":3200,"station_id":"ce4bgrp2rcd13ifvqc9g","pricing_plan_id":"cebpf4jnsgd1na2vs0mg"},{"bike_id":"2b249141-87e2-4eaa-8d21-183c28a1a8bb","system_id":"levelo_inurba_marseille","lat":43.29733,"lon":5.42801,"is_reserved":false,"is_disabled":false,"rental_uris":{"android":"levelo://app?vid=2b249141-87e2-4eaa-8d21-183c28a1a8bb","ios":"levelo://app?vid=2b249141-87e2-4eaa-8d21-183c28a1a8bb"},"vehicle_type_id":"4","last_reported":1767802683,"current_range_meters":3200,"station_id":"st_d3md5207bmas73dh9klg","pricing_plan_id":"cebpf4jnsgd1na2vs0mg"},{"bike_id":"0f76b725-25a7-442c-bd28-f203e0a1c854","system_id":"levelo_inurba_marseille","lat":43.28709,"lon":5.37944,"is_reserved":false,"is_disabled":false,"rental_uris":{"android":"levelo://app?vid=0f76b725-25a7-442c-bd28-f203e0a1c854","ios":"levelo://app?vid=0f76b725-25a7-442c-bd28-f203e0a1c854"},"vehicle_type_id":"4","last_reported":1767802683,"current_range_meters":3200,"station_id":"ce4bh9p2rcd13ifvqec0","pricing_plan_id":"cebpf4jnsgd1na2vs0mg"},{"bike_id":"8dd00c8e-127a-4f78-9978-00ae12ba39cf","system_id":"levelo_inurba_marseille","lat":43.27205,"lon":5.39175,"is_reserved":false,"is_disabled":false,"rental_uris":{"android":"levelo://app?vid=8dd00c8e-127a-4f78-9978-00ae12ba39cf","ios":"levelo://app?vid=8dd00c8e-127a-4f78-9978-00ae12ba39cf"},"vehicle_type_id":"4","last_reported":1767802683,"current_range_meters":3600,"station_id":"ce4bhhp2rcd13ifvqfm0","pricing_plan_id":"cebpf4jnsgd1na2vs0mg"},{"bike_id":"866cbf02-10bc-476d-9ed8-8f69f9e4fe4a","system_id":"levelo_inurba_marseille","lat":43.28681,"lon":5.38696,"is_reserved":false,"is_disabled":false,"rental_uris":{"android":"levelo://app?vid=866cbf02-10bc-476d-9ed8-8f69f9e4fe4a","ios":"levelo://app?vid=866cbf02-10bc-476d-9ed8-8f69f9e4fe4a"},"vehicle_type_id":"4","last_reported":1767802683,"current_range_meters":3600,"station_id":"ce4bh492rcd13ifvqdug","pricing_plan_id":"cebpf4jnsgd1na2vs0mg"},{"bike_id":"6a37a502-8a4f-4bc7-83bd-16348e8cf97e","system_id":"levelo_inurba_marseille","lat":43.32086,"lon":5.36763,"is_reserved":false,"is_disabled":false,"rental_uris":{"android":"levelo://app?vid=6a37a502-8a4f-4bc7-83bd-16348e8cf97e","ios":"levelo://app?vid=6a37a502-8a4f-4bc7-83bd-16348e8cf97e"},"vehicle_type_id":"4","last_reported":1767802683,"current_range_meters":3600,"station_id":"ce4bhrh2rcd13ifvqhug","pricing_plan_id":"cebpf4jnsgd1na2vs0mg"},{"bike_id":"2af0ce7c-ca3c-4dfe-9ab3-190f23e26597","system_id":"levelo_inurba_marseille","lat":43.238731,"lon":5.365227,"is_reserved":false,"is_disabled":false,"rental_uris":{"android":"levelo://app?vid=2af0ce7c-ca3c-4dfe-9ab3-190f23e26597","ios":"levelo://app?vid=2af0ce7c-ca3c-4dfe-9ab3-190f23e26597"},"vehicle_type_id":"4","last_reported":1767802683,"current_range_meters":3600,"station_id":"","pricing_plan_id":"cebpf4jnsgd1na2vs0mg"},{"bike_id":"1cc14a4e-8f2c-4bea-9c25-f855a4eff001","system_id":"levelo_inurba_marseille","lat":43.28621,"lon":5.35102,"is_reserved":false,"is_disabled":false,"rental_uris":{"android":"levelo://app?vid=1cc14a4e-8f2c-4bea-9c25-f855a4eff001","ios":"levelo://app?vid=1cc14a4e-8f2c-4bea-9c25-f855a4eff001"},"vehicle_type_id":"4","last_reported":1767802683,"current_range_meters":3600,"station_id":"ce4bhch2rcd13ifvqeug","pricing_plan_id":"cebpf4jnsgd1na2vs0mg"},{"bike_id":"6c497e6d-f387-4486-b6c4-b3361d5d69f2","system_id":"levelo_inurba_marseille","lat":43.26786,"lon":5.39423,"is_reserved":false,"is_disabled":false,"rental_uris":{"android":"levelo://app?vid=6c497e6d-f387-4486-b6c4-b3361d5d69f2","ios":"levelo://app?vid=6c497e6d-f387-4486-b6c4-b3361d5d69f2"},"vehicle_type_id":"4","last_reported":1767802683,"current_range_meters":3600,"station_id":"ce4bhh12rcd13ifvqfg0","pricing_plan_id":"cebpf4jnsgd1na2vs0mg"},{"bike_id":"d1627a0d-fb02-4969-920f-75f1997014dd","system_id":"levelo_inurba_marseille","lat":43.2871,"lon":5.37935,"is_reserved":false,"is_disabled":false,"rental_uris":{"android":"levelo://app?vid=d1627a0d-fb02-4969-920f-75f1997014dd","ios":"levelo://app?vid=d1627a0d-fb02-4969-920f-75f1997014dd"},"vehicle_type_id":"4","last_reported":1767802683,"current_range_meters":3600,"station_id":"ce4bh9p2rcd13ifvqec0","pricing_plan_id":"cebpf4jnsgd1na2vs0mg"},{"bike_id":"b873d448-1951-4df5-bd2c-5e9d96c8aae5","system_id":"levelo_inurba_marseille","lat":43.23785,"lon":5.3663,"is_reserved":false,"is_disabled":false,"rental_uris":{"android":"levelo://app?vid=b873d448-1951-4df5-bd2c-5e9d96c8aae5","ios":"levelo://app?vid=b873d448-1951-4df5-bd2c-5e9d96c8aae5"},"vehicle_type_id":"4","last_reported":1767802683,"current_range_meters":3600,"station_id":"st_d3nk18o9ro0c73en2l3g","pricing_plan_id":"cebpf4jnsgd1na2vs0mg"},{"bike_id":"36ad54bd-6900-4d45-b396-dc0833c9b32a","system_id":"levelo_inurba_marseille","lat":43.286103,"lon":5.370637,"is_reserved":false,"is_disabled":false,"rental_uris":{"android":"levelo://app?vid=36ad54bd-6900-4d45-b396-dc0833c9b32a","ios":"levelo://app?vid=36ad54bd-6900-4d45-b396-dc0833c9b32a"},"vehicle_type_id":"4","last_reported":1767802683,"current_range_meters":3600,"station_id":"ce4bht12rcd13ifvqi60","pricing_plan_id":"cebpf4jnsgd1na2vs0mg"},{"bike_id":"a60e859d-20a7-4efc-ab94-0c4ccc8ad025","system_id":"levelo_inurba_marseille","lat":43.30641,"lon":5.36589,"is_reserved":false,"is_disabled":false,"rental_uris":{"android":"levelo://app?vid=a60e859d-20a7-4efc-ab94-0c4ccc8ad025","ios":"levelo://app?vid=a60e859d-20a7-4efc-ab94-0c4ccc8ad025"},"vehicle_type_id":"4","last_reported":1767802683,"current_range_meters":4000,"station_id":"","pricing_plan_id":"cebpf4jnsgd1na2vs0mg"},{"bike_id":"6eb221bd-dee6-40a4-b98b-ed096afa0d58","system_id":"levelo_inurba_marseille","lat":43.30191,"lon":5.36612,"is_reserved":false,"is_disabled":false,"rental_uris":{"android":"levelo://app?vid=6eb221bd-dee6-40a4-b98b-ed096afa0d58","ios":"levelo://app?vid=6eb221bd-dee6-40a4-b98b-ed096afa0d58"},"vehicle_type_id":"4","last_reported":1767802683,"current_range_meters":4000,"station_id":"ce4bgrh2rcd13ifvqc8g","pricing_plan_id":"cebpf4jnsgd1na2vs0mg"},{"bike_id":"a62f755c-0594-4995-adfb-f9cdd27d3e8f","system_id":"levelo_inurba_marseille","lat":43.2854,"lon":5.441,"is_reserved":false,"is_disabled":false,"rental_uris":{"android":"levelo://app?vid=a62f755c-0594-4995-adfb-f9cdd27d3e8f","ios":"levelo://app?vid=a62f755c-0594-4995-adfb-f9cdd27d3e8f"},"vehicle_type_id":"4","last_reported":1767802683,"current_range_meters":4000,"station_id":"st_d3j3df2ikq2c7380ej80","pricing_plan_id":"cebpf4jnsgd1na2vs0mg"},{"bike_id":"15bf6c3d-bc89-4e44-bfe7-ef27538e093c","system_id":"levelo_inurba_marseille","lat":43.24632,"lon":5.43141,"is_reserved":false,"is_disabled":false,"rental_uris":{"android":"levelo://app?vid=15bf6c3d-bc89-4e44-bfe7-ef27538e093c","ios":"levelo://app?vid=15bf6c3d-bc89-4e44-bfe7-ef27538e093c"},"vehicle_type_id":"4","last_reported":1767802683,"current_range_meters":4000,"station_id":"st_d2m6c4gdas8pm72e190g","pricing_plan_id":"cebpf4jnsgd1na2vs0mg"},{"bike_id":"7bd831a5-bbed-4e5f-bdc0-ea1a39e5b93f","system_id":"levelo_inurba_marseille","lat":43.26795,"lon":5.39418,"is_reserved":false,"is_disabled":false,"rental_uris":{"android":"levelo://app?vid=7bd831a5-bbed-4e5f-bdc0-ea1a39e5b93f","ios":"levelo://app?vid=7bd831a5-bbed-4e5f-bdc0-ea1a39e5b93f"},"vehicle_type_id":"4","last_reported":1767802683,"current_range_meters":4000,"station_id":"ce4bhh12rcd13ifvqfg0","pricing_plan_id":"cebpf4jnsgd1na2vs0mg"},{"bike_id":"f8a58811-03f1-4c8e-ae29-b6a74c03d913","system_id":"levelo_inurba_marseille","lat":43.30598,"lon":5.37234,"is_reserved":false,"is_disabled":false,"rental_uris":{"android":"levelo://app?vid=f8a58811-03f1-4c8e-ae29-b6a74c03d913","ios":"levelo://app?vid=f8a58811-03f1-4c8e-ae29-b6a74c03d913"},"vehicle_type_id":"4","last_reported":1767802683,"current_range_meters":4000,"station_id":"ce4bgqh2rcd13ifvqc4g","pricing_plan_id":"cebpf4jnsgd1na2vs0mg"},{"bike_id":"b8408ccb-17d0-4ba3-b31e-918a33cf6e7d","system_id":"levelo_inurba_marseille","lat":43.24672,"lon":5.38167,"is_reserved":false,"is_disabled":true,"rental_uris":{"android":"levelo://app?vid=b8408ccb-17d0-4ba3-b31e-918a33cf6e7d","ios":"levelo://app?vid=b8408ccb-17d0-4ba3-b31e-918a33cf6e7d"},"vehicle_type_id":"4","last_reported":1767802683,"current_range_meters":4000,"station_id":"ce4bhih2rcd13ifvqfr0","pricing_plan_id":"cebpf4jnsgd1na2vs0mg"},{"bike_id":"26d37127-044c-47be-ba5b-4db96f624f5b","system_id":"levelo_inurba_marseille","lat":43.27211,"lon":5.39173,"is_reserved":false,"is_disabled":false,"rental_uris":{"android":"levelo://app?vid=26d37127-044c-47be-ba5b-4db96f624f5b","ios":"levelo://app?vid=26d37127-044c-47be-ba5b-4db96f624f5b"},"vehicle_type_id":"4","last_reported":1767802683,"current_range_meters":4000,"station_id":"ce4bhhp2rcd13ifvqfm0","pricing_plan_id":"cebpf4jnsgd1na2vs0mg"},{"bike_id":"9b21424a-1587-45e4-bf2a-4284accabf77","system_id":"levelo_inurba_marseille","lat":43.28479,"lon":5.484057,"is_reserved":false,"is_disabled":false,"rental_uris":{"android":"levelo://app?vid=9b21424a-1587-45e4-bf2a-4284accabf77","ios":"levelo://app?vid=9b21424a-1587-45e4-bf2a-4284accabf77"},"vehicle_type_id":"4","last_reported":1767802683,"current_range_meters":4000,"station_id":"","pricing_plan_id":"cebpf4jnsgd1na2vs0mg"},{"bike_id":"d2201747-bdee-4fca-872c-80a5ab417c3a","system_id":"levelo_inurba_marseille","lat":43.27217,"lon":5.39183,"is_reserved":false,"is_disabled":false,"rental_uris":{"android":"levelo://app?vid=d2201747-bdee-4fca-872c-80a5ab417c3a","ios":"levelo://app?vid=d2201747-bdee-4fca-872c-80a5ab417c3a"},"vehicle_type_id":"4","last_reported":1767802683,"current_range_meters":4000,"station_id":"ce4bhhp2rcd13ifvqfm0","pricing_plan_id":"cebpf4jnsgd1na2vs0mg"},{"bike_id":"ec9151c6-ee9c-4077-aff2-0feb9119b58e","system_id":"levelo_inurba_marseille","lat":43.271442,"lon":5.399651,"is_reserved":false,"is_disabled":false,"rental_uris":{"android":"levelo://app?vid=ec9151c6-ee9c-4077-aff2-0feb9119b58e","ios":"levelo://app?vid=ec9151c6-ee9c-4077-aff2-0feb9119b58e"},"vehicle_type_id":"4","last_reported":1767802683,"current_range_meters":4000,"station_id":"","pricing_plan_id":"cebpf4jnsgd1na2vs0mg"},{"bike_id":"3ccfa396-c0da-4ddf-8833-0349b4b7748a","system_id":"levelo_inurba_marseille","lat":43.26552,"lon":5.37282,"is_reserved":false,"is_disabled":false,"rental_uris":{"android":"levelo://app?vid=3ccfa396-c0da-4ddf-8833-0349b4b7748a","ios":"levelo://app?vid=3ccfa396-c0da-4ddf-8833-0349b4b7748a"},"vehicle_type_id":"4","last_reported":1767802683,"current_range_meters":4400,"station_id":"ce4bhg12rcd13ifvqf70","pricing_plan_id":"cebpf4jnsgd1na2vs0mg"},{"bike_id":"55a802b4-e353-46ec-8234-30b8b13627a1","system_id":"levelo_inurba_marseille","lat":43.311857,"lon":5.387218,"is_reserved":false,"is_disabled":false,"rental_uris":{"android":"levelo://app?vid=55a802b4-e353-46ec-8234-30b8b13627a1","ios":"levelo://app?vid=55a802b4-e353-46ec-8234-30b8b13627a1"},"vehicle_type_id":"4","last_reported":1767802683,"current_range_meters":4400,"station_id":"ce4bgv12rcd13ifvqcp0","pricing_plan_id":"cebpf4jnsgd1na2vs0mg"},{"bike_id":"72ba40ff-3811-448f-9824-0a29539e09d4","system_id":"levelo_inurba_marseille","lat":43.2256,"lon":5.41629,"is_reserved":false,"is_disabled":false,"rental_uris":{"android":"levelo://app?vid=72ba40ff-3811-448f-9824-0a29539e09d4","ios":"levelo://app?vid=72ba40ff-3811-448f-9824-0a29539e09d4"},"vehicle_type_id":"4","last_reported":1767802683,"current_range_meters":4400,"station_id":"st_d2o4gvlbi1j2169b742g","pricing_plan_id":"cebpf4jnsgd1na2vs0mg"},{"bike_id":"200870b4-eee2-4f01-80fe-52b73141facc","system_id":"levelo_inurba_marseille","lat":43.26367,"lon":5.41083,"is_reserved":false,"is_disabled":false,"rental_uris":{"android":"levelo://app?vid=200870b4-eee2-4f01-80fe-52b73141facc","ios":"levelo://app?vid=200870b4-eee2-4f01-80fe-52b73141facc"},"vehicle_type_id":"4","last_reported":1767802683,"current_range_meters":4400,"station_id":"st_d4e5ca6na9uc73bfl5fg","pricing_plan_id":"cebpf4jnsgd1na2vs0mg"},{"bike_id":"03bb26cc-5abe-463b-b42d-df12dfc80fb1","system_id":"levelo_inurba_marseille","lat":43.279992,"lon":5.400222,"is_reserved":false,"is_disabled":false,"rental_uris":{"android":"levelo://app?vid=03bb26cc-5abe-463b-b42d-df12dfc80fb1","ios":"levelo://app?vid=03bb26cc-5abe-463b-b42d-df12dfc80fb1"},"vehicle_type_id":"4","last_reported":1767802683,"current_range_meters":4400,"station_id":"ce4bho92rcd13ifvqh4g","pricing_plan_id":"cebpf4jnsgd1na2vs0mg"},{"bike_id":"ab6fe2ee-200d-418c-a693-20bf0b5f3548","system_id":"levelo_inurba_marseille","lat":43.260668,"lon":5.393931,"is_reserved":false,"is_disabled":false,"rental_uris":{"android":"levelo://app?vid=ab6fe2ee-200d-418c-a693-20bf0b5f3548","ios":"levelo://app?vid=ab6fe2ee-200d-418c-a693-20bf0b5f3548"},"vehicle_type_id":"4","last_reported":1767802683,"current_range_meters":4400,"station_id":"","pricing_plan_id":"cebpf4jnsgd1na2vs0mg"},{"bike_id":"611c0c7e-8d54-4ad1-832e-5510ffd3817c","system_id":"levelo_inurba_marseille","lat":43.29805,"lon":5.38069,"is_reserved":false,"is_disabled":false,"rental_uris":{"android":"levelo://app?vid=611c0c7e-8d54-4ad1-832e-5510ffd3817c","ios":"levelo://app?vid=611c0c7e-8d54-4ad1-832e-5510ffd3817c"},"vehicle_type_id":"4","last_reported":1767802683,"current_range_meters":4400,"station_id":"ce4bgip2rcd13ifvqbb0","pricing_plan_id":"cebpf4jnsgd1na2vs0mg"},{"bike_id":"e9e6f93f-566e-422e-9b71-a79556ab8c5d","system_id":"levelo_inurba_marseille","lat":43.30286,"lon":5.45653,"is_reserved":false,"is_disabled":false,"rental_uris":{"android":"levelo://app?vid=e9e6f93f-566e-422e-9b71-a79556ab8c5d","ios":"levelo://app?vid=e9e6f93f-566e-422e-9b71-a79556ab8c5d"},"vehicle_type_id":"4","last_reported":1767802683,"current_range_meters":4400,"station_id":"","pricing_plan_id":"cebpf4jnsgd1na2vs0mg"},{"bike_id":"2ae4946d-b906-46b8-a234-0ce94edfc3d3","system_id":"levelo_inurba_marseille","lat":43.29269,"lon":5.40903,"is_reserved":false,"is_disabled":false,"rental_uris":{"android":"levelo://app?vid=2ae4946d-b906-46b8-a234-0ce94edfc3d3","ios":"levelo://app?vid=2ae4946d-b906-46b8-a234-0ce94edfc3d3"},"vehicle_type_id":"4","last_reported":1767802683,"current_range_meters":4400,"station_id":"ce4bh192rcd13ifvqdc0","pricing_plan_id":"cebpf4jnsgd1na2vs0mg"},{"bike_id":"4b02a8d2-87b0-4ad1-9463-8088094b1434","system_id":"levelo_inurba_marseille","lat":43.29311,"lon":5.37783,"is_reserved":false,"is_disabled":false,"rental_uris":{"android":"levelo://app?vid=4b02a8d2-87b0-4ad1-9463-8088094b1434","ios":"levelo://app?vid=4b02a8d2-87b0-4ad1-9463-8088094b1434"},"vehicle_type_id":"4","last_reported":1767802683,"current_range_meters":4400,"station_id":"","pricing_plan_id":"cebpf4jnsgd1na2vs0mg"},{"bike_id":"62cb22d9-379f-4a14-9307-a2357290642a","system_id":"levelo_inurba_marseille","lat":43.29997,"lon":5.37871,"is_reserved":false,"is_disabled":false,"rental_uris":{"android":"levelo://app?vid=62cb22d9-379f-4a14-9307-a2357290642a","ios":"levelo://app?vid=62cb22d9-379f-4a14-9307-a2357290642a"},"vehicle_type_id":"4","last_reported":1767802683,"current_range_meters":4400,"station_id":"","pricing_plan_id":"cebpf4jnsgd1na2vs0mg"},{"bike_id":"7c5b96cf-24ce-437b-9918-79dd89832501","system_id":"levelo_inurba_marseille","lat":43.29103,"lon":5.38129,"is_reserved":false,"is_disabled":false,"rental_uris":{"android":"levelo://app?vid=7c5b96cf-24ce-437b-9918-79dd89832501","ios":"levelo://app?vid=7c5b96cf-24ce-437b-9918-79dd89832501"},"vehicle_type_id":"4","last_reported":1767802683,"current_range_meters":4400,"station_id":"ce4bh512rcd13ifvqe2g","pricing_plan_id":"cebpf4jnsgd1na2vs0mg"},{"bike_id":"06992c46-6889-40f3-a5d1-edc32d603bfb","system_id":"levelo_inurba_marseille","lat":43.2861,"lon":5.39892,"is_reserved":false,"is_disabled":false,"rental_uris":{"android":"levelo://app?vid=06992c46-6889-40f3-a5d1-edc32d603bfb","ios":"levelo://app?vid=06992c46-6889-40f3-a5d1-edc32d603bfb"},"vehicle_type_id":"4","last_reported":1767802683,"current_range_meters":4400,"station_id":"ce4bho92rcd13ifvqh3g","pricing_plan_id":"cebpf4jnsgd1na2vs0mg"},{"bike_id":"97ffd4db-4451-43a6-9ab0-0787e4e0386e","system_id":"levelo_inurba_marseille","lat":43.265538,"lon":5.372834,"is_reserved":false,"is_disabled":false,"rental_uris":{"android":"levelo://app?vid=97ffd4db-4451-43a6-9ab0-0787e4e0386e","ios":"levelo://app?vid=97ffd4db-4451-43a6-9ab0-0787e4e0386e"},"vehicle_type_id":"4","last_reported":1767802683,"current_range_meters":4800,"station_id":"","pricing_plan_id":"cebpf4jnsgd1na2vs0mg"},{"bike_id":"73b7ffc9-4bed-4e99-bfa7-6d859db78ae7","system_id":"levelo_inurba_marseille","lat":43.26568,"lon":5.40308,"is_reserved":false,"is_disabled":false,"rental_uris":{"android":"levelo://app?vid=73b7ffc9-4bed-4e99-bfa7-6d859db78ae7","ios":"levelo://app?vid=73b7ffc9-4bed-4e99-bfa7-6d859db78ae7"},"vehicle_type_id":"4","last_reported":1767802683,"current_range_meters":4800,"station_id":"ce4bhmp2rcd13ifvqgng","pricing_plan_id":"cebpf4jnsgd1na2vs0mg"},{"bike_id":"6c0e1cb6-984d-4563-85f6-aa570f62813a","system_id":"levelo_inurba_marseille","lat":43.27207,"lon":5.39188,"is_reserved":false,"is_disabled":false,"rental_uris":{"android":"levelo://app?vid=6c0e1cb6-984d-4563-85f6-aa570f62813a","ios":"levelo://app?vid=6c0e1cb6-984d-4563-85f6-aa570f62813a"},"vehicle_type_id":"4","last_reported":1767802683,"current_range_meters":4800,"station_id":"ce4bhhp2rcd13ifvqfm0","pricing_plan_id":"cebpf4jnsgd1na2vs0mg"},{"bike_id":"eb50df2a-7830-4108-814d-9c8fd708c4e1","system_id":"levelo_inurba_marseille","lat":43.302979,"lon":5.392026,"is_reserved":false,"is_disabled":true,"rental_uris":{"android":"levelo://app?vid=eb50df2a-7830-4108-814d-9c8fd708c4e1","ios":"levelo://app?vid=eb50df2a-7830-4108-814d-9c8fd708c4e1"},"vehicle_type_id":"4","last_reported":1767802683,"current_range_meters":4800,"station_id":"ce4bgkh2rcd13ifvqbk0","pricing_plan_id":"cebpf4jnsgd1na2vs0mg"},{"bike_id":"d8a80d9c-4135-415b-b88f-608522bf89c3","system_id":"levelo_inurba_marseille","lat":43.26486,"lon":5.39552,"is_reserved":false,"is_disabled":false,"rental_uris":{"android":"levelo://app?vid=d8a80d9c-4135-415b-b88f-608522bf89c3","ios":"levelo://app?vid=d8a80d9c-4135-415b-b88f-608522bf89c3"},"vehicle_type_id":"4","last_reported":1767802683,"current_range_meters":4800,"station_id":"ce4bhi12rcd13ifvqfq0","pricing_plan_id":"cebpf4jnsgd1na2vs0mg"},{"bike_id":"05913a82-5d97-49fd-869e-011fe384b874","system_id":"levelo_inurba_marseille","lat":43.29843,"lon":5.378312,"is_reserved":false,"is_disabled":false,"rental_uris":{"android":"levelo://app?vid=05913a82-5d97-49fd-869e-011fe384b874","ios":"levelo://app?vid=05913a82-5d97-49fd-869e-011fe384b874"},"vehicle_type_id":"4","last_reported":1767802683,"current_range_meters":4800,"station_id":"","pricing_plan_id":"cebpf4jnsgd1na2vs0mg"},{"bike_id":"436fa9e4-426b-4db9-afdf-d0b59c924405","system_id":"levelo_inurba_marseille","lat":43.26953,"lon":5.38627,"is_reserved":false,"is_disabled":false,"rental_uris":{"android":"levelo://app?vid=436fa9e4-426b-4db9-afdf-d0b59c924405","ios":"levelo://app?vid=436fa9e4-426b-4db9-afdf-d0b59c924405"},"vehicle_type_id":"4","last_reported":1767802683,"current_range_meters":4800,"station_id":"ce4bhh92rcd13ifvqfh0","pricing_plan_id":"cebpf4jnsgd1na2vs0mg"},{"bike_id":"16aa4273-9889-401f-a55e-b9a148a6292e","system_id":"levelo_inurba_marseille","lat":43.275537,"lon":5.384378,"is_reserved":false,"is_disabled":false,"rental_uris":{"android":"levelo://app?vid=16aa4273-9889-401f-a55e-b9a148a6292e","ios":"levelo://app?vid=16aa4273-9889-401f-a55e-b9a148a6292e"},"vehicle_type_id":"4","last_reported":1767802683,"current_range_meters":4800,"station_id":"ce4bhh92rcd13ifvqfi0","pricing_plan_id":"cebpf4jnsgd1na2vs0mg"},{"bike_id":"3f2f1631-23db-4e01-a38b-0daabcdf369a","system_id":"levelo_inurba_marseille","lat":43.29941,"lon":5.40296,"is_reserved":false,"is_disabled":false,"rental_uris":{"android":"levelo://app?vid=3f2f1631-23db-4e01-a38b-0daabcdf369a","ios":"levelo://app?vid=3f2f1631-23db-4e01-a38b-0daabcdf369a"},"vehicle_type_id":"4","last_reported":1767802683,"current_range_meters":4800,"station_id":"","pricing_plan_id":"cebpf4jnsgd1na2vs0mg"},{"bike_id":"78692314-9a9b-4a45-aebe-f14da9e71a3c","system_id":"levelo_inurba_marseille","lat":43.225333,"lon":5.3483,"is_reserved":false,"is_disabled":false,"rental_uris":{"android":"levelo://app?vid=78692314-9a9b-4a45-aebe-f14da9e71a3c","ios":"levelo://app?vid=78692314-9a9b-4a45-aebe-f14da9e71a3c"},"vehicle_type_id":"4","last_reported":1767802683,"current_range_meters":4800,"station_id":"st_cvj5dfep6f1abm77gieg","pricing_plan_id":"cebpf4jnsgd1na2vs0mg"},{"bike_id":"1f923f25-b136-47da-8261-f44343c0df1b","system_id":"levelo_inurba_marseille","lat":43.29168,"lon":5.3716,"is_reserved":false,"is_disabled":false,"rental_uris":{"android":"levelo://app?vid=1f923f25-b136-47da-8261-f44343c0df1b","ios":"levelo://app?vid=1f923f25-b136-47da-8261-f44343c0df1b"},"vehicle_type_id":"4","last_reported":1767802683,"current_range_meters":4800,"station_id":"ce4bha92rcd13ifvqeh0","pricing_plan_id":"cebpf4jnsgd1na2vs0mg"},{"bike_id":"52a60ed1-1069-4427-a4b6-8b307a25e139","system_id":"levelo_inurba_marseille","lat":43.26063,"lon":5.39381,"is_reserved":false,"is_disabled":false,"rental_uris":{"android":"levelo://app?vid=52a60ed1-1069-4427-a4b6-8b307a25e139","ios":"levelo://app?vid=52a60ed1-1069-4427-a4b6-8b307a25e139"},"vehicle_type_id":"4","last_reported":1767802683,"current_range_meters":4800,"station_id":"ce4bhh92rcd13ifvqfj0","pricing_plan_id":"cebpf4jnsgd1na2vs0mg"},{"bike_id":"ce2778e9-1ed0-410d-bcf8-f64daad6e379","system_id":"levelo_inurba_marseille","lat":43.25578,"lon":5.38227,"is_reserved":false,"is_disabled":false,"rental_uris":{"android":"levelo://app?vid=ce2778e9-1ed0-410d-bcf8-f64daad6e379","ios":"levelo://app?vid=ce2778e9-1ed0-410d-bcf8-f64daad6e379"},"vehicle_type_id":"4","last_reported":1767802683,"current_range_meters":5600,"station_id":"ce4bhih2rcd13ifvqfs0","pricing_plan_id":"cebpf4jnsgd1na2vs0mg"},{"bike_id":"8f0d1315-0bea-48f3-947d-e402f4e774a7","system_id":"levelo_inurba_marseille","lat":43.297156,"lon":5.376933,"is_reserved":false,"is_disabled":false,"rental_uris":{"android":"levelo://app?vid=8f0d1315-0bea-48f3-947d-e402f4e774a7","ios":"levelo://app?vid=8f0d1315-0bea-48f3-947d-e402f4e774a7"},"vehicle_type_id":"4","last_reported":1767802683,"current_range_meters":5600,"station_id":"ce4bgkh2rcd13ifvqbl0","pricing_plan_id":"cebpf4jnsgd1na2vs0mg"},{"bike_id":"24273750-fbb8-405a-a600-7b8d138393f8","system_id":"levelo_inurba_marseille","lat":43.29618,"lon":5.37713,"is_reserved":false,"is_disabled":false,"rental_uris":{"android":"levelo://app?vid=24273750-fbb8-405a-a600-7b8d138393f8","ios":"levelo://app?vid=24273750-fbb8-405a-a600-7b8d138393f8"},"vehicle_type_id":"4","last_reported":1767802683,"current_range_meters":5600,"station_id":"ce4bgi92rcd13ifvqb90","pricing_plan_id":"cebpf4jnsgd1na2vs0mg"},{"bike_id":"dbe1578d-1079-44f5-be0c-7995dc4cef12","system_id":"levelo_inurba_marseille","lat":43.30229,"lon":5.39488,"is_reserved":false,"is_disabled":false,"rental_uris":{"android":"levelo://app?vid=dbe1578d-1079-44f5-be0c-7995dc4cef12","ios":"levelo://app?vid=dbe1578d-1079-44f5-be0c-7995dc4cef12"},"vehicle_type_id":"4","last_reported":1767802683,"current_range_meters":5600,"station_id":"","pricing_plan_id":"cebpf4jnsgd1na2vs0mg"},{"bike_id":"aa323760-6cdd-4364-b0a8-848f910cc737","system_id":"levelo_inurba_marseille","lat":43.30172,"lon":5.36628,"is_reserved":false,"is_disabled":false,"rental_uris":{"android":"levelo://app?vid=aa323760-6cdd-4364-b0a8-848f910cc737","ios":"levelo://app?vid=aa323760-6cdd-4364-b0a8-848f910cc737"},"vehicle_type_id":"4","last_reported":1767802683,"current_range_meters":5600,"station_id":"ce4bgrh2rcd13ifvqc8g","pricing_plan_id":"cebpf4jnsgd1na2vs0mg"},{"bike_id":"9eb913cd-2db4-48fc-a9eb-2256ba745c47","system_id":"levelo_inurba_marseille","lat":43.31704,"lon":5.437,"is_reserved":false,"is_disabled":false,"rental_uris":{"android":"levelo://app?vid=9eb913cd-2db4-48fc-a9eb-2256ba745c47","ios":"levelo://app?vid=9eb913cd-2db4-48fc-a9eb-2256ba745c47"},"vehicle_type_id":"4","last_reported":1767802683,"current_range_meters":5600,"station_id":"ce4bhp92rcd13ifvqhcg","pricing_plan_id":"cebpf4jnsgd1na2vs0mg"},{"bike_id":"3275b859-c08d-4706-afc8-86a6bdcab3a2","system_id":"levelo_inurba_marseille","lat":43.24397,"lon":5.37067,"is_reserved":false,"is_disabled":false,"rental_uris":{"android":"levelo://app?vid=3275b859-c08d-4706-afc8-86a6bdcab3a2","ios":"levelo://app?vid=3275b859-c08d-4706-afc8-86a6bdcab3a2"},"vehicle_type_id":"4","last_reported":1767802683,"current_range_meters":5600,"station_id":"ce4bhhh2rcd13ifvqfk0","pricing_plan_id":"cebpf4jnsgd1na2vs0mg"},{"bike_id":"26471476-0788-4cdb-9b4d-9f0b3e686ab5","system_id":"levelo_inurba_marseille","lat":43.31311,"lon":5.3868,"is_reserved":false,"is_disabled":false,"rental_uris":{"android":"levelo://app?vid=26471476-0788-4cdb-9b4d-9f0b3e686ab5","ios":"levelo://app?vid=26471476-0788-4cdb-9b4d-9f0b3e686ab5"},"vehicle_type_id":"4","last_reported":1767802683,"current_range_meters":5600,"station_id":"","pricing_plan_id":"cebpf4jnsgd1na2vs0mg"},{"bike_id":"4b095016-db2a-4566-99ac-7ac9d70ba99d","system_id":"levelo_inurba_marseille","lat":43.29624,"lon":5.37708,"is_reserved":false,"is_disabled":false,"rental_uris":{"android":"levelo://app?vid=4b095016-db2a-4566-99ac-7ac9d70ba99d","ios":"levelo://app?vid=4b095016-db2a-4566-99ac-7ac9d70ba99d"},"vehicle_type_id":"4","last_reported":1767802683,"current_range_meters":5600,"station_id":"ce4bgi92rcd13ifvqb90","pricing_plan_id":"cebpf4jnsgd1na2vs0mg"},{"bike_id":"f5e7e1f2-33c5-4813-86da-3c7d45f6a313","system_id":"levelo_inurba_marseille","lat":43.2716,"lon":5.362827,"is_reserved":false,"is_disabled":false,"rental_uris":{"android":"levelo://app?vid=f5e7e1f2-33c5-4813-86da-3c7d45f6a313","ios":"levelo://app?vid=f5e7e1f2-33c5-4813-86da-3c7d45f6a313"},"vehicle_type_id":"4","last_reported":1767802683,"current_range_meters":5600,"station_id":"","pricing_plan_id":"cebpf4jnsgd1na2vs0mg"},{"bike_id":"50f4b3bd-6360-4d14-b317-8ae7b873727e","system_id":"levelo_inurba_marseille","lat":43.255828,"lon":5.382167,"is_reserved":false,"is_disabled":false,"rental_uris":{"android":"levelo://app?vid=50f4b3bd-6360-4d14-b317-8ae7b873727e","ios":"levelo://app?vid=50f4b3bd-6360-4d14-b317-8ae7b873727e"},"vehicle_type_id":"4","last_reported":1767802683,"current_range_meters":5600,"station_id":"ce4bhih2rcd13ifvqfs0","pricing_plan_id":"cebpf4jnsgd1na2vs0mg"},{"bike_id":"0bb41368-3634-400a-a271-de7570a7c189","system_id":"levelo_inurba_marseille","lat":43.3013,"lon":5.374275,"is_reserved":false,"is_disabled":false,"rental_uris":{"android":"levelo://app?vid=0bb41368-3634-400a-a271-de7570a7c189","ios":"levelo://app?vid=0bb41368-3634-400a-a271-de7570a7c189"},"vehicle_type_id":"4","last_reported":1767802683,"current_range_meters":5600,"station_id":"ce4bgs92rcd13ifvqcc0","pricing_plan_id":"cebpf4jnsgd1na2vs0mg"},{"bike_id":"61e57150-bb7f-4bb5-82de-46a20047a425","system_id":"levelo_inurba_marseille","lat":43.26573,"lon":5.39006,"is_reserved":false,"is_disabled":false,"rental_uris":{"android":"levelo://app?vid=61e57150-bb7f-4bb5-82de-46a20047a425","ios":"levelo://app?vid=61e57150-bb7f-4bb5-82de-46a20047a425"},"vehicle_type_id":"4","last_reported":1767802683,"current_range_meters":5600,"station_id":"ce4bhe12rcd13ifvqf30","pricing_plan_id":"cebpf4jnsgd1na2vs0mg"},{"bike_id":"05865ee8-1a95-4651-bda1-3ce1ef592555","system_id":"levelo_inurba_marseille","lat":43.30914,"lon":5.36832,"is_reserved":false,"is_disabled":false,"rental_uris":{"android":"levelo://app?vid=05865ee8-1a95-4651-bda1-3ce1ef592555","ios":"levelo://app?vid=05865ee8-1a95-4651-bda1-3ce1ef592555"},"vehicle_type_id":"4","last_reported":1767802683,"current_range_meters":5600,"station_id":"ce4bgn92rcd13ifvqbvg","pricing_plan_id":"cebpf4jnsgd1na2vs0mg"},{"bike_id":"1ac84a2f-834c-4512-8844-a6504078a505","system_id":"levelo_inurba_marseille","lat":43.29228,"lon":5.360652,"is_reserved":false,"is_disabled":false,"rental_uris":{"android":"levelo://app?vid=1ac84a2f-834c-4512-8844-a6504078a505","ios":"levelo://app?vid=1ac84a2f-834c-4512-8844-a6504078a505"},"vehicle_type_id":"4","last_reported":1767802683,"current_range_meters":6000,"station_id":"ce4bhbh2rcd13ifvqeqg","pricing_plan_id":"cebpf4jnsgd1na2vs0mg"},{"bike_id":"255f6a83-686a-42d7-b59b-0886f81cf758","system_id":"levelo_inurba_marseille","lat":43.23153,"lon":5.43701,"is_reserved":false,"is_disabled":false,"rental_uris":{"android":"levelo://app?vid=255f6a83-686a-42d7-b59b-0886f81cf758","ios":"levelo://app?vid=255f6a83-686a-42d7-b59b-0886f81cf758"},"vehicle_type_id":"4","last_reported":1767802683,"current_range_meters":6000,"station_id":"ce4bhmp2rcd13ifvqgog","pricing_plan_id":"cebpf4jnsgd1na2vs0mg"},{"bike_id":"0b07aea1-cf89-4254-a9b5-c94ab021f32b","system_id":"levelo_inurba_marseille","lat":43.29376,"lon":5.37855,"is_reserved":false,"is_disabled":false,"rental_uris":{"android":"levelo://app?vid=0b07aea1-cf89-4254-a9b5-c94ab021f32b","ios":"levelo://app?vid=0b07aea1-cf89-4254-a9b5-c94ab021f32b"},"vehicle_type_id":"4","last_reported":1767802683,"current_range_meters":6000,"station_id":"ce4bgjh2rcd13ifvqbf0","pricing_plan_id":"cebpf4jnsgd1na2vs0mg"},{"bike_id":"184adeb8-9203-4f19-b080-ca451c49fd36","system_id":"levelo_inurba_marseille","lat":43.29159,"lon":5.37164,"is_reserved":false,"is_disabled":false,"rental_uris":{"android":"levelo://app?vid=184adeb8-9203-4f19-b080-ca451c49fd36","ios":"levelo://app?vid=184adeb8-9203-4f19-b080-ca451c49fd36"},"vehicle_type_id":"4","last_reported":1767802683,"current_range_meters":6000,"station_id":"ce4bha92rcd13ifvqeh0","pricing_plan_id":"cebpf4jnsgd1na2vs0mg"},{"bike_id":"dc8d977b-d7c3-429a-a52c-02eed234c21d","system_id":"levelo_inurba_marseille","lat":43.28474,"lon":5.38405,"is_reserved":false,"is_disabled":false,"rental_uris":{"android":"levelo://app?vid=dc8d977b-d7c3-429a-a52c-02eed234c21d","ios":"levelo://app?vid=dc8d977b-d7c3-429a-a52c-02eed234c21d"},"vehicle_type_id":"4","last_reported":1767802683,"current_range_meters":6000,"station_id":"ce4bh512rcd13ifvqe3g","pricing_plan_id":"cebpf4jnsgd1na2vs0mg"},{"bike_id":"4e9944d7-ff17-431f-9506-b409b96c8161","system_id":"levelo_inurba_marseille","lat":43.25572,"lon":5.38221,"is_reserved":false,"is_disabled":false,"rental_uris":{"android":"levelo://app?vid=4e9944d7-ff17-431f-9506-b409b96c8161","ios":"levelo://app?vid=4e9944d7-ff17-431f-9506-b409b96c8161"},"vehicle_type_id":"4","last_reported":1767802683,"current_range_meters":6000,"station_id":"ce4bhih2rcd13ifvqfs0","pricing_plan_id":"cebpf4jnsgd1na2vs0mg"},{"bike_id":"d4cb7d87-6e05-4a12-a6a8-801515607d75","system_id":"levelo_inurba_marseille","lat":43.32096,"lon":5.3677,"is_reserved":false,"is_disabled":false,"rental_uris":{"android":"levelo://app?vid=d4cb7d87-6e05-4a12-a6a8-801515607d75","ios":"levelo://app?vid=d4cb7d87-6e05-4a12-a6a8-801515607d75"},"vehicle_type_id":"4","last_reported":1767802683,"current_range_meters":6000,"station_id":"ce4bhrh2rcd13ifvqhug","pricing_plan_id":"cebpf4jnsgd1na2vs0mg"},{"bike_id":"05e8b676-62c1-43f9-8e39-73bec80b3a86","system_id":"levelo_inurba_marseille","lat":43.305502,"lon":5.365561,"is_reserved":false,"is_disabled":false,"rental_uris":{"android":"levelo://app?vid=05e8b676-62c1-43f9-8e39-73bec80b3a86","ios":"levelo://app?vid=05e8b676-62c1-43f9-8e39-73bec80b3a86"},"vehicle_type_id":"4","last_reported":1767802683,"current_range_meters":6000,"station_id":"ce4bgs12rcd13ifvqcag","pricing_plan_id":"cebpf4jnsgd1na2vs0mg"},{"bike_id":"acbd5e4f-e25a-4f78-98f2-8ce2be51a356","system_id":"levelo_inurba_marseille","lat":43.29847,"lon":5.36281,"is_reserved":false,"is_disabled":false,"rental_uris":{"android":"levelo://app?vid=acbd5e4f-e25a-4f78-98f2-8ce2be51a356","ios":"levelo://app?vid=acbd5e4f-e25a-4f78-98f2-8ce2be51a356"},"vehicle_type_id":"4","last_reported":1767802683,"current_range_meters":6000,"station_id":"ce4bgpp2rcd13ifvqc3g","pricing_plan_id":"cebpf4jnsgd1na2vs0mg"},{"bike_id":"d94a94f4-003c-473b-87bc-9cd8d9c889e2","system_id":"levelo_inurba_marseille","lat":43.32344,"lon":5.36742,"is_reserved":false,"is_disabled":false,"rental_uris":{"android":"levelo://app?vid=d94a94f4-003c-473b-87bc-9cd8d9c889e2","ios":"levelo://app?vid=d94a94f4-003c-473b-87bc-9cd8d9c889e2"},"vehicle_type_id":"4","last_reported":1767802683,"current_range_meters":6000,"station_id":"ce4bhsh2rcd13ifvqi2g","pricing_plan_id":"cebpf4jnsgd1na2vs0mg"},{"bike_id":"888fbbe9-777f-4d9b-a4fc-a3446c8bb949","system_id":"levelo_inurba_marseille","lat":43.25337,"lon":5.42162,"is_reserved":false,"is_disabled":false,"rental_uris":{"android":"levelo://app?vid=888fbbe9-777f-4d9b-a4fc-a3446c8bb949","ios":"levelo://app?vid=888fbbe9-777f-4d9b-a4fc-a3446c8bb949"},"vehicle_type_id":"4","last_reported":1767802683,"current_range_meters":6000,"station_id":"st_d2m65c5bi1j21697t3ng","pricing_plan_id":"cebpf4jnsgd1na2vs0mg"},{"bike_id":"57e5ec53-6513-434d-8865-33ca23338b5c","system_id":"levelo_inurba_marseille","lat":43.27061,"lon":5.42265,"is_reserved":false,"is_disabled":false,"rental_uris":{"android":"levelo://app?vid=57e5ec53-6513-434d-8865-33ca23338b5c","ios":"levelo://app?vid=57e5ec53-6513-434d-8865-33ca23338b5c"},"vehicle_type_id":"4","last_reported":1767802683,"current_range_meters":6000,"station_id":"ce4bhk92rcd13ifvqgb0","pricing_plan_id":"cebpf4jnsgd1na2vs0mg"},{"bike_id":"d91d190f-94b5-4b8d-88d9-473e2a714e39","system_id":"levelo_inurba_marseille","lat":43.28933,"lon":5.3638,"is_reserved":false,"is_disabled":false,"rental_uris":{"android":"levelo://app?vid=d91d190f-94b5-4b8d-88d9-473e2a714e39","ios":"levelo://app?vid=d91d190f-94b5-4b8d-88d9-473e2a714e39"},"vehicle_type_id":"4","last_reported":1767802683,"current_range_meters":6000,"station_id":"ce4bhc92rcd13ifvqetg","pricing_plan_id":"cebpf4jnsgd1na2vs0mg"},{"bike_id":"5f97ee30-db41-4f0f-bada-a9577a9b32c8","system_id":"levelo_inurba_marseille","lat":43.26225,"lon":5.40456,"is_reserved":false,"is_disabled":false,"rental_uris":{"android":"levelo://app?vid=5f97ee30-db41-4f0f-bada-a9577a9b32c8","ios":"levelo://app?vid=5f97ee30-db41-4f0f-bada-a9577a9b32c8"},"vehicle_type_id":"4","last_reported":1767802683,"current_range_meters":6000,"station_id":"ce4bhmh2rcd13ifvqgmg","pricing_plan_id":"cebpf4jnsgd1na2vs0mg"},{"bike_id":"63931dd9-5e9c-4cb5-b5fe-d5d26fe59f6e","system_id":"levelo_inurba_marseille","lat":43.273751,"lon":5.362586,"is_reserved":false,"is_disabled":false,"rental_uris":{"android":"levelo://app?vid=63931dd9-5e9c-4cb5-b5fe-d5d26fe59f6e","ios":"levelo://app?vid=63931dd9-5e9c-4cb5-b5fe-d5d26fe59f6e"},"vehicle_type_id":"4","last_reported":1767802683,"current_range_meters":6000,"station_id":"ce4bhbh2rcd13ifvqeo0","pricing_plan_id":"cebpf4jnsgd1na2vs0mg"},{"bike_id":"25bcfc78-3f0b-4981-8911-91eda9adaaf9","system_id":"levelo_inurba_marseille","lat":43.28379,"lon":5.4162,"is_reserved":false,"is_disabled":false,"rental_uris":{"android":"levelo://app?vid=25bcfc78-3f0b-4981-8911-91eda9adaaf9","ios":"levelo://app?vid=25bcfc78-3f0b-4981-8911-91eda9adaaf9"},"vehicle_type_id":"4","last_reported":1767802683,"current_range_meters":6000,"station_id":"","pricing_plan_id":"cebpf4jnsgd1na2vs0mg"},{"bike_id":"28119d97-7102-4d29-b6d8-83d7d4b56a13","system_id":"levelo_inurba_marseille","lat":43.32359,"lon":5.36745,"is_reserved":false,"is_disabled":false,"rental_uris":{"android":"levelo://app?vid=28119d97-7102-4d29-b6d8-83d7d4b56a13","ios":"levelo://app?vid=28119d97-7102-4d29-b6d8-83d7d4b56a13"},"vehicle_type_id":"4","last_reported":1767802683,"current_range_meters":6000,"station_id":"ce4bhsh2rcd13ifvqi2g","pricing_plan_id":"cebpf4jnsgd1na2vs0mg"},{"bike_id":"3a1a012f-e2cb-489c-8aaa-49659e7dafd1","system_id":"levelo_inurba_marseille","lat":43.29205,"lon":5.36082,"is_reserved":false,"is_disabled":false,"rental_uris":{"android":"levelo://app?vid=3a1a012f-e2cb-489c-8aaa-49659e7dafd1","ios":"levelo://app?vid=3a1a012f-e2cb-489c-8aaa-49659e7dafd1"},"vehicle_type_id":"4","last_reported":1767802683,"current_range_meters":6000,"station_id":"ce4bhbh2rcd13ifvqeqg","pricing_plan_id":"cebpf4jnsgd1na2vs0mg"},{"bike_id":"d8ce3d05-20cf-4549-aa79-bd02d6f9c3ab","system_id":"levelo_inurba_marseille","lat":43.291971,"lon":5.393195,"is_reserved":false,"is_disabled":false,"rental_uris":{"android":"levelo://app?vid=d8ce3d05-20cf-4549-aa79-bd02d6f9c3ab","ios":"levelo://app?vid=d8ce3d05-20cf-4549-aa79-bd02d6f9c3ab"},"vehicle_type_id":"4","last_reported":1767802683,"current_range_meters":6000,"station_id":"ce4bh192rcd13ifvqdd0","pricing_plan_id":"cebpf4jnsgd1na2vs0mg"},{"bike_id":"85e7dc16-1012-45d8-b32c-39ccc599bcfd","system_id":"levelo_inurba_marseille","lat":43.30139,"lon":5.39862,"is_reserved":false,"is_disabled":false,"rental_uris":{"android":"levelo://app?vid=85e7dc16-1012-45d8-b32c-39ccc599bcfd","ios":"levelo://app?vid=85e7dc16-1012-45d8-b32c-39ccc599bcfd"},"vehicle_type_id":"4","last_reported":1767802683,"current_range_meters":6000,"station_id":"ce4bh0h2rcd13ifvqd40","pricing_plan_id":"cebpf4jnsgd1na2vs0mg"},{"bike_id":"4f62cb83-a31c-4a06-a828-d01b7b9e9bd9","system_id":"levelo_inurba_marseille","lat":43.28718,"lon":5.36084,"is_reserved":false,"is_disabled":false,"rental_uris":{"android":"levelo://app?vid=4f62cb83-a31c-4a06-a828-d01b7b9e9bd9","ios":"levelo://app?vid=4f62cb83-a31c-4a06-a828-d01b7b9e9bd9"},"vehicle_type_id":"4","last_reported":1767802683,"current_range_meters":6000,"station_id":"cki0cbj6b192h4jlfktg","pricing_plan_id":"cebpf4jnsgd1na2vs0mg"},{"bike_id":"489ff7b6-41e9-4757-996d-64988812a083","system_id":"levelo_inurba_marseille","lat":43.29277,"lon":5.40126,"is_reserved":false,"is_disabled":false,"rental_uris":{"android":"levelo://app?vid=489ff7b6-41e9-4757-996d-64988812a083","ios":"levelo://app?vid=489ff7b6-41e9-4757-996d-64988812a083"},"vehicle_type_id":"4","last_reported":1767802683,"current_range_meters":6000,"station_id":"ce4bh312rcd13ifvqdk0","pricing_plan_id":"cebpf4jnsgd1na2vs0mg"},{"bike_id":"d9c837ee-0a87-4e1c-8ede-d21de1e96c65","system_id":"levelo_inurba_marseille","lat":43.27558,"lon":5.38429,"is_reserved":false,"is_disabled":false,"rental_uris":{"android":"levelo://app?vid=d9c837ee-0a87-4e1c-8ede-d21de1e96c65","ios":"levelo://app?vid=d9c837ee-0a87-4e1c-8ede-d21de1e96c65"},"vehicle_type_id":"4","last_reported":1767802683,"current_range_meters":6000,"station_id":"ce4bhh92rcd13ifvqfi0","pricing_plan_id":"cebpf4jnsgd1na2vs0mg"},{"bike_id":"7cd9ab34-deb1-41b5-bd69-947789edb17f","system_id":"levelo_inurba_marseille","lat":43.284134,"lon":5.34978,"is_reserved":false,"is_disabled":false,"rental_uris":{"android":"levelo://app?vid=7cd9ab34-deb1-41b5-bd69-947789edb17f","ios":"levelo://app?vid=7cd9ab34-deb1-41b5-bd69-947789edb17f"},"vehicle_type_id":"4","last_reported":1767802683,"current_range_meters":6400,"station_id":"ce4bhbh2rcd13ifvqepg","pricing_plan_id":"cebpf4jnsgd1na2vs0mg"},{"bike_id":"1511a012-c085-4f38-8ab1-d9eee4c01f86","system_id":"levelo_inurba_marseille","lat":43.2418,"lon":5.36385,"is_reserved":false,"is_disabled":false,"rental_uris":{"android":"levelo://app?vid=1511a012-c085-4f38-8ab1-d9eee4c01f86","ios":"levelo://app?vid=1511a012-c085-4f38-8ab1-d9eee4c01f86"},"vehicle_type_id":"4","last_reported":1767802683,"current_range_meters":6400,"station_id":"","pricing_plan_id":"cebpf4jnsgd1na2vs0mg"},{"bike_id":"5b1e28d0-cfd4-4f63-bcd7-e389c7a33f6a","system_id":"levelo_inurba_marseille","lat":43.24651,"lon":5.43111,"is_reserved":false,"is_disabled":false,"rental_uris":{"android":"levelo://app?vid=5b1e28d0-cfd4-4f63-bcd7-e389c7a33f6a","ios":"levelo://app?vid=5b1e28d0-cfd4-4f63-bcd7-e389c7a33f6a"},"vehicle_type_id":"4","last_reported":1767802683,"current_range_meters":6400,"station_id":"st_d2m6c4gdas8pm72e190g","pricing_plan_id":"cebpf4jnsgd1na2vs0mg"},{"bike_id":"99d2c240-fb57-4bcc-834e-50095cd537f1","system_id":"levelo_inurba_marseille","lat":43.29203,"lon":5.35785,"is_reserved":false,"is_disabled":false,"rental_uris":{"android":"levelo://app?vid=99d2c240-fb57-4bcc-834e-50095cd537f1","ios":"levelo://app?vid=99d2c240-fb57-4bcc-834e-50095cd537f1"},"vehicle_type_id":"4","last_reported":1767802683,"current_range_meters":6400,"station_id":"ce4bhb12rcd13ifvqel0","pricing_plan_id":"cebpf4jnsgd1na2vs0mg"},{"bike_id":"9dfacc6a-51da-4ad8-b93d-ca8e18bc28dc","system_id":"levelo_inurba_marseille","lat":43.27915,"lon":5.39594,"is_reserved":false,"is_disabled":false,"rental_uris":{"android":"levelo://app?vid=9dfacc6a-51da-4ad8-b93d-ca8e18bc28dc","ios":"levelo://app?vid=9dfacc6a-51da-4ad8-b93d-ca8e18bc28dc"},"vehicle_type_id":"4","last_reported":1767802683,"current_range_meters":6400,"station_id":"ce4bhf92rcd13ifvqf40","pricing_plan_id":"cebpf4jnsgd1na2vs0mg"},{"bike_id":"0e7be8fb-8b4e-4f31-b6a9-c9720e32396b","system_id":"levelo_inurba_marseille","lat":43.2678,"lon":5.39415,"is_reserved":false,"is_disabled":false,"rental_uris":{"android":"levelo://app?vid=0e7be8fb-8b4e-4f31-b6a9-c9720e32396b","ios":"levelo://app?vid=0e7be8fb-8b4e-4f31-b6a9-c9720e32396b"},"vehicle_type_id":"4","last_reported":1767802683,"current_range_meters":6400,"station_id":"ce4bhh12rcd13ifvqfg0","pricing_plan_id":"cebpf4jnsgd1na2vs0mg"},{"bike_id":"2afed3db-e2da-422b-9792-6d03f768ecc2","system_id":"levelo_inurba_marseille","lat":43.31523,"lon":5.37283,"is_reserved":false,"is_disabled":false,"rental_uris":{"android":"levelo://app?vid=2afed3db-e2da-422b-9792-6d03f768ecc2","ios":"levelo://app?vid=2afed3db-e2da-422b-9792-6d03f768ecc2"},"vehicle_type_id":"4","last_reported":1767802683,"current_range_meters":6400,"station_id":"","pricing_plan_id":"cebpf4jnsgd1na2vs0mg"},{"bike_id":"b1a7225d-cf2c-4314-bf77-f264e40c3d2e","system_id":"levelo_inurba_marseille","lat":43.297623,"lon":5.427756,"is_reserved":false,"is_disabled":false,"rental_uris":{"android":"levelo://app?vid=b1a7225d-cf2c-4314-bf77-f264e40c3d2e","ios":"levelo://app?vid=b1a7225d-cf2c-4314-bf77-f264e40c3d2e"},"vehicle_type_id":"4","last_reported":1767802683,"current_range_meters":6400,"station_id":"st_d3md5207bmas73dh9klg","pricing_plan_id":"cebpf4jnsgd1na2vs0mg"},{"bike_id":"754e4108-4c57-4763-b08c-1bdebeea8ce2","system_id":"levelo_inurba_marseille","lat":43.28683,"lon":5.38606,"is_reserved":false,"is_disabled":false,"rental_uris":{"android":"levelo://app?vid=754e4108-4c57-4763-b08c-1bdebeea8ce2","ios":"levelo://app?vid=754e4108-4c57-4763-b08c-1bdebeea8ce2"},"vehicle_type_id":"4","last_reported":1767802683,"current_range_meters":6400,"station_id":"","pricing_plan_id":"cebpf4jnsgd1na2vs0mg"},{"bike_id":"6174981e-bed3-4bbe-a3fa-13b0fcc75de4","system_id":"levelo_inurba_marseille","lat":43.23143,"lon":5.43712,"is_reserved":false,"is_disabled":true,"rental_uris":{"android":"levelo://app?vid=6174981e-bed3-4bbe-a3fa-13b0fcc75de4","ios":"levelo://app?vid=6174981e-bed3-4bbe-a3fa-13b0fcc75de4"},"vehicle_type_id":"4","last_reported":1767802683,"current_range_meters":6400,"station_id":"","pricing_plan_id":"cebpf4jnsgd1na2vs0mg"},{"bike_id":"3217319c-67d6-4f43-b4ae-b8c6bc9c83ac","system_id":"levelo_inurba_marseille","lat":43.30381,"lon":5.42471,"is_reserved":false,"is_disabled":false,"rental_uris":{"android":"levelo://app?vid=3217319c-67d6-4f43-b4ae-b8c6bc9c83ac","ios":"levelo://app?vid=3217319c-67d6-4f43-b4ae-b8c6bc9c83ac"},"vehicle_type_id":"4","last_reported":1767802683,"current_range_meters":6400,"station_id":"ce4bhoh2rcd13ifvqh6g","pricing_plan_id":"cebpf4jnsgd1na2vs0mg"},{"bike_id":"7b37352d-abe6-4270-9c6e-622db07dc686","system_id":"levelo_inurba_marseille","lat":43.30545,"lon":5.36693,"is_reserved":false,"is_disabled":false,"rental_uris":{"android":"levelo://app?vid=7b37352d-abe6-4270-9c6e-622db07dc686","ios":"levelo://app?vid=7b37352d-abe6-4270-9c6e-622db07dc686"},"vehicle_type_id":"4","last_reported":1767802683,"current_range_meters":6400,"station_id":"ce4bgrp2rcd13ifvqc9g","pricing_plan_id":"cebpf4jnsgd1na2vs0mg"},{"bike_id":"0129ec2c-20ce-4699-ada0-b163ae3a53d6","system_id":"levelo_inurba_marseille","lat":43.23132,"lon":5.43729,"is_reserved":false,"is_disabled":false,"rental_uris":{"android":"levelo://app?vid=0129ec2c-20ce-4699-ada0-b163ae3a53d6","ios":"levelo://app?vid=0129ec2c-20ce-4699-ada0-b163ae3a53d6"},"vehicle_type_id":"4","last_reported":1767802683,"current_range_meters":6400,"station_id":"ce4bhmp2rcd13ifvqgog","pricing_plan_id":"cebpf4jnsgd1na2vs0mg"},{"bike_id":"648080a5-2fc4-4912-8414-9c01e52433df","system_id":"levelo_inurba_marseille","lat":43.29934,"lon":5.36528,"is_reserved":false,"is_disabled":false,"rental_uris":{"android":"levelo://app?vid=648080a5-2fc4-4912-8414-9c01e52433df","ios":"levelo://app?vid=648080a5-2fc4-4912-8414-9c01e52433df"},"vehicle_type_id":"4","last_reported":1767802683,"current_range_meters":6400,"station_id":"ce4bgm92rcd13ifvqbr0","pricing_plan_id":"cebpf4jnsgd1na2vs0mg"},{"bike_id":"9c2b50d7-d1c4-4604-94b6-fb27903a754e","system_id":"levelo_inurba_marseille","lat":43.30207,"lon":5.39459,"is_reserved":false,"is_disabled":false,"rental_uris":{"android":"levelo://app?vid=9c2b50d7-d1c4-4604-94b6-fb27903a754e","ios":"levelo://app?vid=9c2b50d7-d1c4-4604-94b6-fb27903a754e"},"vehicle_type_id":"4","last_reported":1767802683,"current_range_meters":6400,"station_id":"ce4bh0p2rcd13ifvqd70","pricing_plan_id":"cebpf4jnsgd1na2vs0mg"},{"bike_id":"a31ba797-d219-4a65-a019-17190c6343b6","system_id":"levelo_inurba_marseille","lat":43.31945,"lon":5.37606,"is_reserved":false,"is_disabled":false,"rental_uris":{"android":"levelo://app?vid=a31ba797-d219-4a65-a019-17190c6343b6","ios":"levelo://app?vid=a31ba797-d219-4a65-a019-17190c6343b6"},"vehicle_type_id":"4","last_reported":1767802683,"current_range_meters":6400,"station_id":"","pricing_plan_id":"cebpf4jnsgd1na2vs0mg"},{"bike_id":"b1e5b611-acb9-46c7-a522-41c1d82fcd51","system_id":"levelo_inurba_marseille","lat":43.29019,"lon":5.38131,"is_reserved":false,"is_disabled":false,"rental_uris":{"android":"levelo://app?vid=b1e5b611-acb9-46c7-a522-41c1d82fcd51","ios":"levelo://app?vid=b1e5b611-acb9-46c7-a522-41c1d82fcd51"},"vehicle_type_id":"4","last_reported":1767802683,"current_range_meters":6400,"station_id":"ce4bh4p2rcd13ifvqe1g","pricing_plan_id":"cebpf4jnsgd1na2vs0mg"},{"bike_id":"2a72016b-e107-4594-9228-a75e8e173f08","system_id":"levelo_inurba_marseille","lat":43.31161,"lon":5.368,"is_reserved":false,"is_disabled":false,"rental_uris":{"android":"levelo://app?vid=2a72016b-e107-4594-9228-a75e8e173f08","ios":"levelo://app?vid=2a72016b-e107-4594-9228-a75e8e173f08"},"vehicle_type_id":"4","last_reported":1767802683,"current_range_meters":6400,"station_id":"","pricing_plan_id":"cebpf4jnsgd1na2vs0mg"},{"bike_id":"adc6d3e5-a0bd-4fb1-8c8c-aa2813db45ad","system_id":"levelo_inurba_marseille","lat":43.315276,"lon":5.380248,"is_reserved":false,"is_disabled":false,"rental_uris":{"android":"levelo://app?vid=adc6d3e5-a0bd-4fb1-8c8c-aa2813db45ad","ios":"levelo://app?vid=adc6d3e5-a0bd-4fb1-8c8c-aa2813db45ad"},"vehicle_type_id":"4","last_reported":1767802683,"current_range_meters":6400,"station_id":"ce4bhsp2rcd13ifvqi50","pricing_plan_id":"cebpf4jnsgd1na2vs0mg"},{"bike_id":"d1349b06-6558-46c3-aee4-61d2a0fa8dc3","system_id":"levelo_inurba_marseille","lat":43.26733,"lon":5.38299,"is_reserved":false,"is_disabled":false,"rental_uris":{"android":"levelo://app?vid=d1349b06-6558-46c3-aee4-61d2a0fa8dc3","ios":"levelo://app?vid=d1349b06-6558-46c3-aee4-61d2a0fa8dc3"},"vehicle_type_id":"4","last_reported":1767802683,"current_range_meters":6400,"station_id":"ce4bhg92rcd13ifvqf90","pricing_plan_id":"cebpf4jnsgd1na2vs0mg"},{"bike_id":"17e796b7-21bc-4b8e-8b34-c08491554fdd","system_id":"levelo_inurba_marseille","lat":43.2791,"lon":5.39565,"is_reserved":false,"is_disabled":false,"rental_uris":{"android":"levelo://app?vid=17e796b7-21bc-4b8e-8b34-c08491554fdd","ios":"levelo://app?vid=17e796b7-21bc-4b8e-8b34-c08491554fdd"},"vehicle_type_id":"4","last_reported":1767802683,"current_range_meters":6400,"station_id":"ce4bhf92rcd13ifvqf40","pricing_plan_id":"cebpf4jnsgd1na2vs0mg"},{"bike_id":"d5b0c4ed-7646-45b9-b9d3-d49c57b897b7","system_id":"levelo_inurba_marseille","lat":43.297573,"lon":5.427883,"is_reserved":false,"is_disabled":false,"rental_uris":{"android":"levelo://app?vid=d5b0c4ed-7646-45b9-b9d3-d49c57b897b7","ios":"levelo://app?vid=d5b0c4ed-7646-45b9-b9d3-d49c57b897b7"},"vehicle_type_id":"4","last_reported":1767802683,"current_range_meters":6400,"station_id":"st_d3md5207bmas73dh9klg","pricing_plan_id":"cebpf4jnsgd1na2vs0mg"},{"bike_id":"35c3cbbb-0469-478d-b4da-bfb159e2f13b","system_id":"levelo_inurba_marseille","lat":43.259344,"lon":5.40915,"is_reserved":false,"is_disabled":true,"rental_uris":{"android":"levelo://app?vid=35c3cbbb-0469-478d-b4da-bfb159e2f13b","ios":"levelo://app?vid=35c3cbbb-0469-478d-b4da-bfb159e2f13b"},"vehicle_type_id":"4","last_reported":1767802683,"current_range_meters":6400,"station_id":"ce4bhm92rcd13ifvqglg","pricing_plan_id":"cebpf4jnsgd1na2vs0mg"},{"bike_id":"544308b1-4221-4936-8f93-e18efc28f27b","system_id":"levelo_inurba_marseille","lat":43.26797,"lon":5.39431,"is_reserved":false,"is_disabled":false,"rental_uris":{"android":"levelo://app?vid=544308b1-4221-4936-8f93-e18efc28f27b","ios":"levelo://app?vid=544308b1-4221-4936-8f93-e18efc28f27b"},"vehicle_type_id":"4","last_reported":1767802683,"current_range_meters":6400,"station_id":"ce4bhh12rcd13ifvqfg0","pricing_plan_id":"cebpf4jnsgd1na2vs0mg"},{"bike_id":"533ded1c-f64a-40a7-987e-c996af8b74ed","system_id":"levelo_inurba_marseille","lat":43.23786,"lon":5.36632,"is_reserved":false,"is_disabled":false,"rental_uris":{"android":"levelo://app?vid=533ded1c-f64a-40a7-987e-c996af8b74ed","ios":"levelo://app?vid=533ded1c-f64a-40a7-987e-c996af8b74ed"},"vehicle_type_id":"4","last_reported":1767802683,"current_range_meters":6400,"station_id":"st_d3nk18o9ro0c73en2l3g","pricing_plan_id":"cebpf4jnsgd1na2vs0mg"},{"bike_id":"8f9c263f-7889-4a85-9933-e07749969bb3","system_id":"levelo_inurba_marseille","lat":43.25572,"lon":5.38196,"is_reserved":false,"is_disabled":false,"rental_uris":{"android":"levelo://app?vid=8f9c263f-7889-4a85-9933-e07749969bb3","ios":"levelo://app?vid=8f9c263f-7889-4a85-9933-e07749969bb3"},"vehicle_type_id":"4","last_reported":1767802683,"current_range_meters":6400,"station_id":"ce4bhih2rcd13ifvqfs0","pricing_plan_id":"cebpf4jnsgd1na2vs0mg"},{"bike_id":"a0baeed8-1c2d-4b3d-a98c-a841d5f11ee9","system_id":"levelo_inurba_marseille","lat":43.23149,"lon":5.43729,"is_reserved":false,"is_disabled":false,"rental_uris":{"android":"levelo://app?vid=a0baeed8-1c2d-4b3d-a98c-a841d5f11ee9","ios":"levelo://app?vid=a0baeed8-1c2d-4b3d-a98c-a841d5f11ee9"},"vehicle_type_id":"4","last_reported":1767802683,"current_range_meters":6800,"station_id":"ce4bhmp2rcd13ifvqgog","pricing_plan_id":"cebpf4jnsgd1na2vs0mg"},{"bike_id":"ee33983f-10d1-4d63-8bde-105556f6242d","system_id":"levelo_inurba_marseille","lat":43.2618,"lon":5.37924,"is_reserved":false,"is_disabled":false,"rental_uris":{"android":"levelo://app?vid=ee33983f-10d1-4d63-8bde-105556f6242d","ios":"levelo://app?vid=ee33983f-10d1-4d63-8bde-105556f6242d"},"vehicle_type_id":"4","last_reported":1767802683,"current_range_meters":6800,"station_id":"ce4bhjp2rcd13ifvqg90","pricing_plan_id":"cebpf4jnsgd1na2vs0mg"},{"bike_id":"d4aa93f0-043b-4bba-9e4c-d0386c2a86d0","system_id":"levelo_inurba_marseille","lat":43.23749,"lon":5.36629,"is_reserved":false,"is_disabled":false,"rental_uris":{"android":"levelo://app?vid=d4aa93f0-043b-4bba-9e4c-d0386c2a86d0","ios":"levelo://app?vid=d4aa93f0-043b-4bba-9e4c-d0386c2a86d0"},"vehicle_type_id":"4","last_reported":1767802683,"current_range_meters":6800,"station_id":"st_d3nk18o9ro0c73en2l3g","pricing_plan_id":"cebpf4jnsgd1na2vs0mg"},{"bike_id":"8b3a6713-bab9-4623-b021-b708f8b5043f","system_id":"levelo_inurba_marseille","lat":43.28461,"lon":5.35873,"is_reserved":false,"is_disabled":false,"rental_uris":{"android":"levelo://app?vid=8b3a6713-bab9-4623-b021-b708f8b5043f","ios":"levelo://app?vid=8b3a6713-bab9-4623-b021-b708f8b5043f"},"vehicle_type_id":"4","last_reported":1767802683,"current_range_meters":6800,"station_id":"ce4bhah2rcd13ifvqei0","pricing_plan_id":"cebpf4jnsgd1na2vs0mg"},{"bike_id":"3a3979a9-13de-42fb-b2b5-459d626be407","system_id":"levelo_inurba_marseille","lat":43.26055,"lon":5.39399,"is_reserved":false,"is_disabled":false,"rental_uris":{"android":"levelo://app?vid=3a3979a9-13de-42fb-b2b5-459d626be407","ios":"levelo://app?vid=3a3979a9-13de-42fb-b2b5-459d626be407"},"vehicle_type_id":"4","last_reported":1767802683,"current_range_meters":6800,"station_id":"ce4bhh92rcd13ifvqfj0","pricing_plan_id":"cebpf4jnsgd1na2vs0mg"},{"bike_id":"067ca337-309a-4444-a755-1124e864d8c9","system_id":"levelo_inurba_marseille","lat":43.29535,"lon":5.39399,"is_reserved":false,"is_disabled":true,"rental_uris":{"android":"levelo://app?vid=067ca337-309a-4444-a755-1124e864d8c9","ios":"levelo://app?vid=067ca337-309a-4444-a755-1124e864d8c9"},"vehicle_type_id":"4","last_reported":1767802683,"current_range_meters":6800,"station_id":"ce4bh292rcd13ifvqdf0","pricing_plan_id":"cebpf4jnsgd1na2vs0mg"},{"bike_id":"c0c8695a-5dc1-437f-a20b-09acef88b652","system_id":"levelo_inurba_marseille","lat":43.28338,"lon":5.3507,"is_reserved":false,"is_disabled":false,"rental_uris":{"android":"levelo://app?vid=c0c8695a-5dc1-437f-a20b-09acef88b652","ios":"levelo://app?vid=c0c8695a-5dc1-437f-a20b-09acef88b652"},"vehicle_type_id":"4","last_reported":1767802683,"current_range_meters":6800,"station_id":"","pricing_plan_id":"cebpf4jnsgd1na2vs0mg"},{"bike_id":"d47e629b-67bb-41b3-8b3e-573f505df42d","system_id":"levelo_inurba_marseille","lat":43.28714,"lon":5.37944,"is_reserved":false,"is_disabled":false,"rental_uris":{"android":"levelo://app?vid=d47e629b-67bb-41b3-8b3e-573f505df42d","ios":"levelo://app?vid=d47e629b-67bb-41b3-8b3e-573f505df42d"},"vehicle_type_id":"4","last_reported":1767802683,"current_range_meters":6800,"station_id":"ce4bh9p2rcd13ifvqec0","pricing_plan_id":"cebpf4jnsgd1na2vs0mg"},{"bike_id":"70f71e0f-35b8-4600-a1e6-682d0a619314","system_id":"levelo_inurba_marseille","lat":43.31695,"lon":5.40444,"is_reserved":false,"is_disabled":false,"rental_uris":{"android":"levelo://app?vid=70f71e0f-35b8-4600-a1e6-682d0a619314","ios":"levelo://app?vid=70f71e0f-35b8-4600-a1e6-682d0a619314"},"vehicle_type_id":"4","last_reported":1767802683,"current_range_meters":6800,"station_id":"ce4bh012rcd13ifvqd00","pricing_plan_id":"cebpf4jnsgd1na2vs0mg"},{"bike_id":"c6e38eb8-7b47-4906-b177-2fd475243fa6","system_id":"levelo_inurba_marseille","lat":43.29286,"lon":5.4011,"is_reserved":false,"is_disabled":false,"rental_uris":{"android":"levelo://app?vid=c6e38eb8-7b47-4906-b177-2fd475243fa6","ios":"levelo://app?vid=c6e38eb8-7b47-4906-b177-2fd475243fa6"},"vehicle_type_id":"4","last_reported":1767802683,"current_range_meters":6800,"station_id":"ce4bh312rcd13ifvqdk0","pricing_plan_id":"cebpf4jnsgd1na2vs0mg"},{"bike_id":"75b51085-5312-446c-aaa5-d88df9edca06","system_id":"levelo_inurba_marseille","lat":43.225322,"lon":5.34826,"is_reserved":false,"is_disabled":false,"rental_uris":{"android":"levelo://app?vid=75b51085-5312-446c-aaa5-d88df9edca06","ios":"levelo://app?vid=75b51085-5312-446c-aaa5-d88df9edca06"},"vehicle_type_id":"4","last_reported":1767802683,"current_range_meters":6800,"station_id":"st_cvj5dfep6f1abm77gieg","pricing_plan_id":"cebpf4jnsgd1na2vs0mg"},{"bike_id":"222badfd-5695-4c5f-8b12-a4274837eb6d","system_id":"levelo_inurba_marseille","lat":43.2623,"lon":5.40433,"is_reserved":false,"is_disabled":false,"rental_uris":{"android":"levelo://app?vid=222badfd-5695-4c5f-8b12-a4274837eb6d","ios":"levelo://app?vid=222badfd-5695-4c5f-8b12-a4274837eb6d"},"vehicle_type_id":"4","last_reported":1767802683,"current_range_meters":6800,"station_id":"ce4bhmh2rcd13ifvqgmg","pricing_plan_id":"cebpf4jnsgd1na2vs0mg"},{"bike_id":"3f01a066-4e5f-48ef-86cf-799ad22b3248","system_id":"levelo_inurba_marseille","lat":43.29296,"lon":5.37168,"is_reserved":false,"is_disabled":false,"rental_uris":{"android":"levelo://app?vid=3f01a066-4e5f-48ef-86cf-799ad22b3248","ios":"levelo://app?vid=3f01a066-4e5f-48ef-86cf-799ad22b3248"},"vehicle_type_id":"4","last_reported":1767802683,"current_range_meters":7200,"station_id":"ce4bgh92rcd13ifvqb40","pricing_plan_id":"cebpf4jnsgd1na2vs0mg"},{"bike_id":"0622f7c5-ee76-4fc8-a5df-57e2aa3c0085","system_id":"levelo_inurba_marseille","lat":43.29924,"lon":5.38035,"is_reserved":false,"is_disabled":false,"rental_uris":{"android":"levelo://app?vid=0622f7c5-ee76-4fc8-a5df-57e2aa3c0085","ios":"levelo://app?vid=0622f7c5-ee76-4fc8-a5df-57e2aa3c0085"},"vehicle_type_id":"4","last_reported":1767802683,"current_range_meters":7200,"station_id":"","pricing_plan_id":"cebpf4jnsgd1na2vs0mg"},{"bike_id":"37dc455b-6bec-4838-8bba-f2eb31c9a25b","system_id":"levelo_inurba_marseille","lat":43.25571,"lon":5.38224,"is_reserved":false,"is_disabled":false,"rental_uris":{"android":"levelo://app?vid=37dc455b-6bec-4838-8bba-f2eb31c9a25b","ios":"levelo://app?vid=37dc455b-6bec-4838-8bba-f2eb31c9a25b"},"vehicle_type_id":"4","last_reported":1767802683,"current_range_meters":7200,"station_id":"ce4bhih2rcd13ifvqfs0","pricing_plan_id":"cebpf4jnsgd1na2vs0mg"},{"bike_id":"ca4eebf2-614c-474b-aa18-74a5ee1573cf","system_id":"levelo_inurba_marseille","lat":43.30178,"lon":5.397752,"is_reserved":false,"is_disabled":false,"rental_uris":{"android":"levelo://app?vid=ca4eebf2-614c-474b-aa18-74a5ee1573cf","ios":"levelo://app?vid=ca4eebf2-614c-474b-aa18-74a5ee1573cf"},"vehicle_type_id":"4","last_reported":1767802683,"current_range_meters":7200,"station_id":"","pricing_plan_id":"cebpf4jnsgd1na2vs0mg"},{"bike_id":"6a1a4864-d604-465c-a7f6-05f1bb288403","system_id":"levelo_inurba_marseille","lat":43.30743,"lon":5.4243,"is_reserved":false,"is_disabled":false,"rental_uris":{"android":"levelo://app?vid=6a1a4864-d604-465c-a7f6-05f1bb288403","ios":"levelo://app?vid=6a1a4864-d604-465c-a7f6-05f1bb288403"},"vehicle_type_id":"4","last_reported":1767802683,"current_range_meters":7200,"station_id":"st_cvj6ca6bvosntc0bfgr0","pricing_plan_id":"cebpf4jnsgd1na2vs0mg"},{"bike_id":"7fc53fa6-f85c-423c-86d5-704a6cda6137","system_id":"levelo_inurba_marseille","lat":43.31252,"lon":5.36845,"is_reserved":false,"is_disabled":false,"rental_uris":{"android":"levelo://app?vid=7fc53fa6-f85c-423c-86d5-704a6cda6137","ios":"levelo://app?vid=7fc53fa6-f85c-423c-86d5-704a6cda6137"},"vehicle_type_id":"4","last_reported":1767802683,"current_range_meters":7200,"station_id":"ce4bgl92rcd13ifvqbq0","pricing_plan_id":"cebpf4jnsgd1na2vs0mg"},{"bike_id":"772bf3b5-2fb2-4abd-a529-fdf3012df8cc","system_id":"levelo_inurba_marseille","lat":43.25191,"lon":5.40595,"is_reserved":false,"is_disabled":false,"rental_uris":{"android":"levelo://app?vid=772bf3b5-2fb2-4abd-a529-fdf3012df8cc","ios":"levelo://app?vid=772bf3b5-2fb2-4abd-a529-fdf3012df8cc"},"vehicle_type_id":"4","last_reported":1767802683,"current_range_meters":7200,"station_id":"","pricing_plan_id":"cebpf4jnsgd1na2vs0mg"},{"bike_id":"f323eec5-f654-4bdf-8118-8c8db52565b4","system_id":"levelo_inurba_marseille","lat":43.28507,"lon":5.38716,"is_reserved":false,"is_disabled":false,"rental_uris":{"android":"levelo://app?vid=f323eec5-f654-4bdf-8118-8c8db52565b4","ios":"levelo://app?vid=f323eec5-f654-4bdf-8118-8c8db52565b4"},"vehicle_type_id":"4","last_reported":1767802683,"current_range_meters":7200,"station_id":"","pricing_plan_id":"cebpf4jnsgd1na2vs0mg"},{"bike_id":"d311e83f-a1e3-4e4b-bc51-98ee46938913","system_id":"levelo_inurba_marseille","lat":43.29042,"lon":5.39971,"is_reserved":false,"is_disabled":false,"rental_uris":{"android":"levelo://app?vid=d311e83f-a1e3-4e4b-bc51-98ee46938913","ios":"levelo://app?vid=d311e83f-a1e3-4e4b-bc51-98ee46938913"},"vehicle_type_id":"4","last_reported":1767802683,"current_range_meters":7200,"station_id":"ce4bh392rcd13ifvqdm0","pricing_plan_id":"cebpf4jnsgd1na2vs0mg"},{"bike_id":"e2d1cf16-31d1-4d95-af7b-035607c2f450","system_id":"levelo_inurba_marseille","lat":43.29808,"lon":5.37114,"is_reserved":false,"is_disabled":false,"rental_uris":{"android":"levelo://app?vid=e2d1cf16-31d1-4d95-af7b-035607c2f450","ios":"levelo://app?vid=e2d1cf16-31d1-4d95-af7b-035607c2f450"},"vehicle_type_id":"4","last_reported":1767802683,"current_range_meters":7200,"station_id":"ce4bgop2rcd13ifvqc1g","pricing_plan_id":"cebpf4jnsgd1na2vs0mg"},{"bike_id":"44fa942a-7f3c-4db8-b498-e46e05b08cc0","system_id":"levelo_inurba_marseille","lat":43.26458,"lon":5.3961,"is_reserved":false,"is_disabled":false,"rental_uris":{"android":"levelo://app?vid=44fa942a-7f3c-4db8-b498-e46e05b08cc0","ios":"levelo://app?vid=44fa942a-7f3c-4db8-b498-e46e05b08cc0"},"vehicle_type_id":"4","last_reported":1767802683,"current_range_meters":7200,"station_id":"","pricing_plan_id":"cebpf4jnsgd1na2vs0mg"},{"bike_id":"e2de6e33-136a-4b50-9bee-761873cb6ead","system_id":"levelo_inurba_marseille","lat":43.26055,"lon":5.39405,"is_reserved":false,"is_disabled":false,"rental_uris":{"android":"levelo://app?vid=e2de6e33-136a-4b50-9bee-761873cb6ead","ios":"levelo://app?vid=e2de6e33-136a-4b50-9bee-761873cb6ead"},"vehicle_type_id":"4","last_reported":1767802683,"current_range_meters":7200,"station_id":"ce4bhh92rcd13ifvqfj0","pricing_plan_id":"cebpf4jnsgd1na2vs0mg"},{"bike_id":"4db89cd4-c5c0-4b0d-9bc8-e5c1ff64bca0","system_id":"levelo_inurba_marseille","lat":43.29581,"lon":5.38087,"is_reserved":false,"is_disabled":false,"rental_uris":{"android":"levelo://app?vid=4db89cd4-c5c0-4b0d-9bc8-e5c1ff64bca0","ios":"levelo://app?vid=4db89cd4-c5c0-4b0d-9bc8-e5c1ff64bca0"},"vehicle_type_id":"4","last_reported":1767802683,"current_range_meters":7200,"station_id":"ce4bgl12rcd13ifvqbo0","pricing_plan_id":"cebpf4jnsgd1na2vs0mg"},{"bike_id":"8e9cd320-222e-4849-8f3f-db8fcd5c5954","system_id":"levelo_inurba_marseille","lat":43.31815,"lon":5.36865,"is_reserved":false,"is_disabled":false,"rental_uris":{"android":"levelo://app?vid=8e9cd320-222e-4849-8f3f-db8fcd5c5954","ios":"levelo://app?vid=8e9cd320-222e-4849-8f3f-db8fcd5c5954"},"vehicle_type_id":"4","last_reported":1767802683,"current_range_meters":7200,"station_id":"","pricing_plan_id":"cebpf4jnsgd1na2vs0mg"},{"bike_id":"44833d54-0e08-4546-b788-0c7150b05378","system_id":"levelo_inurba_marseille","lat":43.2848,"lon":5.48383,"is_reserved":false,"is_disabled":false,"rental_uris":{"android":"levelo://app?vid=44833d54-0e08-4546-b788-0c7150b05378","ios":"levelo://app?vid=44833d54-0e08-4546-b788-0c7150b05378"},"vehicle_type_id":"4","last_reported":1767802683,"current_range_meters":7200,"station_id":"st_d3svhcjqgbts73a3dn0g","pricing_plan_id":"cebpf4jnsgd1na2vs0mg"},{"bike_id":"34a77439-f7dd-4164-bccb-78321bd42aa1","system_id":"levelo_inurba_marseille","lat":43.28272,"lon":5.35059,"is_reserved":false,"is_disabled":false,"rental_uris":{"android":"levelo://app?vid=34a77439-f7dd-4164-bccb-78321bd42aa1","ios":"levelo://app?vid=34a77439-f7dd-4164-bccb-78321bd42aa1"},"vehicle_type_id":"4","last_reported":1767802683,"current_range_meters":7200,"station_id":"ce4bhbp2rcd13ifvqerg","pricing_plan_id":"cebpf4jnsgd1na2vs0mg"},{"bike_id":"fe176af7-89fe-4080-9879-5358fa62f37f","system_id":"levelo_inurba_marseille","lat":43.28423,"lon":5.34987,"is_reserved":false,"is_disabled":false,"rental_uris":{"android":"levelo://app?vid=fe176af7-89fe-4080-9879-5358fa62f37f","ios":"levelo://app?vid=fe176af7-89fe-4080-9879-5358fa62f37f"},"vehicle_type_id":"4","last_reported":1767802683,"current_range_meters":7200,"station_id":"ce4bhbh2rcd13ifvqepg","pricing_plan_id":"cebpf4jnsgd1na2vs0mg"},{"bike_id":"98249e23-d727-42e2-bc64-1013f35aedc9","system_id":"levelo_inurba_marseille","lat":43.23061,"lon":5.3549,"is_reserved":false,"is_disabled":false,"rental_uris":{"android":"levelo://app?vid=98249e23-d727-42e2-bc64-1013f35aedc9","ios":"levelo://app?vid=98249e23-d727-42e2-bc64-1013f35aedc9"},"vehicle_type_id":"4","last_reported":1767802683,"current_range_meters":8000,"station_id":"cpo3342slgdg3j2ifvpg","pricing_plan_id":"cebpf4jnsgd1na2vs0mg"},{"bike_id":"3697b8c2-beb9-483a-9838-ccac7c3035dd","system_id":"levelo_inurba_marseille","lat":43.30152,"lon":5.38077,"is_reserved":false,"is_disabled":false,"rental_uris":{"android":"levelo://app?vid=3697b8c2-beb9-483a-9838-ccac7c3035dd","ios":"levelo://app?vid=3697b8c2-beb9-483a-9838-ccac7c3035dd"},"vehicle_type_id":"4","last_reported":1767802683,"current_range_meters":8000,"station_id":"ce4bgjp2rcd13ifvqbh0","pricing_plan_id":"cebpf4jnsgd1na2vs0mg"},{"bike_id":"58225b8d-28fd-4cc2-91f8-83ea7f334d78","system_id":"levelo_inurba_marseille","lat":43.3115,"lon":5.36908,"is_reserved":false,"is_disabled":false,"rental_uris":{"android":"levelo://app?vid=58225b8d-28fd-4cc2-91f8-83ea7f334d78","ios":"levelo://app?vid=58225b8d-28fd-4cc2-91f8-83ea7f334d78"},"vehicle_type_id":"4","last_reported":1767802683,"current_range_meters":8000,"station_id":"","pricing_plan_id":"cebpf4jnsgd1na2vs0mg"},{"bike_id":"d293f938-06f4-47c6-ae6d-906beae764af","system_id":"levelo_inurba_marseille","lat":43.28002,"lon":5.400124,"is_reserved":false,"is_disabled":false,"rental_uris":{"android":"levelo://app?vid=d293f938-06f4-47c6-ae6d-906beae764af","ios":"levelo://app?vid=d293f938-06f4-47c6-ae6d-906beae764af"},"vehicle_type_id":"4","last_reported":1767802683,"current_range_meters":8000,"station_id":"ce4bho92rcd13ifvqh4g","pricing_plan_id":"cebpf4jnsgd1na2vs0mg"},{"bike_id":"f9694d4b-6e2f-4fc5-ae06-59dad6b1ea4d","system_id":"levelo_inurba_marseille","lat":43.25019,"lon":5.37528,"is_reserved":false,"is_disabled":false,"rental_uris":{"android":"levelo://app?vid=f9694d4b-6e2f-4fc5-ae06-59dad6b1ea4d","ios":"levelo://app?vid=f9694d4b-6e2f-4fc5-ae06-59dad6b1ea4d"},"vehicle_type_id":"4","last_reported":1767802683,"current_range_meters":8000,"station_id":"","pricing_plan_id":"cebpf4jnsgd1na2vs0mg"},{"bike_id":"3cab5084-314a-4ac7-8e10-1255d6e07f7a","system_id":"levelo_inurba_marseille","lat":43.29778,"lon":5.37091,"is_reserved":false,"is_disabled":true,"rental_uris":{"android":"levelo://app?vid=3cab5084-314a-4ac7-8e10-1255d6e07f7a","ios":"levelo://app?vid=3cab5084-314a-4ac7-8e10-1255d6e07f7a"},"vehicle_type_id":"4","last_reported":1767802683,"current_range_meters":8000,"station_id":"ce4bgop2rcd13ifvqc1g","pricing_plan_id":"cebpf4jnsgd1na2vs0mg"},{"bike_id":"ca1d35d4-f094-4c2e-88a6-d503971153c5","system_id":"levelo_inurba_marseille","lat":43.29001,"lon":5.3812,"is_reserved":false,"is_disabled":false,"rental_uris":{"android":"levelo://app?vid=ca1d35d4-f094-4c2e-88a6-d503971153c5","ios":"levelo://app?vid=ca1d35d4-f094-4c2e-88a6-d503971153c5"},"vehicle_type_id":"4","last_reported":1767802683,"current_range_meters":8000,"station_id":"ce4bh4p2rcd13ifvqe1g","pricing_plan_id":"cebpf4jnsgd1na2vs0mg"},{"bike_id":"0752e6da-8121-4638-ad6a-55b2cebd5887","system_id":"levelo_inurba_marseille","lat":43.28119,"lon":5.37817,"is_reserved":false,"is_disabled":false,"rental_uris":{"android":"levelo://app?vid=0752e6da-8121-4638-ad6a-55b2cebd5887","ios":"levelo://app?vid=0752e6da-8121-4638-ad6a-55b2cebd5887"},"vehicle_type_id":"4","last_reported":1767802683,"current_range_meters":8000,"station_id":"ce4bha12rcd13ifvqee0","pricing_plan_id":"cebpf4jnsgd1na2vs0mg"},{"bike_id":"1ec10a54-2423-4914-961d-8eb5d988b9cc","system_id":"levelo_inurba_marseille","lat":43.26549,"lon":5.37267,"is_reserved":false,"is_disabled":false,"rental_uris":{"android":"levelo://app?vid=1ec10a54-2423-4914-961d-8eb5d988b9cc","ios":"levelo://app?vid=1ec10a54-2423-4914-961d-8eb5d988b9cc"},"vehicle_type_id":"4","last_reported":1767802683,"current_range_meters":8000,"station_id":"ce4bhg12rcd13ifvqf70","pricing_plan_id":"cebpf4jnsgd1na2vs0mg"},{"bike_id":"0c83f1ea-95ce-45ca-9676-02b0da2c2cfa","system_id":"levelo_inurba_marseille","lat":43.3104,"lon":5.37167,"is_reserved":false,"is_disabled":false,"rental_uris":{"android":"levelo://app?vid=0c83f1ea-95ce-45ca-9676-02b0da2c2cfa","ios":"levelo://app?vid=0c83f1ea-95ce-45ca-9676-02b0da2c2cfa"},"vehicle_type_id":"4","last_reported":1767802683,"current_range_meters":8000,"station_id":"st_d4kl2rp97mjs73e7tdfg","pricing_plan_id":"cebpf4jnsgd1na2vs0mg"},{"bike_id":"1d91f66a-9898-4bf5-8ad1-330eebb5f414","system_id":"levelo_inurba_marseille","lat":43.30244,"lon":5.4006,"is_reserved":false,"is_disabled":false,"rental_uris":{"android":"levelo://app?vid=1d91f66a-9898-4bf5-8ad1-330eebb5f414","ios":"levelo://app?vid=1d91f66a-9898-4bf5-8ad1-330eebb5f414"},"vehicle_type_id":"4","last_reported":1767802683,"current_range_meters":8000,"station_id":"ce4bgvh2rcd13ifvqcs0","pricing_plan_id":"cebpf4jnsgd1na2vs0mg"},{"bike_id":"31ee1072-44ae-4f71-b06c-c86c3965fcef","system_id":"levelo_inurba_marseille","lat":43.26564,"lon":5.37273,"is_reserved":false,"is_disabled":false,"rental_uris":{"android":"levelo://app?vid=31ee1072-44ae-4f71-b06c-c86c3965fcef","ios":"levelo://app?vid=31ee1072-44ae-4f71-b06c-c86c3965fcef"},"vehicle_type_id":"4","last_reported":1767802683,"current_range_meters":8000,"station_id":"ce4bhg12rcd13ifvqf70","pricing_plan_id":"cebpf4jnsgd1na2vs0mg"},{"bike_id":"7934d60c-c99b-41b2-8798-3875f8cc4eb1","system_id":"levelo_inurba_marseille","lat":43.337444,"lon":5.374475,"is_reserved":false,"is_disabled":false,"rental_uris":{"android":"levelo://app?vid=7934d60c-c99b-41b2-8798-3875f8cc4eb1","ios":"levelo://app?vid=7934d60c-c99b-41b2-8798-3875f8cc4eb1"},"vehicle_type_id":"4","last_reported":1767802683,"current_range_meters":8000,"station_id":"","pricing_plan_id":"cebpf4jnsgd1na2vs0mg"},{"bike_id":"8350f457-923e-4b89-9eda-9554251758be","system_id":"levelo_inurba_marseille","lat":43.29609,"lon":5.37718,"is_reserved":false,"is_disabled":false,"rental_uris":{"android":"levelo://app?vid=8350f457-923e-4b89-9eda-9554251758be","ios":"levelo://app?vid=8350f457-923e-4b89-9eda-9554251758be"},"vehicle_type_id":"4","last_reported":1767802683,"current_range_meters":8000,"station_id":"ce4bgi92rcd13ifvqb90","pricing_plan_id":"cebpf4jnsgd1na2vs0mg"},{"bike_id":"d0d67774-3af3-4c86-b7b6-8109c321647b","system_id":"levelo_inurba_marseille","lat":43.22949,"lon":5.35375,"is_reserved":false,"is_disabled":false,"rental_uris":{"android":"levelo://app?vid=d0d67774-3af3-4c86-b7b6-8109c321647b","ios":"levelo://app?vid=d0d67774-3af3-4c86-b7b6-8109c321647b"},"vehicle_type_id":"4","last_reported":1767802683,"current_range_meters":8000,"station_id":"cpo3532slgdg3j2ikp40","pricing_plan_id":"cebpf4jnsgd1na2vs0mg"},{"bike_id":"7bed6c7f-598e-48e9-bae3-214e5eee84f3","system_id":"levelo_inurba_marseille","lat":43.2446,"lon":5.42541,"is_reserved":false,"is_disabled":false,"rental_uris":{"android":"levelo://app?vid=7bed6c7f-598e-48e9-bae3-214e5eee84f3","ios":"levelo://app?vid=7bed6c7f-598e-48e9-bae3-214e5eee84f3"},"vehicle_type_id":"4","last_reported":1767802683,"current_range_meters":8400,"station_id":"st_d4a3vfp97mjs738cd8kg","pricing_plan_id":"cebpf4jnsgd1na2vs0mg"},{"bike_id":"6f736490-22b7-49cc-876e-28f8d1695e39","system_id":"levelo_inurba_marseille","lat":43.24408,"lon":5.37035,"is_reserved":false,"is_disabled":false,"rental_uris":{"android":"levelo://app?vid=6f736490-22b7-49cc-876e-28f8d1695e39","ios":"levelo://app?vid=6f736490-22b7-49cc-876e-28f8d1695e39"},"vehicle_type_id":"4","last_reported":1767802683,"current_range_meters":8400,"station_id":"ce4bhhh2rcd13ifvqfk0","pricing_plan_id":"cebpf4jnsgd1na2vs0mg"},{"bike_id":"f9cdabe3-4db0-4ef0-b00c-2bd7a137fc3c","system_id":"levelo_inurba_marseille","lat":43.28004,"lon":5.40008,"is_reserved":false,"is_disabled":false,"rental_uris":{"android":"levelo://app?vid=f9cdabe3-4db0-4ef0-b00c-2bd7a137fc3c","ios":"levelo://app?vid=f9cdabe3-4db0-4ef0-b00c-2bd7a137fc3c"},"vehicle_type_id":"4","last_reported":1767802683,"current_range_meters":8400,"station_id":"ce4bho92rcd13ifvqh4g","pricing_plan_id":"cebpf4jnsgd1na2vs0mg"},{"bike_id":"9e67ac1e-3627-4f55-a031-abf35eb3bad6","system_id":"levelo_inurba_marseille","lat":43.30214,"lon":5.39463,"is_reserved":false,"is_disabled":false,"rental_uris":{"android":"levelo://app?vid=9e67ac1e-3627-4f55-a031-abf35eb3bad6","ios":"levelo://app?vid=9e67ac1e-3627-4f55-a031-abf35eb3bad6"},"vehicle_type_id":"4","last_reported":1767802683,"current_range_meters":8400,"station_id":"ce4bh0p2rcd13ifvqd70","pricing_plan_id":"cebpf4jnsgd1na2vs0mg"},{"bike_id":"948bd2ed-8fdc-4ef6-9827-a943cc835e12","system_id":"levelo_inurba_marseille","lat":43.301277,"lon":5.431171,"is_reserved":false,"is_disabled":false,"rental_uris":{"android":"levelo://app?vid=948bd2ed-8fdc-4ef6-9827-a943cc835e12","ios":"levelo://app?vid=948bd2ed-8fdc-4ef6-9827-a943cc835e12"},"vehicle_type_id":"4","last_reported":1767802683,"current_range_meters":8400,"station_id":"st_d3js3co5814s73ftftug","pricing_plan_id":"cebpf4jnsgd1na2vs0mg"},{"bike_id":"f9f1c4e5-eda0-46df-83e3-536bcaf65acd","system_id":"levelo_inurba_marseille","lat":43.284801,"lon":5.384054,"is_reserved":false,"is_disabled":false,"rental_uris":{"android":"levelo://app?vid=f9f1c4e5-eda0-46df-83e3-536bcaf65acd","ios":"levelo://app?vid=f9f1c4e5-eda0-46df-83e3-536bcaf65acd"},"vehicle_type_id":"4","last_reported":1767802683,"current_range_meters":8400,"station_id":"ce4bh512rcd13ifvqe3g","pricing_plan_id":"cebpf4jnsgd1na2vs0mg"},{"bike_id":"e90f7184-cd39-4bc0-805c-9ce2c7183400","system_id":"levelo_inurba_marseille","lat":43.26212,"lon":5.37927,"is_reserved":false,"is_disabled":false,"rental_uris":{"android":"levelo://app?vid=e90f7184-cd39-4bc0-805c-9ce2c7183400","ios":"levelo://app?vid=e90f7184-cd39-4bc0-805c-9ce2c7183400"},"vehicle_type_id":"4","last_reported":1767802683,"current_range_meters":8400,"station_id":"ce4bhjp2rcd13ifvqg90","pricing_plan_id":"cebpf4jnsgd1na2vs0mg"},{"bike_id":"6780348f-fb93-4884-95fc-676ab6258ce9","system_id":"levelo_inurba_marseille","lat":43.2708,"lon":5.3829,"is_reserved":false,"is_disabled":true,"rental_uris":{"android":"levelo://app?vid=6780348f-fb93-4884-95fc-676ab6258ce9","ios":"levelo://app?vid=6780348f-fb93-4884-95fc-676ab6258ce9"},"vehicle_type_id":"4","last_reported":1767802683,"current_range_meters":8400,"station_id":"st_d3n2fo6cfp8s73cte1j0","pricing_plan_id":"cebpf4jnsgd1na2vs0mg"},{"bike_id":"780500eb-370a-4502-914f-e328976e71c0","system_id":"levelo_inurba_marseille","lat":43.29974,"lon":5.37183,"is_reserved":false,"is_disabled":false,"rental_uris":{"android":"levelo://app?vid=780500eb-370a-4502-914f-e328976e71c0","ios":"levelo://app?vid=780500eb-370a-4502-914f-e328976e71c0"},"vehicle_type_id":"4","last_reported":1767802683,"current_range_meters":8400,"station_id":"ce4bgr92rcd13ifvqc7g","pricing_plan_id":"cebpf4jnsgd1na2vs0mg"},{"bike_id":"d2b236fd-63f8-44e9-afc0-b78adcf2bc46","system_id":"levelo_inurba_marseille","lat":43.308841,"lon":5.371915,"is_reserved":false,"is_disabled":false,"rental_uris":{"android":"levelo://app?vid=d2b236fd-63f8-44e9-afc0-b78adcf2bc46","ios":"levelo://app?vid=d2b236fd-63f8-44e9-afc0-b78adcf2bc46"},"vehicle_type_id":"4","last_reported":1767802683,"current_range_meters":8400,"station_id":"ce4bguh2rcd13ifvqckg","pricing_plan_id":"cebpf4jnsgd1na2vs0mg"},{"bike_id":"c8c1aa50-52ee-4a44-a747-7f890059cda6","system_id":"levelo_inurba_marseille","lat":43.2378,"lon":5.366296,"is_reserved":false,"is_disabled":false,"rental_uris":{"android":"levelo://app?vid=c8c1aa50-52ee-4a44-a747-7f890059cda6","ios":"levelo://app?vid=c8c1aa50-52ee-4a44-a747-7f890059cda6"},"vehicle_type_id":"4","last_reported":1767802683,"current_range_meters":8400,"station_id":"","pricing_plan_id":"cebpf4jnsgd1na2vs0mg"},{"bike_id":"318ab7ee-cd4e-4fbb-a198-dc67360e53a7","system_id":"levelo_inurba_marseille","lat":43.22925,"lon":5.35376,"is_reserved":false,"is_disabled":false,"rental_uris":{"android":"levelo://app?vid=318ab7ee-cd4e-4fbb-a198-dc67360e53a7","ios":"levelo://app?vid=318ab7ee-cd4e-4fbb-a198-dc67360e53a7"},"vehicle_type_id":"4","last_reported":1767802683,"current_range_meters":8400,"station_id":"cpo3532slgdg3j2ikp40","pricing_plan_id":"cebpf4jnsgd1na2vs0mg"},{"bike_id":"6a506d18-19d8-47d5-bbb9-fabd4cda050b","system_id":"levelo_inurba_marseille","lat":43.31518,"lon":5.37271,"is_reserved":false,"is_disabled":false,"rental_uris":{"android":"levelo://app?vid=6a506d18-19d8-47d5-bbb9-fabd4cda050b","ios":"levelo://app?vid=6a506d18-19d8-47d5-bbb9-fabd4cda050b"},"vehicle_type_id":"4","last_reported":1767802683,"current_range_meters":8400,"station_id":"","pricing_plan_id":"cebpf4jnsgd1na2vs0mg"},{"bike_id":"ad612c5f-34f3-4c2c-ac12-9932980f732b","system_id":"levelo_inurba_marseille","lat":43.28489,"lon":5.38411,"is_reserved":false,"is_disabled":false,"rental_uris":{"android":"levelo://app?vid=ad612c5f-34f3-4c2c-ac12-9932980f732b","ios":"levelo://app?vid=ad612c5f-34f3-4c2c-ac12-9932980f732b"},"vehicle_type_id":"4","last_reported":1767802683,"current_range_meters":8400,"station_id":"ce4bh512rcd13ifvqe3g","pricing_plan_id":"cebpf4jnsgd1na2vs0mg"},{"bike_id":"65a75831-8083-44de-8d34-fcaa11209b00","system_id":"levelo_inurba_marseille","lat":43.29288,"lon":5.36841,"is_reserved":false,"is_disabled":false,"rental_uris":{"android":"levelo://app?vid=65a75831-8083-44de-8d34-fcaa11209b00","ios":"levelo://app?vid=65a75831-8083-44de-8d34-fcaa11209b00"},"vehicle_type_id":"4","last_reported":1767802683,"current_range_meters":8400,"station_id":"ce4bhbp2rcd13ifvqesg","pricing_plan_id":"cebpf4jnsgd1na2vs0mg"},{"bike_id":"e3ffb854-e428-4a18-904d-ea5ddd084e10","system_id":"levelo_inurba_marseille","lat":43.32358,"lon":5.36733,"is_reserved":false,"is_disabled":false,"rental_uris":{"android":"levelo://app?vid=e3ffb854-e428-4a18-904d-ea5ddd084e10","ios":"levelo://app?vid=e3ffb854-e428-4a18-904d-ea5ddd084e10"},"vehicle_type_id":"4","last_reported":1767802683,"current_range_meters":8400,"station_id":"ce4bhsh2rcd13ifvqi2g","pricing_plan_id":"cebpf4jnsgd1na2vs0mg"},{"bike_id":"ca27890e-612e-41f2-b590-56bc13733871","system_id":"levelo_inurba_marseille","lat":43.31074,"lon":5.38349,"is_reserved":false,"is_disabled":false,"rental_uris":{"android":"levelo://app?vid=ca27890e-612e-41f2-b590-56bc13733871","ios":"levelo://app?vid=ca27890e-612e-41f2-b590-56bc13733871"},"vehicle_type_id":"4","last_reported":1767802683,"current_range_meters":8400,"station_id":"ce4bgv92rcd13ifvqcr0","pricing_plan_id":"cebpf4jnsgd1na2vs0mg"},{"bike_id":"0b08096c-4995-449d-9715-13377335d815","system_id":"levelo_inurba_marseille","lat":43.225649,"lon":5.416324,"is_reserved":false,"is_disabled":false,"rental_uris":{"android":"levelo://app?vid=0b08096c-4995-449d-9715-13377335d815","ios":"levelo://app?vid=0b08096c-4995-449d-9715-13377335d815"},"vehicle_type_id":"4","last_reported":1767802683,"current_range_meters":8400,"station_id":"st_d2o4gvlbi1j2169b742g","pricing_plan_id":"cebpf4jnsgd1na2vs0mg"},{"bike_id":"037f3da2-a9a4-448b-9f35-b11f69d80e0e","system_id":"levelo_inurba_marseille","lat":43.297172,"lon":5.37695,"is_reserved":false,"is_disabled":false,"rental_uris":{"android":"levelo://app?vid=037f3da2-a9a4-448b-9f35-b11f69d80e0e","ios":"levelo://app?vid=037f3da2-a9a4-448b-9f35-b11f69d80e0e"},"vehicle_type_id":"4","last_reported":1767802683,"current_range_meters":8400,"station_id":"ce4bgkh2rcd13ifvqbl0","pricing_plan_id":"cebpf4jnsgd1na2vs0mg"},{"bike_id":"8f17ebb7-bf09-41bd-8c34-3774096b8f65","system_id":"levelo_inurba_marseille","lat":43.31712,"lon":5.43701,"is_reserved":false,"is_disabled":false,"rental_uris":{"android":"levelo://app?vid=8f17ebb7-bf09-41bd-8c34-3774096b8f65","ios":"levelo://app?vid=8f17ebb7-bf09-41bd-8c34-3774096b8f65"},"vehicle_type_id":"4","last_reported":1767802683,"current_range_meters":8400,"station_id":"ce4bhp92rcd13ifvqhcg","pricing_plan_id":"cebpf4jnsgd1na2vs0mg"},{"bike_id":"60261236-4956-4847-96bc-10f2e96b99df","system_id":"levelo_inurba_marseille","lat":43.27928,"lon":5.39581,"is_reserved":false,"is_disabled":false,"rental_uris":{"android":"levelo://app?vid=60261236-4956-4847-96bc-10f2e96b99df","ios":"levelo://app?vid=60261236-4956-4847-96bc-10f2e96b99df"},"vehicle_type_id":"4","last_reported":1767802683,"current_range_meters":8400,"station_id":"ce4bhf92rcd13ifvqf40","pricing_plan_id":"cebpf4jnsgd1na2vs0mg"},{"bike_id":"9f3d2b3d-a5e7-419b-b799-02a2b4d744f1","system_id":"levelo_inurba_marseille","lat":43.29529,"lon":5.39399,"is_reserved":false,"is_disabled":false,"rental_uris":{"android":"levelo://app?vid=9f3d2b3d-a5e7-419b-b799-02a2b4d744f1","ios":"levelo://app?vid=9f3d2b3d-a5e7-419b-b799-02a2b4d744f1"},"vehicle_type_id":"4","last_reported":1767802683,"current_range_meters":8400,"station_id":"ce4bh292rcd13ifvqdf0","pricing_plan_id":"cebpf4jnsgd1na2vs0mg"},{"bike_id":"e333ef92-9481-476e-a416-b4070e2823b7","system_id":"levelo_inurba_marseille","lat":43.255,"lon":5.37655,"is_reserved":false,"is_disabled":false,"rental_uris":{"android":"levelo://app?vid=e333ef92-9481-476e-a416-b4070e2823b7","ios":"levelo://app?vid=e333ef92-9481-476e-a416-b4070e2823b7"},"vehicle_type_id":"4","last_reported":1767802683,"current_range_meters":8400,"station_id":"ce4bhh12rcd13ifvqff0","pricing_plan_id":"cebpf4jnsgd1na2vs0mg"},{"bike_id":"628f27aa-2421-455b-9fbc-8ee0495e7016","system_id":"levelo_inurba_marseille","lat":43.24384,"lon":5.37042,"is_reserved":false,"is_disabled":false,"rental_uris":{"android":"levelo://app?vid=628f27aa-2421-455b-9fbc-8ee0495e7016","ios":"levelo://app?vid=628f27aa-2421-455b-9fbc-8ee0495e7016"},"vehicle_type_id":"4","last_reported":1767802683,"current_range_meters":8400,"station_id":"ce4bhhh2rcd13ifvqfk0","pricing_plan_id":"cebpf4jnsgd1na2vs0mg"},{"bike_id":"47d0a8b3-c4fc-4d20-befe-0d9c69ad92a9","system_id":"levelo_inurba_marseille","lat":43.238017,"lon":5.36647,"is_reserved":false,"is_disabled":false,"rental_uris":{"android":"levelo://app?vid=47d0a8b3-c4fc-4d20-befe-0d9c69ad92a9","ios":"levelo://app?vid=47d0a8b3-c4fc-4d20-befe-0d9c69ad92a9"},"vehicle_type_id":"4","last_reported":1767802683,"current_range_meters":8400,"station_id":"st_d3nk18o9ro0c73en2l3g","pricing_plan_id":"cebpf4jnsgd1na2vs0mg"},{"bike_id":"5a68ff48-3ca4-4b8d-81f5-0545c9e06ce5","system_id":"levelo_inurba_marseille","lat":43.28875,"lon":5.42514,"is_reserved":false,"is_disabled":false,"rental_uris":{"android":"levelo://app?vid=5a68ff48-3ca4-4b8d-81f5-0545c9e06ce5","ios":"levelo://app?vid=5a68ff48-3ca4-4b8d-81f5-0545c9e06ce5"},"vehicle_type_id":"4","last_reported":1767802683,"current_range_meters":8800,"station_id":"st_d3b462108ojc7389ooeg","pricing_plan_id":"cebpf4jnsgd1na2vs0mg"},{"bike_id":"f6c1d545-d8df-48a4-b906-098a561f57c6","system_id":"levelo_inurba_marseille","lat":43.29494,"lon":5.43278,"is_reserved":false,"is_disabled":false,"rental_uris":{"android":"levelo://app?vid=f6c1d545-d8df-48a4-b906-098a561f57c6","ios":"levelo://app?vid=f6c1d545-d8df-48a4-b906-098a561f57c6"},"vehicle_type_id":"4","last_reported":1767802683,"current_range_meters":8800,"station_id":"st_d3j5ugp08ojc73fj9d10","pricing_plan_id":"cebpf4jnsgd1na2vs0mg"},{"bike_id":"716f70c6-c645-4189-bca5-9c06dfbd6c99","system_id":"levelo_inurba_marseille","lat":43.29802,"lon":5.38123,"is_reserved":false,"is_disabled":false,"rental_uris":{"android":"levelo://app?vid=716f70c6-c645-4189-bca5-9c06dfbd6c99","ios":"levelo://app?vid=716f70c6-c645-4189-bca5-9c06dfbd6c99"},"vehicle_type_id":"4","last_reported":1767802683,"current_range_meters":8800,"station_id":"ce4bgip2rcd13ifvqbb0","pricing_plan_id":"cebpf4jnsgd1na2vs0mg"},{"bike_id":"19e15d06-cf4c-459d-8887-b3feaa0bcacf","system_id":"levelo_inurba_marseille","lat":43.32842,"lon":5.40479,"is_reserved":false,"is_disabled":false,"rental_uris":{"android":"levelo://app?vid=19e15d06-cf4c-459d-8887-b3feaa0bcacf","ios":"levelo://app?vid=19e15d06-cf4c-459d-8887-b3feaa0bcacf"},"vehicle_type_id":"4","last_reported":1767802683,"current_range_meters":8800,"station_id":"ce4bhq92rcd13ifvqhkg","pricing_plan_id":"cebpf4jnsgd1na2vs0mg"},{"bike_id":"d71e68de-cd14-4ba9-a968-9ec46d820fce","system_id":"levelo_inurba_marseille","lat":43.29262,"lon":5.40897,"is_reserved":false,"is_disabled":false,"rental_uris":{"android":"levelo://app?vid=d71e68de-cd14-4ba9-a968-9ec46d820fce","ios":"levelo://app?vid=d71e68de-cd14-4ba9-a968-9ec46d820fce"},"vehicle_type_id":"4","last_reported":1767802683,"current_range_meters":8800,"station_id":"ce4bh192rcd13ifvqdc0","pricing_plan_id":"cebpf4jnsgd1na2vs0mg"},{"bike_id":"7e56ead6-0dcc-483d-86d1-d4af73c68e4a","system_id":"levelo_inurba_marseille","lat":43.29381,"lon":5.38611,"is_reserved":false,"is_disabled":true,"rental_uris":{"android":"levelo://app?vid=7e56ead6-0dcc-483d-86d1-d4af73c68e4a","ios":"levelo://app?vid=7e56ead6-0dcc-483d-86d1-d4af73c68e4a"},"vehicle_type_id":"4","last_reported":1767802683,"current_range_meters":8800,"station_id":"","pricing_plan_id":"cebpf4jnsgd1na2vs0mg"},{"bike_id":"fe99a84f-5ce7-4cef-a997-e79fffe9bddd","system_id":"levelo_inurba_marseille","lat":43.32097,"lon":5.36759,"is_reserved":false,"is_disabled":false,"rental_uris":{"android":"levelo://app?vid=fe99a84f-5ce7-4cef-a997-e79fffe9bddd","ios":"levelo://app?vid=fe99a84f-5ce7-4cef-a997-e79fffe9bddd"},"vehicle_type_id":"4","last_reported":1767802683,"current_range_meters":8800,"station_id":"ce4bhrh2rcd13ifvqhug","pricing_plan_id":"cebpf4jnsgd1na2vs0mg"},{"bike_id":"17ffc005-fa72-4d1f-9413-b31aab6a3fd6","system_id":"levelo_inurba_marseille","lat":43.32342,"lon":5.36765,"is_reserved":false,"is_disabled":false,"rental_uris":{"android":"levelo://app?vid=17ffc005-fa72-4d1f-9413-b31aab6a3fd6","ios":"levelo://app?vid=17ffc005-fa72-4d1f-9413-b31aab6a3fd6"},"vehicle_type_id":"4","last_reported":1767802683,"current_range_meters":8800,"station_id":"ce4bhsh2rcd13ifvqi2g","pricing_plan_id":"cebpf4jnsgd1na2vs0mg"},{"bike_id":"0076bf2a-ba6e-491e-990e-dad36b9a258b","system_id":"levelo_inurba_marseille","lat":43.30483,"lon":5.38903,"is_reserved":false,"is_disabled":true,"rental_uris":{"android":"levelo://app?vid=0076bf2a-ba6e-491e-990e-dad36b9a258b","ios":"levelo://app?vid=0076bf2a-ba6e-491e-990e-dad36b9a258b"},"vehicle_type_id":"4","last_reported":1767802683,"current_range_meters":8800,"station_id":"ce4bgk12rcd13ifvqbi0","pricing_plan_id":"cebpf4jnsgd1na2vs0mg"},{"bike_id":"627ad4fb-d3f7-406d-9fa6-760355e4142d","system_id":"levelo_inurba_marseille","lat":43.23189,"lon":5.35558,"is_reserved":false,"is_disabled":false,"rental_uris":{"android":"levelo://app?vid=627ad4fb-d3f7-406d-9fa6-760355e4142d","ios":"levelo://app?vid=627ad4fb-d3f7-406d-9fa6-760355e4142d"},"vehicle_type_id":"4","last_reported":1767802683,"current_range_meters":8800,"station_id":"ce4bhu92rcd13ifvqi70","pricing_plan_id":"cebpf4jnsgd1na2vs0mg"},{"bike_id":"aba91944-6c1c-488f-a3ac-4e69ccebdba9","system_id":"levelo_inurba_marseille","lat":43.29603,"lon":5.37712,"is_reserved":false,"is_disabled":false,"rental_uris":{"android":"levelo://app?vid=aba91944-6c1c-488f-a3ac-4e69ccebdba9","ios":"levelo://app?vid=aba91944-6c1c-488f-a3ac-4e69ccebdba9"},"vehicle_type_id":"4","last_reported":1767802683,"current_range_meters":8800,"station_id":"ce4bgi92rcd13ifvqb90","pricing_plan_id":"cebpf4jnsgd1na2vs0mg"},{"bike_id":"9b8edaa4-9219-4ba9-ae1a-875f65177a0d","system_id":"levelo_inurba_marseille","lat":43.25089,"lon":5.39518,"is_reserved":false,"is_disabled":false,"rental_uris":{"android":"levelo://app?vid=9b8edaa4-9219-4ba9-ae1a-875f65177a0d","ios":"levelo://app?vid=9b8edaa4-9219-4ba9-ae1a-875f65177a0d"},"vehicle_type_id":"4","last_reported":1767802683,"current_range_meters":8800,"station_id":"ce4bhm12rcd13ifvqgkg","pricing_plan_id":"cebpf4jnsgd1na2vs0mg"},{"bike_id":"9b9e7c0d-8b05-4d0a-9b2e-71cd579eefc9","system_id":"levelo_inurba_marseille","lat":43.3235,"lon":5.36719,"is_reserved":false,"is_disabled":false,"rental_uris":{"android":"levelo://app?vid=9b9e7c0d-8b05-4d0a-9b2e-71cd579eefc9","ios":"levelo://app?vid=9b9e7c0d-8b05-4d0a-9b2e-71cd579eefc9"},"vehicle_type_id":"4","last_reported":1767802683,"current_range_meters":8800,"station_id":"ce4bhsh2rcd13ifvqi2g","pricing_plan_id":"cebpf4jnsgd1na2vs0mg"},{"bike_id":"12d41d42-0df1-44df-b48f-62c73404ec27","system_id":"levelo_inurba_marseille","lat":43.27076,"lon":5.38278,"is_reserved":false,"is_disabled":false,"rental_uris":{"android":"levelo://app?vid=12d41d42-0df1-44df-b48f-62c73404ec27","ios":"levelo://app?vid=12d41d42-0df1-44df-b48f-62c73404ec27"},"vehicle_type_id":"4","last_reported":1767802683,"current_range_meters":8800,"station_id":"st_d3n2fo6cfp8s73cte1j0","pricing_plan_id":"cebpf4jnsgd1na2vs0mg"},{"bike_id":"ceb78c50-6deb-430c-aebe-b2fe34811655","system_id":"levelo_inurba_marseille","lat":43.27207,"lon":5.39187,"is_reserved":false,"is_disabled":false,"rental_uris":{"android":"levelo://app?vid=ceb78c50-6deb-430c-aebe-b2fe34811655","ios":"levelo://app?vid=ceb78c50-6deb-430c-aebe-b2fe34811655"},"vehicle_type_id":"4","last_reported":1767802683,"current_range_meters":8800,"station_id":"ce4bhhp2rcd13ifvqfm0","pricing_plan_id":"cebpf4jnsgd1na2vs0mg"},{"bike_id":"31ef6104-524a-4758-8a5c-811acc4ab6a4","system_id":"levelo_inurba_marseille","lat":43.28478,"lon":5.48377,"is_reserved":false,"is_disabled":false,"rental_uris":{"android":"levelo://app?vid=31ef6104-524a-4758-8a5c-811acc4ab6a4","ios":"levelo://app?vid=31ef6104-524a-4758-8a5c-811acc4ab6a4"},"vehicle_type_id":"4","last_reported":1767802683,"current_range_meters":8800,"station_id":"st_d3svhcjqgbts73a3dn0g","pricing_plan_id":"cebpf4jnsgd1na2vs0mg"},{"bike_id":"2f65cb57-a4ef-4bed-8e64-428a667d5566","system_id":"levelo_inurba_marseille","lat":43.22934,"lon":5.35377,"is_reserved":false,"is_disabled":false,"rental_uris":{"android":"levelo://app?vid=2f65cb57-a4ef-4bed-8e64-428a667d5566","ios":"levelo://app?vid=2f65cb57-a4ef-4bed-8e64-428a667d5566"},"vehicle_type_id":"4","last_reported":1767802683,"current_range_meters":9200,"station_id":"cpo3532slgdg3j2ikp40","pricing_plan_id":"cebpf4jnsgd1na2vs0mg"},{"bike_id":"07f65768-8d75-4abf-a5ad-d210180dd932","system_id":"levelo_inurba_marseille","lat":43.29511,"lon":5.38477,"is_reserved":false,"is_disabled":false,"rental_uris":{"android":"levelo://app?vid=07f65768-8d75-4abf-a5ad-d210180dd932","ios":"levelo://app?vid=07f65768-8d75-4abf-a5ad-d210180dd932"},"vehicle_type_id":"4","last_reported":1767802683,"current_range_meters":9200,"station_id":"","pricing_plan_id":"cebpf4jnsgd1na2vs0mg"},{"bike_id":"c10c03af-eba1-4f9f-a373-ad08e2aac44e","system_id":"levelo_inurba_marseille","lat":43.25931,"lon":5.40901,"is_reserved":false,"is_disabled":false,"rental_uris":{"android":"levelo://app?vid=c10c03af-eba1-4f9f-a373-ad08e2aac44e","ios":"levelo://app?vid=c10c03af-eba1-4f9f-a373-ad08e2aac44e"},"vehicle_type_id":"4","last_reported":1767802683,"current_range_meters":9200,"station_id":"ce4bhm92rcd13ifvqglg","pricing_plan_id":"cebpf4jnsgd1na2vs0mg"},{"bike_id":"686bcbac-7ffb-4bc9-afb0-a18e8a9323c9","system_id":"levelo_inurba_marseille","lat":43.2938,"lon":5.3786,"is_reserved":false,"is_disabled":false,"rental_uris":{"android":"levelo://app?vid=686bcbac-7ffb-4bc9-afb0-a18e8a9323c9","ios":"levelo://app?vid=686bcbac-7ffb-4bc9-afb0-a18e8a9323c9"},"vehicle_type_id":"4","last_reported":1767802683,"current_range_meters":9200,"station_id":"ce4bgjh2rcd13ifvqbf0","pricing_plan_id":"cebpf4jnsgd1na2vs0mg"},{"bike_id":"b82f149d-d148-4bcb-84fb-28ab0800e12f","system_id":"levelo_inurba_marseille","lat":43.30131,"lon":5.38787,"is_reserved":false,"is_disabled":false,"rental_uris":{"android":"levelo://app?vid=b82f149d-d148-4bcb-84fb-28ab0800e12f","ios":"levelo://app?vid=b82f149d-d148-4bcb-84fb-28ab0800e12f"},"vehicle_type_id":"4","last_reported":1767802683,"current_range_meters":9200,"station_id":"ce4bghh2rcd13ifvqb60","pricing_plan_id":"cebpf4jnsgd1na2vs0mg"},{"bike_id":"2c63a126-aa89-41dc-9bf6-9d024e867be2","system_id":"levelo_inurba_marseille","lat":43.26781,"lon":5.39405,"is_reserved":false,"is_disabled":false,"rental_uris":{"android":"levelo://app?vid=2c63a126-aa89-41dc-9bf6-9d024e867be2","ios":"levelo://app?vid=2c63a126-aa89-41dc-9bf6-9d024e867be2"},"vehicle_type_id":"4","last_reported":1767802683,"current_range_meters":9200,"station_id":"ce4bhh12rcd13ifvqfg0","pricing_plan_id":"cebpf4jnsgd1na2vs0mg"},{"bike_id":"3b8b35df-a7c7-49cf-b704-2e76477678b4","system_id":"levelo_inurba_marseille","lat":43.28946,"lon":5.38009,"is_reserved":false,"is_disabled":false,"rental_uris":{"android":"levelo://app?vid=3b8b35df-a7c7-49cf-b704-2e76477678b4","ios":"levelo://app?vid=3b8b35df-a7c7-49cf-b704-2e76477678b4"},"vehicle_type_id":"4","last_reported":1767802683,"current_range_meters":9200,"station_id":"","pricing_plan_id":"cebpf4jnsgd1na2vs0mg"},{"bike_id":"7e70ff1b-ca00-4b6c-8749-1b7f25279810","system_id":"levelo_inurba_marseille","lat":43.27369,"lon":5.36272,"is_reserved":false,"is_disabled":false,"rental_uris":{"android":"levelo://app?vid=7e70ff1b-ca00-4b6c-8749-1b7f25279810","ios":"levelo://app?vid=7e70ff1b-ca00-4b6c-8749-1b7f25279810"},"vehicle_type_id":"4","last_reported":1767802683,"current_range_meters":9200,"station_id":"ce4bhbh2rcd13ifvqeo0","pricing_plan_id":"cebpf4jnsgd1na2vs0mg"},{"bike_id":"8d85dd76-7286-4685-9186-133681c617cd","system_id":"levelo_inurba_marseille","lat":43.26216,"lon":5.37423,"is_reserved":false,"is_disabled":false,"rental_uris":{"android":"levelo://app?vid=8d85dd76-7286-4685-9186-133681c617cd","ios":"levelo://app?vid=8d85dd76-7286-4685-9186-133681c617cd"},"vehicle_type_id":"4","last_reported":1767802683,"current_range_meters":9200,"station_id":"ce4bhgp2rcd13ifvqfc0","pricing_plan_id":"cebpf4jnsgd1na2vs0mg"},{"bike_id":"41df1897-1ad1-47fb-9319-eedfc856f702","system_id":"levelo_inurba_marseille","lat":43.25577,"lon":5.38224,"is_reserved":false,"is_disabled":false,"rental_uris":{"android":"levelo://app?vid=41df1897-1ad1-47fb-9319-eedfc856f702","ios":"levelo://app?vid=41df1897-1ad1-47fb-9319-eedfc856f702"},