{"last_updated":1706353494,"ttl":30,"version":"2.2","data":{"bikes":[{"bike_id":"c4c937b3-dce6-4197-9675-f8610fe27cbf","system_id":"levelo_inurba_marseille","lat":43.309076,"lon":5.368465,"is_reserved":false,"is_disabled":false,"rental_uris":{"android":"levelo://app?vid=c4c937b3-dce6-4197-9675-f8610fe27cbf","ios":"levelo://app?vid=c4c937b3-dce6-4197-9675-f8610fe27cbf"},"vehicle_type_id":"4","last_reported":1706353494,"current_range_meters":30400,"station_id":"ce4bgn92rcd13ifvqbvg","pricing_plan_id":"free"},{"bike_id":"0bde566a-bd77-462f-be4a-2a2c8e3bc3fd","system_id":"levelo_inurba_marseille","lat":43.314811,"lon":5.373103,"is_reserved":false,"is_disabled":false,"rental_uris":{"android":"levelo://app?vid=0bde566a-bd77-462f-be4a-2a2c8e3bc3fd","ios":"levelo://app?vid=0bde566a-bd77-462f-be4a-2a2c8e3bc3fd"},"vehicle_type_id":"4","last_reported":1706353494,"current_range_meters":30000,"station_id":"ce4bgt12rcd13ifvqcd0","pricing_plan_id":"free"},{"bike_id":"e5d5a4b4-4073-4c32-a352-92026e54ec8f","system_id":"levelo_inurba_marseille","lat":43.314811,"lon":5.373103,"is_reserved":false,"is_disabled":false,"rental_uris":{"android":"levelo://app?vid=e5d5a4b4-4073-4c32-a352-92026e54ec8f","ios":"levelo://app?vid=e5d5a4b4-4073-4c32-a352-92026e54ec8f"},"vehicle_type_id":"4","last_reported":1706353494,"current_range_meters":21200,"station_id":"ce4bgt12rcd13ifvqcd0","pricing_plan_id":"free"},{"bike_id":"74ee913c-b84b-4a5f-b565-58ce1a58798b","system_id":"levelo_inurba_marseille","lat":43.314811,"lon":5.373104,"is_reserved":false,"is_disabled":false,"rental_uris":{"android":"levelo://app?vid=74ee913c-b84b-4a5f-b565-58ce1a58798b","ios":"levelo://app?vid=74ee913c-b84b-4a5f-b565-58ce1a58798b"},"vehicle_type_id":"4","last_reported":1706353494,"current_range_meters":29200,"station_id":"ce4bgt12rcd13ifvqcd0","pricing_plan_id":"free"},{"bike_id":"3a42d3e8-b187-4320-85ef-c3559d665cf2","system_id":"levelo_inurba_marseille","lat":43.309034,"lon":5.371783,"is_reserved":false,"is_disabled":false,"rental_uris":{"android":"levelo://app?vid=3a42d3e8-b187-4320-85ef-c3559d665cf2","ios":"levelo://app?vid=3a42d3e8-b187-4320-85ef-c3559d665cf2"},"vehicle_type_id":"4","last_reported":1706353494,"current_range_meters":4800,"station_id":"ce4bguh2rcd13ifvqckg","pricing_plan_id":"free"},{"bike_id":"1ec6e3c4-5263-4048-a70f-70a45e8c964f","system_id":"levelo_inurba_marseille","lat":43.309039,"lon":5.371797,"is_reserved":false,"is_disabled":false,"rental_uris":{"android":"levelo://app?vid=1ec6e3c4-5263-4048-a70f-70a45e8c964f","ios":"levelo://app?vid=1ec6e3c4-5263-4048-a70f-70a45e8c964f"},"vehicle_type_id":"4","last_reported":1706353494,"current_range_meters":6400,"station_id":"ce4bguh2rcd13ifvqckg","pricing_plan_id":"free"},{"bike_id":"a3650cde-f82b-456e-936f-63970dcb1dfd","system_id":"levelo_inurba_marseille","lat":43.309039,"lon":5.371797,"is_reserved":false,"is_disabled":false,"rental_uris":{"android":"levelo://app?vid=a3650cde-f82b-456e-936f-63970dcb1dfd","ios":"levelo://app?vid=a3650cde-f82b-456e-936f-63970dcb1dfd"},"vehicle_type_id":"4","last_reported":1706353494,"current_range_meters":14000,"station_id":"ce4bguh2rcd13ifvqckg","pricing_plan_id":"free"},{"bike_id":"235bda44-b4b5-4da5-a20e-c3a030d7575b","system_id":"levelo_inurba_marseille","lat":43.305712,"lon":5.365641,"is_reserved":false,"is_disabled":false,"rental_uris":{"android":"levelo://app?vid=235bda44-b4b5-4da5-a20e-c3a030d7575b","ios":"levelo://app?vid=235bda44-b4b5-4da5-a20e-c3a030d7575b"},"vehicle_type_id":"4","last_reported":1706353494,"current_range_meters":11600,"station_id":"ce4bgs12rcd13ifvqcag","pricing_plan_id":"free"},{"bike_id":"c65aef1f-995d-4b84-b2e3-a186352f51ad","system_id":"levelo_inurba_marseille","lat":43.305368,"lon":5.367343,"is_reserved":false,"is_disabled":false,"rental_uris":{"android":"levelo://app?vid=c65aef1f-995d-4b84-b2e3-a186352f51ad","ios":"levelo://app?vid=c65aef1f-995d-4b84-b2e3-a186352f51ad"},"vehicle_type_id":"4","last_reported":1706353494,"current_range_meters":7600,"station_id":"ce4bgrp2rcd13ifvqc9g","pricing_plan_id":"free"},{"bike_id":"a80356fc-bd74-4eae-a853-ab19b9f6b917","system_id":"levelo_inurba_marseille","lat":43.30547,"lon":5.36552,"is_reserved":false,"is_disabled":false,"rental_uris":{"android":"levelo://app?vid=a80356fc-bd74-4eae-a853-ab19b9f6b917","ios":"levelo://app?vid=a80356fc-bd74-4eae-a853-ab19b9f6b917"},"vehicle_type_id":"4","last_reported":1706353494,"current_range_meters":9600,"station_id":"ce4bgs12rcd13ifvqcag","pricing_plan_id":"free"},{"bike_id":"06675c9e-dede-4f92-b4d9-85f8ccb0d89c","system_id":"levelo_inurba_marseille","lat":43.305712,"lon":5.365641,"is_reserved":false,"is_disabled":false,"rental_uris":{"android":"levelo://app?vid=06675c9e-dede-4f92-b4d9-85f8ccb0d89c","ios":"levelo://app?vid=06675c9e-dede-4f92-b4d9-85f8ccb0d89c"},"vehicle_type_id":"4","last_reported":1706353494,"current_range_meters":20400,"station_id":"ce4bgs12rcd13ifvqcag","pricing_plan_id":"free"},{"bike_id":"7c42ab3f-1d51-406d-9aa8-7c7285525cf0","system_id":"levelo_inurba_marseille","lat":43.305378,"lon":5.367077,"is_reserved":false,"is_disabled":false,"rental_uris":{"android":"levelo://app?vid=7c42ab3f-1d51-406d-9aa8-7c7285525cf0","ios":"levelo://app?vid=7c42ab3f-1d51-406d-9aa8-7c7285525cf0"},"vehicle_type_id":"4","last_reported":1706353494,"current_range_meters":8000,"station_id":"ce4bgh92rcd13ifvqb50","pricing_plan_id":"free"},{"bike_id":"5eac477c-ee51-4147-9efb-94db66733db9","system_id":"levelo_inurba_marseille","lat":43.30541,"lon":5.36554,"is_reserved":false,"is_disabled":false,"rental_uris":{"android":"levelo://app?vid=5eac477c-ee51-4147-9efb-94db66733db9","ios":"levelo://app?vid=5eac477c-ee51-4147-9efb-94db66733db9"},"vehicle_type_id":"4","last_reported":1706353494,"current_range_meters":31200,"station_id":"ce4bgs12rcd13ifvqcag","pricing_plan_id":"free"},{"bike_id":"9993dfd7-8593-492e-9e37-1f87784c1b39","system_id":"levelo_inurba_marseille","lat":43.305706,"lon":5.365654,"is_reserved":false,"is_disabled":false,"rental_uris":{"android":"levelo://app?vid=9993dfd7-8593-492e-9e37-1f87784c1b39","ios":"levelo://app?vid=9993dfd7-8593-492e-9e37-1f87784c1b39"},"vehicle_type_id":"4","last_reported":1706353494,"current_range_meters":3200,"station_id":"ce4bgs12rcd13ifvqcag","pricing_plan_id":"free"},{"bike_id":"ca358a49-9381-4081-a569-045f6b454239","system_id":"levelo_inurba_marseille","lat":43.305403,"lon":5.365533,"is_reserved":false,"is_disabled":false,"rental_uris":{"android":"levelo://app?vid=ca358a49-9381-4081-a569-045f6b454239","ios":"levelo://app?vid=ca358a49-9381-4081-a569-045f6b454239"},"vehicle_type_id":"4","last_reported":1706353494,"current_range_meters":11200,"station_id":"ce4bgs12rcd13ifvqcag","pricing_plan_id":"free"},{"bike_id":"3944280f-38a1-410d-ab2a-58f87399045a","system_id":"levelo_inurba_marseille","lat":43.305706,"lon":5.365654,"is_reserved":false,"is_disabled":false,"rental_uris":{"android":"levelo://app?vid=3944280f-38a1-410d-ab2a-58f87399045a","ios":"levelo://app?vid=3944280f-38a1-410d-ab2a-58f87399045a"},"vehicle_type_id":"4","last_reported":1706353494,"current_range_meters":27200,"station_id":"ce4bgs12rcd13ifvqcag","pricing_plan_id":"free"},{"bike_id":"88ef3d12-b234-4b3c-ae3b-3c2dca84a486","system_id":"levelo_inurba_marseille","lat":43.305706,"lon":5.365654,"is_reserved":false,"is_disabled":false,"rental_uris":{"android":"levelo://app?vid=88ef3d12-b234-4b3c-ae3b-3c2dca84a486","ios":"levelo://app?vid=88ef3d12-b234-4b3c-ae3b-3c2dca84a486"},"vehicle_type_id":"4","last_reported":1706353494,"current_range_meters":31600,"station_id":"ce4bgs12rcd13ifvqcag","pricing_plan_id":"free"},{"bike_id":"bd78c07d-58ef-4e86-a473-fa6ca38b9bef","system_id":"levelo_inurba_marseille","lat":43.305714,"lon":5.365633,"is_reserved":false,"is_disabled":false,"rental_uris":{"android":"levelo://app?vid=bd78c07d-58ef-4e86-a473-fa6ca38b9bef","ios":"levelo://app?vid=bd78c07d-58ef-4e86-a473-fa6ca38b9bef"},"vehicle_type_id":"4","last_reported":1706353494,"current_range_meters":29200,"station_id":"ce4bgs12rcd13ifvqcag","pricing_plan_id":"free"},{"bike_id":"88b5d689-3805-4e0d-9069-191199be4074","system_id":"levelo_inurba_marseille","lat":43.305706,"lon":5.365654,"is_reserved":false,"is_disabled":false,"rental_uris":{"android":"levelo://app?vid=88b5d689-3805-4e0d-9069-191199be4074","ios":"levelo://app?vid=88b5d689-3805-4e0d-9069-191199be4074"},"vehicle_type_id":"4","last_reported":1706353494,"current_range_meters":800,"station_id":"ce4bgs12rcd13ifvqcag","pricing_plan_id":"free"},{"bike_id":"3c98f1ab-8fc5-46cc-b9e5-be1f987a65b1","system_id":"levelo_inurba_marseille","lat":43.30527,"lon":5.36541,"is_reserved":false,"is_disabled":false,"rental_uris":{"android":"levelo://app?vid=3c98f1ab-8fc5-46cc-b9e5-be1f987a65b1","ios":"levelo://app?vid=3c98f1ab-8fc5-46cc-b9e5-be1f987a65b1"},"vehicle_type_id":"4","last_reported":1706353494,"current_range_meters":27200,"station_id":"ce4bgs12rcd13ifvqcag","pricing_plan_id":"free"},{"bike_id":"1d232419-37a7-49ef-978f-9c75b9a8e33b","system_id":"levelo_inurba_marseille","lat":43.30514,"lon":5.36632,"is_reserved":false,"is_disabled":false,"rental_uris":{"android":"levelo://app?vid=1d232419-37a7-49ef-978f-9c75b9a8e33b","ios":"levelo://app?vid=1d232419-37a7-49ef-978f-9c75b9a8e33b"},"vehicle_type_id":"4","last_reported":1706353494,"current_range_meters":22400,"station_id":"ce4bgs12rcd13ifvqcag","pricing_plan_id":"free"},{"bike_id":"22892482-a68e-4e88-8b2a-1929731cd51e","system_id":"levelo_inurba_marseille","lat":43.305989,"lon":5.37225,"is_reserved":false,"is_disabled":false,"rental_uris":{"android":"levelo://app?vid=22892482-a68e-4e88-8b2a-1929731cd51e","ios":"levelo://app?vid=22892482-a68e-4e88-8b2a-1929731cd51e"},"vehicle_type_id":"4","last_reported":1706353494,"current_range_meters":20800,"station_id":"ce4bgqh2rcd13ifvqc4g","pricing_plan_id":"free"},{"bike_id":"678ee84d-3c78-4ebd-a88f-25d0f1ee0c5c","system_id":"levelo_inurba_marseille","lat":43.30603,"lon":5.37244,"is_reserved":false,"is_disabled":false,"rental_uris":{"android":"levelo://app?vid=678ee84d-3c78-4ebd-a88f-25d0f1ee0c5c","ios":"levelo://app?vid=678ee84d-3c78-4ebd-a88f-25d0f1ee0c5c"},"vehicle_type_id":"4","last_reported":1706353494,"current_range_meters":28800,"station_id":"ce4bgqh2rcd13ifvqc4g","pricing_plan_id":"free"},{"bike_id":"8cafdae0-4d42-4a52-8c95-1a95d3c4d7bc","system_id":"levelo_inurba_marseille","lat":43.305989,"lon":5.37225,"is_reserved":false,"is_disabled":false,"rental_uris":{"android":"levelo://app?vid=8cafdae0-4d42-4a52-8c95-1a95d3c4d7bc","ios":"levelo://app?vid=8cafdae0-4d42-4a52-8c95-1a95d3c4d7bc"},"vehicle_type_id":"4","last_reported":1706353494,"current_range_meters":17600,"station_id":"ce4bgqh2rcd13ifvqc4g","pricing_plan_id":"free"},{"bike_id":"e8c00ff7-1732-4286-9bec-667f4a480c67","system_id":"levelo_inurba_marseille","lat":43.317075,"lon":5.377367,"is_reserved":false,"is_disabled":false,"rental_uris":{"android":"levelo://app?vid=e8c00ff7-1732-4286-9bec-667f4a480c67","ios":"levelo://app?vid=e8c00ff7-1732-4286-9bec-667f4a480c67"},"vehicle_type_id":"4","last_reported":1706353494,"current_range_meters":17200,"station_id":"ce4bgth2rcd13ifvqch0","pricing_plan_id":"free"},{"bike_id":"1c2a6997-da66-4b71-ba63-abf4e95daf6a","system_id":"levelo_inurba_marseille","lat":43.317075,"lon":5.377367,"is_reserved":false,"is_disabled":false,"rental_uris":{"android":"levelo://app?vid=1c2a6997-da66-4b71-ba63-abf4e95daf6a","ios":"levelo://app?vid=1c2a6997-da66-4b71-ba63-abf4e95daf6a"},"vehicle_type_id":"4","last_reported":1706353494,"current_range_meters":21600,"station_id":"ce4bgth2rcd13ifvqch0","pricing_plan_id":"free"},{"bike_id":"7c1903c3-7bef-4f0d-9586-5351e69caed9","system_id":"levelo_inurba_marseille","lat":43.317075,"lon":5.377367,"is_reserved":false,"is_disabled":false,"rental_uris":{"android":"levelo://app?vid=7c1903c3-7bef-4f0d-9586-5351e69caed9","ios":"levelo://app?vid=7c1903c3-7bef-4f0d-9586-5351e69caed9"},"vehicle_type_id":"4","last_reported":1706353494,"current_range_meters":21200,"station_id":"ce4bgth2rcd13ifvqch0","pricing_plan_id":"free"},{"bike_id":"5b0a56ae-3d70-40f6-ad3f-78c604f89c73","system_id":"levelo_inurba_marseille","lat":43.31236,"lon":5.37991,"is_reserved":false,"is_disabled":false,"rental_uris":{"android":"levelo://app?vid=5b0a56ae-3d70-40f6-ad3f-78c604f89c73","ios":"levelo://app?vid=5b0a56ae-3d70-40f6-ad3f-78c604f89c73"},"vehicle_type_id":"4","last_reported":1706353494,"current_range_meters":14800,"station_id":"","pricing_plan_id":"free"},{"bike_id":"b83daeb9-a39c-4884-86e2-16a37c651f7f","system_id":"levelo_inurba_marseille","lat":43.320053,"lon":5.376227,"is_reserved":false,"is_disabled":false,"rental_uris":{"android":"levelo://app?vid=b83daeb9-a39c-4884-86e2-16a37c651f7f","ios":"levelo://app?vid=b83daeb9-a39c-4884-86e2-16a37c651f7f"},"vehicle_type_id":"4","last_reported":1706353494,"current_range_meters":11200,"station_id":"","pricing_plan_id":"free"},{"bike_id":"c0cfe97a-7e0d-48f7-a143-5a19275e9328","system_id":"levelo_inurba_marseille","lat":43.304606,"lon":5.379026,"is_reserved":false,"is_disabled":false,"rental_uris":{"android":"levelo://app?vid=c0cfe97a-7e0d-48f7-a143-5a19275e9328","ios":"levelo://app?vid=c0cfe97a-7e0d-48f7-a143-5a19275e9328"},"vehicle_type_id":"4","last_reported":1706353494,"current_range_meters":31600,"station_id":"ce4bgup2rcd13ifvqcn0","pricing_plan_id":"free"},{"bike_id":"387adbba-7e92-4060-9d50-39a15b32664b","system_id":"levelo_inurba_marseille","lat":43.304606,"lon":5.379026,"is_reserved":false,"is_disabled":false,"rental_uris":{"android":"levelo://app?vid=387adbba-7e92-4060-9d50-39a15b32664b","ios":"levelo://app?vid=387adbba-7e92-4060-9d50-39a15b32664b"},"vehicle_type_id":"4","last_reported":1706353494,"current_range_meters":28800,"station_id":"ce4bgup2rcd13ifvqcn0","pricing_plan_id":"free"},{"bike_id":"1c00e110-5db3-4eec-9379-67959839c776","system_id":"levelo_inurba_marseille","lat":43.304606,"lon":5.379026,"is_reserved":false,"is_disabled":false,"rental_uris":{"android":"levelo://app?vid=1c00e110-5db3-4eec-9379-67959839c776","ios":"levelo://app?vid=1c00e110-5db3-4eec-9379-67959839c776"},"vehicle_type_id":"4","last_reported":1706353494,"current_range_meters":30400,"station_id":"ce4bgup2rcd13ifvqcn0","pricing_plan_id":"free"},{"bike_id":"dc52cf32-982c-4f0b-abd4-8f474b42e223","system_id":"levelo_inurba_marseille","lat":43.30459,"lon":5.37908,"is_reserved":false,"is_disabled":false,"rental_uris":{"android":"levelo://app?vid=dc52cf32-982c-4f0b-abd4-8f474b42e223","ios":"levelo://app?vid=dc52cf32-982c-4f0b-abd4-8f474b42e223"},"vehicle_type_id":"4","last_reported":1706353494,"current_range_meters":20400,"station_id":"ce4bgup2rcd13ifvqcn0","pricing_plan_id":"free"},{"bike_id":"e3cfa974-2663-4965-a96a-f55f3013619c","system_id":"levelo_inurba_marseille","lat":43.324771,"lon":5.36557,"is_reserved":false,"is_disabled":false,"rental_uris":{"android":"levelo://app?vid=e3cfa974-2663-4965-a96a-f55f3013619c","ios":"levelo://app?vid=e3cfa974-2663-4965-a96a-f55f3013619c"},"vehicle_type_id":"4","last_reported":1706353494,"current_range_meters":6000,"station_id":"ce4bhs12rcd13ifvqhvg","pricing_plan_id":"free"},{"bike_id":"88aa8230-dcc9-433d-96e4-513a284697d7","system_id":"levelo_inurba_marseille","lat":43.302784,"lon":5.377158,"is_reserved":false,"is_disabled":false,"rental_uris":{"android":"levelo://app?vid=88aa8230-dcc9-433d-96e4-513a284697d7","ios":"levelo://app?vid=88aa8230-dcc9-433d-96e4-513a284697d7"},"vehicle_type_id":"4","last_reported":1706353494,"current_range_meters":26400,"station_id":"ce4bguh2rcd13ifvqcj0","pricing_plan_id":"free"},{"bike_id":"e77d30b7-14af-44d6-80a1-563db5026f0d","system_id":"levelo_inurba_marseille","lat":43.302784,"lon":5.377158,"is_reserved":false,"is_disabled":false,"rental_uris":{"android":"levelo://app?vid=e77d30b7-14af-44d6-80a1-563db5026f0d","ios":"levelo://app?vid=e77d30b7-14af-44d6-80a1-563db5026f0d"},"vehicle_type_id":"4","last_reported":1706353494,"current_range_meters":0,"station_id":"ce4bguh2rcd13ifvqcj0","pricing_plan_id":"free"},{"bike_id":"86d4df1c-8a93-45a8-af3f-2f4e9388b4dd","system_id":"levelo_inurba_marseille","lat":43.302784,"lon":5.377158,"is_reserved":false,"is_disabled":false,"rental_uris":{"android":"levelo://app?vid=86d4df1c-8a93-45a8-af3f-2f4e9388b4dd","ios":"levelo://app?vid=86d4df1c-8a93-45a8-af3f-2f4e9388b4dd"},"vehicle_type_id":"4","last_reported":1706353494,"current_range_meters":0,"station_id":"ce4bguh2rcd13ifvqcj0","pricing_plan_id":"free"},{"bike_id":"29c7aafd-c762-4726-9126-2bbb65834ec1","system_id":"levelo_inurba_marseille","lat":43.302784,"lon":5.377158,"is_reserved":false,"is_disabled":false,"rental_uris":{"android":"levelo://app?vid=29c7aafd-c762-4726-9126-2bbb65834ec1","ios":"levelo://app?vid=29c7aafd-c762-4726-9126-2bbb65834ec1"},"vehicle_type_id":"4","last_reported":1706353494,"current_range_meters":26400,"station_id":"ce4bguh2rcd13ifvqcj0","pricing_plan_id":"free"},{"bike_id":"f09a96a7-8561-44e7-891d-a36599b7e226","system_id":"levelo_inurba_marseille","lat":43.30143,"lon":5.37413,"is_reserved":false,"is_disabled":false,"rental_uris":{"android":"levelo://app?vid=f09a96a7-8561-44e7-891d-a36599b7e226","ios":"levelo://app?vid=f09a96a7-8561-44e7-891d-a36599b7e226"},"vehicle_type_id":"4","last_reported":1706353494,"current_range_meters":20400,"station_id":"ce4bgs92rcd13ifvqcc0","pricing_plan_id":"free"},{"bike_id":"ae7ab608-8fac-4c0d-9f43-8ffacb07a49d","system_id":"levelo_inurba_marseille","lat":43.319935,"lon":5.381699,"is_reserved":false,"is_disabled":false,"rental_uris":{"android":"levelo://app?vid=ae7ab608-8fac-4c0d-9f43-8ffacb07a49d","ios":"levelo://app?vid=ae7ab608-8fac-4c0d-9f43-8ffacb07a49d"},"vehicle_type_id":"4","last_reported":1706353494,"current_range_meters":4800,"station_id":"ce4bhr12rcd13ifvqhpg","pricing_plan_id":"free"},{"bike_id":"f7b1efc0-1961-4895-ae9d-0ad221e9232d","system_id":"levelo_inurba_marseille","lat":43.319935,"lon":5.381699,"is_reserved":false,"is_disabled":false,"rental_uris":{"android":"levelo://app?vid=f7b1efc0-1961-4895-ae9d-0ad221e9232d","ios":"levelo://app?vid=f7b1efc0-1961-4895-ae9d-0ad221e9232d"},"vehicle_type_id":"4","last_reported":1706353494,"current_range_meters":29200,"station_id":"ce4bhr12rcd13ifvqhpg","pricing_plan_id":"free"},{"bike_id":"d11a1f3a-d548-483b-8bfb-a3d43524c954","system_id":"levelo_inurba_marseille","lat":43.319935,"lon":5.381699,"is_reserved":false,"is_disabled":false,"rental_uris":{"android":"levelo://app?vid=d11a1f3a-d548-483b-8bfb-a3d43524c954","ios":"levelo://app?vid=d11a1f3a-d548-483b-8bfb-a3d43524c954"},"vehicle_type_id":"4","last_reported":1706353494,"current_range_meters":31200,"station_id":"ce4bhr12rcd13ifvqhpg","pricing_plan_id":"free"},{"bike_id":"5f7ec9ca-defa-4048-96f4-b62ebd1a927a","system_id":"levelo_inurba_marseille","lat":43.319935,"lon":5.381699,"is_reserved":false,"is_disabled":false,"rental_uris":{"android":"levelo://app?vid=5f7ec9ca-defa-4048-96f4-b62ebd1a927a","ios":"levelo://app?vid=5f7ec9ca-defa-4048-96f4-b62ebd1a927a"},"vehicle_type_id":"4","last_reported":1706353494,"current_range_meters":19600,"station_id":"ce4bhr12rcd13ifvqhpg","pricing_plan_id":"free"},{"bike_id":"fbd1c7c8-59f4-40f3-bd13-92a41198f404","system_id":"levelo_inurba_marseille","lat":43.319935,"lon":5.381699,"is_reserved":false,"is_disabled":false,"rental_uris":{"android":"levelo://app?vid=fbd1c7c8-59f4-40f3-bd13-92a41198f404","ios":"levelo://app?vid=fbd1c7c8-59f4-40f3-bd13-92a41198f404"},"vehicle_type_id":"4","last_reported":1706353494,"current_range_meters":17200,"station_id":"ce4bhr12rcd13ifvqhpg","pricing_plan_id":"free"},{"bike_id":"fc51b747-b33f-40c9-9c2c-bd6f886bc3e2","system_id":"levelo_inurba_marseille","lat":43.319935,"lon":5.381699,"is_reserved":false,"is_disabled":false,"rental_uris":{"android":"levelo://app?vid=fc51b747-b33f-40c9-9c2c-bd6f886bc3e2","ios":"levelo://app?vid=fc51b747-b33f-40c9-9c2c-bd6f886bc3e2"},"vehicle_type_id":"4","last_reported":1706353494,"current_range_meters":10400,"station_id":"ce4bhr12rcd13ifvqhpg","pricing_plan_id":"free"},{"bike_id":"488abd18-e9a1-4239-9600-d9dbf03e5437","system_id":"levelo_inurba_marseille","lat":43.319935,"lon":5.381699,"is_reserved":false,"is_disabled":false,"rental_uris":{"android":"levelo://app?vid=488abd18-e9a1-4239-9600-d9dbf03e5437","ios":"levelo://app?vid=488abd18-e9a1-4239-9600-d9dbf03e5437"},"vehicle_type_id":"4","last_reported":1706353494,"current_range_meters":30400,"station_id":"ce4bhr12rcd13ifvqhpg","pricing_plan_id":"free"},{"bike_id":"01533f59-2c23-4279-b5fa-c0608335cf09","system_id":"levelo_inurba_marseille","lat":43.319935,"lon":5.381699,"is_reserved":false,"is_disabled":false,"rental_uris":{"android":"levelo://app?vid=01533f59-2c23-4279-b5fa-c0608335cf09","ios":"levelo://app?vid=01533f59-2c23-4279-b5fa-c0608335cf09"},"vehicle_type_id":"4","last_reported":1706353494,"current_range_meters":30400,"station_id":"ce4bhr12rcd13ifvqhpg","pricing_plan_id":"free"},{"bike_id":"e3878ff0-887a-4393-bc67-309945b46e9a","system_id":"levelo_inurba_marseille","lat":43.313571,"lon":5.384829,"is_reserved":false,"is_disabled":false,"rental_uris":{"android":"levelo://app?vid=e3878ff0-887a-4393-bc67-309945b46e9a","ios":"levelo://app?vid=e3878ff0-887a-4393-bc67-309945b46e9a"},"vehicle_type_id":"4","last_reported":1706353494,"current_range_meters":14400,"station_id":"ce4bgt92rcd13ifvqcf0","pricing_plan_id":"free"},{"bike_id":"4400bda0-ebcc-418f-a82f-06c6eb7c0323","system_id":"levelo_inurba_marseille","lat":43.300007,"lon":5.371537,"is_reserved":false,"is_disabled":false,"rental_uris":{"android":"levelo://app?vid=4400bda0-ebcc-418f-a82f-06c6eb7c0323","ios":"levelo://app?vid=4400bda0-ebcc-418f-a82f-06c6eb7c0323"},"vehicle_type_id":"4","last_reported":1706353494,"current_range_meters":14400,"station_id":"ce4bgr92rcd13ifvqc7g","pricing_plan_id":"free"},{"bike_id":"7a57c786-7150-4563-9105-4d694fb4e2c9","system_id":"levelo_inurba_marseille","lat":43.299724,"lon":5.371829,"is_reserved":false,"is_disabled":false,"rental_uris":{"android":"levelo://app?vid=7a57c786-7150-4563-9105-4d694fb4e2c9","ios":"levelo://app?vid=7a57c786-7150-4563-9105-4d694fb4e2c9"},"vehicle_type_id":"4","last_reported":1706353494,"current_range_meters":3200,"station_id":"ce4bgr92rcd13ifvqc7g","pricing_plan_id":"free"},{"bike_id":"730bb4b7-43ff-4568-9afa-dfebc5fbfb43","system_id":"levelo_inurba_marseille","lat":43.299724,"lon":5.371829,"is_reserved":false,"is_disabled":false,"rental_uris":{"android":"levelo://app?vid=730bb4b7-43ff-4568-9afa-dfebc5fbfb43","ios":"levelo://app?vid=730bb4b7-43ff-4568-9afa-dfebc5fbfb43"},"vehicle_type_id":"4","last_reported":1706353494,"current_range_meters":10000,"station_id":"ce4bgr92rcd13ifvqc7g","pricing_plan_id":"free"},{"bike_id":"31f5579b-6409-47b8-8445-14a3f54ee1ab","system_id":"levelo_inurba_marseille","lat":43.298433,"lon":5.362774,"is_reserved":false,"is_disabled":false,"rental_uris":{"android":"levelo://app?vid=31f5579b-6409-47b8-8445-14a3f54ee1ab","ios":"levelo://app?vid=31f5579b-6409-47b8-8445-14a3f54ee1ab"},"vehicle_type_id":"4","last_reported":1706353494,"current_range_meters":30800,"station_id":"ce4bgpp2rcd13ifvqc3g","pricing_plan_id":"free"},{"bike_id":"32d474d8-6eaf-4b84-9826-89143ef28c80","system_id":"levelo_inurba_marseille","lat":43.298433,"lon":5.362774,"is_reserved":false,"is_disabled":false,"rental_uris":{"android":"levelo://app?vid=32d474d8-6eaf-4b84-9826-89143ef28c80","ios":"levelo://app?vid=32d474d8-6eaf-4b84-9826-89143ef28c80"},"vehicle_type_id":"4","last_reported":1706353494,"current_range_meters":19200,"station_id":"ce4bgpp2rcd13ifvqc3g","pricing_plan_id":"free"},{"bike_id":"3f05bdce-24ca-43f5-b011-3da06d8f348d","system_id":"levelo_inurba_marseille","lat":43.29926,"lon":5.37463,"is_reserved":false,"is_disabled":false,"rental_uris":{"android":"levelo://app?vid=3f05bdce-24ca-43f5-b011-3da06d8f348d","ios":"levelo://app?vid=3f05bdce-24ca-43f5-b011-3da06d8f348d"},"vehicle_type_id":"4","last_reported":1706353494,"current_range_meters":28800,"station_id":"ce4bgjh2rcd13ifvqbg0","pricing_plan_id":"free"},{"bike_id":"f643b5f6-049e-4039-b51a-db5d5be7dab2","system_id":"levelo_inurba_marseille","lat":43.298433,"lon":5.362774,"is_reserved":false,"is_disabled":false,"rental_uris":{"android":"levelo://app?vid=f643b5f6-049e-4039-b51a-db5d5be7dab2","ios":"levelo://app?vid=f643b5f6-049e-4039-b51a-db5d5be7dab2"},"vehicle_type_id":"4","last_reported":1706353494,"current_range_meters":26800,"station_id":"ce4bgpp2rcd13ifvqc3g","pricing_plan_id":"free"},{"bike_id":"444033cb-01de-4847-942f-fdaf66b19383","system_id":"levelo_inurba_marseille","lat":43.297794,"lon":5.370888,"is_reserved":false,"is_disabled":false,"rental_uris":{"android":"levelo://app?vid=444033cb-01de-4847-942f-fdaf66b19383","ios":"levelo://app?vid=444033cb-01de-4847-942f-fdaf66b19383"},"vehicle_type_id":"4","last_reported":1706353494,"current_range_meters":16800,"station_id":"ce4bgop2rcd13ifvqc1g","pricing_plan_id":"free"},{"bike_id":"b2167919-7b57-4d9b-9f8b-d5a3411c7038","system_id":"levelo_inurba_marseille","lat":43.297774,"lon":5.370875,"is_reserved":false,"is_disabled":false,"rental_uris":{"android":"levelo://app?vid=b2167919-7b57-4d9b-9f8b-d5a3411c7038","ios":"levelo://app?vid=b2167919-7b57-4d9b-9f8b-d5a3411c7038"},"vehicle_type_id":"4","last_reported":1706353494,"current_range_meters":25600,"station_id":"ce4bgop2rcd13ifvqc1g","pricing_plan_id":"free"},{"bike_id":"416475d6-ef00-46bd-9618-e51e0a232531","system_id":"levelo_inurba_marseille","lat":43.322872,"lon":5.382756,"is_reserved":false,"is_disabled":false,"rental_uris":{"android":"levelo://app?vid=416475d6-ef00-46bd-9618-e51e0a232531","ios":"levelo://app?vid=416475d6-ef00-46bd-9618-e51e0a232531"},"vehicle_type_id":"4","last_reported":1706353494,"current_range_meters":31600,"station_id":"ce4bhr12rcd13ifvqhqg","pricing_plan_id":"free"},{"bike_id":"5e98879a-df25-42d7-a72e-59c9369b5f46","system_id":"levelo_inurba_marseille","lat":43.322864,"lon":5.382652,"is_reserved":false,"is_disabled":false,"rental_uris":{"android":"levelo://app?vid=5e98879a-df25-42d7-a72e-59c9369b5f46","ios":"levelo://app?vid=5e98879a-df25-42d7-a72e-59c9369b5f46"},"vehicle_type_id":"4","last_reported":1706353494,"current_range_meters":31200,"station_id":"ce4bhr12rcd13ifvqhqg","pricing_plan_id":"free"},{"bike_id":"965a5dab-e227-4efc-b518-9780186a9de9","system_id":"levelo_inurba_marseille","lat":43.322872,"lon":5.382756,"is_reserved":false,"is_disabled":false,"rental_uris":{"android":"levelo://app?vid=965a5dab-e227-4efc-b518-9780186a9de9","ios":"levelo://app?vid=965a5dab-e227-4efc-b518-9780186a9de9"},"vehicle_type_id":"4","last_reported":1706353494,"current_range_meters":18800,"station_id":"ce4bhr12rcd13ifvqhqg","pricing_plan_id":"free"},{"bike_id":"1126cdc6-95ba-449a-b7b2-5f3f58786e97","system_id":"levelo_inurba_marseille","lat":43.322872,"lon":5.382756,"is_reserved":false,"is_disabled":false,"rental_uris":{"android":"levelo://app?vid=1126cdc6-95ba-449a-b7b2-5f3f58786e97","ios":"levelo://app?vid=1126cdc6-95ba-449a-b7b2-5f3f58786e97"},"vehicle_type_id":"4","last_reported":1706353494,"current_range_meters":25200,"station_id":"ce4bhr12rcd13ifvqhqg","pricing_plan_id":"free"},{"bike_id":"c0bacbb9-2761-4491-a8c1-93af05373d9b","system_id":"levelo_inurba_marseille","lat":43.32826,"lon":5.36689,"is_reserved":false,"is_disabled":false,"rental_uris":{"android":"levelo://app?vid=c0bacbb9-2761-4491-a8c1-93af05373d9b","ios":"levelo://app?vid=c0bacbb9-2761-4491-a8c1-93af05373d9b"},"vehicle_type_id":"4","last_reported":1706353494,"current_range_meters":20800,"station_id":"ce4bhs92rcd13ifvqi0g","pricing_plan_id":"free"},{"bike_id":"31c884b6-24f3-4ad2-b153-4d91b407eb8c","system_id":"levelo_inurba_marseille","lat":43.32834,"lon":5.36687,"is_reserved":false,"is_disabled":false,"rental_uris":{"android":"levelo://app?vid=31c884b6-24f3-4ad2-b153-4d91b407eb8c","ios":"levelo://app?vid=31c884b6-24f3-4ad2-b153-4d91b407eb8c"},"vehicle_type_id":"4","last_reported":1706353494,"current_range_meters":21600,"station_id":"ce4bhs92rcd13ifvqi0g","pricing_plan_id":"free"},{"bike_id":"cc649eb7-63f9-4647-8d05-138992edaf86","system_id":"levelo_inurba_marseille","lat":43.297163,"lon":5.365866,"is_reserved":false,"is_disabled":false,"rental_uris":{"android":"levelo://app?vid=cc649eb7-63f9-4647-8d05-138992edaf86","ios":"levelo://app?vid=cc649eb7-63f9-4647-8d05-138992edaf86"},"vehicle_type_id":"4","last_reported":1706353494,"current_range_meters":26800,"station_id":"ce4bgn12rcd13ifvqbt0","pricing_plan_id":"free"},{"bike_id":"3630d5dc-3ecb-4949-92ee-42bedba30cf0","system_id":"levelo_inurba_marseille","lat":43.309047,"lon":5.396551,"is_reserved":false,"is_disabled":false,"rental_uris":{"android":"levelo://app?vid=3630d5dc-3ecb-4949-92ee-42bedba30cf0","ios":"levelo://app?vid=3630d5dc-3ecb-4949-92ee-42bedba30cf0"},"vehicle_type_id":"4","last_reported":1706353494,"current_range_meters":9600,"station_id":"ce4bh012rcd13ifvqcv0","pricing_plan_id":"free"},{"bike_id":"5564d4c8-a4d3-4f67-af9d-e30438ca3fc6","system_id":"levelo_inurba_marseille","lat":43.2968,"lon":5.37291,"is_reserved":false,"is_disabled":false,"rental_uris":{"android":"levelo://app?vid=5564d4c8-a4d3-4f67-af9d-e30438ca3fc6","ios":"levelo://app?vid=5564d4c8-a4d3-4f67-af9d-e30438ca3fc6"},"vehicle_type_id":"4","last_reported":1706353494,"current_range_meters":16400,"station_id":"ce4bgk12rcd13ifvqbj0","pricing_plan_id":"free"},{"bike_id":"8a9d0df2-372f-4183-b0d0-46b556e1e088","system_id":"levelo_inurba_marseille","lat":43.296131,"lon":5.370791,"is_reserved":false,"is_disabled":false,"rental_uris":{"android":"levelo://app?vid=8a9d0df2-372f-4183-b0d0-46b556e1e088","ios":"levelo://app?vid=8a9d0df2-372f-4183-b0d0-46b556e1e088"},"vehicle_type_id":"4","last_reported":1706353494,"current_range_meters":19600,"station_id":"ce4bgnh2rcd13ifvqc0g","pricing_plan_id":"free"},{"bike_id":"23692cb6-8a4d-4ed1-82fb-51d4e2559478","system_id":"levelo_inurba_marseille","lat":43.29573,"lon":5.367355,"is_reserved":false,"is_disabled":false,"rental_uris":{"android":"levelo://app?vid=23692cb6-8a4d-4ed1-82fb-51d4e2559478","ios":"levelo://app?vid=23692cb6-8a4d-4ed1-82fb-51d4e2559478"},"vehicle_type_id":"4","last_reported":1706353494,"current_range_meters":26400,"station_id":"ce4bgph2rcd13ifvqc2g","pricing_plan_id":"free"},{"bike_id":"559f0865-5296-4d3c-b1c8-1620020043e9","system_id":"levelo_inurba_marseille","lat":43.29573,"lon":5.367355,"is_reserved":false,"is_disabled":false,"rental_uris":{"android":"levelo://app?vid=559f0865-5296-4d3c-b1c8-1620020043e9","ios":"levelo://app?vid=559f0865-5296-4d3c-b1c8-1620020043e9"},"vehicle_type_id":"4","last_reported":1706353494,"current_range_meters":30000,"station_id":"ce4bgph2rcd13ifvqc2g","pricing_plan_id":"free"},{"bike_id":"db556b33-eea4-4b7c-a010-225b372499af","system_id":"levelo_inurba_marseille","lat":43.309589,"lon":5.390258,"is_reserved":false,"is_disabled":false,"rental_uris":{"android":"levelo://app?vid=db556b33-eea4-4b7c-a010-225b372499af","ios":"levelo://app?vid=db556b33-eea4-4b7c-a010-225b372499af"},"vehicle_type_id":"4","last_reported":1706353494,"current_range_meters":23600,"station_id":"ce4bgup2rcd13ifvqco0","pricing_plan_id":"free"},{"bike_id":"3646cb60-0fc2-4cee-9240-c7636d228ca4","system_id":"levelo_inurba_marseille","lat":43.297113,"lon":5.376974,"is_reserved":false,"is_disabled":false,"rental_uris":{"android":"levelo://app?vid=3646cb60-0fc2-4cee-9240-c7636d228ca4","ios":"levelo://app?vid=3646cb60-0fc2-4cee-9240-c7636d228ca4"},"vehicle_type_id":"4","last_reported":1706353494,"current_range_meters":26400,"station_id":"ce4bgkh2rcd13ifvqbl0","pricing_plan_id":"free"},{"bike_id":"30b5aa28-6c90-4c30-aaab-f0c49d4c3344","system_id":"levelo_inurba_marseille","lat":43.297094,"lon":5.376958,"is_reserved":false,"is_disabled":false,"rental_uris":{"android":"levelo://app?vid=30b5aa28-6c90-4c30-aaab-f0c49d4c3344","ios":"levelo://app?vid=30b5aa28-6c90-4c30-aaab-f0c49d4c3344"},"vehicle_type_id":"4","last_reported":1706353494,"current_range_meters":18800,"station_id":"","pricing_plan_id":"free"},{"bike_id":"b86cdbed-d72f-4656-85c5-75e6f28c0de4","system_id":"levelo_inurba_marseille","lat":43.297073,"lon":5.376959,"is_reserved":false,"is_disabled":false,"rental_uris":{"android":"levelo://app?vid=b86cdbed-d72f-4656-85c5-75e6f28c0de4","ios":"levelo://app?vid=b86cdbed-d72f-4656-85c5-75e6f28c0de4"},"vehicle_type_id":"4","last_reported":1706353494,"current_range_meters":22400,"station_id":"","pricing_plan_id":"free"},{"bike_id":"4aa70904-b407-4278-a2ca-863c576a98c2","system_id":"levelo_inurba_marseille","lat":43.296921,"lon":5.376579,"is_reserved":false,"is_disabled":false,"rental_uris":{"android":"levelo://app?vid=4aa70904-b407-4278-a2ca-863c576a98c2","ios":"levelo://app?vid=4aa70904-b407-4278-a2ca-863c576a98c2"},"vehicle_type_id":"4","last_reported":1706353494,"current_range_meters":22800,"station_id":"ce4bgkh2rcd13ifvqbl0","pricing_plan_id":"free"},{"bike_id":"5849c8f1-de07-480c-ab10-c023b55280ba","system_id":"levelo_inurba_marseille","lat":43.322251,"lon":5.387504,"is_reserved":false,"is_disabled":false,"rental_uris":{"android":"levelo://app?vid=5849c8f1-de07-480c-ab10-c023b55280ba","ios":"levelo://app?vid=5849c8f1-de07-480c-ab10-c023b55280ba"},"vehicle_type_id":"4","last_reported":1706353494,"current_range_meters":3200,"station_id":"","pricing_plan_id":"free"},{"bike_id":"e8e41d65-036c-4ec4-8d2b-032e83de4d23","system_id":"levelo_inurba_marseille","lat":43.295748,"lon":5.37522,"is_reserved":false,"is_disabled":false,"rental_uris":{"android":"levelo://app?vid=e8e41d65-036c-4ec4-8d2b-032e83de4d23","ios":"levelo://app?vid=e8e41d65-036c-4ec4-8d2b-032e83de4d23"},"vehicle_type_id":"4","last_reported":1706353494,"current_range_meters":24800,"station_id":"ce4bgh92rcd13ifvqb50","pricing_plan_id":"free"},{"bike_id":"619c6482-c126-47cc-8e07-bd8f6e380fb4","system_id":"levelo_inurba_marseille","lat":43.295748,"lon":5.37522,"is_reserved":false,"is_disabled":false,"rental_uris":{"android":"levelo://app?vid=619c6482-c126-47cc-8e07-bd8f6e380fb4","ios":"levelo://app?vid=619c6482-c126-47cc-8e07-bd8f6e380fb4"},"vehicle_type_id":"4","last_reported":1706353494,"current_range_meters":30800,"station_id":"ce4bgh92rcd13ifvqb50","pricing_plan_id":"free"},{"bike_id":"84124beb-d570-4bf7-993c-f17f37cc5479","system_id":"levelo_inurba_marseille","lat":43.30429,"lon":5.388863,"is_reserved":false,"is_disabled":false,"rental_uris":{"android":"levelo://app?vid=84124beb-d570-4bf7-993c-f17f37cc5479","ios":"levelo://app?vid=84124beb-d570-4bf7-993c-f17f37cc5479"},"vehicle_type_id":"4","last_reported":1706353494,"current_range_meters":18800,"station_id":"ce4bgk12rcd13ifvqbi0","pricing_plan_id":"free"},{"bike_id":"ac84af41-e7d0-40d7-965f-ef68248df692","system_id":"levelo_inurba_marseille","lat":43.305706,"lon":5.365654,"is_reserved":false,"is_disabled":false,"rental_uris":{"android":"levelo://app?vid=ac84af41-e7d0-40d7-965f-ef68248df692","ios":"levelo://app?vid=ac84af41-e7d0-40d7-965f-ef68248df692"},"vehicle_type_id":"4","last_reported":1706353494,"current_range_meters":18400,"station_id":"ce4bgs12rcd13ifvqcag","pricing_plan_id":"free"},{"bike_id":"4d50e994-2709-4f6c-b991-52be3c8b2c98","system_id":"levelo_inurba_marseille","lat":43.30428,"lon":5.38891,"is_reserved":false,"is_disabled":false,"rental_uris":{"android":"levelo://app?vid=4d50e994-2709-4f6c-b991-52be3c8b2c98","ios":"levelo://app?vid=4d50e994-2709-4f6c-b991-52be3c8b2c98"},"vehicle_type_id":"4","last_reported":1706353494,"current_range_meters":22800,"station_id":"ce4bgk12rcd13ifvqbi0","pricing_plan_id":"free"},{"bike_id":"3f8def27-cea0-4872-97eb-7b75f1ffa26e","system_id":"levelo_inurba_marseille","lat":43.304278,"lon":5.388868,"is_reserved":false,"is_disabled":false,"rental_uris":{"android":"levelo://app?vid=3f8def27-cea0-4872-97eb-7b75f1ffa26e","ios":"levelo://app?vid=3f8def27-cea0-4872-97eb-7b75f1ffa26e"},"vehicle_type_id":"4","last_reported":1706353494,"current_range_meters":26000,"station_id":"ce4bgk12rcd13ifvqbi0","pricing_plan_id":"free"},{"bike_id":"13957a35-174f-48be-bb0e-654272fc8d2a","system_id":"levelo_inurba_marseille","lat":43.2956,"lon":5.37508,"is_reserved":false,"is_disabled":false,"rental_uris":{"android":"levelo://app?vid=13957a35-174f-48be-bb0e-654272fc8d2a","ios":"levelo://app?vid=13957a35-174f-48be-bb0e-654272fc8d2a"},"vehicle_type_id":"4","last_reported":1706353494,"current_range_meters":28800,"station_id":"ce4bgh92rcd13ifvqb50","pricing_plan_id":"free"},{"bike_id":"aca06b24-f3d6-4b59-9d07-62bf5ae586f0","system_id":"levelo_inurba_marseille","lat":43.29563,"lon":5.37526,"is_reserved":false,"is_disabled":false,"rental_uris":{"android":"levelo://app?vid=aca06b24-f3d6-4b59-9d07-62bf5ae586f0","ios":"levelo://app?vid=aca06b24-f3d6-4b59-9d07-62bf5ae586f0"},"vehicle_type_id":"4","last_reported":1706353494,"current_range_meters":28000,"station_id":"ce4bgh92rcd13ifvqb50","pricing_plan_id":"free"},{"bike_id":"7d2169d2-60d3-46d2-bd69-3be4583dc473","system_id":"levelo_inurba_marseille","lat":43.30409,"lon":5.38889,"is_reserved":false,"is_disabled":false,"rental_uris":{"android":"levelo://app?vid=7d2169d2-60d3-46d2-bd69-3be4583dc473","ios":"levelo://app?vid=7d2169d2-60d3-46d2-bd69-3be4583dc473"},"vehicle_type_id":"4","last_reported":1706353494,"current_range_meters":28000,"station_id":"ce4bgk12rcd13ifvqbi0","pricing_plan_id":"free"},{"bike_id":"97a5b8ae-916e-418a-b471-b6a594824d5c","system_id":"levelo_inurba_marseille","lat":43.29547,"lon":5.37501,"is_reserved":false,"is_disabled":false,"rental_uris":{"android":"levelo://app?vid=97a5b8ae-916e-418a-b471-b6a594824d5c","ios":"levelo://app?vid=97a5b8ae-916e-418a-b471-b6a594824d5c"},"vehicle_type_id":"4","last_reported":1706353494,"current_range_meters":19200,"station_id":"ce4bgkp2rcd13ifvqbmg","pricing_plan_id":"free"},{"bike_id":"6a8e5499-ffce-470e-9392-3d614b2a56a8","system_id":"levelo_inurba_marseille","lat":43.295279,"lon":5.375048,"is_reserved":false,"is_disabled":false,"rental_uris":{"android":"levelo://app?vid=6a8e5499-ffce-470e-9392-3d614b2a56a8","ios":"levelo://app?vid=6a8e5499-ffce-470e-9392-3d614b2a56a8"},"vehicle_type_id":"4","last_reported":1706353494,"current_range_meters":2400,"station_id":"ce4bgkp2rcd13ifvqbmg","pricing_plan_id":"free"},{"bike_id":"63c076d9-77d3-40dd-b70b-3c7a661f4aba","system_id":"levelo_inurba_marseille","lat":43.29508,"lon":5.37504,"is_reserved":false,"is_disabled":false,"rental_uris":{"android":"levelo://app?vid=63c076d9-77d3-40dd-b70b-3c7a661f4aba","ios":"levelo://app?vid=63c076d9-77d3-40dd-b70b-3c7a661f4aba"},"vehicle_type_id":"4","last_reported":1706353494,"current_range_meters":0,"station_id":"ce4bgkp2rcd13ifvqbmg","pricing_plan_id":"free"},{"bike_id":"d7803bed-fb47-4ba6-b32d-728fc496b369","system_id":"levelo_inurba_marseille","lat":43.32367,"lon":5.388836,"is_reserved":false,"is_disabled":false,"rental_uris":{"android":"levelo://app?vid=d7803bed-fb47-4ba6-b32d-728fc496b369","ios":"levelo://app?vid=d7803bed-fb47-4ba6-b32d-728fc496b369"},"vehicle_type_id":"4","last_reported":1706353494,"current_range_meters":13600,"station_id":"ce4bhqp2rcd13ifvqhog","pricing_plan_id":"free"},{"bike_id":"73c24fe1-c717-4648-bb40-084f29180982","system_id":"levelo_inurba_marseille","lat":43.32357,"lon":5.38882,"is_reserved":false,"is_disabled":false,"rental_uris":{"android":"levelo://app?vid=73c24fe1-c717-4648-bb40-084f29180982","ios":"levelo://app?vid=73c24fe1-c717-4648-bb40-084f29180982"},"vehicle_type_id":"4","last_reported":1706353494,"current_range_meters":28000,"station_id":"ce4bhqp2rcd13ifvqhog","pricing_plan_id":"free"},{"bike_id":"def703ed-e78e-4412-a809-c10b7fb945a5","system_id":"levelo_inurba_marseille","lat":43.32361,"lon":5.38881,"is_reserved":false,"is_disabled":false,"rental_uris":{"android":"levelo://app?vid=def703ed-e78e-4412-a809-c10b7fb945a5","ios":"levelo://app?vid=def703ed-e78e-4412-a809-c10b7fb945a5"},"vehicle_type_id":"4","last_reported":1706353494,"current_range_meters":24800,"station_id":"ce4bhqp2rcd13ifvqhog","pricing_plan_id":"free"},{"bike_id":"110e294d-4ae1-4d3c-9a1c-3e70b490847b","system_id":"levelo_inurba_marseille","lat":43.32358,"lon":5.38884,"is_reserved":false,"is_disabled":false,"rental_uris":{"android":"levelo://app?vid=110e294d-4ae1-4d3c-9a1c-3e70b490847b","ios":"levelo://app?vid=110e294d-4ae1-4d3c-9a1c-3e70b490847b"},"vehicle_type_id":"4","last_reported":1706353494,"current_range_meters":21200,"station_id":"ce4bhqp2rcd13ifvqhog","pricing_plan_id":"free"},{"bike_id":"0ea3fd81-3f73-43eb-a24e-cc7fa2617f9d","system_id":"levelo_inurba_marseille","lat":43.32367,"lon":5.388836,"is_reserved":false,"is_disabled":false,"rental_uris":{"android":"levelo://app?vid=0ea3fd81-3f73-43eb-a24e-cc7fa2617f9d","ios":"levelo://app?vid=0ea3fd81-3f73-43eb-a24e-cc7fa2617f9d"},"vehicle_type_id":"4","last_reported":1706353494,"current_range_meters":30800,"station_id":"ce4bhqp2rcd13ifvqhog","pricing_plan_id":"free"},{"bike_id":"17539ff0-c1a9-4790-b399-170420149c2c","system_id":"levelo_inurba_marseille","lat":43.32367,"lon":5.388836,"is_reserved":false,"is_disabled":false,"rental_uris":{"android":"levelo://app?vid=17539ff0-c1a9-4790-b399-170420149c2c","ios":"levelo://app?vid=17539ff0-c1a9-4790-b399-170420149c2c"},"vehicle_type_id":"4","last_reported":1706353494,"current_range_meters":22400,"station_id":"ce4bhqp2rcd13ifvqhog","pricing_plan_id":"free"},{"bike_id":"c69fc2b7-c2b2-4d45-9f5c-8abf8e5b4583","system_id":"levelo_inurba_marseille","lat":43.32365,"lon":5.38882,"is_reserved":false,"is_disabled":false,"rental_uris":{"android":"levelo://app?vid=c69fc2b7-c2b2-4d45-9f5c-8abf8e5b4583","ios":"levelo://app?vid=c69fc2b7-c2b2-4d45-9f5c-8abf8e5b4583"},"vehicle_type_id":"4","last_reported":1706353494,"current_range_meters":10400,"station_id":"ce4bhqp2rcd13ifvqhog","pricing_plan_id":"free"},{"bike_id":"7c66c9c8-fce3-4e85-9788-bd629b68dcd0","system_id":"levelo_inurba_marseille","lat":43.32367,"lon":5.388836,"is_reserved":false,"is_disabled":false,"rental_uris":{"android":"levelo://app?vid=7c66c9c8-fce3-4e85-9788-bd629b68dcd0","ios":"levelo://app?vid=7c66c9c8-fce3-4e85-9788-bd629b68dcd0"},"vehicle_type_id":"4","last_reported":1706353494,"current_range_meters":13600,"station_id":"ce4bhqp2rcd13ifvqhog","pricing_plan_id":"free"},{"bike_id":"a49d8384-8a1e-4acf-a2ff-bcda698f42ea","system_id":"levelo_inurba_marseille","lat":43.323649,"lon":5.388858,"is_reserved":false,"is_disabled":false,"rental_uris":{"android":"levelo://app?vid=a49d8384-8a1e-4acf-a2ff-bcda698f42ea","ios":"levelo://app?vid=a49d8384-8a1e-4acf-a2ff-bcda698f42ea"},"vehicle_type_id":"4","last_reported":1706353494,"current_range_meters":2000,"station_id":"","pricing_plan_id":"free"},{"bike_id":"2ca78edb-656b-482c-84f6-4464c673d97c","system_id":"levelo_inurba_marseille","lat":43.32367,"lon":5.388836,"is_reserved":false,"is_disabled":false,"rental_uris":{"android":"levelo://app?vid=2ca78edb-656b-482c-84f6-4464c673d97c","ios":"levelo://app?vid=2ca78edb-656b-482c-84f6-4464c673d97c"},"vehicle_type_id":"4","last_reported":1706353494,"current_range_meters":24000,"station_id":"ce4bhqp2rcd13ifvqhog","pricing_plan_id":"free"},{"bike_id":"7be10a5b-d8d4-47cd-a19d-58adada9aa30","system_id":"levelo_inurba_marseille","lat":43.32367,"lon":5.388836,"is_reserved":false,"is_disabled":false,"rental_uris":{"android":"levelo://app?vid=7be10a5b-d8d4-47cd-a19d-58adada9aa30","ios":"levelo://app?vid=7be10a5b-d8d4-47cd-a19d-58adada9aa30"},"vehicle_type_id":"4","last_reported":1706353494,"current_range_meters":20400,"station_id":"ce4bhqp2rcd13ifvqhog","pricing_plan_id":"free"},{"bike_id":"49a7ca8c-21c7-478a-ab58-28ef1d551807","system_id":"levelo_inurba_marseille","lat":43.32367,"lon":5.388836,"is_reserved":false,"is_disabled":false,"rental_uris":{"android":"levelo://app?vid=49a7ca8c-21c7-478a-ab58-28ef1d551807","ios":"levelo://app?vid=49a7ca8c-21c7-478a-ab58-28ef1d551807"},"vehicle_type_id":"4","last_reported":1706353494,"current_range_meters":31200,"station_id":"ce4bhqp2rcd13ifvqhog","pricing_plan_id":"free"},{"bike_id":"92939895-7657-4819-b1f4-ca706b113a19","system_id":"levelo_inurba_marseille","lat":43.32367,"lon":5.3889,"is_reserved":false,"is_disabled":false,"rental_uris":{"android":"levelo://app?vid=92939895-7657-4819-b1f4-ca706b113a19","ios":"levelo://app?vid=92939895-7657-4819-b1f4-ca706b113a19"},"vehicle_type_id":"4","last_reported":1706353494,"current_range_meters":29600,"station_id":"ce4bhqp2rcd13ifvqhog","pricing_plan_id":"free"},{"bike_id":"c2ec03c8-4d09-420e-940c-d94b7b335bcc","system_id":"levelo_inurba_marseille","lat":43.32367,"lon":5.388836,"is_reserved":false,"is_disabled":false,"rental_uris":{"android":"levelo://app?vid=c2ec03c8-4d09-420e-940c-d94b7b335bcc","ios":"levelo://app?vid=c2ec03c8-4d09-420e-940c-d94b7b335bcc"},"vehicle_type_id":"4","last_reported":1706353494,"current_range_meters":27200,"station_id":"ce4bhqp2rcd13ifvqhog","pricing_plan_id":"free"},{"bike_id":"5ac368d3-e9c6-4349-b586-9445ca2f3984","system_id":"levelo_inurba_marseille","lat":43.293259,"lon":5.371586,"is_reserved":false,"is_disabled":false,"rental_uris":{"android":"levelo://app?vid=5ac368d3-e9c6-4349-b586-9445ca2f3984","ios":"levelo://app?vid=5ac368d3-e9c6-4349-b586-9445ca2f3984"},"vehicle_type_id":"4","last_reported":1706353494,"current_range_meters":10400,"station_id":"ce4bgh92rcd13ifvqb40","pricing_plan_id":"free"},{"bike_id":"44df9f5b-59a1-4f12-af70-4596792968f2","system_id":"levelo_inurba_marseille","lat":43.292749,"lon":5.368402,"is_reserved":false,"is_disabled":false,"rental_uris":{"android":"levelo://app?vid=44df9f5b-59a1-4f12-af70-4596792968f2","ios":"levelo://app?vid=44df9f5b-59a1-4f12-af70-4596792968f2"},"vehicle_type_id":"4","last_reported":1706353494,"current_range_meters":25200,"station_id":"ce4bhbp2rcd13ifvqesg","pricing_plan_id":"free"},{"bike_id":"439d12b6-8d5e-40f8-aaa7-42038df07cbd","system_id":"levelo_inurba_marseille","lat":43.29303,"lon":5.37164,"is_reserved":false,"is_disabled":false,"rental_uris":{"android":"levelo://app?vid=439d12b6-8d5e-40f8-aaa7-42038df07cbd","ios":"levelo://app?vid=439d12b6-8d5e-40f8-aaa7-42038df07cbd"},"vehicle_type_id":"4","last_reported":1706353494,"current_range_meters":31200,"station_id":"ce4bgh92rcd13ifvqb40","pricing_plan_id":"free"},{"bike_id":"f71529f9-43ac-47e2-8157-6993536db295","system_id":"levelo_inurba_marseille","lat":43.292749,"lon":5.368402,"is_reserved":false,"is_disabled":false,"rental_uris":{"android":"levelo://app?vid=f71529f9-43ac-47e2-8157-6993536db295","ios":"levelo://app?vid=f71529f9-43ac-47e2-8157-6993536db295"},"vehicle_type_id":"4","last_reported":1706353494,"current_range_meters":18800,"station_id":"ce4bhbp2rcd13ifvqesg","pricing_plan_id":"free"},{"bike_id":"9b4e22c8-caa2-46fd-9c8b-4ea5db59354f","system_id":"levelo_inurba_marseille","lat":43.29303,"lon":5.37167,"is_reserved":false,"is_disabled":false,"rental_uris":{"android":"levelo://app?vid=9b4e22c8-caa2-46fd-9c8b-4ea5db59354f","ios":"levelo://app?vid=9b4e22c8-caa2-46fd-9c8b-4ea5db59354f"},"vehicle_type_id":"4","last_reported":1706353494,"current_range_meters":0,"station_id":"ce4bgh92rcd13ifvqb40","pricing_plan_id":"free"},{"bike_id":"e3eb4b1d-c065-411c-bb4e-015fe8250d79","system_id":"levelo_inurba_marseille","lat":43.29276,"lon":5.368445,"is_reserved":false,"is_disabled":false,"rental_uris":{"android":"levelo://app?vid=e3eb4b1d-c065-411c-bb4e-015fe8250d79","ios":"levelo://app?vid=e3eb4b1d-c065-411c-bb4e-015fe8250d79"},"vehicle_type_id":"4","last_reported":1706353494,"current_range_meters":17200,"station_id":"","pricing_plan_id":"free"},{"bike_id":"677721bf-0360-4097-b453-58ce4e6db762","system_id":"levelo_inurba_marseille","lat":43.292749,"lon":5.368402,"is_reserved":false,"is_disabled":false,"rental_uris":{"android":"levelo://app?vid=677721bf-0360-4097-b453-58ce4e6db762","ios":"levelo://app?vid=677721bf-0360-4097-b453-58ce4e6db762"},"vehicle_type_id":"4","last_reported":1706353494,"current_range_meters":14400,"station_id":"ce4bhbp2rcd13ifvqesg","pricing_plan_id":"free"},{"bike_id":"663a9fcc-bddf-47b8-8593-4ba83febd1f6","system_id":"levelo_inurba_marseille","lat":43.293009,"lon":5.374584,"is_reserved":false,"is_disabled":false,"rental_uris":{"android":"levelo://app?vid=663a9fcc-bddf-47b8-8593-4ba83febd1f6","ios":"levelo://app?vid=663a9fcc-bddf-47b8-8593-4ba83febd1f6"},"vehicle_type_id":"4","last_reported":1706353494,"current_range_meters":24000,"station_id":"ce4bgi12rcd13ifvqb70","pricing_plan_id":"free"},{"bike_id":"9c54aa1f-7a7d-4731-8f8f-2b88f11b2d64","system_id":"levelo_inurba_marseille","lat":43.29303,"lon":5.37455,"is_reserved":false,"is_disabled":false,"rental_uris":{"android":"levelo://app?vid=9c54aa1f-7a7d-4731-8f8f-2b88f11b2d64","ios":"levelo://app?vid=9c54aa1f-7a7d-4731-8f8f-2b88f11b2d64"},"vehicle_type_id":"4","last_reported":1706353494,"current_range_meters":30400,"station_id":"ce4bgi12rcd13ifvqb70","pricing_plan_id":"free"},{"bike_id":"349cc0d6-2f71-49b0-8581-e69fa5f4eb77","system_id":"levelo_inurba_marseille","lat":43.293009,"lon":5.374584,"is_reserved":false,"is_disabled":false,"rental_uris":{"android":"levelo://app?vid=349cc0d6-2f71-49b0-8581-e69fa5f4eb77","ios":"levelo://app?vid=349cc0d6-2f71-49b0-8581-e69fa5f4eb77"},"vehicle_type_id":"4","last_reported":1706353494,"current_range_meters":23600,"station_id":"ce4bgi12rcd13ifvqb70","pricing_plan_id":"free"},{"bike_id":"94dce3e2-5ecb-4795-a1fd-8b3f490f059b","system_id":"levelo_inurba_marseille","lat":43.293009,"lon":5.374584,"is_reserved":false,"is_disabled":false,"rental_uris":{"android":"levelo://app?vid=94dce3e2-5ecb-4795-a1fd-8b3f490f059b","ios":"levelo://app?vid=94dce3e2-5ecb-4795-a1fd-8b3f490f059b"},"vehicle_type_id":"4","last_reported":1706353494,"current_range_meters":32000,"station_id":"ce4bgi12rcd13ifvqb70","pricing_plan_id":"free"},{"bike_id":"38889419-2dc9-49bf-8b28-d3b96b0249b5","system_id":"levelo_inurba_marseille","lat":43.293009,"lon":5.374584,"is_reserved":false,"is_disabled":false,"rental_uris":{"android":"levelo://app?vid=38889419-2dc9-49bf-8b28-d3b96b0249b5","ios":"levelo://app?vid=38889419-2dc9-49bf-8b28-d3b96b0249b5"},"vehicle_type_id":"4","last_reported":1706353494,"current_range_meters":32000,"station_id":"ce4bgi12rcd13ifvqb70","pricing_plan_id":"free"},{"bike_id":"55f7e523-d7a6-496d-8b6b-f49092472675","system_id":"levelo_inurba_marseille","lat":43.293009,"lon":5.374584,"is_reserved":false,"is_disabled":false,"rental_uris":{"android":"levelo://app?vid=55f7e523-d7a6-496d-8b6b-f49092472675","ios":"levelo://app?vid=55f7e523-d7a6-496d-8b6b-f49092472675"},"vehicle_type_id":"4","last_reported":1706353494,"current_range_meters":26800,"station_id":"ce4bgi12rcd13ifvqb70","pricing_plan_id":"free"},{"bike_id":"b6e17f41-fa49-46d2-a41b-8c0a3849a8be","system_id":"levelo_inurba_marseille","lat":43.293009,"lon":5.374584,"is_reserved":false,"is_disabled":false,"rental_uris":{"android":"levelo://app?vid=b6e17f41-fa49-46d2-a41b-8c0a3849a8be","ios":"levelo://app?vid=b6e17f41-fa49-46d2-a41b-8c0a3849a8be"},"vehicle_type_id":"4","last_reported":1706353494,"current_range_meters":18000,"station_id":"ce4bgi12rcd13ifvqb70","pricing_plan_id":"free"},{"bike_id":"f992b10f-30d4-4b76-8132-f5a7cbde266e","system_id":"levelo_inurba_marseille","lat":43.293009,"lon":5.374584,"is_reserved":false,"is_disabled":false,"rental_uris":{"android":"levelo://app?vid=f992b10f-30d4-4b76-8132-f5a7cbde266e","ios":"levelo://app?vid=f992b10f-30d4-4b76-8132-f5a7cbde266e"},"vehicle_type_id":"4","last_reported":1706353494,"current_range_meters":22800,"station_id":"ce4bgi12rcd13ifvqb70","pricing_plan_id":"free"},{"bike_id":"cf419d11-6fb7-4ab0-a90a-72ed4d16762e","system_id":"levelo_inurba_marseille","lat":43.293009,"lon":5.374584,"is_reserved":false,"is_disabled":false,"rental_uris":{"android":"levelo://app?vid=cf419d11-6fb7-4ab0-a90a-72ed4d16762e","ios":"levelo://app?vid=cf419d11-6fb7-4ab0-a90a-72ed4d16762e"},"vehicle_type_id":"4","last_reported":1706353494,"current_range_meters":26800,"station_id":"ce4bgi12rcd13ifvqb70","pricing_plan_id":"free"},{"bike_id":"585ea08e-64f0-4128-8cd8-9268be37a4aa","system_id":"levelo_inurba_marseille","lat":43.293009,"lon":5.374584,"is_reserved":false,"is_disabled":false,"rental_uris":{"android":"levelo://app?vid=585ea08e-64f0-4128-8cd8-9268be37a4aa","ios":"levelo://app?vid=585ea08e-64f0-4128-8cd8-9268be37a4aa"},"vehicle_type_id":"4","last_reported":1706353494,"current_range_meters":30800,"station_id":"ce4bgi12rcd13ifvqb70","pricing_plan_id":"free"},{"bike_id":"19ee8a57-a88e-44e5-abe1-717bfd47a3a5","system_id":"levelo_inurba_marseille","lat":43.30296,"lon":5.39211,"is_reserved":false,"is_disabled":false,"rental_uris":{"android":"levelo://app?vid=19ee8a57-a88e-44e5-abe1-717bfd47a3a5","ios":"levelo://app?vid=19ee8a57-a88e-44e5-abe1-717bfd47a3a5"},"vehicle_type_id":"4","last_reported":1706353494,"current_range_meters":22000,"station_id":"ce4bgkh2rcd13ifvqbk0","pricing_plan_id":"free"},{"bike_id":"0c508865-cc1b-4d99-95f4-ebc9ed8652bd","system_id":"levelo_inurba_marseille","lat":43.30306,"lon":5.3922,"is_reserved":false,"is_disabled":false,"rental_uris":{"android":"levelo://app?vid=0c508865-cc1b-4d99-95f4-ebc9ed8652bd","ios":"levelo://app?vid=0c508865-cc1b-4d99-95f4-ebc9ed8652bd"},"vehicle_type_id":"4","last_reported":1706353494,"current_range_meters":19200,"station_id":"ce4bgkh2rcd13ifvqbk0","pricing_plan_id":"free"},{"bike_id":"fa408b9f-b73c-4938-9f96-b41d8388b358","system_id":"levelo_inurba_marseille","lat":43.30304,"lon":5.39229,"is_reserved":false,"is_disabled":false,"rental_uris":{"android":"levelo://app?vid=fa408b9f-b73c-4938-9f96-b41d8388b358","ios":"levelo://app?vid=fa408b9f-b73c-4938-9f96-b41d8388b358"},"vehicle_type_id":"4","last_reported":1706353494,"current_range_meters":24000,"station_id":"ce4bgkh2rcd13ifvqbk0","pricing_plan_id":"free"},{"bike_id":"02cf71a5-3fa2-4f51-a249-a9f413238234","system_id":"levelo_inurba_marseille","lat":43.2936,"lon":5.37835,"is_reserved":false,"is_disabled":false,"rental_uris":{"android":"levelo://app?vid=02cf71a5-3fa2-4f51-a249-a9f413238234","ios":"levelo://app?vid=02cf71a5-3fa2-4f51-a249-a9f413238234"},"vehicle_type_id":"4","last_reported":1706353494,"current_range_meters":25200,"station_id":"ce4bgjh2rcd13ifvqbf0","pricing_plan_id":"free"},{"bike_id":"63ab3b4d-90b1-4d68-8446-d17db9b7abc5","system_id":"levelo_inurba_marseille","lat":43.2936,"lon":5.37835,"is_reserved":false,"is_disabled":false,"rental_uris":{"android":"levelo://app?vid=63ab3b4d-90b1-4d68-8446-d17db9b7abc5","ios":"levelo://app?vid=63ab3b4d-90b1-4d68-8446-d17db9b7abc5"},"vehicle_type_id":"4","last_reported":1706353494,"current_range_meters":7200,"station_id":"ce4bgjh2rcd13ifvqbf0","pricing_plan_id":"free"},{"bike_id":"6baf013a-7e30-4170-9b5b-ea021d366460","system_id":"levelo_inurba_marseille","lat":43.292311,"lon":5.360731,"is_reserved":false,"is_disabled":false,"rental_uris":{"android":"levelo://app?vid=6baf013a-7e30-4170-9b5b-ea021d366460","ios":"levelo://app?vid=6baf013a-7e30-4170-9b5b-ea021d366460"},"vehicle_type_id":"4","last_reported":1706353494,"current_range_meters":32000,"station_id":"ce4bhbh2rcd13ifvqeqg","pricing_plan_id":"free"},{"bike_id":"ffe4ea9f-47f7-43e9-8525-97dc7973f6eb","system_id":"levelo_inurba_marseille","lat":43.300852,"lon":5.390859,"is_reserved":false,"is_disabled":false,"rental_uris":{"android":"levelo://app?vid=ffe4ea9f-47f7-43e9-8525-97dc7973f6eb","ios":"levelo://app?vid=ffe4ea9f-47f7-43e9-8525-97dc7973f6eb"},"vehicle_type_id":"4","last_reported":1706353494,"current_range_meters":24000,"station_id":"ce4bh192rcd13ifvqdb0","pricing_plan_id":"free"},{"bike_id":"25f464b6-22ec-44eb-a3bc-49af6593d887","system_id":"levelo_inurba_marseille","lat":43.292311,"lon":5.360731,"is_reserved":false,"is_disabled":false,"rental_uris":{"android":"levelo://app?vid=25f464b6-22ec-44eb-a3bc-49af6593d887","ios":"levelo://app?vid=25f464b6-22ec-44eb-a3bc-49af6593d887"},"vehicle_type_id":"4","last_reported":1706353494,"current_range_meters":26000,"station_id":"ce4bhbh2rcd13ifvqeqg","pricing_plan_id":"free"},{"bike_id":"0a00b979-1666-4cfe-9df9-3d967c23278a","system_id":"levelo_inurba_marseille","lat":43.292311,"lon":5.360731,"is_reserved":false,"is_disabled":false,"rental_uris":{"android":"levelo://app?vid=0a00b979-1666-4cfe-9df9-3d967c23278a","ios":"levelo://app?vid=0a00b979-1666-4cfe-9df9-3d967c23278a"},"vehicle_type_id":"4","last_reported":1706353494,"current_range_meters":26000,"station_id":"ce4bhbh2rcd13ifvqeqg","pricing_plan_id":"free"},{"bike_id":"35e9469f-f528-41c8-9f63-dc44732576fa","system_id":"levelo_inurba_marseille","lat":43.292311,"lon":5.360731,"is_reserved":false,"is_disabled":false,"rental_uris":{"android":"levelo://app?vid=35e9469f-f528-41c8-9f63-dc44732576fa","ios":"levelo://app?vid=35e9469f-f528-41c8-9f63-dc44732576fa"},"vehicle_type_id":"4","last_reported":1706353494,"current_range_meters":29600,"station_id":"ce4bhbh2rcd13ifvqeqg","pricing_plan_id":"free"},{"bike_id":"7a9e03c2-04d1-446b-9061-7eca964929ee","system_id":"levelo_inurba_marseille","lat":43.291671,"lon":5.371575,"is_reserved":false,"is_disabled":false,"rental_uris":{"android":"levelo://app?vid=7a9e03c2-04d1-446b-9061-7eca964929ee","ios":"levelo://app?vid=7a9e03c2-04d1-446b-9061-7eca964929ee"},"vehicle_type_id":"4","last_reported":1706353494,"current_range_meters":22800,"station_id":"ce4bha92rcd13ifvqeh0","pricing_plan_id":"free"},{"bike_id":"d73a8c3a-5bb7-4406-a08a-0d1a81c1d09a","system_id":"levelo_inurba_marseille","lat":43.291671,"lon":5.371575,"is_reserved":false,"is_disabled":false,"rental_uris":{"android":"levelo://app?vid=d73a8c3a-5bb7-4406-a08a-0d1a81c1d09a","ios":"levelo://app?vid=d73a8c3a-5bb7-4406-a08a-0d1a81c1d09a"},"vehicle_type_id":"4","last_reported":1706353494,"current_range_meters":30800,"station_id":"ce4bha92rcd13ifvqeh0","pricing_plan_id":"free"},{"bike_id":"2cdd5039-e8ec-441b-9bd5-4c34b690b828","system_id":"levelo_inurba_marseille","lat":43.304946,"lon":5.394241,"is_reserved":false,"is_disabled":false,"rental_uris":{"android":"levelo://app?vid=2cdd5039-e8ec-441b-9bd5-4c34b690b828","ios":"levelo://app?vid=2cdd5039-e8ec-441b-9bd5-4c34b690b828"},"vehicle_type_id":"4","last_reported":1706353494,"current_range_meters":20800,"station_id":"","pricing_plan_id":"free"},{"bike_id":"1626e674-e8da-42b3-8437-c8a698011dd3","system_id":"levelo_inurba_marseille","lat":43.298764,"lon":5.388973,"is_reserved":false,"is_disabled":false,"rental_uris":{"android":"levelo://app?vid=1626e674-e8da-42b3-8437-c8a698011dd3","ios":"levelo://app?vid=1626e674-e8da-42b3-8437-c8a698011dd3"},"vehicle_type_id":"4","last_reported":1706353494,"current_range_meters":27200,"station_id":"ce4bh392rcd13ifvqdl0","pricing_plan_id":"free"},{"bike_id":"e538fd5b-1314-4e21-b42e-7359a636eb3c","system_id":"levelo_inurba_marseille","lat":43.29191,"lon":5.35813,"is_reserved":false,"is_disabled":false,"rental_uris":{"android":"levelo://app?vid=e538fd5b-1314-4e21-b42e-7359a636eb3c","ios":"levelo://app?vid=e538fd5b-1314-4e21-b42e-7359a636eb3c"},"vehicle_type_id":"4","last_reported":1706353494,"current_range_meters":28400,"station_id":"ce4bhb12rcd13ifvqel0","pricing_plan_id":"free"},{"bike_id":"8c909f33-47e4-424f-b133-572310c1a5f0","system_id":"levelo_inurba_marseille","lat":43.313291,"lon":5.396838,"is_reserved":false,"is_disabled":false,"rental_uris":{"android":"levelo://app?vid=8c909f33-47e4-424f-b133-572310c1a5f0","ios":"levelo://app?vid=8c909f33-47e4-424f-b133-572310c1a5f0"},"vehicle_type_id":"4","last_reported":1706353494,"current_range_meters":26000,"station_id":"ce4bgvp2rcd13ifvqcu0","pricing_plan_id":"free"},{"bike_id":"f677d629-327d-47bd-862c-06c9717bc054","system_id":"levelo_inurba_marseille","lat":43.309038,"lon":5.396546,"is_reserved":false,"is_disabled":false,"rental_uris":{"android":"levelo://app?vid=f677d629-327d-47bd-862c-06c9717bc054","ios":"levelo://app?vid=f677d629-327d-47bd-862c-06c9717bc054"},"vehicle_type_id":"4","last_reported":1706353494,"current_range_meters":23600,"station_id":"ce4bh012rcd13ifvqcv0","pricing_plan_id":"free"},{"bike_id":"6244bedc-c35d-4351-b5f4-4aa33630d66b","system_id":"levelo_inurba_marseille","lat":43.290452,"lon":5.359193,"is_reserved":false,"is_disabled":false,"rental_uris":{"android":"levelo://app?vid=6244bedc-c35d-4351-b5f4-4aa33630d66b","ios":"levelo://app?vid=6244bedc-c35d-4351-b5f4-4aa33630d66b"},"vehicle_type_id":"4","last_reported":1706353494,"current_range_meters":29600,"station_id":"","pricing_plan_id":"free"},{"bike_id":"ce4cf987-04f5-461f-affd-42bd84561d51","system_id":"levelo_inurba_marseille","lat":43.290428,"lon":5.359135,"is_reserved":false,"is_disabled":false,"rental_uris":{"android":"levelo://app?vid=ce4cf987-04f5-461f-affd-42bd84561d51","ios":"levelo://app?vid=ce4cf987-04f5-461f-affd-42bd84561d51"},"vehicle_type_id":"4","last_reported":1706353494,"current_range_meters":10400,"station_id":"ce4bha92rcd13ifvqeg0","pricing_plan_id":"free"},{"bike_id":"aa9d9a79-1a2a-4244-b91b-41f8c25fdd3b","system_id":"levelo_inurba_marseille","lat":43.290327,"lon":5.375711,"is_reserved":false,"is_disabled":false,"rental_uris":{"android":"levelo://app?vid=aa9d9a79-1a2a-4244-b91b-41f8c25fdd3b","ios":"levelo://app?vid=aa9d9a79-1a2a-4244-b91b-41f8c25fdd3b"},"vehicle_type_id":"4","last_reported":1706353494,"current_range_meters":15600,"station_id":"ce4bh692rcd13ifvqe90","pricing_plan_id":"free"},{"bike_id":"5f8e1cbd-e752-4620-8884-e28f1dcd231d","system_id":"levelo_inurba_marseille","lat":43.294162,"lon":5.386292,"is_reserved":false,"is_disabled":false,"rental_uris":{"android":"levelo://app?vid=5f8e1cbd-e752-4620-8884-e28f1dcd231d","ios":"levelo://app?vid=5f8e1cbd-e752-4620-8884-e28f1dcd231d"},"vehicle_type_id":"4","last_reported":1706353494,"current_range_meters":22000,"station_id":"ce4bh2h2rcd13ifvqdh0","pricing_plan_id":"free"},{"bike_id":"047b3314-2d44-435d-9738-73e0257e18b1","system_id":"levelo_inurba_marseille","lat":43.290319,"lon":5.375732,"is_reserved":false,"is_disabled":false,"rental_uris":{"android":"levelo://app?vid=047b3314-2d44-435d-9738-73e0257e18b1","ios":"levelo://app?vid=047b3314-2d44-435d-9738-73e0257e18b1"},"vehicle_type_id":"4","last_reported":1706353494,"current_range_meters":13600,"station_id":"ce4bh692rcd13ifvqe90","pricing_plan_id":"free"},{"bike_id":"710eb7d1-bebd-4d1a-8c62-57848c531cb5","system_id":"levelo_inurba_marseille","lat":43.304296,"lon":5.397513,"is_reserved":false,"is_disabled":false,"rental_uris":{"android":"levelo://app?vid=710eb7d1-bebd-4d1a-8c62-57848c531cb5","ios":"levelo://app?vid=710eb7d1-bebd-4d1a-8c62-57848c531cb5"},"vehicle_type_id":"4","last_reported":1706353494,"current_range_meters":27600,"station_id":"ce4bh092rcd13ifvqd20","pricing_plan_id":"free"},{"bike_id":"31c3f322-1349-4b8f-8815-d5cebfe52e3b","system_id":"levelo_inurba_marseille","lat":43.292644,"lon":5.384257,"is_reserved":false,"is_disabled":false,"rental_uris":{"android":"levelo://app?vid=31c3f322-1349-4b8f-8815-d5cebfe52e3b","ios":"levelo://app?vid=31c3f322-1349-4b8f-8815-d5cebfe52e3b"},"vehicle_type_id":"4","last_reported":1706353494,"current_range_meters":25200,"station_id":"ce4bh692rcd13ifvqea0","pricing_plan_id":"free"},{"bike_id":"79a06bed-b6fc-45a1-82f5-4c17f490d569","system_id":"levelo_inurba_marseille","lat":43.309275,"lon":5.39953,"is_reserved":false,"is_disabled":false,"rental_uris":{"android":"levelo://app?vid=79a06bed-b6fc-45a1-82f5-4c17f490d569","ios":"levelo://app?vid=79a06bed-b6fc-45a1-82f5-4c17f490d569"},"vehicle_type_id":"4","last_reported":1706353494,"current_range_meters":22000,"station_id":"","pricing_plan_id":"free"},{"bike_id":"44fb9c41-8a25-43a3-8f26-6c78e9f396e1","system_id":"levelo_inurba_marseille","lat":43.290104,"lon":5.356111,"is_reserved":false,"is_disabled":false,"rental_uris":{"android":"levelo://app?vid=44fb9c41-8a25-43a3-8f26-6c78e9f396e1","ios":"levelo://app?vid=44fb9c41-8a25-43a3-8f26-6c78e9f396e1"},"vehicle_type_id":"4","last_reported":1706353494,"current_range_meters":19600,"station_id":"ce4bhb92rcd13ifvqen0","pricing_plan_id":"free"},{"bike_id":"15897d2c-cba9-47fa-838d-864064d37ffb","system_id":"levelo_inurba_marseille","lat":43.29006,"lon":5.35608,"is_reserved":false,"is_disabled":false,"rental_uris":{"android":"levelo://app?vid=15897d2c-cba9-47fa-838d-864064d37ffb","ios":"levelo://app?vid=15897d2c-cba9-47fa-838d-864064d37ffb"},"vehicle_type_id":"4","last_reported":1706353494,"current_range_meters":13600,"station_id":"ce4bhb92rcd13ifvqen0","pricing_plan_id":"free"},{"bike_id":"7f25f645-7bc3-4d27-ba65-9065cc428ed8","system_id":"levelo_inurba_marseille","lat":43.290104,"lon":5.356111,"is_reserved":false,"is_disabled":false,"rental_uris":{"android":"levelo://app?vid=7f25f645-7bc3-4d27-ba65-9065cc428ed8","ios":"levelo://app?vid=7f25f645-7bc3-4d27-ba65-9065cc428ed8"},"vehicle_type_id":"4","last_reported":1706353494,"current_range_meters":2800,"station_id":"ce4bhb92rcd13ifvqen0","pricing_plan_id":"free"},{"bike_id":"b5e565c4-c2e0-42bd-b9cc-7193e57d672d","system_id":"levelo_inurba_marseille","lat":43.290995,"lon":5.381361,"is_reserved":false,"is_disabled":false,"rental_uris":{"android":"levelo://app?vid=b5e565c4-c2e0-42bd-b9cc-7193e57d672d","ios":"levelo://app?vid=b5e565c4-c2e0-42bd-b9cc-7193e57d672d"},"vehicle_type_id":"4","last_reported":1706353494,"current_range_meters":26000,"station_id":"ce4bh512rcd13ifvqe2g","pricing_plan_id":"free"},{"bike_id":"17c9044b-1e1a-4ec5-a29a-4d2b191e11f0","system_id":"levelo_inurba_marseille","lat":43.330442,"lon":5.389148,"is_reserved":false,"is_disabled":false,"rental_uris":{"android":"levelo://app?vid=17c9044b-1e1a-4ec5-a29a-4d2b191e11f0","ios":"levelo://app?vid=17c9044b-1e1a-4ec5-a29a-4d2b191e11f0"},"vehicle_type_id":"4","last_reported":1706353494,"current_range_meters":10800,"station_id":"ce4bhr92rcd13ifvqhrg","pricing_plan_id":"free"},{"bike_id":"1407b8e2-11c3-464d-b7bd-c9b928c6b09b","system_id":"levelo_inurba_marseille","lat":43.33021,"lon":5.39047,"is_reserved":false,"is_disabled":false,"rental_uris":{"android":"levelo://app?vid=1407b8e2-11c3-464d-b7bd-c9b928c6b09b","ios":"levelo://app?vid=1407b8e2-11c3-464d-b7bd-c9b928c6b09b"},"vehicle_type_id":"4","last_reported":1706353494,"current_range_meters":30800,"station_id":"ce4bhr92rcd13ifvqhrg","pricing_plan_id":"free"},{"bike_id":"e40cd59e-c067-489d-817b-440f879134bb","system_id":"levelo_inurba_marseille","lat":43.33026,"lon":5.39041,"is_reserved":false,"is_disabled":false,"rental_uris":{"android":"levelo://app?vid=e40cd59e-c067-489d-817b-440f879134bb","ios":"levelo://app?vid=e40cd59e-c067-489d-817b-440f879134bb"},"vehicle_type_id":"4","last_reported":1706353494,"current_range_meters":29200,"station_id":"ce4bhr92rcd13ifvqhrg","pricing_plan_id":"free"},{"bike_id":"1215d466-a2ff-46c0-8448-78baf02bd444","system_id":"levelo_inurba_marseille","lat":43.330442,"lon":5.389148,"is_reserved":false,"is_disabled":false,"rental_uris":{"android":"levelo://app?vid=1215d466-a2ff-46c0-8448-78baf02bd444","ios":"levelo://app?vid=1215d466-a2ff-46c0-8448-78baf02bd444"},"vehicle_type_id":"4","last_reported":1706353494,"current_range_meters":17600,"station_id":"ce4bhr92rcd13ifvqhrg","pricing_plan_id":"free"},{"bike_id":"37edf97b-5dd7-4c75-9d44-5a21b6f91e20","system_id":"levelo_inurba_marseille","lat":43.2901,"lon":5.381269,"is_reserved":false,"is_disabled":false,"rental_uris":{"android":"levelo://app?vid=37edf97b-5dd7-4c75-9d44-5a21b6f91e20","ios":"levelo://app?vid=37edf97b-5dd7-4c75-9d44-5a21b6f91e20"},"vehicle_type_id":"4","last_reported":1706353494,"current_range_meters":26000,"station_id":"ce4bh4p2rcd13ifvqe1g","pricing_plan_id":"free"},{"bike_id":"c60d702a-754d-40f7-b2e7-84f244d7d076","system_id":"levelo_inurba_marseille","lat":43.28856,"lon":5.358371,"is_reserved":false,"is_disabled":false,"rental_uris":{"android":"levelo://app?vid=c60d702a-754d-40f7-b2e7-84f244d7d076","ios":"levelo://app?vid=c60d702a-754d-40f7-b2e7-84f244d7d076"},"vehicle_type_id":"4","last_reported":1706353494,"current_range_meters":0,"station_id":"ce4bhb12rcd13ifvqem0","pricing_plan_id":"free"},{"bike_id":"5e50b5fa-cc27-4bb7-a1f3-ec4721f3e351","system_id":"levelo_inurba_marseille","lat":43.33741,"lon":5.37451,"is_reserved":false,"is_disabled":false,"rental_uris":{"android":"levelo://app?vid=5e50b5fa-cc27-4bb7-a1f3-ec4721f3e351","ios":"levelo://app?vid=5e50b5fa-cc27-4bb7-a1f3-ec4721f3e351"},"vehicle_type_id":"4","last_reported":1706353494,"current_range_meters":30800,"station_id":"","pricing_plan_id":"free"},{"bike_id":"d342034f-acfe-423c-8f3f-343fbdea5188","system_id":"levelo_inurba_marseille","lat":43.33745,"lon":5.37445,"is_reserved":false,"is_disabled":false,"rental_uris":{"android":"levelo://app?vid=d342034f-acfe-423c-8f3f-343fbdea5188","ios":"levelo://app?vid=d342034f-acfe-423c-8f3f-343fbdea5188"},"vehicle_type_id":"4","last_reported":1706353494,"current_range_meters":23200,"station_id":"","pricing_plan_id":"free"},{"bike_id":"43236fd2-e2e9-4b1e-9ed5-bfdbf82475b3","system_id":"levelo_inurba_marseille","lat":43.33748,"lon":5.37444,"is_reserved":false,"is_disabled":false,"rental_uris":{"android":"levelo://app?vid=43236fd2-e2e9-4b1e-9ed5-bfdbf82475b3","ios":"levelo://app?vid=43236fd2-e2e9-4b1e-9ed5-bfdbf82475b3"},"vehicle_type_id":"4","last_reported":1706353494,"current_range_meters":28800,"station_id":"","pricing_plan_id":"free"},{"bike_id":"a955b3e1-d2f0-4235-a805-c4e33bb52b48","system_id":"levelo_inurba_marseille","lat":43.312609,"lon":5.401662,"is_reserved":false,"is_disabled":false,"rental_uris":{"android":"levelo://app?vid=a955b3e1-d2f0-4235-a805-c4e33bb52b48","ios":"levelo://app?vid=a955b3e1-d2f0-4235-a805-c4e33bb52b48"},"vehicle_type_id":"4","last_reported":1706353494,"current_range_meters":9600,"station_id":"ce4bh092rcd13ifvqd30","pricing_plan_id":"free"},{"bike_id":"e193d5d9-7421-49d5-aa6b-aa8c51a0e0cb","system_id":"levelo_inurba_marseille","lat":43.309345,"lon":5.401493,"is_reserved":false,"is_disabled":false,"rental_uris":{"android":"levelo://app?vid=e193d5d9-7421-49d5-aa6b-aa8c51a0e0cb","ios":"levelo://app?vid=e193d5d9-7421-49d5-aa6b-aa8c51a0e0cb"},"vehicle_type_id":"4","last_reported":1706353494,"current_range_meters":20800,"station_id":"ce4bgvp2rcd13ifvqct0","pricing_plan_id":"free"},{"bike_id":"b7d3b81d-d85a-44b5-a0c7-8f9c9f74639e","system_id":"levelo_inurba_marseille","lat":43.3375,"lon":5.37464,"is_reserved":false,"is_disabled":false,"rental_uris":{"android":"levelo://app?vid=b7d3b81d-d85a-44b5-a0c7-8f9c9f74639e","ios":"levelo://app?vid=b7d3b81d-d85a-44b5-a0c7-8f9c9f74639e"},"vehicle_type_id":"4","last_reported":1706353494,"current_range_meters":24800,"station_id":"","pricing_plan_id":"free"},{"bike_id":"3e8250c4-7892-4712-900c-b50082c9d1ba","system_id":"levelo_inurba_marseille","lat":43.312609,"lon":5.401662,"is_reserved":false,"is_disabled":false,"rental_uris":{"android":"levelo://app?vid=3e8250c4-7892-4712-900c-b50082c9d1ba","ios":"levelo://app?vid=3e8250c4-7892-4712-900c-b50082c9d1ba"},"vehicle_type_id":"4","last_reported":1706353494,"current_range_meters":13200,"station_id":"ce4bh092rcd13ifvqd30","pricing_plan_id":"free"},{"bike_id":"a797ffc5-c458-40ba-9bc9-6560dd2a2969","system_id":"levelo_inurba_marseille","lat":43.312609,"lon":5.401662,"is_reserved":false,"is_disabled":false,"rental_uris":{"android":"levelo://app?vid=a797ffc5-c458-40ba-9bc9-6560dd2a2969","ios":"levelo://app?vid=a797ffc5-c458-40ba-9bc9-6560dd2a2969"},"vehicle_type_id":"4","last_reported":1706353494,"current_range_meters":28800,"station_id":"ce4bh092rcd13ifvqd30","pricing_plan_id":"free"},{"bike_id":"b7f12eab-e0a6-499e-87ec-2b4381c4602a","system_id":"levelo_inurba_marseille","lat":43.337521,"lon":5.374734,"is_reserved":false,"is_disabled":false,"rental_uris":{"android":"levelo://app?vid=b7f12eab-e0a6-499e-87ec-2b4381c4602a","ios":"levelo://app?vid=b7f12eab-e0a6-499e-87ec-2b4381c4602a"},"vehicle_type_id":"4","last_reported":1706353494,"current_range_meters":25200,"station_id":"","pricing_plan_id":"free"},{"bike_id":"7c490970-d079-46b4-bed1-fefa25cf449b","system_id":"levelo_inurba_marseille","lat":43.306412,"lon":5.401035,"is_reserved":false,"is_disabled":false,"rental_uris":{"android":"levelo://app?vid=7c490970-d079-46b4-bed1-fefa25cf449b","ios":"levelo://app?vid=7c490970-d079-46b4-bed1-fefa25cf449b"},"vehicle_type_id":"4","last_reported":1706353494,"current_range_meters":14000,"station_id":"ce4bh112rcd13ifvqda0","pricing_plan_id":"free"},{"bike_id":"c8f791fa-5b54-463a-8fb9-76e2dc331600","system_id":"levelo_inurba_marseille","lat":43.301117,"lon":5.398795,"is_reserved":false,"is_disabled":false,"rental_uris":{"android":"levelo://app?vid=c8f791fa-5b54-463a-8fb9-76e2dc331600","ios":"levelo://app?vid=c8f791fa-5b54-463a-8fb9-76e2dc331600"},"vehicle_type_id":"4","last_reported":1706353494,"current_range_meters":11600,"station_id":"ce4bh0h2rcd13ifvqd40","pricing_plan_id":"free"},{"bike_id":"82df4c82-a1ba-4226-8d99-fa97a51de211","system_id":"levelo_inurba_marseille","lat":43.301117,"lon":5.398795,"is_reserved":false,"is_disabled":false,"rental_uris":{"android":"levelo://app?vid=82df4c82-a1ba-4226-8d99-fa97a51de211","ios":"levelo://app?vid=82df4c82-a1ba-4226-8d99-fa97a51de211"},"vehicle_type_id":"4","last_reported":1706353494,"current_range_meters":27600,"station_id":"ce4bh0h2rcd13ifvqd40","pricing_plan_id":"free"},{"bike_id":"b728326a-e71a-4623-ab5d-620d8ade41b8","system_id":"levelo_inurba_marseille","lat":43.301117,"lon":5.398795,"is_reserved":false,"is_disabled":false,"rental_uris":{"android":"levelo://app?vid=b728326a-e71a-4623-ab5d-620d8ade41b8","ios":"levelo://app?vid=b728326a-e71a-4623-ab5d-620d8ade41b8"},"vehicle_type_id":"4","last_reported":1706353494,"current_range_meters":8800,"station_id":"ce4bh0h2rcd13ifvqd40","pricing_plan_id":"free"},{"bike_id":"a96203ef-dc28-478e-875c-e11a2b30cd58","system_id":"levelo_inurba_marseille","lat":43.301298,"lon":5.398391,"is_reserved":false,"is_disabled":false,"rental_uris":{"android":"levelo://app?vid=a96203ef-dc28-478e-875c-e11a2b30cd58","ios":"levelo://app?vid=a96203ef-dc28-478e-875c-e11a2b30cd58"},"vehicle_type_id":"4","last_reported":1706353494,"current_range_meters":21600,"station_id":"","pricing_plan_id":"free"},{"bike_id":"a86634c4-a5ce-48ad-b033-b332dee8fa95","system_id":"levelo_inurba_marseille","lat":43.301117,"lon":5.398795,"is_reserved":false,"is_disabled":false,"rental_uris":{"android":"levelo://app?vid=a86634c4-a5ce-48ad-b033-b332dee8fa95","ios":"levelo://app?vid=a86634c4-a5ce-48ad-b033-b332dee8fa95"},"vehicle_type_id":"4","last_reported":1706353494,"current_range_meters":24000,"station_id":"ce4bh0h2rcd13ifvqd40","pricing_plan_id":"free"},{"bike_id":"c504cf73-20b5-481e-894c-99ba169ff51b","system_id":"levelo_inurba_marseille","lat":43.301117,"lon":5.398795,"is_reserved":false,"is_disabled":false,"rental_uris":{"android":"levelo://app?vid=c504cf73-20b5-481e-894c-99ba169ff51b","ios":"levelo://app?vid=c504cf73-20b5-481e-894c-99ba169ff51b"},"vehicle_type_id":"4","last_reported":1706353494,"current_range_meters":26000,"station_id":"ce4bh0h2rcd13ifvqd40","pricing_plan_id":"free"},{"bike_id":"18e934da-8cbe-4f42-9c44-f7d0021b404e","system_id":"levelo_inurba_marseille","lat":43.301117,"lon":5.398795,"is_reserved":false,"is_disabled":false,"rental_uris":{"android":"levelo://app?vid=18e934da-8cbe-4f42-9c44-f7d0021b404e","ios":"levelo://app?vid=18e934da-8cbe-4f42-9c44-f7d0021b404e"},"vehicle_type_id":"4","last_reported":1706353494,"current_range_meters":29200,"station_id":"ce4bh0h2rcd13ifvqd40","pricing_plan_id":"free"},{"bike_id":"09e4b0e1-3389-4859-9574-f6b0be5e4c33","system_id":"levelo_inurba_marseille","lat":43.301117,"lon":5.398795,"is_reserved":false,"is_disabled":false,"rental_uris":{"android":"levelo://app?vid=09e4b0e1-3389-4859-9574-f6b0be5e4c33","ios":"levelo://app?vid=09e4b0e1-3389-4859-9574-f6b0be5e4c33"},"vehicle_type_id":"4","last_reported":1706353494,"current_range_meters":29200,"station_id":"ce4bh0h2rcd13ifvqd40","pricing_plan_id":"free"},{"bike_id":"7cb64250-0051-45c6-a63c-16802af2f5c2","system_id":"levelo_inurba_marseille","lat":43.298681,"lon":5.397225,"is_reserved":false,"is_disabled":false,"rental_uris":{"android":"levelo://app?vid=7cb64250-0051-45c6-a63c-16802af2f5c2","ios":"levelo://app?vid=7cb64250-0051-45c6-a63c-16802af2f5c2"},"vehicle_type_id":"4","last_reported":1706353494,"current_range_meters":22400,"station_id":"ce4bh0h2rcd13ifvqd50","pricing_plan_id":"free"},{"bike_id":"cf1e5453-5143-400c-84cd-fabee19f2db7","system_id":"levelo_inurba_marseille","lat":43.2866,"lon":5.36355,"is_reserved":false,"is_disabled":false,"rental_uris":{"android":"levelo://app?vid=cf1e5453-5143-400c-84cd-fabee19f2db7","ios":"levelo://app?vid=cf1e5453-5143-400c-84cd-fabee19f2db7"},"vehicle_type_id":"4","last_reported":1706353494,"current_range_meters":24800,"station_id":"ce4bhah2rcd13ifvqej0","pricing_plan_id":"free"},{"bike_id":"958df244-3c1b-42d9-80c7-029252e3b24e","system_id":"levelo_inurba_marseille","lat":43.28697,"lon":5.3739,"is_reserved":false,"is_disabled":false,"rental_uris":{"android":"levelo://app?vid=958df244-3c1b-42d9-80c7-029252e3b24e","ios":"levelo://app?vid=958df244-3c1b-42d9-80c7-029252e3b24e"},"vehicle_type_id":"4","last_reported":1706353494,"current_range_meters":0,"station_id":"ce4bh3p2rcd13ifvqdq0","pricing_plan_id":"free"},{"bike_id":"0e9e6b39-c00e-4745-a5f1-29fca8998e23","system_id":"levelo_inurba_marseille","lat":43.287195,"lon":5.375335,"is_reserved":false,"is_disabled":false,"rental_uris":{"android":"levelo://app?vid=0e9e6b39-c00e-4745-a5f1-29fca8998e23","ios":"levelo://app?vid=0e9e6b39-c00e-4745-a5f1-29fca8998e23"},"vehicle_type_id":"4","last_reported":1706353494,"current_range_meters":0,"station_id":"ce4bh692rcd13ifvqe90","pricing_plan_id":"free"},{"bike_id":"000b6504-0615-4657-9db4-fd497ca75a31","system_id":"levelo_inurba_marseille","lat":43.289307,"lon":5.38406,"is_reserved":false,"is_disabled":false,"rental_uris":{"android":"levelo://app?vid=000b6504-0615-4657-9db4-fd497ca75a31","ios":"levelo://app?vid=000b6504-0615-4657-9db4-fd497ca75a31"},"vehicle_type_id":"4","last_reported":1706353494,"current_range_meters":24000,"station_id":"ce4bh612rcd13ifvqe6g","pricing_plan_id":"free"},{"bike_id":"ecbc4f13-18e5-4186-a9ba-66fd8b904424","system_id":"levelo_inurba_marseille","lat":43.29508,"lon":5.39403,"is_reserved":false,"is_disabled":false,"rental_uris":{"android":"levelo://app?vid=ecbc4f13-18e5-4186-a9ba-66fd8b904424","ios":"levelo://app?vid=ecbc4f13-18e5-4186-a9ba-66fd8b904424"},"vehicle_type_id":"4","last_reported":1706353494,"current_range_meters":22000,"station_id":"ce4bh292rcd13ifvqdf0","pricing_plan_id":"free"},{"bike_id":"183bb1c1-398f-466c-b05d-327ac4efc436","system_id":"levelo_inurba_marseille","lat":43.302511,"lon":5.400653,"is_reserved":false,"is_disabled":false,"rental_uris":{"android":"levelo://app?vid=183bb1c1-398f-466c-b05d-327ac4efc436","ios":"levelo://app?vid=183bb1c1-398f-466c-b05d-327ac4efc436"},"vehicle_type_id":"4","last_reported":1706353494,"current_range_meters":15200,"station_id":"ce4bgth2rcd13ifvqch0","pricing_plan_id":"free"},{"bike_id":"a6442764-1dca-4668-b918-86260370e92f","system_id":"levelo_inurba_marseille","lat":43.302759,"lon":5.400793,"is_reserved":false,"is_disabled":false,"rental_uris":{"android":"levelo://app?vid=a6442764-1dca-4668-b918-86260370e92f","ios":"levelo://app?vid=a6442764-1dca-4668-b918-86260370e92f"},"vehicle_type_id":"4","last_reported":1706353494,"current_range_meters":16400,"station_id":"ce4bgvh2rcd13ifvqcs0","pricing_plan_id":"free"},{"bike_id":"29f795df-6a4a-43f9-a3b9-3426b9a9a4d1","system_id":"levelo_inurba_marseille","lat":43.286121,"lon":5.37068,"is_reserved":false,"is_disabled":false,"rental_uris":{"android":"levelo://app?vid=29f795df-6a4a-43f9-a3b9-3426b9a9a4d1","ios":"levelo://app?vid=29f795df-6a4a-43f9-a3b9-3426b9a9a4d1"},"vehicle_type_id":"4","last_reported":1706353494,"current_range_meters":22400,"station_id":"","pricing_plan_id":"free"},{"bike_id":"26339cac-39f8-47cc-a5be-74ce8e87d19d","system_id":"levelo_inurba_marseille","lat":43.286039,"lon":5.370681,"is_reserved":false,"is_disabled":false,"rental_uris":{"android":"levelo://app?vid=26339cac-39f8-47cc-a5be-74ce8e87d19d","ios":"levelo://app?vid=26339cac-39f8-47cc-a5be-74ce8e87d19d"},"vehicle_type_id":"4","last_reported":1706353494,"current_range_meters":3600,"station_id":"ce4bht12rcd13ifvqi60","pricing_plan_id":"free"},{"bike_id":"3e6f6942-551d-4f0a-8d5e-6cfaf5a131a8","system_id":"levelo_inurba_marseille","lat":43.287184,"lon":5.37937,"is_reserved":false,"is_disabled":false,"rental_uris":{"android":"levelo://app?vid=3e6f6942-551d-4f0a-8d5e-6cfaf5a131a8","ios":"levelo://app?vid=3e6f6942-551d-4f0a-8d5e-6cfaf5a131a8"},"vehicle_type_id":"4","last_reported":1706353494,"current_range_meters":19200,"station_id":"ce4bh9p2rcd13ifvqec0","pricing_plan_id":"free"},{"bike_id":"c2794ec0-d51b-4cc9-8e7d-936c33faece1","system_id":"levelo_inurba_marseille","lat":43.287184,"lon":5.37937,"is_reserved":false,"is_disabled":false,"rental_uris":{"android":"levelo://app?vid=c2794ec0-d51b-4cc9-8e7d-936c33faece1","ios":"levelo://app?vid=c2794ec0-d51b-4cc9-8e7d-936c33faece1"},"vehicle_type_id":"4","last_reported":1706353494,"current_range_meters":16800,"station_id":"ce4bh9p2rcd13ifvqec0","pricing_plan_id":"free"},{"bike_id":"b332df60-0a81-4841-a021-c7d35a6d7740","system_id":"levelo_inurba_marseille","lat":43.316898,"lon":5.404652,"is_reserved":false,"is_disabled":false,"rental_uris":{"android":"levelo://app?vid=b332df60-0a81-4841-a021-c7d35a6d7740","ios":"levelo://app?vid=b332df60-0a81-4841-a021-c7d35a6d7740"},"vehicle_type_id":"4","last_reported":1706353494,"current_range_meters":10000,"station_id":"ce4bh012rcd13ifvqd00","pricing_plan_id":"free"},{"bike_id":"315e45df-6d01-4551-9d5f-6aca85d814c7","system_id":"levelo_inurba_marseille","lat":43.316957,"lon":5.404647,"is_reserved":false,"is_disabled":false,"rental_uris":{"android":"levelo://app?vid=315e45df-6d01-4551-9d5f-6aca85d814c7","ios":"levelo://app?vid=315e45df-6d01-4551-9d5f-6aca85d814c7"},"vehicle_type_id":"4","last_reported":1706353494,"current_range_meters":26800,"station_id":"ce4bh012rcd13ifvqd00","pricing_plan_id":"free"},{"bike_id":"4eddbdfe-93cf-4221-bb9d-31b393a2d4e0","system_id":"levelo_inurba_marseille","lat":43.316828,"lon":5.404723,"is_reserved":false,"is_disabled":false,"rental_uris":{"android":"levelo://app?vid=4eddbdfe-93cf-4221-bb9d-31b393a2d4e0","ios":"levelo://app?vid=4eddbdfe-93cf-4221-bb9d-31b393a2d4e0"},"vehicle_type_id":"4","last_reported":1706353494,"current_range_meters":19600,"station_id":"ce4bh012rcd13ifvqd00","pricing_plan_id":"free"},{"bike_id":"2251fc59-2828-4aff-966d-0a6777ecbd36","system_id":"levelo_inurba_marseille","lat":43.316922,"lon":5.404661,"is_reserved":false,"is_disabled":false,"rental_uris":{"android":"levelo://app?vid=2251fc59-2828-4aff-966d-0a6777ecbd36","ios":"levelo://app?vid=2251fc59-2828-4aff-966d-0a6777ecbd36"},"vehicle_type_id":"4","last_reported":1706353494,"current_range_meters":6800,"station_id":"ce4bh012rcd13ifvqd00","pricing_plan_id":"free"},{"bike_id":"067f72eb-f2f8-4229-9f25-2784bb7c6730","system_id":"levelo_inurba_marseille","lat":43.316828,"lon":5.404723,"is_reserved":false,"is_disabled":false,"rental_uris":{"android":"levelo://app?vid=067f72eb-f2f8-4229-9f25-2784bb7c6730","ios":"levelo://app?vid=067f72eb-f2f8-4229-9f25-2784bb7c6730"},"vehicle_type_id":"4","last_reported":1706353494,"current_range_meters":18000,"station_id":"ce4bh012rcd13ifvqd00","pricing_plan_id":"free"},{"bike_id":"48bbdad8-9ad2-4e82-b576-c9f0d6337dba","system_id":"levelo_inurba_marseille","lat":43.31705,"lon":5.40465,"is_reserved":false,"is_disabled":false,"rental_uris":{"android":"levelo://app?vid=48bbdad8-9ad2-4e82-b576-c9f0d6337dba","ios":"levelo://app?vid=48bbdad8-9ad2-4e82-b576-c9f0d6337dba"},"vehicle_type_id":"4","last_reported":1706353494,"current_range_meters":9200,"station_id":"ce4bh012rcd13ifvqd00","pricing_plan_id":"free"},{"bike_id":"c011c8ab-84d3-4588-a847-3df4c973ed80","system_id":"levelo_inurba_marseille","lat":43.316828,"lon":5.404723,"is_reserved":false,"is_disabled":false,"rental_uris":{"android":"levelo://app?vid=c011c8ab-84d3-4588-a847-3df4c973ed80","ios":"levelo://app?vid=c011c8ab-84d3-4588-a847-3df4c973ed80"},"vehicle_type_id":"4","last_reported":1706353494,"current_range_meters":13600,"station_id":"ce4bh012rcd13ifvqd00","pricing_plan_id":"free"},{"bike_id":"60e1c829-4a85-493e-a944-204429c46917","system_id":"levelo_inurba_marseille","lat":43.285848,"lon":5.350787,"is_reserved":false,"is_disabled":false,"rental_uris":{"android":"levelo://app?vid=60e1c829-4a85-493e-a944-204429c46917","ios":"levelo://app?vid=60e1c829-4a85-493e-a944-204429c46917"},"vehicle_type_id":"4","last_reported":1706353494,"current_range_meters":18400,"station_id":"ce4bhch2rcd13ifvqeug","pricing_plan_id":"free"},{"bike_id":"55993c3f-eb92-4bc7-9c66-80f3e0ea39aa","system_id":"levelo_inurba_marseille","lat":43.285856,"lon":5.350771,"is_reserved":false,"is_disabled":false,"rental_uris":{"android":"levelo://app?vid=55993c3f-eb92-4bc7-9c66-80f3e0ea39aa","ios":"levelo://app?vid=55993c3f-eb92-4bc7-9c66-80f3e0ea39aa"},"vehicle_type_id":"4","last_reported":1706353494,"current_range_meters":30800,"station_id":"ce4bhch2rcd13ifvqeug","pricing_plan_id":"free"},{"bike_id":"7eb8550f-b6d6-444b-b290-34eac0303f7e","system_id":"levelo_inurba_marseille","lat":43.285856,"lon":5.350771,"is_reserved":false,"is_disabled":false,"rental_uris":{"android":"levelo://app?vid=7eb8550f-b6d6-444b-b290-34eac0303f7e","ios":"levelo://app?vid=7eb8550f-b6d6-444b-b290-34eac0303f7e"},"vehicle_type_id":"4","last_reported":1706353494,"current_range_meters":8400,"station_id":"ce4bhch2rcd13ifvqeug","pricing_plan_id":"free"},{"bike_id":"409496e0-6a47-4698-8dda-26ef572cb930","system_id":"levelo_inurba_marseille","lat":43.283998,"lon":5.375062,"is_reserved":false,"is_disabled":false,"rental_uris":{"android":"levelo://app?vid=409496e0-6a47-4698-8dda-26ef572cb930","ios":"levelo://app?vid=409496e0-6a47-4698-8dda-26ef572cb930"},"vehicle_type_id":"4","last_reported":1706353494,"current_range_meters":25600,"station_id":"ce4bh412rcd13ifvqds0","pricing_plan_id":"free"},{"bike_id":"c28d5b3e-20be-4d06-a659-c45488153b09","system_id":"levelo_inurba_marseille","lat":43.283998,"lon":5.375062,"is_reserved":false,"is_disabled":false,"rental_uris":{"android":"levelo://app?vid=c28d5b3e-20be-4d06-a659-c45488153b09","ios":"levelo://app?vid=c28d5b3e-20be-4d06-a659-c45488153b09"},"vehicle_type_id":"4","last_reported":1706353494,"current_range_meters":15200,"station_id":"ce4bh412rcd13ifvqds0","pricing_plan_id":"free"},{"bike_id":"25cd8918-56c7-44c7-87f2-ae333a152cf2","system_id":"levelo_inurba_marseille","lat":43.283998,"lon":5.375062,"is_reserved":false,"is_disabled":false,"rental_uris":{"android":"levelo://app?vid=25cd8918-56c7-44c7-87f2-ae333a152cf2","ios":"levelo://app?vid=25cd8918-56c7-44c7-87f2-ae333a152cf2"},"vehicle_type_id":"4","last_reported":1706353494,"current_range_meters":20400,"station_id":"ce4bh412rcd13ifvqds0","pricing_plan_id":"free"},{"bike_id":"4271315e-3517-43a0-98a0-3c1558040fc6","system_id":"levelo_inurba_marseille","lat":43.319179,"lon":5.407725,"is_reserved":false,"is_disabled":false,"rental_uris":{"android":"levelo://app?vid=4271315e-3517-43a0-98a0-3c1558040fc6","ios":"levelo://app?vid=4271315e-3517-43a0-98a0-3c1558040fc6"},"vehicle_type_id":"4","last_reported":1706353494,"current_range_meters":28800,"station_id":"ce4bhq12rcd13ifvqhig","pricing_plan_id":"free"},{"bike_id":"fe569c08-e0e1-4141-bac2-c6a16f5f5c74","system_id":"levelo_inurba_marseille","lat":43.33717,"lon":5.391857,"is_reserved":false,"is_disabled":false,"rental_uris":{"android":"levelo://app?vid=fe569c08-e0e1-4141-bac2-c6a16f5f5c74","ios":"levelo://app?vid=fe569c08-e0e1-4141-bac2-c6a16f5f5c74"},"vehicle_type_id":"4","last_reported":1706353494,"current_range_meters":30000,"station_id":"ce4bhr92rcd13ifvqhsg","pricing_plan_id":"free"},{"bike_id":"29c971f3-912e-4f79-8c22-d20e1f4b5d74","system_id":"levelo_inurba_marseille","lat":43.337168,"lon":5.391825,"is_reserved":false,"is_disabled":false,"rental_uris":{"android":"levelo://app?vid=29c971f3-912e-4f79-8c22-d20e1f4b5d74","ios":"levelo://app?vid=29c971f3-912e-4f79-8c22-d20e1f4b5d74"},"vehicle_type_id":"4","last_reported":1706353494,"current_range_meters":21200,"station_id":"ce4bhr92rcd13ifvqhsg","pricing_plan_id":"free"},{"bike_id":"01c6b3de-38f6-497a-be25-1085992856e5","system_id":"levelo_inurba_marseille","lat":43.297946,"lon":5.404063,"is_reserved":false,"is_disabled":false,"rental_uris":{"android":"levelo://app?vid=01c6b3de-38f6-497a-be25-1085992856e5","ios":"levelo://app?vid=01c6b3de-38f6-497a-be25-1085992856e5"},"vehicle_type_id":"4","last_reported":1706353494,"current_range_meters":1200,"station_id":"ce4bh112rcd13ifvqd90","pricing_plan_id":"free"},{"bike_id":"1533fed7-957f-46a4-82f8-dc9c0de4d667","system_id":"levelo_inurba_marseille","lat":43.284219,"lon":5.3497,"is_reserved":false,"is_disabled":false,"rental_uris":{"android":"levelo://app?vid=1533fed7-957f-46a4-82f8-dc9c0de4d667","ios":"levelo://app?vid=1533fed7-957f-46a4-82f8-dc9c0de4d667"},"vehicle_type_id":"4","last_reported":1706353494,"current_range_meters":25200,"station_id":"ce4bhbh2rcd13ifvqepg","pricing_plan_id":"free"},{"bike_id":"4eae59f1-45e4-45ef-bb68-da9ab1fd31df","system_id":"levelo_inurba_marseille","lat":43.284219,"lon":5.3497,"is_reserved":false,"is_disabled":false,"rental_uris":{"android":"levelo://app?vid=4eae59f1-45e4-45ef-bb68-da9ab1fd31df","ios":"levelo://app?vid=4eae59f1-45e4-45ef-bb68-da9ab1fd31df"},"vehicle_type_id":"4","last_reported":1706353494,"current_range_meters":30800,"station_id":"ce4bhbh2rcd13ifvqepg","pricing_plan_id":"free"},{"bike_id":"d7f38616-fac4-4771-b7ac-b8cdcb5c43bd","system_id":"levelo_inurba_marseille","lat":43.284214,"lon":5.349706,"is_reserved":false,"is_disabled":false,"rental_uris":{"android":"levelo://app?vid=d7f38616-fac4-4771-b7ac-b8cdcb5c43bd","ios":"levelo://app?vid=d7f38616-fac4-4771-b7ac-b8cdcb5c43bd"},"vehicle_type_id":"4","last_reported":1706353494,"current_range_meters":26400,"station_id":"ce4bhbh2rcd13ifvqepg","pricing_plan_id":"free"},{"bike_id":"898eeaa3-4723-489a-b2c4-625997b263c1","system_id":"levelo_inurba_marseille","lat":43.284217,"lon":5.349697,"is_reserved":false,"is_disabled":false,"rental_uris":{"android":"levelo://app?vid=898eeaa3-4723-489a-b2c4-625997b263c1","ios":"levelo://app?vid=898eeaa3-4723-489a-b2c4-625997b263c1"},"vehicle_type_id":"4","last_reported":1706353494,"current_range_meters":29600,"station_id":"ce4bhbh2rcd13ifvqepg","pricing_plan_id":"free"},{"bike_id":"d637e2a9-bc2b-4df5-89c7-3c328c9c40a1","system_id":"levelo_inurba_marseille","lat":43.284219,"lon":5.3497,"is_reserved":false,"is_disabled":false,"rental_uris":{"android":"levelo://app?vid=d637e2a9-bc2b-4df5-89c7-3c328c9c40a1","ios":"levelo://app?vid=d637e2a9-bc2b-4df5-89c7-3c328c9c40a1"},"vehicle_type_id":"4","last_reported":1706353494,"current_range_meters":16800,"station_id":"ce4bhbh2rcd13ifvqepg","pricing_plan_id":"free"},{"bike_id":"fe1cebf5-f302-4e09-abc3-b8a57e1e2f1f","system_id":"levelo_inurba_marseille","lat":43.284219,"lon":5.3497,"is_reserved":false,"is_disabled":false,"rental_uris":{"android":"levelo://app?vid=fe1cebf5-f302-4e09-abc3-b8a57e1e2f1f","ios":"levelo://app?vid=fe1cebf5-f302-4e09-abc3-b8a57e1e2f1f"},"vehicle_type_id":"4","last_reported":1706353494,"current_range_meters":17200,"station_id":"ce4bhbh2rcd13ifvqepg","pricing_plan_id":"free"},{"bike_id":"04a682d8-a486-450a-847a-1450a5b6ce5b","system_id":"levelo_inurba_marseille","lat":43.284217,"lon":5.349697,"is_reserved":false,"is_disabled":false,"rental_uris":{"android":"levelo://app?vid=04a682d8-a486-450a-847a-1450a5b6ce5b","ios":"levelo://app?vid=04a682d8-a486-450a-847a-1450a5b6ce5b"},"vehicle_type_id":"4","last_reported":1706353494,"current_range_meters":15600,"station_id":"ce4bhbh2rcd13ifvqepg","pricing_plan_id":"free"},{"bike_id":"07a07145-ff8b-4b6b-a686-1231bd016884","system_id":"levelo_inurba_marseille","lat":43.284217,"lon":5.349697,"is_reserved":false,"is_disabled":false,"rental_uris":{"android":"levelo://app?vid=07a07145-ff8b-4b6b-a686-1231bd016884","ios":"levelo://app?vid=07a07145-ff8b-4b6b-a686-1231bd016884"},"vehicle_type_id":"4","last_reported":1706353494,"current_range_meters":4000,"station_id":"ce4bhbh2rcd13ifvqepg","pricing_plan_id":"free"},{"bike_id":"180ccd92-e3f3-4c42-82a8-0af080e8dac5","system_id":"levelo_inurba_marseille","lat":43.284219,"lon":5.3497,"is_reserved":false,"is_disabled":false,"rental_uris":{"android":"levelo://app?vid=180ccd92-e3f3-4c42-82a8-0af080e8dac5","ios":"levelo://app?vid=180ccd92-e3f3-4c42-82a8-0af080e8dac5"},"vehicle_type_id":"4","last_reported":1706353494,"current_range_meters":29200,"station_id":"ce4bhbh2rcd13ifvqepg","pricing_plan_id":"free"},{"bike_id":"d0114db0-d38e-4e30-8ef0-61b4aaaee3c4","system_id":"levelo_inurba_marseille","lat":43.284217,"lon":5.349697,"is_reserved":false,"is_disabled":false,"rental_uris":{"android":"levelo://app?vid=d0114db0-d38e-4e30-8ef0-61b4aaaee3c4","ios":"levelo://app?vid=d0114db0-d38e-4e30-8ef0-61b4aaaee3c4"},"vehicle_type_id":"4","last_reported":1706353494,"current_range_meters":21200,"station_id":"ce4bhbh2rcd13ifvqepg","pricing_plan_id":"free"},{"bike_id":"2be7a22f-f4b7-48a6-96ba-7fc49ff17fc4","system_id":"levelo_inurba_marseille","lat":43.284214,"lon":5.349706,"is_reserved":false,"is_disabled":false,"rental_uris":{"android":"levelo://app?vid=2be7a22f-f4b7-48a6-96ba-7fc49ff17fc4","ios":"levelo://app?vid=2be7a22f-f4b7-48a6-96ba-7fc49ff17fc4"},"vehicle_type_id":"4","last_reported":1706353494,"current_range_meters":20000,"station_id":"ce4bhbh2rcd13ifvqepg","pricing_plan_id":"free"},{"bike_id":"b41bcd76-cb12-4b33-95cd-9444d1e23578","system_id":"levelo_inurba_marseille","lat":43.293556,"lon":5.401561,"is_reserved":false,"is_disabled":false,"rental_uris":{"android":"levelo://app?vid=b41bcd76-cb12-4b33-95cd-9444d1e23578","ios":"levelo://app?vid=b41bcd76-cb12-4b33-95cd-9444d1e23578"},"vehicle_type_id":"4","last_reported":1706353494,"current_range_meters":10400,"station_id":"","pricing_plan_id":"free"},{"bike_id":"52cba042-0ec5-47ea-9016-8ac5a0f1fdb1","system_id":"levelo_inurba_marseille","lat":43.28937,"lon":5.39636,"is_reserved":false,"is_disabled":false,"rental_uris":{"android":"levelo://app?vid=52cba042-0ec5-47ea-9016-8ac5a0f1fdb1","ios":"levelo://app?vid=52cba042-0ec5-47ea-9016-8ac5a0f1fdb1"},"vehicle_type_id":"4","last_reported":1706353494,"current_range_meters":31200,"station_id":"ce4bh3h2rcd13ifvqdn0","pricing_plan_id":"free"},{"bike_id":"245bde05-725d-4e3c-9d38-e3fec9407fe9","system_id":"levelo_inurba_marseille","lat":43.289363,"lon":5.396322,"is_reserved":false,"is_disabled":false,"rental_uris":{"android":"levelo://app?vid=245bde05-725d-4e3c-9d38-e3fec9407fe9","ios":"levelo://app?vid=245bde05-725d-4e3c-9d38-e3fec9407fe9"},"vehicle_type_id":"4","last_reported":1706353494,"current_range_meters":17200,"station_id":"ce4bh3h2rcd13ifvqdn0","pricing_plan_id":"free"},{"bike_id":"fff3325a-9e71-4e7b-b815-3841c38a90a9","system_id":"levelo_inurba_marseille","lat":43.292724,"lon":5.401131,"is_reserved":false,"is_disabled":false,"rental_uris":{"android":"levelo://app?vid=fff3325a-9e71-4e7b-b815-3841c38a90a9","ios":"levelo://app?vid=fff3325a-9e71-4e7b-b815-3841c38a90a9"},"vehicle_type_id":"4","last_reported":1706353494,"current_range_meters":12400,"station_id":"ce4bh312rcd13ifvqdk0","pricing_plan_id":"free"},{"bike_id":"32ea816a-9787-4096-bb16-49b0ba20e667","system_id":"levelo_inurba_marseille","lat":43.288497,"lon":5.393089,"is_reserved":false,"is_disabled":false,"rental_uris":{"android":"levelo://app?vid=32ea816a-9787-4096-bb16-49b0ba20e667","ios":"levelo://app?vid=32ea816a-9787-4096-bb16-49b0ba20e667"},"vehicle_type_id":"4","last_reported":1706353494,"current_range_meters":30800,"station_id":"ce4bh2p2rcd13ifvqdi0","pricing_plan_id":"free"},{"bike_id":"aceb3af9-bc02-40e4-ab65-dc121505d6a7","system_id":"levelo_inurba_marseille","lat":43.282727,"lon":5.350753,"is_reserved":false,"is_disabled":false,"rental_uris":{"android":"levelo://app?vid=aceb3af9-bc02-40e4-ab65-dc121505d6a7","ios":"levelo://app?vid=aceb3af9-bc02-40e4-ab65-dc121505d6a7"},"vehicle_type_id":"4","last_reported":1706353494,"current_range_meters":30400,"station_id":"ce4bhbp2rcd13ifvqerg","pricing_plan_id":"free"},{"bike_id":"105e4a81-a967-4b98-81e5-b1ba5bb2a5d8","system_id":"levelo_inurba_marseille","lat":43.28274,"lon":5.3507,"is_reserved":false,"is_disabled":false,"rental_uris":{"android":"levelo://app?vid=105e4a81-a967-4b98-81e5-b1ba5bb2a5d8","ios":"levelo://app?vid=105e4a81-a967-4b98-81e5-b1ba5bb2a5d8"},"vehicle_type_id":"4","last_reported":1706353494,"current_range_meters":11600,"station_id":"ce4bhbp2rcd13ifvqerg","pricing_plan_id":"free"},{"bike_id":"4668ab7d-0a4d-4b54-813e-283dd7995772","system_id":"levelo_inurba_marseille","lat":43.282744,"lon":5.350533,"is_reserved":false,"is_disabled":false,"rental_uris":{"android":"levelo://app?vid=4668ab7d-0a4d-4b54-813e-283dd7995772","ios":"levelo://app?vid=4668ab7d-0a4d-4b54-813e-283dd7995772"},"vehicle_type_id":"4","last_reported":1706353494,"current_range_meters":29600,"station_id":"ce4bhbp2rcd13ifvqerg","pricing_plan_id":"free"},{"bike_id":"fa0c0ea4-fb17-4acc-968c-580396166bd7","system_id":"levelo_inurba_marseille","lat":43.282684,"lon":5.350685,"is_reserved":false,"is_disabled":false,"rental_uris":{"android":"levelo://app?vid=fa0c0ea4-fb17-4acc-968c-580396166bd7","ios":"levelo://app?vid=fa0c0ea4-fb17-4acc-968c-580396166bd7"},"vehicle_type_id":"4","last_reported":1706353494,"current_range_meters":26400,"station_id":"ce4bhbp2rcd13ifvqerg","pricing_plan_id":"free"},{"bike_id":"3f6de612-fcb6-4d1b-8a6b-ca54b24d3cb2","system_id":"levelo_inurba_marseille","lat":43.282687,"lon":5.35059,"is_reserved":false,"is_disabled":false,"rental_uris":{"android":"levelo://app?vid=3f6de612-fcb6-4d1b-8a6b-ca54b24d3cb2","ios":"levelo://app?vid=3f6de612-fcb6-4d1b-8a6b-ca54b24d3cb2"},"vehicle_type_id":"4","last_reported":1706353494,"current_range_meters":10400,"station_id":"ce4bhbp2rcd13ifvqerg","pricing_plan_id":"free"},{"bike_id":"f70feecf-79e2-4550-9a61-1bc6ae8a41c9","system_id":"levelo_inurba_marseille","lat":43.282744,"lon":5.350533,"is_reserved":false,"is_disabled":false,"rental_uris":{"android":"levelo://app?vid=f70feecf-79e2-4550-9a61-1bc6ae8a41c9","ios":"levelo://app?vid=f70feecf-79e2-4550-9a61-1bc6ae8a41c9"},"vehicle_type_id":"4","last_reported":1706353494,"current_range_meters":26400,"station_id":"ce4bhbp2rcd13ifvqerg","pricing_plan_id":"free"},{"bike_id":"96e6fd82-45b8-4b2f-b5a5-7df5cb9bed2a","system_id":"levelo_inurba_marseille","lat":43.282744,"lon":5.350533,"is_reserved":false,"is_disabled":false,"rental_uris":{"android":"levelo://app?vid=96e6fd82-45b8-4b2f-b5a5-7df5cb9bed2a","ios":"levelo://app?vid=96e6fd82-45b8-4b2f-b5a5-7df5cb9bed2a"},"vehicle_type_id":"4","last_reported":1706353494,"current_range_meters":6800,"station_id":"ce4bhbp2rcd13ifvqerg","pricing_plan_id":"free"},{"bike_id":"371d5338-bc5b-4b3f-87ff-a6f9d4d4688e","system_id":"levelo_inurba_marseille","lat":43.282744,"lon":5.350533,"is_reserved":false,"is_disabled":false,"rental_uris":{"android":"levelo://app?vid=371d5338-bc5b-4b3f-87ff-a6f9d4d4688e","ios":"levelo://app?vid=371d5338-bc5b-4b3f-87ff-a6f9d4d4688e"},"vehicle_type_id":"4","last_reported":1706353494,"current_range_meters":10400,"station_id":"ce4bhbp2rcd13ifvqerg","pricing_plan_id":"free"},{"bike_id":"dc64c249-fd30-4ec4-9a79-936b52936ae7","system_id":"levelo_inurba_marseille","lat":43.283502,"lon":5.386471,"is_reserved":false,"is_disabled":false,"rental_uris":{"android":"levelo://app?vid=dc64c249-fd30-4ec4-9a79-936b52936ae7","ios":"levelo://app?vid=dc64c249-fd30-4ec4-9a79-936b52936ae7"},"vehicle_type_id":"4","last_reported":1706353494,"current_range_meters":7200,"station_id":"ce4bh492rcd13ifvqdvg","pricing_plan_id":"free"},{"bike_id":"b75788fd-a29d-42ea-982a-9ab4801bb7e8","system_id":"levelo_inurba_marseille","lat":43.28258,"lon":5.3507,"is_reserved":false,"is_disabled":false,"rental_uris":{"android":"levelo://app?vid=b75788fd-a29d-42ea-982a-9ab4801bb7e8","ios":"levelo://app?vid=b75788fd-a29d-42ea-982a-9ab4801bb7e8"},"vehicle_type_id":"4","last_reported":1706353494,"current_range_meters":4000,"station_id":"ce4bhbp2rcd13ifvqerg","pricing_plan_id":"free"},{"bike_id":"78862ac5-ca03-480e-a5f1-7ca7b407eaab","system_id":"levelo_inurba_marseille","lat":43.28039,"lon":5.369297,"is_reserved":false,"is_disabled":false,"rental_uris":{"android":"levelo://app?vid=78862ac5-ca03-480e-a5f1-7ca7b407eaab","ios":"levelo://app?vid=78862ac5-ca03-480e-a5f1-7ca7b407eaab"},