{"last_updated":1712190915,"ttl":30,"version":"2.2","data":{"bikes":[{"bike_id":"e773acc6-dd59-47a0-9345-f9abe8025f24","system_id":"levelo_inurba_marseille","lat":43.312267,"lon":5.367407,"is_reserved":false,"is_disabled":false,"rental_uris":{"android":"levelo://app?vid=e773acc6-dd59-47a0-9345-f9abe8025f24","ios":"levelo://app?vid=e773acc6-dd59-47a0-9345-f9abe8025f24"},"vehicle_type_id":"4","last_reported":1712190915,"current_range_meters":9600,"station_id":"","pricing_plan_id":"cebpf4jnsgd1na2vs0mg"},{"bike_id":"93db86f6-6e63-4c34-9e66-65bba5643e60","system_id":"levelo_inurba_marseille","lat":43.31341,"lon":5.367098,"is_reserved":false,"is_disabled":false,"rental_uris":{"android":"levelo://app?vid=93db86f6-6e63-4c34-9e66-65bba5643e60","ios":"levelo://app?vid=93db86f6-6e63-4c34-9e66-65bba5643e60"},"vehicle_type_id":"4","last_reported":1712190915,"current_range_meters":14000,"station_id":"ce4bgr92rcd13ifvqc6g","pricing_plan_id":"cebpf4jnsgd1na2vs0mg"},{"bike_id":"d72d3b1e-2901-4044-99f5-cf47b920d8ae","system_id":"levelo_inurba_marseille","lat":43.312239,"lon":5.368562,"is_reserved":false,"is_disabled":false,"rental_uris":{"android":"levelo://app?vid=d72d3b1e-2901-4044-99f5-cf47b920d8ae","ios":"levelo://app?vid=d72d3b1e-2901-4044-99f5-cf47b920d8ae"},"vehicle_type_id":"4","last_reported":1712190915,"current_range_meters":26000,"station_id":"ce4bgl92rcd13ifvqbq0","pricing_plan_id":"cebpf4jnsgd1na2vs0mg"},{"bike_id":"3f138b6b-df76-4b3c-9d97-775021b5cd53","system_id":"levelo_inurba_marseille","lat":43.312239,"lon":5.368562,"is_reserved":false,"is_disabled":false,"rental_uris":{"android":"levelo://app?vid=3f138b6b-df76-4b3c-9d97-775021b5cd53","ios":"levelo://app?vid=3f138b6b-df76-4b3c-9d97-775021b5cd53"},"vehicle_type_id":"4","last_reported":1712190915,"current_range_meters":16400,"station_id":"ce4bgl92rcd13ifvqbq0","pricing_plan_id":"cebpf4jnsgd1na2vs0mg"},{"bike_id":"6cc8c4ab-6a7e-46bb-993e-b21a17738b41","system_id":"levelo_inurba_marseille","lat":43.309076,"lon":5.368465,"is_reserved":false,"is_disabled":false,"rental_uris":{"android":"levelo://app?vid=6cc8c4ab-6a7e-46bb-993e-b21a17738b41","ios":"levelo://app?vid=6cc8c4ab-6a7e-46bb-993e-b21a17738b41"},"vehicle_type_id":"4","last_reported":1712190915,"current_range_meters":27200,"station_id":"ce4bgn92rcd13ifvqbvg","pricing_plan_id":"cebpf4jnsgd1na2vs0mg"},{"bike_id":"f38aa708-255b-4f58-8ca4-e35574a8ea4e","system_id":"levelo_inurba_marseille","lat":43.314811,"lon":5.373103,"is_reserved":false,"is_disabled":false,"rental_uris":{"android":"levelo://app?vid=f38aa708-255b-4f58-8ca4-e35574a8ea4e","ios":"levelo://app?vid=f38aa708-255b-4f58-8ca4-e35574a8ea4e"},"vehicle_type_id":"4","last_reported":1712190915,"current_range_meters":8000,"station_id":"ce4bgt12rcd13ifvqcd0","pricing_plan_id":"cebpf4jnsgd1na2vs0mg"},{"bike_id":"8975a836-6e70-425b-8032-2f1431400b87","system_id":"levelo_inurba_marseille","lat":43.314811,"lon":5.373103,"is_reserved":false,"is_disabled":false,"rental_uris":{"android":"levelo://app?vid=8975a836-6e70-425b-8032-2f1431400b87","ios":"levelo://app?vid=8975a836-6e70-425b-8032-2f1431400b87"},"vehicle_type_id":"4","last_reported":1712190915,"current_range_meters":20800,"station_id":"ce4bgt12rcd13ifvqcd0","pricing_plan_id":"cebpf4jnsgd1na2vs0mg"},{"bike_id":"68cb58ca-d4ac-4105-9fce-78307e698100","system_id":"levelo_inurba_marseille","lat":43.314811,"lon":5.373103,"is_reserved":false,"is_disabled":false,"rental_uris":{"android":"levelo://app?vid=68cb58ca-d4ac-4105-9fce-78307e698100","ios":"levelo://app?vid=68cb58ca-d4ac-4105-9fce-78307e698100"},"vehicle_type_id":"4","last_reported":1712190915,"current_range_meters":18800,"station_id":"ce4bgt12rcd13ifvqcd0","pricing_plan_id":"cebpf4jnsgd1na2vs0mg"},{"bike_id":"5db965a6-b68f-4aa0-b33a-c2c7f253f8c0","system_id":"levelo_inurba_marseille","lat":43.314811,"lon":5.373104,"is_reserved":false,"is_disabled":false,"rental_uris":{"android":"levelo://app?vid=5db965a6-b68f-4aa0-b33a-c2c7f253f8c0","ios":"levelo://app?vid=5db965a6-b68f-4aa0-b33a-c2c7f253f8c0"},"vehicle_type_id":"4","last_reported":1712190915,"current_range_meters":17200,"station_id":"ce4bgt12rcd13ifvqcd0","pricing_plan_id":"cebpf4jnsgd1na2vs0mg"},{"bike_id":"f5db2c26-10ae-4c6b-bd95-0097b1149a98","system_id":"levelo_inurba_marseille","lat":43.314811,"lon":5.373104,"is_reserved":false,"is_disabled":false,"rental_uris":{"android":"levelo://app?vid=f5db2c26-10ae-4c6b-bd95-0097b1149a98","ios":"levelo://app?vid=f5db2c26-10ae-4c6b-bd95-0097b1149a98"},"vehicle_type_id":"4","last_reported":1712190915,"current_range_meters":26000,"station_id":"ce4bgt12rcd13ifvqcd0","pricing_plan_id":"cebpf4jnsgd1na2vs0mg"},{"bike_id":"988a2567-1a03-4207-b29c-646a87c18aae","system_id":"levelo_inurba_marseille","lat":43.314811,"lon":5.373104,"is_reserved":false,"is_disabled":false,"rental_uris":{"android":"levelo://app?vid=988a2567-1a03-4207-b29c-646a87c18aae","ios":"levelo://app?vid=988a2567-1a03-4207-b29c-646a87c18aae"},"vehicle_type_id":"4","last_reported":1712190915,"current_range_meters":15600,"station_id":"ce4bgt12rcd13ifvqcd0","pricing_plan_id":"cebpf4jnsgd1na2vs0mg"},{"bike_id":"0be1b53b-c552-4ff4-bbd4-7d4489f32f3e","system_id":"levelo_inurba_marseille","lat":43.314811,"lon":5.373104,"is_reserved":false,"is_disabled":false,"rental_uris":{"android":"levelo://app?vid=0be1b53b-c552-4ff4-bbd4-7d4489f32f3e","ios":"levelo://app?vid=0be1b53b-c552-4ff4-bbd4-7d4489f32f3e"},"vehicle_type_id":"4","last_reported":1712190915,"current_range_meters":26800,"station_id":"ce4bgt12rcd13ifvqcd0","pricing_plan_id":"cebpf4jnsgd1na2vs0mg"},{"bike_id":"5774537b-b79c-4e5d-b8d9-cdc80f044a9e","system_id":"levelo_inurba_marseille","lat":43.309039,"lon":5.371797,"is_reserved":false,"is_disabled":false,"rental_uris":{"android":"levelo://app?vid=5774537b-b79c-4e5d-b8d9-cdc80f044a9e","ios":"levelo://app?vid=5774537b-b79c-4e5d-b8d9-cdc80f044a9e"},"vehicle_type_id":"4","last_reported":1712190915,"current_range_meters":27600,"station_id":"ce4bguh2rcd13ifvqckg","pricing_plan_id":"cebpf4jnsgd1na2vs0mg"},{"bike_id":"8b7f803b-f271-46ac-b9e0-f0a2c95d7517","system_id":"levelo_inurba_marseille","lat":43.309039,"lon":5.371797,"is_reserved":false,"is_disabled":false,"rental_uris":{"android":"levelo://app?vid=8b7f803b-f271-46ac-b9e0-f0a2c95d7517","ios":"levelo://app?vid=8b7f803b-f271-46ac-b9e0-f0a2c95d7517"},"vehicle_type_id":"4","last_reported":1712190915,"current_range_meters":28400,"station_id":"ce4bguh2rcd13ifvqckg","pricing_plan_id":"cebpf4jnsgd1na2vs0mg"},{"bike_id":"9a2810b5-635c-4695-aaba-079f69afbf11","system_id":"levelo_inurba_marseille","lat":43.309039,"lon":5.371797,"is_reserved":false,"is_disabled":false,"rental_uris":{"android":"levelo://app?vid=9a2810b5-635c-4695-aaba-079f69afbf11","ios":"levelo://app?vid=9a2810b5-635c-4695-aaba-079f69afbf11"},"vehicle_type_id":"4","last_reported":1712190915,"current_range_meters":31200,"station_id":"ce4bguh2rcd13ifvqckg","pricing_plan_id":"cebpf4jnsgd1na2vs0mg"},{"bike_id":"17ea4fdd-236e-4a4c-b187-f05f0b44e8e4","system_id":"levelo_inurba_marseille","lat":43.309039,"lon":5.371797,"is_reserved":false,"is_disabled":false,"rental_uris":{"android":"levelo://app?vid=17ea4fdd-236e-4a4c-b187-f05f0b44e8e4","ios":"levelo://app?vid=17ea4fdd-236e-4a4c-b187-f05f0b44e8e4"},"vehicle_type_id":"4","last_reported":1712190915,"current_range_meters":25200,"station_id":"ce4bguh2rcd13ifvqckg","pricing_plan_id":"cebpf4jnsgd1na2vs0mg"},{"bike_id":"ad5615b0-1ba1-4a0f-8d8c-20597b3b6495","system_id":"levelo_inurba_marseille","lat":43.309039,"lon":5.371797,"is_reserved":false,"is_disabled":false,"rental_uris":{"android":"levelo://app?vid=ad5615b0-1ba1-4a0f-8d8c-20597b3b6495","ios":"levelo://app?vid=ad5615b0-1ba1-4a0f-8d8c-20597b3b6495"},"vehicle_type_id":"4","last_reported":1712190915,"current_range_meters":14400,"station_id":"ce4bguh2rcd13ifvqckg","pricing_plan_id":"cebpf4jnsgd1na2vs0mg"},{"bike_id":"7d9cb688-c77d-4e54-a5d5-5298ba1e05d9","system_id":"levelo_inurba_marseille","lat":43.309034,"lon":5.371783,"is_reserved":false,"is_disabled":false,"rental_uris":{"android":"levelo://app?vid=7d9cb688-c77d-4e54-a5d5-5298ba1e05d9","ios":"levelo://app?vid=7d9cb688-c77d-4e54-a5d5-5298ba1e05d9"},"vehicle_type_id":"4","last_reported":1712190915,"current_range_meters":31200,"station_id":"ce4bguh2rcd13ifvqckg","pricing_plan_id":"cebpf4jnsgd1na2vs0mg"},{"bike_id":"41671227-294f-48cf-a712-80f92ebaf6ae","system_id":"levelo_inurba_marseille","lat":43.309034,"lon":5.371783,"is_reserved":false,"is_disabled":false,"rental_uris":{"android":"levelo://app?vid=41671227-294f-48cf-a712-80f92ebaf6ae","ios":"levelo://app?vid=41671227-294f-48cf-a712-80f92ebaf6ae"},"vehicle_type_id":"4","last_reported":1712190915,"current_range_meters":31200,"station_id":"ce4bguh2rcd13ifvqckg","pricing_plan_id":"cebpf4jnsgd1na2vs0mg"},{"bike_id":"30e1ee6c-484c-413c-9362-750f33ce8a35","system_id":"levelo_inurba_marseille","lat":43.309034,"lon":5.371783,"is_reserved":false,"is_disabled":false,"rental_uris":{"android":"levelo://app?vid=30e1ee6c-484c-413c-9362-750f33ce8a35","ios":"levelo://app?vid=30e1ee6c-484c-413c-9362-750f33ce8a35"},"vehicle_type_id":"4","last_reported":1712190915,"current_range_meters":30800,"station_id":"ce4bguh2rcd13ifvqckg","pricing_plan_id":"cebpf4jnsgd1na2vs0mg"},{"bike_id":"9f289c61-b7a2-4234-bf97-1d0304175f51","system_id":"levelo_inurba_marseille","lat":43.309034,"lon":5.371783,"is_reserved":false,"is_disabled":false,"rental_uris":{"android":"levelo://app?vid=9f289c61-b7a2-4234-bf97-1d0304175f51","ios":"levelo://app?vid=9f289c61-b7a2-4234-bf97-1d0304175f51"},"vehicle_type_id":"4","last_reported":1712190915,"current_range_meters":30000,"station_id":"ce4bguh2rcd13ifvqckg","pricing_plan_id":"cebpf4jnsgd1na2vs0mg"},{"bike_id":"cd56ac46-6bb5-461d-b512-de0acb87581d","system_id":"levelo_inurba_marseille","lat":43.30537,"lon":5.367345,"is_reserved":false,"is_disabled":false,"rental_uris":{"android":"levelo://app?vid=cd56ac46-6bb5-461d-b512-de0acb87581d","ios":"levelo://app?vid=cd56ac46-6bb5-461d-b512-de0acb87581d"},"vehicle_type_id":"4","last_reported":1712190915,"current_range_meters":31200,"station_id":"ce4bgrp2rcd13ifvqc9g","pricing_plan_id":"cebpf4jnsgd1na2vs0mg"},{"bike_id":"84041600-8c87-4abf-81ac-37a7c19c8cff","system_id":"levelo_inurba_marseille","lat":43.30537,"lon":5.367345,"is_reserved":false,"is_disabled":false,"rental_uris":{"android":"levelo://app?vid=84041600-8c87-4abf-81ac-37a7c19c8cff","ios":"levelo://app?vid=84041600-8c87-4abf-81ac-37a7c19c8cff"},"vehicle_type_id":"4","last_reported":1712190915,"current_range_meters":30000,"station_id":"ce4bgrp2rcd13ifvqc9g","pricing_plan_id":"cebpf4jnsgd1na2vs0mg"},{"bike_id":"786d2afa-2d7f-4d79-86d1-2b35051ff71e","system_id":"levelo_inurba_marseille","lat":43.305368,"lon":5.367343,"is_reserved":false,"is_disabled":false,"rental_uris":{"android":"levelo://app?vid=786d2afa-2d7f-4d79-86d1-2b35051ff71e","ios":"levelo://app?vid=786d2afa-2d7f-4d79-86d1-2b35051ff71e"},"vehicle_type_id":"4","last_reported":1712190915,"current_range_meters":31200,"station_id":"ce4bgrp2rcd13ifvqc9g","pricing_plan_id":"cebpf4jnsgd1na2vs0mg"},{"bike_id":"1adc38b0-59d0-4bb5-8230-93d6d2531420","system_id":"levelo_inurba_marseille","lat":43.305989,"lon":5.37225,"is_reserved":false,"is_disabled":false,"rental_uris":{"android":"levelo://app?vid=1adc38b0-59d0-4bb5-8230-93d6d2531420","ios":"levelo://app?vid=1adc38b0-59d0-4bb5-8230-93d6d2531420"},"vehicle_type_id":"4","last_reported":1712190915,"current_range_meters":31200,"station_id":"ce4bgqh2rcd13ifvqc4g","pricing_plan_id":"cebpf4jnsgd1na2vs0mg"},{"bike_id":"7f5d15db-3a91-4240-b556-c30993176650","system_id":"levelo_inurba_marseille","lat":43.305989,"lon":5.37225,"is_reserved":false,"is_disabled":false,"rental_uris":{"android":"levelo://app?vid=7f5d15db-3a91-4240-b556-c30993176650","ios":"levelo://app?vid=7f5d15db-3a91-4240-b556-c30993176650"},"vehicle_type_id":"4","last_reported":1712190915,"current_range_meters":30800,"station_id":"ce4bgqh2rcd13ifvqc4g","pricing_plan_id":"cebpf4jnsgd1na2vs0mg"},{"bike_id":"0256567c-9b60-44b3-86e1-f3dfff66fae4","system_id":"levelo_inurba_marseille","lat":43.305989,"lon":5.37225,"is_reserved":false,"is_disabled":false,"rental_uris":{"android":"levelo://app?vid=0256567c-9b60-44b3-86e1-f3dfff66fae4","ios":"levelo://app?vid=0256567c-9b60-44b3-86e1-f3dfff66fae4"},"vehicle_type_id":"4","last_reported":1712190915,"current_range_meters":20800,"station_id":"ce4bgqh2rcd13ifvqc4g","pricing_plan_id":"cebpf4jnsgd1na2vs0mg"},{"bike_id":"bb645c3a-1e6f-46b3-b9b4-ab381a7c1c00","system_id":"levelo_inurba_marseille","lat":43.305989,"lon":5.37225,"is_reserved":false,"is_disabled":false,"rental_uris":{"android":"levelo://app?vid=bb645c3a-1e6f-46b3-b9b4-ab381a7c1c00","ios":"levelo://app?vid=bb645c3a-1e6f-46b3-b9b4-ab381a7c1c00"},"vehicle_type_id":"4","last_reported":1712190915,"current_range_meters":31200,"station_id":"ce4bgqh2rcd13ifvqc4g","pricing_plan_id":"cebpf4jnsgd1na2vs0mg"},{"bike_id":"07932cd7-dc58-4371-964e-58ac4d42835e","system_id":"levelo_inurba_marseille","lat":43.305989,"lon":5.37225,"is_reserved":false,"is_disabled":false,"rental_uris":{"android":"levelo://app?vid=07932cd7-dc58-4371-964e-58ac4d42835e","ios":"levelo://app?vid=07932cd7-dc58-4371-964e-58ac4d42835e"},"vehicle_type_id":"4","last_reported":1712190915,"current_range_meters":18400,"station_id":"ce4bgqh2rcd13ifvqc4g","pricing_plan_id":"cebpf4jnsgd1na2vs0mg"},{"bike_id":"c813ddd8-c8a4-4fba-83d8-9ac6837dc250","system_id":"levelo_inurba_marseille","lat":43.305989,"lon":5.37225,"is_reserved":false,"is_disabled":false,"rental_uris":{"android":"levelo://app?vid=c813ddd8-c8a4-4fba-83d8-9ac6837dc250","ios":"levelo://app?vid=c813ddd8-c8a4-4fba-83d8-9ac6837dc250"},"vehicle_type_id":"4","last_reported":1712190915,"current_range_meters":31200,"station_id":"ce4bgqh2rcd13ifvqc4g","pricing_plan_id":"cebpf4jnsgd1na2vs0mg"},{"bike_id":"f763b69b-f5c2-42fd-9a68-ea9bfa0dc136","system_id":"levelo_inurba_marseille","lat":43.306006,"lon":5.372319,"is_reserved":false,"is_disabled":false,"rental_uris":{"android":"levelo://app?vid=f763b69b-f5c2-42fd-9a68-ea9bfa0dc136","ios":"levelo://app?vid=f763b69b-f5c2-42fd-9a68-ea9bfa0dc136"},"vehicle_type_id":"4","last_reported":1712190915,"current_range_meters":28800,"station_id":"ce4bgqh2rcd13ifvqc4g","pricing_plan_id":"cebpf4jnsgd1na2vs0mg"},{"bike_id":"d8f81802-c806-4f26-bd6d-e95c3abeda43","system_id":"levelo_inurba_marseille","lat":43.311125,"lon":5.377624,"is_reserved":false,"is_disabled":false,"rental_uris":{"android":"levelo://app?vid=d8f81802-c806-4f26-bd6d-e95c3abeda43","ios":"levelo://app?vid=d8f81802-c806-4f26-bd6d-e95c3abeda43"},"vehicle_type_id":"4","last_reported":1712190915,"current_range_meters":29200,"station_id":"ce4bgt92rcd13ifvqcg0","pricing_plan_id":"cebpf4jnsgd1na2vs0mg"},{"bike_id":"b40a4203-d7df-4e9b-a05b-bdef415bccfc","system_id":"levelo_inurba_marseille","lat":43.311125,"lon":5.377624,"is_reserved":false,"is_disabled":false,"rental_uris":{"android":"levelo://app?vid=b40a4203-d7df-4e9b-a05b-bdef415bccfc","ios":"levelo://app?vid=b40a4203-d7df-4e9b-a05b-bdef415bccfc"},"vehicle_type_id":"4","last_reported":1712190915,"current_range_meters":9200,"station_id":"ce4bgt92rcd13ifvqcg0","pricing_plan_id":"cebpf4jnsgd1na2vs0mg"},{"bike_id":"0e1c6674-ca81-4ef3-8f27-82c65162469b","system_id":"levelo_inurba_marseille","lat":43.311125,"lon":5.377624,"is_reserved":false,"is_disabled":false,"rental_uris":{"android":"levelo://app?vid=0e1c6674-ca81-4ef3-8f27-82c65162469b","ios":"levelo://app?vid=0e1c6674-ca81-4ef3-8f27-82c65162469b"},"vehicle_type_id":"4","last_reported":1712190915,"current_range_meters":0,"station_id":"ce4bgt92rcd13ifvqcg0","pricing_plan_id":"cebpf4jnsgd1na2vs0mg"},{"bike_id":"22fc92ba-98d3-4f6c-abda-0c27167d7ff2","system_id":"levelo_inurba_marseille","lat":43.311125,"lon":5.377624,"is_reserved":false,"is_disabled":false,"rental_uris":{"android":"levelo://app?vid=22fc92ba-98d3-4f6c-abda-0c27167d7ff2","ios":"levelo://app?vid=22fc92ba-98d3-4f6c-abda-0c27167d7ff2"},"vehicle_type_id":"4","last_reported":1712190915,"current_range_meters":24000,"station_id":"ce4bgt92rcd13ifvqcg0","pricing_plan_id":"cebpf4jnsgd1na2vs0mg"},{"bike_id":"d7c24ce2-8c66-488c-8ede-a3b9355d6491","system_id":"levelo_inurba_marseille","lat":43.311125,"lon":5.377624,"is_reserved":false,"is_disabled":false,"rental_uris":{"android":"levelo://app?vid=d7c24ce2-8c66-488c-8ede-a3b9355d6491","ios":"levelo://app?vid=d7c24ce2-8c66-488c-8ede-a3b9355d6491"},"vehicle_type_id":"4","last_reported":1712190915,"current_range_meters":26800,"station_id":"ce4bgt92rcd13ifvqcg0","pricing_plan_id":"cebpf4jnsgd1na2vs0mg"},{"bike_id":"9916d200-b4d8-4d3c-a609-30e4b26fe9b9","system_id":"levelo_inurba_marseille","lat":43.311125,"lon":5.377624,"is_reserved":false,"is_disabled":false,"rental_uris":{"android":"levelo://app?vid=9916d200-b4d8-4d3c-a609-30e4b26fe9b9","ios":"levelo://app?vid=9916d200-b4d8-4d3c-a609-30e4b26fe9b9"},"vehicle_type_id":"4","last_reported":1712190915,"current_range_meters":17200,"station_id":"ce4bgt92rcd13ifvqcg0","pricing_plan_id":"cebpf4jnsgd1na2vs0mg"},{"bike_id":"3ef99255-a4b6-4094-9360-208beb0652dc","system_id":"levelo_inurba_marseille","lat":43.307945,"lon":5.376487,"is_reserved":false,"is_disabled":false,"rental_uris":{"android":"levelo://app?vid=3ef99255-a4b6-4094-9360-208beb0652dc","ios":"levelo://app?vid=3ef99255-a4b6-4094-9360-208beb0652dc"},"vehicle_type_id":"4","last_reported":1712190915,"current_range_meters":31200,"station_id":"ce4bgv92rcd13ifvqcq0","pricing_plan_id":"cebpf4jnsgd1na2vs0mg"},{"bike_id":"612c10f8-c91f-4675-87fb-48e90c171a01","system_id":"levelo_inurba_marseille","lat":43.307945,"lon":5.376487,"is_reserved":false,"is_disabled":false,"rental_uris":{"android":"levelo://app?vid=612c10f8-c91f-4675-87fb-48e90c171a01","ios":"levelo://app?vid=612c10f8-c91f-4675-87fb-48e90c171a01"},"vehicle_type_id":"4","last_reported":1712190915,"current_range_meters":24800,"station_id":"ce4bgv92rcd13ifvqcq0","pricing_plan_id":"cebpf4jnsgd1na2vs0mg"},{"bike_id":"d9104fbf-a629-4cba-a471-94776a08b3e7","system_id":"levelo_inurba_marseille","lat":43.307945,"lon":5.376487,"is_reserved":false,"is_disabled":false,"rental_uris":{"android":"levelo://app?vid=d9104fbf-a629-4cba-a471-94776a08b3e7","ios":"levelo://app?vid=d9104fbf-a629-4cba-a471-94776a08b3e7"},"vehicle_type_id":"4","last_reported":1712190915,"current_range_meters":31200,"station_id":"ce4bgv92rcd13ifvqcq0","pricing_plan_id":"cebpf4jnsgd1na2vs0mg"},{"bike_id":"9657b162-9a40-459a-a26d-f8da9447e0b2","system_id":"levelo_inurba_marseille","lat":43.307945,"lon":5.376487,"is_reserved":false,"is_disabled":false,"rental_uris":{"android":"levelo://app?vid=9657b162-9a40-459a-a26d-f8da9447e0b2","ios":"levelo://app?vid=9657b162-9a40-459a-a26d-f8da9447e0b2"},"vehicle_type_id":"4","last_reported":1712190915,"current_range_meters":23600,"station_id":"ce4bgv92rcd13ifvqcq0","pricing_plan_id":"cebpf4jnsgd1na2vs0mg"},{"bike_id":"62204b34-d65c-4e2d-9a84-6d585c0e93f6","system_id":"levelo_inurba_marseille","lat":43.307945,"lon":5.376487,"is_reserved":false,"is_disabled":false,"rental_uris":{"android":"levelo://app?vid=62204b34-d65c-4e2d-9a84-6d585c0e93f6","ios":"levelo://app?vid=62204b34-d65c-4e2d-9a84-6d585c0e93f6"},"vehicle_type_id":"4","last_reported":1712190915,"current_range_meters":27600,"station_id":"ce4bgv92rcd13ifvqcq0","pricing_plan_id":"cebpf4jnsgd1na2vs0mg"},{"bike_id":"4e5ca28c-d1ad-415a-9dcb-4ca1ac2baf09","system_id":"levelo_inurba_marseille","lat":43.307945,"lon":5.376487,"is_reserved":false,"is_disabled":false,"rental_uris":{"android":"levelo://app?vid=4e5ca28c-d1ad-415a-9dcb-4ca1ac2baf09","ios":"levelo://app?vid=4e5ca28c-d1ad-415a-9dcb-4ca1ac2baf09"},"vehicle_type_id":"4","last_reported":1712190915,"current_range_meters":7600,"station_id":"ce4bgv92rcd13ifvqcq0","pricing_plan_id":"cebpf4jnsgd1na2vs0mg"},{"bike_id":"bbfed310-f5ca-41c8-bf3a-f83cd6959697","system_id":"levelo_inurba_marseille","lat":43.313254,"lon":5.37881,"is_reserved":false,"is_disabled":false,"rental_uris":{"android":"levelo://app?vid=bbfed310-f5ca-41c8-bf3a-f83cd6959697","ios":"levelo://app?vid=bbfed310-f5ca-41c8-bf3a-f83cd6959697"},"vehicle_type_id":"4","last_reported":1712190915,"current_range_meters":10800,"station_id":"","pricing_plan_id":"cebpf4jnsgd1na2vs0mg"},{"bike_id":"ff8d4572-bd6b-466d-82ad-d20e3efb4ac5","system_id":"levelo_inurba_marseille","lat":43.317075,"lon":5.377367,"is_reserved":false,"is_disabled":false,"rental_uris":{"android":"levelo://app?vid=ff8d4572-bd6b-466d-82ad-d20e3efb4ac5","ios":"levelo://app?vid=ff8d4572-bd6b-466d-82ad-d20e3efb4ac5"},"vehicle_type_id":"4","last_reported":1712190915,"current_range_meters":0,"station_id":"ce4bgth2rcd13ifvqch0","pricing_plan_id":"cebpf4jnsgd1na2vs0mg"},{"bike_id":"2bcc38b2-4941-4b1b-8538-cafb230e0a52","system_id":"levelo_inurba_marseille","lat":43.317075,"lon":5.377367,"is_reserved":false,"is_disabled":false,"rental_uris":{"android":"levelo://app?vid=2bcc38b2-4941-4b1b-8538-cafb230e0a52","ios":"levelo://app?vid=2bcc38b2-4941-4b1b-8538-cafb230e0a52"},"vehicle_type_id":"4","last_reported":1712190915,"current_range_meters":31200,"station_id":"ce4bgth2rcd13ifvqch0","pricing_plan_id":"cebpf4jnsgd1na2vs0mg"},{"bike_id":"194e8f42-6fab-4d08-97d0-04a5ecb2382c","system_id":"levelo_inurba_marseille","lat":43.31765,"lon":5.37774,"is_reserved":false,"is_disabled":false,"rental_uris":{"android":"levelo://app?vid=194e8f42-6fab-4d08-97d0-04a5ecb2382c","ios":"levelo://app?vid=194e8f42-6fab-4d08-97d0-04a5ecb2382c"},"vehicle_type_id":"4","last_reported":1712190915,"current_range_meters":20000,"station_id":"","pricing_plan_id":"cebpf4jnsgd1na2vs0mg"},{"bike_id":"325a5563-cb67-4402-adda-aecbd57a5cef","system_id":"levelo_inurba_marseille","lat":43.303046,"lon":5.368981,"is_reserved":false,"is_disabled":false,"rental_uris":{"android":"levelo://app?vid=325a5563-cb67-4402-adda-aecbd57a5cef","ios":"levelo://app?vid=325a5563-cb67-4402-adda-aecbd57a5cef"},"vehicle_type_id":"4","last_reported":1712190915,"current_range_meters":31200,"station_id":"ce4bgqh2rcd13ifvqc5g","pricing_plan_id":"cebpf4jnsgd1na2vs0mg"},{"bike_id":"c0c21634-ab69-4613-a0de-79fd41db9e81","system_id":"levelo_inurba_marseille","lat":43.315289,"lon":5.380349,"is_reserved":false,"is_disabled":false,"rental_uris":{"android":"levelo://app?vid=c0c21634-ab69-4613-a0de-79fd41db9e81","ios":"levelo://app?vid=c0c21634-ab69-4613-a0de-79fd41db9e81"},"vehicle_type_id":"4","last_reported":1712190915,"current_range_meters":6800,"station_id":"ce4bhsp2rcd13ifvqi50","pricing_plan_id":"cebpf4jnsgd1na2vs0mg"},{"bike_id":"d27dd1db-26c4-400a-9706-4c73517f0442","system_id":"levelo_inurba_marseille","lat":43.315293,"lon":5.380349,"is_reserved":false,"is_disabled":false,"rental_uris":{"android":"levelo://app?vid=d27dd1db-26c4-400a-9706-4c73517f0442","ios":"levelo://app?vid=d27dd1db-26c4-400a-9706-4c73517f0442"},"vehicle_type_id":"4","last_reported":1712190915,"current_range_meters":17200,"station_id":"ce4bhsp2rcd13ifvqi50","pricing_plan_id":"cebpf4jnsgd1na2vs0mg"},{"bike_id":"1e9f77f2-e8b7-46c2-b238-8f1d11f78023","system_id":"levelo_inurba_marseille","lat":43.315289,"lon":5.380349,"is_reserved":false,"is_disabled":false,"rental_uris":{"android":"levelo://app?vid=1e9f77f2-e8b7-46c2-b238-8f1d11f78023","ios":"levelo://app?vid=1e9f77f2-e8b7-46c2-b238-8f1d11f78023"},"vehicle_type_id":"4","last_reported":1712190915,"current_range_meters":31200,"station_id":"ce4bhsp2rcd13ifvqi50","pricing_plan_id":"cebpf4jnsgd1na2vs0mg"},{"bike_id":"9eb2c359-cf04-4b29-a6ab-7108c4580c82","system_id":"levelo_inurba_marseille","lat":43.315289,"lon":5.380349,"is_reserved":false,"is_disabled":false,"rental_uris":{"android":"levelo://app?vid=9eb2c359-cf04-4b29-a6ab-7108c4580c82","ios":"levelo://app?vid=9eb2c359-cf04-4b29-a6ab-7108c4580c82"},"vehicle_type_id":"4","last_reported":1712190915,"current_range_meters":19600,"station_id":"ce4bhsp2rcd13ifvqi50","pricing_plan_id":"cebpf4jnsgd1na2vs0mg"},{"bike_id":"832f974e-befb-46cc-810e-a89ca492e4a5","system_id":"levelo_inurba_marseille","lat":43.303046,"lon":5.368981,"is_reserved":false,"is_disabled":false,"rental_uris":{"android":"levelo://app?vid=832f974e-befb-46cc-810e-a89ca492e4a5","ios":"levelo://app?vid=832f974e-befb-46cc-810e-a89ca492e4a5"},"vehicle_type_id":"4","last_reported":1712190915,"current_range_meters":31200,"station_id":"ce4bgqh2rcd13ifvqc5g","pricing_plan_id":"cebpf4jnsgd1na2vs0mg"},{"bike_id":"1179b424-e642-4cc9-8eef-6573e93ba9dd","system_id":"levelo_inurba_marseille","lat":43.302957,"lon":5.372327,"is_reserved":false,"is_disabled":false,"rental_uris":{"android":"levelo://app?vid=1179b424-e642-4cc9-8eef-6573e93ba9dd","ios":"levelo://app?vid=1179b424-e642-4cc9-8eef-6573e93ba9dd"},"vehicle_type_id":"4","last_reported":1712190915,"current_range_meters":6000,"station_id":"","pricing_plan_id":"cebpf4jnsgd1na2vs0mg"},{"bike_id":"18f0c77d-f04d-4006-89d1-61c469f0e0b2","system_id":"levelo_inurba_marseille","lat":43.308012,"lon":5.381511,"is_reserved":false,"is_disabled":false,"rental_uris":{"android":"levelo://app?vid=18f0c77d-f04d-4006-89d1-61c469f0e0b2","ios":"levelo://app?vid=18f0c77d-f04d-4006-89d1-61c469f0e0b2"},"vehicle_type_id":"4","last_reported":1712190915,"current_range_meters":12000,"station_id":"ce4bgt12rcd13ifvqce0","pricing_plan_id":"cebpf4jnsgd1na2vs0mg"},{"bike_id":"ecdd0fdd-7f59-4229-8b71-04eea75e094d","system_id":"levelo_inurba_marseille","lat":43.308012,"lon":5.381511,"is_reserved":false,"is_disabled":false,"rental_uris":{"android":"levelo://app?vid=ecdd0fdd-7f59-4229-8b71-04eea75e094d","ios":"levelo://app?vid=ecdd0fdd-7f59-4229-8b71-04eea75e094d"},"vehicle_type_id":"4","last_reported":1712190915,"current_range_meters":28400,"station_id":"ce4bgt12rcd13ifvqce0","pricing_plan_id":"cebpf4jnsgd1na2vs0mg"},{"bike_id":"bf869e90-b5e3-4e40-a818-92d1c0b480e3","system_id":"levelo_inurba_marseille","lat":43.308012,"lon":5.381511,"is_reserved":false,"is_disabled":false,"rental_uris":{"android":"levelo://app?vid=bf869e90-b5e3-4e40-a818-92d1c0b480e3","ios":"levelo://app?vid=bf869e90-b5e3-4e40-a818-92d1c0b480e3"},"vehicle_type_id":"4","last_reported":1712190915,"current_range_meters":14800,"station_id":"ce4bgt12rcd13ifvqce0","pricing_plan_id":"cebpf4jnsgd1na2vs0mg"},{"bike_id":"6dda3303-7ecc-4898-a886-f91482bc6278","system_id":"levelo_inurba_marseille","lat":43.308012,"lon":5.381511,"is_reserved":false,"is_disabled":false,"rental_uris":{"android":"levelo://app?vid=6dda3303-7ecc-4898-a886-f91482bc6278","ios":"levelo://app?vid=6dda3303-7ecc-4898-a886-f91482bc6278"},"vehicle_type_id":"4","last_reported":1712190915,"current_range_meters":30400,"station_id":"ce4bgt12rcd13ifvqce0","pricing_plan_id":"cebpf4jnsgd1na2vs0mg"},{"bike_id":"8457998c-8a8b-48d9-8bb0-6d08af804fab","system_id":"levelo_inurba_marseille","lat":43.308012,"lon":5.381511,"is_reserved":false,"is_disabled":false,"rental_uris":{"android":"levelo://app?vid=8457998c-8a8b-48d9-8bb0-6d08af804fab","ios":"levelo://app?vid=8457998c-8a8b-48d9-8bb0-6d08af804fab"},"vehicle_type_id":"4","last_reported":1712190915,"current_range_meters":16000,"station_id":"ce4bgt12rcd13ifvqce0","pricing_plan_id":"cebpf4jnsgd1na2vs0mg"},{"bike_id":"6bab9f44-7486-4b85-824c-c4ed7645dbee","system_id":"levelo_inurba_marseille","lat":43.308012,"lon":5.381511,"is_reserved":false,"is_disabled":false,"rental_uris":{"android":"levelo://app?vid=6bab9f44-7486-4b85-824c-c4ed7645dbee","ios":"levelo://app?vid=6bab9f44-7486-4b85-824c-c4ed7645dbee"},"vehicle_type_id":"4","last_reported":1712190915,"current_range_meters":8800,"station_id":"ce4bgt12rcd13ifvqce0","pricing_plan_id":"cebpf4jnsgd1na2vs0mg"},{"bike_id":"f6d21aa2-5d57-4e85-8b18-61d7c80d4984","system_id":"levelo_inurba_marseille","lat":43.308012,"lon":5.381511,"is_reserved":false,"is_disabled":false,"rental_uris":{"android":"levelo://app?vid=f6d21aa2-5d57-4e85-8b18-61d7c80d4984","ios":"levelo://app?vid=f6d21aa2-5d57-4e85-8b18-61d7c80d4984"},"vehicle_type_id":"4","last_reported":1712190915,"current_range_meters":16400,"station_id":"ce4bgt12rcd13ifvqce0","pricing_plan_id":"cebpf4jnsgd1na2vs0mg"},{"bike_id":"9ca7dd89-c803-4170-b542-c58a1987c272","system_id":"levelo_inurba_marseille","lat":43.308012,"lon":5.381511,"is_reserved":false,"is_disabled":false,"rental_uris":{"android":"levelo://app?vid=9ca7dd89-c803-4170-b542-c58a1987c272","ios":"levelo://app?vid=9ca7dd89-c803-4170-b542-c58a1987c272"},"vehicle_type_id":"4","last_reported":1712190915,"current_range_meters":12000,"station_id":"ce4bgt12rcd13ifvqce0","pricing_plan_id":"cebpf4jnsgd1na2vs0mg"},{"bike_id":"5d9b3673-5502-4721-8911-ba374eeded53","system_id":"levelo_inurba_marseille","lat":43.264958,"lon":5.395433,"is_reserved":false,"is_disabled":false,"rental_uris":{"android":"levelo://app?vid=5d9b3673-5502-4721-8911-ba374eeded53","ios":"levelo://app?vid=5d9b3673-5502-4721-8911-ba374eeded53"},"vehicle_type_id":"4","last_reported":1712190915,"current_range_meters":8400,"station_id":"ce4bhi12rcd13ifvqfq0","pricing_plan_id":"cebpf4jnsgd1na2vs0mg"},{"bike_id":"20b618f4-2ef4-4a4f-a423-beda868fa718","system_id":"levelo_inurba_marseille","lat":43.304606,"lon":5.379026,"is_reserved":false,"is_disabled":false,"rental_uris":{"android":"levelo://app?vid=20b618f4-2ef4-4a4f-a423-beda868fa718","ios":"levelo://app?vid=20b618f4-2ef4-4a4f-a423-beda868fa718"},"vehicle_type_id":"4","last_reported":1712190915,"current_range_meters":30000,"station_id":"ce4bgup2rcd13ifvqcn0","pricing_plan_id":"cebpf4jnsgd1na2vs0mg"},{"bike_id":"8379505a-b10f-401a-beb1-5671c297c8a4","system_id":"levelo_inurba_marseille","lat":43.324771,"lon":5.36557,"is_reserved":false,"is_disabled":false,"rental_uris":{"android":"levelo://app?vid=8379505a-b10f-401a-beb1-5671c297c8a4","ios":"levelo://app?vid=8379505a-b10f-401a-beb1-5671c297c8a4"},"vehicle_type_id":"4","last_reported":1712190915,"current_range_meters":15600,"station_id":"ce4bhs12rcd13ifvqhvg","pricing_plan_id":"cebpf4jnsgd1na2vs0mg"},{"bike_id":"fd94cd28-fee4-40fb-954b-a68777e12d9e","system_id":"levelo_inurba_marseille","lat":43.324771,"lon":5.36557,"is_reserved":false,"is_disabled":false,"rental_uris":{"android":"levelo://app?vid=fd94cd28-fee4-40fb-954b-a68777e12d9e","ios":"levelo://app?vid=fd94cd28-fee4-40fb-954b-a68777e12d9e"},"vehicle_type_id":"4","last_reported":1712190915,"current_range_meters":1200,"station_id":"ce4bhs12rcd13ifvqhvg","pricing_plan_id":"cebpf4jnsgd1na2vs0mg"},{"bike_id":"62a961e6-9a77-4a48-b785-17f7a76e126f","system_id":"levelo_inurba_marseille","lat":43.324771,"lon":5.36557,"is_reserved":false,"is_disabled":false,"rental_uris":{"android":"levelo://app?vid=62a961e6-9a77-4a48-b785-17f7a76e126f","ios":"levelo://app?vid=62a961e6-9a77-4a48-b785-17f7a76e126f"},"vehicle_type_id":"4","last_reported":1712190915,"current_range_meters":0,"station_id":"ce4bhs12rcd13ifvqhvg","pricing_plan_id":"cebpf4jnsgd1na2vs0mg"},{"bike_id":"337b0990-25f1-4a83-86c1-ea6e17b969a7","system_id":"levelo_inurba_marseille","lat":43.324771,"lon":5.36557,"is_reserved":false,"is_disabled":false,"rental_uris":{"android":"levelo://app?vid=337b0990-25f1-4a83-86c1-ea6e17b969a7","ios":"levelo://app?vid=337b0990-25f1-4a83-86c1-ea6e17b969a7"},"vehicle_type_id":"4","last_reported":1712190915,"current_range_meters":3200,"station_id":"ce4bhs12rcd13ifvqhvg","pricing_plan_id":"cebpf4jnsgd1na2vs0mg"},{"bike_id":"045a9e2a-7548-4886-9985-9dbe57da82a0","system_id":"levelo_inurba_marseille","lat":43.31068,"lon":5.383423,"is_reserved":false,"is_disabled":false,"rental_uris":{"android":"levelo://app?vid=045a9e2a-7548-4886-9985-9dbe57da82a0","ios":"levelo://app?vid=045a9e2a-7548-4886-9985-9dbe57da82a0"},"vehicle_type_id":"4","last_reported":1712190915,"current_range_meters":0,"station_id":"ce4bgv92rcd13ifvqcr0","pricing_plan_id":"cebpf4jnsgd1na2vs0mg"},{"bike_id":"bdc54515-995c-4d7e-80ae-5db62a339c19","system_id":"levelo_inurba_marseille","lat":43.31075,"lon":5.38347,"is_reserved":false,"is_disabled":false,"rental_uris":{"android":"levelo://app?vid=bdc54515-995c-4d7e-80ae-5db62a339c19","ios":"levelo://app?vid=bdc54515-995c-4d7e-80ae-5db62a339c19"},"vehicle_type_id":"4","last_reported":1712190915,"current_range_meters":4000,"station_id":"ce4bgv92rcd13ifvqcr0","pricing_plan_id":"cebpf4jnsgd1na2vs0mg"},{"bike_id":"1c28d269-b507-4cb7-9a04-b9004b54d987","system_id":"levelo_inurba_marseille","lat":43.31072,"lon":5.3835,"is_reserved":false,"is_disabled":false,"rental_uris":{"android":"levelo://app?vid=1c28d269-b507-4cb7-9a04-b9004b54d987","ios":"levelo://app?vid=1c28d269-b507-4cb7-9a04-b9004b54d987"},"vehicle_type_id":"4","last_reported":1712190915,"current_range_meters":0,"station_id":"ce4bgv92rcd13ifvqcr0","pricing_plan_id":"cebpf4jnsgd1na2vs0mg"},{"bike_id":"68738256-b3e1-4ada-8509-8ef32f1d9b0f","system_id":"levelo_inurba_marseille","lat":43.31069,"lon":5.3835,"is_reserved":false,"is_disabled":false,"rental_uris":{"android":"levelo://app?vid=68738256-b3e1-4ada-8509-8ef32f1d9b0f","ios":"levelo://app?vid=68738256-b3e1-4ada-8509-8ef32f1d9b0f"},"vehicle_type_id":"4","last_reported":1712190915,"current_range_meters":17200,"station_id":"ce4bgv92rcd13ifvqcr0","pricing_plan_id":"cebpf4jnsgd1na2vs0mg"},{"bike_id":"baaeee5c-097f-42d1-92c5-e32ae0fc2e2c","system_id":"levelo_inurba_marseille","lat":43.31076,"lon":5.38353,"is_reserved":false,"is_disabled":false,"rental_uris":{"android":"levelo://app?vid=baaeee5c-097f-42d1-92c5-e32ae0fc2e2c","ios":"levelo://app?vid=baaeee5c-097f-42d1-92c5-e32ae0fc2e2c"},"vehicle_type_id":"4","last_reported":1712190915,"current_range_meters":14400,"station_id":"ce4bgv92rcd13ifvqcr0","pricing_plan_id":"cebpf4jnsgd1na2vs0mg"},{"bike_id":"7862799f-6966-47d6-b30f-97d925b9e963","system_id":"levelo_inurba_marseille","lat":43.310698,"lon":5.383567,"is_reserved":false,"is_disabled":false,"rental_uris":{"android":"levelo://app?vid=7862799f-6966-47d6-b30f-97d925b9e963","ios":"levelo://app?vid=7862799f-6966-47d6-b30f-97d925b9e963"},"vehicle_type_id":"4","last_reported":1712190915,"current_range_meters":7600,"station_id":"ce4bgv92rcd13ifvqcr0","pricing_plan_id":"cebpf4jnsgd1na2vs0mg"},{"bike_id":"bb30a688-54f8-42c7-bb39-c8684fb375d3","system_id":"levelo_inurba_marseille","lat":43.3107,"lon":5.38357,"is_reserved":false,"is_disabled":false,"rental_uris":{"android":"levelo://app?vid=bb30a688-54f8-42c7-bb39-c8684fb375d3","ios":"levelo://app?vid=bb30a688-54f8-42c7-bb39-c8684fb375d3"},"vehicle_type_id":"4","last_reported":1712190915,"current_range_meters":12800,"station_id":"ce4bgv92rcd13ifvqcr0","pricing_plan_id":"cebpf4jnsgd1na2vs0mg"},{"bike_id":"b1cdd95c-4304-4508-b5bf-7ed89bfefcda","system_id":"levelo_inurba_marseille","lat":43.310701,"lon":5.383601,"is_reserved":false,"is_disabled":false,"rental_uris":{"android":"levelo://app?vid=b1cdd95c-4304-4508-b5bf-7ed89bfefcda","ios":"levelo://app?vid=b1cdd95c-4304-4508-b5bf-7ed89bfefcda"},"vehicle_type_id":"4","last_reported":1712190915,"current_range_meters":16800,"station_id":"ce4bgv92rcd13ifvqcr0","pricing_plan_id":"cebpf4jnsgd1na2vs0mg"},{"bike_id":"a72e9ae9-d40a-47b8-a217-387d6fc0e3f2","system_id":"levelo_inurba_marseille","lat":43.302784,"lon":5.377158,"is_reserved":false,"is_disabled":false,"rental_uris":{"android":"levelo://app?vid=a72e9ae9-d40a-47b8-a217-387d6fc0e3f2","ios":"levelo://app?vid=a72e9ae9-d40a-47b8-a217-387d6fc0e3f2"},"vehicle_type_id":"4","last_reported":1712190915,"current_range_meters":16000,"station_id":"ce4bguh2rcd13ifvqcj0","pricing_plan_id":"cebpf4jnsgd1na2vs0mg"},{"bike_id":"a663100e-4751-41ca-a54d-782ad05ac24c","system_id":"levelo_inurba_marseille","lat":43.30148,"lon":5.37413,"is_reserved":false,"is_disabled":false,"rental_uris":{"android":"levelo://app?vid=a663100e-4751-41ca-a54d-782ad05ac24c","ios":"levelo://app?vid=a663100e-4751-41ca-a54d-782ad05ac24c"},"vehicle_type_id":"4","last_reported":1712190915,"current_range_meters":29600,"station_id":"ce4bgs92rcd13ifvqcc0","pricing_plan_id":"cebpf4jnsgd1na2vs0mg"},{"bike_id":"35807c43-a0cc-4db4-8258-6a4da1fc916a","system_id":"levelo_inurba_marseille","lat":43.30143,"lon":5.37413,"is_reserved":false,"is_disabled":false,"rental_uris":{"android":"levelo://app?vid=35807c43-a0cc-4db4-8258-6a4da1fc916a","ios":"levelo://app?vid=35807c43-a0cc-4db4-8258-6a4da1fc916a"},"vehicle_type_id":"4","last_reported":1712190915,"current_range_meters":25600,"station_id":"ce4bgs92rcd13ifvqcc0","pricing_plan_id":"cebpf4jnsgd1na2vs0mg"},{"bike_id":"050e1b70-13cb-472f-a255-48f9ff34420f","system_id":"levelo_inurba_marseille","lat":43.30143,"lon":5.37413,"is_reserved":false,"is_disabled":false,"rental_uris":{"android":"levelo://app?vid=050e1b70-13cb-472f-a255-48f9ff34420f","ios":"levelo://app?vid=050e1b70-13cb-472f-a255-48f9ff34420f"},"vehicle_type_id":"4","last_reported":1712190915,"current_range_meters":2000,"station_id":"ce4bgs92rcd13ifvqcc0","pricing_plan_id":"cebpf4jnsgd1na2vs0mg"},{"bike_id":"3b4f0615-dfa4-4544-abf3-00163fb2cc94","system_id":"levelo_inurba_marseille","lat":43.301429,"lon":5.37413,"is_reserved":false,"is_disabled":false,"rental_uris":{"android":"levelo://app?vid=3b4f0615-dfa4-4544-abf3-00163fb2cc94","ios":"levelo://app?vid=3b4f0615-dfa4-4544-abf3-00163fb2cc94"},"vehicle_type_id":"4","last_reported":1712190915,"current_range_meters":29200,"station_id":"ce4bgs92rcd13ifvqcc0","pricing_plan_id":"cebpf4jnsgd1na2vs0mg"},{"bike_id":"f71db16c-c651-4ca6-99d8-63eb6f78055f","system_id":"levelo_inurba_marseille","lat":43.319935,"lon":5.381699,"is_reserved":false,"is_disabled":false,"rental_uris":{"android":"levelo://app?vid=f71db16c-c651-4ca6-99d8-63eb6f78055f","ios":"levelo://app?vid=f71db16c-c651-4ca6-99d8-63eb6f78055f"},"vehicle_type_id":"4","last_reported":1712190915,"current_range_meters":5600,"station_id":"ce4bhr12rcd13ifvqhpg","pricing_plan_id":"cebpf4jnsgd1na2vs0mg"},{"bike_id":"42a0bf20-b24e-4f44-b085-c1bf12053021","system_id":"levelo_inurba_marseille","lat":43.319952,"lon":5.381512,"is_reserved":false,"is_disabled":false,"rental_uris":{"android":"levelo://app?vid=42a0bf20-b24e-4f44-b085-c1bf12053021","ios":"levelo://app?vid=42a0bf20-b24e-4f44-b085-c1bf12053021"},"vehicle_type_id":"4","last_reported":1712190915,"current_range_meters":11600,"station_id":"ce4bhr12rcd13ifvqhpg","pricing_plan_id":"cebpf4jnsgd1na2vs0mg"},{"bike_id":"f119d3c5-25ca-42e2-9a0d-6cbf40876435","system_id":"levelo_inurba_marseille","lat":43.319935,"lon":5.381699,"is_reserved":false,"is_disabled":false,"rental_uris":{"android":"levelo://app?vid=f119d3c5-25ca-42e2-9a0d-6cbf40876435","ios":"levelo://app?vid=f119d3c5-25ca-42e2-9a0d-6cbf40876435"},"vehicle_type_id":"4","last_reported":1712190915,"current_range_meters":9600,"station_id":"ce4bhr12rcd13ifvqhpg","pricing_plan_id":"cebpf4jnsgd1na2vs0mg"},{"bike_id":"90967822-0d01-4979-ab6f-bdd1bbae9452","system_id":"levelo_inurba_marseille","lat":43.319935,"lon":5.381699,"is_reserved":false,"is_disabled":false,"rental_uris":{"android":"levelo://app?vid=90967822-0d01-4979-ab6f-bdd1bbae9452","ios":"levelo://app?vid=90967822-0d01-4979-ab6f-bdd1bbae9452"},"vehicle_type_id":"4","last_reported":1712190915,"current_range_meters":27600,"station_id":"ce4bhr12rcd13ifvqhpg","pricing_plan_id":"cebpf4jnsgd1na2vs0mg"},{"bike_id":"6ac89c9e-1e52-454f-9f61-b0b76c32f38f","system_id":"levelo_inurba_marseille","lat":43.313571,"lon":5.384829,"is_reserved":false,"is_disabled":false,"rental_uris":{"android":"levelo://app?vid=6ac89c9e-1e52-454f-9f61-b0b76c32f38f","ios":"levelo://app?vid=6ac89c9e-1e52-454f-9f61-b0b76c32f38f"},"vehicle_type_id":"4","last_reported":1712190915,"current_range_meters":16000,"station_id":"ce4bgt92rcd13ifvqcf0","pricing_plan_id":"cebpf4jnsgd1na2vs0mg"},{"bike_id":"45adb42a-bb4e-44f2-8f0d-f0fba3c28505","system_id":"levelo_inurba_marseille","lat":43.313571,"lon":5.384829,"is_reserved":false,"is_disabled":false,"rental_uris":{"android":"levelo://app?vid=45adb42a-bb4e-44f2-8f0d-f0fba3c28505","ios":"levelo://app?vid=45adb42a-bb4e-44f2-8f0d-f0fba3c28505"},"vehicle_type_id":"4","last_reported":1712190915,"current_range_meters":3200,"station_id":"ce4bgt92rcd13ifvqcf0","pricing_plan_id":"cebpf4jnsgd1na2vs0mg"},{"bike_id":"18a8da03-9141-4a18-be7a-a60c99ebea1f","system_id":"levelo_inurba_marseille","lat":43.313571,"lon":5.384829,"is_reserved":false,"is_disabled":false,"rental_uris":{"android":"levelo://app?vid=18a8da03-9141-4a18-be7a-a60c99ebea1f","ios":"levelo://app?vid=18a8da03-9141-4a18-be7a-a60c99ebea1f"},"vehicle_type_id":"4","last_reported":1712190915,"current_range_meters":23200,"station_id":"ce4bgt92rcd13ifvqcf0","pricing_plan_id":"cebpf4jnsgd1na2vs0mg"},{"bike_id":"07cfe85a-5bef-49b9-863f-ef46b9020a92","system_id":"levelo_inurba_marseille","lat":43.313571,"lon":5.384829,"is_reserved":false,"is_disabled":false,"rental_uris":{"android":"levelo://app?vid=07cfe85a-5bef-49b9-863f-ef46b9020a92","ios":"levelo://app?vid=07cfe85a-5bef-49b9-863f-ef46b9020a92"},"vehicle_type_id":"4","last_reported":1712190915,"current_range_meters":20000,"station_id":"ce4bgt92rcd13ifvqcf0","pricing_plan_id":"cebpf4jnsgd1na2vs0mg"},{"bike_id":"de963c5d-2c31-409e-b9fd-7dda7c7aa02e","system_id":"levelo_inurba_marseille","lat":43.313571,"lon":5.384829,"is_reserved":false,"is_disabled":false,"rental_uris":{"android":"levelo://app?vid=de963c5d-2c31-409e-b9fd-7dda7c7aa02e","ios":"levelo://app?vid=de963c5d-2c31-409e-b9fd-7dda7c7aa02e"},"vehicle_type_id":"4","last_reported":1712190915,"current_range_meters":31600,"station_id":"ce4bgt92rcd13ifvqcf0","pricing_plan_id":"cebpf4jnsgd1na2vs0mg"},{"bike_id":"6409ea95-9f9c-46d2-a819-9c4a950bf3a1","system_id":"levelo_inurba_marseille","lat":43.313571,"lon":5.384829,"is_reserved":false,"is_disabled":false,"rental_uris":{"android":"levelo://app?vid=6409ea95-9f9c-46d2-a819-9c4a950bf3a1","ios":"levelo://app?vid=6409ea95-9f9c-46d2-a819-9c4a950bf3a1"},"vehicle_type_id":"4","last_reported":1712190915,"current_range_meters":31200,"station_id":"ce4bgt92rcd13ifvqcf0","pricing_plan_id":"cebpf4jnsgd1na2vs0mg"},{"bike_id":"cecc5ebd-c639-4cee-af01-b38a93dafeaa","system_id":"levelo_inurba_marseille","lat":43.313571,"lon":5.384829,"is_reserved":false,"is_disabled":false,"rental_uris":{"android":"levelo://app?vid=cecc5ebd-c639-4cee-af01-b38a93dafeaa","ios":"levelo://app?vid=cecc5ebd-c639-4cee-af01-b38a93dafeaa"},"vehicle_type_id":"4","last_reported":1712190915,"current_range_meters":17200,"station_id":"ce4bgt92rcd13ifvqcf0","pricing_plan_id":"cebpf4jnsgd1na2vs0mg"},{"bike_id":"e89ad0d0-46d9-4e96-8f21-1d13905d1f32","system_id":"levelo_inurba_marseille","lat":43.30217,"lon":5.37994,"is_reserved":false,"is_disabled":false,"rental_uris":{"android":"levelo://app?vid=e89ad0d0-46d9-4e96-8f21-1d13905d1f32","ios":"levelo://app?vid=e89ad0d0-46d9-4e96-8f21-1d13905d1f32"},"vehicle_type_id":"4","last_reported":1712190915,"current_range_meters":4000,"station_id":"","pricing_plan_id":"cebpf4jnsgd1na2vs0mg"},{"bike_id":"78cb2be7-cb48-48c2-817b-ba2e1ceaef1a","system_id":"levelo_inurba_marseille","lat":43.305364,"lon":5.384119,"is_reserved":false,"is_disabled":false,"rental_uris":{"android":"levelo://app?vid=78cb2be7-cb48-48c2-817b-ba2e1ceaef1a","ios":"levelo://app?vid=78cb2be7-cb48-48c2-817b-ba2e1ceaef1a"},"vehicle_type_id":"4","last_reported":1712190915,"current_range_meters":31200,"station_id":"ce4bgg92rcd13ifvqb30","pricing_plan_id":"cebpf4jnsgd1na2vs0mg"},{"bike_id":"0ba8e8e1-7b41-46c7-aa98-e1c45282191b","system_id":"levelo_inurba_marseille","lat":43.305364,"lon":5.384119,"is_reserved":false,"is_disabled":false,"rental_uris":{"android":"levelo://app?vid=0ba8e8e1-7b41-46c7-aa98-e1c45282191b","ios":"levelo://app?vid=0ba8e8e1-7b41-46c7-aa98-e1c45282191b"},"vehicle_type_id":"4","last_reported":1712190915,"current_range_meters":4400,"station_id":"ce4bgg92rcd13ifvqb30","pricing_plan_id":"cebpf4jnsgd1na2vs0mg"},{"bike_id":"c8ccaef9-cde6-4df4-af78-08b726764177","system_id":"levelo_inurba_marseille","lat":43.305364,"lon":5.384119,"is_reserved":false,"is_disabled":false,"rental_uris":{"android":"levelo://app?vid=c8ccaef9-cde6-4df4-af78-08b726764177","ios":"levelo://app?vid=c8ccaef9-cde6-4df4-af78-08b726764177"},"vehicle_type_id":"4","last_reported":1712190915,"current_range_meters":28000,"station_id":"ce4bgg92rcd13ifvqb30","pricing_plan_id":"cebpf4jnsgd1na2vs0mg"},{"bike_id":"7526310b-cb0a-4fa4-9c54-00d7f9ea408e","system_id":"levelo_inurba_marseille","lat":43.305364,"lon":5.384119,"is_reserved":false,"is_disabled":false,"rental_uris":{"android":"levelo://app?vid=7526310b-cb0a-4fa4-9c54-00d7f9ea408e","ios":"levelo://app?vid=7526310b-cb0a-4fa4-9c54-00d7f9ea408e"},"vehicle_type_id":"4","last_reported":1712190915,"current_range_meters":20400,"station_id":"ce4bgg92rcd13ifvqb30","pricing_plan_id":"cebpf4jnsgd1na2vs0mg"},{"bike_id":"fc58fa31-bc39-4092-813b-ed1b0cc43295","system_id":"levelo_inurba_marseille","lat":43.311722,"lon":5.387247,"is_reserved":false,"is_disabled":false,"rental_uris":{"android":"levelo://app?vid=fc58fa31-bc39-4092-813b-ed1b0cc43295","ios":"levelo://app?vid=fc58fa31-bc39-4092-813b-ed1b0cc43295"},"vehicle_type_id":"4","last_reported":1712190915,"current_range_meters":400,"station_id":"ce4bgv12rcd13ifvqcp0","pricing_plan_id":"cebpf4jnsgd1na2vs0mg"},{"bike_id":"04b78a87-7f42-4bcd-a126-d20686680193","system_id":"levelo_inurba_marseille","lat":43.305364,"lon":5.384119,"is_reserved":false,"is_disabled":false,"rental_uris":{"android":"levelo://app?vid=04b78a87-7f42-4bcd-a126-d20686680193","ios":"levelo://app?vid=04b78a87-7f42-4bcd-a126-d20686680193"},"vehicle_type_id":"4","last_reported":1712190915,"current_range_meters":30000,"station_id":"ce4bgg92rcd13ifvqb30","pricing_plan_id":"cebpf4jnsgd1na2vs0mg"},{"bike_id":"6a8f73d0-cbb0-41d0-bd55-242667a261ee","system_id":"levelo_inurba_marseille","lat":43.311722,"lon":5.387247,"is_reserved":false,"is_disabled":false,"rental_uris":{"android":"levelo://app?vid=6a8f73d0-cbb0-41d0-bd55-242667a261ee","ios":"levelo://app?vid=6a8f73d0-cbb0-41d0-bd55-242667a261ee"},"vehicle_type_id":"4","last_reported":1712190915,"current_range_meters":29200,"station_id":"ce4bgv12rcd13ifvqcp0","pricing_plan_id":"cebpf4jnsgd1na2vs0mg"},{"bike_id":"1362e202-3874-489c-ada4-a914021b6581","system_id":"levelo_inurba_marseille","lat":43.311722,"lon":5.387247,"is_reserved":false,"is_disabled":false,"rental_uris":{"android":"levelo://app?vid=1362e202-3874-489c-ada4-a914021b6581","ios":"levelo://app?vid=1362e202-3874-489c-ada4-a914021b6581"},"vehicle_type_id":"4","last_reported":1712190915,"current_range_meters":14800,"station_id":"ce4bgv12rcd13ifvqcp0","pricing_plan_id":"cebpf4jnsgd1na2vs0mg"},{"bike_id":"7830a603-8632-4ee8-bdb2-e5e8e3d09e70","system_id":"levelo_inurba_marseille","lat":43.299243,"lon":5.37481,"is_reserved":false,"is_disabled":false,"rental_uris":{"android":"levelo://app?vid=7830a603-8632-4ee8-bdb2-e5e8e3d09e70","ios":"levelo://app?vid=7830a603-8632-4ee8-bdb2-e5e8e3d09e70"},"vehicle_type_id":"4","last_reported":1712190915,"current_range_meters":20400,"station_id":"ce4bgjh2rcd13ifvqbg0","pricing_plan_id":"cebpf4jnsgd1na2vs0mg"},{"bike_id":"ada9d0e8-3e21-4aa2-a30f-00a1b979bca8","system_id":"levelo_inurba_marseille","lat":43.311722,"lon":5.387247,"is_reserved":false,"is_disabled":false,"rental_uris":{"android":"levelo://app?vid=ada9d0e8-3e21-4aa2-a30f-00a1b979bca8","ios":"levelo://app?vid=ada9d0e8-3e21-4aa2-a30f-00a1b979bca8"},"vehicle_type_id":"4","last_reported":1712190915,"current_range_meters":14800,"station_id":"ce4bgv12rcd13ifvqcp0","pricing_plan_id":"cebpf4jnsgd1na2vs0mg"},{"bike_id":"133cb3c3-b59e-468f-8153-f6133bfdbc86","system_id":"levelo_inurba_marseille","lat":43.299243,"lon":5.37481,"is_reserved":false,"is_disabled":false,"rental_uris":{"android":"levelo://app?vid=133cb3c3-b59e-468f-8153-f6133bfdbc86","ios":"levelo://app?vid=133cb3c3-b59e-468f-8153-f6133bfdbc86"},"vehicle_type_id":"4","last_reported":1712190915,"current_range_meters":22800,"station_id":"ce4bgjh2rcd13ifvqbg0","pricing_plan_id":"cebpf4jnsgd1na2vs0mg"},{"bike_id":"10bacab6-3e6f-4a2f-aa35-98022617efc3","system_id":"levelo_inurba_marseille","lat":43.311722,"lon":5.387247,"is_reserved":false,"is_disabled":false,"rental_uris":{"android":"levelo://app?vid=10bacab6-3e6f-4a2f-aa35-98022617efc3","ios":"levelo://app?vid=10bacab6-3e6f-4a2f-aa35-98022617efc3"},"vehicle_type_id":"4","last_reported":1712190915,"current_range_meters":26000,"station_id":"ce4bgv12rcd13ifvqcp0","pricing_plan_id":"cebpf4jnsgd1na2vs0mg"},{"bike_id":"567fa8ff-08a5-464d-a19b-1114cefa9e78","system_id":"levelo_inurba_marseille","lat":43.311722,"lon":5.387247,"is_reserved":false,"is_disabled":false,"rental_uris":{"android":"levelo://app?vid=567fa8ff-08a5-464d-a19b-1114cefa9e78","ios":"levelo://app?vid=567fa8ff-08a5-464d-a19b-1114cefa9e78"},"vehicle_type_id":"4","last_reported":1712190915,"current_range_meters":20800,"station_id":"ce4bgv12rcd13ifvqcp0","pricing_plan_id":"cebpf4jnsgd1na2vs0mg"},{"bike_id":"de5c8671-15a6-49d3-af24-8aef8d594be2","system_id":"levelo_inurba_marseille","lat":43.311722,"lon":5.387247,"is_reserved":false,"is_disabled":false,"rental_uris":{"android":"levelo://app?vid=de5c8671-15a6-49d3-af24-8aef8d594be2","ios":"levelo://app?vid=de5c8671-15a6-49d3-af24-8aef8d594be2"},"vehicle_type_id":"4","last_reported":1712190915,"current_range_meters":8800,"station_id":"ce4bgv12rcd13ifvqcp0","pricing_plan_id":"cebpf4jnsgd1na2vs0mg"},{"bike_id":"3923e1c7-3c3f-491d-b26f-67d553e40b0a","system_id":"levelo_inurba_marseille","lat":43.311722,"lon":5.387247,"is_reserved":false,"is_disabled":false,"rental_uris":{"android":"levelo://app?vid=3923e1c7-3c3f-491d-b26f-67d553e40b0a","ios":"levelo://app?vid=3923e1c7-3c3f-491d-b26f-67d553e40b0a"},"vehicle_type_id":"4","last_reported":1712190915,"current_range_meters":18800,"station_id":"ce4bgv12rcd13ifvqcp0","pricing_plan_id":"cebpf4jnsgd1na2vs0mg"},{"bike_id":"40b3c262-bfed-4140-a1b0-42d1f554176a","system_id":"levelo_inurba_marseille","lat":43.311722,"lon":5.387247,"is_reserved":false,"is_disabled":false,"rental_uris":{"android":"levelo://app?vid=40b3c262-bfed-4140-a1b0-42d1f554176a","ios":"levelo://app?vid=40b3c262-bfed-4140-a1b0-42d1f554176a"},"vehicle_type_id":"4","last_reported":1712190915,"current_range_meters":26800,"station_id":"ce4bgv12rcd13ifvqcp0","pricing_plan_id":"cebpf4jnsgd1na2vs0mg"},{"bike_id":"d4e1b1aa-0b52-4dfa-93ed-7ae48d30895c","system_id":"levelo_inurba_marseille","lat":43.311722,"lon":5.387247,"is_reserved":false,"is_disabled":false,"rental_uris":{"android":"levelo://app?vid=d4e1b1aa-0b52-4dfa-93ed-7ae48d30895c","ios":"levelo://app?vid=d4e1b1aa-0b52-4dfa-93ed-7ae48d30895c"},"vehicle_type_id":"4","last_reported":1712190915,"current_range_meters":17200,"station_id":"ce4bgv12rcd13ifvqcp0","pricing_plan_id":"cebpf4jnsgd1na2vs0mg"},{"bike_id":"8de742a3-eea7-44be-9577-6666dd782e25","system_id":"levelo_inurba_marseille","lat":43.31164,"lon":5.38725,"is_reserved":false,"is_disabled":false,"rental_uris":{"android":"levelo://app?vid=8de742a3-eea7-44be-9577-6666dd782e25","ios":"levelo://app?vid=8de742a3-eea7-44be-9577-6666dd782e25"},"vehicle_type_id":"4","last_reported":1712190915,"current_range_meters":0,"station_id":"ce4bgv12rcd13ifvqcp0","pricing_plan_id":"cebpf4jnsgd1na2vs0mg"},{"bike_id":"5230f004-e562-42c1-bf22-6f9980d4eabe","system_id":"levelo_inurba_marseille","lat":43.297794,"lon":5.370888,"is_reserved":false,"is_disabled":false,"rental_uris":{"android":"levelo://app?vid=5230f004-e562-42c1-bf22-6f9980d4eabe","ios":"levelo://app?vid=5230f004-e562-42c1-bf22-6f9980d4eabe"},"vehicle_type_id":"4","last_reported":1712190915,"current_range_meters":21600,"station_id":"ce4bgop2rcd13ifvqc1g","pricing_plan_id":"cebpf4jnsgd1na2vs0mg"},{"bike_id":"f1d989b5-8270-4306-811a-2c738413abab","system_id":"levelo_inurba_marseille","lat":43.322872,"lon":5.382756,"is_reserved":false,"is_disabled":false,"rental_uris":{"android":"levelo://app?vid=f1d989b5-8270-4306-811a-2c738413abab","ios":"levelo://app?vid=f1d989b5-8270-4306-811a-2c738413abab"},"vehicle_type_id":"4","last_reported":1712190915,"current_range_meters":2400,"station_id":"ce4bhr12rcd13ifvqhqg","pricing_plan_id":"cebpf4jnsgd1na2vs0mg"},{"bike_id":"af91ee66-ebec-4e5f-b566-646a8b5863b7","system_id":"levelo_inurba_marseille","lat":43.322872,"lon":5.382756,"is_reserved":false,"is_disabled":false,"rental_uris":{"android":"levelo://app?vid=af91ee66-ebec-4e5f-b566-646a8b5863b7","ios":"levelo://app?vid=af91ee66-ebec-4e5f-b566-646a8b5863b7"},"vehicle_type_id":"4","last_reported":1712190915,"current_range_meters":11200,"station_id":"ce4bhr12rcd13ifvqhqg","pricing_plan_id":"cebpf4jnsgd1na2vs0mg"},{"bike_id":"353ac126-27b4-449b-8dd4-072aa441f091","system_id":"levelo_inurba_marseille","lat":43.32294,"lon":5.38249,"is_reserved":false,"is_disabled":false,"rental_uris":{"android":"levelo://app?vid=353ac126-27b4-449b-8dd4-072aa441f091","ios":"levelo://app?vid=353ac126-27b4-449b-8dd4-072aa441f091"},"vehicle_type_id":"4","last_reported":1712190915,"current_range_meters":1200,"station_id":"ce4bhr12rcd13ifvqhqg","pricing_plan_id":"cebpf4jnsgd1na2vs0mg"},{"bike_id":"5df532e5-5c86-4a98-8bde-e41b6075a0fa","system_id":"levelo_inurba_marseille","lat":43.322872,"lon":5.382756,"is_reserved":false,"is_disabled":false,"rental_uris":{"android":"levelo://app?vid=5df532e5-5c86-4a98-8bde-e41b6075a0fa","ios":"levelo://app?vid=5df532e5-5c86-4a98-8bde-e41b6075a0fa"},"vehicle_type_id":"4","last_reported":1712190915,"current_range_meters":16000,"station_id":"ce4bhr12rcd13ifvqhqg","pricing_plan_id":"cebpf4jnsgd1na2vs0mg"},{"bike_id":"26923e7a-1cda-4606-bad0-5144049af557","system_id":"levelo_inurba_marseille","lat":43.322898,"lon":5.382589,"is_reserved":false,"is_disabled":false,"rental_uris":{"android":"levelo://app?vid=26923e7a-1cda-4606-bad0-5144049af557","ios":"levelo://app?vid=26923e7a-1cda-4606-bad0-5144049af557"},"vehicle_type_id":"4","last_reported":1712190915,"current_range_meters":25200,"station_id":"ce4bhr12rcd13ifvqhqg","pricing_plan_id":"cebpf4jnsgd1na2vs0mg"},{"bike_id":"5ed1088d-e0ad-4614-a220-0449cb3d1e58","system_id":"levelo_inurba_marseille","lat":43.322872,"lon":5.382756,"is_reserved":false,"is_disabled":false,"rental_uris":{"android":"levelo://app?vid=5ed1088d-e0ad-4614-a220-0449cb3d1e58","ios":"levelo://app?vid=5ed1088d-e0ad-4614-a220-0449cb3d1e58"},"vehicle_type_id":"4","last_reported":1712190915,"current_range_meters":1600,"station_id":"ce4bhr12rcd13ifvqhqg","pricing_plan_id":"cebpf4jnsgd1na2vs0mg"},{"bike_id":"8c3dad49-2614-4d9b-bd1e-1d381af501e9","system_id":"levelo_inurba_marseille","lat":43.322872,"lon":5.382756,"is_reserved":false,"is_disabled":false,"rental_uris":{"android":"levelo://app?vid=8c3dad49-2614-4d9b-bd1e-1d381af501e9","ios":"levelo://app?vid=8c3dad49-2614-4d9b-bd1e-1d381af501e9"},"vehicle_type_id":"4","last_reported":1712190915,"current_range_meters":24800,"station_id":"ce4bhr12rcd13ifvqhqg","pricing_plan_id":"cebpf4jnsgd1na2vs0mg"},{"bike_id":"6db4ba56-cdbd-44f6-826d-1abf96302385","system_id":"levelo_inurba_marseille","lat":43.322872,"lon":5.382756,"is_reserved":false,"is_disabled":false,"rental_uris":{"android":"levelo://app?vid=6db4ba56-cdbd-44f6-826d-1abf96302385","ios":"levelo://app?vid=6db4ba56-cdbd-44f6-826d-1abf96302385"},"vehicle_type_id":"4","last_reported":1712190915,"current_range_meters":31200,"station_id":"ce4bhr12rcd13ifvqhqg","pricing_plan_id":"cebpf4jnsgd1na2vs0mg"},{"bike_id":"ad5892f1-7aee-4043-a23c-6d5b583ff170","system_id":"levelo_inurba_marseille","lat":43.29716,"lon":5.36618,"is_reserved":false,"is_disabled":false,"rental_uris":{"android":"levelo://app?vid=ad5892f1-7aee-4043-a23c-6d5b583ff170","ios":"levelo://app?vid=ad5892f1-7aee-4043-a23c-6d5b583ff170"},"vehicle_type_id":"4","last_reported":1712190915,"current_range_meters":0,"station_id":"ce4bgn12rcd13ifvqbt0","pricing_plan_id":"cebpf4jnsgd1na2vs0mg"},{"bike_id":"c1b59c63-0093-488d-9df6-30e7baeaec82","system_id":"levelo_inurba_marseille","lat":43.297163,"lon":5.365866,"is_reserved":false,"is_disabled":false,"rental_uris":{"android":"levelo://app?vid=c1b59c63-0093-488d-9df6-30e7baeaec82","ios":"levelo://app?vid=c1b59c63-0093-488d-9df6-30e7baeaec82"},"vehicle_type_id":"4","last_reported":1712190915,"current_range_meters":9200,"station_id":"ce4bgn12rcd13ifvqbt0","pricing_plan_id":"cebpf4jnsgd1na2vs0mg"},{"bike_id":"b866b85c-6fb6-4305-908d-86267afd5dfd","system_id":"levelo_inurba_marseille","lat":43.297163,"lon":5.365866,"is_reserved":false,"is_disabled":false,"rental_uris":{"android":"levelo://app?vid=b866b85c-6fb6-4305-908d-86267afd5dfd","ios":"levelo://app?vid=b866b85c-6fb6-4305-908d-86267afd5dfd"},"vehicle_type_id":"4","last_reported":1712190915,"current_range_meters":22400,"station_id":"ce4bgn12rcd13ifvqbt0","pricing_plan_id":"cebpf4jnsgd1na2vs0mg"},{"bike_id":"c46411bc-aa1e-4588-9da5-00dd76cc35a6","system_id":"levelo_inurba_marseille","lat":43.329194,"lon":5.367026,"is_reserved":false,"is_disabled":false,"rental_uris":{"android":"levelo://app?vid=c46411bc-aa1e-4588-9da5-00dd76cc35a6","ios":"levelo://app?vid=c46411bc-aa1e-4588-9da5-00dd76cc35a6"},"vehicle_type_id":"4","last_reported":1712190915,"current_range_meters":0,"station_id":"","pricing_plan_id":"cebpf4jnsgd1na2vs0mg"},{"bike_id":"11b8b2b5-3d59-4dd0-b67d-26a6fa605fdd","system_id":"levelo_inurba_marseille","lat":43.29623,"lon":5.37172,"is_reserved":false,"is_disabled":false,"rental_uris":{"android":"levelo://app?vid=11b8b2b5-3d59-4dd0-b67d-26a6fa605fdd","ios":"levelo://app?vid=11b8b2b5-3d59-4dd0-b67d-26a6fa605fdd"},"vehicle_type_id":"4","last_reported":1712190915,"current_range_meters":14800,"station_id":"ce4bgnh2rcd13ifvqc0g","pricing_plan_id":"cebpf4jnsgd1na2vs0mg"},{"bike_id":"db50fe06-a5ca-43ba-ac36-e091eeddaa3c","system_id":"levelo_inurba_marseille","lat":43.296921,"lon":5.376579,"is_reserved":false,"is_disabled":false,"rental_uris":{"android":"levelo://app?vid=db50fe06-a5ca-43ba-ac36-e091eeddaa3c","ios":"levelo://app?vid=db50fe06-a5ca-43ba-ac36-e091eeddaa3c"},"vehicle_type_id":"4","last_reported":1712190915,"current_range_meters":10000,"station_id":"ce4bgkh2rcd13ifvqbl0","pricing_plan_id":"cebpf4jnsgd1na2vs0mg"},{"bike_id":"4277bb41-1538-44b0-93b6-8e9d1a9b1fe8","system_id":"levelo_inurba_marseille","lat":43.309589,"lon":5.390258,"is_reserved":false,"is_disabled":false,"rental_uris":{"android":"levelo://app?vid=4277bb41-1538-44b0-93b6-8e9d1a9b1fe8","ios":"levelo://app?vid=4277bb41-1538-44b0-93b6-8e9d1a9b1fe8"},"vehicle_type_id":"4","last_reported":1712190915,"current_range_meters":28000,"station_id":"ce4bgup2rcd13ifvqco0","pricing_plan_id":"cebpf4jnsgd1na2vs0mg"},{"bike_id":"337a2aed-b3d4-4726-a35e-ae638adf0979","system_id":"levelo_inurba_marseille","lat":43.309589,"lon":5.390258,"is_reserved":false,"is_disabled":false,"rental_uris":{"android":"levelo://app?vid=337a2aed-b3d4-4726-a35e-ae638adf0979","ios":"levelo://app?vid=337a2aed-b3d4-4726-a35e-ae638adf0979"},"vehicle_type_id":"4","last_reported":1712190915,"current_range_meters":20800,"station_id":"ce4bgup2rcd13ifvqco0","pricing_plan_id":"cebpf4jnsgd1na2vs0mg"},{"bike_id":"e1eb789e-e9ee-435f-9a0e-acd1f5fba0ea","system_id":"levelo_inurba_marseille","lat":43.309589,"lon":5.390258,"is_reserved":false,"is_disabled":false,"rental_uris":{"android":"levelo://app?vid=e1eb789e-e9ee-435f-9a0e-acd1f5fba0ea","ios":"levelo://app?vid=e1eb789e-e9ee-435f-9a0e-acd1f5fba0ea"},"vehicle_type_id":"4","last_reported":1712190915,"current_range_meters":19600,"station_id":"ce4bgup2rcd13ifvqco0","pricing_plan_id":"cebpf4jnsgd1na2vs0mg"},{"bike_id":"e2d68563-f3ef-4a79-8bea-4a47bf42f4fb","system_id":"levelo_inurba_marseille","lat":43.309589,"lon":5.390258,"is_reserved":false,"is_disabled":false,"rental_uris":{"android":"levelo://app?vid=e2d68563-f3ef-4a79-8bea-4a47bf42f4fb","ios":"levelo://app?vid=e2d68563-f3ef-4a79-8bea-4a47bf42f4fb"},"vehicle_type_id":"4","last_reported":1712190915,"current_range_meters":30800,"station_id":"ce4bgup2rcd13ifvqco0","pricing_plan_id":"cebpf4jnsgd1na2vs0mg"},{"bike_id":"7c599bbb-e1e3-46f2-8293-3261a453d88a","system_id":"levelo_inurba_marseille","lat":43.31744,"lon":5.39008,"is_reserved":false,"is_disabled":false,"rental_uris":{"android":"levelo://app?vid=7c599bbb-e1e3-46f2-8293-3261a453d88a","ios":"levelo://app?vid=7c599bbb-e1e3-46f2-8293-3261a453d88a"},"vehicle_type_id":"4","last_reported":1712190915,"current_range_meters":0,"station_id":"ce4bhqp2rcd13ifvqhng","pricing_plan_id":"cebpf4jnsgd1na2vs0mg"},{"bike_id":"311c5eec-aa43-4974-87bd-f8d13047b375","system_id":"levelo_inurba_marseille","lat":43.317567,"lon":5.390063,"is_reserved":false,"is_disabled":false,"rental_uris":{"android":"levelo://app?vid=311c5eec-aa43-4974-87bd-f8d13047b375","ios":"levelo://app?vid=311c5eec-aa43-4974-87bd-f8d13047b375"},"vehicle_type_id":"4","last_reported":1712190915,"current_range_meters":4800,"station_id":"ce4bhqp2rcd13ifvqhng","pricing_plan_id":"cebpf4jnsgd1na2vs0mg"},{"bike_id":"be07fa20-5c73-4a00-a0e3-6cc00e4f0353","system_id":"levelo_inurba_marseille","lat":43.317557,"lon":5.390173,"is_reserved":false,"is_disabled":false,"rental_uris":{"android":"levelo://app?vid=be07fa20-5c73-4a00-a0e3-6cc00e4f0353","ios":"levelo://app?vid=be07fa20-5c73-4a00-a0e3-6cc00e4f0353"},"vehicle_type_id":"4","last_reported":1712190915,"current_range_meters":27200,"station_id":"ce4bhqp2rcd13ifvqhng","pricing_plan_id":"cebpf4jnsgd1na2vs0mg"},{"bike_id":"becc5fdb-f394-407d-8288-ada7f55f08be","system_id":"levelo_inurba_marseille","lat":43.317557,"lon":5.390173,"is_reserved":false,"is_disabled":false,"rental_uris":{"android":"levelo://app?vid=becc5fdb-f394-407d-8288-ada7f55f08be","ios":"levelo://app?vid=becc5fdb-f394-407d-8288-ada7f55f08be"},"vehicle_type_id":"4","last_reported":1712190915,"current_range_meters":30400,"station_id":"ce4bhqp2rcd13ifvqhng","pricing_plan_id":"cebpf4jnsgd1na2vs0mg"},{"bike_id":"ed99a507-62bd-48aa-9aa8-944dc947832c","system_id":"levelo_inurba_marseille","lat":43.317557,"lon":5.390173,"is_reserved":false,"is_disabled":false,"rental_uris":{"android":"levelo://app?vid=ed99a507-62bd-48aa-9aa8-944dc947832c","ios":"levelo://app?vid=ed99a507-62bd-48aa-9aa8-944dc947832c"},"vehicle_type_id":"4","last_reported":1712190915,"current_range_meters":28000,"station_id":"ce4bhqp2rcd13ifvqhng","pricing_plan_id":"cebpf4jnsgd1na2vs0mg"},{"bike_id":"3228d70c-51fa-4d00-8009-806004829f4a","system_id":"levelo_inurba_marseille","lat":43.317557,"lon":5.390173,"is_reserved":false,"is_disabled":false,"rental_uris":{"android":"levelo://app?vid=3228d70c-51fa-4d00-8009-806004829f4a","ios":"levelo://app?vid=3228d70c-51fa-4d00-8009-806004829f4a"},"vehicle_type_id":"4","last_reported":1712190915,"current_range_meters":26000,"station_id":"ce4bhqp2rcd13ifvqhng","pricing_plan_id":"cebpf4jnsgd1na2vs0mg"},{"bike_id":"7855d0d3-1a54-44a8-9c01-a1a001df0966","system_id":"levelo_inurba_marseille","lat":43.317557,"lon":5.390173,"is_reserved":false,"is_disabled":false,"rental_uris":{"android":"levelo://app?vid=7855d0d3-1a54-44a8-9c01-a1a001df0966","ios":"levelo://app?vid=7855d0d3-1a54-44a8-9c01-a1a001df0966"},"vehicle_type_id":"4","last_reported":1712190915,"current_range_meters":21200,"station_id":"ce4bhqp2rcd13ifvqhng","pricing_plan_id":"cebpf4jnsgd1na2vs0mg"},{"bike_id":"65007f04-8707-4d7b-a2eb-97118f58ea02","system_id":"levelo_inurba_marseille","lat":43.317541,"lon":5.390251,"is_reserved":false,"is_disabled":false,"rental_uris":{"android":"levelo://app?vid=65007f04-8707-4d7b-a2eb-97118f58ea02","ios":"levelo://app?vid=65007f04-8707-4d7b-a2eb-97118f58ea02"},"vehicle_type_id":"4","last_reported":1712190915,"current_range_meters":0,"station_id":"ce4bhqp2rcd13ifvqhng","pricing_plan_id":"cebpf4jnsgd1na2vs0mg"},{"bike_id":"666a8de6-8496-463c-a682-4e2edc028311","system_id":"levelo_inurba_marseille","lat":43.29591,"lon":5.374359,"is_reserved":false,"is_disabled":false,"rental_uris":{"android":"levelo://app?vid=666a8de6-8496-463c-a682-4e2edc028311","ios":"levelo://app?vid=666a8de6-8496-463c-a682-4e2edc028311"},"vehicle_type_id":"4","last_reported":1712190915,"current_range_meters":800,"station_id":"","pricing_plan_id":"cebpf4jnsgd1na2vs0mg"},{"bike_id":"5e4e2e34-df67-41bd-bd99-2324fbd603fb","system_id":"levelo_inurba_marseille","lat":43.298037,"lon":5.381066,"is_reserved":false,"is_disabled":false,"rental_uris":{"android":"levelo://app?vid=5e4e2e34-df67-41bd-bd99-2324fbd603fb","ios":"levelo://app?vid=5e4e2e34-df67-41bd-bd99-2324fbd603fb"},"vehicle_type_id":"4","last_reported":1712190915,"current_range_meters":6000,"station_id":"ce4bgip2rcd13ifvqbb0","pricing_plan_id":"cebpf4jnsgd1na2vs0mg"},{"bike_id":"34b4e4bc-1e34-4369-9425-18f5773fbb5a","system_id":"levelo_inurba_marseille","lat":43.304274,"lon":5.388873,"is_reserved":false,"is_disabled":false,"rental_uris":{"android":"levelo://app?vid=34b4e4bc-1e34-4369-9425-18f5773fbb5a","ios":"levelo://app?vid=34b4e4bc-1e34-4369-9425-18f5773fbb5a"},"vehicle_type_id":"4","last_reported":1712190915,"current_range_meters":13200,"station_id":"ce4bgk12rcd13ifvqbi0","pricing_plan_id":"cebpf4jnsgd1na2vs0mg"},{"bike_id":"f04343be-8708-43f0-ae89-951faef58641","system_id":"levelo_inurba_marseille","lat":43.29545,"lon":5.37376,"is_reserved":false,"is_disabled":false,"rental_uris":{"android":"levelo://app?vid=f04343be-8708-43f0-ae89-951faef58641","ios":"levelo://app?vid=f04343be-8708-43f0-ae89-951faef58641"},"vehicle_type_id":"4","last_reported":1712190915,"current_range_meters":17600,"station_id":"","pricing_plan_id":"cebpf4jnsgd1na2vs0mg"},{"bike_id":"acfaec8e-6943-4022-a435-d21459d2a81c","system_id":"levelo_inurba_marseille","lat":43.304278,"lon":5.388868,"is_reserved":false,"is_disabled":false,"rental_uris":{"android":"levelo://app?vid=acfaec8e-6943-4022-a435-d21459d2a81c","ios":"levelo://app?vid=acfaec8e-6943-4022-a435-d21459d2a81c"},"vehicle_type_id":"4","last_reported":1712190915,"current_range_meters":30800,"station_id":"ce4bgk12rcd13ifvqbi0","pricing_plan_id":"cebpf4jnsgd1na2vs0mg"},{"bike_id":"2b526056-33bf-4e9d-8649-9cfc54359ad6","system_id":"levelo_inurba_marseille","lat":43.304278,"lon":5.388868,"is_reserved":false,"is_disabled":false,"rental_uris":{"android":"levelo://app?vid=2b526056-33bf-4e9d-8649-9cfc54359ad6","ios":"levelo://app?vid=2b526056-33bf-4e9d-8649-9cfc54359ad6"},"vehicle_type_id":"4","last_reported":1712190915,"current_range_meters":30400,"station_id":"ce4bgk12rcd13ifvqbi0","pricing_plan_id":"cebpf4jnsgd1na2vs0mg"},{"bike_id":"4fb258be-747e-414b-a945-6c74181f9ab3","system_id":"levelo_inurba_marseille","lat":43.298037,"lon":5.381066,"is_reserved":false,"is_disabled":false,"rental_uris":{"android":"levelo://app?vid=4fb258be-747e-414b-a945-6c74181f9ab3","ios":"levelo://app?vid=4fb258be-747e-414b-a945-6c74181f9ab3"},"vehicle_type_id":"4","last_reported":1712190915,"current_range_meters":23200,"station_id":"ce4bgip2rcd13ifvqbb0","pricing_plan_id":"cebpf4jnsgd1na2vs0mg"},{"bike_id":"e5a9550a-2ac4-4ca8-87ee-4f2b74baa687","system_id":"levelo_inurba_marseille","lat":43.299707,"lon":5.384859,"is_reserved":false,"is_disabled":false,"rental_uris":{"android":"levelo://app?vid=e5a9550a-2ac4-4ca8-87ee-4f2b74baa687","ios":"levelo://app?vid=e5a9550a-2ac4-4ca8-87ee-4f2b74baa687"},"vehicle_type_id":"4","last_reported":1712190915,"current_range_meters":10000,"station_id":"ce4bgj92rcd13ifvqbd0","pricing_plan_id":"cebpf4jnsgd1na2vs0mg"},{"bike_id":"3efb92b7-a61b-4c0b-8cd5-bb0deb5f6a8e","system_id":"levelo_inurba_marseille","lat":43.310785,"lon":5.424305,"is_reserved":false,"is_disabled":false,"rental_uris":{"android":"levelo://app?vid=3efb92b7-a61b-4c0b-8cd5-bb0deb5f6a8e","ios":"levelo://app?vid=3efb92b7-a61b-4c0b-8cd5-bb0deb5f6a8e"},"vehicle_type_id":"4","last_reported":1712190915,"current_range_meters":4800,"station_id":"ce4bhp92rcd13ifvqhag","pricing_plan_id":"cebpf4jnsgd1na2vs0mg"},{"bike_id":"4537ce67-f609-4746-8110-f7a4e8aab7bf","system_id":"levelo_inurba_marseille","lat":43.298037,"lon":5.381066,"is_reserved":false,"is_disabled":false,"rental_uris":{"android":"levelo://app?vid=4537ce67-f609-4746-8110-f7a4e8aab7bf","ios":"levelo://app?vid=4537ce67-f609-4746-8110-f7a4e8aab7bf"},"vehicle_type_id":"4","last_reported":1712190915,"current_range_meters":27600,"station_id":"ce4bgip2rcd13ifvqbb0","pricing_plan_id":"cebpf4jnsgd1na2vs0mg"},{"bike_id":"05331147-45a3-4d80-bcb2-40c534e042c6","system_id":"levelo_inurba_marseille","lat":43.299717,"lon":5.384845,"is_reserved":false,"is_disabled":false,"rental_uris":{"android":"levelo://app?vid=05331147-45a3-4d80-bcb2-40c534e042c6","ios":"levelo://app?vid=05331147-45a3-4d80-bcb2-40c534e042c6"},"vehicle_type_id":"4","last_reported":1712190915,"current_range_meters":22800,"station_id":"ce4bgj92rcd13ifvqbd0","pricing_plan_id":"cebpf4jnsgd1na2vs0mg"},{"bike_id":"0f6087a5-3ec0-43d6-a39c-6e7fe18c6484","system_id":"levelo_inurba_marseille","lat":43.32356,"lon":5.38874,"is_reserved":false,"is_disabled":false,"rental_uris":{"android":"levelo://app?vid=0f6087a5-3ec0-43d6-a39c-6e7fe18c6484","ios":"levelo://app?vid=0f6087a5-3ec0-43d6-a39c-6e7fe18c6484"},"vehicle_type_id":"4","last_reported":1712190915,"current_range_meters":22400,"station_id":"ce4bhqp2rcd13ifvqhog","pricing_plan_id":"cebpf4jnsgd1na2vs0mg"},{"bike_id":"a209d4b4-6b11-4a4a-b3f0-701090e2048d","system_id":"levelo_inurba_marseille","lat":43.32361,"lon":5.38871,"is_reserved":false,"is_disabled":false,"rental_uris":{"android":"levelo://app?vid=a209d4b4-6b11-4a4a-b3f0-701090e2048d","ios":"levelo://app?vid=a209d4b4-6b11-4a4a-b3f0-701090e2048d"},"vehicle_type_id":"4","last_reported":1712190915,"current_range_meters":8800,"station_id":"ce4bhqp2rcd13ifvqhog","pricing_plan_id":"cebpf4jnsgd1na2vs0mg"},{"bike_id":"447cdbdf-122f-4f34-8d9b-b8444b9fa95f","system_id":"levelo_inurba_marseille","lat":43.32359,"lon":5.38873,"is_reserved":false,"is_disabled":false,"rental_uris":{"android":"levelo://app?vid=447cdbdf-122f-4f34-8d9b-b8444b9fa95f","ios":"levelo://app?vid=447cdbdf-122f-4f34-8d9b-b8444b9fa95f"},"vehicle_type_id":"4","last_reported":1712190915,"current_range_meters":12800,"station_id":"ce4bhqp2rcd13ifvqhog","pricing_plan_id":"cebpf4jnsgd1na2vs0mg"},{"bike_id":"12c83099-2eb3-406e-a847-a45dfa04e72a","system_id":"levelo_inurba_marseille","lat":43.32357,"lon":5.38883,"is_reserved":false,"is_disabled":false,"rental_uris":{"android":"levelo://app?vid=12c83099-2eb3-406e-a847-a45dfa04e72a","ios":"levelo://app?vid=12c83099-2eb3-406e-a847-a45dfa04e72a"},"vehicle_type_id":"4","last_reported":1712190915,"current_range_meters":18800,"station_id":"ce4bhqp2rcd13ifvqhog","pricing_plan_id":"cebpf4jnsgd1na2vs0mg"},{"bike_id":"71311195-3d4e-45fd-bf2b-d8a7de18dad9","system_id":"levelo_inurba_marseille","lat":43.32367,"lon":5.388836,"is_reserved":false,"is_disabled":false,"rental_uris":{"android":"levelo://app?vid=71311195-3d4e-45fd-bf2b-d8a7de18dad9","ios":"levelo://app?vid=71311195-3d4e-45fd-bf2b-d8a7de18dad9"},"vehicle_type_id":"4","last_reported":1712190915,"current_range_meters":4800,"station_id":"ce4bhqp2rcd13ifvqhog","pricing_plan_id":"cebpf4jnsgd1na2vs0mg"},{"bike_id":"39428985-9d76-4fb6-a5c3-1f363f55b984","system_id":"levelo_inurba_marseille","lat":43.32365,"lon":5.38881,"is_reserved":false,"is_disabled":false,"rental_uris":{"android":"levelo://app?vid=39428985-9d76-4fb6-a5c3-1f363f55b984","ios":"levelo://app?vid=39428985-9d76-4fb6-a5c3-1f363f55b984"},"vehicle_type_id":"4","last_reported":1712190915,"current_range_meters":20000,"station_id":"ce4bhqp2rcd13ifvqhog","pricing_plan_id":"cebpf4jnsgd1na2vs0mg"},{"bike_id":"be43fff7-b8b2-4799-be81-2ddfb8c2282f","system_id":"levelo_inurba_marseille","lat":43.32366,"lon":5.38882,"is_reserved":false,"is_disabled":false,"rental_uris":{"android":"levelo://app?vid=be43fff7-b8b2-4799-be81-2ddfb8c2282f","ios":"levelo://app?vid=be43fff7-b8b2-4799-be81-2ddfb8c2282f"},"vehicle_type_id":"4","last_reported":1712190915,"current_range_meters":21600,"station_id":"ce4bhqp2rcd13ifvqhog","pricing_plan_id":"cebpf4jnsgd1na2vs0mg"},{"bike_id":"131e5753-8e30-43c8-80e0-366b1b2aaa28","system_id":"levelo_inurba_marseille","lat":43.323674,"lon":5.388818,"is_reserved":false,"is_disabled":false,"rental_uris":{"android":"levelo://app?vid=131e5753-8e30-43c8-80e0-366b1b2aaa28","ios":"levelo://app?vid=131e5753-8e30-43c8-80e0-366b1b2aaa28"},"vehicle_type_id":"4","last_reported":1712190915,"current_range_meters":6800,"station_id":"ce4bhqp2rcd13ifvqhog","pricing_plan_id":"cebpf4jnsgd1na2vs0mg"},{"bike_id":"98875af4-dcb3-4d03-8aa4-5aa5cbd117b1","system_id":"levelo_inurba_marseille","lat":43.32364,"lon":5.38885,"is_reserved":false,"is_disabled":false,"rental_uris":{"android":"levelo://app?vid=98875af4-dcb3-4d03-8aa4-5aa5cbd117b1","ios":"levelo://app?vid=98875af4-dcb3-4d03-8aa4-5aa5cbd117b1"},"vehicle_type_id":"4","last_reported":1712190915,"current_range_meters":0,"station_id":"ce4bhqp2rcd13ifvqhog","pricing_plan_id":"cebpf4jnsgd1na2vs0mg"},{"bike_id":"53c2e2e5-d10f-49fd-b476-2c4700cddd7b","system_id":"levelo_inurba_marseille","lat":43.32371,"lon":5.38879,"is_reserved":false,"is_disabled":false,"rental_uris":{"android":"levelo://app?vid=53c2e2e5-d10f-49fd-b476-2c4700cddd7b","ios":"levelo://app?vid=53c2e2e5-d10f-49fd-b476-2c4700cddd7b"},"vehicle_type_id":"4","last_reported":1712190915,"current_range_meters":800,"station_id":"ce4bhqp2rcd13ifvqhog","pricing_plan_id":"cebpf4jnsgd1na2vs0mg"},{"bike_id":"293d6c52-b3af-4d5c-8c4c-4aa9dfbb8fbc","system_id":"levelo_inurba_marseille","lat":43.32366,"lon":5.38886,"is_reserved":false,"is_disabled":false,"rental_uris":{"android":"levelo://app?vid=293d6c52-b3af-4d5c-8c4c-4aa9dfbb8fbc","ios":"levelo://app?vid=293d6c52-b3af-4d5c-8c4c-4aa9dfbb8fbc"},"vehicle_type_id":"4","last_reported":1712190915,"current_range_meters":7200,"station_id":"ce4bhqp2rcd13ifvqhog","pricing_plan_id":"cebpf4jnsgd1na2vs0mg"},{"bike_id":"593de925-b2d5-45cf-9b81-200ecd8ea503","system_id":"levelo_inurba_marseille","lat":43.32364,"lon":5.38893,"is_reserved":false,"is_disabled":false,"rental_uris":{"android":"levelo://app?vid=593de925-b2d5-45cf-9b81-200ecd8ea503","ios":"levelo://app?vid=593de925-b2d5-45cf-9b81-200ecd8ea503"},"vehicle_type_id":"4","last_reported":1712190915,"current_range_meters":400,"station_id":"ce4bhqp2rcd13ifvqhog","pricing_plan_id":"cebpf4jnsgd1na2vs0mg"},{"bike_id":"d5bc080b-6c48-48f4-9c36-c24159f98d8b","system_id":"levelo_inurba_marseille","lat":43.32367,"lon":5.388836,"is_reserved":false,"is_disabled":false,"rental_uris":{"android":"levelo://app?vid=d5bc080b-6c48-48f4-9c36-c24159f98d8b","ios":"levelo://app?vid=d5bc080b-6c48-48f4-9c36-c24159f98d8b"},"vehicle_type_id":"4","last_reported":1712190915,"current_range_meters":0,"station_id":"ce4bhqp2rcd13ifvqhog","pricing_plan_id":"cebpf4jnsgd1na2vs0mg"},{"bike_id":"08755207-8432-41cd-92f6-bf2a7bf731a1","system_id":"levelo_inurba_marseille","lat":43.296026,"lon":5.380946,"is_reserved":false,"is_disabled":false,"rental_uris":{"android":"levelo://app?vid=08755207-8432-41cd-92f6-bf2a7bf731a1","ios":"levelo://app?vid=08755207-8432-41cd-92f6-bf2a7bf731a1"},"vehicle_type_id":"4","last_reported":1712190915,"current_range_meters":0,"station_id":"ce4bgl12rcd13ifvqbo0","pricing_plan_id":"cebpf4jnsgd1na2vs0mg"},{"bike_id":"288b8520-8644-4d41-b570-0968e2db8806","system_id":"levelo_inurba_marseille","lat":43.29602,"lon":5.381084,"is_reserved":false,"is_disabled":false,"rental_uris":{"android":"levelo://app?vid=288b8520-8644-4d41-b570-0968e2db8806","ios":"levelo://app?vid=288b8520-8644-4d41-b570-0968e2db8806"},"vehicle_type_id":"4","last_reported":1712190915,"current_range_meters":0,"station_id":"ce4bgl12rcd13ifvqbo0","pricing_plan_id":"cebpf4jnsgd1na2vs0mg"},{"bike_id":"a37044ab-4037-48fb-9658-6a79ebcf6a9e","system_id":"levelo_inurba_marseille","lat":43.293259,"lon":5.371586,"is_reserved":false,"is_disabled":false,"rental_uris":{"android":"levelo://app?vid=a37044ab-4037-48fb-9658-6a79ebcf6a9e","ios":"levelo://app?vid=a37044ab-4037-48fb-9658-6a79ebcf6a9e"},"vehicle_type_id":"4","last_reported":1712190915,"current_range_meters":24000,"station_id":"ce4bgh92rcd13ifvqb40","pricing_plan_id":"cebpf4jnsgd1na2vs0mg"},{"bike_id":"fc9684c1-f059-4fe4-9381-0b109700e1fd","system_id":"levelo_inurba_marseille","lat":43.293259,"lon":5.371586,"is_reserved":false,"is_disabled":false,"rental_uris":{"android":"levelo://app?vid=fc9684c1-f059-4fe4-9381-0b109700e1fd","ios":"levelo://app?vid=fc9684c1-f059-4fe4-9381-0b109700e1fd"},"vehicle_type_id":"4","last_reported":1712190915,"current_range_meters":4000,"station_id":"ce4bgh92rcd13ifvqb40","pricing_plan_id":"cebpf4jnsgd1na2vs0mg"},{"bike_id":"fc81855a-5c1c-4ebb-a94c-86f978164381","system_id":"levelo_inurba_marseille","lat":43.293259,"lon":5.371586,"is_reserved":false,"is_disabled":false,"rental_uris":{"android":"levelo://app?vid=fc81855a-5c1c-4ebb-a94c-86f978164381","ios":"levelo://app?vid=fc81855a-5c1c-4ebb-a94c-86f978164381"},"vehicle_type_id":"4","last_reported":1712190915,"current_range_meters":15200,"station_id":"ce4bgh92rcd13ifvqb40","pricing_plan_id":"cebpf4jnsgd1na2vs0mg"},{"bike_id":"b0617ef1-6c2a-4db9-bf5e-a4cfdccec179","system_id":"levelo_inurba_marseille","lat":43.293259,"lon":5.371586,"is_reserved":false,"is_disabled":false,"rental_uris":{"android":"levelo://app?vid=b0617ef1-6c2a-4db9-bf5e-a4cfdccec179","ios":"levelo://app?vid=b0617ef1-6c2a-4db9-bf5e-a4cfdccec179"},"vehicle_type_id":"4","last_reported":1712190915,"current_range_meters":24800,"station_id":"ce4bgh92rcd13ifvqb40","pricing_plan_id":"cebpf4jnsgd1na2vs0mg"},{"bike_id":"a7c61774-20bf-4a0e-aa4e-7508e8843345","system_id":"levelo_inurba_marseille","lat":43.305994,"lon":5.393687,"is_reserved":false,"is_disabled":false,"rental_uris":{"android":"levelo://app?vid=a7c61774-20bf-4a0e-aa4e-7508e8843345","ios":"levelo://app?vid=a7c61774-20bf-4a0e-aa4e-7508e8843345"},"vehicle_type_id":"4","last_reported":1712190915,"current_range_meters":25200,"station_id":"ce4bh0p2rcd13ifvqd80","pricing_plan_id":"cebpf4jnsgd1na2vs0mg"},{"bike_id":"429e243e-e8f3-4efe-b62d-72e4fe2b0ac7","system_id":"levelo_inurba_marseille","lat":43.305994,"lon":5.393687,"is_reserved":false,"is_disabled":false,"rental_uris":{"android":"levelo://app?vid=429e243e-e8f3-4efe-b62d-72e4fe2b0ac7","ios":"levelo://app?vid=429e243e-e8f3-4efe-b62d-72e4fe2b0ac7"},"vehicle_type_id":"4","last_reported":1712190915,"current_range_meters":14400,"station_id":"ce4bh0p2rcd13ifvqd80","pricing_plan_id":"cebpf4jnsgd1na2vs0mg"},{"bike_id":"274bdacd-b155-465f-baec-5085b2a5d221","system_id":"levelo_inurba_marseille","lat":43.293009,"lon":5.374584,"is_reserved":false,"is_disabled":false,"rental_uris":{"android":"levelo://app?vid=274bdacd-b155-465f-baec-5085b2a5d221","ios":"levelo://app?vid=274bdacd-b155-465f-baec-5085b2a5d221"},"vehicle_type_id":"4","last_reported":1712190915,"current_range_meters":21600,"station_id":"ce4bgi12rcd13ifvqb70","pricing_plan_id":"cebpf4jnsgd1na2vs0mg"},{"bike_id":"3a21842e-f936-4f2f-a4c2-5736205aec4a","system_id":"levelo_inurba_marseille","lat":43.305994,"lon":5.393687,"is_reserved":false,"is_disabled":false,"rental_uris":{"android":"levelo://app?vid=3a21842e-f936-4f2f-a4c2-5736205aec4a","ios":"levelo://app?vid=3a21842e-f936-4f2f-a4c2-5736205aec4a"},"vehicle_type_id":"4","last_reported":1712190915,"current_range_meters":20400,"station_id":"ce4bh0p2rcd13ifvqd80","pricing_plan_id":"cebpf4jnsgd1na2vs0mg"},{"bike_id":"b6ad7020-d890-47e2-9bd7-d27328a775d8","system_id":"levelo_inurba_marseille","lat":43.305994,"lon":5.393687,"is_reserved":false,"is_disabled":false,"rental_uris":{"android":"levelo://app?vid=b6ad7020-d890-47e2-9bd7-d27328a775d8","ios":"levelo://app?vid=b6ad7020-d890-47e2-9bd7-d27328a775d8"},"vehicle_type_id":"4","last_reported":1712190915,"current_range_meters":20000,"station_id":"ce4bh0p2rcd13ifvqd80","pricing_plan_id":"cebpf4jnsgd1na2vs0mg"},{"bike_id":"491cf638-1b15-434b-a47d-ead5aa4e86e5","system_id":"levelo_inurba_marseille","lat":43.305994,"lon":5.393687,"is_reserved":false,"is_disabled":false,"rental_uris":{"android":"levelo://app?vid=491cf638-1b15-434b-a47d-ead5aa4e86e5","ios":"levelo://app?vid=491cf638-1b15-434b-a47d-ead5aa4e86e5"},"vehicle_type_id":"4","last_reported":1712190915,"current_range_meters":18800,"station_id":"ce4bh0p2rcd13ifvqd80","pricing_plan_id":"cebpf4jnsgd1na2vs0mg"},{"bike_id":"130c4cbc-de4a-4a7c-8293-f0087979bcdd","system_id":"levelo_inurba_marseille","lat":43.305994,"lon":5.393687,"is_reserved":false,"is_disabled":false,"rental_uris":{"android":"levelo://app?vid=130c4cbc-de4a-4a7c-8293-f0087979bcdd","ios":"levelo://app?vid=130c4cbc-de4a-4a7c-8293-f0087979bcdd"},"vehicle_type_id":"4","last_reported":1712190915,"current_range_meters":400,"station_id":"ce4bh0p2rcd13ifvqd80","pricing_plan_id":"cebpf4jnsgd1na2vs0mg"},{"bike_id":"2413d42b-c6b8-4e1e-8b2a-70741251f445","system_id":"levelo_inurba_marseille","lat":43.305994,"lon":5.393687,"is_reserved":false,"is_disabled":false,"rental_uris":{"android":"levelo://app?vid=2413d42b-c6b8-4e1e-8b2a-70741251f445","ios":"levelo://app?vid=2413d42b-c6b8-4e1e-8b2a-70741251f445"},"vehicle_type_id":"4","last_reported":1712190915,"current_range_meters":22400,"station_id":"ce4bh0p2rcd13ifvqd80","pricing_plan_id":"cebpf4jnsgd1na2vs0mg"},{"bike_id":"e30c3879-03b2-4d1b-9ffd-367286bfd8cd","system_id":"levelo_inurba_marseille","lat":43.305994,"lon":5.393687,"is_reserved":false,"is_disabled":false,"rental_uris":{"android":"levelo://app?vid=e30c3879-03b2-4d1b-9ffd-367286bfd8cd","ios":"levelo://app?vid=e30c3879-03b2-4d1b-9ffd-367286bfd8cd"},"vehicle_type_id":"4","last_reported":1712190915,"current_range_meters":27600,"station_id":"ce4bh0p2rcd13ifvqd80","pricing_plan_id":"cebpf4jnsgd1na2vs0mg"},{"bike_id":"a9aa2017-bdb2-488e-8c8b-f4e5e2850c84","system_id":"levelo_inurba_marseille","lat":43.303002,"lon":5.392142,"is_reserved":false,"is_disabled":false,"rental_uris":{"android":"levelo://app?vid=a9aa2017-bdb2-488e-8c8b-f4e5e2850c84","ios":"levelo://app?vid=a9aa2017-bdb2-488e-8c8b-f4e5e2850c84"},"vehicle_type_id":"4","last_reported":1712190915,"current_range_meters":18400,"station_id":"ce4bgkh2rcd13ifvqbk0","pricing_plan_id":"cebpf4jnsgd1na2vs0mg"},{"bike_id":"47c444cb-3f9e-4e82-a260-6d77a7b3686d","system_id":"levelo_inurba_marseille","lat":43.2936,"lon":5.37835,"is_reserved":false,"is_disabled":false,"rental_uris":{"android":"levelo://app?vid=47c444cb-3f9e-4e82-a260-6d77a7b3686d","ios":"levelo://app?vid=47c444cb-3f9e-4e82-a260-6d77a7b3686d"},"vehicle_type_id":"4","last_reported":1712190915,"current_range_meters":24800,"station_id":"ce4bgjh2rcd13ifvqbf0","pricing_plan_id":"cebpf4jnsgd1na2vs0mg"},{"bike_id":"6f8e57c9-8875-492c-b2c8-2ce359e65075","system_id":"levelo_inurba_marseille","lat":43.2936,"lon":5.37835,"is_reserved":false,"is_disabled":false,"rental_uris":{"android":"levelo://app?vid=6f8e57c9-8875-492c-b2c8-2ce359e65075","ios":"levelo://app?vid=6f8e57c9-8875-492c-b2c8-2ce359e65075"},"vehicle_type_id":"4","last_reported":1712190915,"current_range_meters":20000,"station_id":"ce4bgjh2rcd13ifvqbf0","pricing_plan_id":"cebpf4jnsgd1na2vs0mg"},{"bike_id":"051bd918-5759-483d-9fe0-24d181735ca9","system_id":"levelo_inurba_marseille","lat":43.29367,"lon":5.37857,"is_reserved":false,"is_disabled":false,"rental_uris":{"android":"levelo://app?vid=051bd918-5759-483d-9fe0-24d181735ca9","ios":"levelo://app?vid=051bd918-5759-483d-9fe0-24d181735ca9"},"vehicle_type_id":"4","last_reported":1712190915,"current_range_meters":12800,"station_id":"","pricing_plan_id":"cebpf4jnsgd1na2vs0mg"},{"bike_id":"9e41bac4-6ad3-4070-a48f-c0f634fde865","system_id":"levelo_inurba_marseille","lat":43.2936,"lon":5.37835,"is_reserved":false,"is_disabled":false,"rental_uris":{"android":"levelo://app?vid=9e41bac4-6ad3-4070-a48f-c0f634fde865","ios":"levelo://app?vid=9e41bac4-6ad3-4070-a48f-c0f634fde865"},"vehicle_type_id":"4","last_reported":1712190915,"current_range_meters":29600,"station_id":"ce4bgjh2rcd13ifvqbf0","pricing_plan_id":"cebpf4jnsgd1na2vs0mg"},{"bike_id":"3817f068-d2f6-437c-9427-3c1c28cc56c4","system_id":"levelo_inurba_marseille","lat":43.292311,"lon":5.360731,"is_reserved":false,"is_disabled":false,"rental_uris":{"android":"levelo://app?vid=3817f068-d2f6-437c-9427-3c1c28cc56c4","ios":"levelo://app?vid=3817f068-d2f6-437c-9427-3c1c28cc56c4"},"vehicle_type_id":"4","last_reported":1712190915,"current_range_meters":22400,"station_id":"ce4bhbh2rcd13ifvqeqg","pricing_plan_id":"cebpf4jnsgd1na2vs0mg"},{"bike_id":"42205303-c962-427d-8aab-9b86687c40e7","system_id":"levelo_inurba_marseille","lat":43.300852,"lon":5.390859,"is_reserved":false,"is_disabled":false,"rental_uris":{"android":"levelo://app?vid=42205303-c962-427d-8aab-9b86687c40e7","ios":"levelo://app?vid=42205303-c962-427d-8aab-9b86687c40e7"},"vehicle_type_id":"4","last_reported":1712190915,"current_range_meters":24400,"station_id":"ce4bh192rcd13ifvqdb0","pricing_plan_id":"cebpf4jnsgd1na2vs0mg"},{"bike_id":"b6248142-41a3-4cd8-bbe7-7b4a1f7fb456","system_id":"levelo_inurba_marseille","lat":43.291675,"lon":5.371583,"is_reserved":false,"is_disabled":false,"rental_uris":{"android":"levelo://app?vid=b6248142-41a3-4cd8-bbe7-7b4a1f7fb456","ios":"levelo://app?vid=b6248142-41a3-4cd8-bbe7-7b4a1f7fb456"},"vehicle_type_id":"4","last_reported":1712190915,"current_range_meters":25600,"station_id":"ce4bha92rcd13ifvqeh0","pricing_plan_id":"cebpf4jnsgd1na2vs0mg"},{"bike_id":"61c0e60b-60fd-418e-8bad-ad18fd1ac102","system_id":"levelo_inurba_marseille","lat":43.291675,"lon":5.371583,"is_reserved":false,"is_disabled":false,"rental_uris":{"android":"levelo://app?vid=61c0e60b-60fd-418e-8bad-ad18fd1ac102","ios":"levelo://app?vid=61c0e60b-60fd-418e-8bad-ad18fd1ac102"},"vehicle_type_id":"4","last_reported":1712190915,"current_range_meters":26400,"station_id":"ce4bha92rcd13ifvqeh0","pricing_plan_id":"cebpf4jnsgd1na2vs0mg"},{"bike_id":"c3188920-d3ec-4200-afb6-d2c1003e2d6d","system_id":"levelo_inurba_marseille","lat":43.298764,"lon":5.388973,"is_reserved":false,"is_disabled":false,"rental_uris":{"android":"levelo://app?vid=c3188920-d3ec-4200-afb6-d2c1003e2d6d","ios":"levelo://app?vid=c3188920-d3ec-4200-afb6-d2c1003e2d6d"},"vehicle_type_id":"4","last_reported":1712190915,"current_range_meters":10000,"station_id":"ce4bh392rcd13ifvqdl0","pricing_plan_id":"cebpf4jnsgd1na2vs0mg"},{"bike_id":"d3f1b326-e298-4abd-aee5-66557a8fbebd","system_id":"levelo_inurba_marseille","lat":43.29881,"lon":5.38918,"is_reserved":false,"is_disabled":false,"rental_uris":{"android":"levelo://app?vid=d3f1b326-e298-4abd-aee5-66557a8fbebd","ios":"levelo://app?vid=d3f1b326-e298-4abd-aee5-66557a8fbebd"},"vehicle_type_id":"4","last_reported":1712190915,"current_range_meters":0,"station_id":"ce4bh392rcd13ifvqdl0","pricing_plan_id":"cebpf4jnsgd1na2vs0mg"},{"bike_id":"6178d8a5-eaf4-452b-8fcb-6e3f498d6067","system_id":"levelo_inurba_marseille","lat":43.2988,"lon":5.38918,"is_reserved":false,"is_disabled":false,"rental_uris":{"android":"levelo://app?vid=6178d8a5-eaf4-452b-8fcb-6e3f498d6067","ios":"levelo://app?vid=6178d8a5-eaf4-452b-8fcb-6e3f498d6067"},"vehicle_type_id":"4","last_reported":1712190915,"current_range_meters":0,"station_id":"ce4bh392rcd13ifvqdl0","pricing_plan_id":"cebpf4jnsgd1na2vs0mg"},{"bike_id":"72a07c03-4f1e-4af6-ba10-79f9f84952e5","system_id":"levelo_inurba_marseille","lat":43.313291,"lon":5.396838,"is_reserved":false,"is_disabled":false,"rental_uris":{"android":"levelo://app?vid=72a07c03-4f1e-4af6-ba10-79f9f84952e5","ios":"levelo://app?vid=72a07c03-4f1e-4af6-ba10-79f9f84952e5"},"vehicle_type_id":"4","last_reported":1712190915,"current_range_meters":10000,"station_id":"ce4bgvp2rcd13ifvqcu0","pricing_plan_id":"cebpf4jnsgd1na2vs0mg"},{"bike_id":"87e56de5-aa03-4a1d-9eab-41b789f52760","system_id":"levelo_inurba_marseille","lat":43.3088,"lon":5.39628,"is_reserved":false,"is_disabled":false,"rental_uris":{"android":"levelo://app?vid=87e56de5-aa03-4a1d-9eab-41b789f52760","ios":"levelo://app?vid=87e56de5-aa03-4a1d-9eab-41b789f52760"},"vehicle_type_id":"4","last_reported":1712190915,"current_range_meters":9200,"station_id":"ce4bh012rcd13ifvqcv0","pricing_plan_id":"cebpf4jnsgd1na2vs0mg"},{"bike_id":"17e66032-16a8-4928-b629-861bd9f27118","system_id":"levelo_inurba_marseille","lat":43.292005,"lon":5.357875,"is_reserved":false,"is_disabled":false,"rental_uris":{"android":"levelo://app?vid=17e66032-16a8-4928-b629-861bd9f27118","ios":"levelo://app?vid=17e66032-16a8-4928-b629-861bd9f27118"},"vehicle_type_id":"4","last_reported":1712190915,"current_range_meters":28400,"station_id":"ce4bhb12rcd13ifvqel0","pricing_plan_id":"cebpf4jnsgd1na2vs0mg"},{"bike_id":"5bf275f7-4ed4-49a0-bae1-de99db1843fe","system_id":"levelo_inurba_marseille","lat":43.291994,"lon":5.357886,"is_reserved":false,"is_disabled":false,"rental_uris":{"android":"levelo://app?vid=5bf275f7-4ed4-49a0-bae1-de99db1843fe","ios":"levelo://app?vid=5bf275f7-4ed4-49a0-bae1-de99db1843fe"},"vehicle_type_id":"4","last_reported":1712190915,"current_range_meters":27600,"station_id":"ce4bhb12rcd13ifvqel0","pricing_plan_id":"cebpf4jnsgd1na2vs0mg"},{"bike_id":"5396413c-ffb2-456e-afc3-5e01f6627dbd","system_id":"levelo_inurba_marseille","lat":43.30888,"lon":5.39633,"is_reserved":false,"is_disabled":false,"rental_uris":{"android":"levelo://app?vid=5396413c-ffb2-456e-afc3-5e01f6627dbd","ios":"levelo://app?vid=5396413c-ffb2-456e-afc3-5e01f6627dbd"},"vehicle_type_id":"4","last_reported":1712190915,"current_range_meters":20400,"station_id":"ce4bh012rcd13ifvqcv0","pricing_plan_id":"cebpf4jnsgd1na2vs0mg"},{"bike_id":"ac11b4ff-9955-4a34-a6b2-6c7d69f569b1","system_id":"levelo_inurba_marseille","lat":43.30885,"lon":5.39634,"is_reserved":false,"is_disabled":false,"rental_uris":{"android":"levelo://app?vid=ac11b4ff-9955-4a34-a6b2-6c7d69f569b1","ios":"levelo://app?vid=ac11b4ff-9955-4a34-a6b2-6c7d69f569b1"},"vehicle_type_id":"4","last_reported":1712190915,"current_range_meters":21200,"station_id":"ce4bh012rcd13ifvqcv0","pricing_plan_id":"cebpf4jnsgd1na2vs0mg"},{"bike_id":"6c13a7e8-cca0-4dbd-a989-7672362ccbd5","system_id":"levelo_inurba_marseille","lat":43.292005,"lon":5.357875,"is_reserved":false,"is_disabled":false,"rental_uris":{"android":"levelo://app?vid=6c13a7e8-cca0-4dbd-a989-7672362ccbd5","ios":"levelo://app?vid=6c13a7e8-cca0-4dbd-a989-7672362ccbd5"},"vehicle_type_id":"4","last_reported":1712190915,"current_range_meters":15200,"station_id":"ce4bhb12rcd13ifvqel0","pricing_plan_id":"cebpf4jnsgd1na2vs0mg"},{"bike_id":"1a6d91e5-761f-44a2-974c-ffc4498675f5","system_id":"levelo_inurba_marseille","lat":43.291994,"lon":5.357886,"is_reserved":false,"is_disabled":false,"rental_uris":{"android":"levelo://app?vid=1a6d91e5-761f-44a2-974c-ffc4498675f5","ios":"levelo://app?vid=1a6d91e5-761f-44a2-974c-ffc4498675f5"},"vehicle_type_id":"4","last_reported":1712190915,"current_range_meters":23200,"station_id":"ce4bhb12rcd13ifvqel0","pricing_plan_id":"cebpf4jnsgd1na2vs0mg"},{"bike_id":"158729fe-0d69-4ff7-b33f-dfd4b53209d5","system_id":"levelo_inurba_marseille","lat":43.309047,"lon":5.396551,"is_reserved":false,"is_disabled":false,"rental_uris":{"android":"levelo://app?vid=158729fe-0d69-4ff7-b33f-dfd4b53209d5","ios":"levelo://app?vid=158729fe-0d69-4ff7-b33f-dfd4b53209d5"},"vehicle_type_id":"4","last_reported":1712190915,"current_range_meters":15600,"station_id":"ce4bh012rcd13ifvqcv0","pricing_plan_id":"cebpf4jnsgd1na2vs0mg"},{"bike_id":"3cbdba4a-7307-4047-8c34-716a00604c6f","system_id":"levelo_inurba_marseille","lat":43.31326,"lon":5.39684,"is_reserved":false,"is_disabled":false,"rental_uris":{"android":"levelo://app?vid=3cbdba4a-7307-4047-8c34-716a00604c6f","ios":"levelo://app?vid=3cbdba4a-7307-4047-8c34-716a00604c6f"},"vehicle_type_id":"4","last_reported":1712190915,"current_range_meters":2000,"station_id":"ce4bgvp2rcd13ifvqcu0","pricing_plan_id":"cebpf4jnsgd1na2vs0mg"},{"bike_id":"47a8110b-a430-450b-b8b8-f32ab0e5a2af","system_id":"levelo_inurba_marseille","lat":43.30884,"lon":5.39637,"is_reserved":false,"is_disabled":false,"rental_uris":{"android":"levelo://app?vid=47a8110b-a430-450b-b8b8-f32ab0e5a2af","ios":"levelo://app?vid=47a8110b-a430-450b-b8b8-f32ab0e5a2af"},"vehicle_type_id":"4","last_reported":1712190915,"current_range_meters":11200,"station_id":"ce4bh012rcd13ifvqcv0","pricing_plan_id":"cebpf4jnsgd1na2vs0mg"},{"bike_id":"72b190b9-bda9-43e8-9393-ac714c526b08","system_id":"levelo_inurba_marseille","lat":43.313291,"lon":5.396838,"is_reserved":false,"is_disabled":false,"rental_uris":{"android":"levelo://app?vid=72b190b9-bda9-43e8-9393-ac714c526b08","ios":"levelo://app?vid=72b190b9-bda9-43e8-9393-ac714c526b08"},"vehicle_type_id":"4","last_reported":1712190915,"current_range_meters":18000,"station_id":"ce4bgvp2rcd13ifvqcu0","pricing_plan_id":"cebpf4jnsgd1na2vs0mg"},{"bike_id":"1b638fe5-a770-41bc-b61c-bbff0adceb36","system_id":"levelo_inurba_marseille","lat":43.309047,"lon":5.396551,"is_reserved":false,"is_disabled":false,"rental_uris":{"android":"levelo://app?vid=1b638fe5-a770-41bc-b61c-bbff0adceb36","ios":"levelo://app?vid=1b638fe5-a770-41bc-b61c-bbff0adceb36"},"vehicle_type_id":"4","last_reported":1712190915,"current_range_meters":19200,"station_id":"ce4bh012rcd13ifvqcv0","pricing_plan_id":"cebpf4jnsgd1na2vs0mg"},{"bike_id":"79faf24b-5eb5-4959-a0e4-98b358dd9f67","system_id":"levelo_inurba_marseille","lat":43.308798,"lon":5.39641,"is_reserved":false,"is_disabled":false,"rental_uris":{"android":"levelo://app?vid=79faf24b-5eb5-4959-a0e4-98b358dd9f67","ios":"levelo://app?vid=79faf24b-5eb5-4959-a0e4-98b358dd9f67"},"vehicle_type_id":"4","last_reported":1712190915,"current_range_meters":13600,"station_id":"ce4bh012rcd13ifvqcv0","pricing_plan_id":"cebpf4jnsgd1na2vs0mg"},{"bike_id":"bded89d4-fee6-4ef8-a7dd-aecf6d6fc70d","system_id":"levelo_inurba_marseille","lat":43.308808,"lon":5.396419,"is_reserved":false,"is_disabled":false,"rental_uris":{"android":"levelo://app?vid=bded89d4-fee6-4ef8-a7dd-aecf6d6fc70d","ios":"levelo://app?vid=bded89d4-fee6-4ef8-a7dd-aecf6d6fc70d"},"vehicle_type_id":"4","last_reported":1712190915,"current_range_meters":0,"station_id":"ce4bh012rcd13ifvqcv0","pricing_plan_id":"cebpf4jnsgd1na2vs0mg"},{"bike_id":"10c96063-1f05-417f-a65f-a8674a38aad1","system_id":"levelo_inurba_marseille","lat":43.313291,"lon":5.396838,"is_reserved":false,"is_disabled":false,"rental_uris":{"android":"levelo://app?vid=10c96063-1f05-417f-a65f-a8674a38aad1","ios":"levelo://app?vid=10c96063-1f05-417f-a65f-a8674a38aad1"},"vehicle_type_id":"4","last_reported":1712190915,"current_range_meters":14800,"station_id":"ce4bgvp2rcd13ifvqcu0","pricing_plan_id":"cebpf4jnsgd1na2vs0mg"},{"bike_id":"1b190113-740f-4ef8-8485-183034cd0229","system_id":"levelo_inurba_marseille","lat":43.313291,"lon":5.396838,"is_reserved":false,"is_disabled":false,"rental_uris":{"android":"levelo://app?vid=1b190113-740f-4ef8-8485-183034cd0229","ios":"levelo://app?vid=1b190113-740f-4ef8-8485-183034cd0229"},"vehicle_type_id":"4","last_reported":1712190915,"current_range_meters":2400,"station_id":"ce4bgvp2rcd13ifvqcu0","pricing_plan_id":"cebpf4jnsgd1na2vs0mg"},{"bike_id":"a2fbbb3d-b0c7-418e-97e8-d1099c76aab6","system_id":"levelo_inurba_marseille","lat":43.291994,"lon":5.357886,"is_reserved":false,"is_disabled":false,"rental_uris":{"android":"levelo://app?vid=a2fbbb3d-b0c7-418e-97e8-d1099c76aab6","ios":"levelo://app?vid=a2fbbb3d-b0c7-418e-97e8-d1099c76aab6"},"vehicle_type_id":"4","last_reported":1712190915,"current_range_meters":31200,"station_id":"ce4bhb12rcd13ifvqel0","pricing_plan_id":"cebpf4jnsgd1na2vs0mg"},{"bike_id":"9624c0eb-3965-43ae-830e-05edc7585b8c","system_id":"levelo_inurba_marseille","lat":43.313291,"lon":5.396838,"is_reserved":false,"is_disabled":false,"rental_uris":{"android":"levelo://app?vid=9624c0eb-3965-43ae-830e-05edc7585b8c","ios":"levelo://app?vid=9624c0eb-3965-43ae-830e-05edc7585b8c"},"vehicle_type_id":"4","last_reported":1712190915,"current_range_meters":5200,"station_id":"ce4bgvp2rcd13ifvqcu0","pricing_plan_id":"cebpf4jnsgd1na2vs0mg"},{"bike_id":"0f597f3f-0a28-42ab-be8f-11bb4b689e55","system_id":"levelo_inurba_marseille","lat":43.309047,"lon":5.396551,"is_reserved":false,"is_disabled":false,"rental_uris":{"android":"levelo://app?vid=0f597f3f-0a28-42ab-be8f-11bb4b689e55","ios":"levelo://app?vid=0f597f3f-0a28-42ab-be8f-11bb4b689e55"},"vehicle_type_id":"4","last_reported":1712190915,"current_range_meters":0,"station_id":"ce4bh012rcd13ifvqcv0","pricing_plan_id":"cebpf4jnsgd1na2vs0mg"},{"bike_id":"a7c40393-a950-4bf2-8859-332eb3667042","system_id":"levelo_inurba_marseille","lat":43.30888,"lon":5.39648,"is_reserved":false,"is_disabled":false,"rental_uris":{"android":"levelo://app?vid=a7c40393-a950-4bf2-8859-332eb3667042","ios":"levelo://app?vid=a7c40393-a950-4bf2-8859-332eb3667042"},"vehicle_type_id":"4","last_reported":1712190915,"current_range_meters":6000,"station_id":"ce4bh012rcd13ifvqcv0","pricing_plan_id":"cebpf4jnsgd1na2vs0mg"},{"bike_id":"f22949bf-37ee-45f4-b610-a1dfca8db21a","system_id":"levelo_inurba_marseille","lat":43.309047,"lon":5.396551,"is_reserved":false,"is_disabled":false,"rental_uris":{"android":"levelo://app?vid=f22949bf-37ee-45f4-b610-a1dfca8db21a","ios":"levelo://app?vid=f22949bf-37ee-45f4-b610-a1dfca8db21a"},"vehicle_type_id":"4","last_reported":1712190915,"current_range_meters":14000,"station_id":"ce4bh012rcd13ifvqcv0","pricing_plan_id":"cebpf4jnsgd1na2vs0mg"},{"bike_id":"a12740b8-53d3-48aa-803d-b95a2216ec51","system_id":"levelo_inurba_marseille","lat":43.313291,"lon":5.396838,"is_reserved":false,"is_disabled":false,"rental_uris":{"android":"levelo://app?vid=a12740b8-53d3-48aa-803d-b95a2216ec51","ios":"levelo://app?vid=a12740b8-53d3-48aa-803d-b95a2216ec51"},"vehicle_type_id":"4","last_reported":1712190915,"current_range_meters":2800,"station_id":"ce4bgvp2rcd13ifvqcu0","pricing_plan_id":"cebpf4jnsgd1na2vs0mg"},{"bike_id":"f54c4c74-530c-4e77-9e64-661446ce2ffc","system_id":"levelo_inurba_marseille","lat":43.313291,"lon":5.396838,"is_reserved":false,"is_disabled":false,"rental_uris":{"android":"levelo://app?vid=f54c4c74-530c-4e77-9e64-661446ce2ffc","ios":"levelo://app?vid=f54c4c74-530c-4e77-9e64-661446ce2ffc"},"vehicle_type_id":"4","last_reported":1712190915,"current_range_meters":1600,"station_id":"ce4bgvp2rcd13ifvqcu0","pricing_plan_id":"cebpf4jnsgd1na2vs0mg"},{"bike_id":"2635de67-959a-46c5-ad43-b024e03b7083","system_id":"levelo_inurba_marseille","lat":43.308717,"lon":5.396466,"is_reserved":false,"is_disabled":false,"rental_uris":{"android":"levelo://app?vid=2635de67-959a-46c5-ad43-b024e03b7083","ios":"levelo://app?vid=2635de67-959a-46c5-ad43-b024e03b7083"},"vehicle_type_id":"4","last_reported":1712190915,"current_range_meters":13200,"station_id":"ce4bh012rcd13ifvqcv0","pricing_plan_id":"cebpf4jnsgd1na2vs0mg"},{"bike_id":"70c331c5-919c-4ad5-ac2e-4a1b25361674","system_id":"levelo_inurba_marseille","lat":43.313291,"lon":5.396838,"is_reserved":false,"is_disabled":false,"rental_uris":{"android":"levelo://app?vid=70c331c5-919c-4ad5-ac2e-4a1b25361674","ios":"levelo://app?vid=70c331c5-919c-4ad5-ac2e-4a1b25361674"},"vehicle_type_id":"4","last_reported":1712190915,"current_range_meters":18000,"station_id":"ce4bgvp2rcd13ifvqcu0","pricing_plan_id":"cebpf4jnsgd1na2vs0mg"},{"bike_id":"6d708f31-8e4e-4896-aae4-ab680254d8a2","system_id":"levelo_inurba_marseille","lat":43.308804,"lon":5.396489,"is_reserved":false,"is_disabled":false,"rental_uris":{"android":"levelo://app?vid=6d708f31-8e4e-4896-aae4-ab680254d8a2","ios":"levelo://app?vid=6d708f31-8e4e-4896-aae4-ab680254d8a2"},"vehicle_type_id":"4","last_reported":1712190915,"current_range_meters":11200,"station_id":"ce4bh012rcd13ifvqcv0","pricing_plan_id":"cebpf4jnsgd1na2vs0mg"},{"bike_id":"c419720a-1105-41c3-af0a-c9d1703fbfcf","system_id":"levelo_inurba_marseille","lat":43.313291,"lon":5.396838,"is_reserved":false,"is_disabled":false,"rental_uris":{"android":"levelo://app?vid=c419720a-1105-41c3-af0a-c9d1703fbfcf","ios":"levelo://app?vid=c419720a-1105-41c3-af0a-c9d1703fbfcf"},"vehicle_type_id":"4","last_reported":1712190915,"current_range_meters":8000,"station_id":"ce4bgvp2rcd13ifvqcu0","pricing_plan_id":"cebpf4jnsgd1na2vs0mg"},{"bike_id":"c425e87b-c4a1-4b64-a09e-fe9c573c9aad","system_id":"levelo_inurba_marseille","lat":43.308849,"lon":5.396515,"is_reserved":false,"is_disabled":false,"rental_uris":{"android":"levelo://app?vid=c425e87b-c4a1-4b64-a09e-fe9c573c9aad","ios":"levelo://app?vid=c425e87b-c4a1-4b64-a09e-fe9c573c9aad"},"vehicle_type_id":"4","last_reported":1712190915,"current_range_meters":18000,"station_id":"ce4bh012rcd13ifvqcv0","pricing_plan_id":"cebpf4jnsgd1na2vs0mg"},