{"last_updated":1683979862,"ttl":30,"version":"2.2","data":{"bikes":[{"bike_id":"8cf4ac11-0eff-4d5d-b712-eb33d21f8850","system_id":"levelo_inurba_marseille","lat":43.313391,"lon":5.36706,"is_reserved":false,"is_disabled":false,"rental_uris":{"android":"levelo://app?vid=8cf4ac11-0eff-4d5d-b712-eb33d21f8850","ios":"levelo://app?vid=8cf4ac11-0eff-4d5d-b712-eb33d21f8850"},"vehicle_type_id":"4","last_reported":1683979863,"current_range_meters":24800,"station_id":"ce4bgr92rcd13ifvqc6g","pricing_plan_id":"free"},{"bike_id":"caf62a47-260f-4ea6-957c-2cd2b8faadb8","system_id":"levelo_inurba_marseille","lat":43.312239,"lon":5.368562,"is_reserved":false,"is_disabled":false,"rental_uris":{"android":"levelo://app?vid=caf62a47-260f-4ea6-957c-2cd2b8faadb8","ios":"levelo://app?vid=caf62a47-260f-4ea6-957c-2cd2b8faadb8"},"vehicle_type_id":"4","last_reported":1683979863,"current_range_meters":31200,"station_id":"ce4bgl92rcd13ifvqbq0","pricing_plan_id":"free"},{"bike_id":"236c7117-0423-4673-bd21-105819686532","system_id":"levelo_inurba_marseille","lat":43.312239,"lon":5.368562,"is_reserved":false,"is_disabled":false,"rental_uris":{"android":"levelo://app?vid=236c7117-0423-4673-bd21-105819686532","ios":"levelo://app?vid=236c7117-0423-4673-bd21-105819686532"},"vehicle_type_id":"4","last_reported":1683979863,"current_range_meters":18000,"station_id":"ce4bgl92rcd13ifvqbq0","pricing_plan_id":"free"},{"bike_id":"74b03030-f764-44f2-a651-9c6e9c253c21","system_id":"levelo_inurba_marseille","lat":43.312239,"lon":5.368562,"is_reserved":false,"is_disabled":false,"rental_uris":{"android":"levelo://app?vid=74b03030-f764-44f2-a651-9c6e9c253c21","ios":"levelo://app?vid=74b03030-f764-44f2-a651-9c6e9c253c21"},"vehicle_type_id":"4","last_reported":1683979863,"current_range_meters":28000,"station_id":"ce4bgl92rcd13ifvqbq0","pricing_plan_id":"free"},{"bike_id":"d3e806ff-b877-42b0-b4e6-5fedd87e6955","system_id":"levelo_inurba_marseille","lat":43.314811,"lon":5.373104,"is_reserved":false,"is_disabled":false,"rental_uris":{"android":"levelo://app?vid=d3e806ff-b877-42b0-b4e6-5fedd87e6955","ios":"levelo://app?vid=d3e806ff-b877-42b0-b4e6-5fedd87e6955"},"vehicle_type_id":"4","last_reported":1683979863,"current_range_meters":28400,"station_id":"ce4bgt12rcd13ifvqcd0","pricing_plan_id":"free"},{"bike_id":"50c5110f-fb46-4ebe-8163-942ec0904bc9","system_id":"levelo_inurba_marseille","lat":43.314811,"lon":5.373104,"is_reserved":false,"is_disabled":false,"rental_uris":{"android":"levelo://app?vid=50c5110f-fb46-4ebe-8163-942ec0904bc9","ios":"levelo://app?vid=50c5110f-fb46-4ebe-8163-942ec0904bc9"},"vehicle_type_id":"4","last_reported":1683979863,"current_range_meters":31200,"station_id":"ce4bgt12rcd13ifvqcd0","pricing_plan_id":"free"},{"bike_id":"836b40c2-c31e-4bfa-a17a-abc56f4b2b82","system_id":"levelo_inurba_marseille","lat":43.30556,"lon":5.3654,"is_reserved":false,"is_disabled":false,"rental_uris":{"android":"levelo://app?vid=836b40c2-c31e-4bfa-a17a-abc56f4b2b82","ios":"levelo://app?vid=836b40c2-c31e-4bfa-a17a-abc56f4b2b82"},"vehicle_type_id":"4","last_reported":1683979863,"current_range_meters":24400,"station_id":"ce4bgs12rcd13ifvqcag","pricing_plan_id":"free"},{"bike_id":"cecab8eb-5419-4b68-8124-024610a2cab2","system_id":"levelo_inurba_marseille","lat":43.30544,"lon":5.3655,"is_reserved":false,"is_disabled":false,"rental_uris":{"android":"levelo://app?vid=cecab8eb-5419-4b68-8124-024610a2cab2","ios":"levelo://app?vid=cecab8eb-5419-4b68-8124-024610a2cab2"},"vehicle_type_id":"4","last_reported":1683979863,"current_range_meters":17600,"station_id":"","pricing_plan_id":"free"},{"bike_id":"19a97fce-acc1-43df-aca0-fe7de2e97e5e","system_id":"levelo_inurba_marseille","lat":43.30541,"lon":5.36547,"is_reserved":false,"is_disabled":false,"rental_uris":{"android":"levelo://app?vid=19a97fce-acc1-43df-aca0-fe7de2e97e5e","ios":"levelo://app?vid=19a97fce-acc1-43df-aca0-fe7de2e97e5e"},"vehicle_type_id":"4","last_reported":1683979863,"current_range_meters":29600,"station_id":"","pricing_plan_id":"free"},{"bike_id":"fcd33d36-78bb-4680-b8bc-dcfe1d96c073","system_id":"levelo_inurba_marseille","lat":43.3054,"lon":5.36538,"is_reserved":false,"is_disabled":false,"rental_uris":{"android":"levelo://app?vid=fcd33d36-78bb-4680-b8bc-dcfe1d96c073","ios":"levelo://app?vid=fcd33d36-78bb-4680-b8bc-dcfe1d96c073"},"vehicle_type_id":"4","last_reported":1683979863,"current_range_meters":3200,"station_id":"","pricing_plan_id":"free"},{"bike_id":"a935e82b-d40d-45af-9030-a34e1589618b","system_id":"levelo_inurba_marseille","lat":43.305706,"lon":5.365654,"is_reserved":false,"is_disabled":false,"rental_uris":{"android":"levelo://app?vid=a935e82b-d40d-45af-9030-a34e1589618b","ios":"levelo://app?vid=a935e82b-d40d-45af-9030-a34e1589618b"},"vehicle_type_id":"4","last_reported":1683979863,"current_range_meters":24400,"station_id":"ce4bgs12rcd13ifvqcag","pricing_plan_id":"free"},{"bike_id":"aab7094f-9299-47f3-a498-193b5ec16f9d","system_id":"levelo_inurba_marseille","lat":43.305714,"lon":5.365633,"is_reserved":false,"is_disabled":false,"rental_uris":{"android":"levelo://app?vid=aab7094f-9299-47f3-a498-193b5ec16f9d","ios":"levelo://app?vid=aab7094f-9299-47f3-a498-193b5ec16f9d"},"vehicle_type_id":"4","last_reported":1683979863,"current_range_meters":25600,"station_id":"ce4bgs12rcd13ifvqcag","pricing_plan_id":"free"},{"bike_id":"74bd56e3-d8ff-45d1-9964-2104382c47aa","system_id":"levelo_inurba_marseille","lat":43.305706,"lon":5.365654,"is_reserved":false,"is_disabled":false,"rental_uris":{"android":"levelo://app?vid=74bd56e3-d8ff-45d1-9964-2104382c47aa","ios":"levelo://app?vid=74bd56e3-d8ff-45d1-9964-2104382c47aa"},"vehicle_type_id":"4","last_reported":1683979863,"current_range_meters":24800,"station_id":"ce4bgs12rcd13ifvqcag","pricing_plan_id":"free"},{"bike_id":"c706453a-66b4-41d7-a74a-468a5939e1f6","system_id":"levelo_inurba_marseille","lat":43.305714,"lon":5.365633,"is_reserved":false,"is_disabled":false,"rental_uris":{"android":"levelo://app?vid=c706453a-66b4-41d7-a74a-468a5939e1f6","ios":"levelo://app?vid=c706453a-66b4-41d7-a74a-468a5939e1f6"},"vehicle_type_id":"4","last_reported":1683979863,"current_range_meters":0,"station_id":"ce4bgs12rcd13ifvqcag","pricing_plan_id":"free"},{"bike_id":"df529cdc-2a7e-4003-96d2-e50297b6e090","system_id":"levelo_inurba_marseille","lat":43.305706,"lon":5.365654,"is_reserved":false,"is_disabled":false,"rental_uris":{"android":"levelo://app?vid=df529cdc-2a7e-4003-96d2-e50297b6e090","ios":"levelo://app?vid=df529cdc-2a7e-4003-96d2-e50297b6e090"},"vehicle_type_id":"4","last_reported":1683979863,"current_range_meters":22400,"station_id":"ce4bgs12rcd13ifvqcag","pricing_plan_id":"free"},{"bike_id":"151d50bc-3aee-48d5-9527-783274464e00","system_id":"levelo_inurba_marseille","lat":43.31178,"lon":5.37751,"is_reserved":false,"is_disabled":false,"rental_uris":{"android":"levelo://app?vid=151d50bc-3aee-48d5-9527-783274464e00","ios":"levelo://app?vid=151d50bc-3aee-48d5-9527-783274464e00"},"vehicle_type_id":"4","last_reported":1683979863,"current_range_meters":13200,"station_id":"","pricing_plan_id":"free"},{"bike_id":"56410d2d-2c4a-4fa8-be68-aaccbe6e6a23","system_id":"levelo_inurba_marseille","lat":43.311125,"lon":5.377624,"is_reserved":false,"is_disabled":false,"rental_uris":{"android":"levelo://app?vid=56410d2d-2c4a-4fa8-be68-aaccbe6e6a23","ios":"levelo://app?vid=56410d2d-2c4a-4fa8-be68-aaccbe6e6a23"},"vehicle_type_id":"4","last_reported":1683979863,"current_range_meters":20800,"station_id":"ce4bgt92rcd13ifvqcg0","pricing_plan_id":"free"},{"bike_id":"9d10e8c0-17f7-4951-80d4-a90c9c86e6ea","system_id":"levelo_inurba_marseille","lat":43.31117,"lon":5.37772,"is_reserved":false,"is_disabled":false,"rental_uris":{"android":"levelo://app?vid=9d10e8c0-17f7-4951-80d4-a90c9c86e6ea","ios":"levelo://app?vid=9d10e8c0-17f7-4951-80d4-a90c9c86e6ea"},"vehicle_type_id":"4","last_reported":1683979863,"current_range_meters":22400,"station_id":"ce4bgt92rcd13ifvqcg0","pricing_plan_id":"free"},{"bike_id":"bc36e10a-a9d1-4a89-b8ba-a386b3def7fb","system_id":"levelo_inurba_marseille","lat":43.303046,"lon":5.368981,"is_reserved":false,"is_disabled":false,"rental_uris":{"android":"levelo://app?vid=bc36e10a-a9d1-4a89-b8ba-a386b3def7fb","ios":"levelo://app?vid=bc36e10a-a9d1-4a89-b8ba-a386b3def7fb"},"vehicle_type_id":"4","last_reported":1683979863,"current_range_meters":30400,"station_id":"ce4bgqh2rcd13ifvqc5g","pricing_plan_id":"free"},{"bike_id":"6f441400-efbc-4f5c-b70a-33b68bfeabb0","system_id":"levelo_inurba_marseille","lat":43.303046,"lon":5.368981,"is_reserved":false,"is_disabled":false,"rental_uris":{"android":"levelo://app?vid=6f441400-efbc-4f5c-b70a-33b68bfeabb0","ios":"levelo://app?vid=6f441400-efbc-4f5c-b70a-33b68bfeabb0"},"vehicle_type_id":"4","last_reported":1683979863,"current_range_meters":27600,"station_id":"ce4bgqh2rcd13ifvqc5g","pricing_plan_id":"free"},{"bike_id":"865849b1-abf2-4771-be92-65993e4a621e","system_id":"levelo_inurba_marseille","lat":43.301939,"lon":5.366286,"is_reserved":false,"is_disabled":false,"rental_uris":{"android":"levelo://app?vid=865849b1-abf2-4771-be92-65993e4a621e","ios":"levelo://app?vid=865849b1-abf2-4771-be92-65993e4a621e"},"vehicle_type_id":"4","last_reported":1683979863,"current_range_meters":16800,"station_id":"ce4bgrh2rcd13ifvqc8g","pricing_plan_id":"free"},{"bike_id":"46e3edfd-21df-46d9-8f41-966a97dbc39e","system_id":"levelo_inurba_marseille","lat":43.308012,"lon":5.381511,"is_reserved":false,"is_disabled":false,"rental_uris":{"android":"levelo://app?vid=46e3edfd-21df-46d9-8f41-966a97dbc39e","ios":"levelo://app?vid=46e3edfd-21df-46d9-8f41-966a97dbc39e"},"vehicle_type_id":"4","last_reported":1683979863,"current_range_meters":3600,"station_id":"ce4bgt12rcd13ifvqce0","pricing_plan_id":"free"},{"bike_id":"8f5ad2cb-ebbf-4883-99d3-fa47d85ef68c","system_id":"levelo_inurba_marseille","lat":43.308012,"lon":5.381511,"is_reserved":false,"is_disabled":false,"rental_uris":{"android":"levelo://app?vid=8f5ad2cb-ebbf-4883-99d3-fa47d85ef68c","ios":"levelo://app?vid=8f5ad2cb-ebbf-4883-99d3-fa47d85ef68c"},"vehicle_type_id":"4","last_reported":1683979863,"current_range_meters":17600,"station_id":"ce4bgt12rcd13ifvqce0","pricing_plan_id":"free"},{"bike_id":"3801afcf-6b9e-43f8-8e5b-cf24aa6b3177","system_id":"levelo_inurba_marseille","lat":43.308012,"lon":5.381511,"is_reserved":false,"is_disabled":false,"rental_uris":{"android":"levelo://app?vid=3801afcf-6b9e-43f8-8e5b-cf24aa6b3177","ios":"levelo://app?vid=3801afcf-6b9e-43f8-8e5b-cf24aa6b3177"},"vehicle_type_id":"4","last_reported":1683979863,"current_range_meters":22400,"station_id":"ce4bgt12rcd13ifvqce0","pricing_plan_id":"free"},{"bike_id":"00e3d6bb-1af8-4d2f-af96-2111508a1e70","system_id":"levelo_inurba_marseille","lat":43.308012,"lon":5.381511,"is_reserved":false,"is_disabled":false,"rental_uris":{"android":"levelo://app?vid=00e3d6bb-1af8-4d2f-af96-2111508a1e70","ios":"levelo://app?vid=00e3d6bb-1af8-4d2f-af96-2111508a1e70"},"vehicle_type_id":"4","last_reported":1683979863,"current_range_meters":22400,"station_id":"ce4bgt12rcd13ifvqce0","pricing_plan_id":"free"},{"bike_id":"3611189e-2ecd-4e12-95d0-8edd6c9726b1","system_id":"levelo_inurba_marseille","lat":43.30479,"lon":5.37905,"is_reserved":false,"is_disabled":false,"rental_uris":{"android":"levelo://app?vid=3611189e-2ecd-4e12-95d0-8edd6c9726b1","ios":"levelo://app?vid=3611189e-2ecd-4e12-95d0-8edd6c9726b1"},"vehicle_type_id":"4","last_reported":1683979863,"current_range_meters":23200,"station_id":"ce4bgup2rcd13ifvqcn0","pricing_plan_id":"free"},{"bike_id":"2bd46d07-9ed3-443e-96ae-f0320f929711","system_id":"levelo_inurba_marseille","lat":43.304606,"lon":5.379026,"is_reserved":false,"is_disabled":false,"rental_uris":{"android":"levelo://app?vid=2bd46d07-9ed3-443e-96ae-f0320f929711","ios":"levelo://app?vid=2bd46d07-9ed3-443e-96ae-f0320f929711"},"vehicle_type_id":"4","last_reported":1683979863,"current_range_meters":31200,"station_id":"ce4bgup2rcd13ifvqcn0","pricing_plan_id":"free"},{"bike_id":"8b47ea53-5d97-44ee-9714-7e51bb264dac","system_id":"levelo_inurba_marseille","lat":43.304606,"lon":5.379026,"is_reserved":false,"is_disabled":false,"rental_uris":{"android":"levelo://app?vid=8b47ea53-5d97-44ee-9714-7e51bb264dac","ios":"levelo://app?vid=8b47ea53-5d97-44ee-9714-7e51bb264dac"},"vehicle_type_id":"4","last_reported":1683979863,"current_range_meters":31200,"station_id":"ce4bgup2rcd13ifvqcn0","pricing_plan_id":"free"},{"bike_id":"855d1619-04b0-40fe-84c8-ba142ccc5162","system_id":"levelo_inurba_marseille","lat":43.304606,"lon":5.379026,"is_reserved":false,"is_disabled":false,"rental_uris":{"android":"levelo://app?vid=855d1619-04b0-40fe-84c8-ba142ccc5162","ios":"levelo://app?vid=855d1619-04b0-40fe-84c8-ba142ccc5162"},"vehicle_type_id":"4","last_reported":1683979863,"current_range_meters":29200,"station_id":"ce4bgup2rcd13ifvqcn0","pricing_plan_id":"free"},{"bike_id":"003d582e-7e5f-4a87-a622-32e3086b14b0","system_id":"levelo_inurba_marseille","lat":43.304606,"lon":5.379026,"is_reserved":false,"is_disabled":false,"rental_uris":{"android":"levelo://app?vid=003d582e-7e5f-4a87-a622-32e3086b14b0","ios":"levelo://app?vid=003d582e-7e5f-4a87-a622-32e3086b14b0"},"vehicle_type_id":"4","last_reported":1683979863,"current_range_meters":31200,"station_id":"ce4bgup2rcd13ifvqcn0","pricing_plan_id":"free"},{"bike_id":"6ce0eedd-593e-4262-998e-685b4ae55271","system_id":"levelo_inurba_marseille","lat":43.304606,"lon":5.379026,"is_reserved":false,"is_disabled":false,"rental_uris":{"android":"levelo://app?vid=6ce0eedd-593e-4262-998e-685b4ae55271","ios":"levelo://app?vid=6ce0eedd-593e-4262-998e-685b4ae55271"},"vehicle_type_id":"4","last_reported":1683979863,"current_range_meters":30000,"station_id":"ce4bgup2rcd13ifvqcn0","pricing_plan_id":"free"},{"bike_id":"60680915-fb24-4b19-bfde-912f36d2d614","system_id":"levelo_inurba_marseille","lat":43.304606,"lon":5.379026,"is_reserved":false,"is_disabled":false,"rental_uris":{"android":"levelo://app?vid=60680915-fb24-4b19-bfde-912f36d2d614","ios":"levelo://app?vid=60680915-fb24-4b19-bfde-912f36d2d614"},"vehicle_type_id":"4","last_reported":1683979863,"current_range_meters":31200,"station_id":"ce4bgup2rcd13ifvqcn0","pricing_plan_id":"free"},{"bike_id":"e5817123-3e1d-4a68-9e77-52d4575f18a9","system_id":"levelo_inurba_marseille","lat":43.304606,"lon":5.379026,"is_reserved":false,"is_disabled":false,"rental_uris":{"android":"levelo://app?vid=e5817123-3e1d-4a68-9e77-52d4575f18a9","ios":"levelo://app?vid=e5817123-3e1d-4a68-9e77-52d4575f18a9"},"vehicle_type_id":"4","last_reported":1683979863,"current_range_meters":26800,"station_id":"ce4bgup2rcd13ifvqcn0","pricing_plan_id":"free"},{"bike_id":"7fd58bde-e9d0-4819-bf16-e0c722621005","system_id":"levelo_inurba_marseille","lat":43.30464,"lon":5.37909,"is_reserved":false,"is_disabled":false,"rental_uris":{"android":"levelo://app?vid=7fd58bde-e9d0-4819-bf16-e0c722621005","ios":"levelo://app?vid=7fd58bde-e9d0-4819-bf16-e0c722621005"},"vehicle_type_id":"4","last_reported":1683979863,"current_range_meters":16800,"station_id":"ce4bgup2rcd13ifvqcn0","pricing_plan_id":"free"},{"bike_id":"06f6366e-3f49-4fb2-a3b1-353ce791950b","system_id":"levelo_inurba_marseille","lat":43.30458,"lon":5.37902,"is_reserved":false,"is_disabled":false,"rental_uris":{"android":"levelo://app?vid=06f6366e-3f49-4fb2-a3b1-353ce791950b","ios":"levelo://app?vid=06f6366e-3f49-4fb2-a3b1-353ce791950b"},"vehicle_type_id":"4","last_reported":1683979863,"current_range_meters":31200,"station_id":"ce4bgup2rcd13ifvqcn0","pricing_plan_id":"free"},{"bike_id":"2a95983f-beb5-4e6d-b4cd-ff10adb99cd2","system_id":"levelo_inurba_marseille","lat":43.3046,"lon":5.37906,"is_reserved":false,"is_disabled":false,"rental_uris":{"android":"levelo://app?vid=2a95983f-beb5-4e6d-b4cd-ff10adb99cd2","ios":"levelo://app?vid=2a95983f-beb5-4e6d-b4cd-ff10adb99cd2"},"vehicle_type_id":"4","last_reported":1683979863,"current_range_meters":20000,"station_id":"ce4bgup2rcd13ifvqcn0","pricing_plan_id":"free"},{"bike_id":"a6d1fc11-433f-4480-b505-c7aecdcc72fd","system_id":"levelo_inurba_marseille","lat":43.313571,"lon":5.384829,"is_reserved":false,"is_disabled":false,"rental_uris":{"android":"levelo://app?vid=a6d1fc11-433f-4480-b505-c7aecdcc72fd","ios":"levelo://app?vid=a6d1fc11-433f-4480-b505-c7aecdcc72fd"},"vehicle_type_id":"4","last_reported":1683979863,"current_range_meters":20800,"station_id":"ce4bgt92rcd13ifvqcf0","pricing_plan_id":"free"},{"bike_id":"69da51a0-dc4e-447d-b57e-53155ce37f6f","system_id":"levelo_inurba_marseille","lat":43.313571,"lon":5.384829,"is_reserved":false,"is_disabled":false,"rental_uris":{"android":"levelo://app?vid=69da51a0-dc4e-447d-b57e-53155ce37f6f","ios":"levelo://app?vid=69da51a0-dc4e-447d-b57e-53155ce37f6f"},"vehicle_type_id":"4","last_reported":1683979863,"current_range_meters":23600,"station_id":"ce4bgt92rcd13ifvqcf0","pricing_plan_id":"free"},{"bike_id":"09b041e6-6074-4df7-a048-f6981c376cfd","system_id":"levelo_inurba_marseille","lat":43.31366,"lon":5.38521,"is_reserved":false,"is_disabled":false,"rental_uris":{"android":"levelo://app?vid=09b041e6-6074-4df7-a048-f6981c376cfd","ios":"levelo://app?vid=09b041e6-6074-4df7-a048-f6981c376cfd"},"vehicle_type_id":"4","last_reported":1683979863,"current_range_meters":17600,"station_id":"ce4bgt92rcd13ifvqcf0","pricing_plan_id":"free"},{"bike_id":"a252a1ed-9599-4b5e-951f-7882c6adcf93","system_id":"levelo_inurba_marseille","lat":43.299222,"lon":5.365554,"is_reserved":false,"is_disabled":false,"rental_uris":{"android":"levelo://app?vid=a252a1ed-9599-4b5e-951f-7882c6adcf93","ios":"levelo://app?vid=a252a1ed-9599-4b5e-951f-7882c6adcf93"},"vehicle_type_id":"4","last_reported":1683979863,"current_range_meters":24800,"station_id":"ce4bgm92rcd13ifvqbr0","pricing_plan_id":"free"},{"bike_id":"74b6bbef-513c-4db2-ae08-1acaeb39e984","system_id":"levelo_inurba_marseille","lat":43.299222,"lon":5.365554,"is_reserved":false,"is_disabled":false,"rental_uris":{"android":"levelo://app?vid=74b6bbef-513c-4db2-ae08-1acaeb39e984","ios":"levelo://app?vid=74b6bbef-513c-4db2-ae08-1acaeb39e984"},"vehicle_type_id":"4","last_reported":1683979863,"current_range_meters":25200,"station_id":"ce4bgm92rcd13ifvqbr0","pricing_plan_id":"free"},{"bike_id":"7112e130-2186-45c6-8d47-46f0e634f00a","system_id":"levelo_inurba_marseille","lat":43.299222,"lon":5.365554,"is_reserved":false,"is_disabled":false,"rental_uris":{"android":"levelo://app?vid=7112e130-2186-45c6-8d47-46f0e634f00a","ios":"levelo://app?vid=7112e130-2186-45c6-8d47-46f0e634f00a"},"vehicle_type_id":"4","last_reported":1683979863,"current_range_meters":25200,"station_id":"ce4bgm92rcd13ifvqbr0","pricing_plan_id":"free"},{"bike_id":"54db8822-be42-4881-bcd0-63cbd0cff61b","system_id":"levelo_inurba_marseille","lat":43.299222,"lon":5.365554,"is_reserved":false,"is_disabled":false,"rental_uris":{"android":"levelo://app?vid=54db8822-be42-4881-bcd0-63cbd0cff61b","ios":"levelo://app?vid=54db8822-be42-4881-bcd0-63cbd0cff61b"},"vehicle_type_id":"4","last_reported":1683979863,"current_range_meters":13200,"station_id":"ce4bgm92rcd13ifvqbr0","pricing_plan_id":"free"},{"bike_id":"5432ee53-7666-48b3-9770-67586b914c8a","system_id":"levelo_inurba_marseille","lat":43.298433,"lon":5.362774,"is_reserved":false,"is_disabled":false,"rental_uris":{"android":"levelo://app?vid=5432ee53-7666-48b3-9770-67586b914c8a","ios":"levelo://app?vid=5432ee53-7666-48b3-9770-67586b914c8a"},"vehicle_type_id":"4","last_reported":1683979863,"current_range_meters":19200,"station_id":"ce4bgpp2rcd13ifvqc3g","pricing_plan_id":"free"},{"bike_id":"f6cac8e5-854d-4b05-bbe8-314fecd54d4c","system_id":"levelo_inurba_marseille","lat":43.298433,"lon":5.362774,"is_reserved":false,"is_disabled":false,"rental_uris":{"android":"levelo://app?vid=f6cac8e5-854d-4b05-bbe8-314fecd54d4c","ios":"levelo://app?vid=f6cac8e5-854d-4b05-bbe8-314fecd54d4c"},"vehicle_type_id":"4","last_reported":1683979863,"current_range_meters":20000,"station_id":"ce4bgpp2rcd13ifvqc3g","pricing_plan_id":"free"},{"bike_id":"d489bf1f-16fd-4a95-b66c-b27fb167beef","system_id":"levelo_inurba_marseille","lat":43.298433,"lon":5.362774,"is_reserved":false,"is_disabled":false,"rental_uris":{"android":"levelo://app?vid=d489bf1f-16fd-4a95-b66c-b27fb167beef","ios":"levelo://app?vid=d489bf1f-16fd-4a95-b66c-b27fb167beef"},"vehicle_type_id":"4","last_reported":1683979863,"current_range_meters":31200,"station_id":"ce4bgpp2rcd13ifvqc3g","pricing_plan_id":"free"},{"bike_id":"8a045a03-ffde-4c85-a76d-ca90164a0aad","system_id":"levelo_inurba_marseille","lat":43.298433,"lon":5.362774,"is_reserved":false,"is_disabled":false,"rental_uris":{"android":"levelo://app?vid=8a045a03-ffde-4c85-a76d-ca90164a0aad","ios":"levelo://app?vid=8a045a03-ffde-4c85-a76d-ca90164a0aad"},"vehicle_type_id":"4","last_reported":1683979863,"current_range_meters":31200,"station_id":"ce4bgpp2rcd13ifvqc3g","pricing_plan_id":"free"},{"bike_id":"09e9ee45-6249-482b-8ae6-e16dc0b6eb76","system_id":"levelo_inurba_marseille","lat":43.298433,"lon":5.362774,"is_reserved":false,"is_disabled":false,"rental_uris":{"android":"levelo://app?vid=09e9ee45-6249-482b-8ae6-e16dc0b6eb76","ios":"levelo://app?vid=09e9ee45-6249-482b-8ae6-e16dc0b6eb76"},"vehicle_type_id":"4","last_reported":1683979863,"current_range_meters":31200,"station_id":"ce4bgpp2rcd13ifvqc3g","pricing_plan_id":"free"},{"bike_id":"d3d626b9-0d43-4690-b477-921d2a80e1d1","system_id":"levelo_inurba_marseille","lat":43.299243,"lon":5.374807,"is_reserved":false,"is_disabled":false,"rental_uris":{"android":"levelo://app?vid=d3d626b9-0d43-4690-b477-921d2a80e1d1","ios":"levelo://app?vid=d3d626b9-0d43-4690-b477-921d2a80e1d1"},"vehicle_type_id":"4","last_reported":1683979863,"current_range_meters":25200,"station_id":"ce4bgjh2rcd13ifvqbg0","pricing_plan_id":"free"},{"bike_id":"50847303-5030-42c4-a6c3-9958d46c1e9e","system_id":"levelo_inurba_marseille","lat":43.298433,"lon":5.362774,"is_reserved":false,"is_disabled":false,"rental_uris":{"android":"levelo://app?vid=50847303-5030-42c4-a6c3-9958d46c1e9e","ios":"levelo://app?vid=50847303-5030-42c4-a6c3-9958d46c1e9e"},"vehicle_type_id":"4","last_reported":1683979863,"current_range_meters":21600,"station_id":"ce4bgpp2rcd13ifvqc3g","pricing_plan_id":"free"},{"bike_id":"60affe37-72af-4d93-8bda-72bdee9b1f31","system_id":"levelo_inurba_marseille","lat":43.29923,"lon":5.37464,"is_reserved":false,"is_disabled":false,"rental_uris":{"android":"levelo://app?vid=60affe37-72af-4d93-8bda-72bdee9b1f31","ios":"levelo://app?vid=60affe37-72af-4d93-8bda-72bdee9b1f31"},"vehicle_type_id":"4","last_reported":1683979863,"current_range_meters":27200,"station_id":"ce4bgjh2rcd13ifvqbg0","pricing_plan_id":"free"},{"bike_id":"7cd2c118-8c0c-4cc3-9dd5-54b2dc0644ea","system_id":"levelo_inurba_marseille","lat":43.298433,"lon":5.362774,"is_reserved":false,"is_disabled":false,"rental_uris":{"android":"levelo://app?vid=7cd2c118-8c0c-4cc3-9dd5-54b2dc0644ea","ios":"levelo://app?vid=7cd2c118-8c0c-4cc3-9dd5-54b2dc0644ea"},"vehicle_type_id":"4","last_reported":1683979863,"current_range_meters":8000,"station_id":"ce4bgpp2rcd13ifvqc3g","pricing_plan_id":"free"},{"bike_id":"89023bbe-2daa-49ee-84fa-85cf631fd92e","system_id":"levelo_inurba_marseille","lat":43.298433,"lon":5.362774,"is_reserved":false,"is_disabled":false,"rental_uris":{"android":"levelo://app?vid=89023bbe-2daa-49ee-84fa-85cf631fd92e","ios":"levelo://app?vid=89023bbe-2daa-49ee-84fa-85cf631fd92e"},"vehicle_type_id":"4","last_reported":1683979863,"current_range_meters":31200,"station_id":"ce4bgpp2rcd13ifvqc3g","pricing_plan_id":"free"},{"bike_id":"868c18a7-1b45-4329-b5af-1fb35a84865f","system_id":"levelo_inurba_marseille","lat":43.298433,"lon":5.362774,"is_reserved":false,"is_disabled":false,"rental_uris":{"android":"levelo://app?vid=868c18a7-1b45-4329-b5af-1fb35a84865f","ios":"levelo://app?vid=868c18a7-1b45-4329-b5af-1fb35a84865f"},"vehicle_type_id":"4","last_reported":1683979863,"current_range_meters":16000,"station_id":"ce4bgpp2rcd13ifvqc3g","pricing_plan_id":"free"},{"bike_id":"7321ca39-b466-4173-b743-8e2a180215ba","system_id":"levelo_inurba_marseille","lat":43.298433,"lon":5.362774,"is_reserved":false,"is_disabled":false,"rental_uris":{"android":"levelo://app?vid=7321ca39-b466-4173-b743-8e2a180215ba","ios":"levelo://app?vid=7321ca39-b466-4173-b743-8e2a180215ba"},"vehicle_type_id":"4","last_reported":1683979863,"current_range_meters":24800,"station_id":"ce4bgpp2rcd13ifvqc3g","pricing_plan_id":"free"},{"bike_id":"a98742f9-5c83-4432-b37a-453987e478ef","system_id":"levelo_inurba_marseille","lat":43.298433,"lon":5.362774,"is_reserved":false,"is_disabled":false,"rental_uris":{"android":"levelo://app?vid=a98742f9-5c83-4432-b37a-453987e478ef","ios":"levelo://app?vid=a98742f9-5c83-4432-b37a-453987e478ef"},"vehicle_type_id":"4","last_reported":1683979863,"current_range_meters":30400,"station_id":"ce4bgpp2rcd13ifvqc3g","pricing_plan_id":"free"},{"bike_id":"95173d0c-5ec2-4cee-8bdd-8851f153d302","system_id":"levelo_inurba_marseille","lat":43.299243,"lon":5.374807,"is_reserved":false,"is_disabled":false,"rental_uris":{"android":"levelo://app?vid=95173d0c-5ec2-4cee-8bdd-8851f153d302","ios":"levelo://app?vid=95173d0c-5ec2-4cee-8bdd-8851f153d302"},"vehicle_type_id":"4","last_reported":1683979863,"current_range_meters":28800,"station_id":"ce4bgjh2rcd13ifvqbg0","pricing_plan_id":"free"},{"bike_id":"2b17702e-cb48-4950-8b56-3d8733d3c13c","system_id":"levelo_inurba_marseille","lat":43.299243,"lon":5.37481,"is_reserved":false,"is_disabled":false,"rental_uris":{"android":"levelo://app?vid=2b17702e-cb48-4950-8b56-3d8733d3c13c","ios":"levelo://app?vid=2b17702e-cb48-4950-8b56-3d8733d3c13c"},"vehicle_type_id":"4","last_reported":1683979863,"current_range_meters":26000,"station_id":"ce4bgjh2rcd13ifvqbg0","pricing_plan_id":"free"},{"bike_id":"2f96f4b7-d3f1-4b87-b98f-caf50ba6d13d","system_id":"levelo_inurba_marseille","lat":43.327705,"lon":5.366949,"is_reserved":false,"is_disabled":false,"rental_uris":{"android":"levelo://app?vid=2f96f4b7-d3f1-4b87-b98f-caf50ba6d13d","ios":"levelo://app?vid=2f96f4b7-d3f1-4b87-b98f-caf50ba6d13d"},"vehicle_type_id":"4","last_reported":1683979863,"current_range_meters":12400,"station_id":"","pricing_plan_id":"free"},{"bike_id":"0474487f-288e-4606-b7d4-e28d2ee99d8c","system_id":"levelo_inurba_marseille","lat":43.297794,"lon":5.370888,"is_reserved":false,"is_disabled":false,"rental_uris":{"android":"levelo://app?vid=0474487f-288e-4606-b7d4-e28d2ee99d8c","ios":"levelo://app?vid=0474487f-288e-4606-b7d4-e28d2ee99d8c"},"vehicle_type_id":"4","last_reported":1683979863,"current_range_meters":27600,"station_id":"ce4bgop2rcd13ifvqc1g","pricing_plan_id":"free"},{"bike_id":"ba9e564b-ef2b-491f-bc8b-cc11a63e5e01","system_id":"levelo_inurba_marseille","lat":43.297794,"lon":5.370888,"is_reserved":false,"is_disabled":false,"rental_uris":{"android":"levelo://app?vid=ba9e564b-ef2b-491f-bc8b-cc11a63e5e01","ios":"levelo://app?vid=ba9e564b-ef2b-491f-bc8b-cc11a63e5e01"},"vehicle_type_id":"4","last_reported":1683979863,"current_range_meters":31600,"station_id":"ce4bgop2rcd13ifvqc1g","pricing_plan_id":"free"},{"bike_id":"8a568eaa-ccec-4bc4-91a5-8a121d190a5e","system_id":"levelo_inurba_marseille","lat":43.297794,"lon":5.370888,"is_reserved":false,"is_disabled":false,"rental_uris":{"android":"levelo://app?vid=8a568eaa-ccec-4bc4-91a5-8a121d190a5e","ios":"levelo://app?vid=8a568eaa-ccec-4bc4-91a5-8a121d190a5e"},"vehicle_type_id":"4","last_reported":1683979863,"current_range_meters":31600,"station_id":"ce4bgop2rcd13ifvqc1g","pricing_plan_id":"free"},{"bike_id":"aa466dc3-f627-460a-8df2-986e72711466","system_id":"levelo_inurba_marseille","lat":43.297774,"lon":5.370875,"is_reserved":false,"is_disabled":false,"rental_uris":{"android":"levelo://app?vid=aa466dc3-f627-460a-8df2-986e72711466","ios":"levelo://app?vid=aa466dc3-f627-460a-8df2-986e72711466"},"vehicle_type_id":"4","last_reported":1683979863,"current_range_meters":29200,"station_id":"ce4bgop2rcd13ifvqc1g","pricing_plan_id":"free"},{"bike_id":"b8d8f61f-0988-4a25-a827-c7fea2a7c719","system_id":"levelo_inurba_marseille","lat":43.297794,"lon":5.370888,"is_reserved":false,"is_disabled":false,"rental_uris":{"android":"levelo://app?vid=b8d8f61f-0988-4a25-a827-c7fea2a7c719","ios":"levelo://app?vid=b8d8f61f-0988-4a25-a827-c7fea2a7c719"},"vehicle_type_id":"4","last_reported":1683979863,"current_range_meters":28400,"station_id":"ce4bgop2rcd13ifvqc1g","pricing_plan_id":"free"},{"bike_id":"eff8ca26-233d-4889-b571-97d77d97f113","system_id":"levelo_inurba_marseille","lat":43.297774,"lon":5.370875,"is_reserved":false,"is_disabled":false,"rental_uris":{"android":"levelo://app?vid=eff8ca26-233d-4889-b571-97d77d97f113","ios":"levelo://app?vid=eff8ca26-233d-4889-b571-97d77d97f113"},"vehicle_type_id":"4","last_reported":1683979863,"current_range_meters":30000,"station_id":"ce4bgop2rcd13ifvqc1g","pricing_plan_id":"free"},{"bike_id":"7a070e52-967e-4cda-a050-dbf621e582d9","system_id":"levelo_inurba_marseille","lat":43.297774,"lon":5.370875,"is_reserved":false,"is_disabled":false,"rental_uris":{"android":"levelo://app?vid=7a070e52-967e-4cda-a050-dbf621e582d9","ios":"levelo://app?vid=7a070e52-967e-4cda-a050-dbf621e582d9"},"vehicle_type_id":"4","last_reported":1683979863,"current_range_meters":29600,"station_id":"ce4bgop2rcd13ifvqc1g","pricing_plan_id":"free"},{"bike_id":"e1b7270c-c690-4136-acf1-04f06180c8d3","system_id":"levelo_inurba_marseille","lat":43.328371,"lon":5.366912,"is_reserved":false,"is_disabled":false,"rental_uris":{"android":"levelo://app?vid=e1b7270c-c690-4136-acf1-04f06180c8d3","ios":"levelo://app?vid=e1b7270c-c690-4136-acf1-04f06180c8d3"},"vehicle_type_id":"4","last_reported":1683979863,"current_range_meters":14800,"station_id":"ce4bhs92rcd13ifvqi0g","pricing_plan_id":"free"},{"bike_id":"d2fd4a69-1781-4d10-b230-5796d7806c38","system_id":"levelo_inurba_marseille","lat":43.328371,"lon":5.366912,"is_reserved":false,"is_disabled":false,"rental_uris":{"android":"levelo://app?vid=d2fd4a69-1781-4d10-b230-5796d7806c38","ios":"levelo://app?vid=d2fd4a69-1781-4d10-b230-5796d7806c38"},"vehicle_type_id":"4","last_reported":1683979863,"current_range_meters":2400,"station_id":"ce4bhs92rcd13ifvqi0g","pricing_plan_id":"free"},{"bike_id":"8ea15e6b-0302-4f6b-a369-2130aebae5f9","system_id":"levelo_inurba_marseille","lat":43.328371,"lon":5.366912,"is_reserved":false,"is_disabled":false,"rental_uris":{"android":"levelo://app?vid=8ea15e6b-0302-4f6b-a369-2130aebae5f9","ios":"levelo://app?vid=8ea15e6b-0302-4f6b-a369-2130aebae5f9"},"vehicle_type_id":"4","last_reported":1683979863,"current_range_meters":12800,"station_id":"ce4bhs92rcd13ifvqi0g","pricing_plan_id":"free"},{"bike_id":"2ede4aa6-cb68-4708-8adb-810b72dccf8e","system_id":"levelo_inurba_marseille","lat":43.328371,"lon":5.366912,"is_reserved":false,"is_disabled":false,"rental_uris":{"android":"levelo://app?vid=2ede4aa6-cb68-4708-8adb-810b72dccf8e","ios":"levelo://app?vid=2ede4aa6-cb68-4708-8adb-810b72dccf8e"},"vehicle_type_id":"4","last_reported":1683979863,"current_range_meters":4800,"station_id":"ce4bhs92rcd13ifvqi0g","pricing_plan_id":"free"},{"bike_id":"e2436258-b820-4504-bbf4-d9b9d341aa87","system_id":"levelo_inurba_marseille","lat":43.328371,"lon":5.366912,"is_reserved":false,"is_disabled":false,"rental_uris":{"android":"levelo://app?vid=e2436258-b820-4504-bbf4-d9b9d341aa87","ios":"levelo://app?vid=e2436258-b820-4504-bbf4-d9b9d341aa87"},"vehicle_type_id":"4","last_reported":1683979863,"current_range_meters":13200,"station_id":"ce4bhs92rcd13ifvqi0g","pricing_plan_id":"free"},{"bike_id":"86719306-0ddc-4576-a656-570a4d550f46","system_id":"levelo_inurba_marseille","lat":43.328371,"lon":5.366912,"is_reserved":false,"is_disabled":false,"rental_uris":{"android":"levelo://app?vid=86719306-0ddc-4576-a656-570a4d550f46","ios":"levelo://app?vid=86719306-0ddc-4576-a656-570a4d550f46"},"vehicle_type_id":"4","last_reported":1683979863,"current_range_meters":29600,"station_id":"ce4bhs92rcd13ifvqi0g","pricing_plan_id":"free"},{"bike_id":"4e8d495f-48a2-4a59-a0a4-e2a0bd5ad11a","system_id":"levelo_inurba_marseille","lat":43.328371,"lon":5.366912,"is_reserved":false,"is_disabled":false,"rental_uris":{"android":"levelo://app?vid=4e8d495f-48a2-4a59-a0a4-e2a0bd5ad11a","ios":"levelo://app?vid=4e8d495f-48a2-4a59-a0a4-e2a0bd5ad11a"},"vehicle_type_id":"4","last_reported":1683979863,"current_range_meters":0,"station_id":"ce4bhs92rcd13ifvqi0g","pricing_plan_id":"free"},{"bike_id":"05dd3660-fb8d-4649-b95f-77a48f876534","system_id":"levelo_inurba_marseille","lat":43.3283,"lon":5.36674,"is_reserved":false,"is_disabled":false,"rental_uris":{"android":"levelo://app?vid=05dd3660-fb8d-4649-b95f-77a48f876534","ios":"levelo://app?vid=05dd3660-fb8d-4649-b95f-77a48f876534"},"vehicle_type_id":"4","last_reported":1683979863,"current_range_meters":2800,"station_id":"ce4bhs92rcd13ifvqi0g","pricing_plan_id":"free"},{"bike_id":"35c64b45-67cb-4db8-8dde-84eb3cae14a9","system_id":"levelo_inurba_marseille","lat":43.328371,"lon":5.366912,"is_reserved":false,"is_disabled":false,"rental_uris":{"android":"levelo://app?vid=35c64b45-67cb-4db8-8dde-84eb3cae14a9","ios":"levelo://app?vid=35c64b45-67cb-4db8-8dde-84eb3cae14a9"},"vehicle_type_id":"4","last_reported":1683979863,"current_range_meters":29200,"station_id":"ce4bhs92rcd13ifvqi0g","pricing_plan_id":"free"},{"bike_id":"053fa0fe-d0b8-4b77-9e9a-95a5b916daf2","system_id":"levelo_inurba_marseille","lat":43.328371,"lon":5.366912,"is_reserved":false,"is_disabled":false,"rental_uris":{"android":"levelo://app?vid=053fa0fe-d0b8-4b77-9e9a-95a5b916daf2","ios":"levelo://app?vid=053fa0fe-d0b8-4b77-9e9a-95a5b916daf2"},"vehicle_type_id":"4","last_reported":1683979863,"current_range_meters":400,"station_id":"ce4bhs92rcd13ifvqi0g","pricing_plan_id":"free"},{"bike_id":"2f534b25-3d76-4ad4-bcb9-91101064834c","system_id":"levelo_inurba_marseille","lat":43.328371,"lon":5.366912,"is_reserved":false,"is_disabled":false,"rental_uris":{"android":"levelo://app?vid=2f534b25-3d76-4ad4-bcb9-91101064834c","ios":"levelo://app?vid=2f534b25-3d76-4ad4-bcb9-91101064834c"},"vehicle_type_id":"4","last_reported":1683979863,"current_range_meters":18400,"station_id":"ce4bhs92rcd13ifvqi0g","pricing_plan_id":"free"},{"bike_id":"0a5c6e50-cd6f-4800-a0e5-993347926bc8","system_id":"levelo_inurba_marseille","lat":43.328371,"lon":5.366912,"is_reserved":false,"is_disabled":false,"rental_uris":{"android":"levelo://app?vid=0a5c6e50-cd6f-4800-a0e5-993347926bc8","ios":"levelo://app?vid=0a5c6e50-cd6f-4800-a0e5-993347926bc8"},"vehicle_type_id":"4","last_reported":1683979863,"current_range_meters":12000,"station_id":"ce4bhs92rcd13ifvqi0g","pricing_plan_id":"free"},{"bike_id":"aae1c03f-f4f8-40e1-8429-d7aaef8f7a8d","system_id":"levelo_inurba_marseille","lat":43.29716,"lon":5.36596,"is_reserved":false,"is_disabled":false,"rental_uris":{"android":"levelo://app?vid=aae1c03f-f4f8-40e1-8429-d7aaef8f7a8d","ios":"levelo://app?vid=aae1c03f-f4f8-40e1-8429-d7aaef8f7a8d"},"vehicle_type_id":"4","last_reported":1683979863,"current_range_meters":5600,"station_id":"","pricing_plan_id":"free"},{"bike_id":"173c35b5-642e-4cd5-9a42-cf3fc117f00c","system_id":"levelo_inurba_marseille","lat":43.328371,"lon":5.366912,"is_reserved":false,"is_disabled":false,"rental_uris":{"android":"levelo://app?vid=173c35b5-642e-4cd5-9a42-cf3fc117f00c","ios":"levelo://app?vid=173c35b5-642e-4cd5-9a42-cf3fc117f00c"},"vehicle_type_id":"4","last_reported":1683979863,"current_range_meters":18400,"station_id":"ce4bhs92rcd13ifvqi0g","pricing_plan_id":"free"},{"bike_id":"7ced84aa-2f17-4e67-a003-aed81c99ff00","system_id":"levelo_inurba_marseille","lat":43.296131,"lon":5.370791,"is_reserved":false,"is_disabled":false,"rental_uris":{"android":"levelo://app?vid=7ced84aa-2f17-4e67-a003-aed81c99ff00","ios":"levelo://app?vid=7ced84aa-2f17-4e67-a003-aed81c99ff00"},"vehicle_type_id":"4","last_reported":1683979863,"current_range_meters":26800,"station_id":"ce4bgnh2rcd13ifvqc0g","pricing_plan_id":"free"},{"bike_id":"8e4c74cf-6a54-46de-a59a-7e5de28fe231","system_id":"levelo_inurba_marseille","lat":43.296129,"lon":5.370777,"is_reserved":false,"is_disabled":false,"rental_uris":{"android":"levelo://app?vid=8e4c74cf-6a54-46de-a59a-7e5de28fe231","ios":"levelo://app?vid=8e4c74cf-6a54-46de-a59a-7e5de28fe231"},"vehicle_type_id":"4","last_reported":1683979863,"current_range_meters":18400,"station_id":"ce4bgnh2rcd13ifvqc0g","pricing_plan_id":"free"},{"bike_id":"c1ca7173-7f99-40ec-a106-54eeeedacb28","system_id":"levelo_inurba_marseille","lat":43.29628,"lon":5.37155,"is_reserved":false,"is_disabled":false,"rental_uris":{"android":"levelo://app?vid=c1ca7173-7f99-40ec-a106-54eeeedacb28","ios":"levelo://app?vid=c1ca7173-7f99-40ec-a106-54eeeedacb28"},"vehicle_type_id":"4","last_reported":1683979863,"current_range_meters":27600,"station_id":"ce4bgk12rcd13ifvqbj0","pricing_plan_id":"free"},{"bike_id":"822f0c0a-ff17-421a-80a1-6d7c62d6210d","system_id":"levelo_inurba_marseille","lat":43.296129,"lon":5.370777,"is_reserved":false,"is_disabled":false,"rental_uris":{"android":"levelo://app?vid=822f0c0a-ff17-421a-80a1-6d7c62d6210d","ios":"levelo://app?vid=822f0c0a-ff17-421a-80a1-6d7c62d6210d"},"vehicle_type_id":"4","last_reported":1683979863,"current_range_meters":31200,"station_id":"ce4bgnh2rcd13ifvqc0g","pricing_plan_id":"free"},{"bike_id":"2b6130cc-f5dc-42d7-810d-e6b1e2b56c13","system_id":"levelo_inurba_marseille","lat":43.296131,"lon":5.370791,"is_reserved":false,"is_disabled":false,"rental_uris":{"android":"levelo://app?vid=2b6130cc-f5dc-42d7-810d-e6b1e2b56c13","ios":"levelo://app?vid=2b6130cc-f5dc-42d7-810d-e6b1e2b56c13"},"vehicle_type_id":"4","last_reported":1683979863,"current_range_meters":29200,"station_id":"ce4bgnh2rcd13ifvqc0g","pricing_plan_id":"free"},{"bike_id":"9d3c21c5-31c3-4d87-a99b-82531594bcbc","system_id":"levelo_inurba_marseille","lat":43.296129,"lon":5.370777,"is_reserved":false,"is_disabled":false,"rental_uris":{"android":"levelo://app?vid=9d3c21c5-31c3-4d87-a99b-82531594bcbc","ios":"levelo://app?vid=9d3c21c5-31c3-4d87-a99b-82531594bcbc"},"vehicle_type_id":"4","last_reported":1683979863,"current_range_meters":26400,"station_id":"ce4bgnh2rcd13ifvqc0g","pricing_plan_id":"free"},{"bike_id":"427a54a2-4cd7-4df3-bb47-1a3fe4188a51","system_id":"levelo_inurba_marseille","lat":43.29573,"lon":5.367355,"is_reserved":false,"is_disabled":false,"rental_uris":{"android":"levelo://app?vid=427a54a2-4cd7-4df3-bb47-1a3fe4188a51","ios":"levelo://app?vid=427a54a2-4cd7-4df3-bb47-1a3fe4188a51"},"vehicle_type_id":"4","last_reported":1683979863,"current_range_meters":29200,"station_id":"ce4bgph2rcd13ifvqc2g","pricing_plan_id":"free"},{"bike_id":"181d7f1b-530a-479e-90b8-d686f8c1b19c","system_id":"levelo_inurba_marseille","lat":43.296935,"lon":5.376544,"is_reserved":false,"is_disabled":false,"rental_uris":{"android":"levelo://app?vid=181d7f1b-530a-479e-90b8-d686f8c1b19c","ios":"levelo://app?vid=181d7f1b-530a-479e-90b8-d686f8c1b19c"},"vehicle_type_id":"4","last_reported":1683979863,"current_range_meters":27200,"station_id":"ce4bgkh2rcd13ifvqbl0","pricing_plan_id":"free"},{"bike_id":"e62a4019-15e5-4aa8-ac87-39c5d1aaa8ba","system_id":"levelo_inurba_marseille","lat":43.30007,"lon":5.38289,"is_reserved":false,"is_disabled":false,"rental_uris":{"android":"levelo://app?vid=e62a4019-15e5-4aa8-ac87-39c5d1aaa8ba","ios":"levelo://app?vid=e62a4019-15e5-4aa8-ac87-39c5d1aaa8ba"},"vehicle_type_id":"4","last_reported":1683979863,"current_range_meters":0,"station_id":"","pricing_plan_id":"free"},{"bike_id":"67a59340-b9c5-4bc8-b9e9-7261c7e14ded","system_id":"levelo_inurba_marseille","lat":43.296935,"lon":5.376544,"is_reserved":false,"is_disabled":false,"rental_uris":{"android":"levelo://app?vid=67a59340-b9c5-4bc8-b9e9-7261c7e14ded","ios":"levelo://app?vid=67a59340-b9c5-4bc8-b9e9-7261c7e14ded"},"vehicle_type_id":"4","last_reported":1683979863,"current_range_meters":12800,"station_id":"ce4bgkh2rcd13ifvqbl0","pricing_plan_id":"free"},{"bike_id":"f5884997-6815-4e5f-a5ec-508f4f628cfc","system_id":"levelo_inurba_marseille","lat":43.299028,"lon":5.381509,"is_reserved":false,"is_disabled":false,"rental_uris":{"android":"levelo://app?vid=f5884997-6815-4e5f-a5ec-508f4f628cfc","ios":"levelo://app?vid=f5884997-6815-4e5f-a5ec-508f4f628cfc"},"vehicle_type_id":"4","last_reported":1683979863,"current_range_meters":28800,"station_id":"ce4bgj12rcd13ifvqbc0","pricing_plan_id":"free"},{"bike_id":"6be093f0-cab6-4701-aede-0fce5895198b","system_id":"levelo_inurba_marseille","lat":43.299028,"lon":5.381509,"is_reserved":false,"is_disabled":false,"rental_uris":{"android":"levelo://app?vid=6be093f0-cab6-4701-aede-0fce5895198b","ios":"levelo://app?vid=6be093f0-cab6-4701-aede-0fce5895198b"},"vehicle_type_id":"4","last_reported":1683979863,"current_range_meters":14400,"station_id":"ce4bgj12rcd13ifvqbc0","pricing_plan_id":"free"},{"bike_id":"3be8cc9a-718e-4724-8d65-0d1831e0ee5c","system_id":"levelo_inurba_marseille","lat":43.299028,"lon":5.381509,"is_reserved":false,"is_disabled":false,"rental_uris":{"android":"levelo://app?vid=3be8cc9a-718e-4724-8d65-0d1831e0ee5c","ios":"levelo://app?vid=3be8cc9a-718e-4724-8d65-0d1831e0ee5c"},"vehicle_type_id":"4","last_reported":1683979863,"current_range_meters":28400,"station_id":"ce4bgj12rcd13ifvqbc0","pricing_plan_id":"free"},{"bike_id":"cbbe50dc-14f4-4f18-b9d6-0e6c54f5ab14","system_id":"levelo_inurba_marseille","lat":43.299028,"lon":5.381509,"is_reserved":false,"is_disabled":false,"rental_uris":{"android":"levelo://app?vid=cbbe50dc-14f4-4f18-b9d6-0e6c54f5ab14","ios":"levelo://app?vid=cbbe50dc-14f4-4f18-b9d6-0e6c54f5ab14"},"vehicle_type_id":"4","last_reported":1683979863,"current_range_meters":28400,"station_id":"ce4bgj12rcd13ifvqbc0","pricing_plan_id":"free"},{"bike_id":"067cffbc-c651-4098-8f77-789b83927572","system_id":"levelo_inurba_marseille","lat":43.299028,"lon":5.381509,"is_reserved":false,"is_disabled":false,"rental_uris":{"android":"levelo://app?vid=067cffbc-c651-4098-8f77-789b83927572","ios":"levelo://app?vid=067cffbc-c651-4098-8f77-789b83927572"},"vehicle_type_id":"4","last_reported":1683979863,"current_range_meters":31200,"station_id":"ce4bgj12rcd13ifvqbc0","pricing_plan_id":"free"},{"bike_id":"fe3f7f9f-a051-4228-a983-dee8d150376c","system_id":"levelo_inurba_marseille","lat":43.309589,"lon":5.390258,"is_reserved":false,"is_disabled":false,"rental_uris":{"android":"levelo://app?vid=fe3f7f9f-a051-4228-a983-dee8d150376c","ios":"levelo://app?vid=fe3f7f9f-a051-4228-a983-dee8d150376c"},"vehicle_type_id":"4","last_reported":1683979863,"current_range_meters":31200,"station_id":"ce4bgup2rcd13ifvqco0","pricing_plan_id":"free"},{"bike_id":"6fdda906-61a6-499b-bb5f-b54874585ce2","system_id":"levelo_inurba_marseille","lat":43.309589,"lon":5.390258,"is_reserved":false,"is_disabled":false,"rental_uris":{"android":"levelo://app?vid=6fdda906-61a6-499b-bb5f-b54874585ce2","ios":"levelo://app?vid=6fdda906-61a6-499b-bb5f-b54874585ce2"},"vehicle_type_id":"4","last_reported":1683979863,"current_range_meters":26800,"station_id":"ce4bgup2rcd13ifvqco0","pricing_plan_id":"free"},{"bike_id":"4575b7ac-e9a8-4cc0-a77a-7d893f503fcb","system_id":"levelo_inurba_marseille","lat":43.29702,"lon":5.37703,"is_reserved":false,"is_disabled":false,"rental_uris":{"android":"levelo://app?vid=4575b7ac-e9a8-4cc0-a77a-7d893f503fcb","ios":"levelo://app?vid=4575b7ac-e9a8-4cc0-a77a-7d893f503fcb"},"vehicle_type_id":"4","last_reported":1683979863,"current_range_meters":28400,"station_id":"","pricing_plan_id":"free"},{"bike_id":"316d6e8b-366e-4c80-b7c0-8f2d0f1dc835","system_id":"levelo_inurba_marseille","lat":43.30945,"lon":5.39035,"is_reserved":false,"is_disabled":false,"rental_uris":{"android":"levelo://app?vid=316d6e8b-366e-4c80-b7c0-8f2d0f1dc835","ios":"levelo://app?vid=316d6e8b-366e-4c80-b7c0-8f2d0f1dc835"},"vehicle_type_id":"4","last_reported":1683979863,"current_range_meters":31200,"station_id":"ce4bgup2rcd13ifvqco0","pricing_plan_id":"free"},{"bike_id":"67ee8f55-42c6-4507-b8a6-12f16a7ba879","system_id":"levelo_inurba_marseille","lat":43.309589,"lon":5.390258,"is_reserved":false,"is_disabled":false,"rental_uris":{"android":"levelo://app?vid=67ee8f55-42c6-4507-b8a6-12f16a7ba879","ios":"levelo://app?vid=67ee8f55-42c6-4507-b8a6-12f16a7ba879"},"vehicle_type_id":"4","last_reported":1683979863,"current_range_meters":24800,"station_id":"ce4bgup2rcd13ifvqco0","pricing_plan_id":"free"},{"bike_id":"27c651d2-bba8-4192-9758-1650a663390a","system_id":"levelo_inurba_marseille","lat":43.309589,"lon":5.390258,"is_reserved":false,"is_disabled":false,"rental_uris":{"android":"levelo://app?vid=27c651d2-bba8-4192-9758-1650a663390a","ios":"levelo://app?vid=27c651d2-bba8-4192-9758-1650a663390a"},"vehicle_type_id":"4","last_reported":1683979863,"current_range_meters":27200,"station_id":"ce4bgup2rcd13ifvqco0","pricing_plan_id":"free"},{"bike_id":"1b8e8455-d974-44bb-9a4e-7e7867c76231","system_id":"levelo_inurba_marseille","lat":43.31759,"lon":5.39009,"is_reserved":false,"is_disabled":false,"rental_uris":{"android":"levelo://app?vid=1b8e8455-d974-44bb-9a4e-7e7867c76231","ios":"levelo://app?vid=1b8e8455-d974-44bb-9a4e-7e7867c76231"},"vehicle_type_id":"4","last_reported":1683979863,"current_range_meters":17600,"station_id":"ce4bhqp2rcd13ifvqhng","pricing_plan_id":"free"},{"bike_id":"2e4072c4-97ae-412f-891d-364f103e5e6c","system_id":"levelo_inurba_marseille","lat":43.31755,"lon":5.39015,"is_reserved":false,"is_disabled":false,"rental_uris":{"android":"levelo://app?vid=2e4072c4-97ae-412f-891d-364f103e5e6c","ios":"levelo://app?vid=2e4072c4-97ae-412f-891d-364f103e5e6c"},"vehicle_type_id":"4","last_reported":1683979863,"current_range_meters":18800,"station_id":"ce4bhqp2rcd13ifvqhng","pricing_plan_id":"free"},{"bike_id":"80b60f6f-28ee-4635-a30c-377c46bb9c86","system_id":"levelo_inurba_marseille","lat":43.317557,"lon":5.390173,"is_reserved":false,"is_disabled":false,"rental_uris":{"android":"levelo://app?vid=80b60f6f-28ee-4635-a30c-377c46bb9c86","ios":"levelo://app?vid=80b60f6f-28ee-4635-a30c-377c46bb9c86"},"vehicle_type_id":"4","last_reported":1683979863,"current_range_meters":17200,"station_id":"ce4bhqp2rcd13ifvqhng","pricing_plan_id":"free"},{"bike_id":"eb214527-8203-4410-a520-f2f2d1c67bb7","system_id":"levelo_inurba_marseille","lat":43.317557,"lon":5.390173,"is_reserved":false,"is_disabled":false,"rental_uris":{"android":"levelo://app?vid=eb214527-8203-4410-a520-f2f2d1c67bb7","ios":"levelo://app?vid=eb214527-8203-4410-a520-f2f2d1c67bb7"},"vehicle_type_id":"4","last_reported":1683979863,"current_range_meters":12000,"station_id":"ce4bhqp2rcd13ifvqhng","pricing_plan_id":"free"},{"bike_id":"8d249c4e-5841-43df-a8c1-1ee71a14ff90","system_id":"levelo_inurba_marseille","lat":43.3176,"lon":5.39017,"is_reserved":false,"is_disabled":false,"rental_uris":{"android":"levelo://app?vid=8d249c4e-5841-43df-a8c1-1ee71a14ff90","ios":"levelo://app?vid=8d249c4e-5841-43df-a8c1-1ee71a14ff90"},"vehicle_type_id":"4","last_reported":1683979863,"current_range_meters":29600,"station_id":"ce4bhqp2rcd13ifvqhng","pricing_plan_id":"free"},{"bike_id":"a1c564bc-7833-41f9-a7ef-52015e433698","system_id":"levelo_inurba_marseille","lat":43.31755,"lon":5.3902,"is_reserved":false,"is_disabled":false,"rental_uris":{"android":"levelo://app?vid=a1c564bc-7833-41f9-a7ef-52015e433698","ios":"levelo://app?vid=a1c564bc-7833-41f9-a7ef-52015e433698"},"vehicle_type_id":"4","last_reported":1683979863,"current_range_meters":31200,"station_id":"ce4bhqp2rcd13ifvqhng","pricing_plan_id":"free"},{"bike_id":"e82a5193-596f-4e0a-8060-27fe19032a4a","system_id":"levelo_inurba_marseille","lat":43.317557,"lon":5.390173,"is_reserved":false,"is_disabled":false,"rental_uris":{"android":"levelo://app?vid=e82a5193-596f-4e0a-8060-27fe19032a4a","ios":"levelo://app?vid=e82a5193-596f-4e0a-8060-27fe19032a4a"},"vehicle_type_id":"4","last_reported":1683979863,"current_range_meters":25200,"station_id":"ce4bhqp2rcd13ifvqhng","pricing_plan_id":"free"},{"bike_id":"7e101d88-7926-4513-a08a-b2a6fdb92c65","system_id":"levelo_inurba_marseille","lat":43.31756,"lon":5.39021,"is_reserved":false,"is_disabled":false,"rental_uris":{"android":"levelo://app?vid=7e101d88-7926-4513-a08a-b2a6fdb92c65","ios":"levelo://app?vid=7e101d88-7926-4513-a08a-b2a6fdb92c65"},"vehicle_type_id":"4","last_reported":1683979863,"current_range_meters":29600,"station_id":"ce4bhqp2rcd13ifvqhng","pricing_plan_id":"free"},{"bike_id":"01208a13-824a-4a94-be8d-2a48a5b6b683","system_id":"levelo_inurba_marseille","lat":43.31757,"lon":5.39026,"is_reserved":false,"is_disabled":false,"rental_uris":{"android":"levelo://app?vid=01208a13-824a-4a94-be8d-2a48a5b6b683","ios":"levelo://app?vid=01208a13-824a-4a94-be8d-2a48a5b6b683"},"vehicle_type_id":"4","last_reported":1683979863,"current_range_meters":30400,"station_id":"ce4bhqp2rcd13ifvqhng","pricing_plan_id":"free"},{"bike_id":"bdc17ff2-edc3-49c0-8a4d-1ed309e7ace3","system_id":"levelo_inurba_marseille","lat":43.298037,"lon":5.381066,"is_reserved":false,"is_disabled":false,"rental_uris":{"android":"levelo://app?vid=bdc17ff2-edc3-49c0-8a4d-1ed309e7ace3","ios":"levelo://app?vid=bdc17ff2-edc3-49c0-8a4d-1ed309e7ace3"},"vehicle_type_id":"4","last_reported":1683979863,"current_range_meters":26800,"station_id":"ce4bgip2rcd13ifvqbb0","pricing_plan_id":"free"},{"bike_id":"83139bd2-201a-4934-989c-009b5b31b358","system_id":"levelo_inurba_marseille","lat":43.298037,"lon":5.381066,"is_reserved":false,"is_disabled":false,"rental_uris":{"android":"levelo://app?vid=83139bd2-201a-4934-989c-009b5b31b358","ios":"levelo://app?vid=83139bd2-201a-4934-989c-009b5b31b358"},"vehicle_type_id":"4","last_reported":1683979863,"current_range_meters":17600,"station_id":"ce4bgip2rcd13ifvqbb0","pricing_plan_id":"free"},{"bike_id":"266b4a35-c061-49fc-b87b-793fc6d1bca2","system_id":"levelo_inurba_marseille","lat":43.29581,"lon":5.37514,"is_reserved":false,"is_disabled":false,"rental_uris":{"android":"levelo://app?vid=266b4a35-c061-49fc-b87b-793fc6d1bca2","ios":"levelo://app?vid=266b4a35-c061-49fc-b87b-793fc6d1bca2"},"vehicle_type_id":"4","last_reported":1683979863,"current_range_meters":4000,"station_id":"ce4bgh92rcd13ifvqb50","pricing_plan_id":"free"},{"bike_id":"d039a4a4-a15c-45c0-8a4b-93fe2d911b77","system_id":"levelo_inurba_marseille","lat":43.298037,"lon":5.381066,"is_reserved":false,"is_disabled":false,"rental_uris":{"android":"levelo://app?vid=d039a4a4-a15c-45c0-8a4b-93fe2d911b77","ios":"levelo://app?vid=d039a4a4-a15c-45c0-8a4b-93fe2d911b77"},"vehicle_type_id":"4","last_reported":1683979863,"current_range_meters":24400,"station_id":"ce4bgip2rcd13ifvqbb0","pricing_plan_id":"free"},{"bike_id":"1edc5063-7ced-4ebf-9873-e4bb59b35f16","system_id":"levelo_inurba_marseille","lat":43.29574,"lon":5.37503,"is_reserved":false,"is_disabled":false,"rental_uris":{"android":"levelo://app?vid=1edc5063-7ced-4ebf-9873-e4bb59b35f16","ios":"levelo://app?vid=1edc5063-7ced-4ebf-9873-e4bb59b35f16"},"vehicle_type_id":"4","last_reported":1683979863,"current_range_meters":19600,"station_id":"ce4bgh92rcd13ifvqb50","pricing_plan_id":"free"},{"bike_id":"630bf584-a05b-48d8-9e17-1a319793fcf8","system_id":"levelo_inurba_marseille","lat":43.29577,"lon":5.37515,"is_reserved":false,"is_disabled":false,"rental_uris":{"android":"levelo://app?vid=630bf584-a05b-48d8-9e17-1a319793fcf8","ios":"levelo://app?vid=630bf584-a05b-48d8-9e17-1a319793fcf8"},"vehicle_type_id":"4","last_reported":1683979863,"current_range_meters":4800,"station_id":"ce4bgh92rcd13ifvqb50","pricing_plan_id":"free"},{"bike_id":"503c588a-0f27-4537-bc4e-9232309c6b66","system_id":"levelo_inurba_marseille","lat":43.29572,"lon":5.37508,"is_reserved":false,"is_disabled":false,"rental_uris":{"android":"levelo://app?vid=503c588a-0f27-4537-bc4e-9232309c6b66","ios":"levelo://app?vid=503c588a-0f27-4537-bc4e-9232309c6b66"},"vehicle_type_id":"4","last_reported":1683979863,"current_range_meters":30000,"station_id":"ce4bgh92rcd13ifvqb50","pricing_plan_id":"free"},{"bike_id":"291aa194-49a8-4465-809a-3d7a84efde78","system_id":"levelo_inurba_marseille","lat":43.295748,"lon":5.37522,"is_reserved":false,"is_disabled":false,"rental_uris":{"android":"levelo://app?vid=291aa194-49a8-4465-809a-3d7a84efde78","ios":"levelo://app?vid=291aa194-49a8-4465-809a-3d7a84efde78"},"vehicle_type_id":"4","last_reported":1683979863,"current_range_meters":31200,"station_id":"ce4bgh92rcd13ifvqb50","pricing_plan_id":"free"},{"bike_id":"ba7740a4-3259-4263-85a0-2595de86067a","system_id":"levelo_inurba_marseille","lat":43.29573,"lon":5.37513,"is_reserved":false,"is_disabled":false,"rental_uris":{"android":"levelo://app?vid=ba7740a4-3259-4263-85a0-2595de86067a","ios":"levelo://app?vid=ba7740a4-3259-4263-85a0-2595de86067a"},"vehicle_type_id":"4","last_reported":1683979863,"current_range_meters":26400,"station_id":"ce4bgh92rcd13ifvqb50","pricing_plan_id":"free"},{"bike_id":"7e438a4c-bcb8-4396-9779-ce99870755b6","system_id":"levelo_inurba_marseille","lat":43.295748,"lon":5.37522,"is_reserved":false,"is_disabled":false,"rental_uris":{"android":"levelo://app?vid=7e438a4c-bcb8-4396-9779-ce99870755b6","ios":"levelo://app?vid=7e438a4c-bcb8-4396-9779-ce99870755b6"},"vehicle_type_id":"4","last_reported":1683979863,"current_range_meters":28800,"station_id":"ce4bgh92rcd13ifvqb50","pricing_plan_id":"free"},{"bike_id":"a5b1bdd9-dd6e-4158-aea7-5a66d2e4a970","system_id":"levelo_inurba_marseille","lat":43.295748,"lon":5.37522,"is_reserved":false,"is_disabled":false,"rental_uris":{"android":"levelo://app?vid=a5b1bdd9-dd6e-4158-aea7-5a66d2e4a970","ios":"levelo://app?vid=a5b1bdd9-dd6e-4158-aea7-5a66d2e4a970"},"vehicle_type_id":"4","last_reported":1683979863,"current_range_meters":28800,"station_id":"ce4bgh92rcd13ifvqb50","pricing_plan_id":"free"},{"bike_id":"ecec310a-dda5-4c66-8193-23b078b1d690","system_id":"levelo_inurba_marseille","lat":43.304274,"lon":5.388873,"is_reserved":false,"is_disabled":false,"rental_uris":{"android":"levelo://app?vid=ecec310a-dda5-4c66-8193-23b078b1d690","ios":"levelo://app?vid=ecec310a-dda5-4c66-8193-23b078b1d690"},"vehicle_type_id":"4","last_reported":1683979863,"current_range_meters":24800,"station_id":"ce4bgk12rcd13ifvqbi0","pricing_plan_id":"free"},{"bike_id":"9b4ee669-441b-4063-8dcd-51149bb988be","system_id":"levelo_inurba_marseille","lat":43.29567,"lon":5.37505,"is_reserved":false,"is_disabled":false,"rental_uris":{"android":"levelo://app?vid=9b4ee669-441b-4063-8dcd-51149bb988be","ios":"levelo://app?vid=9b4ee669-441b-4063-8dcd-51149bb988be"},"vehicle_type_id":"4","last_reported":1683979863,"current_range_meters":15600,"station_id":"ce4bgh92rcd13ifvqb50","pricing_plan_id":"free"},{"bike_id":"78391e36-6134-42bf-aee3-4b52a8a27141","system_id":"levelo_inurba_marseille","lat":43.295952,"lon":5.3761,"is_reserved":false,"is_disabled":false,"rental_uris":{"android":"levelo://app?vid=78391e36-6134-42bf-aee3-4b52a8a27141","ios":"levelo://app?vid=78391e36-6134-42bf-aee3-4b52a8a27141"},"vehicle_type_id":"4","last_reported":1683979863,"current_range_meters":23600,"station_id":"ce4bhh12rcd13ifvqfg0","pricing_plan_id":"free"},{"bike_id":"7e0c7a5c-0c07-4d93-bbed-dfc49dd25cc0","system_id":"levelo_inurba_marseille","lat":43.295748,"lon":5.37522,"is_reserved":false,"is_disabled":false,"rental_uris":{"android":"levelo://app?vid=7e0c7a5c-0c07-4d93-bbed-dfc49dd25cc0","ios":"levelo://app?vid=7e0c7a5c-0c07-4d93-bbed-dfc49dd25cc0"},"vehicle_type_id":"4","last_reported":1683979863,"current_range_meters":31200,"station_id":"ce4bgh92rcd13ifvqb50","pricing_plan_id":"free"},{"bike_id":"bdb9da33-352e-43fb-be75-a6e3afc205a8","system_id":"levelo_inurba_marseille","lat":43.295748,"lon":5.37522,"is_reserved":false,"is_disabled":false,"rental_uris":{"android":"levelo://app?vid=bdb9da33-352e-43fb-be75-a6e3afc205a8","ios":"levelo://app?vid=bdb9da33-352e-43fb-be75-a6e3afc205a8"},"vehicle_type_id":"4","last_reported":1683979863,"current_range_meters":25600,"station_id":"ce4bgh92rcd13ifvqb50","pricing_plan_id":"free"},{"bike_id":"298e1788-1b1f-4111-b2fa-4e0a25e6dce1","system_id":"levelo_inurba_marseille","lat":43.295748,"lon":5.37522,"is_reserved":false,"is_disabled":false,"rental_uris":{"android":"levelo://app?vid=298e1788-1b1f-4111-b2fa-4e0a25e6dce1","ios":"levelo://app?vid=298e1788-1b1f-4111-b2fa-4e0a25e6dce1"},"vehicle_type_id":"4","last_reported":1683979863,"current_range_meters":26000,"station_id":"ce4bgh92rcd13ifvqb50","pricing_plan_id":"free"},{"bike_id":"4874f710-3b60-467e-b717-8de90702043e","system_id":"levelo_inurba_marseille","lat":43.296277,"lon":5.377108,"is_reserved":false,"is_disabled":false,"rental_uris":{"android":"levelo://app?vid=4874f710-3b60-467e-b717-8de90702043e","ios":"levelo://app?vid=4874f710-3b60-467e-b717-8de90702043e"},"vehicle_type_id":"4","last_reported":1683979863,"current_range_meters":26800,"station_id":"ce4bgi92rcd13ifvqb90","pricing_plan_id":"free"},{"bike_id":"0a57fb6e-6e48-4d29-b1ce-5d83064f960e","system_id":"levelo_inurba_marseille","lat":43.296277,"lon":5.377108,"is_reserved":false,"is_disabled":false,"rental_uris":{"android":"levelo://app?vid=0a57fb6e-6e48-4d29-b1ce-5d83064f960e","ios":"levelo://app?vid=0a57fb6e-6e48-4d29-b1ce-5d83064f960e"},"vehicle_type_id":"4","last_reported":1683979863,"current_range_meters":28800,"station_id":"ce4bgi92rcd13ifvqb90","pricing_plan_id":"free"},{"bike_id":"1c240e61-f1a3-4506-bc21-40b526d12ba8","system_id":"levelo_inurba_marseille","lat":43.304278,"lon":5.388868,"is_reserved":false,"is_disabled":false,"rental_uris":{"android":"levelo://app?vid=1c240e61-f1a3-4506-bc21-40b526d12ba8","ios":"levelo://app?vid=1c240e61-f1a3-4506-bc21-40b526d12ba8"},"vehicle_type_id":"4","last_reported":1683979863,"current_range_meters":24000,"station_id":"ce4bgk12rcd13ifvqbi0","pricing_plan_id":"free"},{"bike_id":"bf0ce62a-95b1-43f0-86a1-d1f6f901cad2","system_id":"levelo_inurba_marseille","lat":43.295748,"lon":5.37522,"is_reserved":false,"is_disabled":false,"rental_uris":{"android":"levelo://app?vid=bf0ce62a-95b1-43f0-86a1-d1f6f901cad2","ios":"levelo://app?vid=bf0ce62a-95b1-43f0-86a1-d1f6f901cad2"},"vehicle_type_id":"4","last_reported":1683979863,"current_range_meters":23200,"station_id":"ce4bgh92rcd13ifvqb50","pricing_plan_id":"free"},{"bike_id":"3acd846f-d6fa-444d-b2b0-003f1ce6a4e9","system_id":"levelo_inurba_marseille","lat":43.295748,"lon":5.37522,"is_reserved":false,"is_disabled":false,"rental_uris":{"android":"levelo://app?vid=3acd846f-d6fa-444d-b2b0-003f1ce6a4e9","ios":"levelo://app?vid=3acd846f-d6fa-444d-b2b0-003f1ce6a4e9"},"vehicle_type_id":"4","last_reported":1683979863,"current_range_meters":24000,"station_id":"ce4bgh92rcd13ifvqb50","pricing_plan_id":"free"},{"bike_id":"820d2e83-f2f3-486d-a8a6-2a13b43167fd","system_id":"levelo_inurba_marseille","lat":43.295748,"lon":5.37522,"is_reserved":false,"is_disabled":false,"rental_uris":{"android":"levelo://app?vid=820d2e83-f2f3-486d-a8a6-2a13b43167fd","ios":"levelo://app?vid=820d2e83-f2f3-486d-a8a6-2a13b43167fd"},"vehicle_type_id":"4","last_reported":1683979863,"current_range_meters":28400,"station_id":"ce4bgh92rcd13ifvqb50","pricing_plan_id":"free"},{"bike_id":"fa1fd47a-05c9-4bfc-a5e1-8ab6b3a65edc","system_id":"levelo_inurba_marseille","lat":43.295748,"lon":5.37522,"is_reserved":false,"is_disabled":false,"rental_uris":{"android":"levelo://app?vid=fa1fd47a-05c9-4bfc-a5e1-8ab6b3a65edc","ios":"levelo://app?vid=fa1fd47a-05c9-4bfc-a5e1-8ab6b3a65edc"},"vehicle_type_id":"4","last_reported":1683979863,"current_range_meters":3200,"station_id":"ce4bgh92rcd13ifvqb50","pricing_plan_id":"free"},{"bike_id":"9ff7ca81-6e77-4585-b23b-36c06d90fa12","system_id":"levelo_inurba_marseille","lat":43.29623,"lon":5.3772,"is_reserved":false,"is_disabled":false,"rental_uris":{"android":"levelo://app?vid=9ff7ca81-6e77-4585-b23b-36c06d90fa12","ios":"levelo://app?vid=9ff7ca81-6e77-4585-b23b-36c06d90fa12"},"vehicle_type_id":"4","last_reported":1683979863,"current_range_meters":29600,"station_id":"ce4bgi92rcd13ifvqb90","pricing_plan_id":"free"},{"bike_id":"896f2c39-8017-4ea9-b0de-4e26784a89b7","system_id":"levelo_inurba_marseille","lat":43.295748,"lon":5.37522,"is_reserved":false,"is_disabled":false,"rental_uris":{"android":"levelo://app?vid=896f2c39-8017-4ea9-b0de-4e26784a89b7","ios":"levelo://app?vid=896f2c39-8017-4ea9-b0de-4e26784a89b7"},"vehicle_type_id":"4","last_reported":1683979863,"current_range_meters":28800,"station_id":"ce4bgh92rcd13ifvqb50","pricing_plan_id":"free"},{"bike_id":"2abf43cd-cf6e-43a8-a699-92badcea8054","system_id":"levelo_inurba_marseille","lat":43.295748,"lon":5.37522,"is_reserved":false,"is_disabled":false,"rental_uris":{"android":"levelo://app?vid=2abf43cd-cf6e-43a8-a699-92badcea8054","ios":"levelo://app?vid=2abf43cd-cf6e-43a8-a699-92badcea8054"},"vehicle_type_id":"4","last_reported":1683979863,"current_range_meters":26000,"station_id":"ce4bgh92rcd13ifvqb50","pricing_plan_id":"free"},{"bike_id":"44d1b9f3-d303-4550-8ec4-7216682e43e8","system_id":"levelo_inurba_marseille","lat":43.29623,"lon":5.37725,"is_reserved":false,"is_disabled":false,"rental_uris":{"android":"levelo://app?vid=44d1b9f3-d303-4550-8ec4-7216682e43e8","ios":"levelo://app?vid=44d1b9f3-d303-4550-8ec4-7216682e43e8"},"vehicle_type_id":"4","last_reported":1683979863,"current_range_meters":29600,"station_id":"ce4bgi92rcd13ifvqb90","pricing_plan_id":"free"},{"bike_id":"94a0f1f4-3902-4b17-92b0-e2f749325968","system_id":"levelo_inurba_marseille","lat":43.296277,"lon":5.377108,"is_reserved":false,"is_disabled":false,"rental_uris":{"android":"levelo://app?vid=94a0f1f4-3902-4b17-92b0-e2f749325968","ios":"levelo://app?vid=94a0f1f4-3902-4b17-92b0-e2f749325968"},"vehicle_type_id":"4","last_reported":1683979863,"current_range_meters":31600,"station_id":"ce4bgi92rcd13ifvqb90","pricing_plan_id":"free"},{"bike_id":"241ea3f2-0d97-4596-a04e-e3b29977f1b9","system_id":"levelo_inurba_marseille","lat":43.296277,"lon":5.377108,"is_reserved":false,"is_disabled":false,"rental_uris":{"android":"levelo://app?vid=241ea3f2-0d97-4596-a04e-e3b29977f1b9","ios":"levelo://app?vid=241ea3f2-0d97-4596-a04e-e3b29977f1b9"},"vehicle_type_id":"4","last_reported":1683979863,"current_range_meters":31200,"station_id":"ce4bgi92rcd13ifvqb90","pricing_plan_id":"free"},{"bike_id":"27003711-922c-41c9-a5bc-9765bda22e72","system_id":"levelo_inurba_marseille","lat":43.296263,"lon":5.377094,"is_reserved":false,"is_disabled":false,"rental_uris":{"android":"levelo://app?vid=27003711-922c-41c9-a5bc-9765bda22e72","ios":"levelo://app?vid=27003711-922c-41c9-a5bc-9765bda22e72"},"vehicle_type_id":"4","last_reported":1683979863,"current_range_meters":31200,"station_id":"ce4bgi92rcd13ifvqb90","pricing_plan_id":"free"},{"bike_id":"e3ae861a-53b0-4f46-84a7-63822a382315","system_id":"levelo_inurba_marseille","lat":43.29612,"lon":5.37728,"is_reserved":false,"is_disabled":false,"rental_uris":{"android":"levelo://app?vid=e3ae861a-53b0-4f46-84a7-63822a382315","ios":"levelo://app?vid=e3ae861a-53b0-4f46-84a7-63822a382315"},"vehicle_type_id":"4","last_reported":1683979863,"current_range_meters":21200,"station_id":"ce4bgi92rcd13ifvqb90","pricing_plan_id":"free"},{"bike_id":"9e8d4638-dc6d-441e-a8fc-6c3bc2bf49f7","system_id":"levelo_inurba_marseille","lat":43.296263,"lon":5.377094,"is_reserved":false,"is_disabled":false,"rental_uris":{"android":"levelo://app?vid=9e8d4638-dc6d-441e-a8fc-6c3bc2bf49f7","ios":"levelo://app?vid=9e8d4638-dc6d-441e-a8fc-6c3bc2bf49f7"},"vehicle_type_id":"4","last_reported":1683979863,"current_range_meters":29600,"station_id":"ce4bgi92rcd13ifvqb90","pricing_plan_id":"free"},{"bike_id":"73eb22b8-e80a-4c25-88ce-fe2ddb47ef74","system_id":"levelo_inurba_marseille","lat":43.296263,"lon":5.377094,"is_reserved":false,"is_disabled":false,"rental_uris":{"android":"levelo://app?vid=73eb22b8-e80a-4c25-88ce-fe2ddb47ef74","ios":"levelo://app?vid=73eb22b8-e80a-4c25-88ce-fe2ddb47ef74"},"vehicle_type_id":"4","last_reported":1683979863,"current_range_meters":26000,"station_id":"ce4bgi92rcd13ifvqb90","pricing_plan_id":"free"},{"bike_id":"e25d9ec1-86b0-4790-9af8-7837c3f07c91","system_id":"levelo_inurba_marseille","lat":43.296263,"lon":5.377094,"is_reserved":false,"is_disabled":false,"rental_uris":{"android":"levelo://app?vid=e25d9ec1-86b0-4790-9af8-7837c3f07c91","ios":"levelo://app?vid=e25d9ec1-86b0-4790-9af8-7837c3f07c91"},"vehicle_type_id":"4","last_reported":1683979863,"current_range_meters":31600,"station_id":"ce4bgi92rcd13ifvqb90","pricing_plan_id":"free"},{"bike_id":"e5cf1103-d9ef-4a82-83da-03921209dde5","system_id":"levelo_inurba_marseille","lat":43.295279,"lon":5.375048,"is_reserved":false,"is_disabled":false,"rental_uris":{"android":"levelo://app?vid=e5cf1103-d9ef-4a82-83da-03921209dde5","ios":"levelo://app?vid=e5cf1103-d9ef-4a82-83da-03921209dde5"},"vehicle_type_id":"4","last_reported":1683979863,"current_range_meters":30000,"station_id":"ce4bgkp2rcd13ifvqbmg","pricing_plan_id":"free"},{"bike_id":"cc50c958-ba33-4085-9de8-8ab1c1eb820c","system_id":"levelo_inurba_marseille","lat":43.295279,"lon":5.375048,"is_reserved":false,"is_disabled":false,"rental_uris":{"android":"levelo://app?vid=cc50c958-ba33-4085-9de8-8ab1c1eb820c","ios":"levelo://app?vid=cc50c958-ba33-4085-9de8-8ab1c1eb820c"},"vehicle_type_id":"4","last_reported":1683979863,"current_range_meters":31200,"station_id":"ce4bgkp2rcd13ifvqbmg","pricing_plan_id":"free"},{"bike_id":"39d2eff7-82e2-4d80-a2cc-2c65fd56a839","system_id":"levelo_inurba_marseille","lat":43.295279,"lon":5.375048,"is_reserved":false,"is_disabled":false,"rental_uris":{"android":"levelo://app?vid=39d2eff7-82e2-4d80-a2cc-2c65fd56a839","ios":"levelo://app?vid=39d2eff7-82e2-4d80-a2cc-2c65fd56a839"},"vehicle_type_id":"4","last_reported":1683979863,"current_range_meters":22000,"station_id":"ce4bgkp2rcd13ifvqbmg","pricing_plan_id":"free"},{"bike_id":"d5ca1229-e224-48d4-a09a-822036e7f494","system_id":"levelo_inurba_marseille","lat":43.295279,"lon":5.375048,"is_reserved":false,"is_disabled":false,"rental_uris":{"android":"levelo://app?vid=d5ca1229-e224-48d4-a09a-822036e7f494","ios":"levelo://app?vid=d5ca1229-e224-48d4-a09a-822036e7f494"},"vehicle_type_id":"4","last_reported":1683979863,"current_range_meters":31200,"station_id":"ce4bgkp2rcd13ifvqbmg","pricing_plan_id":"free"},{"bike_id":"f67e485d-f8b2-44a7-8c8b-4f53a7ffc871","system_id":"levelo_inurba_marseille","lat":43.295279,"lon":5.375048,"is_reserved":false,"is_disabled":false,"rental_uris":{"android":"levelo://app?vid=f67e485d-f8b2-44a7-8c8b-4f53a7ffc871","ios":"levelo://app?vid=f67e485d-f8b2-44a7-8c8b-4f53a7ffc871"},"vehicle_type_id":"4","last_reported":1683979863,"current_range_meters":31200,"station_id":"ce4bgkp2rcd13ifvqbmg","pricing_plan_id":"free"},{"bike_id":"e0cf1ce4-6302-4bdb-9821-19c9101dc9a5","system_id":"levelo_inurba_marseille","lat":43.295279,"lon":5.375048,"is_reserved":false,"is_disabled":false,"rental_uris":{"android":"levelo://app?vid=e0cf1ce4-6302-4bdb-9821-19c9101dc9a5","ios":"levelo://app?vid=e0cf1ce4-6302-4bdb-9821-19c9101dc9a5"},"vehicle_type_id":"4","last_reported":1683979863,"current_range_meters":23600,"station_id":"ce4bgkp2rcd13ifvqbmg","pricing_plan_id":"free"},{"bike_id":"499a509d-59af-4198-b353-505514c39b54","system_id":"levelo_inurba_marseille","lat":43.299707,"lon":5.384859,"is_reserved":false,"is_disabled":false,"rental_uris":{"android":"levelo://app?vid=499a509d-59af-4198-b353-505514c39b54","ios":"levelo://app?vid=499a509d-59af-4198-b353-505514c39b54"},"vehicle_type_id":"4","last_reported":1683979863,"current_range_meters":26400,"station_id":"ce4bgj92rcd13ifvqbd0","pricing_plan_id":"free"},{"bike_id":"269c3e81-9abe-42ae-91be-299ae3974219","system_id":"levelo_inurba_marseille","lat":43.295279,"lon":5.375048,"is_reserved":false,"is_disabled":false,"rental_uris":{"android":"levelo://app?vid=269c3e81-9abe-42ae-91be-299ae3974219","ios":"levelo://app?vid=269c3e81-9abe-42ae-91be-299ae3974219"},"vehicle_type_id":"4","last_reported":1683979863,"current_range_meters":31200,"station_id":"ce4bgkp2rcd13ifvqbmg","pricing_plan_id":"free"},{"bike_id":"b1df7b7d-d06d-4cfe-acb6-c2ce0bfbd32d","system_id":"levelo_inurba_marseille","lat":43.295279,"lon":5.375048,"is_reserved":false,"is_disabled":false,"rental_uris":{"android":"levelo://app?vid=b1df7b7d-d06d-4cfe-acb6-c2ce0bfbd32d","ios":"levelo://app?vid=b1df7b7d-d06d-4cfe-acb6-c2ce0bfbd32d"},"vehicle_type_id":"4","last_reported":1683979863,"current_range_meters":28400,"station_id":"ce4bgkp2rcd13ifvqbmg","pricing_plan_id":"free"},{"bike_id":"31b0eebe-4e78-4f57-95f8-9a9d50c1c799","system_id":"levelo_inurba_marseille","lat":43.299707,"lon":5.384859,"is_reserved":false,"is_disabled":false,"rental_uris":{"android":"levelo://app?vid=31b0eebe-4e78-4f57-95f8-9a9d50c1c799","ios":"levelo://app?vid=31b0eebe-4e78-4f57-95f8-9a9d50c1c799"},"vehicle_type_id":"4","last_reported":1683979863,"current_range_meters":22400,"station_id":"ce4bgj92rcd13ifvqbd0","pricing_plan_id":"free"},{"bike_id":"9391ada2-1924-4a6b-bfe9-3099f3121b22","system_id":"levelo_inurba_marseille","lat":43.299707,"lon":5.384859,"is_reserved":false,"is_disabled":false,"rental_uris":{"android":"levelo://app?vid=9391ada2-1924-4a6b-bfe9-3099f3121b22","ios":"levelo://app?vid=9391ada2-1924-4a6b-bfe9-3099f3121b22"},"vehicle_type_id":"4","last_reported":1683979863,"current_range_meters":31600,"station_id":"ce4bgj92rcd13ifvqbd0","pricing_plan_id":"free"},{"bike_id":"8b13e629-ef87-45a5-b57d-ba17f36b14d9","system_id":"levelo_inurba_marseille","lat":43.299717,"lon":5.384845,"is_reserved":false,"is_disabled":false,"rental_uris":{"android":"levelo://app?vid=8b13e629-ef87-45a5-b57d-ba17f36b14d9","ios":"levelo://app?vid=8b13e629-ef87-45a5-b57d-ba17f36b14d9"},"vehicle_type_id":"4","last_reported":1683979863,"current_range_meters":30800,"station_id":"ce4bgj92rcd13ifvqbd0","pricing_plan_id":"free"},{"bike_id":"e22206c4-7176-4a74-9cd4-d89c51a5365a","system_id":"levelo_inurba_marseille","lat":43.295279,"lon":5.375048,"is_reserved":false,"is_disabled":false,"rental_uris":{"android":"levelo://app?vid=e22206c4-7176-4a74-9cd4-d89c51a5365a","ios":"levelo://app?vid=e22206c4-7176-4a74-9cd4-d89c51a5365a"},"vehicle_type_id":"4","last_reported":1683979863,"current_range_meters":3200,"station_id":"ce4bgkp2rcd13ifvqbmg","pricing_plan_id":"free"},{"bike_id":"aabe07d9-e3c7-49a7-a597-a6f2b15a603a","system_id":"levelo_inurba_marseille","lat":43.299717,"lon":5.384845,"is_reserved":false,"is_disabled":false,"rental_uris":{"android":"levelo://app?vid=aabe07d9-e3c7-49a7-a597-a6f2b15a603a","ios":"levelo://app?vid=aabe07d9-e3c7-49a7-a597-a6f2b15a603a"},"vehicle_type_id":"4","last_reported":1683979863,"current_range_meters":16000,"station_id":"ce4bgj92rcd13ifvqbd0","pricing_plan_id":"free"},{"bike_id":"72c5c490-100c-4eba-80a7-d2504d382563","system_id":"levelo_inurba_marseille","lat":43.295279,"lon":5.375048,"is_reserved":false,"is_disabled":false,"rental_uris":{"android":"levelo://app?vid=72c5c490-100c-4eba-80a7-d2504d382563","ios":"levelo://app?vid=72c5c490-100c-4eba-80a7-d2504d382563"},"vehicle_type_id":"4","last_reported":1683979863,"current_range_meters":30000,"station_id":"ce4bgkp2rcd13ifvqbmg","pricing_plan_id":"free"},{"bike_id":"c0d797a2-0cdd-4afa-854b-7304db93a221","system_id":"levelo_inurba_marseille","lat":43.299707,"lon":5.384859,"is_reserved":false,"is_disabled":false,"rental_uris":{"android":"levelo://app?vid=c0d797a2-0cdd-4afa-854b-7304db93a221","ios":"levelo://app?vid=c0d797a2-0cdd-4afa-854b-7304db93a221"},"vehicle_type_id":"4","last_reported":1683979863,"current_range_meters":31200,"station_id":"ce4bgj92rcd13ifvqbd0","pricing_plan_id":"free"},{"bike_id":"42a6ac25-e73e-40dd-b800-f48e490febed","system_id":"levelo_inurba_marseille","lat":43.299707,"lon":5.384859,"is_reserved":false,"is_disabled":false,"rental_uris":{"android":"levelo://app?vid=42a6ac25-e73e-40dd-b800-f48e490febed","ios":"levelo://app?vid=42a6ac25-e73e-40dd-b800-f48e490febed"},"vehicle_type_id":"4","last_reported":1683979863,"current_range_meters":31600,"station_id":"ce4bgj92rcd13ifvqbd0","pricing_plan_id":"free"},{"bike_id":"773e813f-a004-44c0-87b7-b0e9f9496ac5","system_id":"levelo_inurba_marseille","lat":43.295279,"lon":5.375048,"is_reserved":false,"is_disabled":false,"rental_uris":{"android":"levelo://app?vid=773e813f-a004-44c0-87b7-b0e9f9496ac5","ios":"levelo://app?vid=773e813f-a004-44c0-87b7-b0e9f9496ac5"},"vehicle_type_id":"4","last_reported":1683979863,"current_range_meters":28400,"station_id":"ce4bgkp2rcd13ifvqbmg","pricing_plan_id":"free"},{"bike_id":"f16e503f-54f2-4293-8c01-a6bdcbb25319","system_id":"levelo_inurba_marseille","lat":43.299724,"lon":5.384848,"is_reserved":false,"is_disabled":false,"rental_uris":{"android":"levelo://app?vid=f16e503f-54f2-4293-8c01-a6bdcbb25319","ios":"levelo://app?vid=f16e503f-54f2-4293-8c01-a6bdcbb25319"},"vehicle_type_id":"4","last_reported":1683979863,"current_range_meters":26000,"station_id":"ce4bgj92rcd13ifvqbd0","pricing_plan_id":"free"},{"bike_id":"7a529c66-c97f-4d77-93c8-72d10d1fb089","system_id":"levelo_inurba_marseille","lat":43.295279,"lon":5.375048,"is_reserved":false,"is_disabled":false,"rental_uris":{"android":"levelo://app?vid=7a529c66-c97f-4d77-93c8-72d10d1fb089","ios":"levelo://app?vid=7a529c66-c97f-4d77-93c8-72d10d1fb089"},"vehicle_type_id":"4","last_reported":1683979863,"current_range_meters":26000,"station_id":"ce4bgkp2rcd13ifvqbmg","pricing_plan_id":"free"},{"bike_id":"d72c55ca-9f53-48b5-ab8c-b907d0e58f3a","system_id":"levelo_inurba_marseille","lat":43.295279,"lon":5.375048,"is_reserved":false,"is_disabled":false,"rental_uris":{"android":"levelo://app?vid=d72c55ca-9f53-48b5-ab8c-b907d0e58f3a","ios":"levelo://app?vid=d72c55ca-9f53-48b5-ab8c-b907d0e58f3a"},"vehicle_type_id":"4","last_reported":1683979863,"current_range_meters":29600,"station_id":"ce4bgkp2rcd13ifvqbmg","pricing_plan_id":"free"},{"bike_id":"1d69d817-840a-4115-944d-ebe8c7e5881d","system_id":"levelo_inurba_marseille","lat":43.299724,"lon":5.384848,"is_reserved":false,"is_disabled":false,"rental_uris":{"android":"levelo://app?vid=1d69d817-840a-4115-944d-ebe8c7e5881d","ios":"levelo://app?vid=1d69d817-840a-4115-944d-ebe8c7e5881d"},"vehicle_type_id":"4","last_reported":1683979863,"current_range_meters":29600,"station_id":"ce4bgj92rcd13ifvqbd0","pricing_plan_id":"free"},{"bike_id":"ce02bbf5-1a77-43af-aab5-9e28779f3c90","system_id":"levelo_inurba_marseille","lat":43.299717,"lon":5.384845,"is_reserved":false,"is_disabled":false,"rental_uris":{"android":"levelo://app?vid=ce02bbf5-1a77-43af-aab5-9e28779f3c90","ios":"levelo://app?vid=ce02bbf5-1a77-43af-aab5-9e28779f3c90"},"vehicle_type_id":"4","last_reported":1683979863,"current_range_meters":24400,"station_id":"ce4bgj92rcd13ifvqbd0","pricing_plan_id":"free"},{"bike_id":"98d43089-ff1e-40ee-a123-f18e174ce1c4","system_id":"levelo_inurba_marseille","lat":43.31446,"lon":5.39273,"is_reserved":false,"is_disabled":false,"rental_uris":{"android":"levelo://app?vid=98d43089-ff1e-40ee-a123-f18e174ce1c4","ios":"levelo://app?vid=98d43089-ff1e-40ee-a123-f18e174ce1c4"},"vehicle_type_id":"4","last_reported":1683979863,"current_range_meters":4000,"station_id":"","pricing_plan_id":"free"},{"bike_id":"6f6b02ce-a50b-443a-a31d-aed834771e7b","system_id":"levelo_inurba_marseille","lat":43.31442,"lon":5.39285,"is_reserved":false,"is_disabled":false,"rental_uris":{"android":"levelo://app?vid=6f6b02ce-a50b-443a-a31d-aed834771e7b","ios":"levelo://app?vid=6f6b02ce-a50b-443a-a31d-aed834771e7b"},"vehicle_type_id":"4","last_reported":1683979863,"current_range_meters":6400,"station_id":"","pricing_plan_id":"free"},{"bike_id":"255d23e2-6607-47f9-ae02-1fececf67c6c","system_id":"levelo_inurba_marseille","lat":43.32908,"lon":5.38188,"is_reserved":false,"is_disabled":false,"rental_uris":{"android":"levelo://app?vid=255d23e2-6607-47f9-ae02-1fececf67c6c","ios":"levelo://app?vid=255d23e2-6607-47f9-ae02-1fececf67c6c"},"vehicle_type_id":"4","last_reported":1683979863,"current_range_meters":13200,"station_id":"","pricing_plan_id":"free"},{"bike_id":"aa4fa4c2-4b18-44a1-b716-a35e59434129","system_id":"levelo_inurba_marseille","lat":43.29601,"lon":5.381084,"is_reserved":false,"is_disabled":false,"rental_uris":{"android":"levelo://app?vid=aa4fa4c2-4b18-44a1-b716-a35e59434129","ios":"levelo://app?vid=aa4fa4c2-4b18-44a1-b716-a35e59434129"},"vehicle_type_id":"4","last_reported":1683979863,"current_range_meters":30000,"station_id":"ce4bgl12rcd13ifvqbo0","pricing_plan_id":"free"},{"bike_id":"c034ce19-52f2-4f68-a8b7-1fdaed32d433","system_id":"levelo_inurba_marseille","lat":43.29602,"lon":5.381084,"is_reserved":false,"is_disabled":false,"rental_uris":{"android":"levelo://app?vid=c034ce19-52f2-4f68-a8b7-1fdaed32d433","ios":"levelo://app?vid=c034ce19-52f2-4f68-a8b7-1fdaed32d433"},"vehicle_type_id":"4","last_reported":1683979863,"current_range_meters":29200,"station_id":"ce4bgl12rcd13ifvqbo0","pricing_plan_id":"free"},{"bike_id":"df7647b1-99a9-4742-b9f2-9d2bc408c020","system_id":"levelo_inurba_marseille","lat":43.29483,"lon":5.37865,"is_reserved":false,"is_disabled":false,"rental_uris":{"android":"levelo://app?vid=df7647b1-99a9-4742-b9f2-9d2bc408c020","ios":"levelo://app?vid=df7647b1-99a9-4742-b9f2-9d2bc408c020"},"vehicle_type_id":"4","last_reported":1683979863,"current_range_meters":25200,"station_id":"","pricing_plan_id":"free"},{"bike_id":"eb66249a-94b6-4d78-bceb-037f1454f25a","system_id":"levelo_inurba_marseille","lat":43.293249,"lon":5.371578,"is_reserved":false,"is_disabled":false,"rental_uris":{"android":"levelo://app?vid=eb66249a-94b6-4d78-bceb-037f1454f25a","ios":"levelo://app?vid=eb66249a-94b6-4d78-bceb-037f1454f25a"},"vehicle_type_id":"4","last_reported":1683979863,"current_range_meters":28400,"station_id":"ce4bgh92rcd13ifvqb40","pricing_plan_id":"free"},{"bike_id":"ec2dee07-d8a9-48d2-99b1-304e5f1d704a","system_id":"levelo_inurba_marseille","lat":43.293249,"lon":5.371578,"is_reserved":false,"is_disabled":false,"rental_uris":{"android":"levelo://app?vid=ec2dee07-d8a9-48d2-99b1-304e5f1d704a","ios":"levelo://app?vid=ec2dee07-d8a9-48d2-99b1-304e5f1d704a"},"vehicle_type_id":"4","last_reported":1683979863,"current_range_meters":28400,"station_id":"ce4bgh92rcd13ifvqb40","pricing_plan_id":"free"},{"bike_id":"0c93e39b-16e0-499f-bf1b-2662473877ae","system_id":"levelo_inurba_marseille","lat":43.293249,"lon":5.371578,"is_reserved":false,"is_disabled":false,"rental_uris":{"android":"levelo://app?vid=0c93e39b-16e0-499f-bf1b-2662473877ae","ios":"levelo://app?vid=0c93e39b-16e0-499f-bf1b-2662473877ae"},"vehicle_type_id":"4","last_reported":1683979863,"current_range_meters":20800,"station_id":"ce4bgh92rcd13ifvqb40","pricing_plan_id":"free"},{"bike_id":"09cdfe02-1ecb-4310-89b0-0cbf0ac1c158","system_id":"levelo_inurba_marseille","lat":43.293249,"lon":5.371578,"is_reserved":false,"is_disabled":false,"rental_uris":{"android":"levelo://app?vid=09cdfe02-1ecb-4310-89b0-0cbf0ac1c158","ios":"levelo://app?vid=09cdfe02-1ecb-4310-89b0-0cbf0ac1c158"},"vehicle_type_id":"4","last_reported":1683979863,"current_range_meters":27600,"station_id":"ce4bgh92rcd13ifvqb40","pricing_plan_id":"free"},{"bike_id":"4e8a6f62-e4a3-4ac2-9eaf-a1b589c3a0a7","system_id":"levelo_inurba_marseille","lat":43.29303,"lon":5.37178,"is_reserved":false,"is_disabled":false,"rental_uris":{"android":"levelo://app?vid=4e8a6f62-e4a3-4ac2-9eaf-a1b589c3a0a7","ios":"levelo://app?vid=4e8a6f62-e4a3-4ac2-9eaf-a1b589c3a0a7"},"vehicle_type_id":"4","last_reported":1683979863,"current_range_meters":21600,"station_id":"","pricing_plan_id":"free"},{"bike_id":"c47a437d-32e6-4893-9f68-39958eadb49a","system_id":"levelo_inurba_marseille","lat":43.29302,"lon":5.37177,"is_reserved":false,"is_disabled":false,"rental_uris":{"android":"levelo://app?vid=c47a437d-32e6-4893-9f68-39958eadb49a","ios":"levelo://app?vid=c47a437d-32e6-4893-9f68-39958eadb49a"},"vehicle_type_id":"4","last_reported":1683979863,"current_range_meters":28000,"station_id":"ce4bgh92rcd13ifvqb40","pricing_plan_id":"free"},{"bike_id":"2627662c-ba0e-46c2-9c4d-a7e0305650bc","system_id":"levelo_inurba_marseille","lat":43.29301,"lon":5.37182,"is_reserved":false,"is_disabled":false,"rental_uris":{"android":"levelo://app?vid=2627662c-ba0e-46c2-9c4d-a7e0305650bc","ios":"levelo://app?vid=2627662c-ba0e-46c2-9c4d-a7e0305650bc"},"vehicle_type_id":"4","last_reported":1683979863,"current_range_meters":0,"station_id":"","pricing_plan_id":"free"},{"bike_id":"7c4a727e-d4b4-497b-a5ee-73dae1f87a43","system_id":"levelo_inurba_marseille","lat":43.292749,"lon":5.368402,"is_reserved":false,"is_disabled":false,"rental_uris":{"android":"levelo://app?vid=7c4a727e-d4b4-497b-a5ee-73dae1f87a43","ios":"levelo://app?vid=7c4a727e-d4b4-497b-a5ee-73dae1f87a43"},"vehicle_type_id":"4","last_reported":1683979863,"current_range_meters":22800,"station_id":"ce4bhbp2rcd13ifvqesg","pricing_plan_id":"free"},{"bike_id":"2ebe678c-168d-4665-98e7-8c98208037b7","system_id":"levelo_inurba_marseille","lat":43.292749,"lon":5.368402,"is_reserved":false,"is_disabled":false,"rental_uris":{"android":"levelo://app?vid=2ebe678c-168d-4665-98e7-8c98208037b7","ios":"levelo://app?vid=2ebe678c-168d-4665-98e7-8c98208037b7"},"vehicle_type_id":"4","last_reported":1683979863,"current_range_meters":9600,"station_id":"ce4bhbp2rcd13ifvqesg","pricing_plan_id":"free"},{"bike_id":"377b99e1-deb3-41f2-9bd0-b1fc990c553b","system_id":"levelo_inurba_marseille","lat":43.292749,"lon":5.368398,"is_reserved":false,"is_disabled":false,"rental_uris":{"android":"levelo://app?vid=377b99e1-deb3-41f2-9bd0-b1fc990c553b","ios":"levelo://app?vid=377b99e1-deb3-41f2-9bd0-b1fc990c553b"},"vehicle_type_id":"4","last_reported":1683979863,"current_range_meters":13200,"station_id":"ce4bhbp2rcd13ifvqesg","pricing_plan_id":"free"},{"bike_id":"88593624-c250-4a46-8a73-077423d799d6","system_id":"levelo_inurba_marseille","lat":43.29294,"lon":5.37198,"is_reserved":false,"is_disabled":false,"rental_uris":{"android":"levelo://app?vid=88593624-c250-4a46-8a73-077423d799d6","ios":"levelo://app?vid=88593624-c250-4a46-8a73-077423d799d6"},"vehicle_type_id":"4","last_reported":1683979863,"current_range_meters":2400,"station_id":"","pricing_plan_id":"free"},{"bike_id":"051617ec-75ef-475a-934f-11ba36f1a4b4","system_id":"levelo_inurba_marseille","lat":43.292749,"lon":5.368398,"is_reserved":false,"is_disabled":false,"rental_uris":{"android":"levelo://app?vid=051617ec-75ef-475a-934f-11ba36f1a4b4","ios":"levelo://app?vid=051617ec-75ef-475a-934f-11ba36f1a4b4"},"vehicle_type_id":"4","last_reported":1683979863,"current_range_meters":26000,"station_id":"ce4bhbp2rcd13ifvqesg","pricing_plan_id":"free"},{"bike_id":"b6cf5dbf-ced0-466a-9247-5a8485272836","system_id":"levelo_inurba_marseille","lat":43.305994,"lon":5.393687,"is_reserved":false,"is_disabled":false,"rental_uris":{"android":"levelo://app?vid=b6cf5dbf-ced0-466a-9247-5a8485272836","ios":"levelo://app?vid=b6cf5dbf-ced0-466a-9247-5a8485272836"},"vehicle_type_id":"4","last_reported":1683979863,"current_range_meters":28400,"station_id":"ce4bh0p2rcd13ifvqd80","pricing_plan_id":"free"},{"bike_id":"f1245dab-c6c0-4246-adf2-28ea29467cc8","system_id":"levelo_inurba_marseille","lat":43.293009,"lon":5.374584,"is_reserved":false,"is_disabled":false,"rental_uris":{"android":"levelo://app?vid=f1245dab-c6c0-4246-adf2-28ea29467cc8","ios":"levelo://app?vid=f1245dab-c6c0-4246-adf2-28ea29467cc8"},"vehicle_type_id":"4","last_reported":1683979863,"current_range_meters":27200,"station_id":"ce4bgi12rcd13ifvqb70","pricing_plan_id":"free"},{"bike_id":"d1bbf04a-efa8-47f5-839f-05cd1bde2eb2","system_id":"levelo_inurba_marseille","lat":43.293009,"lon":5.374584,"is_reserved":false,"is_disabled":false,"rental_uris":{"android":"levelo://app?vid=d1bbf04a-efa8-47f5-839f-05cd1bde2eb2","ios":"levelo://app?vid=d1bbf04a-efa8-47f5-839f-05cd1bde2eb2"},"vehicle_type_id":"4","last_reported":1683979863,"current_range_meters":31600,"station_id":"ce4bgi12rcd13ifvqb70","pricing_plan_id":"free"},{"bike_id":"582d3046-aa9d-4633-aa46-4585dcacd074","system_id":"levelo_inurba_marseille","lat":43.293009,"lon":5.374584,"is_reserved":false,"is_disabled":false,"rental_uris":{"android":"levelo://app?vid=582d3046-aa9d-4633-aa46-4585dcacd074","ios":"levelo://app?vid=582d3046-aa9d-4633-aa46-4585dcacd074"},"vehicle_type_id":"4","last_reported":1683979863,"current_range_meters":28400,"station_id":"ce4bgi12rcd13ifvqb70","pricing_plan_id":"free"},{"bike_id":"cc40fc00-9e08-4f2a-8447-3af4973a9581","system_id":"levelo_inurba_marseille","lat":43.2936,"lon":5.37835,"is_reserved":false,"is_disabled":false,"rental_uris":{"android":"levelo://app?vid=cc40fc00-9e08-4f2a-8447-3af4973a9581","ios":"levelo://app?vid=cc40fc00-9e08-4f2a-8447-3af4973a9581"},"vehicle_type_id":"4","last_reported":1683979863,"current_range_meters":31600,"station_id":"ce4bgjh2rcd13ifvqbf0","pricing_plan_id":"free"},{"bike_id":"1a286139-68b9-4d04-8513-b1f47318545b","system_id":"levelo_inurba_marseille","lat":43.303002,"lon":5.392142,"is_reserved":false,"is_disabled":false,"rental_uris":{"android":"levelo://app?vid=1a286139-68b9-4d04-8513-b1f47318545b","ios":"levelo://app?vid=1a286139-68b9-4d04-8513-b1f47318545b"},"vehicle_type_id":"4","last_reported":1683979863,"current_range_meters":16000,"station_id":"ce4bgkh2rcd13ifvqbk0","pricing_plan_id":"free"},{"bike_id":"da978e03-2e54-4441-a5e0-e26c09e0a63a","system_id":"levelo_inurba_marseille","lat":43.303002,"lon":5.392142,"is_reserved":false,"is_disabled":false,"rental_uris":{"android":"levelo://app?vid=da978e03-2e54-4441-a5e0-e26c09e0a63a","ios":"levelo://app?vid=da978e03-2e54-4441-a5e0-e26c09e0a63a"},"vehicle_type_id":"4","last_reported":1683979863,"current_range_meters":6000,"station_id":"ce4bgkh2rcd13ifvqbk0","pricing_plan_id":"free"},{"bike_id":"0717b0be-37ac-4516-b17d-1375cd488ec4","system_id":"levelo_inurba_marseille","lat":43.303002,"lon":5.392142,"is_reserved":false,"is_disabled":false,"rental_uris":{"android":"levelo://app?vid=0717b0be-37ac-4516-b17d-1375cd488ec4","ios":"levelo://app?vid=0717b0be-37ac-4516-b17d-1375cd488ec4"},"vehicle_type_id":"4","last_reported":1683979863,"current_range_meters":18400,"station_id":"ce4bgkh2rcd13ifvqbk0","pricing_plan_id":"free"},{"bike_id":"d50e6223-23d7-4c8b-b070-23cfcaf5a0a0","system_id":"levelo_inurba_marseille","lat":43.303002,"lon":5.392142,"is_reserved":false,"is_disabled":false,"rental_uris":{"android":"levelo://app?vid=d50e6223-23d7-4c8b-b070-23cfcaf5a0a0","ios":"levelo://app?vid=d50e6223-23d7-4c8b-b070-23cfcaf5a0a0"},"vehicle_type_id":"4","last_reported":1683979863,"current_range_meters":6800,"station_id":"ce4bgkh2rcd13ifvqbk0","pricing_plan_id":"free"},{"bike_id":"4c3f07f7-4024-483f-87cf-161ab2ed2686","system_id":"levelo_inurba_marseille","lat":43.303002,"lon":5.392142,"is_reserved":false,"is_disabled":false,"rental_uris":{"android":"levelo://app?vid=4c3f07f7-4024-483f-87cf-161ab2ed2686","ios":"levelo://app?vid=4c3f07f7-4024-483f-87cf-161ab2ed2686"},"vehicle_type_id":"4","last_reported":1683979863,"current_range_meters":20400,"station_id":"ce4bgkh2rcd13ifvqbk0","pricing_plan_id":"free"},{"bike_id":"2861d9dc-5760-4c42-b62b-ace1a6327f1c","system_id":"levelo_inurba_marseille","lat":43.2936,"lon":5.37835,"is_reserved":false,"is_disabled":false,"rental_uris":{"android":"levelo://app?vid=2861d9dc-5760-4c42-b62b-ace1a6327f1c","ios":"levelo://app?vid=2861d9dc-5760-4c42-b62b-ace1a6327f1c"},"vehicle_type_id":"4","last_reported":1683979863,"current_range_meters":7600,"station_id":"ce4bgjh2rcd13ifvqbf0","pricing_plan_id":"free"},{"bike_id":"2afdea65-45a7-4b11-a782-5d113b45ffde","system_id":"levelo_inurba_marseille","lat":43.303002,"lon":5.392142,"is_reserved":false,"is_disabled":false,"rental_uris":{"android":"levelo://app?vid=2afdea65-45a7-4b11-a782-5d113b45ffde","ios":"levelo://app?vid=2afdea65-45a7-4b11-a782-5d113b45ffde"},"vehicle_type_id":"4","last_reported":1683979863,"current_range_meters":18400,"station_id":"ce4bgkh2rcd13ifvqbk0","pricing_plan_id":"free"},{"bike_id":"1a81facf-ae5f-4c21-b9bb-6158d5c24f6d","system_id":"levelo_inurba_marseille","lat":43.2936,"lon":5.37835,"is_reserved":false,"is_disabled":false,"rental_uris":{"android":"levelo://app?vid=1a81facf-ae5f-4c21-b9bb-6158d5c24f6d","ios":"levelo://app?vid=1a81facf-ae5f-4c21-b9bb-6158d5c24f6d"},"vehicle_type_id":"4","last_reported":1683979863,"current_range_meters":28800,"station_id":"ce4bgjh2rcd13ifvqbf0","pricing_plan_id":"free"},{"bike_id":"a6aec478-167e-4f9a-bbf2-45d49e4ad6f9","system_id":"levelo_inurba_marseille","lat":43.2936,"lon":5.37835,"is_reserved":false,"is_disabled":false,"rental_uris":{"android":"levelo://app?vid=a6aec478-167e-4f9a-bbf2-45d49e4ad6f9","ios":"levelo://app?vid=a6aec478-167e-4f9a-bbf2-45d49e4ad6f9"},"vehicle_type_id":"4","last_reported":1683979863,"current_range_meters":14400,"station_id":"ce4bgjh2rcd13ifvqbf0","pricing_plan_id":"free"},{"bike_id":"6a6e40ca-7c7f-4c6b-a1c3-b62eaee739f1","system_id":"levelo_inurba_marseille","lat":43.302992,"lon":5.392136,"is_reserved":false,"is_disabled":false,"rental_uris":{"android":"levelo://app?vid=6a6e40ca-7c7f-4c6b-a1c3-b62eaee739f1","ios":"levelo://app?vid=6a6e40ca-7c7f-4c6b-a1c3-b62eaee739f1"},"vehicle_type_id":"4","last_reported":1683979863,"current_range_meters":16800,"station_id":"ce4bgkh2rcd13ifvqbk0","pricing_plan_id":"free"},{"bike_id":"d21c8a90-f9e9-4cc2-995e-3475c21f8e0d","system_id":"levelo_inurba_marseille","lat":43.2936,"lon":5.37835,"is_reserved":false,"is_disabled":false,"rental_uris":{"android":"levelo://app?vid=d21c8a90-f9e9-4cc2-995e-3475c21f8e0d","ios":"levelo://app?vid=d21c8a90-f9e9-4cc2-995e-3475c21f8e0d"},"vehicle_type_id":"4","last_reported":1683979863,"current_range_meters":30000,"station_id":"ce4bgjh2rcd13ifvqbf0","pricing_plan_id":"free"},{"bike_id":"4044a7eb-27c0-4698-aa39-74394f3f4d92","system_id":"levelo_inurba_marseille","lat":43.300852,"lon":5.390859,"is_reserved":false,"is_disabled":false,"rental_uris":{"android":"levelo://app?vid=4044a7eb-27c0-4698-aa39-74394f3f4d92","ios":"levelo://app?vid=4044a7eb-27c0-4698-aa39-74394f3f4d92"},"vehicle_type_id":"4","last_reported":1683979863,"current_range_meters":26000,"station_id":"ce4bh192rcd13ifvqdb0","pricing_plan_id":"free"},{"bike_id":"ee57a2a0-50bb-46dc-a50a-5addba3a115d","system_id":"levelo_inurba_marseille","lat":43.2936,"lon":5.37835,"is_reserved":false,"is_disabled":false,"rental_uris":{"android":"levelo://app?vid=ee57a2a0-50bb-46dc-a50a-5addba3a115d","ios":"levelo://app?vid=ee57a2a0-50bb-46dc-a50a-5addba3a115d"},"vehicle_type_id":"4","last_reported":1683979863,"current_range_meters":26000,"station_id":"ce4bgjh2rcd13ifvqbf0","pricing_plan_id":"free"},{"bike_id":"f568395e-db64-4a48-9446-77f5cf5662ab","system_id":"levelo_inurba_marseille","lat":43.292663,"lon":5.376389,"is_reserved":false,"is_disabled":false,"rental_uris":{"android":"levelo://app?vid=f568395e-db64-4a48-9446-77f5cf5662ab","ios":"levelo://app?vid=f568395e-db64-4a48-9446-77f5cf5662ab"},"vehicle_type_id":"4","last_reported":1683979863,"current_range_meters":0,"station_id":"ce4bgi12rcd13ifvqb80","pricing_plan_id":"free"},{"bike_id":"28266072-dcd6-4ed0-af66-f1bce5fc5d09","system_id":"levelo_inurba_marseille","lat":43.298764,"lon":5.388973,"is_reserved":false,"is_disabled":false,"rental_uris":{"android":"levelo://app?vid=28266072-dcd6-4ed0-af66-f1bce5fc5d09","ios":"levelo://app?vid=28266072-dcd6-4ed0-af66-f1bce5fc5d09"},"vehicle_type_id":"4","last_reported":1683979863,"current_range_meters":18800,"station_id":"ce4bh392rcd13ifvqdl0","pricing_plan_id":"free"},{"bike_id":"ec46238d-6a3c-42e9-a5c2-e122d110fb62","system_id":"levelo_inurba_marseille","lat":43.291671,"lon":5.371575,"is_reserved":false,"is_disabled":false,"rental_uris":{"android":"levelo://app?vid=ec46238d-6a3c-42e9-a5c2-e122d110fb62","ios":"levelo://app?vid=ec46238d-6a3c-42e9-a5c2-e122d110fb62"},"vehicle_type_id":"4","last_reported":1683979863,"current_range_meters":28800,"station_id":"ce4bha92rcd13ifvqeh0","pricing_plan_id":"free"},{"bike_id":"39e33ac3-75f5-4c4b-9140-3c73d21093a9","system_id":"levelo_inurba_marseille","lat":43.298764,"lon":5.388973,"is_reserved":false,"is_disabled":false,"rental_uris":{"android":"levelo://app?vid=39e33ac3-75f5-4c4b-9140-3c73d21093a9","ios":"levelo://app?vid=39e33ac3-75f5-4c4b-9140-3c73d21093a9"},"vehicle_type_id":"4","last_reported":1683979863,"current_range_meters":9600,"station_id":"ce4bh392rcd13ifvqdl0","pricing_plan_id":"free"},{"bike_id":"68c07439-9eb6-4750-9cce-4bd7d4440565","system_id":"levelo_inurba_marseille","lat":43.298764,"lon":5.388973,"is_reserved":false,"is_disabled":false,"rental_uris":{"android":"levelo://app?vid=68c07439-9eb6-4750-9cce-4bd7d4440565","ios":"levelo://app?vid=68c07439-9eb6-4750-9cce-4bd7d4440565"},"vehicle_type_id":"4","last_reported":1683979863,"current_range_meters":29200,"station_id":"ce4bh392rcd13ifvqdl0","pricing_plan_id":"free"},{"bike_id":"95b51960-f090-494f-a87e-11e406972d4e","system_id":"levelo_inurba_marseille","lat":43.291675,"lon":5.371583,"is_reserved":false,"is_disabled":false,"rental_uris":{"android":"levelo://app?vid=95b51960-f090-494f-a87e-11e406972d4e","ios":"levelo://app?vid=95b51960-f090-494f-a87e-11e406972d4e"},"vehicle_type_id":"4","last_reported":1683979863,"current_range_meters":19200,"station_id":"ce4bha92rcd13ifvqeh0","pricing_plan_id":"free"},{"bike_id":"f1ec3bc0-0dd8-482d-91ce-6cda5e49a606","system_id":"levelo_inurba_marseille","lat":43.29884,"lon":5.38922,"is_reserved":false,"is_disabled":false,"rental_uris":{"android":"levelo://app?vid=f1ec3bc0-0dd8-482d-91ce-6cda5e49a606","ios":"levelo://app?vid=f1ec3bc0-0dd8-482d-91ce-6cda5e49a606"},"vehicle_type_id":"4","last_reported":1683979863,"current_range_meters":16800,"station_id":"ce4bh392rcd13ifvqdl0","pricing_plan_id":"free"},{"bike_id":"9c160624-ed6a-4b63-9364-e3be8c31196f","system_id":"levelo_inurba_marseille","lat":43.291675,"lon":5.371583,"is_reserved":false,"is_disabled":false,"rental_uris":{"android":"levelo://app?vid=9c160624-ed6a-4b63-9364-e3be8c31196f","ios":"levelo://app?vid=9c160624-ed6a-4b63-9364-e3be8c31196f"},"vehicle_type_id":"4","last_reported":1683979863,"current_range_meters":20400,"station_id":"ce4bha92rcd13ifvqeh0","pricing_plan_id":"free"},{"bike_id":"c20bc477-dd5c-49da-87ed-cfec2b85dc57","system_id":"levelo_inurba_marseille","lat":43.292,"lon":5.35797,"is_reserved":false,"is_disabled":false,"rental_uris":{"android":"levelo://app?vid=c20bc477-dd5c-49da-87ed-cfec2b85dc57","ios":"levelo://app?vid=c20bc477-dd5c-49da-87ed-cfec2b85dc57"},"vehicle_type_id":"4","last_reported":1683979863,"current_range_meters":30800,"station_id":"","pricing_plan_id":"free"},{"bike_id":"660b98cf-d40a-47c9-80e8-296c05c898f9","system_id":"levelo_inurba_marseille","lat":43.309038,"lon":5.396546,"is_reserved":false,"is_disabled":false,"rental_uris":{"android":"levelo://app?vid=660b98cf-d40a-47c9-80e8-296c05c898f9","ios":"levelo://app?vid=660b98cf-d40a-47c9-80e8-296c05c898f9"},"vehicle_type_id":"4","last_reported":1683979863,"current_range_meters":21200,"station_id":"ce4bh012rcd13ifvqcv0","pricing_plan_id":"free"},{"bike_id":"dc05e584-f68d-43c2-9988-7cdf12369f30","system_id":"levelo_inurba_marseille","lat":43.309038,"lon":5.396546,"is_reserved":false,"is_disabled":false,"rental_uris":{"android":"levelo://app?vid=dc05e584-f68d-43c2-9988-7cdf12369f30","ios":"levelo://app?vid=dc05e584-f68d-43c2-9988-7cdf12369f30"},"vehicle_type_id":"4","last_reported":1683979863,"current_range_meters":23200,"station_id":"ce4bh012rcd13ifvqcv0","pricing_plan_id":"free"},{"bike_id":"83d8e765-fa2c-482d-a11d-b148b2753996","system_id":"levelo_inurba_marseille","lat":43.29194,"lon":5.358,"is_reserved":false,"is_disabled":false,"rental_uris":{"android":"levelo://app?vid=83d8e765-fa2c-482d-a11d-b148b2753996","ios":"levelo://app?vid=83d8e765-fa2c-482d-a11d-b148b2753996"},"vehicle_type_id":"4","last_reported":1683979863,"current_range_meters":16400,"station_id":"","pricing_plan_id":"free"},{"bike_id":"9eaf9e9c-c5d9-4bc0-93b0-d9afdb0afe79","system_id":"levelo_inurba_marseille","lat":43.29192,"lon":5.358,"is_reserved":false,"is_disabled":false,"rental_uris":{"android":"levelo://app?vid=9eaf9e9c-c5d9-4bc0-93b0-d9afdb0afe79","ios":"levelo://app?vid=9eaf9e9c-c5d9-4bc0-93b0-d9afdb0afe79"},"vehicle_type_id":"4","last_reported":1683979863,"current_range_meters":17600,"station_id":"","pricing_plan_id":"free"},{"bike_id":"4bf2fd43-02f0-41ed-a6b7-a310b0f00f2f","system_id":"levelo_inurba_marseille","lat":43.309038,"lon":5.396546,"is_reserved":false,"is_disabled":false,"rental_uris":{"android":"levelo://app?vid=4bf2fd43-02f0-41ed-a6b7-a310b0f00f2f","ios":"levelo://app?vid=4bf2fd43-02f0-41ed-a6b7-a310b0f00f2f"},"vehicle_type_id":"4","last_reported":1683979863,"current_range_meters":8000,"station_id":"ce4bh012rcd13ifvqcv0","pricing_plan_id":"free"},{"bike_id":"02eb23f8-84ad-47b5-8282-8dda6c90b6b1","system_id":"levelo_inurba_marseille","lat":43.313291,"lon":5.396838,"is_reserved":false,"is_disabled":false,"rental_uris":{"android":"levelo://app?vid=02eb23f8-84ad-47b5-8282-8dda6c90b6b1","ios":"levelo://app?vid=02eb23f8-84ad-47b5-8282-8dda6c90b6b1"},"vehicle_type_id":"4","last_reported":1683979863,"current_range_meters":12800,"station_id":"ce4bgvp2rcd13ifvqcu0","pricing_plan_id":"free"},{"bike_id":"63f2f5d4-89af-4b65-8d4f-c643623a1d0b","system_id":"levelo_inurba_marseille","lat":43.29189,"lon":5.35803,"is_reserved":false,"is_disabled":false,"rental_uris":{"android":"levelo://app?vid=63f2f5d4-89af-4b65-8d4f-c643623a1d0b","ios":"levelo://app?vid=63f2f5d4-89af-4b65-8d4f-c643623a1d0b"},"vehicle_type_id":"4","last_reported":1683979863,"current_range_meters":18800,"station_id":"","pricing_plan_id":"free"},{"bike_id":"30ed6474-1148-4018-918a-ae1f6f0d4c0e","system_id":"levelo_inurba_marseille","lat":43.313291,"lon":5.396838,"is_reserved":false,"is_disabled":false,"rental_uris":{"android":"levelo://app?vid=30ed6474-1148-4018-918a-ae1f6f0d4c0e","ios":"levelo://app?vid=30ed6474-1148-4018-918a-ae1f6f0d4c0e"},"vehicle_type_id":"4","last_reported":1683979863,"current_range_meters":4400,"station_id":"ce4bgvp2rcd13ifvqcu0","pricing_plan_id":"free"},{"bike_id":"0d17488f-4cc0-4c1b-a45d-b7eabcae8585","system_id":"levelo_inurba_marseille","lat":43.29186,"lon":5.35806,"is_reserved":false,"is_disabled":false,"rental_uris":{"android":"levelo://app?vid=0d17488f-4cc0-4c1b-a45d-b7eabcae8585","ios":"levelo://app?vid=0d17488f-4cc0-4c1b-a45d-b7eabcae8585"},"vehicle_type_id":"4","last_reported":1683979863,"current_range_meters":30000,"station_id":"","pricing_plan_id":"free"},{"bike_id":"df81756b-bda9-45b3-8c20-7914aea2c1be","system_id":"levelo_inurba_marseille","lat":43.313291,"lon":5.396838,"is_reserved":false,"is_disabled":false,"rental_uris":{"android":"levelo://app?vid=df81756b-bda9-45b3-8c20-7914aea2c1be","ios":"levelo://app?vid=df81756b-bda9-45b3-8c20-7914aea2c1be"},"vehicle_type_id":"4","last_reported":1683979863,"current_range_meters":2000,"station_id":"ce4bgvp2rcd13ifvqcu0","pricing_plan_id":"free"},{"bike_id":"402c8fc4-b00c-4f2e-bdfb-7456c5cd98a7","system_id":"levelo_inurba_marseille","lat":43.313291,"lon":5.396838,"is_reserved":false,"is_disabled":false,"rental_uris":{"android":"levelo://app?vid=402c8fc4-b00c-4f2e-bdfb-7456c5cd98a7","ios":"levelo://app?vid=402c8fc4-b00c-4f2e-bdfb-7456c5cd98a7"},"vehicle_type_id":"4","last_reported":1683979863,"current_range_meters":31200,"station_id":"ce4bgvp2rcd13ifvqcu0","pricing_plan_id":"free"},{"bike_id":"9f52c4b4-6956-4260-95ed-624ae685584b","system_id":"levelo_inurba_marseille","lat":43.29529,"lon":5.385581,"is_reserved":false,"is_disabled":false,"rental_uris":{"android":"levelo://app?vid=9f52c4b4-6956-4260-95ed-624ae685584b","ios":"levelo://app?vid=9f52c4b4-6956-4260-95ed-624ae685584b"},"vehicle_type_id":"4","last_reported":1683979863,"current_range_meters":26800,"station_id":"ce4bgih2rcd13ifvqba0","pricing_plan_id":"free"},{"bike_id":"f7ef2665-cedb-4ab1-8ee2-37d9803fc8a9","system_id":"levelo_inurba_marseille","lat":43.29529,"lon":5.385581,"is_reserved":false,"is_disabled":false,"rental_uris":{"android":"levelo://app?vid=f7ef2665-cedb-4ab1-8ee2-37d9803fc8a9","ios":"levelo://app?vid=f7ef2665-cedb-4ab1-8ee2-37d9803fc8a9"},"vehicle_type_id":"4","last_reported":1683979863,"current_range_meters":22800,"station_id":"ce4bgih2rcd13ifvqba0","pricing_plan_id":"free"},{"bike_id":"fed3700f-0955-4901-96b2-bec43f6fec57","system_id":"levelo_inurba_marseille","lat":43.29529,"lon":5.385581,"is_reserved":false,"is_disabled":false,"rental_uris":{"android":"levelo://app?vid=fed3700f-0955-4901-96b2-bec43f6fec57","ios":"levelo://app?vid=fed3700f-0955-4901-96b2-bec43f6fec57"},