{"last_updated":1750331399,"ttl":60,"version":"2.2","data":{"bikes":[{"bike_id":"3da29fb8-fc97-44c6-b9ac-31dd456b2fd4","system_id":"levelo_inurba_marseille","lat":43.33771,"lon":5.37424,"is_reserved":false,"is_disabled":true,"rental_uris":{"android":"levelo://app?vid=3da29fb8-fc97-44c6-b9ac-31dd456b2fd4","ios":"levelo://app?vid=3da29fb8-fc97-44c6-b9ac-31dd456b2fd4"},"vehicle_type_id":"4","last_reported":1750331399,"current_range_meters":0,"station_id":"","pricing_plan_id":"cebpf4jnsgd1na2vs0mg"},{"bike_id":"01861ad8-a8d7-4be6-816e-651927c87584","system_id":"levelo_inurba_marseille","lat":43.33751,"lon":5.37456,"is_reserved":false,"is_disabled":true,"rental_uris":{"android":"levelo://app?vid=01861ad8-a8d7-4be6-816e-651927c87584","ios":"levelo://app?vid=01861ad8-a8d7-4be6-816e-651927c87584"},"vehicle_type_id":"4","last_reported":1750331399,"current_range_meters":0,"station_id":"","pricing_plan_id":"cebpf4jnsgd1na2vs0mg"},{"bike_id":"dbfce7a3-3423-4296-b193-a177dea644ac","system_id":"levelo_inurba_marseille","lat":43.27288,"lon":5.4161,"is_reserved":false,"is_disabled":true,"rental_uris":{"android":"levelo://app?vid=dbfce7a3-3423-4296-b193-a177dea644ac","ios":"levelo://app?vid=dbfce7a3-3423-4296-b193-a177dea644ac"},"vehicle_type_id":"4","last_reported":1750331399,"current_range_meters":0,"station_id":"","pricing_plan_id":"cebpf4jnsgd1na2vs0mg"},{"bike_id":"eff675e9-75ca-47c9-bd95-5090bc060d4f","system_id":"levelo_inurba_marseille","lat":43.34086,"lon":5.36105,"is_reserved":false,"is_disabled":true,"rental_uris":{"android":"levelo://app?vid=eff675e9-75ca-47c9-bd95-5090bc060d4f","ios":"levelo://app?vid=eff675e9-75ca-47c9-bd95-5090bc060d4f"},"vehicle_type_id":"4","last_reported":1750331399,"current_range_meters":0,"station_id":"","pricing_plan_id":"cebpf4jnsgd1na2vs0mg"},{"bike_id":"d2bd57c8-6b64-48db-ad24-5398eb3fd9d6","system_id":"levelo_inurba_marseille","lat":43.337444,"lon":5.374475,"is_reserved":false,"is_disabled":true,"rental_uris":{"android":"levelo://app?vid=d2bd57c8-6b64-48db-ad24-5398eb3fd9d6","ios":"levelo://app?vid=d2bd57c8-6b64-48db-ad24-5398eb3fd9d6"},"vehicle_type_id":"4","last_reported":1750331399,"current_range_meters":0,"station_id":"","pricing_plan_id":"cebpf4jnsgd1na2vs0mg"},{"bike_id":"62a493c7-4534-4419-ad43-0582de34a72a","system_id":"levelo_inurba_marseille","lat":43.21366,"lon":5.355183,"is_reserved":false,"is_disabled":true,"rental_uris":{"android":"levelo://app?vid=62a493c7-4534-4419-ad43-0582de34a72a","ios":"levelo://app?vid=62a493c7-4534-4419-ad43-0582de34a72a"},"vehicle_type_id":"4","last_reported":1750331399,"current_range_meters":0,"station_id":"","pricing_plan_id":"cebpf4jnsgd1na2vs0mg"},{"bike_id":"b9e37238-9abe-4b8b-b932-edaee33a7e59","system_id":"levelo_inurba_marseille","lat":43.27525,"lon":5.39005,"is_reserved":false,"is_disabled":true,"rental_uris":{"android":"levelo://app?vid=b9e37238-9abe-4b8b-b932-edaee33a7e59","ios":"levelo://app?vid=b9e37238-9abe-4b8b-b932-edaee33a7e59"},"vehicle_type_id":"4","last_reported":1750331399,"current_range_meters":0,"station_id":"","pricing_plan_id":"cebpf4jnsgd1na2vs0mg"},{"bike_id":"8ad9234e-001a-4549-8bba-9baf2ef98804","system_id":"levelo_inurba_marseille","lat":43.2689,"lon":5.39883,"is_reserved":false,"is_disabled":true,"rental_uris":{"android":"levelo://app?vid=8ad9234e-001a-4549-8bba-9baf2ef98804","ios":"levelo://app?vid=8ad9234e-001a-4549-8bba-9baf2ef98804"},"vehicle_type_id":"4","last_reported":1750331399,"current_range_meters":0,"station_id":"","pricing_plan_id":"cebpf4jnsgd1na2vs0mg"},{"bike_id":"47196f00-388f-4b3b-a4de-3dba126cd107","system_id":"levelo_inurba_marseille","lat":43.24362,"lon":5.41158,"is_reserved":false,"is_disabled":true,"rental_uris":{"android":"levelo://app?vid=47196f00-388f-4b3b-a4de-3dba126cd107","ios":"levelo://app?vid=47196f00-388f-4b3b-a4de-3dba126cd107"},"vehicle_type_id":"4","last_reported":1750331399,"current_range_meters":0,"station_id":"","pricing_plan_id":"cebpf4jnsgd1na2vs0mg"},{"bike_id":"d6609b4f-333b-43c1-9ebe-8726f5e76e88","system_id":"levelo_inurba_marseille","lat":43.337444,"lon":5.374475,"is_reserved":false,"is_disabled":true,"rental_uris":{"android":"levelo://app?vid=d6609b4f-333b-43c1-9ebe-8726f5e76e88","ios":"levelo://app?vid=d6609b4f-333b-43c1-9ebe-8726f5e76e88"},"vehicle_type_id":"4","last_reported":1750331399,"current_range_meters":0,"station_id":"","pricing_plan_id":"cebpf4jnsgd1na2vs0mg"},{"bike_id":"57c83ce1-960e-466a-b6c5-d93bc130c53a","system_id":"levelo_inurba_marseille","lat":43.24924,"lon":5.3897,"is_reserved":false,"is_disabled":true,"rental_uris":{"android":"levelo://app?vid=57c83ce1-960e-466a-b6c5-d93bc130c53a","ios":"levelo://app?vid=57c83ce1-960e-466a-b6c5-d93bc130c53a"},"vehicle_type_id":"4","last_reported":1750331399,"current_range_meters":0,"station_id":"","pricing_plan_id":"cebpf4jnsgd1na2vs0mg"},{"bike_id":"a81bd90d-7d45-48f8-8a69-5b770b5fb24c","system_id":"levelo_inurba_marseille","lat":43.29931,"lon":5.36538,"is_reserved":false,"is_disabled":true,"rental_uris":{"android":"levelo://app?vid=a81bd90d-7d45-48f8-8a69-5b770b5fb24c","ios":"levelo://app?vid=a81bd90d-7d45-48f8-8a69-5b770b5fb24c"},"vehicle_type_id":"4","last_reported":1750331399,"current_range_meters":0,"station_id":"ce4bgm92rcd13ifvqbr0","pricing_plan_id":"cebpf4jnsgd1na2vs0mg"},{"bike_id":"f42e20f6-c8e6-4e29-a0a9-ac91a669dfab","system_id":"levelo_inurba_marseille","lat":43.29279,"lon":5.40119,"is_reserved":false,"is_disabled":true,"rental_uris":{"android":"levelo://app?vid=f42e20f6-c8e6-4e29-a0a9-ac91a669dfab","ios":"levelo://app?vid=f42e20f6-c8e6-4e29-a0a9-ac91a669dfab"},"vehicle_type_id":"4","last_reported":1750331399,"current_range_meters":0,"station_id":"ce4bh312rcd13ifvqdk0","pricing_plan_id":"cebpf4jnsgd1na2vs0mg"},{"bike_id":"afedcb13-793c-4031-a863-880b00c12342","system_id":"levelo_inurba_marseille","lat":43.2847,"lon":5.38434,"is_reserved":false,"is_disabled":true,"rental_uris":{"android":"levelo://app?vid=afedcb13-793c-4031-a863-880b00c12342","ios":"levelo://app?vid=afedcb13-793c-4031-a863-880b00c12342"},"vehicle_type_id":"4","last_reported":1750331399,"current_range_meters":0,"station_id":"ce4bh512rcd13ifvqe3g","pricing_plan_id":"cebpf4jnsgd1na2vs0mg"},{"bike_id":"a7d8172b-0aec-49f7-8b22-fc6aea420d81","system_id":"levelo_inurba_marseille","lat":43.26561,"lon":5.37304,"is_reserved":false,"is_disabled":true,"rental_uris":{"android":"levelo://app?vid=a7d8172b-0aec-49f7-8b22-fc6aea420d81","ios":"levelo://app?vid=a7d8172b-0aec-49f7-8b22-fc6aea420d81"},"vehicle_type_id":"4","last_reported":1750331399,"current_range_meters":0,"station_id":"ce4bhg12rcd13ifvqf70","pricing_plan_id":"cebpf4jnsgd1na2vs0mg"},{"bike_id":"80d06c7e-b8eb-4c40-8025-731ab94def9d","system_id":"levelo_inurba_marseille","lat":43.24804,"lon":5.37452,"is_reserved":false,"is_disabled":true,"rental_uris":{"android":"levelo://app?vid=80d06c7e-b8eb-4c40-8025-731ab94def9d","ios":"levelo://app?vid=80d06c7e-b8eb-4c40-8025-731ab94def9d"},"vehicle_type_id":"4","last_reported":1750331399,"current_range_meters":0,"station_id":"ce4bhgh2rcd13ifvqfb0","pricing_plan_id":"cebpf4jnsgd1na2vs0mg"},{"bike_id":"737ed6a2-1fd0-4bdd-85da-92db0c44facd","system_id":"levelo_inurba_marseille","lat":43.2418,"lon":5.39731,"is_reserved":false,"is_disabled":true,"rental_uris":{"android":"levelo://app?vid=737ed6a2-1fd0-4bdd-85da-92db0c44facd","ios":"levelo://app?vid=737ed6a2-1fd0-4bdd-85da-92db0c44facd"},"vehicle_type_id":"4","last_reported":1750331399,"current_range_meters":0,"station_id":"ce4bhn12rcd13ifvqgpg","pricing_plan_id":"cebpf4jnsgd1na2vs0mg"},{"bike_id":"9f098556-208b-45ea-a707-63e94afc17d7","system_id":"levelo_inurba_marseille","lat":43.28198,"lon":5.42685,"is_reserved":false,"is_disabled":true,"rental_uris":{"android":"levelo://app?vid=9f098556-208b-45ea-a707-63e94afc17d7","ios":"levelo://app?vid=9f098556-208b-45ea-a707-63e94afc17d7"},"vehicle_type_id":"4","last_reported":1750331399,"current_range_meters":0,"station_id":"ce4bhnh2rcd13ifvqgug","pricing_plan_id":"cebpf4jnsgd1na2vs0mg"},{"bike_id":"7c7f0bfe-d781-493a-ad5c-aea9270a27f7","system_id":"levelo_inurba_marseille","lat":43.23053,"lon":5.35487,"is_reserved":false,"is_disabled":true,"rental_uris":{"android":"levelo://app?vid=7c7f0bfe-d781-493a-ad5c-aea9270a27f7","ios":"levelo://app?vid=7c7f0bfe-d781-493a-ad5c-aea9270a27f7"},"vehicle_type_id":"4","last_reported":1750331399,"current_range_meters":0,"station_id":"cpo3342slgdg3j2ifvpg","pricing_plan_id":"cebpf4jnsgd1na2vs0mg"},{"bike_id":"5e28a18d-b9da-49e2-b3e5-bfae903e2044","system_id":"levelo_inurba_marseille","lat":43.23058,"lon":5.35481,"is_reserved":false,"is_disabled":true,"rental_uris":{"android":"levelo://app?vid=5e28a18d-b9da-49e2-b3e5-bfae903e2044","ios":"levelo://app?vid=5e28a18d-b9da-49e2-b3e5-bfae903e2044"},"vehicle_type_id":"4","last_reported":1750331399,"current_range_meters":0,"station_id":"cpo3342slgdg3j2ifvpg","pricing_plan_id":"cebpf4jnsgd1na2vs0mg"},{"bike_id":"b6d27190-b949-4a3d-816f-d496cdfa6600","system_id":"levelo_inurba_marseille","lat":43.21192,"lon":5.35073,"is_reserved":false,"is_disabled":true,"rental_uris":{"android":"levelo://app?vid=b6d27190-b949-4a3d-816f-d496cdfa6600","ios":"levelo://app?vid=b6d27190-b949-4a3d-816f-d496cdfa6600"},"vehicle_type_id":"4","last_reported":1750331399,"current_range_meters":0,"station_id":"st_cvj6sg6p6f1abm77japg","pricing_plan_id":"cebpf4jnsgd1na2vs0mg"},{"bike_id":"fe753a6d-0961-441e-b4a4-a4fa5974f5cc","system_id":"levelo_inurba_marseille","lat":43.21191,"lon":5.35088,"is_reserved":false,"is_disabled":true,"rental_uris":{"android":"levelo://app?vid=fe753a6d-0961-441e-b4a4-a4fa5974f5cc","ios":"levelo://app?vid=fe753a6d-0961-441e-b4a4-a4fa5974f5cc"},"vehicle_type_id":"4","last_reported":1750331399,"current_range_meters":0,"station_id":"st_cvj6sg6p6f1abm77japg","pricing_plan_id":"cebpf4jnsgd1na2vs0mg"},{"bike_id":"026a1fdf-8d38-4b4e-9dee-2b503c5d4faf","system_id":"levelo_inurba_marseille","lat":43.29626,"lon":5.37717,"is_reserved":false,"is_disabled":true,"rental_uris":{"android":"levelo://app?vid=026a1fdf-8d38-4b4e-9dee-2b503c5d4faf","ios":"levelo://app?vid=026a1fdf-8d38-4b4e-9dee-2b503c5d4faf"},"vehicle_type_id":"4","last_reported":1750331399,"current_range_meters":400,"station_id":"ce4bgi92rcd13ifvqb90","pricing_plan_id":"cebpf4jnsgd1na2vs0mg"},{"bike_id":"b5644c13-fd9b-4609-a15b-bf7fd34840ed","system_id":"levelo_inurba_marseille","lat":43.28568,"lon":5.39491,"is_reserved":false,"is_disabled":true,"rental_uris":{"android":"levelo://app?vid=b5644c13-fd9b-4609-a15b-bf7fd34840ed","ios":"levelo://app?vid=b5644c13-fd9b-4609-a15b-bf7fd34840ed"},"vehicle_type_id":"4","last_reported":1750331399,"current_range_meters":400,"station_id":"ce4bh292rcd13ifvqdg0","pricing_plan_id":"cebpf4jnsgd1na2vs0mg"},{"bike_id":"61641def-4aae-4954-b79d-978323be1ee5","system_id":"levelo_inurba_marseille","lat":43.26792,"lon":5.3941,"is_reserved":false,"is_disabled":true,"rental_uris":{"android":"levelo://app?vid=61641def-4aae-4954-b79d-978323be1ee5","ios":"levelo://app?vid=61641def-4aae-4954-b79d-978323be1ee5"},"vehicle_type_id":"4","last_reported":1750331399,"current_range_meters":400,"station_id":"ce4bhh12rcd13ifvqfg0","pricing_plan_id":"cebpf4jnsgd1na2vs0mg"},{"bike_id":"d600dcc7-8a55-43fa-90a4-da588cbae671","system_id":"levelo_inurba_marseille","lat":43.30383,"lon":5.42518,"is_reserved":false,"is_disabled":true,"rental_uris":{"android":"levelo://app?vid=d600dcc7-8a55-43fa-90a4-da588cbae671","ios":"levelo://app?vid=d600dcc7-8a55-43fa-90a4-da588cbae671"},"vehicle_type_id":"4","last_reported":1750331399,"current_range_meters":400,"station_id":"ce4bhoh2rcd13ifvqh6g","pricing_plan_id":"cebpf4jnsgd1na2vs0mg"},{"bike_id":"45d84f43-e8ea-43c2-a5e4-94db45822772","system_id":"levelo_inurba_marseille","lat":43.26808,"lon":5.40269,"is_reserved":false,"is_disabled":true,"rental_uris":{"android":"levelo://app?vid=45d84f43-e8ea-43c2-a5e4-94db45822772","ios":"levelo://app?vid=45d84f43-e8ea-43c2-a5e4-94db45822772"},"vehicle_type_id":"4","last_reported":1750331399,"current_range_meters":400,"station_id":"ce501612rcd8frsf0b60","pricing_plan_id":"cebpf4jnsgd1na2vs0mg"},{"bike_id":"82dbcca6-530e-4505-a7e7-64dd95e9e763","system_id":"levelo_inurba_marseille","lat":43.27911,"lon":5.38006,"is_reserved":false,"is_disabled":true,"rental_uris":{"android":"levelo://app?vid=82dbcca6-530e-4505-a7e7-64dd95e9e763","ios":"levelo://app?vid=82dbcca6-530e-4505-a7e7-64dd95e9e763"},"vehicle_type_id":"4","last_reported":1750331399,"current_range_meters":800,"station_id":"ce4bhf92rcd13ifvqf50","pricing_plan_id":"cebpf4jnsgd1na2vs0mg"},{"bike_id":"fa517304-bc7f-412e-acb3-a55393e58f5f","system_id":"levelo_inurba_marseille","lat":43.264904,"lon":5.395451,"is_reserved":false,"is_disabled":true,"rental_uris":{"android":"levelo://app?vid=fa517304-bc7f-412e-acb3-a55393e58f5f","ios":"levelo://app?vid=fa517304-bc7f-412e-acb3-a55393e58f5f"},"vehicle_type_id":"4","last_reported":1750331399,"current_range_meters":800,"station_id":"ce4bhi12rcd13ifvqfq0","pricing_plan_id":"cebpf4jnsgd1na2vs0mg"},{"bike_id":"ae437201-813f-49ae-8016-386c66fc49f9","system_id":"levelo_inurba_marseille","lat":43.270697,"lon":5.422653,"is_reserved":false,"is_disabled":true,"rental_uris":{"android":"levelo://app?vid=ae437201-813f-49ae-8016-386c66fc49f9","ios":"levelo://app?vid=ae437201-813f-49ae-8016-386c66fc49f9"},"vehicle_type_id":"4","last_reported":1750331399,"current_range_meters":800,"station_id":"ce4bhk92rcd13ifvqgb0","pricing_plan_id":"cebpf4jnsgd1na2vs0mg"},{"bike_id":"f03b493a-e6f3-43c4-905d-8a610a4764d4","system_id":"levelo_inurba_marseille","lat":43.30465,"lon":5.37907,"is_reserved":false,"is_disabled":true,"rental_uris":{"android":"levelo://app?vid=f03b493a-e6f3-43c4-905d-8a610a4764d4","ios":"levelo://app?vid=f03b493a-e6f3-43c4-905d-8a610a4764d4"},"vehicle_type_id":"4","last_reported":1750331399,"current_range_meters":1200,"station_id":"ce4bgup2rcd13ifvqcn0","pricing_plan_id":"cebpf4jnsgd1na2vs0mg"},{"bike_id":"32d55e80-ceda-4026-baa1-e3b96cec02cb","system_id":"levelo_inurba_marseille","lat":43.253966,"lon":5.375672,"is_reserved":false,"is_disabled":true,"rental_uris":{"android":"levelo://app?vid=32d55e80-ceda-4026-baa1-e3b96cec02cb","ios":"levelo://app?vid=32d55e80-ceda-4026-baa1-e3b96cec02cb"},"vehicle_type_id":"4","last_reported":1750331399,"current_range_meters":1600,"station_id":"","pricing_plan_id":"cebpf4jnsgd1na2vs0mg"},{"bike_id":"685427ba-93d6-4f3a-87a1-9fab6bf1e012","system_id":"levelo_inurba_marseille","lat":43.29288,"lon":5.3748,"is_reserved":false,"is_disabled":true,"rental_uris":{"android":"levelo://app?vid=685427ba-93d6-4f3a-87a1-9fab6bf1e012","ios":"levelo://app?vid=685427ba-93d6-4f3a-87a1-9fab6bf1e012"},"vehicle_type_id":"4","last_reported":1750331399,"current_range_meters":1600,"station_id":"ce4bgi12rcd13ifvqb70","pricing_plan_id":"cebpf4jnsgd1na2vs0mg"},{"bike_id":"413b3854-2df6-4beb-a45b-a52ec2cc23c5","system_id":"levelo_inurba_marseille","lat":43.28944,"lon":5.39629,"is_reserved":false,"is_disabled":true,"rental_uris":{"android":"levelo://app?vid=413b3854-2df6-4beb-a45b-a52ec2cc23c5","ios":"levelo://app?vid=413b3854-2df6-4beb-a45b-a52ec2cc23c5"},"vehicle_type_id":"4","last_reported":1750331399,"current_range_meters":1600,"station_id":"ce4bh3h2rcd13ifvqdn0","pricing_plan_id":"cebpf4jnsgd1na2vs0mg"},{"bike_id":"c9c42594-05ff-4c34-88a4-dc66b34404fd","system_id":"levelo_inurba_marseille","lat":43.27056,"lon":5.40282,"is_reserved":false,"is_disabled":true,"rental_uris":{"android":"levelo://app?vid=c9c42594-05ff-4c34-88a4-dc66b34404fd","ios":"levelo://app?vid=c9c42594-05ff-4c34-88a4-dc66b34404fd"},"vehicle_type_id":"4","last_reported":1750331399,"current_range_meters":1600,"station_id":"ce4bhk92rcd13ifvqgc0","pricing_plan_id":"cebpf4jnsgd1na2vs0mg"},{"bike_id":"d4b2375e-15c2-4b2f-a628-6d423b46231b","system_id":"levelo_inurba_marseille","lat":43.24253,"lon":5.4115,"is_reserved":false,"is_disabled":true,"rental_uris":{"android":"levelo://app?vid=d4b2375e-15c2-4b2f-a628-6d423b46231b","ios":"levelo://app?vid=d4b2375e-15c2-4b2f-a628-6d423b46231b"},"vehicle_type_id":"4","last_reported":1750331399,"current_range_meters":2000,"station_id":"","pricing_plan_id":"cebpf4jnsgd1na2vs0mg"},{"bike_id":"64b8b83e-503a-4015-b7c1-3bd9b6c0bb97","system_id":"levelo_inurba_marseille","lat":43.30367,"lon":5.45141,"is_reserved":false,"is_disabled":true,"rental_uris":{"android":"levelo://app?vid=64b8b83e-503a-4015-b7c1-3bd9b6c0bb97","ios":"levelo://app?vid=64b8b83e-503a-4015-b7c1-3bd9b6c0bb97"},"vehicle_type_id":"4","last_reported":1750331399,"current_range_meters":2000,"station_id":"","pricing_plan_id":"cebpf4jnsgd1na2vs0mg"},{"bike_id":"fb7f0fca-328c-4590-8315-5fcf92aa068d","system_id":"levelo_inurba_marseille","lat":43.31147,"lon":5.37671,"is_reserved":false,"is_disabled":true,"rental_uris":{"android":"levelo://app?vid=fb7f0fca-328c-4590-8315-5fcf92aa068d","ios":"levelo://app?vid=fb7f0fca-328c-4590-8315-5fcf92aa068d"},"vehicle_type_id":"4","last_reported":1750331399,"current_range_meters":2000,"station_id":"","pricing_plan_id":"cebpf4jnsgd1na2vs0mg"},{"bike_id":"d8fcefc3-d5dc-4294-9d7a-3e71bacfd01d","system_id":"levelo_inurba_marseille","lat":43.30849,"lon":5.3666,"is_reserved":false,"is_disabled":true,"rental_uris":{"android":"levelo://app?vid=d8fcefc3-d5dc-4294-9d7a-3e71bacfd01d","ios":"levelo://app?vid=d8fcefc3-d5dc-4294-9d7a-3e71bacfd01d"},"vehicle_type_id":"4","last_reported":1750331399,"current_range_meters":2000,"station_id":"","pricing_plan_id":"cebpf4jnsgd1na2vs0mg"},{"bike_id":"87441bde-ff85-4d20-bb4f-8b495985ce6e","system_id":"levelo_inurba_marseille","lat":43.29028,"lon":5.38665,"is_reserved":false,"is_disabled":false,"rental_uris":{"android":"levelo://app?vid=87441bde-ff85-4d20-bb4f-8b495985ce6e","ios":"levelo://app?vid=87441bde-ff85-4d20-bb4f-8b495985ce6e"},"vehicle_type_id":"4","last_reported":1750331399,"current_range_meters":2800,"station_id":"ce4bh4p2rcd13ifvqe0g","pricing_plan_id":"cebpf4jnsgd1na2vs0mg"},{"bike_id":"eb233ba8-6025-4117-9317-32652dc69f5e","system_id":"levelo_inurba_marseille","lat":43.28002,"lon":5.40012,"is_reserved":false,"is_disabled":false,"rental_uris":{"android":"levelo://app?vid=eb233ba8-6025-4117-9317-32652dc69f5e","ios":"levelo://app?vid=eb233ba8-6025-4117-9317-32652dc69f5e"},"vehicle_type_id":"4","last_reported":1750331399,"current_range_meters":2800,"station_id":"ce4bho92rcd13ifvqh4g","pricing_plan_id":"cebpf4jnsgd1na2vs0mg"},{"bike_id":"7404b8d6-37a3-4b5f-baaf-842f1df26e4c","system_id":"levelo_inurba_marseille","lat":43.23063,"lon":5.35493,"is_reserved":false,"is_disabled":false,"rental_uris":{"android":"levelo://app?vid=7404b8d6-37a3-4b5f-baaf-842f1df26e4c","ios":"levelo://app?vid=7404b8d6-37a3-4b5f-baaf-842f1df26e4c"},"vehicle_type_id":"4","last_reported":1750331399,"current_range_meters":2800,"station_id":"cpo3342slgdg3j2ifvpg","pricing_plan_id":"cebpf4jnsgd1na2vs0mg"},{"bike_id":"aa8271b2-a054-417c-a48d-5ed78a8774e8","system_id":"levelo_inurba_marseille","lat":43.29004,"lon":5.35612,"is_reserved":false,"is_disabled":false,"rental_uris":{"android":"levelo://app?vid=aa8271b2-a054-417c-a48d-5ed78a8774e8","ios":"levelo://app?vid=aa8271b2-a054-417c-a48d-5ed78a8774e8"},"vehicle_type_id":"4","last_reported":1750331399,"current_range_meters":3200,"station_id":"ce4bhb92rcd13ifvqen0","pricing_plan_id":"cebpf4jnsgd1na2vs0mg"},{"bike_id":"c8f2e24c-560c-4447-829a-4af27fd43388","system_id":"levelo_inurba_marseille","lat":43.27073,"lon":5.42278,"is_reserved":false,"is_disabled":false,"rental_uris":{"android":"levelo://app?vid=c8f2e24c-560c-4447-829a-4af27fd43388","ios":"levelo://app?vid=c8f2e24c-560c-4447-829a-4af27fd43388"},"vehicle_type_id":"4","last_reported":1750331399,"current_range_meters":3200,"station_id":"ce4bhk92rcd13ifvqgb0","pricing_plan_id":"cebpf4jnsgd1na2vs0mg"},{"bike_id":"9f7be02f-ffde-4b0c-8e73-3064cd192045","system_id":"levelo_inurba_marseille","lat":43.27517,"lon":5.42488,"is_reserved":false,"is_disabled":false,"rental_uris":{"android":"levelo://app?vid=9f7be02f-ffde-4b0c-8e73-3064cd192045","ios":"levelo://app?vid=9f7be02f-ffde-4b0c-8e73-3064cd192045"},"vehicle_type_id":"4","last_reported":1750331399,"current_range_meters":3200,"station_id":"ce4bhn92rcd13ifvqgrg","pricing_plan_id":"cebpf4jnsgd1na2vs0mg"},{"bike_id":"f9b08ee3-f9ed-41eb-bc58-0659348d50c2","system_id":"levelo_inurba_marseille","lat":43.31536,"lon":5.38037,"is_reserved":false,"is_disabled":false,"rental_uris":{"android":"levelo://app?vid=f9b08ee3-f9ed-41eb-bc58-0659348d50c2","ios":"levelo://app?vid=f9b08ee3-f9ed-41eb-bc58-0659348d50c2"},"vehicle_type_id":"4","last_reported":1750331399,"current_range_meters":3200,"station_id":"ce4bhsp2rcd13ifvqi50","pricing_plan_id":"cebpf4jnsgd1na2vs0mg"},{"bike_id":"820df921-69fc-426c-b325-82acf4918bb0","system_id":"levelo_inurba_marseille","lat":43.30604,"lon":5.372023,"is_reserved":false,"is_disabled":false,"rental_uris":{"android":"levelo://app?vid=820df921-69fc-426c-b325-82acf4918bb0","ios":"levelo://app?vid=820df921-69fc-426c-b325-82acf4918bb0"},"vehicle_type_id":"4","last_reported":1750331399,"current_range_meters":3600,"station_id":"ce4bgqh2rcd13ifvqc4g","pricing_plan_id":"cebpf4jnsgd1na2vs0mg"},{"bike_id":"9613b7b3-03db-4baf-8424-9b7ca231d15e","system_id":"levelo_inurba_marseille","lat":43.28708,"lon":5.40004,"is_reserved":false,"is_disabled":false,"rental_uris":{"android":"levelo://app?vid=9613b7b3-03db-4baf-8424-9b7ca231d15e","ios":"levelo://app?vid=9613b7b3-03db-4baf-8424-9b7ca231d15e"},"vehicle_type_id":"4","last_reported":1750331399,"current_range_meters":3600,"station_id":"ce4bho92rcd13ifvqh3g","pricing_plan_id":"cebpf4jnsgd1na2vs0mg"},{"bike_id":"599fb7bc-5090-434b-801c-c4d0320093f0","system_id":"levelo_inurba_marseille","lat":43.2845,"lon":5.39204,"is_reserved":false,"is_disabled":false,"rental_uris":{"android":"levelo://app?vid=599fb7bc-5090-434b-801c-c4d0320093f0","ios":"levelo://app?vid=599fb7bc-5090-434b-801c-c4d0320093f0"},"vehicle_type_id":"4","last_reported":1750331399,"current_range_meters":3600,"station_id":"ce4bhoh2rcd13ifvqh5g","pricing_plan_id":"cebpf4jnsgd1na2vs0mg"},{"bike_id":"b5002037-f4b0-4634-8bc4-796d0c74810e","system_id":"levelo_inurba_marseille","lat":43.2436,"lon":5.41147,"is_reserved":false,"is_disabled":false,"rental_uris":{"android":"levelo://app?vid=b5002037-f4b0-4634-8bc4-796d0c74810e","ios":"levelo://app?vid=b5002037-f4b0-4634-8bc4-796d0c74810e"},"vehicle_type_id":"4","last_reported":1750331399,"current_range_meters":4000,"station_id":"","pricing_plan_id":"cebpf4jnsgd1na2vs0mg"},{"bike_id":"ec01be80-b228-49a9-bb2c-57dc2fb1f199","system_id":"levelo_inurba_marseille","lat":43.27269,"lon":5.40944,"is_reserved":false,"is_disabled":false,"rental_uris":{"android":"levelo://app?vid=ec01be80-b228-49a9-bb2c-57dc2fb1f199","ios":"levelo://app?vid=ec01be80-b228-49a9-bb2c-57dc2fb1f199"},"vehicle_type_id":"4","last_reported":1750331399,"current_range_meters":4000,"station_id":"","pricing_plan_id":"cebpf4jnsgd1na2vs0mg"},{"bike_id":"24cf35e7-6ce2-40bb-bdba-7e39f913bd07","system_id":"levelo_inurba_marseille","lat":43.28622,"lon":5.35106,"is_reserved":false,"is_disabled":false,"rental_uris":{"android":"levelo://app?vid=24cf35e7-6ce2-40bb-bdba-7e39f913bd07","ios":"levelo://app?vid=24cf35e7-6ce2-40bb-bdba-7e39f913bd07"},"vehicle_type_id":"4","last_reported":1750331399,"current_range_meters":4000,"station_id":"ce4bhch2rcd13ifvqeug","pricing_plan_id":"cebpf4jnsgd1na2vs0mg"},{"bike_id":"27d9b5c9-cf25-4cf1-90db-980dc9dcc813","system_id":"levelo_inurba_marseille","lat":43.26942,"lon":5.40258,"is_reserved":false,"is_disabled":false,"rental_uris":{"android":"levelo://app?vid=27d9b5c9-cf25-4cf1-90db-980dc9dcc813","ios":"levelo://app?vid=27d9b5c9-cf25-4cf1-90db-980dc9dcc813"},"vehicle_type_id":"4","last_reported":1750331399,"current_range_meters":4000,"station_id":"cjm6bp8fraef2m0cb0m0","pricing_plan_id":"cebpf4jnsgd1na2vs0mg"},{"bike_id":"32cf3fd6-e192-45ea-84cc-629fc9fa95ca","system_id":"levelo_inurba_marseille","lat":43.262,"lon":5.37928,"is_reserved":false,"is_disabled":false,"rental_uris":{"android":"levelo://app?vid=32cf3fd6-e192-45ea-84cc-629fc9fa95ca","ios":"levelo://app?vid=32cf3fd6-e192-45ea-84cc-629fc9fa95ca"},"vehicle_type_id":"4","last_reported":1750331399,"current_range_meters":4400,"station_id":"ce4bhjp2rcd13ifvqg90","pricing_plan_id":"cebpf4jnsgd1na2vs0mg"},{"bike_id":"22242b79-ec45-4d27-8fe7-cc380a991cfd","system_id":"levelo_inurba_marseille","lat":43.292611,"lon":5.400242,"is_reserved":false,"is_disabled":false,"rental_uris":{"android":"levelo://app?vid=22242b79-ec45-4d27-8fe7-cc380a991cfd","ios":"levelo://app?vid=22242b79-ec45-4d27-8fe7-cc380a991cfd"},"vehicle_type_id":"4","last_reported":1750331399,"current_range_meters":4800,"station_id":"ce4bh192rcd13ifvqdd0","pricing_plan_id":"cebpf4jnsgd1na2vs0mg"},{"bike_id":"5b7f8f71-a7a9-4171-b3e2-bdc9bbeaa3b5","system_id":"levelo_inurba_marseille","lat":43.28631,"lon":5.35106,"is_reserved":false,"is_disabled":false,"rental_uris":{"android":"levelo://app?vid=5b7f8f71-a7a9-4171-b3e2-bdc9bbeaa3b5","ios":"levelo://app?vid=5b7f8f71-a7a9-4171-b3e2-bdc9bbeaa3b5"},"vehicle_type_id":"4","last_reported":1750331399,"current_range_meters":4800,"station_id":"ce4bhch2rcd13ifvqeug","pricing_plan_id":"cebpf4jnsgd1na2vs0mg"},{"bike_id":"1ac69a26-2404-4b5e-8162-b38670a61e87","system_id":"levelo_inurba_marseille","lat":43.30602,"lon":5.37228,"is_reserved":false,"is_disabled":false,"rental_uris":{"android":"levelo://app?vid=1ac69a26-2404-4b5e-8162-b38670a61e87","ios":"levelo://app?vid=1ac69a26-2404-4b5e-8162-b38670a61e87"},"vehicle_type_id":"4","last_reported":1750331399,"current_range_meters":5600,"station_id":"ce4bgqh2rcd13ifvqc4g","pricing_plan_id":"cebpf4jnsgd1na2vs0mg"},{"bike_id":"50d19254-b521-43c0-927a-43d482d1fb15","system_id":"levelo_inurba_marseille","lat":43.31685,"lon":5.40471,"is_reserved":false,"is_disabled":false,"rental_uris":{"android":"levelo://app?vid=50d19254-b521-43c0-927a-43d482d1fb15","ios":"levelo://app?vid=50d19254-b521-43c0-927a-43d482d1fb15"},"vehicle_type_id":"4","last_reported":1750331399,"current_range_meters":6000,"station_id":"ce4bh012rcd13ifvqd00","pricing_plan_id":"cebpf4jnsgd1na2vs0mg"},{"bike_id":"9f2ffe3e-6c40-4a76-be05-cd13d866d08d","system_id":"levelo_inurba_marseille","lat":43.29265,"lon":5.3844,"is_reserved":false,"is_disabled":false,"rental_uris":{"android":"levelo://app?vid=9f2ffe3e-6c40-4a76-be05-cd13d866d08d","ios":"levelo://app?vid=9f2ffe3e-6c40-4a76-be05-cd13d866d08d"},"vehicle_type_id":"4","last_reported":1750331399,"current_range_meters":6000,"station_id":"ce4bh692rcd13ifvqea0","pricing_plan_id":"cebpf4jnsgd1na2vs0mg"},{"bike_id":"ca7fa57f-9755-4c17-a606-9f6a51e32ebf","system_id":"levelo_inurba_marseille","lat":43.30357,"lon":5.38138,"is_reserved":false,"is_disabled":false,"rental_uris":{"android":"levelo://app?vid=ca7fa57f-9755-4c17-a606-9f6a51e32ebf","ios":"levelo://app?vid=ca7fa57f-9755-4c17-a606-9f6a51e32ebf"},"vehicle_type_id":"4","last_reported":1750331399,"current_range_meters":6400,"station_id":"","pricing_plan_id":"cebpf4jnsgd1na2vs0mg"},{"bike_id":"23738177-6934-478c-a553-f90ab78eda5d","system_id":"levelo_inurba_marseille","lat":43.31272,"lon":5.40158,"is_reserved":false,"is_disabled":false,"rental_uris":{"android":"levelo://app?vid=23738177-6934-478c-a553-f90ab78eda5d","ios":"levelo://app?vid=23738177-6934-478c-a553-f90ab78eda5d"},"vehicle_type_id":"4","last_reported":1750331399,"current_range_meters":6400,"station_id":"ce4bh092rcd13ifvqd30","pricing_plan_id":"cebpf4jnsgd1na2vs0mg"},{"bike_id":"2fbe5b61-0ffb-40a2-9c3b-73d9428ad7f8","system_id":"levelo_inurba_marseille","lat":43.28466,"lon":5.35888,"is_reserved":false,"is_disabled":false,"rental_uris":{"android":"levelo://app?vid=2fbe5b61-0ffb-40a2-9c3b-73d9428ad7f8","ios":"levelo://app?vid=2fbe5b61-0ffb-40a2-9c3b-73d9428ad7f8"},"vehicle_type_id":"4","last_reported":1750331399,"current_range_meters":6400,"station_id":"ce4bhah2rcd13ifvqei0","pricing_plan_id":"cebpf4jnsgd1na2vs0mg"},{"bike_id":"d35c1836-39ef-4329-a863-7fc20f7d9bff","system_id":"levelo_inurba_marseille","lat":43.28615,"lon":5.35101,"is_reserved":false,"is_disabled":false,"rental_uris":{"android":"levelo://app?vid=d35c1836-39ef-4329-a863-7fc20f7d9bff","ios":"levelo://app?vid=d35c1836-39ef-4329-a863-7fc20f7d9bff"},"vehicle_type_id":"4","last_reported":1750331399,"current_range_meters":6400,"station_id":"ce4bhch2rcd13ifvqeug","pricing_plan_id":"cebpf4jnsgd1na2vs0mg"},{"bike_id":"23c72eca-3619-483e-a1d8-fb8425a9c118","system_id":"levelo_inurba_marseille","lat":43.2621,"lon":5.37439,"is_reserved":false,"is_disabled":false,"rental_uris":{"android":"levelo://app?vid=23c72eca-3619-483e-a1d8-fb8425a9c118","ios":"levelo://app?vid=23c72eca-3619-483e-a1d8-fb8425a9c118"},"vehicle_type_id":"4","last_reported":1750331399,"current_range_meters":6400,"station_id":"ce4bhgp2rcd13ifvqfc0","pricing_plan_id":"cebpf4jnsgd1na2vs0mg"},{"bike_id":"eda67b0b-1654-44f6-8fcd-8bdf4a3d0e0d","system_id":"levelo_inurba_marseille","lat":43.29814,"lon":5.38101,"is_reserved":false,"is_disabled":false,"rental_uris":{"android":"levelo://app?vid=eda67b0b-1654-44f6-8fcd-8bdf4a3d0e0d","ios":"levelo://app?vid=eda67b0b-1654-44f6-8fcd-8bdf4a3d0e0d"},"vehicle_type_id":"4","last_reported":1750331399,"current_range_meters":6800,"station_id":"ce4bgip2rcd13ifvqbb0","pricing_plan_id":"cebpf4jnsgd1na2vs0mg"},{"bike_id":"23f3feed-e6a0-4a28-bf48-8571d41ec480","system_id":"levelo_inurba_marseille","lat":43.315307,"lon":5.375357,"is_reserved":false,"is_disabled":false,"rental_uris":{"android":"levelo://app?vid=23f3feed-e6a0-4a28-bf48-8571d41ec480","ios":"levelo://app?vid=23f3feed-e6a0-4a28-bf48-8571d41ec480"},"vehicle_type_id":"4","last_reported":1750331399,"current_range_meters":7200,"station_id":"","pricing_plan_id":"cebpf4jnsgd1na2vs0mg"},{"bike_id":"de0f7c2b-5974-4035-a240-8ed367c0e3f3","system_id":"levelo_inurba_marseille","lat":43.31962,"lon":5.37622,"is_reserved":false,"is_disabled":false,"rental_uris":{"android":"levelo://app?vid=de0f7c2b-5974-4035-a240-8ed367c0e3f3","ios":"levelo://app?vid=de0f7c2b-5974-4035-a240-8ed367c0e3f3"},"vehicle_type_id":"4","last_reported":1750331399,"current_range_meters":7200,"station_id":"","pricing_plan_id":"cebpf4jnsgd1na2vs0mg"},{"bike_id":"bb6b65e1-6e10-4665-9982-d717b718270a","system_id":"levelo_inurba_marseille","lat":43.297028,"lon":5.366104,"is_reserved":false,"is_disabled":false,"rental_uris":{"android":"levelo://app?vid=bb6b65e1-6e10-4665-9982-d717b718270a","ios":"levelo://app?vid=bb6b65e1-6e10-4665-9982-d717b718270a"},"vehicle_type_id":"4","last_reported":1750331399,"current_range_meters":7200,"station_id":"ce4bgn12rcd13ifvqbt0","pricing_plan_id":"cebpf4jnsgd1na2vs0mg"},{"bike_id":"45924d74-90b8-4922-9b8e-f38a0c1a4ade","system_id":"levelo_inurba_marseille","lat":43.29186,"lon":5.35802,"is_reserved":false,"is_disabled":false,"rental_uris":{"android":"levelo://app?vid=45924d74-90b8-4922-9b8e-f38a0c1a4ade","ios":"levelo://app?vid=45924d74-90b8-4922-9b8e-f38a0c1a4ade"},"vehicle_type_id":"4","last_reported":1750331399,"current_range_meters":7200,"station_id":"ce4bhb12rcd13ifvqel0","pricing_plan_id":"cebpf4jnsgd1na2vs0mg"},{"bike_id":"b4f51bf8-ddd6-421d-8dc7-8bbfdc6c1211","system_id":"levelo_inurba_marseille","lat":43.27373,"lon":5.36257,"is_reserved":false,"is_disabled":false,"rental_uris":{"android":"levelo://app?vid=b4f51bf8-ddd6-421d-8dc7-8bbfdc6c1211","ios":"levelo://app?vid=b4f51bf8-ddd6-421d-8dc7-8bbfdc6c1211"},"vehicle_type_id":"4","last_reported":1750331399,"current_range_meters":7200,"station_id":"ce4bhbh2rcd13ifvqeo0","pricing_plan_id":"cebpf4jnsgd1na2vs0mg"},{"bike_id":"78289a79-db45-470a-ba5b-c5b6a7b7831f","system_id":"levelo_inurba_marseille","lat":43.28415,"lon":5.349945,"is_reserved":false,"is_disabled":false,"rental_uris":{"android":"levelo://app?vid=78289a79-db45-470a-ba5b-c5b6a7b7831f","ios":"levelo://app?vid=78289a79-db45-470a-ba5b-c5b6a7b7831f"},"vehicle_type_id":"4","last_reported":1750331399,"current_range_meters":7200,"station_id":"ce4bhbh2rcd13ifvqepg","pricing_plan_id":"cebpf4jnsgd1na2vs0mg"},{"bike_id":"46cd6476-196f-4c89-ba8d-8fb572356abb","system_id":"levelo_inurba_marseille","lat":43.26649,"lon":5.38936,"is_reserved":false,"is_disabled":false,"rental_uris":{"android":"levelo://app?vid=46cd6476-196f-4c89-ba8d-8fb572356abb","ios":"levelo://app?vid=46cd6476-196f-4c89-ba8d-8fb572356abb"},"vehicle_type_id":"4","last_reported":1750331399,"current_range_meters":7200,"station_id":"ce4bhe12rcd13ifvqf30","pricing_plan_id":"cebpf4jnsgd1na2vs0mg"},{"bike_id":"5758f02d-ab77-4076-9ccd-2538e67f35b9","system_id":"levelo_inurba_marseille","lat":43.30141,"lon":5.37984,"is_reserved":false,"is_disabled":false,"rental_uris":{"android":"levelo://app?vid=5758f02d-ab77-4076-9ccd-2538e67f35b9","ios":"levelo://app?vid=5758f02d-ab77-4076-9ccd-2538e67f35b9"},"vehicle_type_id":"4","last_reported":1750331399,"current_range_meters":8000,"station_id":"","pricing_plan_id":"cebpf4jnsgd1na2vs0mg"},{"bike_id":"8382f313-446c-40d5-929b-059a64febcb7","system_id":"levelo_inurba_marseille","lat":43.27366,"lon":5.3625,"is_reserved":false,"is_disabled":false,"rental_uris":{"android":"levelo://app?vid=8382f313-446c-40d5-929b-059a64febcb7","ios":"levelo://app?vid=8382f313-446c-40d5-929b-059a64febcb7"},"vehicle_type_id":"4","last_reported":1750331399,"current_range_meters":8000,"station_id":"ce4bhbh2rcd13ifvqeo0","pricing_plan_id":"cebpf4jnsgd1na2vs0mg"},{"bike_id":"40a25752-5f17-4aca-9c6c-d0cd83ecdd6e","system_id":"levelo_inurba_marseille","lat":43.2862,"lon":5.35109,"is_reserved":false,"is_disabled":false,"rental_uris":{"android":"levelo://app?vid=40a25752-5f17-4aca-9c6c-d0cd83ecdd6e","ios":"levelo://app?vid=40a25752-5f17-4aca-9c6c-d0cd83ecdd6e"},"vehicle_type_id":"4","last_reported":1750331399,"current_range_meters":8000,"station_id":"ce4bhch2rcd13ifvqeug","pricing_plan_id":"cebpf4jnsgd1na2vs0mg"},{"bike_id":"a7c561af-e124-48c5-9ede-a055c2eb4920","system_id":"levelo_inurba_marseille","lat":43.26578,"lon":5.38992,"is_reserved":false,"is_disabled":false,"rental_uris":{"android":"levelo://app?vid=a7c561af-e124-48c5-9ede-a055c2eb4920","ios":"levelo://app?vid=a7c561af-e124-48c5-9ede-a055c2eb4920"},"vehicle_type_id":"4","last_reported":1750331399,"current_range_meters":8400,"station_id":"ce4bhe12rcd13ifvqf30","pricing_plan_id":"cebpf4jnsgd1na2vs0mg"},{"bike_id":"c4be660b-68f5-49a6-87b4-bc5116e8021c","system_id":"levelo_inurba_marseille","lat":43.23153,"lon":5.43716,"is_reserved":false,"is_disabled":false,"rental_uris":{"android":"levelo://app?vid=c4be660b-68f5-49a6-87b4-bc5116e8021c","ios":"levelo://app?vid=c4be660b-68f5-49a6-87b4-bc5116e8021c"},"vehicle_type_id":"4","last_reported":1750331399,"current_range_meters":8400,"station_id":"ce4bhmp2rcd13ifvqgog","pricing_plan_id":"cebpf4jnsgd1na2vs0mg"},{"bike_id":"415eec5b-ee26-45a0-9a68-c17d2ed59b8a","system_id":"levelo_inurba_marseille","lat":43.33729,"lon":5.39196,"is_reserved":false,"is_disabled":false,"rental_uris":{"android":"levelo://app?vid=415eec5b-ee26-45a0-9a68-c17d2ed59b8a","ios":"levelo://app?vid=415eec5b-ee26-45a0-9a68-c17d2ed59b8a"},"vehicle_type_id":"4","last_reported":1750331399,"current_range_meters":8400,"station_id":"ce4bhr92rcd13ifvqhsg","pricing_plan_id":"cebpf4jnsgd1na2vs0mg"},{"bike_id":"dfb5f012-f5b4-4029-a915-6fb664bbe6a4","system_id":"levelo_inurba_marseille","lat":43.25287,"lon":5.3947,"is_reserved":false,"is_disabled":false,"rental_uris":{"android":"levelo://app?vid=dfb5f012-f5b4-4029-a915-6fb664bbe6a4","ios":"levelo://app?vid=dfb5f012-f5b4-4029-a915-6fb664bbe6a4"},"vehicle_type_id":"4","last_reported":1750331399,"current_range_meters":8800,"station_id":"","pricing_plan_id":"cebpf4jnsgd1na2vs0mg"},{"bike_id":"3518210a-6d90-482f-a11b-11cb7c94acd1","system_id":"levelo_inurba_marseille","lat":43.26514,"lon":5.39114,"is_reserved":false,"is_disabled":false,"rental_uris":{"android":"levelo://app?vid=3518210a-6d90-482f-a11b-11cb7c94acd1","ios":"levelo://app?vid=3518210a-6d90-482f-a11b-11cb7c94acd1"},"vehicle_type_id":"4","last_reported":1750331399,"current_range_meters":8800,"station_id":"","pricing_plan_id":"cebpf4jnsgd1na2vs0mg"},{"bike_id":"3edfb1ae-1ef0-4754-bc42-7c4f579bd69b","system_id":"levelo_inurba_marseille","lat":43.30929,"lon":5.36651,"is_reserved":false,"is_disabled":false,"rental_uris":{"android":"levelo://app?vid=3edfb1ae-1ef0-4754-bc42-7c4f579bd69b","ios":"levelo://app?vid=3edfb1ae-1ef0-4754-bc42-7c4f579bd69b"},"vehicle_type_id":"4","last_reported":1750331399,"current_range_meters":8800,"station_id":"","pricing_plan_id":"cebpf4jnsgd1na2vs0mg"},{"bike_id":"082bcb36-4ae3-4cc6-a9bd-c786512ab7da","system_id":"levelo_inurba_marseille","lat":43.26035,"lon":5.37545,"is_reserved":false,"is_disabled":false,"rental_uris":{"android":"levelo://app?vid=082bcb36-4ae3-4cc6-a9bd-c786512ab7da","ios":"levelo://app?vid=082bcb36-4ae3-4cc6-a9bd-c786512ab7da"},"vehicle_type_id":"4","last_reported":1750331399,"current_range_meters":8800,"station_id":"ce4bhgh2rcd13ifvqfa0","pricing_plan_id":"cebpf4jnsgd1na2vs0mg"},{"bike_id":"d8d246f7-9e27-47d1-b0b8-a8d584f30774","system_id":"levelo_inurba_marseille","lat":43.24071,"lon":5.37764,"is_reserved":false,"is_disabled":false,"rental_uris":{"android":"levelo://app?vid=d8d246f7-9e27-47d1-b0b8-a8d584f30774","ios":"levelo://app?vid=d8d246f7-9e27-47d1-b0b8-a8d584f30774"},"vehicle_type_id":"4","last_reported":1750331399,"current_range_meters":8800,"station_id":"ce4bhnp2rcd13ifvqgvg","pricing_plan_id":"cebpf4jnsgd1na2vs0mg"},{"bike_id":"da794ecc-7ffc-4aac-aeb6-36fca201d161","system_id":"levelo_inurba_marseille","lat":43.30871,"lon":5.36678,"is_reserved":false,"is_disabled":false,"rental_uris":{"android":"levelo://app?vid=da794ecc-7ffc-4aac-aeb6-36fca201d161","ios":"levelo://app?vid=da794ecc-7ffc-4aac-aeb6-36fca201d161"},"vehicle_type_id":"4","last_reported":1750331399,"current_range_meters":9200,"station_id":"","pricing_plan_id":"cebpf4jnsgd1na2vs0mg"},{"bike_id":"4b8da722-ee9e-48a4-a5e5-3a8a10364708","system_id":"levelo_inurba_marseille","lat":43.31203,"lon":5.37792,"is_reserved":false,"is_disabled":false,"rental_uris":{"android":"levelo://app?vid=4b8da722-ee9e-48a4-a5e5-3a8a10364708","ios":"levelo://app?vid=4b8da722-ee9e-48a4-a5e5-3a8a10364708"},"vehicle_type_id":"4","last_reported":1750331399,"current_range_meters":9200,"station_id":"","pricing_plan_id":"cebpf4jnsgd1na2vs0mg"},{"bike_id":"6aa8d965-b59f-40b8-a72a-4ae472266734","system_id":"levelo_inurba_marseille","lat":43.296097,"lon":5.380485,"is_reserved":false,"is_disabled":false,"rental_uris":{"android":"levelo://app?vid=6aa8d965-b59f-40b8-a72a-4ae472266734","ios":"levelo://app?vid=6aa8d965-b59f-40b8-a72a-4ae472266734"},"vehicle_type_id":"4","last_reported":1750331399,"current_range_meters":9200,"station_id":"ce4bgl12rcd13ifvqbo0","pricing_plan_id":"cebpf4jnsgd1na2vs0mg"},{"bike_id":"44ef975f-ce25-41a1-a5cf-5dc802c453d7","system_id":"levelo_inurba_marseille","lat":43.31216,"lon":5.369,"is_reserved":false,"is_disabled":false,"rental_uris":{"android":"levelo://app?vid=44ef975f-ce25-41a1-a5cf-5dc802c453d7","ios":"levelo://app?vid=44ef975f-ce25-41a1-a5cf-5dc802c453d7"},"vehicle_type_id":"4","last_reported":1750331399,"current_range_meters":9200,"station_id":"ce4bgl92rcd13ifvqbq0","pricing_plan_id":"cebpf4jnsgd1na2vs0mg"},{"bike_id":"2b94b04b-dac6-48a6-b078-735dde634350","system_id":"levelo_inurba_marseille","lat":43.30464,"lon":5.37901,"is_reserved":false,"is_disabled":false,"rental_uris":{"android":"levelo://app?vid=2b94b04b-dac6-48a6-b078-735dde634350","ios":"levelo://app?vid=2b94b04b-dac6-48a6-b078-735dde634350"},"vehicle_type_id":"4","last_reported":1750331399,"current_range_meters":9200,"station_id":"ce4bgup2rcd13ifvqcn0","pricing_plan_id":"cebpf4jnsgd1na2vs0mg"},{"bike_id":"5ba3a333-c3af-4015-bf14-b172ca7abf29","system_id":"levelo_inurba_marseille","lat":43.31273,"lon":5.40171,"is_reserved":false,"is_disabled":false,"rental_uris":{"android":"levelo://app?vid=5ba3a333-c3af-4015-bf14-b172ca7abf29","ios":"levelo://app?vid=5ba3a333-c3af-4015-bf14-b172ca7abf29"},"vehicle_type_id":"4","last_reported":1750331399,"current_range_meters":9200,"station_id":"ce4bh092rcd13ifvqd30","pricing_plan_id":"cebpf4jnsgd1na2vs0mg"},{"bike_id":"ad4a2478-4ca5-4f86-b046-bc30c17f1a8a","system_id":"levelo_inurba_marseille","lat":43.28933,"lon":5.38392,"is_reserved":false,"is_disabled":false,"rental_uris":{"android":"levelo://app?vid=ad4a2478-4ca5-4f86-b046-bc30c17f1a8a","ios":"levelo://app?vid=ad4a2478-4ca5-4f86-b046-bc30c17f1a8a"},"vehicle_type_id":"4","last_reported":1750331399,"current_range_meters":9200,"station_id":"ce4bh612rcd13ifvqe6g","pricing_plan_id":"cebpf4jnsgd1na2vs0mg"},{"bike_id":"0e632e46-aa33-4e4c-a8f4-183f0946550e","system_id":"levelo_inurba_marseille","lat":43.24791,"lon":5.37452,"is_reserved":false,"is_disabled":false,"rental_uris":{"android":"levelo://app?vid=0e632e46-aa33-4e4c-a8f4-183f0946550e","ios":"levelo://app?vid=0e632e46-aa33-4e4c-a8f4-183f0946550e"},"vehicle_type_id":"4","last_reported":1750331399,"current_range_meters":9200,"station_id":"ce4bhgh2rcd13ifvqfb0","pricing_plan_id":"cebpf4jnsgd1na2vs0mg"},{"bike_id":"0dedb6f6-6801-483b-bfb8-9cd4533d158f","system_id":"levelo_inurba_marseille","lat":43.31155,"lon":5.38099,"is_reserved":false,"is_disabled":false,"rental_uris":{"android":"levelo://app?vid=0dedb6f6-6801-483b-bfb8-9cd4533d158f","ios":"levelo://app?vid=0dedb6f6-6801-483b-bfb8-9cd4533d158f"},"vehicle_type_id":"4","last_reported":1750331399,"current_range_meters":9600,"station_id":"","pricing_plan_id":"cebpf4jnsgd1na2vs0mg"},{"bike_id":"37edcd2a-0e55-4c3a-9392-d3be63296e01","system_id":"levelo_inurba_marseille","lat":43.30651,"lon":5.40089,"is_reserved":false,"is_disabled":false,"rental_uris":{"android":"levelo://app?vid=37edcd2a-0e55-4c3a-9392-d3be63296e01","ios":"levelo://app?vid=37edcd2a-0e55-4c3a-9392-d3be63296e01"},"vehicle_type_id":"4","last_reported":1750331399,"current_range_meters":9600,"station_id":"ce4bh112rcd13ifvqda0","pricing_plan_id":"cebpf4jnsgd1na2vs0mg"},{"bike_id":"e6c811ba-6bbb-47cb-ab05-0fa7dde478b2","system_id":"levelo_inurba_marseille","lat":43.26573,"lon":5.39007,"is_reserved":false,"is_disabled":false,"rental_uris":{"android":"levelo://app?vid=e6c811ba-6bbb-47cb-ab05-0fa7dde478b2","ios":"levelo://app?vid=e6c811ba-6bbb-47cb-ab05-0fa7dde478b2"},"vehicle_type_id":"4","last_reported":1750331399,"current_range_meters":9600,"station_id":"ce4bhe12rcd13ifvqf30","pricing_plan_id":"cebpf4jnsgd1na2vs0mg"},{"bike_id":"31d093aa-8cc1-4648-93a8-2a63e8276d5f","system_id":"levelo_inurba_marseille","lat":43.30462,"lon":5.37905,"is_reserved":false,"is_disabled":false,"rental_uris":{"android":"levelo://app?vid=31d093aa-8cc1-4648-93a8-2a63e8276d5f","ios":"levelo://app?vid=31d093aa-8cc1-4648-93a8-2a63e8276d5f"},"vehicle_type_id":"4","last_reported":1750331399,"current_range_meters":10000,"station_id":"ce4bgup2rcd13ifvqcn0","pricing_plan_id":"cebpf4jnsgd1na2vs0mg"},{"bike_id":"55d26089-8c80-42f6-a766-7985e9d779c2","system_id":"levelo_inurba_marseille","lat":43.30455,"lon":5.37884,"is_reserved":false,"is_disabled":false,"rental_uris":{"android":"levelo://app?vid=55d26089-8c80-42f6-a766-7985e9d779c2","ios":"levelo://app?vid=55d26089-8c80-42f6-a766-7985e9d779c2"},"vehicle_type_id":"4","last_reported":1750331399,"current_range_meters":10000,"station_id":"ce4bgup2rcd13ifvqcn0","pricing_plan_id":"cebpf4jnsgd1na2vs0mg"},{"bike_id":"8157647b-2312-412e-a389-12bdabca6e8c","system_id":"levelo_inurba_marseille","lat":43.28148,"lon":5.37829,"is_reserved":false,"is_disabled":false,"rental_uris":{"android":"levelo://app?vid=8157647b-2312-412e-a389-12bdabca6e8c","ios":"levelo://app?vid=8157647b-2312-412e-a389-12bdabca6e8c"},"vehicle_type_id":"4","last_reported":1750331399,"current_range_meters":10000,"station_id":"ce4bha12rcd13ifvqee0","pricing_plan_id":"cebpf4jnsgd1na2vs0mg"},{"bike_id":"758bfb71-3149-47c7-8046-9c7370c1adc3","system_id":"levelo_inurba_marseille","lat":43.304624,"lon":5.379123,"is_reserved":false,"is_disabled":false,"rental_uris":{"android":"levelo://app?vid=758bfb71-3149-47c7-8046-9c7370c1adc3","ios":"levelo://app?vid=758bfb71-3149-47c7-8046-9c7370c1adc3"},"vehicle_type_id":"4","last_reported":1750331399,"current_range_meters":10800,"station_id":"ce4bgup2rcd13ifvqcn0","pricing_plan_id":"cebpf4jnsgd1na2vs0mg"},{"bike_id":"ff50814e-99b9-4492-9c78-51059e41e75d","system_id":"levelo_inurba_marseille","lat":43.29032,"lon":5.39984,"is_reserved":false,"is_disabled":false,"rental_uris":{"android":"levelo://app?vid=ff50814e-99b9-4492-9c78-51059e41e75d","ios":"levelo://app?vid=ff50814e-99b9-4492-9c78-51059e41e75d"},"vehicle_type_id":"4","last_reported":1750331399,"current_range_meters":10800,"station_id":"ce4bh392rcd13ifvqdm0","pricing_plan_id":"cebpf4jnsgd1na2vs0mg"},{"bike_id":"8dea601a-2ff6-4d1b-83da-2a5a677aa2d6","system_id":"levelo_inurba_marseille","lat":43.2717,"lon":5.40989,"is_reserved":false,"is_disabled":false,"rental_uris":{"android":"levelo://app?vid=8dea601a-2ff6-4d1b-83da-2a5a677aa2d6","ios":"levelo://app?vid=8dea601a-2ff6-4d1b-83da-2a5a677aa2d6"},"vehicle_type_id":"4","last_reported":1750331399,"current_range_meters":10800,"station_id":"ce4bhl12rcd13ifvqgf0","pricing_plan_id":"cebpf4jnsgd1na2vs0mg"},{"bike_id":"93e8893e-3fc1-4202-b6c5-4e30be86373a","system_id":"levelo_inurba_marseille","lat":43.30376,"lon":5.42488,"is_reserved":false,"is_disabled":false,"rental_uris":{"android":"levelo://app?vid=93e8893e-3fc1-4202-b6c5-4e30be86373a","ios":"levelo://app?vid=93e8893e-3fc1-4202-b6c5-4e30be86373a"},"vehicle_type_id":"4","last_reported":1750331399,"current_range_meters":10800,"station_id":"ce4bhoh2rcd13ifvqh6g","pricing_plan_id":"cebpf4jnsgd1na2vs0mg"},{"bike_id":"268aafb4-1331-426c-97bc-a7d6564caeb6","system_id":"levelo_inurba_marseille","lat":43.32933,"lon":5.37919,"is_reserved":false,"is_disabled":false,"rental_uris":{"android":"levelo://app?vid=268aafb4-1331-426c-97bc-a7d6564caeb6","ios":"levelo://app?vid=268aafb4-1331-426c-97bc-a7d6564caeb6"},"vehicle_type_id":"4","last_reported":1750331399,"current_range_meters":11200,"station_id":"","pricing_plan_id":"cebpf4jnsgd1na2vs0mg"},{"bike_id":"7c4b8391-2cc0-405c-9ee4-e0d45a165213","system_id":"levelo_inurba_marseille","lat":43.29369,"lon":5.37851,"is_reserved":false,"is_disabled":false,"rental_uris":{"android":"levelo://app?vid=7c4b8391-2cc0-405c-9ee4-e0d45a165213","ios":"levelo://app?vid=7c4b8391-2cc0-405c-9ee4-e0d45a165213"},"vehicle_type_id":"4","last_reported":1750331399,"current_range_meters":11200,"station_id":"ce4bgjh2rcd13ifvqbf0","pricing_plan_id":"cebpf4jnsgd1na2vs0mg"},{"bike_id":"048afb60-8d38-49ac-ac0b-c1a65ffe739e","system_id":"levelo_inurba_marseille","lat":43.30555,"lon":5.36519,"is_reserved":false,"is_disabled":false,"rental_uris":{"android":"levelo://app?vid=048afb60-8d38-49ac-ac0b-c1a65ffe739e","ios":"levelo://app?vid=048afb60-8d38-49ac-ac0b-c1a65ffe739e"},"vehicle_type_id":"4","last_reported":1750331399,"current_range_meters":11200,"station_id":"ce4bgs12rcd13ifvqcag","pricing_plan_id":"cebpf4jnsgd1na2vs0mg"},{"bike_id":"27dbe656-b256-4738-869a-73d9a956f67c","system_id":"levelo_inurba_marseille","lat":43.30139,"lon":5.37406,"is_reserved":false,"is_disabled":false,"rental_uris":{"android":"levelo://app?vid=27dbe656-b256-4738-869a-73d9a956f67c","ios":"levelo://app?vid=27dbe656-b256-4738-869a-73d9a956f67c"},"vehicle_type_id":"4","last_reported":1750331399,"current_range_meters":11200,"station_id":"ce4bgs92rcd13ifvqcc0","pricing_plan_id":"cebpf4jnsgd1na2vs0mg"},{"bike_id":"c7d37daa-765c-4dfb-8f57-5cc8f8195a79","system_id":"levelo_inurba_marseille","lat":43.28422,"lon":5.34993,"is_reserved":false,"is_disabled":false,"rental_uris":{"android":"levelo://app?vid=c7d37daa-765c-4dfb-8f57-5cc8f8195a79","ios":"levelo://app?vid=c7d37daa-765c-4dfb-8f57-5cc8f8195a79"},"vehicle_type_id":"4","last_reported":1750331399,"current_range_meters":11200,"station_id":"ce4bhbh2rcd13ifvqepg","pricing_plan_id":"cebpf4jnsgd1na2vs0mg"},{"bike_id":"a9f6a271-4891-448b-83bb-e9cafc9a960f","system_id":"levelo_inurba_marseille","lat":43.26929,"lon":5.38927,"is_reserved":false,"is_disabled":false,"rental_uris":{"android":"levelo://app?vid=a9f6a271-4891-448b-83bb-e9cafc9a960f","ios":"levelo://app?vid=a9f6a271-4891-448b-83bb-e9cafc9a960f"},"vehicle_type_id":"4","last_reported":1750331399,"current_range_meters":11200,"station_id":"ce4bhhh2rcd13ifvqfl0","pricing_plan_id":"cebpf4jnsgd1na2vs0mg"},{"bike_id":"eaaa9fcd-34d4-4d0b-8f90-fbf605a0610f","system_id":"levelo_inurba_marseille","lat":43.21191,"lon":5.35084,"is_reserved":false,"is_disabled":false,"rental_uris":{"android":"levelo://app?vid=eaaa9fcd-34d4-4d0b-8f90-fbf605a0610f","ios":"levelo://app?vid=eaaa9fcd-34d4-4d0b-8f90-fbf605a0610f"},"vehicle_type_id":"4","last_reported":1750331399,"current_range_meters":11200,"station_id":"st_cvj6sg6p6f1abm77japg","pricing_plan_id":"cebpf4jnsgd1na2vs0mg"},{"bike_id":"f025e0b0-8595-426c-b214-cb9b74c5fcfd","system_id":"levelo_inurba_marseille","lat":43.32198,"lon":5.40581,"is_reserved":false,"is_disabled":false,"rental_uris":{"android":"levelo://app?vid=f025e0b0-8595-426c-b214-cb9b74c5fcfd","ios":"levelo://app?vid=f025e0b0-8595-426c-b214-cb9b74c5fcfd"},"vehicle_type_id":"4","last_reported":1750331399,"current_range_meters":11600,"station_id":"","pricing_plan_id":"cebpf4jnsgd1na2vs0mg"},{"bike_id":"56fdfc4e-979c-4ed5-9885-57018d76de79","system_id":"levelo_inurba_marseille","lat":43.29349,"lon":5.42831,"is_reserved":false,"is_disabled":false,"rental_uris":{"android":"levelo://app?vid=56fdfc4e-979c-4ed5-9885-57018d76de79","ios":"levelo://app?vid=56fdfc4e-979c-4ed5-9885-57018d76de79"},"vehicle_type_id":"4","last_reported":1750331399,"current_range_meters":11600,"station_id":"","pricing_plan_id":"cebpf4jnsgd1na2vs0mg"},{"bike_id":"f17e3b66-5b04-4c5b-9957-7a960cfe6f6a","system_id":"levelo_inurba_marseille","lat":43.30539,"lon":5.36557,"is_reserved":false,"is_disabled":false,"rental_uris":{"android":"levelo://app?vid=f17e3b66-5b04-4c5b-9957-7a960cfe6f6a","ios":"levelo://app?vid=f17e3b66-5b04-4c5b-9957-7a960cfe6f6a"},"vehicle_type_id":"4","last_reported":1750331399,"current_range_meters":11600,"station_id":"ce4bgs12rcd13ifvqcag","pricing_plan_id":"cebpf4jnsgd1na2vs0mg"},{"bike_id":"45f84319-09de-4737-9dc4-08f6ef116a41","system_id":"levelo_inurba_marseille","lat":43.30141,"lon":5.3742,"is_reserved":false,"is_disabled":false,"rental_uris":{"android":"levelo://app?vid=45f84319-09de-4737-9dc4-08f6ef116a41","ios":"levelo://app?vid=45f84319-09de-4737-9dc4-08f6ef116a41"},"vehicle_type_id":"4","last_reported":1750331399,"current_range_meters":11600,"station_id":"ce4bgs92rcd13ifvqcc0","pricing_plan_id":"cebpf4jnsgd1na2vs0mg"},{"bike_id":"a3bf24e6-7b4f-45f4-b9ef-c86db9e0b4b8","system_id":"levelo_inurba_marseille","lat":43.29039,"lon":5.38642,"is_reserved":false,"is_disabled":false,"rental_uris":{"android":"levelo://app?vid=a3bf24e6-7b4f-45f4-b9ef-c86db9e0b4b8","ios":"levelo://app?vid=a3bf24e6-7b4f-45f4-b9ef-c86db9e0b4b8"},"vehicle_type_id":"4","last_reported":1750331399,"current_range_meters":11600,"station_id":"ce4bh4p2rcd13ifvqe0g","pricing_plan_id":"cebpf4jnsgd1na2vs0mg"},{"bike_id":"387dc1e2-84d5-438b-a05a-1d154802d3eb","system_id":"levelo_inurba_marseille","lat":43.27061,"lon":5.40276,"is_reserved":false,"is_disabled":false,"rental_uris":{"android":"levelo://app?vid=387dc1e2-84d5-438b-a05a-1d154802d3eb","ios":"levelo://app?vid=387dc1e2-84d5-438b-a05a-1d154802d3eb"},"vehicle_type_id":"4","last_reported":1750331399,"current_range_meters":11600,"station_id":"ce4bhk92rcd13ifvqgc0","pricing_plan_id":"cebpf4jnsgd1na2vs0mg"},{"bike_id":"ec074c15-b334-41d3-bd7e-4617214fe6a1","system_id":"levelo_inurba_marseille","lat":43.3374,"lon":5.39183,"is_reserved":false,"is_disabled":false,"rental_uris":{"android":"levelo://app?vid=ec074c15-b334-41d3-bd7e-4617214fe6a1","ios":"levelo://app?vid=ec074c15-b334-41d3-bd7e-4617214fe6a1"},"vehicle_type_id":"4","last_reported":1750331399,"current_range_meters":11600,"station_id":"ce4bhr92rcd13ifvqhsg","pricing_plan_id":"cebpf4jnsgd1na2vs0mg"},{"bike_id":"3eb9992a-e24a-4ed3-bd44-5e035e6e973e","system_id":"levelo_inurba_marseille","lat":43.31308,"lon":5.37889,"is_reserved":false,"is_disabled":false,"rental_uris":{"android":"levelo://app?vid=3eb9992a-e24a-4ed3-bd44-5e035e6e973e","ios":"levelo://app?vid=3eb9992a-e24a-4ed3-bd44-5e035e6e973e"},"vehicle_type_id":"4","last_reported":1750331399,"current_range_meters":12000,"station_id":"","pricing_plan_id":"cebpf4jnsgd1na2vs0mg"},{"bike_id":"4a9dccbf-5349-49cf-83a8-d2dcade9a12e","system_id":"levelo_inurba_marseille","lat":43.272066,"lon":5.391823,"is_reserved":false,"is_disabled":false,"rental_uris":{"android":"levelo://app?vid=4a9dccbf-5349-49cf-83a8-d2dcade9a12e","ios":"levelo://app?vid=4a9dccbf-5349-49cf-83a8-d2dcade9a12e"},"vehicle_type_id":"4","last_reported":1750331399,"current_range_meters":12000,"station_id":"","pricing_plan_id":"cebpf4jnsgd1na2vs0mg"},{"bike_id":"8ceb4bd8-ed01-46b5-8fb3-4a3010a52161","system_id":"levelo_inurba_marseille","lat":43.312724,"lon":5.401727,"is_reserved":false,"is_disabled":false,"rental_uris":{"android":"levelo://app?vid=8ceb4bd8-ed01-46b5-8fb3-4a3010a52161","ios":"levelo://app?vid=8ceb4bd8-ed01-46b5-8fb3-4a3010a52161"},"vehicle_type_id":"4","last_reported":1750331399,"current_range_meters":12000,"station_id":"ce4bh092rcd13ifvqd30","pricing_plan_id":"cebpf4jnsgd1na2vs0mg"},{"bike_id":"22b43b45-26b6-447c-9a75-f535ac2268d1","system_id":"levelo_inurba_marseille","lat":43.28413,"lon":5.34987,"is_reserved":false,"is_disabled":false,"rental_uris":{"android":"levelo://app?vid=22b43b45-26b6-447c-9a75-f535ac2268d1","ios":"levelo://app?vid=22b43b45-26b6-447c-9a75-f535ac2268d1"},"vehicle_type_id":"4","last_reported":1750331399,"current_range_meters":12000,"station_id":"ce4bhbh2rcd13ifvqepg","pricing_plan_id":"cebpf4jnsgd1na2vs0mg"},{"bike_id":"fa539cb2-e606-41f7-9ada-7a4ab7445948","system_id":"levelo_inurba_marseille","lat":43.29886,"lon":5.37467,"is_reserved":false,"is_disabled":false,"rental_uris":{"android":"levelo://app?vid=fa539cb2-e606-41f7-9ada-7a4ab7445948","ios":"levelo://app?vid=fa539cb2-e606-41f7-9ada-7a4ab7445948"},"vehicle_type_id":"4","last_reported":1750331399,"current_range_meters":12400,"station_id":"ce4bgjh2rcd13ifvqbg0","pricing_plan_id":"cebpf4jnsgd1na2vs0mg"},{"bike_id":"3f1126b3-c1da-4520-b452-e18f43b1737e","system_id":"levelo_inurba_marseille","lat":43.3015,"lon":5.37424,"is_reserved":false,"is_disabled":false,"rental_uris":{"android":"levelo://app?vid=3f1126b3-c1da-4520-b452-e18f43b1737e","ios":"levelo://app?vid=3f1126b3-c1da-4520-b452-e18f43b1737e"},"vehicle_type_id":"4","last_reported":1750331399,"current_range_meters":12400,"station_id":"ce4bgs92rcd13ifvqcc0","pricing_plan_id":"cebpf4jnsgd1na2vs0mg"},{"bike_id":"24de02c9-bec3-41e0-96cc-eec497a8d094","system_id":"levelo_inurba_marseille","lat":43.31074,"lon":5.38353,"is_reserved":false,"is_disabled":false,"rental_uris":{"android":"levelo://app?vid=24de02c9-bec3-41e0-96cc-eec497a8d094","ios":"levelo://app?vid=24de02c9-bec3-41e0-96cc-eec497a8d094"},"vehicle_type_id":"4","last_reported":1750331399,"current_range_meters":12400,"station_id":"ce4bgv92rcd13ifvqcr0","pricing_plan_id":"cebpf4jnsgd1na2vs0mg"},{"bike_id":"0ce0e7ec-2d1c-4494-9535-24c29d32c5ec","system_id":"levelo_inurba_marseille","lat":43.24179,"lon":5.39733,"is_reserved":false,"is_disabled":false,"rental_uris":{"android":"levelo://app?vid=0ce0e7ec-2d1c-4494-9535-24c29d32c5ec","ios":"levelo://app?vid=0ce0e7ec-2d1c-4494-9535-24c29d32c5ec"},"vehicle_type_id":"4","last_reported":1750331399,"current_range_meters":12400,"station_id":"ce4bhn12rcd13ifvqgpg","pricing_plan_id":"cebpf4jnsgd1na2vs0mg"},{"bike_id":"3fb63fa4-ad88-427a-81f3-c17068013004","system_id":"levelo_inurba_marseille","lat":43.31766,"lon":5.39027,"is_reserved":false,"is_disabled":false,"rental_uris":{"android":"levelo://app?vid=3fb63fa4-ad88-427a-81f3-c17068013004","ios":"levelo://app?vid=3fb63fa4-ad88-427a-81f3-c17068013004"},"vehicle_type_id":"4","last_reported":1750331399,"current_range_meters":12400,"station_id":"ce4bhqp2rcd13ifvqhng","pricing_plan_id":"cebpf4jnsgd1na2vs0mg"},{"bike_id":"4b6b2a2b-d3c4-4663-8ea1-de4eff39b7b2","system_id":"levelo_inurba_marseille","lat":43.21196,"lon":5.35076,"is_reserved":false,"is_disabled":false,"rental_uris":{"android":"levelo://app?vid=4b6b2a2b-d3c4-4663-8ea1-de4eff39b7b2","ios":"levelo://app?vid=4b6b2a2b-d3c4-4663-8ea1-de4eff39b7b2"},"vehicle_type_id":"4","last_reported":1750331399,"current_range_meters":12400,"station_id":"st_cvj6sg6p6f1abm77japg","pricing_plan_id":"cebpf4jnsgd1na2vs0mg"},{"bike_id":"4d050283-482b-4902-aedc-9c335b88c8c7","system_id":"levelo_inurba_marseille","lat":43.27208,"lon":5.39184,"is_reserved":false,"is_disabled":false,"rental_uris":{"android":"levelo://app?vid=4d050283-482b-4902-aedc-9c335b88c8c7","ios":"levelo://app?vid=4d050283-482b-4902-aedc-9c335b88c8c7"},"vehicle_type_id":"4","last_reported":1750331399,"current_range_meters":12800,"station_id":"ce4bhhp2rcd13ifvqfm0","pricing_plan_id":"cebpf4jnsgd1na2vs0mg"},{"bike_id":"91679707-5438-4d96-b7ee-5d04f04a84ff","system_id":"levelo_inurba_marseille","lat":43.31711,"lon":5.436963,"is_reserved":false,"is_disabled":false,"rental_uris":{"android":"levelo://app?vid=91679707-5438-4d96-b7ee-5d04f04a84ff","ios":"levelo://app?vid=91679707-5438-4d96-b7ee-5d04f04a84ff"},"vehicle_type_id":"4","last_reported":1750331399,"current_range_meters":12800,"station_id":"ce4bhp92rcd13ifvqhcg","pricing_plan_id":"cebpf4jnsgd1na2vs0mg"},{"bike_id":"120313ea-a70f-48d0-90eb-072fcb2d4cd7","system_id":"levelo_inurba_marseille","lat":43.33746,"lon":5.39185,"is_reserved":false,"is_disabled":false,"rental_uris":{"android":"levelo://app?vid=120313ea-a70f-48d0-90eb-072fcb2d4cd7","ios":"levelo://app?vid=120313ea-a70f-48d0-90eb-072fcb2d4cd7"},"vehicle_type_id":"4","last_reported":1750331399,"current_range_meters":12800,"station_id":"ce4bhr92rcd13ifvqhsg","pricing_plan_id":"cebpf4jnsgd1na2vs0mg"},{"bike_id":"f22a4e09-6ce2-4dce-83b5-b13a30ff5f77","system_id":"levelo_inurba_marseille","lat":43.30269,"lon":5.38638,"is_reserved":false,"is_disabled":false,"rental_uris":{"android":"levelo://app?vid=f22a4e09-6ce2-4dce-83b5-b13a30ff5f77","ios":"levelo://app?vid=f22a4e09-6ce2-4dce-83b5-b13a30ff5f77"},"vehicle_type_id":"4","last_reported":1750331399,"current_range_meters":13600,"station_id":"","pricing_plan_id":"cebpf4jnsgd1na2vs0mg"},{"bike_id":"e02c4c44-a519-4c03-bb73-a94e29c6875a","system_id":"levelo_inurba_marseille","lat":43.2762,"lon":5.36112,"is_reserved":false,"is_disabled":false,"rental_uris":{"android":"levelo://app?vid=e02c4c44-a519-4c03-bb73-a94e29c6875a","ios":"levelo://app?vid=e02c4c44-a519-4c03-bb73-a94e29c6875a"},"vehicle_type_id":"4","last_reported":1750331399,"current_range_meters":13600,"station_id":"ce4bgj92rcd13ifvqbe0","pricing_plan_id":"cebpf4jnsgd1na2vs0mg"},{"bike_id":"97355fae-c27c-48ef-93fb-75f5ec7191f8","system_id":"levelo_inurba_marseille","lat":43.309479,"lon":5.390298,"is_reserved":false,"is_disabled":false,"rental_uris":{"android":"levelo://app?vid=97355fae-c27c-48ef-93fb-75f5ec7191f8","ios":"levelo://app?vid=97355fae-c27c-48ef-93fb-75f5ec7191f8"},"vehicle_type_id":"4","last_reported":1750331399,"current_range_meters":13600,"station_id":"ce4bgup2rcd13ifvqco0","pricing_plan_id":"cebpf4jnsgd1na2vs0mg"},{"bike_id":"0fe0716c-cda1-4226-aef5-f8c1d8e90655","system_id":"levelo_inurba_marseille","lat":43.31264,"lon":5.4015,"is_reserved":false,"is_disabled":false,"rental_uris":{"android":"levelo://app?vid=0fe0716c-cda1-4226-aef5-f8c1d8e90655","ios":"levelo://app?vid=0fe0716c-cda1-4226-aef5-f8c1d8e90655"},"vehicle_type_id":"4","last_reported":1750331399,"current_range_meters":13600,"station_id":"ce4bh092rcd13ifvqd30","pricing_plan_id":"cebpf4jnsgd1na2vs0mg"},{"bike_id":"5ed6bed3-531e-485b-a898-28852488d185","system_id":"levelo_inurba_marseille","lat":43.23151,"lon":5.4372,"is_reserved":false,"is_disabled":false,"rental_uris":{"android":"levelo://app?vid=5ed6bed3-531e-485b-a898-28852488d185","ios":"levelo://app?vid=5ed6bed3-531e-485b-a898-28852488d185"},"vehicle_type_id":"4","last_reported":1750331399,"current_range_meters":13600,"station_id":"ce4bhmp2rcd13ifvqgog","pricing_plan_id":"cebpf4jnsgd1na2vs0mg"},{"bike_id":"2c555767-5c9b-4c10-a745-6bbf5ccfa066","system_id":"levelo_inurba_marseille","lat":43.25413,"lon":5.37623,"is_reserved":false,"is_disabled":false,"rental_uris":{"android":"levelo://app?vid=2c555767-5c9b-4c10-a745-6bbf5ccfa066","ios":"levelo://app?vid=2c555767-5c9b-4c10-a745-6bbf5ccfa066"},"vehicle_type_id":"4","last_reported":1750331399,"current_range_meters":14000,"station_id":"","pricing_plan_id":"cebpf4jnsgd1na2vs0mg"},{"bike_id":"4107c149-932b-4c61-94ce-5310457fa403","system_id":"levelo_inurba_marseille","lat":43.3189,"lon":5.40742,"is_reserved":false,"is_disabled":false,"rental_uris":{"android":"levelo://app?vid=4107c149-932b-4c61-94ce-5310457fa403","ios":"levelo://app?vid=4107c149-932b-4c61-94ce-5310457fa403"},"vehicle_type_id":"4","last_reported":1750331399,"current_range_meters":14000,"station_id":"ce4bhq12rcd13ifvqhig","pricing_plan_id":"cebpf4jnsgd1na2vs0mg"},{"bike_id":"872749bb-2d37-4e1c-9cbb-5eedc32afe79","system_id":"levelo_inurba_marseille","lat":43.32286,"lon":5.38255,"is_reserved":false,"is_disabled":false,"rental_uris":{"android":"levelo://app?vid=872749bb-2d37-4e1c-9cbb-5eedc32afe79","ios":"levelo://app?vid=872749bb-2d37-4e1c-9cbb-5eedc32afe79"},"vehicle_type_id":"4","last_reported":1750331399,"current_range_meters":14000,"station_id":"ce4bhr12rcd13ifvqhqg","pricing_plan_id":"cebpf4jnsgd1na2vs0mg"},{"bike_id":"65be88d8-1132-4ab5-8053-668d0c8dc5a6","system_id":"levelo_inurba_marseille","lat":43.229324,"lon":5.353716,"is_reserved":false,"is_disabled":false,"rental_uris":{"android":"levelo://app?vid=65be88d8-1132-4ab5-8053-668d0c8dc5a6","ios":"levelo://app?vid=65be88d8-1132-4ab5-8053-668d0c8dc5a6"},"vehicle_type_id":"4","last_reported":1750331399,"current_range_meters":14000,"station_id":"cpo3532slgdg3j2ikp40","pricing_plan_id":"cebpf4jnsgd1na2vs0mg"},{"bike_id":"604cdfb0-bf4a-4eb1-ba15-f0963fb13924","system_id":"levelo_inurba_marseille","lat":43.29372,"lon":5.37836,"is_reserved":false,"is_disabled":false,"rental_uris":{"android":"levelo://app?vid=604cdfb0-bf4a-4eb1-ba15-f0963fb13924","ios":"levelo://app?vid=604cdfb0-bf4a-4eb1-ba15-f0963fb13924"},"vehicle_type_id":"4","last_reported":1750331399,"current_range_meters":14400,"station_id":"ce4bgjh2rcd13ifvqbf0","pricing_plan_id":"cebpf4jnsgd1na2vs0mg"},{"bike_id":"df77b6d2-6834-4a44-a94b-20f11853c902","system_id":"levelo_inurba_marseille","lat":43.28418,"lon":5.34983,"is_reserved":false,"is_disabled":false,"rental_uris":{"android":"levelo://app?vid=df77b6d2-6834-4a44-a94b-20f11853c902","ios":"levelo://app?vid=df77b6d2-6834-4a44-a94b-20f11853c902"},"vehicle_type_id":"4","last_reported":1750331399,"current_range_meters":14400,"station_id":"ce4bhbh2rcd13ifvqepg","pricing_plan_id":"cebpf4jnsgd1na2vs0mg"},{"bike_id":"096052d2-0586-4be0-abdd-5d2e3e526d40","system_id":"levelo_inurba_marseille","lat":43.30153,"lon":5.38089,"is_reserved":false,"is_disabled":false,"rental_uris":{"android":"levelo://app?vid=096052d2-0586-4be0-abdd-5d2e3e526d40","ios":"levelo://app?vid=096052d2-0586-4be0-abdd-5d2e3e526d40"},"vehicle_type_id":"4","last_reported":1750331399,"current_range_meters":14800,"station_id":"ce4bgjp2rcd13ifvqbh0","pricing_plan_id":"cebpf4jnsgd1na2vs0mg"},{"bike_id":"59029d2f-5d84-414d-9c04-cce1da297d8b","system_id":"levelo_inurba_marseille","lat":43.29511,"lon":5.39399,"is_reserved":false,"is_disabled":false,"rental_uris":{"android":"levelo://app?vid=59029d2f-5d84-414d-9c04-cce1da297d8b","ios":"levelo://app?vid=59029d2f-5d84-414d-9c04-cce1da297d8b"},"vehicle_type_id":"4","last_reported":1750331399,"current_range_meters":14800,"station_id":"ce4bh292rcd13ifvqdf0","pricing_plan_id":"cebpf4jnsgd1na2vs0mg"},{"bike_id":"e12f99c0-6365-448a-a1fa-15da4ca6b448","system_id":"levelo_inurba_marseille","lat":43.28272,"lon":5.35075,"is_reserved":false,"is_disabled":false,"rental_uris":{"android":"levelo://app?vid=e12f99c0-6365-448a-a1fa-15da4ca6b448","ios":"levelo://app?vid=e12f99c0-6365-448a-a1fa-15da4ca6b448"},"vehicle_type_id":"4","last_reported":1750331399,"current_range_meters":14800,"station_id":"ce4bhbp2rcd13ifvqerg","pricing_plan_id":"cebpf4jnsgd1na2vs0mg"},{"bike_id":"4e843060-018f-4f9f-97c4-3e11f372dca1","system_id":"levelo_inurba_marseille","lat":43.24725,"lon":5.41185,"is_reserved":false,"is_disabled":false,"rental_uris":{"android":"levelo://app?vid=4e843060-018f-4f9f-97c4-3e11f372dca1","ios":"levelo://app?vid=4e843060-018f-4f9f-97c4-3e11f372dca1"},"vehicle_type_id":"4","last_reported":1750331399,"current_range_meters":15200,"station_id":"","pricing_plan_id":"cebpf4jnsgd1na2vs0mg"},{"bike_id":"d38b4707-15c1-4fef-a4e4-f41bc9edf6f9","system_id":"levelo_inurba_marseille","lat":43.30415,"lon":5.39755,"is_reserved":false,"is_disabled":false,"rental_uris":{"android":"levelo://app?vid=d38b4707-15c1-4fef-a4e4-f41bc9edf6f9","ios":"levelo://app?vid=d38b4707-15c1-4fef-a4e4-f41bc9edf6f9"},"vehicle_type_id":"4","last_reported":1750331399,"current_range_meters":15200,"station_id":"ce4bh092rcd13ifvqd20","pricing_plan_id":"cebpf4jnsgd1na2vs0mg"},{"bike_id":"948b3975-9c12-4b24-9629-6dd7a653caab","system_id":"levelo_inurba_marseille","lat":43.26196,"lon":5.37447,"is_reserved":false,"is_disabled":false,"rental_uris":{"android":"levelo://app?vid=948b3975-9c12-4b24-9629-6dd7a653caab","ios":"levelo://app?vid=948b3975-9c12-4b24-9629-6dd7a653caab"},"vehicle_type_id":"4","last_reported":1750331399,"current_range_meters":15200,"station_id":"ce4bhgp2rcd13ifvqfc0","pricing_plan_id":"cebpf4jnsgd1na2vs0mg"},{"bike_id":"fd664e67-59f3-411a-9547-2339460c8244","system_id":"levelo_inurba_marseille","lat":43.29804,"lon":5.39348,"is_reserved":false,"is_disabled":false,"rental_uris":{"android":"levelo://app?vid=fd664e67-59f3-411a-9547-2339460c8244","ios":"levelo://app?vid=fd664e67-59f3-411a-9547-2339460c8244"},"vehicle_type_id":"4","last_reported":1750331399,"current_range_meters":15200,"station_id":"chh1huq6cuj3fo74tm60","pricing_plan_id":"cebpf4jnsgd1na2vs0mg"},{"bike_id":"5d142438-e938-42af-85bf-92210681bb73","system_id":"levelo_inurba_marseille","lat":43.304329,"lon":5.397456,"is_reserved":false,"is_disabled":false,"rental_uris":{"android":"levelo://app?vid=5d142438-e938-42af-85bf-92210681bb73","ios":"levelo://app?vid=5d142438-e938-42af-85bf-92210681bb73"},"vehicle_type_id":"4","last_reported":1750331399,"current_range_meters":16000,"station_id":"ce4bh092rcd13ifvqd20","pricing_plan_id":"cebpf4jnsgd1na2vs0mg"},{"bike_id":"173dfef4-8e0e-4c22-ba3b-f9947af22e4a","system_id":"levelo_inurba_marseille","lat":43.30094,"lon":5.39081,"is_reserved":false,"is_disabled":false,"rental_uris":{"android":"levelo://app?vid=173dfef4-8e0e-4c22-ba3b-f9947af22e4a","ios":"levelo://app?vid=173dfef4-8e0e-4c22-ba3b-f9947af22e4a"},"vehicle_type_id":"4","last_reported":1750331399,"current_range_meters":16000,"station_id":"ce4bh192rcd13ifvqdb0","pricing_plan_id":"cebpf4jnsgd1na2vs0mg"},{"bike_id":"cc01e844-d390-4543-bdd4-a90e1180bc9e","system_id":"levelo_inurba_marseille","lat":43.292614,"lon":5.368474,"is_reserved":false,"is_disabled":false,"rental_uris":{"android":"levelo://app?vid=cc01e844-d390-4543-bdd4-a90e1180bc9e","ios":"levelo://app?vid=cc01e844-d390-4543-bdd4-a90e1180bc9e"},"vehicle_type_id":"4","last_reported":1750331399,"current_range_meters":16000,"station_id":"ce4bhbp2rcd13ifvqesg","pricing_plan_id":"cebpf4jnsgd1na2vs0mg"},{"bike_id":"d7a7c834-d6f7-4fed-bdb9-b0cadc1d3dfd","system_id":"levelo_inurba_marseille","lat":43.25939,"lon":5.40901,"is_reserved":false,"is_disabled":false,"rental_uris":{"android":"levelo://app?vid=d7a7c834-d6f7-4fed-bdb9-b0cadc1d3dfd","ios":"levelo://app?vid=d7a7c834-d6f7-4fed-bdb9-b0cadc1d3dfd"},"vehicle_type_id":"4","last_reported":1750331399,"current_range_meters":16000,"station_id":"ce4bhm92rcd13ifvqglg","pricing_plan_id":"cebpf4jnsgd1na2vs0mg"},{"bike_id":"678592d5-ec46-4a3b-9572-63b858e0a269","system_id":"levelo_inurba_marseille","lat":43.30878,"lon":5.36668,"is_reserved":false,"is_disabled":false,"rental_uris":{"android":"levelo://app?vid=678592d5-ec46-4a3b-9572-63b858e0a269","ios":"levelo://app?vid=678592d5-ec46-4a3b-9572-63b858e0a269"},"vehicle_type_id":"4","last_reported":1750331399,"current_range_meters":16400,"station_id":"","pricing_plan_id":"cebpf4jnsgd1na2vs0mg"},{"bike_id":"66afe815-7430-44bf-bc04-6dd887763b78","system_id":"levelo_inurba_marseille","lat":43.30537,"lon":5.36706,"is_reserved":false,"is_disabled":false,"rental_uris":{"android":"levelo://app?vid=66afe815-7430-44bf-bc04-6dd887763b78","ios":"levelo://app?vid=66afe815-7430-44bf-bc04-6dd887763b78"},"vehicle_type_id":"4","last_reported":1750331399,"current_range_meters":16400,"station_id":"ce4bgrp2rcd13ifvqc9g","pricing_plan_id":"cebpf4jnsgd1na2vs0mg"},{"bike_id":"eaffdece-8c75-4b02-86c4-630db8246217","system_id":"levelo_inurba_marseille","lat":43.28704,"lon":5.37318,"is_reserved":false,"is_disabled":false,"rental_uris":{"android":"levelo://app?vid=eaffdece-8c75-4b02-86c4-630db8246217","ios":"levelo://app?vid=eaffdece-8c75-4b02-86c4-630db8246217"},"vehicle_type_id":"4","last_reported":1750331399,"current_range_meters":16400,"station_id":"ce4bh3p2rcd13ifvqdq0","pricing_plan_id":"cebpf4jnsgd1na2vs0mg"},{"bike_id":"93221c99-3ba7-430e-a2ff-dca6d9151327","system_id":"levelo_inurba_marseille","lat":43.282654,"lon":5.350596,"is_reserved":false,"is_disabled":false,"rental_uris":{"android":"levelo://app?vid=93221c99-3ba7-430e-a2ff-dca6d9151327","ios":"levelo://app?vid=93221c99-3ba7-430e-a2ff-dca6d9151327"},"vehicle_type_id":"4","last_reported":1750331399,"current_range_meters":16400,"station_id":"ce4bhbp2rcd13ifvqerg","pricing_plan_id":"cebpf4jnsgd1na2vs0mg"},{"bike_id":"e255b210-0cdb-48ab-b57a-3751dc91136a","system_id":"levelo_inurba_marseille","lat":43.26567,"lon":5.39032,"is_reserved":false,"is_disabled":false,"rental_uris":{"android":"levelo://app?vid=e255b210-0cdb-48ab-b57a-3751dc91136a","ios":"levelo://app?vid=e255b210-0cdb-48ab-b57a-3751dc91136a"},"vehicle_type_id":"4","last_reported":1750331399,"current_range_meters":16400,"station_id":"ce4bhe12rcd13ifvqf30","pricing_plan_id":"cebpf4jnsgd1na2vs0mg"},{"bike_id":"63f8c833-83b2-483b-a151-7a408eb8e708","system_id":"levelo_inurba_marseille","lat":43.23138,"lon":5.43732,"is_reserved":false,"is_disabled":false,"rental_uris":{"android":"levelo://app?vid=63f8c833-83b2-483b-a151-7a408eb8e708","ios":"levelo://app?vid=63f8c833-83b2-483b-a151-7a408eb8e708"},"vehicle_type_id":"4","last_reported":1750331399,"current_range_meters":16400,"station_id":"ce4bhmp2rcd13ifvqgog","pricing_plan_id":"cebpf4jnsgd1na2vs0mg"},{"bike_id":"5f24f3c5-1da6-4c0f-b87b-75b3002614e0","system_id":"levelo_inurba_marseille","lat":43.27489,"lon":5.42443,"is_reserved":false,"is_disabled":false,"rental_uris":{"android":"levelo://app?vid=5f24f3c5-1da6-4c0f-b87b-75b3002614e0","ios":"levelo://app?vid=5f24f3c5-1da6-4c0f-b87b-75b3002614e0"},"vehicle_type_id":"4","last_reported":1750331399,"current_range_meters":16400,"station_id":"ce4bhn92rcd13ifvqgrg","pricing_plan_id":"cebpf4jnsgd1na2vs0mg"},{"bike_id":"14bdf787-3f08-4015-a09d-ebbd0bfac7df","system_id":"levelo_inurba_marseille","lat":43.28143,"lon":5.42648,"is_reserved":false,"is_disabled":false,"rental_uris":{"android":"levelo://app?vid=14bdf787-3f08-4015-a09d-ebbd0bfac7df","ios":"levelo://app?vid=14bdf787-3f08-4015-a09d-ebbd0bfac7df"},"vehicle_type_id":"4","last_reported":1750331399,"current_range_meters":16400,"station_id":"ce4bhnh2rcd13ifvqgug","pricing_plan_id":"cebpf4jnsgd1na2vs0mg"},{"bike_id":"e3c9604f-d479-44d3-bd28-1ae6daf7f044","system_id":"levelo_inurba_marseille","lat":43.29726,"lon":5.37732,"is_reserved":false,"is_disabled":false,"rental_uris":{"android":"levelo://app?vid=e3c9604f-d479-44d3-bd28-1ae6daf7f044","ios":"levelo://app?vid=e3c9604f-d479-44d3-bd28-1ae6daf7f044"},"vehicle_type_id":"4","last_reported":1750331399,"current_range_meters":16800,"station_id":"","pricing_plan_id":"cebpf4jnsgd1na2vs0mg"},{"bike_id":"fe9f0b73-9819-4feb-b41d-82be4281b970","system_id":"levelo_inurba_marseille","lat":43.33754,"lon":5.37439,"is_reserved":false,"is_disabled":false,"rental_uris":{"android":"levelo://app?vid=fe9f0b73-9819-4feb-b41d-82be4281b970","ios":"levelo://app?vid=fe9f0b73-9819-4feb-b41d-82be4281b970"},"vehicle_type_id":"4","last_reported":1750331399,"current_range_meters":16800,"station_id":"","pricing_plan_id":"cebpf4jnsgd1na2vs0mg"},{"bike_id":"1e8d05d7-b771-4c31-9d87-e88861edfbdb","system_id":"levelo_inurba_marseille","lat":43.30573,"lon":5.36692,"is_reserved":false,"is_disabled":false,"rental_uris":{"android":"levelo://app?vid=1e8d05d7-b771-4c31-9d87-e88861edfbdb","ios":"levelo://app?vid=1e8d05d7-b771-4c31-9d87-e88861edfbdb"},"vehicle_type_id":"4","last_reported":1750331399,"current_range_meters":16800,"station_id":"ce4bgrp2rcd13ifvqc9g","pricing_plan_id":"cebpf4jnsgd1na2vs0mg"},{"bike_id":"bf2b8b62-199c-4cc1-8c3c-8bb6874c7916","system_id":"levelo_inurba_marseille","lat":43.30425,"lon":5.39749,"is_reserved":false,"is_disabled":false,"rental_uris":{"android":"levelo://app?vid=bf2b8b62-199c-4cc1-8c3c-8bb6874c7916","ios":"levelo://app?vid=bf2b8b62-199c-4cc1-8c3c-8bb6874c7916"},"vehicle_type_id":"4","last_reported":1750331399,"current_range_meters":16800,"station_id":"ce4bh092rcd13ifvqd20","pricing_plan_id":"cebpf4jnsgd1na2vs0mg"},{"bike_id":"1eecdb3d-eb64-4f79-9cbf-87a7ae9d2e00","system_id":"levelo_inurba_marseille","lat":43.29066,"lon":5.38656,"is_reserved":false,"is_disabled":false,"rental_uris":{"android":"levelo://app?vid=1eecdb3d-eb64-4f79-9cbf-87a7ae9d2e00","ios":"levelo://app?vid=1eecdb3d-eb64-4f79-9cbf-87a7ae9d2e00"},"vehicle_type_id":"4","last_reported":1750331399,"current_range_meters":16800,"station_id":"ce4bh4p2rcd13ifvqe0g","pricing_plan_id":"cebpf4jnsgd1na2vs0mg"},{"bike_id":"f4611887-0509-46c2-b70d-f543cd9542d9","system_id":"levelo_inurba_marseille","lat":43.28424,"lon":5.34973,"is_reserved":false,"is_disabled":false,"rental_uris":{"android":"levelo://app?vid=f4611887-0509-46c2-b70d-f543cd9542d9","ios":"levelo://app?vid=f4611887-0509-46c2-b70d-f543cd9542d9"},"vehicle_type_id":"4","last_reported":1750331399,"current_range_meters":16800,"station_id":"ce4bhbh2rcd13ifvqepg","pricing_plan_id":"cebpf4jnsgd1na2vs0mg"},{"bike_id":"dc39e9df-7330-4303-9cdd-6bb46e47798c","system_id":"levelo_inurba_marseille","lat":43.23066,"lon":5.35488,"is_reserved":false,"is_disabled":false,"rental_uris":{"android":"levelo://app?vid=dc39e9df-7330-4303-9cdd-6bb46e47798c","ios":"levelo://app?vid=dc39e9df-7330-4303-9cdd-6bb46e47798c"},"vehicle_type_id":"4","last_reported":1750331399,"current_range_meters":16800,"station_id":"cpo3342slgdg3j2ifvpg","pricing_plan_id":"cebpf4jnsgd1na2vs0mg"},{"bike_id":"a0d02667-b6f5-4e5b-9154-0bb69c0f8dff","system_id":"levelo_inurba_marseille","lat":43.30544,"lon":5.36718,"is_reserved":false,"is_disabled":false,"rental_uris":{"android":"levelo://app?vid=a0d02667-b6f5-4e5b-9154-0bb69c0f8dff","ios":"levelo://app?vid=a0d02667-b6f5-4e5b-9154-0bb69c0f8dff"},"vehicle_type_id":"4","last_reported":1750331399,"current_range_meters":17200,"station_id":"ce4bgrp2rcd13ifvqc9g","pricing_plan_id":"cebpf4jnsgd1na2vs0mg"},{"bike_id":"7a709a52-d7b1-4a6a-b187-1861bb8fafaa","system_id":"levelo_inurba_marseille","lat":43.2904,"lon":5.38648,"is_reserved":false,"is_disabled":false,"rental_uris":{"android":"levelo://app?vid=7a709a52-d7b1-4a6a-b187-1861bb8fafaa","ios":"levelo://app?vid=7a709a52-d7b1-4a6a-b187-1861bb8fafaa"},"vehicle_type_id":"4","last_reported":1750331399,"current_range_meters":17200,"station_id":"ce4bh4p2rcd13ifvqe0g","pricing_plan_id":"cebpf4jnsgd1na2vs0mg"},{"bike_id":"5c4809e5-b616-4522-809a-f4a1b13ad4be","system_id":"levelo_inurba_marseille","lat":43.28252,"lon":5.3507,"is_reserved":false,"is_disabled":false,"rental_uris":{"android":"levelo://app?vid=5c4809e5-b616-4522-809a-f4a1b13ad4be","ios":"levelo://app?vid=5c4809e5-b616-4522-809a-f4a1b13ad4be"},"vehicle_type_id":"4","last_reported":1750331399,"current_range_meters":17200,"station_id":"ce4bhbp2rcd13ifvqerg","pricing_plan_id":"cebpf4jnsgd1na2vs0mg"},{"bike_id":"f1148112-0c6a-460b-bf09-9496c0279043","system_id":"levelo_inurba_marseille","lat":43.28629,"lon":5.35103,"is_reserved":false,"is_disabled":false,"rental_uris":{"android":"levelo://app?vid=f1148112-0c6a-460b-bf09-9496c0279043","ios":"levelo://app?vid=f1148112-0c6a-460b-bf09-9496c0279043"},"vehicle_type_id":"4","last_reported":1750331399,"current_range_meters":17200,"station_id":"ce4bhch2rcd13ifvqeug","pricing_plan_id":"cebpf4jnsgd1na2vs0mg"},{"bike_id":"b6fda68c-c9c6-44c4-b1a9-732a5401332f","system_id":"levelo_inurba_marseille","lat":43.24808,"lon":5.37454,"is_reserved":false,"is_disabled":false,"rental_uris":{"android":"levelo://app?vid=b6fda68c-c9c6-44c4-b1a9-732a5401332f","ios":"levelo://app?vid=b6fda68c-c9c6-44c4-b1a9-732a5401332f"},"vehicle_type_id":"4","last_reported":1750331399,"current_range_meters":17200,"station_id":"ce4bhgh2rcd13ifvqfb0","pricing_plan_id":"cebpf4jnsgd1na2vs0mg"},{"bike_id":"63f0fefa-8096-4fee-ad52-91398bfcb358","system_id":"levelo_inurba_marseille","lat":43.26941,"lon":5.38916,"is_reserved":false,"is_disabled":false,"rental_uris":{"android":"levelo://app?vid=63f0fefa-8096-4fee-ad52-91398bfcb358","ios":"levelo://app?vid=63f0fefa-8096-4fee-ad52-91398bfcb358"},"vehicle_type_id":"4","last_reported":1750331399,"current_range_meters":17200,"station_id":"ce4bhhh2rcd13ifvqfl0","pricing_plan_id":"cebpf4jnsgd1na2vs0mg"},{"bike_id":"b4f9e1ec-4a51-421e-abf4-d9eeab98f121","system_id":"levelo_inurba_marseille","lat":43.27943,"lon":5.41043,"is_reserved":false,"is_disabled":false,"rental_uris":{"android":"levelo://app?vid=b4f9e1ec-4a51-421e-abf4-d9eeab98f121","ios":"levelo://app?vid=b4f9e1ec-4a51-421e-abf4-d9eeab98f121"},"vehicle_type_id":"4","last_reported":1750331399,"current_range_meters":17200,"station_id":"ce4bhnp2rcd13ifvqh0g","pricing_plan_id":"cebpf4jnsgd1na2vs0mg"},{"bike_id":"175e7c55-1b49-48d8-85ae-a04df81c0da4","system_id":"levelo_inurba_marseille","lat":43.28411,"lon":5.37507,"is_reserved":false,"is_disabled":false,"rental_uris":{"android":"levelo://app?vid=175e7c55-1b49-48d8-85ae-a04df81c0da4","ios":"levelo://app?vid=175e7c55-1b49-48d8-85ae-a04df81c0da4"},"vehicle_type_id":"4","last_reported":1750331399,"current_range_meters":17600,"station_id":"ce4bh412rcd13ifvqds0","pricing_plan_id":"cebpf4jnsgd1na2vs0mg"},{"bike_id":"b9b4945e-7016-4227-a125-922ecbb23550","system_id":"levelo_inurba_marseille","lat":43.2572,"lon":5.4111,"is_reserved":false,"is_disabled":false,"rental_uris":{"android":"levelo://app?vid=b9b4945e-7016-4227-a125-922ecbb23550","ios":"levelo://app?vid=b9b4945e-7016-4227-a125-922ecbb23550"},"vehicle_type_id":"4","last_reported":1750331399,"current_range_meters":17600,"station_id":"ce4bhkp2rcd13ifvqgd0","pricing_plan_id":"cebpf4jnsgd1na2vs0mg"},{"bike_id":"399028df-9f9d-482f-a037-9fd2ee56f4ce","system_id":"levelo_inurba_marseille","lat":43.33602,"lon":5.41027,"is_reserved":false,"is_disabled":false,"rental_uris":{"android":"levelo://app?vid=399028df-9f9d-482f-a037-9fd2ee56f4ce","ios":"levelo://app?vid=399028df-9f9d-482f-a037-9fd2ee56f4ce"},"vehicle_type_id":"4","last_reported":1750331399,"current_range_meters":17600,"station_id":"ce4bhqh2rcd13ifvqhmg","pricing_plan_id":"cebpf4jnsgd1na2vs0mg"},{"bike_id":"7e65b096-aa08-41c8-9b2a-e94078d8b578","system_id":"levelo_inurba_marseille","lat":43.21199,"lon":5.35086,"is_reserved":false,"is_disabled":false,"rental_uris":{"android":"levelo://app?vid=7e65b096-aa08-41c8-9b2a-e94078d8b578","ios":"levelo://app?vid=7e65b096-aa08-41c8-9b2a-e94078d8b578"},"vehicle_type_id":"4","last_reported":1750331399,"current_range_meters":17600,"station_id":"st_cvj6sg6p6f1abm77japg","pricing_plan_id":"cebpf4jnsgd1na2vs0mg"},{"bike_id":"42aa7bde-f253-44fa-9d98-e59780ed2b00","system_id":"levelo_inurba_marseille","lat":43.33128,"lon":5.38591,"is_reserved":false,"is_disabled":false,"rental_uris":{"android":"levelo://app?vid=42aa7bde-f253-44fa-9d98-e59780ed2b00","ios":"levelo://app?vid=42aa7bde-f253-44fa-9d98-e59780ed2b00"},"vehicle_type_id":"4","last_reported":1750331399,"current_range_meters":18000,"station_id":"","pricing_plan_id":"cebpf4jnsgd1na2vs0mg"},{"bike_id":"50a9b1f7-f86c-4786-a146-49c86fd2e027","system_id":"levelo_inurba_marseille","lat":43.28804,"lon":5.38252,"is_reserved":false,"is_disabled":false,"rental_uris":{"android":"levelo://app?vid=50a9b1f7-f86c-4786-a146-49c86fd2e027","ios":"levelo://app?vid=50a9b1f7-f86c-4786-a146-49c86fd2e027"},"vehicle_type_id":"4","last_reported":1750331399,"current_range_meters":18000,"station_id":"","pricing_plan_id":"cebpf4jnsgd1na2vs0mg"},{"bike_id":"02a77a1f-be1b-4864-8965-685ff8c3d18a","system_id":"levelo_inurba_marseille","lat":43.27373,"lon":5.36257,"is_reserved":false,"is_disabled":false,"rental_uris":{"android":"levelo://app?vid=02a77a1f-be1b-4864-8965-685ff8c3d18a","ios":"levelo://app?vid=02a77a1f-be1b-4864-8965-685ff8c3d18a"},"vehicle_type_id":"4","last_reported":1750331399,"current_range_meters":18000,"station_id":"ce4bhbh2rcd13ifvqeo0","pricing_plan_id":"cebpf4jnsgd1na2vs0mg"},{"bike_id":"650dfdbc-4825-47e6-ad0c-e18215952ca4","system_id":"levelo_inurba_marseille","lat":43.27372,"lon":5.36258,"is_reserved":false,"is_disabled":false,"rental_uris":{"android":"levelo://app?vid=650dfdbc-4825-47e6-ad0c-e18215952ca4","ios":"levelo://app?vid=650dfdbc-4825-47e6-ad0c-e18215952ca4"},"vehicle_type_id":"4","last_reported":1750331399,"current_range_meters":18000,"station_id":"ce4bhbh2rcd13ifvqeo0","pricing_plan_id":"cebpf4jnsgd1na2vs0mg"},{"bike_id":"b7f5a4af-458e-428e-862b-fe6bc87dd9d4","system_id":"levelo_inurba_marseille","lat":43.23965,"lon":5.36646,"is_reserved":false,"is_disabled":false,"rental_uris":{"android":"levelo://app?vid=b7f5a4af-458e-428e-862b-fe6bc87dd9d4","ios":"levelo://app?vid=b7f5a4af-458e-428e-862b-fe6bc87dd9d4"},"vehicle_type_id":"4","last_reported":1750331399,"current_range_meters":18000,"station_id":"ce4bhi12rcd13ifvqfp0","pricing_plan_id":"cebpf4jnsgd1na2vs0mg"},{"bike_id":"4ce5b165-f22d-40cf-abd3-1cb294861955","system_id":"levelo_inurba_marseille","lat":43.21193,"lon":5.35083,"is_reserved":false,"is_disabled":false,"rental_uris":{"android":"levelo://app?vid=4ce5b165-f22d-40cf-abd3-1cb294861955","ios":"levelo://app?vid=4ce5b165-f22d-40cf-abd3-1cb294861955"},"vehicle_type_id":"4","last_reported":1750331399,"current_range_meters":18800,"station_id":"","pricing_plan_id":"cebpf4jnsgd1na2vs0mg"},{"bike_id":"f982e333-7293-4b81-bfb9-61e4597ae21e","system_id":"levelo_inurba_marseille","lat":43.28461,"lon":5.35897,"is_reserved":false,"is_disabled":false,"rental_uris":{"android":"levelo://app?vid=f982e333-7293-4b81-bfb9-61e4597ae21e","ios":"levelo://app?vid=f982e333-7293-4b81-bfb9-61e4597ae21e"},"vehicle_type_id":"4","last_reported":1750331399,"current_range_meters":18800,"station_id":"ce4bhah2rcd13ifvqei0","pricing_plan_id":"cebpf4jnsgd1na2vs0mg"},{"bike_id":"1679474e-9339-4c36-97be-0175cb652585","system_id":"levelo_inurba_marseille","lat":43.29215,"lon":5.35803,"is_reserved":false,"is_disabled":false,"rental_uris":{"android":"levelo://app?vid=1679474e-9339-4c36-97be-0175cb652585","ios":"levelo://app?vid=1679474e-9339-4c36-97be-0175cb652585"},"vehicle_type_id":"4","last_reported":1750331399,"current_range_meters":18800,"station_id":"ce4bhb12rcd13ifvqel0","pricing_plan_id":"cebpf4jnsgd1na2vs0mg"},{"bike_id":"e24d92bd-c2c3-4f0f-99a5-f23b2a156bcf","system_id":"levelo_inurba_marseille","lat":43.26691,"lon":5.38261,"is_reserved":false,"is_disabled":false,"rental_uris":{"android":"levelo://app?vid=e24d92bd-c2c3-4f0f-99a5-f23b2a156bcf","ios":"levelo://app?vid=e24d92bd-c2c3-4f0f-99a5-f23b2a156bcf"},"vehicle_type_id":"4","last_reported":1750331399,"current_range_meters":18800,"station_id":"ce4bhg92rcd13ifvqf90","pricing_plan_id":"cebpf4jnsgd1na2vs0mg"},{"bike_id":"784efc61-b1c0-4015-bd86-20f443ceb29d","system_id":"levelo_inurba_marseille","lat":43.2396,"lon":5.36641,"is_reserved":false,"is_disabled":false,"rental_uris":{"android":"levelo://app?vid=784efc61-b1c0-4015-bd86-20f443ceb29d","ios":"levelo://app?vid=784efc61-b1c0-4015-bd86-20f443ceb29d"},"vehicle_type_id":"4","last_reported":1750331399,"current_range_meters":18800,"station_id":"ce4bhi12rcd13ifvqfp0","pricing_plan_id":"cebpf4jnsgd1na2vs0mg"},{"bike_id":"53f86949-cae5-49ad-a73d-e164ce331e00","system_id":"levelo_inurba_marseille","lat":43.24172,"lon":5.39723,"is_reserved":false,"is_disabled":false,"rental_uris":{"android":"levelo://app?vid=53f86949-cae5-49ad-a73d-e164ce331e00","ios":"levelo://app?vid=53f86949-cae5-49ad-a73d-e164ce331e00"},"vehicle_type_id":"4","last_reported":1750331399,"current_range_meters":18800,"station_id":"ce4bhn12rcd13ifvqgpg","pricing_plan_id":"cebpf4jnsgd1na2vs0mg"},{"bike_id":"31f6d084-72d6-41de-a3a5-90e3a136f00c","system_id":"levelo_inurba_marseille","lat":43.28082,"lon":5.39656,"is_reserved":false,"is_disabled":false,"rental_uris":{"android":"levelo://app?vid=31f6d084-72d6-41de-a3a5-90e3a136f00c","ios":"levelo://app?vid=31f6d084-72d6-41de-a3a5-90e3a136f00c"},"vehicle_type_id":"4","last_reported":1750331399,"current_range_meters":18800,"station_id":"ce4bho12rcd13ifvqh2g","pricing_plan_id":"cebpf4jnsgd1na2vs0mg"},{"bike_id":"57d95feb-ea27-44cc-8b43-284ccd725a68","system_id":"levelo_inurba_marseille","lat":43.29896,"lon":5.43669,"is_reserved":false,"is_disabled":false,"rental_uris":{"android":"levelo://app?vid=57d95feb-ea27-44cc-8b43-284ccd725a68","ios":"levelo://app?vid=57d95feb-ea27-44cc-8b43-284ccd725a68"},"vehicle_type_id":"4","last_reported":1750331399,"current_range_meters":18800,"station_id":"ce4bhpp2rcd13ifvqhfg","pricing_plan_id":"cebpf4jnsgd1na2vs0mg"},{"bike_id":"02446148-c9f7-4f78-b18f-149730da9a75","system_id":"levelo_inurba_marseille","lat":43.23203,"lon":5.35543,"is_reserved":false,"is_disabled":false,"rental_uris":{"android":"levelo://app?vid=02446148-c9f7-4f78-b18f-149730da9a75","ios":"levelo://app?vid=02446148-c9f7-4f78-b18f-149730da9a75"},"vehicle_type_id":"4","last_reported":1750331399,"current_range_meters":18800,"station_id":"ce4bhu92rcd13ifvqi70","pricing_plan_id":"cebpf4jnsgd1na2vs0mg"},{"bike_id":"3e762b50-e38f-4f88-82bf-4d4bf58fa761","system_id":"levelo_inurba_marseille","lat":43.22931,"lon":5.35374,"is_reserved":false,"is_disabled":false,"rental_uris":{"android":"levelo://app?vid=3e762b50-e38f-4f88-82bf-4d4bf58fa761","ios":"levelo://app?vid=3e762b50-e38f-4f88-82bf-4d4bf58fa761"},"vehicle_type_id":"4","last_reported":1750331399,"current_range_meters":18800,"station_id":"cpo3532slgdg3j2ikp40","pricing_plan_id":"cebpf4jnsgd1na2vs0mg"},{"bike_id":"ef12fda5-15d2-4884-9aaa-c1d43ec30fd5","system_id":"levelo_inurba_marseille","lat":43.30739,"lon":5.42446,"is_reserved":false,"is_disabled":false,"rental_uris":{"android":"levelo://app?vid=ef12fda5-15d2-4884-9aaa-c1d43ec30fd5","ios":"levelo://app?vid=ef12fda5-15d2-4884-9aaa-c1d43ec30fd5"},"vehicle_type_id":"4","last_reported":1750331399,"current_range_meters":18800,"station_id":"st_cvj6ca6bvosntc0bfgr0","pricing_plan_id":"cebpf4jnsgd1na2vs0mg"},{"bike_id":"f138f97c-9184-4423-8851-43001f2097b7","system_id":"levelo_inurba_marseille","lat":43.21215,"lon":5.35095,"is_reserved":false,"is_disabled":false,"rental_uris":{"android":"levelo://app?vid=f138f97c-9184-4423-8851-43001f2097b7","ios":"levelo://app?vid=f138f97c-9184-4423-8851-43001f2097b7"},"vehicle_type_id":"4","last_reported":1750331399,"current_range_meters":18800,"station_id":"st_cvj6sg6p6f1abm77japg","pricing_plan_id":"cebpf4jnsgd1na2vs0mg"},{"bike_id":"2f37316d-c38a-4761-a630-9f08c38452d3","system_id":"levelo_inurba_marseille","lat":43.30428,"lon":5.38875,"is_reserved":false,"is_disabled":false,"rental_uris":{"android":"levelo://app?vid=2f37316d-c38a-4761-a630-9f08c38452d3","ios":"levelo://app?vid=2f37316d-c38a-4761-a630-9f08c38452d3"},"vehicle_type_id":"4","last_reported":1750331399,"current_range_meters":19200,"station_id":"ce4bgk12rcd13ifvqbi0","pricing_plan_id":"cebpf4jnsgd1na2vs0mg"},{"bike_id":"5d4b6cdc-1901-462f-88f6-bb84a0f936c1","system_id":"levelo_inurba_marseille","lat":43.30465,"lon":5.37908,"is_reserved":false,"is_disabled":false,"rental_uris":{"android":"levelo://app?vid=5d4b6cdc-1901-462f-88f6-bb84a0f936c1","ios":"levelo://app?vid=5d4b6cdc-1901-462f-88f6-bb84a0f936c1"},"vehicle_type_id":"4","last_reported":1750331399,"current_range_meters":19200,"station_id":"ce4bgup2rcd13ifvqcn0","pricing_plan_id":"cebpf4jnsgd1na2vs0mg"},{"bike_id":"54a5e786-0e1c-4479-a29e-f59e48818bbd","system_id":"levelo_inurba_marseille","lat":43.28619,"lon":5.35121,"is_reserved":false,"is_disabled":false,"rental_uris":{"android":"levelo://app?vid=54a5e786-0e1c-4479-a29e-f59e48818bbd","ios":"levelo://app?vid=54a5e786-0e1c-4479-a29e-f59e48818bbd"},"vehicle_type_id":"4","last_reported":1750331399,"current_range_meters":19200,"station_id":"ce4bhch2rcd13ifvqeug","pricing_plan_id":"cebpf4jnsgd1na2vs0mg"},{"bike_id":"d675883e-7ed0-4fb3-ac16-69247ce4a955","system_id":"levelo_inurba_marseille","lat":43.27971,"lon":5.3899,"is_reserved":false,"is_disabled":false,"rental_uris":{"android":"levelo://app?vid=d675883e-7ed0-4fb3-ac16-69247ce4a955","ios":"levelo://app?vid=d675883e-7ed0-4fb3-ac16-69247ce4a955"},"vehicle_type_id":"4","last_reported":1750331399,"current_range_meters":19600,"station_id":"","pricing_plan_id":"cebpf4jnsgd1na2vs0mg"},{"bike_id":"f5035d12-6f6d-499b-8c76-01bbb6677f60","system_id":"levelo_inurba_marseille","lat":43.31298,"lon":5.37508,"is_reserved":false,"is_disabled":false,"rental_uris":{"android":"levelo://app?vid=f5035d12-6f6d-499b-8c76-01bbb6677f60","ios":"levelo://app?vid=f5035d12-6f6d-499b-8c76-01bbb6677f60"},"vehicle_type_id":"4","last_reported":1750331399,"current_range_meters":19600,"station_id":"","pricing_plan_id":"cebpf4jnsgd1na2vs0mg"},{"bike_id":"7fb8f777-502e-4027-8e9f-d463bb7373be","system_id":"levelo_inurba_marseille","lat":43.29656,"lon":5.3802,"is_reserved":false,"is_disabled":false,"rental_uris":{"android":"levelo://app?vid=7fb8f777-502e-4027-8e9f-d463bb7373be","ios":"levelo://app?vid=7fb8f777-502e-4027-8e9f-d463bb7373be"},"vehicle_type_id":"4","last_reported":1750331399,"current_range_meters":19600,"station_id":"","pricing_plan_id":"cebpf4jnsgd1na2vs0mg"},{"bike_id":"c50e3fb8-4437-47b4-b7a1-859fade6410f","system_id":"levelo_inurba_marseille","lat":43.29883,"lon":5.38924,"is_reserved":false,"is_disabled":false,"rental_uris":{"android":"levelo://app?vid=c50e3fb8-4437-47b4-b7a1-859fade6410f","ios":"levelo://app?vid=c50e3fb8-4437-47b4-b7a1-859fade6410f"},"vehicle_type_id":"4","last_reported":1750331399,"current_range_meters":19600,"station_id":"ce4bh392rcd13ifvqdl0","pricing_plan_id":"cebpf4jnsgd1na2vs0mg"},{"bike_id":"32c8c1a1-a0e7-4a63-a191-fe37a5f45194","system_id":"levelo_inurba_marseille","lat":43.21204,"lon":5.35095,"is_reserved":false,"is_disabled":false,"rental_uris":{"android":"levelo://app?vid=32c8c1a1-a0e7-4a63-a191-fe37a5f45194","ios":"levelo://app?vid=32c8c1a1-a0e7-4a63-a191-fe37a5f45194"},"vehicle_type_id":"4","last_reported":1750331399,"current_range_meters":19600,"station_id":"st_cvj6sg6p6f1abm77japg","pricing_plan_id":"cebpf4jnsgd1na2vs0mg"},{"bike_id":"7c56d261-e631-4fe5-b951-fe7a0fcdbd69","system_id":"levelo_inurba_marseille","lat":43.297863,"lon":5.381097,"is_reserved":false,"is_disabled":false,"rental_uris":{"android":"levelo://app?vid=7c56d261-e631-4fe5-b951-fe7a0fcdbd69","ios":"levelo://app?vid=7c56d261-e631-4fe5-b951-fe7a0fcdbd69"},"vehicle_type_id":"4","last_reported":1750331399,"current_range_meters":20000,"station_id":"ce4bgip2rcd13ifvqbb0","pricing_plan_id":"cebpf4jnsgd1na2vs0mg"},{"bike_id":"4c5a8502-5c1e-4c65-8a69-b14fc844d3d3","system_id":"levelo_inurba_marseille","lat":43.30479,"lon":5.37905,"is_reserved":false,"is_disabled":false,"rental_uris":{"android":"levelo://app?vid=4c5a8502-5c1e-4c65-8a69-b14fc844d3d3","ios":"levelo://app?vid=4c5a8502-5c1e-4c65-8a69-b14fc844d3d3"},"vehicle_type_id":"4","last_reported":1750331399,"current_range_meters":20000,"station_id":"ce4bgup2rcd13ifvqcn0","pricing_plan_id":"cebpf4jnsgd1na2vs0mg"},{"bike_id":"1e3bfc19-cd6b-4741-aa1b-0c149c244032","system_id":"levelo_inurba_marseille","lat":43.29032,"lon":5.38648,"is_reserved":false,"is_disabled":false,"rental_uris":{"android":"levelo://app?vid=1e3bfc19-cd6b-4741-aa1b-0c149c244032","ios":"levelo://app?vid=1e3bfc19-cd6b-4741-aa1b-0c149c244032"},"vehicle_type_id":"4","last_reported":1750331399,"current_range_meters":20000,"station_id":"ce4bh4p2rcd13ifvqe0g","pricing_plan_id":"cebpf4jnsgd1na2vs0mg"},{"bike_id":"b3a037ee-166c-4d21-9cef-5ca194433a06","system_id":"levelo_inurba_marseille","lat":43.29194,"lon":5.35812,"is_reserved":false,"is_disabled":false,"rental_uris":{"android":"levelo://app?vid=b3a037ee-166c-4d21-9cef-5ca194433a06","ios":"levelo://app?vid=b3a037ee-166c-4d21-9cef-5ca194433a06"},"vehicle_type_id":"4","last_reported":1750331399,"current_range_meters":20000,"station_id":"ce4bhb12rcd13ifvqel0","pricing_plan_id":"cebpf4jnsgd1na2vs0mg"},{"bike_id":"1753d808-87dc-4932-afe4-5e6362f956eb","system_id":"levelo_inurba_marseille","lat":43.32343,"lon":5.40619,"is_reserved":false,"is_disabled":false,"rental_uris":{"android":"levelo://app?vid=1753d808-87dc-4932-afe4-5e6362f956eb","ios":"levelo://app?vid=1753d808-87dc-4932-afe4-5e6362f956eb"},"vehicle_type_id":"4","last_reported":1750331399,"current_range_meters":20000,"station_id":"ce4bhq92rcd13ifvqhjg","pricing_plan_id":"cebpf4jnsgd1na2vs0mg"},{"bike_id":"8c635563-f4d9-4b18-914e-c47b58c864a9","system_id":"levelo_inurba_marseille","lat":43.21753,"lon":5.346,"is_reserved":false,"is_disabled":false,"rental_uris":{"android":"levelo://app?vid=8c635563-f4d9-4b18-914e-c47b58c864a9","ios":"levelo://app?vid=8c635563-f4d9-4b18-914e-c47b58c864a9"},"vehicle_type_id":"4","last_reported":1750331399,"current_range_meters":20400,"station_id":"","pricing_plan_id":"cebpf4jnsgd1na2vs0mg"},{"bike_id":"7dfe7d89-a1c2-4de5-a01f-61a016698438","system_id":"levelo_inurba_marseille","lat":43.303206,"lon":5.368983,"is_reserved":false,"is_disabled":false,"rental_uris":{"android":"levelo://app?vid=7dfe7d89-a1c2-4de5-a01f-61a016698438","ios":"levelo://app?vid=7dfe7d89-a1c2-4de5-a01f-61a016698438"},"vehicle_type_id":"4","last_reported":1750331399,"current_range_meters":20400,"station_id":"ce4bgqh2rcd13ifvqc5g","pricing_plan_id":"cebpf4jnsgd1na2vs0mg"},{"bike_id":"56b3f433-ebee-482a-9fb4-08d9cc5ee984","system_id":"levelo_inurba_marseille","lat":43.26568,"lon":5.39014,"is_reserved":false,"is_disabled":false,"rental_uris":{"android":"levelo://app?vid=56b3f433-ebee-482a-9fb4-08d9cc5ee984","ios":"levelo://app?vid=56b3f433-ebee-482a-9fb4-08d9cc5ee984"},"vehicle_type_id":"4","last_reported":1750331399,"current_range_meters":20400,"station_id":"ce4bhe12rcd13ifvqf30","pricing_plan_id":"cebpf4jnsgd1na2vs0mg"},{"bike_id":"131d2af3-c1c4-4b24-ae6b-476d5327b19a","system_id":"levelo_inurba_marseille","lat":43.2594,"lon":5.4092,"is_reserved":false,"is_disabled":false,"rental_uris":{"android":"levelo://app?vid=131d2af3-c1c4-4b24-ae6b-476d5327b19a","ios":"levelo://app?vid=131d2af3-c1c4-4b24-ae6b-476d5327b19a"},"vehicle_type_id":"4","last_reported":1750331399,"current_range_meters":20400,"station_id":"ce4bhm92rcd13ifvqglg","pricing_plan_id":"cebpf4jnsgd1na2vs0mg"},{"bike_id":"af1bb933-105c-42d9-9384-631c95f84099","system_id":"levelo_inurba_marseille","lat":43.25926,"lon":5.40889,"is_reserved":false,"is_disabled":false,"rental_uris":{"android":"levelo://app?vid=af1bb933-105c-42d9-9384-631c95f84099","ios":"levelo://app?vid=af1bb933-105c-42d9-9384-631c95f84099"},"vehicle_type_id":"4","last_reported":1750331399,"current_range_meters":20400,"station_id":"ce4bhm92rcd13ifvqglg","pricing_plan_id":"cebpf4jnsgd1na2vs0mg"},{"bike_id":"9f730dfd-4059-4555-ac0e-5d347166a5ed","system_id":"levelo_inurba_marseille","lat":43.24196,"lon":5.39737,"is_reserved":false,"is_disabled":false,"rental_uris":{"android":"levelo://app?vid=9f730dfd-4059-4555-ac0e-5d347166a5ed","ios":"levelo://app?vid=9f730dfd-4059-4555-ac0e-5d347166a5ed"},"vehicle_type_id":"4","last_reported":1750331399,"current_range_meters":20400,"station_id":"ce4bhn12rcd13ifvqgpg","pricing_plan_id":"cebpf4jnsgd1na2vs0mg"},{"bike_id":"3c1a6467-64bb-4683-9b7e-8bb7fc4f8abe","system_id":"levelo_inurba_marseille","lat":43.29369,"lon":5.37869,"is_reserved":false,"is_disabled":false,"rental_uris":{"android":"levelo://app?vid=3c1a6467-64bb-4683-9b7e-8bb7fc4f8abe","ios":"levelo://app?vid=3c1a6467-64bb-4683-9b7e-8bb7fc4f8abe"},"vehicle_type_id":"4","last_reported":1750331399,"current_range_meters":20800,"station_id":"ce4bgjh2rcd13ifvqbf0","pricing_plan_id":"cebpf4jnsgd1na2vs0mg"},{"bike_id":"9507115e-080a-4c47-ad61-be6c84b487aa","system_id":"levelo_inurba_marseille","lat":43.31352,"lon":5.38488,"is_reserved":false,"is_disabled":false,"rental_uris":{"android":"levelo://app?vid=9507115e-080a-4c47-ad61-be6c84b487aa","ios":"levelo://app?vid=9507115e-080a-4c47-ad61-be6c84b487aa"},"vehicle_type_id":"4","last_reported":1750331399,"current_range_meters":20800,"station_id":"ce4bgt92rcd13ifvqcf0","pricing_plan_id":"cebpf4jnsgd1na2vs0mg"},{"bike_id":"e78bd2d9-fac6-483a-9fc7-3adc7012f8ef","system_id":"levelo_inurba_marseille","lat":43.311737,"lon":5.387186,"is_reserved":false,"is_disabled":false,"rental_uris":{"android":"levelo://app?vid=e78bd2d9-fac6-483a-9fc7-3adc7012f8ef","ios":"levelo://app?vid=e78bd2d9-fac6-483a-9fc7-3adc7012f8ef"},"vehicle_type_id":"4","last_reported":1750331399,"current_range_meters":20800,"station_id":"ce4bgv12rcd13ifvqcp0","pricing_plan_id":"cebpf4jnsgd1na2vs0mg"},{"bike_id":"31fb64ce-2539-4bc7-a135-8d22ff2b762b","system_id":"levelo_inurba_marseille","lat":43.29021,"lon":5.38642,"is_reserved":false,"is_disabled":false,"rental_uris":{"android":"levelo://app?vid=31fb64ce-2539-4bc7-a135-8d22ff2b762b","ios":"levelo://app?vid=31fb64ce-2539-4bc7-a135-8d22ff2b762b"},"vehicle_type_id":"4","last_reported":1750331399,"current_range_meters":20800,"station_id":"ce4bh4p2rcd13ifvqe0g","pricing_plan_id":"cebpf4jnsgd1na2vs0mg"},{"bike_id":"37714d40-74d1-4ffd-a97c-7fb0e1cea737","system_id":"levelo_inurba_marseille","lat":43.28081,"lon":5.39662,"is_reserved":false,"is_disabled":false,"rental_uris":{"android":"levelo://app?vid=37714d40-74d1-4ffd-a97c-7fb0e1cea737","ios":"levelo://app?vid=37714d40-74d1-4ffd-a97c-7fb0e1cea737"},"vehicle_type_id":"4","last_reported":1750331399,"current_range_meters":20800,"station_id":"ce4bho12rcd13ifvqh2g","pricing_plan_id":"cebpf4jnsgd1na2vs0mg"},{"bike_id":"dc540ba2-fb63-45eb-b83a-1826fb3d30b7","system_id":"levelo_inurba_marseille","lat":43.246115,"lon":5.392721,"is_reserved":false,"is_disabled":false,"rental_uris":{"android":"levelo://app?vid=dc540ba2-fb63-45eb-b83a-1826fb3d30b7","ios":"levelo://app?vid=dc540ba2-fb63-45eb-b83a-1826fb3d30b7"},"vehicle_type_id":"4","last_reported":1750331399,"current_range_meters":21600,"station_id":"","pricing_plan_id":"cebpf4jnsgd1na2vs0mg"},{"bike_id":"45bbf0a9-fb71-4554-b265-a4213254df71","system_id":"levelo_inurba_marseille","lat":43.291958,"lon":5.357966,"is_reserved":false,"is_disabled":false,"rental_uris":{"android":"levelo://app?vid=45bbf0a9-fb71-4554-b265-a4213254df71","ios":"levelo://app?vid=45bbf0a9-fb71-4554-b265-a4213254df71"},"vehicle_type_id":"4","last_reported":1750331399,"current_range_meters":21600,"station_id":"","pricing_plan_id":"cebpf4jnsgd1na2vs0mg"},{"bike_id":"3a85e3ec-a262-4f94-afb6-98de5e632949","system_id":"levelo_inurba_marseille","lat":43.293304,"lon":5.370808,"is_reserved":false,"is_disabled":false,"rental_uris":{"android":"levelo://app?vid=3a85e3ec-a262-4f94-afb6-98de5e632949","ios":"levelo://app?vid=3a85e3ec-a262-4f94-afb6-98de5e632949"},"vehicle_type_id":"4","last_reported":1750331399,"current_range_meters":21600,"station_id":"","pricing_plan_id":"cebpf4jnsgd1na2vs0mg"},{"bike_id":"06759dbb-e478-4db7-aa33-ca11fd61a3d5","system_id":"levelo_inurba_marseille","lat":43.28662,"lon":5.36344,"is_reserved":false,"is_disabled":false,"rental_uris":{"android":"levelo://app?vid=06759dbb-e478-4db7-aa33-ca11fd61a3d5","ios":"levelo://app?vid=06759dbb-e478-4db7-aa33-ca11fd61a3d5"},"vehicle_type_id":"4","last_reported":1750331399,"current_range_meters":21600,"station_id":"ce4bhah2rcd13ifvqej0","pricing_plan_id":"cebpf4jnsgd1na2vs0mg"},