{"last_updated":1716221372,"ttl":30,"version":"2.2","data":{"bikes":[{"bike_id":"2d57e607-a37c-4491-89fd-f3e94c7f240e","system_id":"levelo_inurba_marseille","lat":43.313391,"lon":5.36706,"is_reserved":false,"is_disabled":false,"rental_uris":{"android":"levelo://app?vid=2d57e607-a37c-4491-89fd-f3e94c7f240e","ios":"levelo://app?vid=2d57e607-a37c-4491-89fd-f3e94c7f240e"},"vehicle_type_id":"4","last_reported":1716221372,"current_range_meters":24800,"station_id":"ce4bgr92rcd13ifvqc6g","pricing_plan_id":"cebpf4jnsgd1na2vs0mg"},{"bike_id":"c12d325b-6678-4f0f-b4fe-7dc561708753","system_id":"levelo_inurba_marseille","lat":43.313656,"lon":5.367196,"is_reserved":false,"is_disabled":false,"rental_uris":{"android":"levelo://app?vid=c12d325b-6678-4f0f-b4fe-7dc561708753","ios":"levelo://app?vid=c12d325b-6678-4f0f-b4fe-7dc561708753"},"vehicle_type_id":"4","last_reported":1716221372,"current_range_meters":24000,"station_id":"ce4bgr92rcd13ifvqc6g","pricing_plan_id":"cebpf4jnsgd1na2vs0mg"},{"bike_id":"18552454-419e-4bbb-9926-57caf044279b","system_id":"levelo_inurba_marseille","lat":43.31208,"lon":5.36817,"is_reserved":false,"is_disabled":false,"rental_uris":{"android":"levelo://app?vid=18552454-419e-4bbb-9926-57caf044279b","ios":"levelo://app?vid=18552454-419e-4bbb-9926-57caf044279b"},"vehicle_type_id":"4","last_reported":1716221372,"current_range_meters":29200,"station_id":"ce4bgl92rcd13ifvqbq0","pricing_plan_id":"cebpf4jnsgd1na2vs0mg"},{"bike_id":"991d8aee-289f-4851-8da8-3b61bf47773c","system_id":"levelo_inurba_marseille","lat":43.312239,"lon":5.368562,"is_reserved":false,"is_disabled":false,"rental_uris":{"android":"levelo://app?vid=991d8aee-289f-4851-8da8-3b61bf47773c","ios":"levelo://app?vid=991d8aee-289f-4851-8da8-3b61bf47773c"},"vehicle_type_id":"4","last_reported":1716221372,"current_range_meters":21600,"station_id":"ce4bgl92rcd13ifvqbq0","pricing_plan_id":"cebpf4jnsgd1na2vs0mg"},{"bike_id":"87650e63-b86f-4aef-92db-730a9ac4259c","system_id":"levelo_inurba_marseille","lat":43.311954,"lon":5.368325,"is_reserved":false,"is_disabled":false,"rental_uris":{"android":"levelo://app?vid=87650e63-b86f-4aef-92db-730a9ac4259c","ios":"levelo://app?vid=87650e63-b86f-4aef-92db-730a9ac4259c"},"vehicle_type_id":"4","last_reported":1716221372,"current_range_meters":27600,"station_id":"ce4bgl92rcd13ifvqbq0","pricing_plan_id":"cebpf4jnsgd1na2vs0mg"},{"bike_id":"5508cda6-dc08-4c9c-8ef4-4f62311c4fb0","system_id":"levelo_inurba_marseille","lat":43.312239,"lon":5.368562,"is_reserved":false,"is_disabled":false,"rental_uris":{"android":"levelo://app?vid=5508cda6-dc08-4c9c-8ef4-4f62311c4fb0","ios":"levelo://app?vid=5508cda6-dc08-4c9c-8ef4-4f62311c4fb0"},"vehicle_type_id":"4","last_reported":1716221372,"current_range_meters":16800,"station_id":"ce4bgl92rcd13ifvqbq0","pricing_plan_id":"cebpf4jnsgd1na2vs0mg"},{"bike_id":"8c205976-5187-4b05-930f-0723301ff8a3","system_id":"levelo_inurba_marseille","lat":43.309076,"lon":5.368465,"is_reserved":false,"is_disabled":false,"rental_uris":{"android":"levelo://app?vid=8c205976-5187-4b05-930f-0723301ff8a3","ios":"levelo://app?vid=8c205976-5187-4b05-930f-0723301ff8a3"},"vehicle_type_id":"4","last_reported":1716221372,"current_range_meters":22400,"station_id":"ce4bgn92rcd13ifvqbvg","pricing_plan_id":"cebpf4jnsgd1na2vs0mg"},{"bike_id":"444e22b0-d7cb-45d2-8845-f93d0a0ae239","system_id":"levelo_inurba_marseille","lat":43.309076,"lon":5.368465,"is_reserved":false,"is_disabled":false,"rental_uris":{"android":"levelo://app?vid=444e22b0-d7cb-45d2-8845-f93d0a0ae239","ios":"levelo://app?vid=444e22b0-d7cb-45d2-8845-f93d0a0ae239"},"vehicle_type_id":"4","last_reported":1716221372,"current_range_meters":28800,"station_id":"ce4bgn92rcd13ifvqbvg","pricing_plan_id":"cebpf4jnsgd1na2vs0mg"},{"bike_id":"d708bf73-474b-4e0f-8818-399d8592c219","system_id":"levelo_inurba_marseille","lat":43.309299,"lon":5.370864,"is_reserved":false,"is_disabled":false,"rental_uris":{"android":"levelo://app?vid=d708bf73-474b-4e0f-8818-399d8592c219","ios":"levelo://app?vid=d708bf73-474b-4e0f-8818-399d8592c219"},"vehicle_type_id":"4","last_reported":1716221372,"current_range_meters":6000,"station_id":"","pricing_plan_id":"cebpf4jnsgd1na2vs0mg"},{"bike_id":"5b098cd5-0830-4cbd-8e04-db0e814f8651","system_id":"levelo_inurba_marseille","lat":43.314811,"lon":5.373103,"is_reserved":false,"is_disabled":false,"rental_uris":{"android":"levelo://app?vid=5b098cd5-0830-4cbd-8e04-db0e814f8651","ios":"levelo://app?vid=5b098cd5-0830-4cbd-8e04-db0e814f8651"},"vehicle_type_id":"4","last_reported":1716221372,"current_range_meters":22000,"station_id":"ce4bgt12rcd13ifvqcd0","pricing_plan_id":"cebpf4jnsgd1na2vs0mg"},{"bike_id":"a54ee497-a5b1-4935-ba6a-fa9e48448e48","system_id":"levelo_inurba_marseille","lat":43.30895,"lon":5.37195,"is_reserved":false,"is_disabled":false,"rental_uris":{"android":"levelo://app?vid=a54ee497-a5b1-4935-ba6a-fa9e48448e48","ios":"levelo://app?vid=a54ee497-a5b1-4935-ba6a-fa9e48448e48"},"vehicle_type_id":"4","last_reported":1716221372,"current_range_meters":24400,"station_id":"ce4bguh2rcd13ifvqckg","pricing_plan_id":"cebpf4jnsgd1na2vs0mg"},{"bike_id":"b336dcb5-8b43-40b1-961f-56d879b2d4eb","system_id":"levelo_inurba_marseille","lat":43.309039,"lon":5.371797,"is_reserved":false,"is_disabled":false,"rental_uris":{"android":"levelo://app?vid=b336dcb5-8b43-40b1-961f-56d879b2d4eb","ios":"levelo://app?vid=b336dcb5-8b43-40b1-961f-56d879b2d4eb"},"vehicle_type_id":"4","last_reported":1716221372,"current_range_meters":17600,"station_id":"ce4bguh2rcd13ifvqckg","pricing_plan_id":"cebpf4jnsgd1na2vs0mg"},{"bike_id":"e4632e7a-2deb-48a7-808d-6c5307f12802","system_id":"levelo_inurba_marseille","lat":43.31672,"lon":5.3722,"is_reserved":false,"is_disabled":false,"rental_uris":{"android":"levelo://app?vid=e4632e7a-2deb-48a7-808d-6c5307f12802","ios":"levelo://app?vid=e4632e7a-2deb-48a7-808d-6c5307f12802"},"vehicle_type_id":"4","last_reported":1716221372,"current_range_meters":18000,"station_id":"","pricing_plan_id":"cebpf4jnsgd1na2vs0mg"},{"bike_id":"165226c7-0877-4d63-bf11-a491c56fbd33","system_id":"levelo_inurba_marseille","lat":43.305394,"lon":5.367006,"is_reserved":false,"is_disabled":false,"rental_uris":{"android":"levelo://app?vid=165226c7-0877-4d63-bf11-a491c56fbd33","ios":"levelo://app?vid=165226c7-0877-4d63-bf11-a491c56fbd33"},"vehicle_type_id":"4","last_reported":1716221372,"current_range_meters":2000,"station_id":"ce4bgrp2rcd13ifvqc9g","pricing_plan_id":"cebpf4jnsgd1na2vs0mg"},{"bike_id":"0879f40c-fe34-4ed1-965a-8a3ec2431f1e","system_id":"levelo_inurba_marseille","lat":43.305714,"lon":5.365633,"is_reserved":false,"is_disabled":false,"rental_uris":{"android":"levelo://app?vid=0879f40c-fe34-4ed1-965a-8a3ec2431f1e","ios":"levelo://app?vid=0879f40c-fe34-4ed1-965a-8a3ec2431f1e"},"vehicle_type_id":"4","last_reported":1716221372,"current_range_meters":6400,"station_id":"ce4bgs12rcd13ifvqcag","pricing_plan_id":"cebpf4jnsgd1na2vs0mg"},{"bike_id":"af5d492c-cce6-44f7-922e-e54d42fa3fa8","system_id":"levelo_inurba_marseille","lat":43.311131,"lon":5.377651,"is_reserved":false,"is_disabled":false,"rental_uris":{"android":"levelo://app?vid=af5d492c-cce6-44f7-922e-e54d42fa3fa8","ios":"levelo://app?vid=af5d492c-cce6-44f7-922e-e54d42fa3fa8"},"vehicle_type_id":"4","last_reported":1716221372,"current_range_meters":25200,"station_id":"ce4bgt92rcd13ifvqcg0","pricing_plan_id":"cebpf4jnsgd1na2vs0mg"},{"bike_id":"54442297-074e-4ae3-b143-42569f39a541","system_id":"levelo_inurba_marseille","lat":43.307945,"lon":5.376487,"is_reserved":false,"is_disabled":false,"rental_uris":{"android":"levelo://app?vid=54442297-074e-4ae3-b143-42569f39a541","ios":"levelo://app?vid=54442297-074e-4ae3-b143-42569f39a541"},"vehicle_type_id":"4","last_reported":1716221372,"current_range_meters":27600,"station_id":"ce4bgv92rcd13ifvqcq0","pricing_plan_id":"cebpf4jnsgd1na2vs0mg"},{"bike_id":"fdc4b2cd-7154-4010-a539-7cbb8594da17","system_id":"levelo_inurba_marseille","lat":43.307945,"lon":5.376487,"is_reserved":false,"is_disabled":false,"rental_uris":{"android":"levelo://app?vid=fdc4b2cd-7154-4010-a539-7cbb8594da17","ios":"levelo://app?vid=fdc4b2cd-7154-4010-a539-7cbb8594da17"},"vehicle_type_id":"4","last_reported":1716221372,"current_range_meters":12800,"station_id":"ce4bgv92rcd13ifvqcq0","pricing_plan_id":"cebpf4jnsgd1na2vs0mg"},{"bike_id":"a22d6a61-05b9-48e1-97fc-86632a26298d","system_id":"levelo_inurba_marseille","lat":43.307945,"lon":5.376487,"is_reserved":false,"is_disabled":false,"rental_uris":{"android":"levelo://app?vid=a22d6a61-05b9-48e1-97fc-86632a26298d","ios":"levelo://app?vid=a22d6a61-05b9-48e1-97fc-86632a26298d"},"vehicle_type_id":"4","last_reported":1716221372,"current_range_meters":12000,"station_id":"ce4bgv92rcd13ifvqcq0","pricing_plan_id":"cebpf4jnsgd1na2vs0mg"},{"bike_id":"9082132e-68f3-48d6-9710-d27efe51fd53","system_id":"levelo_inurba_marseille","lat":43.307945,"lon":5.376487,"is_reserved":false,"is_disabled":false,"rental_uris":{"android":"levelo://app?vid=9082132e-68f3-48d6-9710-d27efe51fd53","ios":"levelo://app?vid=9082132e-68f3-48d6-9710-d27efe51fd53"},"vehicle_type_id":"4","last_reported":1716221372,"current_range_meters":4400,"station_id":"ce4bgv92rcd13ifvqcq0","pricing_plan_id":"cebpf4jnsgd1na2vs0mg"},{"bike_id":"77f7d561-427e-4aab-baab-669a79cc52af","system_id":"levelo_inurba_marseille","lat":43.3032,"lon":5.36484,"is_reserved":false,"is_disabled":false,"rental_uris":{"android":"levelo://app?vid=77f7d561-427e-4aab-baab-669a79cc52af","ios":"levelo://app?vid=77f7d561-427e-4aab-baab-669a79cc52af"},"vehicle_type_id":"4","last_reported":1716221372,"current_range_meters":18000,"station_id":"","pricing_plan_id":"cebpf4jnsgd1na2vs0mg"},{"bike_id":"ec02548b-4d7f-4096-a293-b3c01b6a373e","system_id":"levelo_inurba_marseille","lat":43.30304,"lon":5.368987,"is_reserved":false,"is_disabled":false,"rental_uris":{"android":"levelo://app?vid=ec02548b-4d7f-4096-a293-b3c01b6a373e","ios":"levelo://app?vid=ec02548b-4d7f-4096-a293-b3c01b6a373e"},"vehicle_type_id":"4","last_reported":1716221372,"current_range_meters":24400,"station_id":"ce4bgqh2rcd13ifvqc5g","pricing_plan_id":"cebpf4jnsgd1na2vs0mg"},{"bike_id":"79f6ce24-1393-4167-b356-96aaa14637d9","system_id":"levelo_inurba_marseille","lat":43.316373,"lon":5.37989,"is_reserved":false,"is_disabled":false,"rental_uris":{"android":"levelo://app?vid=79f6ce24-1393-4167-b356-96aaa14637d9","ios":"levelo://app?vid=79f6ce24-1393-4167-b356-96aaa14637d9"},"vehicle_type_id":"4","last_reported":1716221372,"current_range_meters":14800,"station_id":"","pricing_plan_id":"cebpf4jnsgd1na2vs0mg"},{"bike_id":"8c94bea3-3df5-46a6-8cdb-b9cb42ee6e71","system_id":"levelo_inurba_marseille","lat":43.301939,"lon":5.366286,"is_reserved":false,"is_disabled":false,"rental_uris":{"android":"levelo://app?vid=8c94bea3-3df5-46a6-8cdb-b9cb42ee6e71","ios":"levelo://app?vid=8c94bea3-3df5-46a6-8cdb-b9cb42ee6e71"},"vehicle_type_id":"4","last_reported":1716221372,"current_range_meters":16000,"station_id":"ce4bgrh2rcd13ifvqc8g","pricing_plan_id":"cebpf4jnsgd1na2vs0mg"},{"bike_id":"b1a07079-6e5a-4377-8c31-4703cfe80949","system_id":"levelo_inurba_marseille","lat":43.301939,"lon":5.366286,"is_reserved":false,"is_disabled":false,"rental_uris":{"android":"levelo://app?vid=b1a07079-6e5a-4377-8c31-4703cfe80949","ios":"levelo://app?vid=b1a07079-6e5a-4377-8c31-4703cfe80949"},"vehicle_type_id":"4","last_reported":1716221372,"current_range_meters":24000,"station_id":"ce4bgrh2rcd13ifvqc8g","pricing_plan_id":"cebpf4jnsgd1na2vs0mg"},{"bike_id":"bb366a70-38da-4043-8fdf-f08fdcae3cac","system_id":"levelo_inurba_marseille","lat":43.301939,"lon":5.366286,"is_reserved":false,"is_disabled":false,"rental_uris":{"android":"levelo://app?vid=bb366a70-38da-4043-8fdf-f08fdcae3cac","ios":"levelo://app?vid=bb366a70-38da-4043-8fdf-f08fdcae3cac"},"vehicle_type_id":"4","last_reported":1716221372,"current_range_meters":4800,"station_id":"ce4bgrh2rcd13ifvqc8g","pricing_plan_id":"cebpf4jnsgd1na2vs0mg"},{"bike_id":"18d56d5c-1c06-4a6a-bd2e-8944c60c0bce","system_id":"levelo_inurba_marseille","lat":43.308012,"lon":5.381511,"is_reserved":false,"is_disabled":false,"rental_uris":{"android":"levelo://app?vid=18d56d5c-1c06-4a6a-bd2e-8944c60c0bce","ios":"levelo://app?vid=18d56d5c-1c06-4a6a-bd2e-8944c60c0bce"},"vehicle_type_id":"4","last_reported":1716221372,"current_range_meters":8400,"station_id":"ce4bgt12rcd13ifvqce0","pricing_plan_id":"cebpf4jnsgd1na2vs0mg"},{"bike_id":"9f0e8beb-9934-4f87-a13d-243f7cef7280","system_id":"levelo_inurba_marseille","lat":43.308012,"lon":5.381511,"is_reserved":false,"is_disabled":false,"rental_uris":{"android":"levelo://app?vid=9f0e8beb-9934-4f87-a13d-243f7cef7280","ios":"levelo://app?vid=9f0e8beb-9934-4f87-a13d-243f7cef7280"},"vehicle_type_id":"4","last_reported":1716221372,"current_range_meters":5200,"station_id":"ce4bgt12rcd13ifvqce0","pricing_plan_id":"cebpf4jnsgd1na2vs0mg"},{"bike_id":"03b2d0ac-4855-463a-a2f0-be21041dc802","system_id":"levelo_inurba_marseille","lat":43.304606,"lon":5.379026,"is_reserved":false,"is_disabled":false,"rental_uris":{"android":"levelo://app?vid=03b2d0ac-4855-463a-a2f0-be21041dc802","ios":"levelo://app?vid=03b2d0ac-4855-463a-a2f0-be21041dc802"},"vehicle_type_id":"4","last_reported":1716221372,"current_range_meters":26000,"station_id":"ce4bgup2rcd13ifvqcn0","pricing_plan_id":"cebpf4jnsgd1na2vs0mg"},{"bike_id":"2be1263e-ba1f-49a9-9cf8-413b64fccf82","system_id":"levelo_inurba_marseille","lat":43.30075,"lon":5.36522,"is_reserved":false,"is_disabled":false,"rental_uris":{"android":"levelo://app?vid=2be1263e-ba1f-49a9-9cf8-413b64fccf82","ios":"levelo://app?vid=2be1263e-ba1f-49a9-9cf8-413b64fccf82"},"vehicle_type_id":"4","last_reported":1716221372,"current_range_meters":6400,"station_id":"","pricing_plan_id":"cebpf4jnsgd1na2vs0mg"},{"bike_id":"ba9dd178-2698-431d-9ff7-67ba55154a29","system_id":"levelo_inurba_marseille","lat":43.324771,"lon":5.36557,"is_reserved":false,"is_disabled":false,"rental_uris":{"android":"levelo://app?vid=ba9dd178-2698-431d-9ff7-67ba55154a29","ios":"levelo://app?vid=ba9dd178-2698-431d-9ff7-67ba55154a29"},"vehicle_type_id":"4","last_reported":1716221372,"current_range_meters":20000,"station_id":"ce4bhs12rcd13ifvqhvg","pricing_plan_id":"cebpf4jnsgd1na2vs0mg"},{"bike_id":"a5139bef-c326-46b4-8e84-4cddd07fa2f9","system_id":"levelo_inurba_marseille","lat":43.304606,"lon":5.379026,"is_reserved":false,"is_disabled":false,"rental_uris":{"android":"levelo://app?vid=a5139bef-c326-46b4-8e84-4cddd07fa2f9","ios":"levelo://app?vid=a5139bef-c326-46b4-8e84-4cddd07fa2f9"},"vehicle_type_id":"4","last_reported":1716221372,"current_range_meters":15600,"station_id":"ce4bgup2rcd13ifvqcn0","pricing_plan_id":"cebpf4jnsgd1na2vs0mg"},{"bike_id":"0d7aa2ea-b87e-409c-873c-8fd16113138d","system_id":"levelo_inurba_marseille","lat":43.319968,"lon":5.381495,"is_reserved":false,"is_disabled":false,"rental_uris":{"android":"levelo://app?vid=0d7aa2ea-b87e-409c-873c-8fd16113138d","ios":"levelo://app?vid=0d7aa2ea-b87e-409c-873c-8fd16113138d"},"vehicle_type_id":"4","last_reported":1716221372,"current_range_meters":1200,"station_id":"ce4bhr12rcd13ifvqhpg","pricing_plan_id":"cebpf4jnsgd1na2vs0mg"},{"bike_id":"837bcc4d-270b-414b-b3e5-c901ad0a2e76","system_id":"levelo_inurba_marseille","lat":43.319935,"lon":5.381699,"is_reserved":false,"is_disabled":false,"rental_uris":{"android":"levelo://app?vid=837bcc4d-270b-414b-b3e5-c901ad0a2e76","ios":"levelo://app?vid=837bcc4d-270b-414b-b3e5-c901ad0a2e76"},"vehicle_type_id":"4","last_reported":1716221372,"current_range_meters":7200,"station_id":"ce4bhr12rcd13ifvqhpg","pricing_plan_id":"cebpf4jnsgd1na2vs0mg"},{"bike_id":"8a834b6f-a169-427f-b4df-1fe0a9e2b42a","system_id":"levelo_inurba_marseille","lat":43.319935,"lon":5.381699,"is_reserved":false,"is_disabled":false,"rental_uris":{"android":"levelo://app?vid=8a834b6f-a169-427f-b4df-1fe0a9e2b42a","ios":"levelo://app?vid=8a834b6f-a169-427f-b4df-1fe0a9e2b42a"},"vehicle_type_id":"4","last_reported":1716221372,"current_range_meters":18400,"station_id":"ce4bhr12rcd13ifvqhpg","pricing_plan_id":"cebpf4jnsgd1na2vs0mg"},{"bike_id":"c91e6449-adb8-4423-af94-e7e7ea423d35","system_id":"levelo_inurba_marseille","lat":43.313571,"lon":5.384829,"is_reserved":false,"is_disabled":false,"rental_uris":{"android":"levelo://app?vid=c91e6449-adb8-4423-af94-e7e7ea423d35","ios":"levelo://app?vid=c91e6449-adb8-4423-af94-e7e7ea423d35"},"vehicle_type_id":"4","last_reported":1716221372,"current_range_meters":22400,"station_id":"ce4bgt92rcd13ifvqcf0","pricing_plan_id":"cebpf4jnsgd1na2vs0mg"},{"bike_id":"d811ae23-9564-47c1-9249-10f0f4eb173d","system_id":"levelo_inurba_marseille","lat":43.299222,"lon":5.365554,"is_reserved":false,"is_disabled":false,"rental_uris":{"android":"levelo://app?vid=d811ae23-9564-47c1-9249-10f0f4eb173d","ios":"levelo://app?vid=d811ae23-9564-47c1-9249-10f0f4eb173d"},"vehicle_type_id":"4","last_reported":1716221372,"current_range_meters":10400,"station_id":"ce4bgm92rcd13ifvqbr0","pricing_plan_id":"cebpf4jnsgd1na2vs0mg"},{"bike_id":"389d4798-c7f4-4531-a2cc-5c4e8ae590f5","system_id":"levelo_inurba_marseille","lat":43.298433,"lon":5.362774,"is_reserved":false,"is_disabled":false,"rental_uris":{"android":"levelo://app?vid=389d4798-c7f4-4531-a2cc-5c4e8ae590f5","ios":"levelo://app?vid=389d4798-c7f4-4531-a2cc-5c4e8ae590f5"},"vehicle_type_id":"4","last_reported":1716221372,"current_range_meters":18000,"station_id":"ce4bgpp2rcd13ifvqc3g","pricing_plan_id":"cebpf4jnsgd1na2vs0mg"},{"bike_id":"ccb16393-314e-4b55-b25b-b06358a41ead","system_id":"levelo_inurba_marseille","lat":43.305364,"lon":5.384119,"is_reserved":false,"is_disabled":false,"rental_uris":{"android":"levelo://app?vid=ccb16393-314e-4b55-b25b-b06358a41ead","ios":"levelo://app?vid=ccb16393-314e-4b55-b25b-b06358a41ead"},"vehicle_type_id":"4","last_reported":1716221372,"current_range_meters":25200,"station_id":"ce4bgg92rcd13ifvqb30","pricing_plan_id":"cebpf4jnsgd1na2vs0mg"},{"bike_id":"a16bd15d-2d4e-45f0-a0f6-b604ad21ac1c","system_id":"levelo_inurba_marseille","lat":43.298433,"lon":5.362774,"is_reserved":false,"is_disabled":false,"rental_uris":{"android":"levelo://app?vid=a16bd15d-2d4e-45f0-a0f6-b604ad21ac1c","ios":"levelo://app?vid=a16bd15d-2d4e-45f0-a0f6-b604ad21ac1c"},"vehicle_type_id":"4","last_reported":1716221372,"current_range_meters":15200,"station_id":"ce4bgpp2rcd13ifvqc3g","pricing_plan_id":"cebpf4jnsgd1na2vs0mg"},{"bike_id":"6e054a2d-fec8-4e6f-85d5-a94481591460","system_id":"levelo_inurba_marseille","lat":43.326144,"lon":5.375075,"is_reserved":false,"is_disabled":false,"rental_uris":{"android":"levelo://app?vid=6e054a2d-fec8-4e6f-85d5-a94481591460","ios":"levelo://app?vid=6e054a2d-fec8-4e6f-85d5-a94481591460"},"vehicle_type_id":"4","last_reported":1716221372,"current_range_meters":30800,"station_id":"","pricing_plan_id":"cebpf4jnsgd1na2vs0mg"},{"bike_id":"4b250023-924a-4999-938c-6aeae62b80a3","system_id":"levelo_inurba_marseille","lat":43.322872,"lon":5.382756,"is_reserved":false,"is_disabled":false,"rental_uris":{"android":"levelo://app?vid=4b250023-924a-4999-938c-6aeae62b80a3","ios":"levelo://app?vid=4b250023-924a-4999-938c-6aeae62b80a3"},"vehicle_type_id":"4","last_reported":1716221372,"current_range_meters":7200,"station_id":"ce4bhr12rcd13ifvqhqg","pricing_plan_id":"cebpf4jnsgd1na2vs0mg"},{"bike_id":"ce7d193e-71e7-4747-b359-c4fa75541c42","system_id":"levelo_inurba_marseille","lat":43.311722,"lon":5.387247,"is_reserved":false,"is_disabled":false,"rental_uris":{"android":"levelo://app?vid=ce7d193e-71e7-4747-b359-c4fa75541c42","ios":"levelo://app?vid=ce7d193e-71e7-4747-b359-c4fa75541c42"},"vehicle_type_id":"4","last_reported":1716221372,"current_range_meters":28800,"station_id":"ce4bgv12rcd13ifvqcp0","pricing_plan_id":"cebpf4jnsgd1na2vs0mg"},{"bike_id":"1b569c29-7c30-425c-bb64-7d77500c45af","system_id":"levelo_inurba_marseille","lat":43.298433,"lon":5.362774,"is_reserved":false,"is_disabled":false,"rental_uris":{"android":"levelo://app?vid=1b569c29-7c30-425c-bb64-7d77500c45af","ios":"levelo://app?vid=1b569c29-7c30-425c-bb64-7d77500c45af"},"vehicle_type_id":"4","last_reported":1716221372,"current_range_meters":10400,"station_id":"ce4bgpp2rcd13ifvqc3g","pricing_plan_id":"cebpf4jnsgd1na2vs0mg"},{"bike_id":"ed492a4e-944e-43b3-bd26-4581a8e6f7a8","system_id":"levelo_inurba_marseille","lat":43.297794,"lon":5.370888,"is_reserved":false,"is_disabled":false,"rental_uris":{"android":"levelo://app?vid=ed492a4e-944e-43b3-bd26-4581a8e6f7a8","ios":"levelo://app?vid=ed492a4e-944e-43b3-bd26-4581a8e6f7a8"},"vehicle_type_id":"4","last_reported":1716221372,"current_range_meters":30000,"station_id":"ce4bgop2rcd13ifvqc1g","pricing_plan_id":"cebpf4jnsgd1na2vs0mg"},{"bike_id":"ed9f3e8b-dfd7-46ac-afb6-c669e458dab0","system_id":"levelo_inurba_marseille","lat":43.29787,"lon":5.37109,"is_reserved":false,"is_disabled":false,"rental_uris":{"android":"levelo://app?vid=ed9f3e8b-dfd7-46ac-afb6-c669e458dab0","ios":"levelo://app?vid=ed9f3e8b-dfd7-46ac-afb6-c669e458dab0"},"vehicle_type_id":"4","last_reported":1716221372,"current_range_meters":30400,"station_id":"ce4bgop2rcd13ifvqc1g","pricing_plan_id":"cebpf4jnsgd1na2vs0mg"},{"bike_id":"9c65fbf9-f24f-43b6-ab1e-ad0d489ccd59","system_id":"levelo_inurba_marseille","lat":43.297774,"lon":5.370875,"is_reserved":false,"is_disabled":false,"rental_uris":{"android":"levelo://app?vid=9c65fbf9-f24f-43b6-ab1e-ad0d489ccd59","ios":"levelo://app?vid=9c65fbf9-f24f-43b6-ab1e-ad0d489ccd59"},"vehicle_type_id":"4","last_reported":1716221372,"current_range_meters":18800,"station_id":"ce4bgop2rcd13ifvqc1g","pricing_plan_id":"cebpf4jnsgd1na2vs0mg"},{"bike_id":"4db12bb2-047c-428a-addf-22fa2d72f822","system_id":"levelo_inurba_marseille","lat":43.297774,"lon":5.370875,"is_reserved":false,"is_disabled":false,"rental_uris":{"android":"levelo://app?vid=4db12bb2-047c-428a-addf-22fa2d72f822","ios":"levelo://app?vid=4db12bb2-047c-428a-addf-22fa2d72f822"},"vehicle_type_id":"4","last_reported":1716221372,"current_range_meters":30400,"station_id":"ce4bgop2rcd13ifvqc1g","pricing_plan_id":"cebpf4jnsgd1na2vs0mg"},{"bike_id":"8d9b8a80-8c10-4820-9b57-7b5383baa1c2","system_id":"levelo_inurba_marseille","lat":43.297774,"lon":5.370875,"is_reserved":false,"is_disabled":false,"rental_uris":{"android":"levelo://app?vid=8d9b8a80-8c10-4820-9b57-7b5383baa1c2","ios":"levelo://app?vid=8d9b8a80-8c10-4820-9b57-7b5383baa1c2"},"vehicle_type_id":"4","last_reported":1716221372,"current_range_meters":8400,"station_id":"ce4bgop2rcd13ifvqc1g","pricing_plan_id":"cebpf4jnsgd1na2vs0mg"},{"bike_id":"4e2a7eaa-647d-46b5-a223-32d0720444ab","system_id":"levelo_inurba_marseille","lat":43.322872,"lon":5.382756,"is_reserved":false,"is_disabled":false,"rental_uris":{"android":"levelo://app?vid=4e2a7eaa-647d-46b5-a223-32d0720444ab","ios":"levelo://app?vid=4e2a7eaa-647d-46b5-a223-32d0720444ab"},"vehicle_type_id":"4","last_reported":1716221372,"current_range_meters":6800,"station_id":"ce4bhr12rcd13ifvqhqg","pricing_plan_id":"cebpf4jnsgd1na2vs0mg"},{"bike_id":"d39db37c-9f78-4b03-a1c5-3ec323bb42fe","system_id":"levelo_inurba_marseille","lat":43.322874,"lon":5.382613,"is_reserved":false,"is_disabled":false,"rental_uris":{"android":"levelo://app?vid=d39db37c-9f78-4b03-a1c5-3ec323bb42fe","ios":"levelo://app?vid=d39db37c-9f78-4b03-a1c5-3ec323bb42fe"},"vehicle_type_id":"4","last_reported":1716221372,"current_range_meters":6000,"station_id":"ce4bhr12rcd13ifvqhqg","pricing_plan_id":"cebpf4jnsgd1na2vs0mg"},{"bike_id":"616fd45c-c1a9-4e11-a41a-95a4dc0ae60d","system_id":"levelo_inurba_marseille","lat":43.322872,"lon":5.382756,"is_reserved":false,"is_disabled":false,"rental_uris":{"android":"levelo://app?vid=616fd45c-c1a9-4e11-a41a-95a4dc0ae60d","ios":"levelo://app?vid=616fd45c-c1a9-4e11-a41a-95a4dc0ae60d"},"vehicle_type_id":"4","last_reported":1716221372,"current_range_meters":20800,"station_id":"ce4bhr12rcd13ifvqhqg","pricing_plan_id":"cebpf4jnsgd1na2vs0mg"},{"bike_id":"94088e49-1627-4495-947b-2bde06efbf2f","system_id":"levelo_inurba_marseille","lat":43.322872,"lon":5.382756,"is_reserved":false,"is_disabled":false,"rental_uris":{"android":"levelo://app?vid=94088e49-1627-4495-947b-2bde06efbf2f","ios":"levelo://app?vid=94088e49-1627-4495-947b-2bde06efbf2f"},"vehicle_type_id":"4","last_reported":1716221372,"current_range_meters":2800,"station_id":"ce4bhr12rcd13ifvqhqg","pricing_plan_id":"cebpf4jnsgd1na2vs0mg"},{"bike_id":"c67fe492-8c66-4e0f-b450-e2efa3b5948a","system_id":"levelo_inurba_marseille","lat":43.322872,"lon":5.382756,"is_reserved":false,"is_disabled":false,"rental_uris":{"android":"levelo://app?vid=c67fe492-8c66-4e0f-b450-e2efa3b5948a","ios":"levelo://app?vid=c67fe492-8c66-4e0f-b450-e2efa3b5948a"},"vehicle_type_id":"4","last_reported":1716221372,"current_range_meters":31600,"station_id":"ce4bhr12rcd13ifvqhqg","pricing_plan_id":"cebpf4jnsgd1na2vs0mg"},{"bike_id":"16f66172-cfd1-4966-8e04-6218a5cde7c9","system_id":"levelo_inurba_marseille","lat":43.322872,"lon":5.382756,"is_reserved":false,"is_disabled":false,"rental_uris":{"android":"levelo://app?vid=16f66172-cfd1-4966-8e04-6218a5cde7c9","ios":"levelo://app?vid=16f66172-cfd1-4966-8e04-6218a5cde7c9"},"vehicle_type_id":"4","last_reported":1716221372,"current_range_meters":1200,"station_id":"ce4bhr12rcd13ifvqhqg","pricing_plan_id":"cebpf4jnsgd1na2vs0mg"},{"bike_id":"52e54ca4-b8a6-4050-bb8e-dea572ccf758","system_id":"levelo_inurba_marseille","lat":43.29717,"lon":5.36823,"is_reserved":false,"is_disabled":false,"rental_uris":{"android":"levelo://app?vid=52e54ca4-b8a6-4050-bb8e-dea572ccf758","ios":"levelo://app?vid=52e54ca4-b8a6-4050-bb8e-dea572ccf758"},"vehicle_type_id":"4","last_reported":1716221372,"current_range_meters":19600,"station_id":"","pricing_plan_id":"cebpf4jnsgd1na2vs0mg"},{"bike_id":"988306a8-85ed-4fc6-a0ed-e240895d62d0","system_id":"levelo_inurba_marseille","lat":43.297163,"lon":5.365866,"is_reserved":false,"is_disabled":false,"rental_uris":{"android":"levelo://app?vid=988306a8-85ed-4fc6-a0ed-e240895d62d0","ios":"levelo://app?vid=988306a8-85ed-4fc6-a0ed-e240895d62d0"},"vehicle_type_id":"4","last_reported":1716221372,"current_range_meters":11600,"station_id":"ce4bgn12rcd13ifvqbt0","pricing_plan_id":"cebpf4jnsgd1na2vs0mg"},{"bike_id":"402f083f-115f-4b87-8ca8-2ec703fc9498","system_id":"levelo_inurba_marseille","lat":43.296131,"lon":5.370791,"is_reserved":false,"is_disabled":false,"rental_uris":{"android":"levelo://app?vid=402f083f-115f-4b87-8ca8-2ec703fc9498","ios":"levelo://app?vid=402f083f-115f-4b87-8ca8-2ec703fc9498"},"vehicle_type_id":"4","last_reported":1716221372,"current_range_meters":23200,"station_id":"ce4bgnh2rcd13ifvqc0g","pricing_plan_id":"cebpf4jnsgd1na2vs0mg"},{"bike_id":"fdda8bd3-9847-4147-8953-d8bcc7a97a75","system_id":"levelo_inurba_marseille","lat":43.29589,"lon":5.36748,"is_reserved":false,"is_disabled":false,"rental_uris":{"android":"levelo://app?vid=fdda8bd3-9847-4147-8953-d8bcc7a97a75","ios":"levelo://app?vid=fdda8bd3-9847-4147-8953-d8bcc7a97a75"},"vehicle_type_id":"4","last_reported":1716221372,"current_range_meters":21600,"station_id":"ce4bgph2rcd13ifvqc2g","pricing_plan_id":"cebpf4jnsgd1na2vs0mg"},{"bike_id":"1d580655-d8b5-44b7-905a-35206ea39ea0","system_id":"levelo_inurba_marseille","lat":43.29573,"lon":5.367355,"is_reserved":false,"is_disabled":false,"rental_uris":{"android":"levelo://app?vid=1d580655-d8b5-44b7-905a-35206ea39ea0","ios":"levelo://app?vid=1d580655-d8b5-44b7-905a-35206ea39ea0"},"vehicle_type_id":"4","last_reported":1716221372,"current_range_meters":21200,"station_id":"ce4bgph2rcd13ifvqc2g","pricing_plan_id":"cebpf4jnsgd1na2vs0mg"},{"bike_id":"3cd83169-4727-423a-b685-0c97a229cfc6","system_id":"levelo_inurba_marseille","lat":43.296131,"lon":5.370791,"is_reserved":false,"is_disabled":false,"rental_uris":{"android":"levelo://app?vid=3cd83169-4727-423a-b685-0c97a229cfc6","ios":"levelo://app?vid=3cd83169-4727-423a-b685-0c97a229cfc6"},"vehicle_type_id":"4","last_reported":1716221372,"current_range_meters":12800,"station_id":"ce4bgnh2rcd13ifvqc0g","pricing_plan_id":"cebpf4jnsgd1na2vs0mg"},{"bike_id":"f97ea861-56b7-447b-a4d6-0e3cac744a4b","system_id":"levelo_inurba_marseille","lat":43.29584,"lon":5.3675,"is_reserved":false,"is_disabled":false,"rental_uris":{"android":"levelo://app?vid=f97ea861-56b7-447b-a4d6-0e3cac744a4b","ios":"levelo://app?vid=f97ea861-56b7-447b-a4d6-0e3cac744a4b"},"vehicle_type_id":"4","last_reported":1716221372,"current_range_meters":8800,"station_id":"ce4bgph2rcd13ifvqc2g","pricing_plan_id":"cebpf4jnsgd1na2vs0mg"},{"bike_id":"6bf9c397-ffe0-43e0-a659-fdaee52a59f4","system_id":"levelo_inurba_marseille","lat":43.29573,"lon":5.367355,"is_reserved":false,"is_disabled":false,"rental_uris":{"android":"levelo://app?vid=6bf9c397-ffe0-43e0-a659-fdaee52a59f4","ios":"levelo://app?vid=6bf9c397-ffe0-43e0-a659-fdaee52a59f4"},"vehicle_type_id":"4","last_reported":1716221372,"current_range_meters":0,"station_id":"ce4bgph2rcd13ifvqc2g","pricing_plan_id":"cebpf4jnsgd1na2vs0mg"},{"bike_id":"6c9a424e-eff1-4fe7-91d6-a45104c97727","system_id":"levelo_inurba_marseille","lat":43.305706,"lon":5.365654,"is_reserved":false,"is_disabled":false,"rental_uris":{"android":"levelo://app?vid=6c9a424e-eff1-4fe7-91d6-a45104c97727","ios":"levelo://app?vid=6c9a424e-eff1-4fe7-91d6-a45104c97727"},"vehicle_type_id":"4","last_reported":1716221372,"current_range_meters":5200,"station_id":"ce4bgs12rcd13ifvqcag","pricing_plan_id":"cebpf4jnsgd1na2vs0mg"},{"bike_id":"398d61d7-9c44-49e6-a45f-6d071fd776d3","system_id":"levelo_inurba_marseille","lat":43.296131,"lon":5.370791,"is_reserved":false,"is_disabled":false,"rental_uris":{"android":"levelo://app?vid=398d61d7-9c44-49e6-a45f-6d071fd776d3","ios":"levelo://app?vid=398d61d7-9c44-49e6-a45f-6d071fd776d3"},"vehicle_type_id":"4","last_reported":1716221372,"current_range_meters":15600,"station_id":"ce4bgnh2rcd13ifvqc0g","pricing_plan_id":"cebpf4jnsgd1na2vs0mg"},{"bike_id":"b1cba141-7f35-48fb-8843-894f4ab594e7","system_id":"levelo_inurba_marseille","lat":43.29573,"lon":5.367355,"is_reserved":false,"is_disabled":false,"rental_uris":{"android":"levelo://app?vid=b1cba141-7f35-48fb-8843-894f4ab594e7","ios":"levelo://app?vid=b1cba141-7f35-48fb-8843-894f4ab594e7"},"vehicle_type_id":"4","last_reported":1716221372,"current_range_meters":2400,"station_id":"ce4bgph2rcd13ifvqc2g","pricing_plan_id":"cebpf4jnsgd1na2vs0mg"},{"bike_id":"52515e1b-8536-4a93-8fc0-c1036832d33b","system_id":"levelo_inurba_marseille","lat":43.296921,"lon":5.376579,"is_reserved":false,"is_disabled":false,"rental_uris":{"android":"levelo://app?vid=52515e1b-8536-4a93-8fc0-c1036832d33b","ios":"levelo://app?vid=52515e1b-8536-4a93-8fc0-c1036832d33b"},"vehicle_type_id":"4","last_reported":1716221372,"current_range_meters":1600,"station_id":"ce4bgkh2rcd13ifvqbl0","pricing_plan_id":"cebpf4jnsgd1na2vs0mg"},{"bike_id":"7be6ad78-c5d8-4cdb-9f23-3c3340587945","system_id":"levelo_inurba_marseille","lat":43.309589,"lon":5.390258,"is_reserved":false,"is_disabled":false,"rental_uris":{"android":"levelo://app?vid=7be6ad78-c5d8-4cdb-9f23-3c3340587945","ios":"levelo://app?vid=7be6ad78-c5d8-4cdb-9f23-3c3340587945"},"vehicle_type_id":"4","last_reported":1716221372,"current_range_meters":12400,"station_id":"ce4bgup2rcd13ifvqco0","pricing_plan_id":"cebpf4jnsgd1na2vs0mg"},{"bike_id":"4e71cf30-8932-4831-adf5-7193248426c5","system_id":"levelo_inurba_marseille","lat":43.299028,"lon":5.381509,"is_reserved":false,"is_disabled":false,"rental_uris":{"android":"levelo://app?vid=4e71cf30-8932-4831-adf5-7193248426c5","ios":"levelo://app?vid=4e71cf30-8932-4831-adf5-7193248426c5"},"vehicle_type_id":"4","last_reported":1716221372,"current_range_meters":29200,"station_id":"ce4bgj12rcd13ifvqbc0","pricing_plan_id":"cebpf4jnsgd1na2vs0mg"},{"bike_id":"cb0bc214-3eca-475b-95ac-16bad99cddee","system_id":"levelo_inurba_marseille","lat":43.296935,"lon":5.376544,"is_reserved":false,"is_disabled":false,"rental_uris":{"android":"levelo://app?vid=cb0bc214-3eca-475b-95ac-16bad99cddee","ios":"levelo://app?vid=cb0bc214-3eca-475b-95ac-16bad99cddee"},"vehicle_type_id":"4","last_reported":1716221372,"current_range_meters":10000,"station_id":"ce4bgkh2rcd13ifvqbl0","pricing_plan_id":"cebpf4jnsgd1na2vs0mg"},{"bike_id":"b98c6885-144c-4bae-b01f-614c0a867cc0","system_id":"levelo_inurba_marseille","lat":43.309589,"lon":5.390258,"is_reserved":false,"is_disabled":false,"rental_uris":{"android":"levelo://app?vid=b98c6885-144c-4bae-b01f-614c0a867cc0","ios":"levelo://app?vid=b98c6885-144c-4bae-b01f-614c0a867cc0"},"vehicle_type_id":"4","last_reported":1716221372,"current_range_meters":800,"station_id":"ce4bgup2rcd13ifvqco0","pricing_plan_id":"cebpf4jnsgd1na2vs0mg"},{"bike_id":"148c282e-efc1-44e6-addb-133c50df5c83","system_id":"levelo_inurba_marseille","lat":43.317557,"lon":5.390173,"is_reserved":false,"is_disabled":false,"rental_uris":{"android":"levelo://app?vid=148c282e-efc1-44e6-addb-133c50df5c83","ios":"levelo://app?vid=148c282e-efc1-44e6-addb-133c50df5c83"},"vehicle_type_id":"4","last_reported":1716221372,"current_range_meters":15600,"station_id":"ce4bhqp2rcd13ifvqhng","pricing_plan_id":"cebpf4jnsgd1na2vs0mg"},{"bike_id":"fc23b41c-bcff-4a3c-af79-9e0f7432e89e","system_id":"levelo_inurba_marseille","lat":43.317557,"lon":5.390173,"is_reserved":false,"is_disabled":false,"rental_uris":{"android":"levelo://app?vid=fc23b41c-bcff-4a3c-af79-9e0f7432e89e","ios":"levelo://app?vid=fc23b41c-bcff-4a3c-af79-9e0f7432e89e"},"vehicle_type_id":"4","last_reported":1716221372,"current_range_meters":15200,"station_id":"ce4bhqp2rcd13ifvqhng","pricing_plan_id":"cebpf4jnsgd1na2vs0mg"},{"bike_id":"66ca5fdc-fde7-4c7d-9f61-c12db4d08512","system_id":"levelo_inurba_marseille","lat":43.299028,"lon":5.381509,"is_reserved":false,"is_disabled":false,"rental_uris":{"android":"levelo://app?vid=66ca5fdc-fde7-4c7d-9f61-c12db4d08512","ios":"levelo://app?vid=66ca5fdc-fde7-4c7d-9f61-c12db4d08512"},"vehicle_type_id":"4","last_reported":1716221372,"current_range_meters":23600,"station_id":"ce4bgj12rcd13ifvqbc0","pricing_plan_id":"cebpf4jnsgd1na2vs0mg"},{"bike_id":"ba803e2e-0ef8-4488-a66e-15febf6da6e0","system_id":"levelo_inurba_marseille","lat":43.317557,"lon":5.390173,"is_reserved":false,"is_disabled":false,"rental_uris":{"android":"levelo://app?vid=ba803e2e-0ef8-4488-a66e-15febf6da6e0","ios":"levelo://app?vid=ba803e2e-0ef8-4488-a66e-15febf6da6e0"},"vehicle_type_id":"4","last_reported":1716221372,"current_range_meters":22800,"station_id":"ce4bhqp2rcd13ifvqhng","pricing_plan_id":"cebpf4jnsgd1na2vs0mg"},{"bike_id":"b8a15617-0719-43b5-80ae-43f65e28e04a","system_id":"levelo_inurba_marseille","lat":43.309589,"lon":5.390258,"is_reserved":false,"is_disabled":false,"rental_uris":{"android":"levelo://app?vid=b8a15617-0719-43b5-80ae-43f65e28e04a","ios":"levelo://app?vid=b8a15617-0719-43b5-80ae-43f65e28e04a"},"vehicle_type_id":"4","last_reported":1716221372,"current_range_meters":4800,"station_id":"ce4bgup2rcd13ifvqco0","pricing_plan_id":"cebpf4jnsgd1na2vs0mg"},{"bike_id":"1d2b9fbf-de1e-43c7-a7ca-1a3dcfdcfb34","system_id":"levelo_inurba_marseille","lat":43.309589,"lon":5.390258,"is_reserved":false,"is_disabled":false,"rental_uris":{"android":"levelo://app?vid=1d2b9fbf-de1e-43c7-a7ca-1a3dcfdcfb34","ios":"levelo://app?vid=1d2b9fbf-de1e-43c7-a7ca-1a3dcfdcfb34"},"vehicle_type_id":"4","last_reported":1716221372,"current_range_meters":3200,"station_id":"ce4bgup2rcd13ifvqco0","pricing_plan_id":"cebpf4jnsgd1na2vs0mg"},{"bike_id":"319ffb97-0785-4638-b7e8-e7e55e306703","system_id":"levelo_inurba_marseille","lat":43.298037,"lon":5.381066,"is_reserved":false,"is_disabled":false,"rental_uris":{"android":"levelo://app?vid=319ffb97-0785-4638-b7e8-e7e55e306703","ios":"levelo://app?vid=319ffb97-0785-4638-b7e8-e7e55e306703"},"vehicle_type_id":"4","last_reported":1716221372,"current_range_meters":14800,"station_id":"ce4bgip2rcd13ifvqbb0","pricing_plan_id":"cebpf4jnsgd1na2vs0mg"},{"bike_id":"f7cf08d6-79ba-49a0-9476-cc59f6e21af9","system_id":"levelo_inurba_marseille","lat":43.298037,"lon":5.381066,"is_reserved":false,"is_disabled":false,"rental_uris":{"android":"levelo://app?vid=f7cf08d6-79ba-49a0-9476-cc59f6e21af9","ios":"levelo://app?vid=f7cf08d6-79ba-49a0-9476-cc59f6e21af9"},"vehicle_type_id":"4","last_reported":1716221372,"current_range_meters":17600,"station_id":"ce4bgip2rcd13ifvqbb0","pricing_plan_id":"cebpf4jnsgd1na2vs0mg"},{"bike_id":"aa6860a5-e94c-45d4-93d3-08162ab8aefb","system_id":"levelo_inurba_marseille","lat":43.298037,"lon":5.381066,"is_reserved":false,"is_disabled":false,"rental_uris":{"android":"levelo://app?vid=aa6860a5-e94c-45d4-93d3-08162ab8aefb","ios":"levelo://app?vid=aa6860a5-e94c-45d4-93d3-08162ab8aefb"},"vehicle_type_id":"4","last_reported":1716221372,"current_range_meters":5600,"station_id":"ce4bgip2rcd13ifvqbb0","pricing_plan_id":"cebpf4jnsgd1na2vs0mg"},{"bike_id":"b62de119-be0e-4f72-a1c9-0e3cec94e1ec","system_id":"levelo_inurba_marseille","lat":43.30436,"lon":5.38877,"is_reserved":false,"is_disabled":false,"rental_uris":{"android":"levelo://app?vid=b62de119-be0e-4f72-a1c9-0e3cec94e1ec","ios":"levelo://app?vid=b62de119-be0e-4f72-a1c9-0e3cec94e1ec"},"vehicle_type_id":"4","last_reported":1716221372,"current_range_meters":9200,"station_id":"ce4bgk12rcd13ifvqbi0","pricing_plan_id":"cebpf4jnsgd1na2vs0mg"},{"bike_id":"f1eeb8d4-a35c-4fb8-a464-af552b124447","system_id":"levelo_inurba_marseille","lat":43.304274,"lon":5.388873,"is_reserved":false,"is_disabled":false,"rental_uris":{"android":"levelo://app?vid=f1eeb8d4-a35c-4fb8-a464-af552b124447","ios":"levelo://app?vid=f1eeb8d4-a35c-4fb8-a464-af552b124447"},"vehicle_type_id":"4","last_reported":1716221372,"current_range_meters":20400,"station_id":"ce4bgk12rcd13ifvqbi0","pricing_plan_id":"cebpf4jnsgd1na2vs0mg"},{"bike_id":"f1eee403-45da-4c5b-9b2a-0415a3e6f86b","system_id":"levelo_inurba_marseille","lat":43.304278,"lon":5.388868,"is_reserved":false,"is_disabled":false,"rental_uris":{"android":"levelo://app?vid=f1eee403-45da-4c5b-9b2a-0415a3e6f86b","ios":"levelo://app?vid=f1eee403-45da-4c5b-9b2a-0415a3e6f86b"},"vehicle_type_id":"4","last_reported":1716221372,"current_range_meters":0,"station_id":"ce4bgk12rcd13ifvqbi0","pricing_plan_id":"cebpf4jnsgd1na2vs0mg"},{"bike_id":"49d42f27-0785-4e4e-a367-2238448071bd","system_id":"levelo_inurba_marseille","lat":43.298037,"lon":5.381066,"is_reserved":false,"is_disabled":false,"rental_uris":{"android":"levelo://app?vid=49d42f27-0785-4e4e-a367-2238448071bd","ios":"levelo://app?vid=49d42f27-0785-4e4e-a367-2238448071bd"},"vehicle_type_id":"4","last_reported":1716221372,"current_range_meters":23600,"station_id":"ce4bgip2rcd13ifvqbb0","pricing_plan_id":"cebpf4jnsgd1na2vs0mg"},{"bike_id":"2fbda775-4704-4c35-a79d-ce8bb8ab811a","system_id":"levelo_inurba_marseille","lat":43.298037,"lon":5.381066,"is_reserved":false,"is_disabled":false,"rental_uris":{"android":"levelo://app?vid=2fbda775-4704-4c35-a79d-ce8bb8ab811a","ios":"levelo://app?vid=2fbda775-4704-4c35-a79d-ce8bb8ab811a"},"vehicle_type_id":"4","last_reported":1716221372,"current_range_meters":9600,"station_id":"ce4bgip2rcd13ifvqbb0","pricing_plan_id":"cebpf4jnsgd1na2vs0mg"},{"bike_id":"386a7901-30cb-45db-9dcd-67e08b1cbbac","system_id":"levelo_inurba_marseille","lat":43.30429,"lon":5.38887,"is_reserved":false,"is_disabled":false,"rental_uris":{"android":"levelo://app?vid=386a7901-30cb-45db-9dcd-67e08b1cbbac","ios":"levelo://app?vid=386a7901-30cb-45db-9dcd-67e08b1cbbac"},"vehicle_type_id":"4","last_reported":1716221372,"current_range_meters":14800,"station_id":"ce4bgk12rcd13ifvqbi0","pricing_plan_id":"cebpf4jnsgd1na2vs0mg"},{"bike_id":"a3931ac2-05d3-42e2-8fa0-770088c1fd3a","system_id":"levelo_inurba_marseille","lat":43.30426,"lon":5.38885,"is_reserved":false,"is_disabled":false,"rental_uris":{"android":"levelo://app?vid=a3931ac2-05d3-42e2-8fa0-770088c1fd3a","ios":"levelo://app?vid=a3931ac2-05d3-42e2-8fa0-770088c1fd3a"},"vehicle_type_id":"4","last_reported":1716221372,"current_range_meters":10000,"station_id":"ce4bgk12rcd13ifvqbi0","pricing_plan_id":"cebpf4jnsgd1na2vs0mg"},{"bike_id":"cbb0de87-6b43-413b-961e-5b5233a6ebdc","system_id":"levelo_inurba_marseille","lat":43.298037,"lon":5.381066,"is_reserved":false,"is_disabled":false,"rental_uris":{"android":"levelo://app?vid=cbb0de87-6b43-413b-961e-5b5233a6ebdc","ios":"levelo://app?vid=cbb0de87-6b43-413b-961e-5b5233a6ebdc"},"vehicle_type_id":"4","last_reported":1716221372,"current_range_meters":16000,"station_id":"ce4bgip2rcd13ifvqbb0","pricing_plan_id":"cebpf4jnsgd1na2vs0mg"},{"bike_id":"064be3a9-da60-4794-b4f2-27db70949eb7","system_id":"levelo_inurba_marseille","lat":43.296277,"lon":5.377108,"is_reserved":false,"is_disabled":false,"rental_uris":{"android":"levelo://app?vid=064be3a9-da60-4794-b4f2-27db70949eb7","ios":"levelo://app?vid=064be3a9-da60-4794-b4f2-27db70949eb7"},"vehicle_type_id":"4","last_reported":1716221372,"current_range_meters":22400,"station_id":"ce4bgi92rcd13ifvqb90","pricing_plan_id":"cebpf4jnsgd1na2vs0mg"},{"bike_id":"72919998-6fce-46ac-9f27-087e6a7def1b","system_id":"levelo_inurba_marseille","lat":43.296921,"lon":5.376579,"is_reserved":false,"is_disabled":false,"rental_uris":{"android":"levelo://app?vid=72919998-6fce-46ac-9f27-087e6a7def1b","ios":"levelo://app?vid=72919998-6fce-46ac-9f27-087e6a7def1b"},"vehicle_type_id":"4","last_reported":1716221372,"current_range_meters":10800,"station_id":"ce4bgkh2rcd13ifvqbl0","pricing_plan_id":"cebpf4jnsgd1na2vs0mg"},{"bike_id":"5fbd8c6b-e657-4217-b08c-ec10a5c9ff36","system_id":"levelo_inurba_marseille","lat":43.30437,"lon":5.38902,"is_reserved":false,"is_disabled":false,"rental_uris":{"android":"levelo://app?vid=5fbd8c6b-e657-4217-b08c-ec10a5c9ff36","ios":"levelo://app?vid=5fbd8c6b-e657-4217-b08c-ec10a5c9ff36"},"vehicle_type_id":"4","last_reported":1716221372,"current_range_meters":0,"station_id":"ce4bgk12rcd13ifvqbi0","pricing_plan_id":"cebpf4jnsgd1na2vs0mg"},{"bike_id":"5e42c231-d57f-4d09-b25f-465344574f32","system_id":"levelo_inurba_marseille","lat":43.30421,"lon":5.38891,"is_reserved":false,"is_disabled":false,"rental_uris":{"android":"levelo://app?vid=5e42c231-d57f-4d09-b25f-465344574f32","ios":"levelo://app?vid=5e42c231-d57f-4d09-b25f-465344574f32"},"vehicle_type_id":"4","last_reported":1716221372,"current_range_meters":0,"station_id":"ce4bgk12rcd13ifvqbi0","pricing_plan_id":"cebpf4jnsgd1na2vs0mg"},{"bike_id":"b53c386a-e808-4582-a394-ab32df46ba66","system_id":"levelo_inurba_marseille","lat":43.299724,"lon":5.384848,"is_reserved":false,"is_disabled":false,"rental_uris":{"android":"levelo://app?vid=b53c386a-e808-4582-a394-ab32df46ba66","ios":"levelo://app?vid=b53c386a-e808-4582-a394-ab32df46ba66"},"vehicle_type_id":"4","last_reported":1716221372,"current_range_meters":18400,"station_id":"ce4bgj92rcd13ifvqbd0","pricing_plan_id":"cebpf4jnsgd1na2vs0mg"},{"bike_id":"8d7b7a2d-a4ed-4127-919f-cdde59f5bfe2","system_id":"levelo_inurba_marseille","lat":43.30439,"lon":5.38912,"is_reserved":false,"is_disabled":false,"rental_uris":{"android":"levelo://app?vid=8d7b7a2d-a4ed-4127-919f-cdde59f5bfe2","ios":"levelo://app?vid=8d7b7a2d-a4ed-4127-919f-cdde59f5bfe2"},"vehicle_type_id":"4","last_reported":1716221372,"current_range_meters":28400,"station_id":"ce4bgk12rcd13ifvqbi0","pricing_plan_id":"cebpf4jnsgd1na2vs0mg"},{"bike_id":"eb66ef56-1594-4532-adfb-0d377a67cdf6","system_id":"levelo_inurba_marseille","lat":43.306412,"lon":5.401035,"is_reserved":false,"is_disabled":false,"rental_uris":{"android":"levelo://app?vid=eb66ef56-1594-4532-adfb-0d377a67cdf6","ios":"levelo://app?vid=eb66ef56-1594-4532-adfb-0d377a67cdf6"},"vehicle_type_id":"4","last_reported":1716221372,"current_range_meters":5600,"station_id":"ce4bh112rcd13ifvqda0","pricing_plan_id":"cebpf4jnsgd1na2vs0mg"},{"bike_id":"2b19eb1d-103a-4220-afad-54fd13727768","system_id":"levelo_inurba_marseille","lat":43.295279,"lon":5.375048,"is_reserved":false,"is_disabled":false,"rental_uris":{"android":"levelo://app?vid=2b19eb1d-103a-4220-afad-54fd13727768","ios":"levelo://app?vid=2b19eb1d-103a-4220-afad-54fd13727768"},"vehicle_type_id":"4","last_reported":1716221372,"current_range_meters":3600,"station_id":"ce4bgkp2rcd13ifvqbmg","pricing_plan_id":"cebpf4jnsgd1na2vs0mg"},{"bike_id":"8bf23322-3833-40d2-a890-799b56aa115f","system_id":"levelo_inurba_marseille","lat":43.295279,"lon":5.375048,"is_reserved":false,"is_disabled":false,"rental_uris":{"android":"levelo://app?vid=8bf23322-3833-40d2-a890-799b56aa115f","ios":"levelo://app?vid=8bf23322-3833-40d2-a890-799b56aa115f"},"vehicle_type_id":"4","last_reported":1716221372,"current_range_meters":21600,"station_id":"ce4bgkp2rcd13ifvqbmg","pricing_plan_id":"cebpf4jnsgd1na2vs0mg"},{"bike_id":"d014cf3e-048b-41f0-8f75-4b7171a47831","system_id":"levelo_inurba_marseille","lat":43.299717,"lon":5.384845,"is_reserved":false,"is_disabled":false,"rental_uris":{"android":"levelo://app?vid=d014cf3e-048b-41f0-8f75-4b7171a47831","ios":"levelo://app?vid=d014cf3e-048b-41f0-8f75-4b7171a47831"},"vehicle_type_id":"4","last_reported":1716221372,"current_range_meters":30400,"station_id":"ce4bgj92rcd13ifvqbd0","pricing_plan_id":"cebpf4jnsgd1na2vs0mg"},{"bike_id":"78252e3e-8eff-4ccb-a142-6526e4cc39f4","system_id":"levelo_inurba_marseille","lat":43.30089,"lon":5.38729,"is_reserved":false,"is_disabled":false,"rental_uris":{"android":"levelo://app?vid=78252e3e-8eff-4ccb-a142-6526e4cc39f4","ios":"levelo://app?vid=78252e3e-8eff-4ccb-a142-6526e4cc39f4"},"vehicle_type_id":"4","last_reported":1716221372,"current_range_meters":19200,"station_id":"","pricing_plan_id":"cebpf4jnsgd1na2vs0mg"},{"bike_id":"d6f15fc8-041c-4993-bf5e-7c54c3e7f0f4","system_id":"levelo_inurba_marseille","lat":43.32361,"lon":5.38886,"is_reserved":false,"is_disabled":false,"rental_uris":{"android":"levelo://app?vid=d6f15fc8-041c-4993-bf5e-7c54c3e7f0f4","ios":"levelo://app?vid=d6f15fc8-041c-4993-bf5e-7c54c3e7f0f4"},"vehicle_type_id":"4","last_reported":1716221372,"current_range_meters":11200,"station_id":"ce4bhqp2rcd13ifvqhog","pricing_plan_id":"cebpf4jnsgd1na2vs0mg"},{"bike_id":"cfb63854-8892-4884-8059-d991cf190bab","system_id":"levelo_inurba_marseille","lat":43.32364,"lon":5.38886,"is_reserved":false,"is_disabled":false,"rental_uris":{"android":"levelo://app?vid=cfb63854-8892-4884-8059-d991cf190bab","ios":"levelo://app?vid=cfb63854-8892-4884-8059-d991cf190bab"},"vehicle_type_id":"4","last_reported":1716221372,"current_range_meters":0,"station_id":"ce4bhqp2rcd13ifvqhog","pricing_plan_id":"cebpf4jnsgd1na2vs0mg"},{"bike_id":"8d0df3cf-b239-4402-bdf1-b9cb92b9e22a","system_id":"levelo_inurba_marseille","lat":43.32368,"lon":5.38885,"is_reserved":false,"is_disabled":false,"rental_uris":{"android":"levelo://app?vid=8d0df3cf-b239-4402-bdf1-b9cb92b9e22a","ios":"levelo://app?vid=8d0df3cf-b239-4402-bdf1-b9cb92b9e22a"},"vehicle_type_id":"4","last_reported":1716221372,"current_range_meters":11600,"station_id":"ce4bhqp2rcd13ifvqhog","pricing_plan_id":"cebpf4jnsgd1na2vs0mg"},{"bike_id":"fe7b533b-47d2-48d4-bb3c-75d72b78dc56","system_id":"levelo_inurba_marseille","lat":43.32372,"lon":5.38888,"is_reserved":false,"is_disabled":false,"rental_uris":{"android":"levelo://app?vid=fe7b533b-47d2-48d4-bb3c-75d72b78dc56","ios":"levelo://app?vid=fe7b533b-47d2-48d4-bb3c-75d72b78dc56"},"vehicle_type_id":"4","last_reported":1716221372,"current_range_meters":13600,"station_id":"ce4bhqp2rcd13ifvqhog","pricing_plan_id":"cebpf4jnsgd1na2vs0mg"},{"bike_id":"e9909491-64d6-4f41-bb1d-4969733d83fb","system_id":"levelo_inurba_marseille","lat":43.29616,"lon":5.38106,"is_reserved":false,"is_disabled":false,"rental_uris":{"android":"levelo://app?vid=e9909491-64d6-4f41-bb1d-4969733d83fb","ios":"levelo://app?vid=e9909491-64d6-4f41-bb1d-4969733d83fb"},"vehicle_type_id":"4","last_reported":1716221372,"current_range_meters":8800,"station_id":"ce4bgl12rcd13ifvqbo0","pricing_plan_id":"cebpf4jnsgd1na2vs0mg"},{"bike_id":"81391891-dc8b-45cf-bd1f-5ca83f71f382","system_id":"levelo_inurba_marseille","lat":43.29602,"lon":5.381084,"is_reserved":false,"is_disabled":false,"rental_uris":{"android":"levelo://app?vid=81391891-dc8b-45cf-bd1f-5ca83f71f382","ios":"levelo://app?vid=81391891-dc8b-45cf-bd1f-5ca83f71f382"},"vehicle_type_id":"4","last_reported":1716221372,"current_range_meters":24400,"station_id":"ce4bgl12rcd13ifvqbo0","pricing_plan_id":"cebpf4jnsgd1na2vs0mg"},{"bike_id":"8033bbb3-1b48-4e6e-90a7-14a5e7f409b4","system_id":"levelo_inurba_marseille","lat":43.29602,"lon":5.381084,"is_reserved":false,"is_disabled":false,"rental_uris":{"android":"levelo://app?vid=8033bbb3-1b48-4e6e-90a7-14a5e7f409b4","ios":"levelo://app?vid=8033bbb3-1b48-4e6e-90a7-14a5e7f409b4"},"vehicle_type_id":"4","last_reported":1716221372,"current_range_meters":20400,"station_id":"ce4bgl12rcd13ifvqbo0","pricing_plan_id":"cebpf4jnsgd1na2vs0mg"},{"bike_id":"e7ba6ac0-3180-48e9-aba3-705e25635543","system_id":"levelo_inurba_marseille","lat":43.29602,"lon":5.381084,"is_reserved":false,"is_disabled":false,"rental_uris":{"android":"levelo://app?vid=e7ba6ac0-3180-48e9-aba3-705e25635543","ios":"levelo://app?vid=e7ba6ac0-3180-48e9-aba3-705e25635543"},"vehicle_type_id":"4","last_reported":1716221372,"current_range_meters":5600,"station_id":"ce4bgl12rcd13ifvqbo0","pricing_plan_id":"cebpf4jnsgd1na2vs0mg"},{"bike_id":"c61f1adf-fc0e-47a2-9dd7-986b62d588fd","system_id":"levelo_inurba_marseille","lat":43.29602,"lon":5.381084,"is_reserved":false,"is_disabled":false,"rental_uris":{"android":"levelo://app?vid=c61f1adf-fc0e-47a2-9dd7-986b62d588fd","ios":"levelo://app?vid=c61f1adf-fc0e-47a2-9dd7-986b62d588fd"},"vehicle_type_id":"4","last_reported":1716221372,"current_range_meters":28000,"station_id":"ce4bgl12rcd13ifvqbo0","pricing_plan_id":"cebpf4jnsgd1na2vs0mg"},{"bike_id":"caf295ef-4033-4992-83d3-c46d9329552f","system_id":"levelo_inurba_marseille","lat":43.292749,"lon":5.368402,"is_reserved":false,"is_disabled":false,"rental_uris":{"android":"levelo://app?vid=caf295ef-4033-4992-83d3-c46d9329552f","ios":"levelo://app?vid=caf295ef-4033-4992-83d3-c46d9329552f"},"vehicle_type_id":"4","last_reported":1716221372,"current_range_meters":16400,"station_id":"ce4bhbp2rcd13ifvqesg","pricing_plan_id":"cebpf4jnsgd1na2vs0mg"},{"bike_id":"b0103c1b-bd76-42c7-89c7-a3c8c3257259","system_id":"levelo_inurba_marseille","lat":43.293259,"lon":5.371586,"is_reserved":false,"is_disabled":false,"rental_uris":{"android":"levelo://app?vid=b0103c1b-bd76-42c7-89c7-a3c8c3257259","ios":"levelo://app?vid=b0103c1b-bd76-42c7-89c7-a3c8c3257259"},"vehicle_type_id":"4","last_reported":1716221372,"current_range_meters":400,"station_id":"ce4bgh92rcd13ifvqb40","pricing_plan_id":"cebpf4jnsgd1na2vs0mg"},{"bike_id":"104a4782-3c48-48fc-8c94-5b217cf6d23c","system_id":"levelo_inurba_marseille","lat":43.292749,"lon":5.368398,"is_reserved":false,"is_disabled":false,"rental_uris":{"android":"levelo://app?vid=104a4782-3c48-48fc-8c94-5b217cf6d23c","ios":"levelo://app?vid=104a4782-3c48-48fc-8c94-5b217cf6d23c"},"vehicle_type_id":"4","last_reported":1716221372,"current_range_meters":21200,"station_id":"ce4bhbp2rcd13ifvqesg","pricing_plan_id":"cebpf4jnsgd1na2vs0mg"},{"bike_id":"5abbaa25-e623-47ff-8dbb-2f71ab3f0a67","system_id":"levelo_inurba_marseille","lat":43.293009,"lon":5.374584,"is_reserved":false,"is_disabled":false,"rental_uris":{"android":"levelo://app?vid=5abbaa25-e623-47ff-8dbb-2f71ab3f0a67","ios":"levelo://app?vid=5abbaa25-e623-47ff-8dbb-2f71ab3f0a67"},"vehicle_type_id":"4","last_reported":1716221372,"current_range_meters":12000,"station_id":"ce4bgi12rcd13ifvqb70","pricing_plan_id":"cebpf4jnsgd1na2vs0mg"},{"bike_id":"d963e3ce-6dd5-494c-9f36-fc550318930a","system_id":"levelo_inurba_marseille","lat":43.293009,"lon":5.374584,"is_reserved":false,"is_disabled":false,"rental_uris":{"android":"levelo://app?vid=d963e3ce-6dd5-494c-9f36-fc550318930a","ios":"levelo://app?vid=d963e3ce-6dd5-494c-9f36-fc550318930a"},"vehicle_type_id":"4","last_reported":1716221372,"current_range_meters":800,"station_id":"ce4bgi12rcd13ifvqb70","pricing_plan_id":"cebpf4jnsgd1na2vs0mg"},{"bike_id":"c891c3f2-bc28-4e3b-9149-e784f619649b","system_id":"levelo_inurba_marseille","lat":43.293009,"lon":5.374584,"is_reserved":false,"is_disabled":false,"rental_uris":{"android":"levelo://app?vid=c891c3f2-bc28-4e3b-9149-e784f619649b","ios":"levelo://app?vid=c891c3f2-bc28-4e3b-9149-e784f619649b"},"vehicle_type_id":"4","last_reported":1716221372,"current_range_meters":17200,"station_id":"ce4bgi12rcd13ifvqb70","pricing_plan_id":"cebpf4jnsgd1na2vs0mg"},{"bike_id":"e8c0eed5-564b-4bf0-ad9d-5d845da1739d","system_id":"levelo_inurba_marseille","lat":43.305994,"lon":5.393687,"is_reserved":false,"is_disabled":false,"rental_uris":{"android":"levelo://app?vid=e8c0eed5-564b-4bf0-ad9d-5d845da1739d","ios":"levelo://app?vid=e8c0eed5-564b-4bf0-ad9d-5d845da1739d"},"vehicle_type_id":"4","last_reported":1716221372,"current_range_meters":6800,"station_id":"ce4bh0p2rcd13ifvqd80","pricing_plan_id":"cebpf4jnsgd1na2vs0mg"},{"bike_id":"eb38fa18-3ef2-40ad-930e-c43e9bab7109","system_id":"levelo_inurba_marseille","lat":43.305994,"lon":5.393687,"is_reserved":false,"is_disabled":false,"rental_uris":{"android":"levelo://app?vid=eb38fa18-3ef2-40ad-930e-c43e9bab7109","ios":"levelo://app?vid=eb38fa18-3ef2-40ad-930e-c43e9bab7109"},"vehicle_type_id":"4","last_reported":1716221372,"current_range_meters":13200,"station_id":"ce4bh0p2rcd13ifvqd80","pricing_plan_id":"cebpf4jnsgd1na2vs0mg"},{"bike_id":"56b94f56-e3c4-4d69-a060-6b9050f049c8","system_id":"levelo_inurba_marseille","lat":43.2929,"lon":5.37448,"is_reserved":false,"is_disabled":false,"rental_uris":{"android":"levelo://app?vid=56b94f56-e3c4-4d69-a060-6b9050f049c8","ios":"levelo://app?vid=56b94f56-e3c4-4d69-a060-6b9050f049c8"},"vehicle_type_id":"4","last_reported":1716221372,"current_range_meters":8400,"station_id":"ce4bhhh2rcd13ifvqfk0","pricing_plan_id":"cebpf4jnsgd1na2vs0mg"},{"bike_id":"2a6e4192-5616-4c30-b2e6-7f581301e5a3","system_id":"levelo_inurba_marseille","lat":43.305994,"lon":5.393687,"is_reserved":false,"is_disabled":false,"rental_uris":{"android":"levelo://app?vid=2a6e4192-5616-4c30-b2e6-7f581301e5a3","ios":"levelo://app?vid=2a6e4192-5616-4c30-b2e6-7f581301e5a3"},"vehicle_type_id":"4","last_reported":1716221372,"current_range_meters":3600,"station_id":"ce4bh0p2rcd13ifvqd80","pricing_plan_id":"cebpf4jnsgd1na2vs0mg"},{"bike_id":"3ec32980-5eff-4b54-a7f7-542c9a9381ab","system_id":"levelo_inurba_marseille","lat":43.302992,"lon":5.392136,"is_reserved":false,"is_disabled":false,"rental_uris":{"android":"levelo://app?vid=3ec32980-5eff-4b54-a7f7-542c9a9381ab","ios":"levelo://app?vid=3ec32980-5eff-4b54-a7f7-542c9a9381ab"},"vehicle_type_id":"4","last_reported":1716221372,"current_range_meters":0,"station_id":"ce4bgkh2rcd13ifvqbk0","pricing_plan_id":"cebpf4jnsgd1na2vs0mg"},{"bike_id":"1f8b358c-ec6c-4384-8c5c-ae3a0c057e57","system_id":"levelo_inurba_marseille","lat":43.30098,"lon":5.390799,"is_reserved":false,"is_disabled":false,"rental_uris":{"android":"levelo://app?vid=1f8b358c-ec6c-4384-8c5c-ae3a0c057e57","ios":"levelo://app?vid=1f8b358c-ec6c-4384-8c5c-ae3a0c057e57"},"vehicle_type_id":"4","last_reported":1716221372,"current_range_meters":25200,"station_id":"","pricing_plan_id":"cebpf4jnsgd1na2vs0mg"},{"bike_id":"002b7de7-c14d-4e57-85e2-866c3ec258f6","system_id":"levelo_inurba_marseille","lat":43.295713,"lon":5.399639,"is_reserved":false,"is_disabled":false,"rental_uris":{"android":"levelo://app?vid=002b7de7-c14d-4e57-85e2-866c3ec258f6","ios":"levelo://app?vid=002b7de7-c14d-4e57-85e2-866c3ec258f6"},"vehicle_type_id":"4","last_reported":1716221372,"current_range_meters":28800,"station_id":"ce4bh312rcd13ifvqdj0","pricing_plan_id":"cebpf4jnsgd1na2vs0mg"},{"bike_id":"45a821c1-79d0-466b-9c52-10c6aa69e45f","system_id":"levelo_inurba_marseille","lat":43.292311,"lon":5.360731,"is_reserved":false,"is_disabled":false,"rental_uris":{"android":"levelo://app?vid=45a821c1-79d0-466b-9c52-10c6aa69e45f","ios":"levelo://app?vid=45a821c1-79d0-466b-9c52-10c6aa69e45f"},"vehicle_type_id":"4","last_reported":1716221372,"current_range_meters":13600,"station_id":"ce4bhbh2rcd13ifvqeqg","pricing_plan_id":"cebpf4jnsgd1na2vs0mg"},{"bike_id":"00503ce8-9edf-4f9b-a51c-7b767c9d3bd2","system_id":"levelo_inurba_marseille","lat":43.292215,"lon":5.360435,"is_reserved":false,"is_disabled":false,"rental_uris":{"android":"levelo://app?vid=00503ce8-9edf-4f9b-a51c-7b767c9d3bd2","ios":"levelo://app?vid=00503ce8-9edf-4f9b-a51c-7b767c9d3bd2"},"vehicle_type_id":"4","last_reported":1716221372,"current_range_meters":26000,"station_id":"ce4bhbh2rcd13ifvqeqg","pricing_plan_id":"cebpf4jnsgd1na2vs0mg"},{"bike_id":"da08008c-4b57-4fc5-8da8-8a0bd7c611ab","system_id":"levelo_inurba_marseille","lat":43.291671,"lon":5.371575,"is_reserved":false,"is_disabled":false,"rental_uris":{"android":"levelo://app?vid=da08008c-4b57-4fc5-8da8-8a0bd7c611ab","ios":"levelo://app?vid=da08008c-4b57-4fc5-8da8-8a0bd7c611ab"},"vehicle_type_id":"4","last_reported":1716221372,"current_range_meters":9200,"station_id":"ce4bha92rcd13ifvqeh0","pricing_plan_id":"cebpf4jnsgd1na2vs0mg"},{"bike_id":"a8dfdb39-e2a9-4c0a-9470-395203a23dde","system_id":"levelo_inurba_marseille","lat":43.291671,"lon":5.371575,"is_reserved":false,"is_disabled":false,"rental_uris":{"android":"levelo://app?vid=a8dfdb39-e2a9-4c0a-9470-395203a23dde","ios":"levelo://app?vid=a8dfdb39-e2a9-4c0a-9470-395203a23dde"},"vehicle_type_id":"4","last_reported":1716221372,"current_range_meters":12000,"station_id":"ce4bha92rcd13ifvqeh0","pricing_plan_id":"cebpf4jnsgd1na2vs0mg"},{"bike_id":"164f8f1f-ee3c-4c0b-b6b5-ec17fb485d10","system_id":"levelo_inurba_marseille","lat":43.291675,"lon":5.371583,"is_reserved":false,"is_disabled":false,"rental_uris":{"android":"levelo://app?vid=164f8f1f-ee3c-4c0b-b6b5-ec17fb485d10","ios":"levelo://app?vid=164f8f1f-ee3c-4c0b-b6b5-ec17fb485d10"},"vehicle_type_id":"4","last_reported":1716221372,"current_range_meters":6000,"station_id":"ce4bha92rcd13ifvqeh0","pricing_plan_id":"cebpf4jnsgd1na2vs0mg"},{"bike_id":"3e81f055-3dfd-4cfe-9294-cb3f84b14f5c","system_id":"levelo_inurba_marseille","lat":43.298764,"lon":5.388973,"is_reserved":false,"is_disabled":false,"rental_uris":{"android":"levelo://app?vid=3e81f055-3dfd-4cfe-9294-cb3f84b14f5c","ios":"levelo://app?vid=3e81f055-3dfd-4cfe-9294-cb3f84b14f5c"},"vehicle_type_id":"4","last_reported":1716221372,"current_range_meters":11600,"station_id":"ce4bh392rcd13ifvqdl0","pricing_plan_id":"cebpf4jnsgd1na2vs0mg"},{"bike_id":"529852d2-afd8-4a33-86fd-b55517fd063e","system_id":"levelo_inurba_marseille","lat":43.313291,"lon":5.396838,"is_reserved":false,"is_disabled":false,"rental_uris":{"android":"levelo://app?vid=529852d2-afd8-4a33-86fd-b55517fd063e","ios":"levelo://app?vid=529852d2-afd8-4a33-86fd-b55517fd063e"},"vehicle_type_id":"4","last_reported":1716221372,"current_range_meters":0,"station_id":"ce4bgvp2rcd13ifvqcu0","pricing_plan_id":"cebpf4jnsgd1na2vs0mg"},{"bike_id":"c99072b3-c018-4aeb-a332-53527e833cb9","system_id":"levelo_inurba_marseille","lat":43.29529,"lon":5.385581,"is_reserved":false,"is_disabled":false,"rental_uris":{"android":"levelo://app?vid=c99072b3-c018-4aeb-a332-53527e833cb9","ios":"levelo://app?vid=c99072b3-c018-4aeb-a332-53527e833cb9"},"vehicle_type_id":"4","last_reported":1716221372,"current_range_meters":5200,"station_id":"ce4bgih2rcd13ifvqba0","pricing_plan_id":"cebpf4jnsgd1na2vs0mg"},{"bike_id":"c3aef7e6-d032-464d-a1db-a37620690c19","system_id":"levelo_inurba_marseille","lat":43.313291,"lon":5.396838,"is_reserved":false,"is_disabled":false,"rental_uris":{"android":"levelo://app?vid=c3aef7e6-d032-464d-a1db-a37620690c19","ios":"levelo://app?vid=c3aef7e6-d032-464d-a1db-a37620690c19"},"vehicle_type_id":"4","last_reported":1716221372,"current_range_meters":6800,"station_id":"ce4bgvp2rcd13ifvqcu0","pricing_plan_id":"cebpf4jnsgd1na2vs0mg"},{"bike_id":"2c487f9b-537c-40ef-906a-6afdd1635368","system_id":"levelo_inurba_marseille","lat":43.291994,"lon":5.357886,"is_reserved":false,"is_disabled":false,"rental_uris":{"android":"levelo://app?vid=2c487f9b-537c-40ef-906a-6afdd1635368","ios":"levelo://app?vid=2c487f9b-537c-40ef-906a-6afdd1635368"},"vehicle_type_id":"4","last_reported":1716221372,"current_range_meters":30400,"station_id":"ce4bhb12rcd13ifvqel0","pricing_plan_id":"cebpf4jnsgd1na2vs0mg"},{"bike_id":"83374500-ede9-4ff3-a8cc-49f36484a2eb","system_id":"levelo_inurba_marseille","lat":43.292005,"lon":5.357875,"is_reserved":false,"is_disabled":false,"rental_uris":{"android":"levelo://app?vid=83374500-ede9-4ff3-a8cc-49f36484a2eb","ios":"levelo://app?vid=83374500-ede9-4ff3-a8cc-49f36484a2eb"},"vehicle_type_id":"4","last_reported":1716221372,"current_range_meters":16400,"station_id":"ce4bhb12rcd13ifvqel0","pricing_plan_id":"cebpf4jnsgd1na2vs0mg"},{"bike_id":"3aadbeea-9a00-4aff-88c1-eacfe16ddd44","system_id":"levelo_inurba_marseille","lat":43.291994,"lon":5.357886,"is_reserved":false,"is_disabled":false,"rental_uris":{"android":"levelo://app?vid=3aadbeea-9a00-4aff-88c1-eacfe16ddd44","ios":"levelo://app?vid=3aadbeea-9a00-4aff-88c1-eacfe16ddd44"},"vehicle_type_id":"4","last_reported":1716221372,"current_range_meters":5600,"station_id":"ce4bhb12rcd13ifvqel0","pricing_plan_id":"cebpf4jnsgd1na2vs0mg"},{"bike_id":"613f2bf8-44d7-4ecd-92df-09910510ebe1","system_id":"levelo_inurba_marseille","lat":43.291948,"lon":5.357875,"is_reserved":false,"is_disabled":false,"rental_uris":{"android":"levelo://app?vid=613f2bf8-44d7-4ecd-92df-09910510ebe1","ios":"levelo://app?vid=613f2bf8-44d7-4ecd-92df-09910510ebe1"},"vehicle_type_id":"4","last_reported":1716221372,"current_range_meters":30800,"station_id":"ce4bhb12rcd13ifvqel0","pricing_plan_id":"cebpf4jnsgd1na2vs0mg"},{"bike_id":"6fdfb385-cc3c-40a7-9562-797a1b337726","system_id":"levelo_inurba_marseille","lat":43.3133,"lon":5.3969,"is_reserved":false,"is_disabled":false,"rental_uris":{"android":"levelo://app?vid=6fdfb385-cc3c-40a7-9562-797a1b337726","ios":"levelo://app?vid=6fdfb385-cc3c-40a7-9562-797a1b337726"},"vehicle_type_id":"4","last_reported":1716221372,"current_range_meters":30000,"station_id":"ce4bgvp2rcd13ifvqcu0","pricing_plan_id":"cebpf4jnsgd1na2vs0mg"},{"bike_id":"cbcbac3f-5347-44c0-89cc-6c9ecbf44aeb","system_id":"levelo_inurba_marseille","lat":43.313291,"lon":5.396838,"is_reserved":false,"is_disabled":false,"rental_uris":{"android":"levelo://app?vid=cbcbac3f-5347-44c0-89cc-6c9ecbf44aeb","ios":"levelo://app?vid=cbcbac3f-5347-44c0-89cc-6c9ecbf44aeb"},"vehicle_type_id":"4","last_reported":1716221372,"current_range_meters":6400,"station_id":"ce4bgvp2rcd13ifvqcu0","pricing_plan_id":"cebpf4jnsgd1na2vs0mg"},{"bike_id":"5ce8be43-9e96-4c04-84d6-ff3875da247a","system_id":"levelo_inurba_marseille","lat":43.313291,"lon":5.396838,"is_reserved":false,"is_disabled":false,"rental_uris":{"android":"levelo://app?vid=5ce8be43-9e96-4c04-84d6-ff3875da247a","ios":"levelo://app?vid=5ce8be43-9e96-4c04-84d6-ff3875da247a"},"vehicle_type_id":"4","last_reported":1716221372,"current_range_meters":20400,"station_id":"ce4bgvp2rcd13ifvqcu0","pricing_plan_id":"cebpf4jnsgd1na2vs0mg"},{"bike_id":"6734235b-a7ac-490d-98d4-8693f7a78d2d","system_id":"levelo_inurba_marseille","lat":43.29529,"lon":5.385581,"is_reserved":false,"is_disabled":false,"rental_uris":{"android":"levelo://app?vid=6734235b-a7ac-490d-98d4-8693f7a78d2d","ios":"levelo://app?vid=6734235b-a7ac-490d-98d4-8693f7a78d2d"},"vehicle_type_id":"4","last_reported":1716221372,"current_range_meters":24800,"station_id":"ce4bgih2rcd13ifvqba0","pricing_plan_id":"cebpf4jnsgd1na2vs0mg"},{"bike_id":"9e911fd3-d22f-4334-9b62-fbbf2ffa7e32","system_id":"levelo_inurba_marseille","lat":43.313394,"lon":5.396966,"is_reserved":false,"is_disabled":false,"rental_uris":{"android":"levelo://app?vid=9e911fd3-d22f-4334-9b62-fbbf2ffa7e32","ios":"levelo://app?vid=9e911fd3-d22f-4334-9b62-fbbf2ffa7e32"},"vehicle_type_id":"4","last_reported":1716221372,"current_range_meters":25200,"station_id":"ce4bgvp2rcd13ifvqcu0","pricing_plan_id":"cebpf4jnsgd1na2vs0mg"},{"bike_id":"1a6c4f83-dc5c-4c18-ab3f-d0dd058f8f6d","system_id":"levelo_inurba_marseille","lat":43.313291,"lon":5.396838,"is_reserved":false,"is_disabled":false,"rental_uris":{"android":"levelo://app?vid=1a6c4f83-dc5c-4c18-ab3f-d0dd058f8f6d","ios":"levelo://app?vid=1a6c4f83-dc5c-4c18-ab3f-d0dd058f8f6d"},"vehicle_type_id":"4","last_reported":1716221372,"current_range_meters":12000,"station_id":"ce4bgvp2rcd13ifvqcu0","pricing_plan_id":"cebpf4jnsgd1na2vs0mg"},{"bike_id":"735c5c3d-68db-422d-bd31-5aaac407e883","system_id":"levelo_inurba_marseille","lat":43.29529,"lon":5.385581,"is_reserved":false,"is_disabled":false,"rental_uris":{"android":"levelo://app?vid=735c5c3d-68db-422d-bd31-5aaac407e883","ios":"levelo://app?vid=735c5c3d-68db-422d-bd31-5aaac407e883"},"vehicle_type_id":"4","last_reported":1716221372,"current_range_meters":25600,"station_id":"ce4bgih2rcd13ifvqba0","pricing_plan_id":"cebpf4jnsgd1na2vs0mg"},{"bike_id":"01f42f30-93fc-49c1-b0bd-23962bb8745d","system_id":"levelo_inurba_marseille","lat":43.309047,"lon":5.396551,"is_reserved":false,"is_disabled":false,"rental_uris":{"android":"levelo://app?vid=01f42f30-93fc-49c1-b0bd-23962bb8745d","ios":"levelo://app?vid=01f42f30-93fc-49c1-b0bd-23962bb8745d"},"vehicle_type_id":"4","last_reported":1716221372,"current_range_meters":24000,"station_id":"ce4bh012rcd13ifvqcv0","pricing_plan_id":"cebpf4jnsgd1na2vs0mg"},{"bike_id":"5f3feb63-32d4-4957-8e7d-4574f759d741","system_id":"levelo_inurba_marseille","lat":43.309038,"lon":5.396546,"is_reserved":false,"is_disabled":false,"rental_uris":{"android":"levelo://app?vid=5f3feb63-32d4-4957-8e7d-4574f759d741","ios":"levelo://app?vid=5f3feb63-32d4-4957-8e7d-4574f759d741"},"vehicle_type_id":"4","last_reported":1716221372,"current_range_meters":12800,"station_id":"ce4bh012rcd13ifvqcv0","pricing_plan_id":"cebpf4jnsgd1na2vs0mg"},{"bike_id":"091b4b5e-da0e-48d7-9e77-d8f7d04dca7e","system_id":"levelo_inurba_marseille","lat":43.29529,"lon":5.385581,"is_reserved":false,"is_disabled":false,"rental_uris":{"android":"levelo://app?vid=091b4b5e-da0e-48d7-9e77-d8f7d04dca7e","ios":"levelo://app?vid=091b4b5e-da0e-48d7-9e77-d8f7d04dca7e"},"vehicle_type_id":"4","last_reported":1716221372,"current_range_meters":19600,"station_id":"ce4bgih2rcd13ifvqba0","pricing_plan_id":"cebpf4jnsgd1na2vs0mg"},{"bike_id":"23f57e40-fe83-49e5-a796-529faf2d95ef","system_id":"levelo_inurba_marseille","lat":43.29529,"lon":5.385581,"is_reserved":false,"is_disabled":false,"rental_uris":{"android":"levelo://app?vid=23f57e40-fe83-49e5-a796-529faf2d95ef","ios":"levelo://app?vid=23f57e40-fe83-49e5-a796-529faf2d95ef"},"vehicle_type_id":"4","last_reported":1716221372,"current_range_meters":20400,"station_id":"ce4bgih2rcd13ifvqba0","pricing_plan_id":"cebpf4jnsgd1na2vs0mg"},{"bike_id":"b49741a8-4112-43d2-8229-7f87f02ce2d8","system_id":"levelo_inurba_marseille","lat":43.29538,"lon":5.38543,"is_reserved":false,"is_disabled":false,"rental_uris":{"android":"levelo://app?vid=b49741a8-4112-43d2-8229-7f87f02ce2d8","ios":"levelo://app?vid=b49741a8-4112-43d2-8229-7f87f02ce2d8"},"vehicle_type_id":"4","last_reported":1716221372,"current_range_meters":400,"station_id":"ce4bgih2rcd13ifvqba0","pricing_plan_id":"cebpf4jnsgd1na2vs0mg"},{"bike_id":"03d2c921-2f68-4f1e-9c28-830aa7076ede","system_id":"levelo_inurba_marseille","lat":43.29529,"lon":5.385581,"is_reserved":false,"is_disabled":false,"rental_uris":{"android":"levelo://app?vid=03d2c921-2f68-4f1e-9c28-830aa7076ede","ios":"levelo://app?vid=03d2c921-2f68-4f1e-9c28-830aa7076ede"},"vehicle_type_id":"4","last_reported":1716221372,"current_range_meters":23600,"station_id":"ce4bgih2rcd13ifvqba0","pricing_plan_id":"cebpf4jnsgd1na2vs0mg"},{"bike_id":"dfa15848-88e8-493b-8898-776959e91e9f","system_id":"levelo_inurba_marseille","lat":43.29535,"lon":5.38545,"is_reserved":false,"is_disabled":false,"rental_uris":{"android":"levelo://app?vid=dfa15848-88e8-493b-8898-776959e91e9f","ios":"levelo://app?vid=dfa15848-88e8-493b-8898-776959e91e9f"},"vehicle_type_id":"4","last_reported":1716221372,"current_range_meters":400,"station_id":"ce4bgih2rcd13ifvqba0","pricing_plan_id":"cebpf4jnsgd1na2vs0mg"},{"bike_id":"cb92d645-ca99-44dc-ab2f-f638e2d3cc36","system_id":"levelo_inurba_marseille","lat":43.29529,"lon":5.385581,"is_reserved":false,"is_disabled":false,"rental_uris":{"android":"levelo://app?vid=cb92d645-ca99-44dc-ab2f-f638e2d3cc36","ios":"levelo://app?vid=cb92d645-ca99-44dc-ab2f-f638e2d3cc36"},"vehicle_type_id":"4","last_reported":1716221372,"current_range_meters":3200,"station_id":"ce4bgih2rcd13ifvqba0","pricing_plan_id":"cebpf4jnsgd1na2vs0mg"},{"bike_id":"a9bbab44-4c58-4e32-bc3b-1878d405fe94","system_id":"levelo_inurba_marseille","lat":43.29529,"lon":5.385581,"is_reserved":false,"is_disabled":false,"rental_uris":{"android":"levelo://app?vid=a9bbab44-4c58-4e32-bc3b-1878d405fe94","ios":"levelo://app?vid=a9bbab44-4c58-4e32-bc3b-1878d405fe94"},"vehicle_type_id":"4","last_reported":1716221372,"current_range_meters":0,"station_id":"ce4bgih2rcd13ifvqba0","pricing_plan_id":"cebpf4jnsgd1na2vs0mg"},{"bike_id":"56114016-2de5-4225-93db-47c3b55131ff","system_id":"levelo_inurba_marseille","lat":43.29529,"lon":5.385581,"is_reserved":false,"is_disabled":false,"rental_uris":{"android":"levelo://app?vid=56114016-2de5-4225-93db-47c3b55131ff","ios":"levelo://app?vid=56114016-2de5-4225-93db-47c3b55131ff"},"vehicle_type_id":"4","last_reported":1716221372,"current_range_meters":4800,"station_id":"ce4bgih2rcd13ifvqba0","pricing_plan_id":"cebpf4jnsgd1na2vs0mg"},{"bike_id":"a601a69e-d531-4e0b-a091-4d03f787e4e4","system_id":"levelo_inurba_marseille","lat":43.29529,"lon":5.385581,"is_reserved":false,"is_disabled":false,"rental_uris":{"android":"levelo://app?vid=a601a69e-d531-4e0b-a091-4d03f787e4e4","ios":"levelo://app?vid=a601a69e-d531-4e0b-a091-4d03f787e4e4"},"vehicle_type_id":"4","last_reported":1716221372,"current_range_meters":14800,"station_id":"ce4bgih2rcd13ifvqba0","pricing_plan_id":"cebpf4jnsgd1na2vs0mg"},{"bike_id":"9f927b45-bedd-4b4b-9a30-c37768a22c27","system_id":"levelo_inurba_marseille","lat":43.29529,"lon":5.385581,"is_reserved":false,"is_disabled":false,"rental_uris":{"android":"levelo://app?vid=9f927b45-bedd-4b4b-9a30-c37768a22c27","ios":"levelo://app?vid=9f927b45-bedd-4b4b-9a30-c37768a22c27"},"vehicle_type_id":"4","last_reported":1716221372,"current_range_meters":15600,"station_id":"ce4bgih2rcd13ifvqba0","pricing_plan_id":"cebpf4jnsgd1na2vs0mg"},{"bike_id":"d078dfb7-a563-417d-ab5b-3cad2447bbe7","system_id":"levelo_inurba_marseille","lat":43.29529,"lon":5.385581,"is_reserved":false,"is_disabled":false,"rental_uris":{"android":"levelo://app?vid=d078dfb7-a563-417d-ab5b-3cad2447bbe7","ios":"levelo://app?vid=d078dfb7-a563-417d-ab5b-3cad2447bbe7"},"vehicle_type_id":"4","last_reported":1716221372,"current_range_meters":12400,"station_id":"ce4bgih2rcd13ifvqba0","pricing_plan_id":"cebpf4jnsgd1na2vs0mg"},{"bike_id":"cebc4eb5-fe5a-4d53-bcb9-f563575cf526","system_id":"levelo_inurba_marseille","lat":43.290624,"lon":5.359245,"is_reserved":false,"is_disabled":false,"rental_uris":{"android":"levelo://app?vid=cebc4eb5-fe5a-4d53-bcb9-f563575cf526","ios":"levelo://app?vid=cebc4eb5-fe5a-4d53-bcb9-f563575cf526"},"vehicle_type_id":"4","last_reported":1716221372,"current_range_meters":11600,"station_id":"ce4bha92rcd13ifvqeg0","pricing_plan_id":"cebpf4jnsgd1na2vs0mg"},{"bike_id":"35db33cd-7eaf-4a60-9107-fec485fdc416","system_id":"levelo_inurba_marseille","lat":43.302213,"lon":5.394512,"is_reserved":false,"is_disabled":false,"rental_uris":{"android":"levelo://app?vid=35db33cd-7eaf-4a60-9107-fec485fdc416","ios":"levelo://app?vid=35db33cd-7eaf-4a60-9107-fec485fdc416"},"vehicle_type_id":"4","last_reported":1716221372,"current_range_meters":6000,"station_id":"ce4bh0p2rcd13ifvqd70","pricing_plan_id":"cebpf4jnsgd1na2vs0mg"},{"bike_id":"092e381b-c753-4c75-8f20-090c138a577d","system_id":"levelo_inurba_marseille","lat":43.302008,"lon":5.394694,"is_reserved":false,"is_disabled":false,"rental_uris":{"android":"levelo://app?vid=092e381b-c753-4c75-8f20-090c138a577d","ios":"levelo://app?vid=092e381b-c753-4c75-8f20-090c138a577d"},"vehicle_type_id":"4","last_reported":1716221372,"current_range_meters":29600,"station_id":"ce4bh0p2rcd13ifvqd70","pricing_plan_id":"cebpf4jnsgd1na2vs0mg"},{"bike_id":"7d2a1076-89de-4419-98ef-0919c3c30361","system_id":"levelo_inurba_marseille","lat":43.302008,"lon":5.394694,"is_reserved":false,"is_disabled":false,"rental_uris":{"android":"levelo://app?vid=7d2a1076-89de-4419-98ef-0919c3c30361","ios":"levelo://app?vid=7d2a1076-89de-4419-98ef-0919c3c30361"},"vehicle_type_id":"4","last_reported":1716221372,"current_range_meters":5600,"station_id":"ce4bh0p2rcd13ifvqd70","pricing_plan_id":"cebpf4jnsgd1na2vs0mg"},{"bike_id":"3b5c34fc-b4c2-416b-8e0e-b33469d86012","system_id":"levelo_inurba_marseille","lat":43.290624,"lon":5.359245,"is_reserved":false,"is_disabled":false,"rental_uris":{"android":"levelo://app?vid=3b5c34fc-b4c2-416b-8e0e-b33469d86012","ios":"levelo://app?vid=3b5c34fc-b4c2-416b-8e0e-b33469d86012"},"vehicle_type_id":"4","last_reported":1716221372,"current_range_meters":18400,"station_id":"ce4bha92rcd13ifvqeg0","pricing_plan_id":"cebpf4jnsgd1na2vs0mg"},{"bike_id":"7105cc99-fc01-4190-8512-97c25a96c57e","system_id":"levelo_inurba_marseille","lat":43.294162,"lon":5.386292,"is_reserved":false,"is_disabled":false,"rental_uris":{"android":"levelo://app?vid=7105cc99-fc01-4190-8512-97c25a96c57e","ios":"levelo://app?vid=7105cc99-fc01-4190-8512-97c25a96c57e"},"vehicle_type_id":"4","last_reported":1716221372,"current_range_meters":30000,"station_id":"ce4bh2h2rcd13ifvqdh0","pricing_plan_id":"cebpf4jnsgd1na2vs0mg"},{"bike_id":"8fad7972-d1ab-4998-92e0-cff28c81dbb9","system_id":"levelo_inurba_marseille","lat":43.290624,"lon":5.359245,"is_reserved":false,"is_disabled":false,"rental_uris":{"android":"levelo://app?vid=8fad7972-d1ab-4998-92e0-cff28c81dbb9","ios":"levelo://app?vid=8fad7972-d1ab-4998-92e0-cff28c81dbb9"},"vehicle_type_id":"4","last_reported":1716221372,"current_range_meters":10000,"station_id":"ce4bha92rcd13ifvqeg0","pricing_plan_id":"cebpf4jnsgd1na2vs0mg"},{"bike_id":"f7471f58-d7ae-4f3c-aa7d-5d831e074b5c","system_id":"levelo_inurba_marseille","lat":43.290624,"lon":5.359245,"is_reserved":false,"is_disabled":false,"rental_uris":{"android":"levelo://app?vid=f7471f58-d7ae-4f3c-aa7d-5d831e074b5c","ios":"levelo://app?vid=f7471f58-d7ae-4f3c-aa7d-5d831e074b5c"},"vehicle_type_id":"4","last_reported":1716221372,"current_range_meters":9600,"station_id":"ce4bha92rcd13ifvqeg0","pricing_plan_id":"cebpf4jnsgd1na2vs0mg"},{"bike_id":"47c2cd51-13f8-4d6b-9c2b-bb4fdde75596","system_id":"levelo_inurba_marseille","lat":43.290624,"lon":5.359245,"is_reserved":false,"is_disabled":false,"rental_uris":{"android":"levelo://app?vid=47c2cd51-13f8-4d6b-9c2b-bb4fdde75596","ios":"levelo://app?vid=47c2cd51-13f8-4d6b-9c2b-bb4fdde75596"},"vehicle_type_id":"4","last_reported":1716221372,"current_range_meters":14400,"station_id":"ce4bha92rcd13ifvqeg0","pricing_plan_id":"cebpf4jnsgd1na2vs0mg"},{"bike_id":"dbb976f0-af53-4440-904a-c170f887dc22","system_id":"levelo_inurba_marseille","lat":43.292644,"lon":5.384257,"is_reserved":false,"is_disabled":false,"rental_uris":{"android":"levelo://app?vid=dbb976f0-af53-4440-904a-c170f887dc22","ios":"levelo://app?vid=dbb976f0-af53-4440-904a-c170f887dc22"},"vehicle_type_id":"4","last_reported":1716221372,"current_range_meters":3600,"station_id":"ce4bh692rcd13ifvqea0","pricing_plan_id":"cebpf4jnsgd1na2vs0mg"},{"bike_id":"25454d5d-b876-4f69-9699-4df3054ea262","system_id":"levelo_inurba_marseille","lat":43.294162,"lon":5.386292,"is_reserved":false,"is_disabled":false,"rental_uris":{"android":"levelo://app?vid=25454d5d-b876-4f69-9699-4df3054ea262","ios":"levelo://app?vid=25454d5d-b876-4f69-9699-4df3054ea262"},"vehicle_type_id":"4","last_reported":1716221372,"current_range_meters":14800,"station_id":"ce4bh2h2rcd13ifvqdh0","pricing_plan_id":"cebpf4jnsgd1na2vs0mg"},{"bike_id":"ad8f488a-7827-49cd-968e-47abe4c75f41","system_id":"levelo_inurba_marseille","lat":43.294162,"lon":5.386292,"is_reserved":false,"is_disabled":false,"rental_uris":{"android":"levelo://app?vid=ad8f488a-7827-49cd-968e-47abe4c75f41","ios":"levelo://app?vid=ad8f488a-7827-49cd-968e-47abe4c75f41"},"vehicle_type_id":"4","last_reported":1716221372,"current_range_meters":28000,"station_id":"ce4bh2h2rcd13ifvqdh0","pricing_plan_id":"cebpf4jnsgd1na2vs0mg"},{"bike_id":"a3377c9b-a83f-4e83-922e-5a575d3c52aa","system_id":"levelo_inurba_marseille","lat":43.294153,"lon":5.386305,"is_reserved":false,"is_disabled":false,"rental_uris":{"android":"levelo://app?vid=a3377c9b-a83f-4e83-922e-5a575d3c52aa","ios":"levelo://app?vid=a3377c9b-a83f-4e83-922e-5a575d3c52aa"},"vehicle_type_id":"4","last_reported":1716221372,"current_range_meters":7200,"station_id":"ce4bh2h2rcd13ifvqdh0","pricing_plan_id":"cebpf4jnsgd1na2vs0mg"},{"bike_id":"1156f8ff-39c7-48f9-a5ac-e5c819db4a1e","system_id":"levelo_inurba_marseille","lat":43.294153,"lon":5.386305,"is_reserved":false,"is_disabled":false,"rental_uris":{"android":"levelo://app?vid=1156f8ff-39c7-48f9-a5ac-e5c819db4a1e","ios":"levelo://app?vid=1156f8ff-39c7-48f9-a5ac-e5c819db4a1e"},"vehicle_type_id":"4","last_reported":1716221372,"current_range_meters":0,"station_id":"ce4bh2h2rcd13ifvqdh0","pricing_plan_id":"cebpf4jnsgd1na2vs0mg"},{"bike_id":"3dce5097-7196-4ae9-87b4-aad4fd5e6a2f","system_id":"levelo_inurba_marseille","lat":43.289468,"lon":5.363719,"is_reserved":false,"is_disabled":false,"rental_uris":{"android":"levelo://app?vid=3dce5097-7196-4ae9-87b4-aad4fd5e6a2f","ios":"levelo://app?vid=3dce5097-7196-4ae9-87b4-aad4fd5e6a2f"},"vehicle_type_id":"4","last_reported":1716221372,"current_range_meters":24400,"station_id":"ce4bhc92rcd13ifvqetg","pricing_plan_id":"cebpf4jnsgd1na2vs0mg"},{"bike_id":"4d743d84-a1e4-4b53-809a-8a50c907a1e9","system_id":"levelo_inurba_marseille","lat":43.294153,"lon":5.386305,"is_reserved":false,"is_disabled":false,"rental_uris":{"android":"levelo://app?vid=4d743d84-a1e4-4b53-809a-8a50c907a1e9","ios":"levelo://app?vid=4d743d84-a1e4-4b53-809a-8a50c907a1e9"},"vehicle_type_id":"4","last_reported":1716221372,"current_range_meters":7600,"station_id":"ce4bh2h2rcd13ifvqdh0","pricing_plan_id":"cebpf4jnsgd1na2vs0mg"},{"bike_id":"e48d769c-c4f5-4e06-975f-6b1cbe244e7f","system_id":"levelo_inurba_marseille","lat":43.294162,"lon":5.386292,"is_reserved":false,"is_disabled":false,"rental_uris":{"android":"levelo://app?vid=e48d769c-c4f5-4e06-975f-6b1cbe244e7f","ios":"levelo://app?vid=e48d769c-c4f5-4e06-975f-6b1cbe244e7f"},"vehicle_type_id":"4","last_reported":1716221372,"current_range_meters":18400,"station_id":"ce4bh2h2rcd13ifvqdh0","pricing_plan_id":"cebpf4jnsgd1na2vs0mg"},{"bike_id":"03f173c5-59bb-43e6-a5ee-09ccd6b7ab5d","system_id":"levelo_inurba_marseille","lat":43.294153,"lon":5.386305,"is_reserved":false,"is_disabled":false,"rental_uris":{"android":"levelo://app?vid=03f173c5-59bb-43e6-a5ee-09ccd6b7ab5d","ios":"levelo://app?vid=03f173c5-59bb-43e6-a5ee-09ccd6b7ab5d"},"vehicle_type_id":"4","last_reported":1716221372,"current_range_meters":2000,"station_id":"ce4bh2h2rcd13ifvqdh0","pricing_plan_id":"cebpf4jnsgd1na2vs0mg"},{"bike_id":"4e91c6b1-1487-40e1-951f-577fd01bdb37","system_id":"levelo_inurba_marseille","lat":43.289184,"lon":5.366408,"is_reserved":false,"is_disabled":false,"rental_uris":{"android":"levelo://app?vid=4e91c6b1-1487-40e1-951f-577fd01bdb37","ios":"levelo://app?vid=4e91c6b1-1487-40e1-951f-577fd01bdb37"},"vehicle_type_id":"4","last_reported":1716221372,"current_range_meters":2400,"station_id":"ce4bhap2rcd13ifvqek0","pricing_plan_id":"cebpf4jnsgd1na2vs0mg"},{"bike_id":"7a0dbada-bc09-4d1d-a693-c426c6bdd108","system_id":"levelo_inurba_marseille","lat":43.289184,"lon":5.366408,"is_reserved":false,"is_disabled":false,"rental_uris":{"android":"levelo://app?vid=7a0dbada-bc09-4d1d-a693-c426c6bdd108","ios":"levelo://app?vid=7a0dbada-bc09-4d1d-a693-c426c6bdd108"},"vehicle_type_id":"4","last_reported":1716221372,"current_range_meters":7200,"station_id":"ce4bhap2rcd13ifvqek0","pricing_plan_id":"cebpf4jnsgd1na2vs0mg"},{"bike_id":"d9cdec5d-4e4e-4dda-8538-e061c9684118","system_id":"levelo_inurba_marseille","lat":43.294153,"lon":5.386305,"is_reserved":false,"is_disabled":false,"rental_uris":{"android":"levelo://app?vid=d9cdec5d-4e4e-4dda-8538-e061c9684118","ios":"levelo://app?vid=d9cdec5d-4e4e-4dda-8538-e061c9684118"},"vehicle_type_id":"4","last_reported":1716221372,"current_range_meters":6400,"station_id":"ce4bh2h2rcd13ifvqdh0","pricing_plan_id":"cebpf4jnsgd1na2vs0mg"},{"bike_id":"4e12e163-c474-406f-8a15-7072643b1d1e","system_id":"levelo_inurba_marseille","lat":43.294153,"lon":5.386305,"is_reserved":false,"is_disabled":false,"rental_uris":{"android":"levelo://app?vid=4e12e163-c474-406f-8a15-7072643b1d1e","ios":"levelo://app?vid=4e12e163-c474-406f-8a15-7072643b1d1e"},"vehicle_type_id":"4","last_reported":1716221372,"current_range_meters":0,"station_id":"ce4bh2h2rcd13ifvqdh0","pricing_plan_id":"cebpf4jnsgd1na2vs0mg"},{"bike_id":"77344139-d315-4361-896c-f6ecfa17d95f","system_id":"levelo_inurba_marseille","lat":43.294162,"lon":5.386292,"is_reserved":false,"is_disabled":false,"rental_uris":{"android":"levelo://app?vid=77344139-d315-4361-896c-f6ecfa17d95f","ios":"levelo://app?vid=77344139-d315-4361-896c-f6ecfa17d95f"},"vehicle_type_id":"4","last_reported":1716221372,"current_range_meters":6000,"station_id":"ce4bh2h2rcd13ifvqdh0","pricing_plan_id":"cebpf4jnsgd1na2vs0mg"},{"bike_id":"54db93ba-1dd1-4d71-bff5-e190580f66b0","system_id":"levelo_inurba_marseille","lat":43.294162,"lon":5.386292,"is_reserved":false,"is_disabled":false,"rental_uris":{"android":"levelo://app?vid=54db93ba-1dd1-4d71-bff5-e190580f66b0","ios":"levelo://app?vid=54db93ba-1dd1-4d71-bff5-e190580f66b0"},"vehicle_type_id":"4","last_reported":1716221372,"current_range_meters":8800,"station_id":"ce4bh2h2rcd13ifvqdh0","pricing_plan_id":"cebpf4jnsgd1na2vs0mg"},{"bike_id":"6e91b238-818f-46cc-8ac0-bbb881a2ad45","system_id":"levelo_inurba_marseille","lat":43.294162,"lon":5.386292,"is_reserved":false,"is_disabled":false,"rental_uris":{"android":"levelo://app?vid=6e91b238-818f-46cc-8ac0-bbb881a2ad45","ios":"levelo://app?vid=6e91b238-818f-46cc-8ac0-bbb881a2ad45"},"vehicle_type_id":"4","last_reported":1716221372,"current_range_meters":1600,"station_id":"ce4bh2h2rcd13ifvqdh0","pricing_plan_id":"cebpf4jnsgd1na2vs0mg"},{"bike_id":"d3940a37-4a7e-4b53-a106-bd5dfafd776d","system_id":"levelo_inurba_marseille","lat":43.28938,"lon":5.36629,"is_reserved":false,"is_disabled":false,"rental_uris":{"android":"levelo://app?vid=d3940a37-4a7e-4b53-a106-bd5dfafd776d","ios":"levelo://app?vid=d3940a37-4a7e-4b53-a106-bd5dfafd776d"},"vehicle_type_id":"4","last_reported":1716221372,"current_range_meters":6400,"station_id":"ce4bhap2rcd13ifvqek0","pricing_plan_id":"cebpf4jnsgd1na2vs0mg"},{"bike_id":"fddecf6b-db9c-4629-bd80-8fde30df27f4","system_id":"levelo_inurba_marseille","lat":43.289468,"lon":5.363719,"is_reserved":false,"is_disabled":false,"rental_uris":{"android":"levelo://app?vid=fddecf6b-db9c-4629-bd80-8fde30df27f4","ios":"levelo://app?vid=fddecf6b-db9c-4629-bd80-8fde30df27f4"},"vehicle_type_id":"4","last_reported":1716221372,"current_range_meters":26000,"station_id":"ce4bhc92rcd13ifvqetg","pricing_plan_id":"cebpf4jnsgd1na2vs0mg"},{"bike_id":"38f3ab16-b4c0-4485-8306-ae437fbaf529","system_id":"levelo_inurba_marseille","lat":43.289833,"lon":5.359684,"is_reserved":false,"is_disabled":false,"rental_uris":{"android":"levelo://app?vid=38f3ab16-b4c0-4485-8306-ae437fbaf529","ios":"levelo://app?vid=38f3ab16-b4c0-4485-8306-ae437fbaf529"},"vehicle_type_id":"4","last_reported":1716221372,"current_range_meters":0,"station_id":"ce4bha92rcd13ifvqeg0","pricing_plan_id":"cebpf4jnsgd1na2vs0mg"},{"bike_id":"0c3c8ba1-749b-4ea7-bdfe-1695da8f8544","system_id":"levelo_inurba_marseille","lat":43.292644,"lon":5.384257,"is_reserved":false,"is_disabled":false,"rental_uris":{"android":"levelo://app?vid=0c3c8ba1-749b-4ea7-bdfe-1695da8f8544","ios":"levelo://app?vid=0c3c8ba1-749b-4ea7-bdfe-1695da8f8544"},"vehicle_type_id":"4","last_reported":1716221372,"current_range_meters":10000,"station_id":"ce4bh692rcd13ifvqea0","pricing_plan_id":"cebpf4jnsgd1na2vs0mg"},{"bike_id":"84638852-7aa6-4f68-8ede-83763006430c","system_id":"levelo_inurba_marseille","lat":43.292642,"lon":5.384254,"is_reserved":false,"is_disabled":false,"rental_uris":{"android":"levelo://app?vid=84638852-7aa6-4f68-8ede-83763006430c","ios":"levelo://app?vid=84638852-7aa6-4f68-8ede-83763006430c"},"vehicle_type_id":"4","last_reported":1716221372,"current_range_meters":6000,"station_id":"ce4bh692rcd13ifvqea0","pricing_plan_id":"cebpf4jnsgd1na2vs0mg"},{"bike_id":"d0c462cf-b41b-4625-9f69-c5cdbe7606ec","system_id":"levelo_inurba_marseille","lat":43.292642,"lon":5.384254,"is_reserved":false,"is_disabled":false,"rental_uris":{"android":"levelo://app?vid=d0c462cf-b41b-4625-9f69-c5cdbe7606ec","ios":"levelo://app?vid=d0c462cf-b41b-4625-9f69-c5cdbe7606ec"},"vehicle_type_id":"4","last_reported":1716221372,"current_range_meters":0,"station_id":"ce4bh692rcd13ifvqea0","pricing_plan_id":"cebpf4jnsgd1na2vs0mg"},{"bike_id":"1a30a761-97ce-4a94-b733-750b81d75033","system_id":"levelo_inurba_marseille","lat":43.292677,"lon":5.384304,"is_reserved":false,"is_disabled":false,"rental_uris":{"android":"levelo://app?vid=1a30a761-97ce-4a94-b733-750b81d75033","ios":"levelo://app?vid=1a30a761-97ce-4a94-b733-750b81d75033"},"vehicle_type_id":"4","last_reported":1716221372,"current_range_meters":28800,"station_id":"ce4bh692rcd13ifvqea0","pricing_plan_id":"cebpf4jnsgd1na2vs0mg"},{"bike_id":"8f46ccd4-266f-4d52-bc1f-fc0ed37cb454","system_id":"levelo_inurba_marseille","lat":43.292644,"lon":5.384257,"is_reserved":false,"is_disabled":false,"rental_uris":{"android":"levelo://app?vid=8f46ccd4-266f-4d52-bc1f-fc0ed37cb454","ios":"levelo://app?vid=8f46ccd4-266f-4d52-bc1f-fc0ed37cb454"},"vehicle_type_id":"4","last_reported":1716221372,"current_range_meters":21200,"station_id":"ce4bh692rcd13ifvqea0","pricing_plan_id":"cebpf4jnsgd1na2vs0mg"},{"bike_id":"c29b2f68-b711-4692-b957-eefc1ebea176","system_id":"levelo_inurba_marseille","lat":43.292642,"lon":5.384254,"is_reserved":false,"is_disabled":false,"rental_uris":{"android":"levelo://app?vid=c29b2f68-b711-4692-b957-eefc1ebea176","ios":"levelo://app?vid=c29b2f68-b711-4692-b957-eefc1ebea176"},"vehicle_type_id":"4","last_reported":1716221372,"current_range_meters":14000,"station_id":"ce4bh692rcd13ifvqea0","pricing_plan_id":"cebpf4jnsgd1na2vs0mg"},{"bike_id":"79b22c31-28d1-456e-b763-9e2c1d47949c","system_id":"levelo_inurba_marseille","lat":43.264946,"lon":5.395416,"is_reserved":false,"is_disabled":false,"rental_uris":{"android":"levelo://app?vid=79b22c31-28d1-456e-b763-9e2c1d47949c","ios":"levelo://app?vid=79b22c31-28d1-456e-b763-9e2c1d47949c"},"vehicle_type_id":"4","last_reported":1716221372,"current_range_meters":30800,"station_id":"ce4bhi12rcd13ifvqfq0","pricing_plan_id":"cebpf4jnsgd1na2vs0mg"},{"bike_id":"47cc85d1-62a0-40d4-b2d9-2308c5bc9443","system_id":"levelo_inurba_marseille","lat":43.292644,"lon":5.384257,"is_reserved":false,"is_disabled":false,"rental_uris":{"android":"levelo://app?vid=47cc85d1-62a0-40d4-b2d9-2308c5bc9443","ios":"levelo://app?vid=47cc85d1-62a0-40d4-b2d9-2308c5bc9443"},"vehicle_type_id":"4","last_reported":1716221372,"current_range_meters":18800,"station_id":"ce4bh692rcd13ifvqea0","pricing_plan_id":"cebpf4jnsgd1na2vs0mg"},{"bike_id":"a0106fa8-f9f3-4ad7-a795-7b4f9d682f22","system_id":"levelo_inurba_marseille","lat":43.292644,"lon":5.384257,"is_reserved":false,"is_disabled":false,"rental_uris":{"android":"levelo://app?vid=a0106fa8-f9f3-4ad7-a795-7b4f9d682f22","ios":"levelo://app?vid=a0106fa8-f9f3-4ad7-a795-7b4f9d682f22"},"vehicle_type_id":"4","last_reported":1716221372,"current_range_meters":0,"station_id":"ce4bh692rcd13ifvqea0","pricing_plan_id":"cebpf4jnsgd1na2vs0mg"},{"bike_id":"fa048a3c-10d9-476e-926d-ae71be114bc7","system_id":"levelo_inurba_marseille","lat":43.292642,"lon":5.384254,"is_reserved":false,"is_disabled":false,"rental_uris":{"android":"levelo://app?vid=fa048a3c-10d9-476e-926d-ae71be114bc7","ios":"levelo://app?vid=fa048a3c-10d9-476e-926d-ae71be114bc7"},"vehicle_type_id":"4","last_reported":1716221372,"current_range_meters":9600,"station_id":"ce4bh692rcd13ifvqea0","pricing_plan_id":"cebpf4jnsgd1na2vs0mg"},{"bike_id":"9a737fe7-86e5-4775-8186-90a53cfeb042","system_id":"levelo_inurba_marseille","lat":43.292644,"lon":5.384257,"is_reserved":false,"is_disabled":false,"rental_uris":{"android":"levelo://app?vid=9a737fe7-86e5-4775-8186-90a53cfeb042","ios":"levelo://app?vid=9a737fe7-86e5-4775-8186-90a53cfeb042"},"vehicle_type_id":"4","last_reported":1716221372,"current_range_meters":0,"station_id":"ce4bh692rcd13ifvqea0","pricing_plan_id":"cebpf4jnsgd1na2vs0mg"},{"bike_id":"003a981f-bd91-48f1-ada8-360842b0184c","system_id":"levelo_inurba_marseille","lat":43.302008,"lon":5.394694,"is_reserved":false,"is_disabled":false,"rental_uris":{"android":"levelo://app?vid=003a981f-bd91-48f1-ada8-360842b0184c","ios":"levelo://app?vid=003a981f-bd91-48f1-ada8-360842b0184c"},"vehicle_type_id":"4","last_reported":1716221372,"current_range_meters":16000,"station_id":"ce4bh0p2rcd13ifvqd70","pricing_plan_id":"cebpf4jnsgd1na2vs0mg"},{"bike_id":"53734d29-1e5b-4dde-8441-4cac62530832","system_id":"levelo_inurba_marseille","lat":43.304274,"lon":5.397513,"is_reserved":false,"is_disabled":false,"rental_uris":{"android":"levelo://app?vid=53734d29-1e5b-4dde-8441-4cac62530832","ios":"levelo://app?vid=53734d29-1e5b-4dde-8441-4cac62530832"},"vehicle_type_id":"4","last_reported":1716221372,"current_range_meters":400,"station_id":"ce4bh092rcd13ifvqd20","pricing_plan_id":"cebpf4jnsgd1na2vs0mg"},{"bike_id":"e7390bfa-d83f-497d-bf10-9adb843322c0","system_id":"levelo_inurba_marseille","lat":43.290104,"lon":5.356111,"is_reserved":false,"is_disabled":false,"rental_uris":{"android":"levelo://app?vid=e7390bfa-d83f-497d-bf10-9adb843322c0","ios":"levelo://app?vid=e7390bfa-d83f-497d-bf10-9adb843322c0"},"vehicle_type_id":"4","last_reported":1716221372,"current_range_meters":16800,"station_id":"ce4bhb92rcd13ifvqen0","pricing_plan_id":"cebpf4jnsgd1na2vs0mg"},{"bike_id":"5434177e-c337-4680-880d-e431c597ec59","system_id":"levelo_inurba_marseille","lat":43.290104,"lon":5.356111,"is_reserved":false,"is_disabled":false,"rental_uris":{"android":"levelo://app?vid=5434177e-c337-4680-880d-e431c597ec59","ios":"levelo://app?vid=5434177e-c337-4680-880d-e431c597ec59"},"vehicle_type_id":"4","last_reported":1716221372,"current_range_meters":3200,"station_id":"ce4bhb92rcd13ifvqen0","pricing_plan_id":"cebpf4jnsgd1na2vs0mg"},{"bike_id":"5ad9565e-73be-40d1-ac6f-a4962cc37b9a","system_id":"levelo_inurba_marseille","lat":43.290104,"lon":5.356111,"is_reserved":false,"is_disabled":false,"rental_uris":{"android":"levelo://app?vid=5ad9565e-73be-40d1-ac6f-a4962cc37b9a","ios":"levelo://app?vid=5ad9565e-73be-40d1-ac6f-a4962cc37b9a"},"vehicle_type_id":"4","last_reported":1716221372,"current_range_meters":25200,"station_id":"ce4bhb92rcd13ifvqen0","pricing_plan_id":"cebpf4jnsgd1na2vs0mg"},{"bike_id":"7df8e55a-9b4e-4bbb-b9d9-e94ee5144e8d","system_id":"levelo_inurba_marseille","lat":43.290103,"lon":5.356114,"is_reserved":false,"is_disabled":false,"rental_uris":{"android":"levelo://app?vid=7df8e55a-9b4e-4bbb-b9d9-e94ee5144e8d","ios":"levelo://app?vid=7df8e55a-9b4e-4bbb-b9d9-e94ee5144e8d"},"vehicle_type_id":"4","last_reported":1716221372,"current_range_meters":16000,"station_id":"ce4bhb92rcd13ifvqen0","pricing_plan_id":"cebpf4jnsgd1na2vs0mg"},{"bike_id":"a1f41096-42e6-495e-a345-d5674109ed3d","system_id":"levelo_inurba_marseille","lat":43.290103,"lon":5.356114,"is_reserved":false,"is_disabled":false,"rental_uris":{"android":"levelo://app?vid=a1f41096-42e6-495e-a345-d5674109ed3d","ios":"levelo://app?vid=a1f41096-42e6-495e-a345-d5674109ed3d"},"vehicle_type_id":"4","last_reported":1716221372,"current_range_meters":10400,"station_id":"ce4bhb92rcd13ifvqen0","pricing_plan_id":"cebpf4jnsgd1na2vs0mg"},{"bike_id":"7b3ba97e-16a9-4bb6-bca2-fd230739c766","system_id":"levelo_inurba_marseille","lat":43.290995,"lon":5.381361,"is_reserved":false,"is_disabled":false,"rental_uris":{"android":"levelo://app?vid=7b3ba97e-16a9-4bb6-bca2-fd230739c766","ios":"levelo://app?vid=7b3ba97e-16a9-4bb6-bca2-fd230739c766"},"vehicle_type_id":"4","last_reported":1716221372,"current_range_meters":3600,"station_id":"ce4bh512rcd13ifvqe2g","pricing_plan_id":"cebpf4jnsgd1na2vs0mg"},{"bike_id":"9f1ecd96-27d5-461a-aa79-07514918a4fa","system_id":"levelo_inurba_marseille","lat":43.290995,"lon":5.381361,"is_reserved":false,"is_disabled":false,"rental_uris":{"android":"levelo://app?vid=9f1ecd96-27d5-461a-aa79-07514918a4fa","ios":"levelo://app?vid=9f1ecd96-27d5-461a-aa79-07514918a4fa"},"vehicle_type_id":"4","last_reported":1716221372,"current_range_meters":11600,"station_id":"ce4bh512rcd13ifvqe2g","pricing_plan_id":"cebpf4jnsgd1na2vs0mg"},{"bike_id":"d9bac40d-8e8f-4396-b2a8-bae73f49457f","system_id":"levelo_inurba_marseille","lat":43.295169,"lon":5.390426,"is_reserved":false,"is_disabled":false,"rental_uris":{"android":"levelo://app?vid=d9bac40d-8e8f-4396-b2a8-bae73f49457f","ios":"levelo://app?vid=d9bac40d-8e8f-4396-b2a8-bae73f49457f"},"vehicle_type_id":"4","last_reported":1716221372,"current_range_meters":16400,"station_id":"ce4bh3p2rcd13ifvqdp0","pricing_plan_id":"cebpf4jnsgd1na2vs0mg"},{"bike_id":"ba5f6dd9-d17b-48ee-a299-c79f63504273","system_id":"levelo_inurba_marseille","lat":43.29782,"lon":5.39339,"is_reserved":false,"is_disabled":false,"rental_uris":{"android":"levelo://app?vid=ba5f6dd9-d17b-48ee-a299-c79f63504273","ios":"levelo://app?vid=ba5f6dd9-d17b-48ee-a299-c79f63504273"},"vehicle_type_id":"4","last_reported":1716221372,"current_range_meters":13600,"station_id":"chh1huq6cuj3fo74tm60","pricing_plan_id":"cebpf4jnsgd1na2vs0mg"},{"bike_id":"9ef9f17f-305c-48fd-bfe5-53339b8be7c0","system_id":"levelo_inurba_marseille","lat":43.295169,"lon":5.390426,"is_reserved":false,"is_disabled":false,"rental_uris":{"android":"levelo://app?vid=9ef9f17f-305c-48fd-bfe5-53339b8be7c0","ios":"levelo://app?vid=9ef9f17f-305c-48fd-bfe5-53339b8be7c0"},"vehicle_type_id":"4","last_reported":1716221372,"current_range_meters":11600,"station_id":"ce4bh3p2rcd13ifvqdp0","pricing_plan_id":"cebpf4jnsgd1na2vs0mg"},{"bike_id":"b6f3110d-9a38-4cf5-8b60-d17de5683c82","system_id":"levelo_inurba_marseille","lat":43.29793,"lon":5.39355,"is_reserved":false,"is_disabled":false,"rental_uris":{"android":"levelo://app?vid=b6f3110d-9a38-4cf5-8b60-d17de5683c82","ios":"levelo://app?vid=b6f3110d-9a38-4cf5-8b60-d17de5683c82"},"vehicle_type_id":"4","last_reported":1716221372,"current_range_meters":18000,"station_id":"chh1huq6cuj3fo74tm60","pricing_plan_id":"cebpf4jnsgd1na2vs0mg"},{"bike_id":"149e1387-655b-4c45-abcd-2c7988c2a0ef","system_id":"levelo_inurba_marseille","lat":43.295169,"lon":5.390426,"is_reserved":false,"is_disabled":false,"rental_uris":{"android":"levelo://app?vid=149e1387-655b-4c45-abcd-2c7988c2a0ef","ios":"levelo://app?vid=149e1387-655b-4c45-abcd-2c7988c2a0ef"},"vehicle_type_id":"4","last_reported":1716221372,"current_range_meters":5600,"station_id":"ce4bh3p2rcd13ifvqdp0","pricing_plan_id":"cebpf4jnsgd1na2vs0mg"},{"bike_id":"987e925d-8b44-46e8-b309-a93d1561731c","system_id":"levelo_inurba_marseille","lat":43.295169,"lon":5.390426,"is_reserved":false,"is_disabled":false,"rental_uris":{"android":"levelo://app?vid=987e925d-8b44-46e8-b309-a93d1561731c","ios":"levelo://app?vid=987e925d-8b44-46e8-b309-a93d1561731c"},"vehicle_type_id":"4","last_reported":1716221372,"current_range_meters":0,"station_id":"ce4bh3p2rcd13ifvqdp0","pricing_plan_id":"cebpf4jnsgd1na2vs0mg"},{"bike_id":"93ed4804-bf40-4e3d-84fc-9c574816e6f3","system_id":"levelo_inurba_marseille","lat":43.295169,"lon":5.390426,"is_reserved":false,"is_disabled":false,"rental_uris":{"android":"levelo://app?vid=93ed4804-bf40-4e3d-84fc-9c574816e6f3","ios":"levelo://app?vid=93ed4804-bf40-4e3d-84fc-9c574816e6f3"},"vehicle_type_id":"4","last_reported":1716221372,"current_range_meters":1200,"station_id":"ce4bh3p2rcd13ifvqdp0","pricing_plan_id":"cebpf4jnsgd1na2vs0mg"},{"bike_id":"d25a45cc-d7bf-4b97-9198-c72cd7bb2a8e","system_id":"levelo_inurba_marseille","lat":43.289741,"lon":5.378306,"is_reserved":false,"is_disabled":false,"rental_uris":{"android":"levelo://app?vid=d25a45cc-d7bf-4b97-9198-c72cd7bb2a8e","ios":"levelo://app?vid=d25a45cc-d7bf-4b97-9198-c72cd7bb2a8e"},"vehicle_type_id":"4","last_reported":1716221372,"current_range_meters":27600,"station_id":"ce4bh9p2rcd13ifvqed0","pricing_plan_id":"cebpf4jnsgd1na2vs0mg"},{"bike_id":"94711046-3129-44e6-bf7d-674233b86138","system_id":"levelo_inurba_marseille","lat":43.330442,"lon":5.389148,"is_reserved":false,"is_disabled":false,"rental_uris":{"android":"levelo://app?vid=94711046-3129-44e6-bf7d-674233b86138","ios":"levelo://app?vid=94711046-3129-44e6-bf7d-674233b86138"},"vehicle_type_id":"4","last_reported":1716221372,"current_range_meters":12400,"station_id":"ce4bhr92rcd13ifvqhrg","pricing_plan_id":"cebpf4jnsgd1na2vs0mg"},{"bike_id":"ac50b383-568a-49b8-8b8f-bad01256499d","system_id":"levelo_inurba_marseille","lat":43.330442,"lon":5.389148,"is_reserved":false,"is_disabled":false,"rental_uris":{"android":"levelo://app?vid=ac50b383-568a-49b8-8b8f-bad01256499d","ios":"levelo://app?vid=ac50b383-568a-49b8-8b8f-bad01256499d"},"vehicle_type_id":"4","last_reported":1716221372,"current_range_meters":31200,"station_id":"ce4bhr92rcd13ifvqhrg","pricing_plan_id":"cebpf4jnsgd1na2vs0mg"},{"bike_id":"ac658b05-33e6-4793-b9fe-ee34d203f58c","system_id":"levelo_inurba_marseille","lat":43.330442,"lon":5.389148,"is_reserved":false,"is_disabled":false,"rental_uris":{"android":"levelo://app?vid=ac658b05-33e6-4793-b9fe-ee34d203f58c","ios":"levelo://app?vid=ac658b05-33e6-4793-b9fe-ee34d203f58c"},"vehicle_type_id":"4","last_reported":1716221372,"current_range_meters":18400,"station_id":"ce4bhr92rcd13ifvqhrg","pricing_plan_id":"cebpf4jnsgd1na2vs0mg"},{"bike_id":"2662974a-130f-4829-9c5d-82708026f8ae","system_id":"levelo_inurba_marseille","lat":43.330442,"lon":5.389148,"is_reserved":false,"is_disabled":false,"rental_uris":{"android":"levelo://app?vid=2662974a-130f-4829-9c5d-82708026f8ae","ios":"levelo://app?vid=2662974a-130f-4829-9c5d-82708026f8ae"},"vehicle_type_id":"4","last_reported":1716221372,"current_range_meters":15600,"station_id":"ce4bhr92rcd13ifvqhrg","pricing_plan_id":"cebpf4jnsgd1na2vs0mg"},{"bike_id":"b194aabe-7a38-403e-b000-19e4f5e53015","system_id":"levelo_inurba_marseille","lat":43.295169,"lon":5.390426,"is_reserved":false,"is_disabled":false,"rental_uris":{"android":"levelo://app?vid=b194aabe-7a38-403e-b000-19e4f5e53015","ios":"levelo://app?vid=b194aabe-7a38-403e-b000-19e4f5e53015"},"vehicle_type_id":"4","last_reported":1716221372,"current_range_meters":14400,"station_id":"ce4bh3p2rcd13ifvqdp0","pricing_plan_id":"cebpf4jnsgd1na2vs0mg"},{"bike_id":"ecde603f-c14c-46c6-91d0-0a36c2d9bb8d","system_id":"levelo_inurba_marseille","lat":43.295169,"lon":5.390426,"is_reserved":false,"is_disabled":false,"rental_uris":{"android":"levelo://app?vid=ecde603f-c14c-46c6-91d0-0a36c2d9bb8d","ios":"levelo://app?vid=ecde603f-c14c-46c6-91d0-0a36c2d9bb8d"},"vehicle_type_id":"4","last_reported":1716221372,"current_range_meters":24400,"station_id":"ce4bh3p2rcd13ifvqdp0","pricing_plan_id":"cebpf4jnsgd1na2vs0mg"},{"bike_id":"cb455d37-f676-4253-b34c-618fecfa4662","system_id":"levelo_inurba_marseille","lat":43.28869,"lon":5.35987,"is_reserved":false,"is_disabled":false,"rental_uris":{"android":"levelo://app?vid=cb455d37-f676-4253-b34c-618fecfa4662","ios":"levelo://app?vid=cb455d37-f676-4253-b34c-618fecfa4662"},"vehicle_type_id":"4","last_reported":1716221372,"current_range_meters":0,"station_id":"ce4bhbh2rcd13ifvqepg","pricing_plan_id":"cebpf4jnsgd1na2vs0mg"},{"bike_id":"017531be-9421-42ec-ac10-4141149688cc","system_id":"levelo_inurba_marseille","lat":43.289503,"lon":5.355678,"is_reserved":false,"is_disabled":false,"rental_uris":{"android":"levelo://app?vid=017531be-9421-42ec-ac10-4141149688cc","ios":"levelo://app?vid=017531be-9421-42ec-ac10-4141149688cc"},"vehicle_type_id":"4","last_reported":1716221372,"current_range_meters":21600,"station_id":"ce4bhch2rcd13ifvqeug","pricing_plan_id":"cebpf4jnsgd1na2vs0mg"},