{"last_updated":1761649745,"ttl":60,"version":"2.2","data":{"bikes":[{"bike_id":"dd539c3d-8244-460c-97df-764a86a3f675","system_id":"levelo_inurba_marseille","lat":43.286285,"lon":5.359264,"is_reserved":false,"is_disabled":false,"rental_uris":{"android":"levelo://app?vid=dd539c3d-8244-460c-97df-764a86a3f675","ios":"levelo://app?vid=dd539c3d-8244-460c-97df-764a86a3f675"},"vehicle_type_id":"4","last_reported":1761649745,"current_range_meters":2800,"station_id":"","pricing_plan_id":"cebpf4jnsgd1na2vs0mg"},{"bike_id":"29f2e70e-c5e6-45a3-afba-56aeacf61f61","system_id":"levelo_inurba_marseille","lat":43.28405,"lon":5.37507,"is_reserved":false,"is_disabled":false,"rental_uris":{"android":"levelo://app?vid=29f2e70e-c5e6-45a3-afba-56aeacf61f61","ios":"levelo://app?vid=29f2e70e-c5e6-45a3-afba-56aeacf61f61"},"vehicle_type_id":"4","last_reported":1761649745,"current_range_meters":2800,"station_id":"ce4bh412rcd13ifvqds0","pricing_plan_id":"cebpf4jnsgd1na2vs0mg"},{"bike_id":"60c3eef5-44af-4b28-9e32-397f94494e55","system_id":"levelo_inurba_marseille","lat":43.22534,"lon":5.34833,"is_reserved":false,"is_disabled":false,"rental_uris":{"android":"levelo://app?vid=60c3eef5-44af-4b28-9e32-397f94494e55","ios":"levelo://app?vid=60c3eef5-44af-4b28-9e32-397f94494e55"},"vehicle_type_id":"4","last_reported":1761649745,"current_range_meters":2800,"station_id":"","pricing_plan_id":"cebpf4jnsgd1na2vs0mg"},{"bike_id":"4324be0a-241a-4971-95cc-c4ea1395f711","system_id":"levelo_inurba_marseille","lat":43.29008,"lon":5.35611,"is_reserved":false,"is_disabled":false,"rental_uris":{"android":"levelo://app?vid=4324be0a-241a-4971-95cc-c4ea1395f711","ios":"levelo://app?vid=4324be0a-241a-4971-95cc-c4ea1395f711"},"vehicle_type_id":"4","last_reported":1761649745,"current_range_meters":3200,"station_id":"ce4bhb92rcd13ifvqen0","pricing_plan_id":"cebpf4jnsgd1na2vs0mg"},{"bike_id":"b8470f0e-6453-476c-af6d-d4fadadf4cfb","system_id":"levelo_inurba_marseille","lat":43.26555,"lon":5.37284,"is_reserved":false,"is_disabled":false,"rental_uris":{"android":"levelo://app?vid=b8470f0e-6453-476c-af6d-d4fadadf4cfb","ios":"levelo://app?vid=b8470f0e-6453-476c-af6d-d4fadadf4cfb"},"vehicle_type_id":"4","last_reported":1761649745,"current_range_meters":3600,"station_id":"ce4bhg12rcd13ifvqf70","pricing_plan_id":"cebpf4jnsgd1na2vs0mg"},{"bike_id":"1b48f07a-6509-479a-b2a3-e1ebebd17894","system_id":"levelo_inurba_marseille","lat":43.30552,"lon":5.36732,"is_reserved":false,"is_disabled":true,"rental_uris":{"android":"levelo://app?vid=1b48f07a-6509-479a-b2a3-e1ebebd17894","ios":"levelo://app?vid=1b48f07a-6509-479a-b2a3-e1ebebd17894"},"vehicle_type_id":"4","last_reported":1761649745,"current_range_meters":3600,"station_id":"ce4bgrp2rcd13ifvqc9g","pricing_plan_id":"cebpf4jnsgd1na2vs0mg"},{"bike_id":"e7e08c2a-bbca-4677-9d65-17c8fa539b9f","system_id":"levelo_inurba_marseille","lat":43.2706,"lon":5.40261,"is_reserved":false,"is_disabled":false,"rental_uris":{"android":"levelo://app?vid=e7e08c2a-bbca-4677-9d65-17c8fa539b9f","ios":"levelo://app?vid=e7e08c2a-bbca-4677-9d65-17c8fa539b9f"},"vehicle_type_id":"4","last_reported":1761649745,"current_range_meters":3600,"station_id":"ce4bhk92rcd13ifvqgc0","pricing_plan_id":"cebpf4jnsgd1na2vs0mg"},{"bike_id":"a506f511-6b89-483d-b2db-65f1dc9756fc","system_id":"levelo_inurba_marseille","lat":43.30325,"lon":5.40423,"is_reserved":false,"is_disabled":false,"rental_uris":{"android":"levelo://app?vid=a506f511-6b89-483d-b2db-65f1dc9756fc","ios":"levelo://app?vid=a506f511-6b89-483d-b2db-65f1dc9756fc"},"vehicle_type_id":"4","last_reported":1761649745,"current_range_meters":3600,"station_id":"ce4bh012rcd13ifvqd10","pricing_plan_id":"cebpf4jnsgd1na2vs0mg"},{"bike_id":"20f4b874-8378-4ff0-aba8-af7271b04db6","system_id":"levelo_inurba_marseille","lat":43.28716,"lon":5.37939,"is_reserved":false,"is_disabled":false,"rental_uris":{"android":"levelo://app?vid=20f4b874-8378-4ff0-aba8-af7271b04db6","ios":"levelo://app?vid=20f4b874-8378-4ff0-aba8-af7271b04db6"},"vehicle_type_id":"4","last_reported":1761649745,"current_range_meters":4000,"station_id":"ce4bh9p2rcd13ifvqec0","pricing_plan_id":"cebpf4jnsgd1na2vs0mg"},{"bike_id":"53d9063b-25c4-415c-b78b-5f5bc309d200","system_id":"levelo_inurba_marseille","lat":43.286904,"lon":5.399981,"is_reserved":false,"is_disabled":false,"rental_uris":{"android":"levelo://app?vid=53d9063b-25c4-415c-b78b-5f5bc309d200","ios":"levelo://app?vid=53d9063b-25c4-415c-b78b-5f5bc309d200"},"vehicle_type_id":"4","last_reported":1761649745,"current_range_meters":4000,"station_id":"","pricing_plan_id":"cebpf4jnsgd1na2vs0mg"},{"bike_id":"1bf649f3-dbe3-45f3-baf9-458099d1124e","system_id":"levelo_inurba_marseille","lat":43.246352,"lon":5.431432,"is_reserved":false,"is_disabled":false,"rental_uris":{"android":"levelo://app?vid=1bf649f3-dbe3-45f3-baf9-458099d1124e","ios":"levelo://app?vid=1bf649f3-dbe3-45f3-baf9-458099d1124e"},"vehicle_type_id":"4","last_reported":1761649745,"current_range_meters":4000,"station_id":"st_d2m6c4gdas8pm72e190g","pricing_plan_id":"cebpf4jnsgd1na2vs0mg"},{"bike_id":"41d45b45-3a52-4b5a-b2b3-1e62d5490ada","system_id":"levelo_inurba_marseille","lat":43.28531,"lon":5.44078,"is_reserved":false,"is_disabled":false,"rental_uris":{"android":"levelo://app?vid=41d45b45-3a52-4b5a-b2b3-1e62d5490ada","ios":"levelo://app?vid=41d45b45-3a52-4b5a-b2b3-1e62d5490ada"},"vehicle_type_id":"4","last_reported":1761649745,"current_range_meters":4800,"station_id":"st_d3j3df2ikq2c7380ej80","pricing_plan_id":"cebpf4jnsgd1na2vs0mg"},{"bike_id":"7f291b72-44df-4592-81f1-112aee29185e","system_id":"levelo_inurba_marseille","lat":43.305333,"lon":5.367013,"is_reserved":false,"is_disabled":false,"rental_uris":{"android":"levelo://app?vid=7f291b72-44df-4592-81f1-112aee29185e","ios":"levelo://app?vid=7f291b72-44df-4592-81f1-112aee29185e"},"vehicle_type_id":"4","last_reported":1761649745,"current_range_meters":4800,"station_id":"ce4bgrp2rcd13ifvqc9g","pricing_plan_id":"cebpf4jnsgd1na2vs0mg"},{"bike_id":"1b8b63ec-7548-4816-b198-44e2162337ac","system_id":"levelo_inurba_marseille","lat":43.306438,"lon":5.400786,"is_reserved":false,"is_disabled":true,"rental_uris":{"android":"levelo://app?vid=1b8b63ec-7548-4816-b198-44e2162337ac","ios":"levelo://app?vid=1b8b63ec-7548-4816-b198-44e2162337ac"},"vehicle_type_id":"4","last_reported":1761649745,"current_range_meters":4800,"station_id":"ce4bh112rcd13ifvqda0","pricing_plan_id":"cebpf4jnsgd1na2vs0mg"},{"bike_id":"89ee4b58-a673-4c47-832b-28ff979a5daf","system_id":"levelo_inurba_marseille","lat":43.290113,"lon":5.356143,"is_reserved":false,"is_disabled":false,"rental_uris":{"android":"levelo://app?vid=89ee4b58-a673-4c47-832b-28ff979a5daf","ios":"levelo://app?vid=89ee4b58-a673-4c47-832b-28ff979a5daf"},"vehicle_type_id":"4","last_reported":1761649745,"current_range_meters":4800,"station_id":"ce4bhb92rcd13ifvqen0","pricing_plan_id":"cebpf4jnsgd1na2vs0mg"},{"bike_id":"89f5e288-30f7-4d5e-84c5-aebc375a274f","system_id":"levelo_inurba_marseille","lat":43.30548,"lon":5.36529,"is_reserved":false,"is_disabled":false,"rental_uris":{"android":"levelo://app?vid=89f5e288-30f7-4d5e-84c5-aebc375a274f","ios":"levelo://app?vid=89f5e288-30f7-4d5e-84c5-aebc375a274f"},"vehicle_type_id":"4","last_reported":1761649745,"current_range_meters":4800,"station_id":"ce4bgs12rcd13ifvqcag","pricing_plan_id":"cebpf4jnsgd1na2vs0mg"},{"bike_id":"b6bacdbf-68c1-42db-9add-360b7c35c489","system_id":"levelo_inurba_marseille","lat":43.29487,"lon":5.43299,"is_reserved":false,"is_disabled":false,"rental_uris":{"android":"levelo://app?vid=b6bacdbf-68c1-42db-9add-360b7c35c489","ios":"levelo://app?vid=b6bacdbf-68c1-42db-9add-360b7c35c489"},"vehicle_type_id":"4","last_reported":1761649745,"current_range_meters":5600,"station_id":"st_d3j5ugp08ojc73fj9d10","pricing_plan_id":"cebpf4jnsgd1na2vs0mg"},{"bike_id":"de5cece4-6186-4ccb-b70e-a25e8bd3fc86","system_id":"levelo_inurba_marseille","lat":43.337444,"lon":5.374475,"is_reserved":false,"is_disabled":false,"rental_uris":{"android":"levelo://app?vid=de5cece4-6186-4ccb-b70e-a25e8bd3fc86","ios":"levelo://app?vid=de5cece4-6186-4ccb-b70e-a25e8bd3fc86"},"vehicle_type_id":"4","last_reported":1761649745,"current_range_meters":5600,"station_id":"","pricing_plan_id":"cebpf4jnsgd1na2vs0mg"},{"bike_id":"ca1c602e-df5f-4e08-aad7-43ca8ba1f695","system_id":"levelo_inurba_marseille","lat":43.2719,"lon":5.39158,"is_reserved":false,"is_disabled":false,"rental_uris":{"android":"levelo://app?vid=ca1c602e-df5f-4e08-aad7-43ca8ba1f695","ios":"levelo://app?vid=ca1c602e-df5f-4e08-aad7-43ca8ba1f695"},"vehicle_type_id":"4","last_reported":1761649745,"current_range_meters":6000,"station_id":"ce4bhhp2rcd13ifvqfm0","pricing_plan_id":"cebpf4jnsgd1na2vs0mg"},{"bike_id":"64b75b4a-3497-4861-8cc2-90dd62cd9f5e","system_id":"levelo_inurba_marseille","lat":43.293001,"lon":5.434495,"is_reserved":false,"is_disabled":false,"rental_uris":{"android":"levelo://app?vid=64b75b4a-3497-4861-8cc2-90dd62cd9f5e","ios":"levelo://app?vid=64b75b4a-3497-4861-8cc2-90dd62cd9f5e"},"vehicle_type_id":"4","last_reported":1761649745,"current_range_meters":6000,"station_id":"","pricing_plan_id":"cebpf4jnsgd1na2vs0mg"},{"bike_id":"3ea13603-c9ad-4550-9948-b83f47812af6","system_id":"levelo_inurba_marseille","lat":43.29089,"lon":5.36626,"is_reserved":false,"is_disabled":false,"rental_uris":{"android":"levelo://app?vid=3ea13603-c9ad-4550-9948-b83f47812af6","ios":"levelo://app?vid=3ea13603-c9ad-4550-9948-b83f47812af6"},"vehicle_type_id":"4","last_reported":1761649745,"current_range_meters":6000,"station_id":"","pricing_plan_id":"cebpf4jnsgd1na2vs0mg"},{"bike_id":"4ade9d83-f2d5-4d19-a54e-74fbd9ec2b53","system_id":"levelo_inurba_marseille","lat":43.31071,"lon":5.40079,"is_reserved":false,"is_disabled":false,"rental_uris":{"android":"levelo://app?vid=4ade9d83-f2d5-4d19-a54e-74fbd9ec2b53","ios":"levelo://app?vid=4ade9d83-f2d5-4d19-a54e-74fbd9ec2b53"},"vehicle_type_id":"4","last_reported":1761649745,"current_range_meters":6000,"station_id":"","pricing_plan_id":"cebpf4jnsgd1na2vs0mg"},{"bike_id":"e4ccce50-4824-4895-aa8c-033835526f23","system_id":"levelo_inurba_marseille","lat":43.318768,"lon":5.39995,"is_reserved":false,"is_disabled":false,"rental_uris":{"android":"levelo://app?vid=e4ccce50-4824-4895-aa8c-033835526f23","ios":"levelo://app?vid=e4ccce50-4824-4895-aa8c-033835526f23"},"vehicle_type_id":"4","last_reported":1761649745,"current_range_meters":6000,"station_id":"","pricing_plan_id":"cebpf4jnsgd1na2vs0mg"},{"bike_id":"8847af5d-c1ad-4d8d-a5c1-273c3b41c105","system_id":"levelo_inurba_marseille","lat":43.33073,"lon":5.41107,"is_reserved":false,"is_disabled":false,"rental_uris":{"android":"levelo://app?vid=8847af5d-c1ad-4d8d-a5c1-273c3b41c105","ios":"levelo://app?vid=8847af5d-c1ad-4d8d-a5c1-273c3b41c105"},"vehicle_type_id":"4","last_reported":1761649745,"current_range_meters":6400,"station_id":"","pricing_plan_id":"cebpf4jnsgd1na2vs0mg"},{"bike_id":"01f2eb66-4c91-4733-82da-fb0ae04b27bc","system_id":"levelo_inurba_marseille","lat":43.27986,"lon":5.38786,"is_reserved":false,"is_disabled":false,"rental_uris":{"android":"levelo://app?vid=01f2eb66-4c91-4733-82da-fb0ae04b27bc","ios":"levelo://app?vid=01f2eb66-4c91-4733-82da-fb0ae04b27bc"},"vehicle_type_id":"4","last_reported":1761649745,"current_range_meters":6400,"station_id":"ce4bhg12rcd13ifvqf80","pricing_plan_id":"cebpf4jnsgd1na2vs0mg"},{"bike_id":"221243a1-438f-4d71-b800-2056f9b5d681","system_id":"levelo_inurba_marseille","lat":43.31249,"lon":5.36881,"is_reserved":false,"is_disabled":false,"rental_uris":{"android":"levelo://app?vid=221243a1-438f-4d71-b800-2056f9b5d681","ios":"levelo://app?vid=221243a1-438f-4d71-b800-2056f9b5d681"},"vehicle_type_id":"4","last_reported":1761649745,"current_range_meters":6800,"station_id":"ce4bgl92rcd13ifvqbq0","pricing_plan_id":"cebpf4jnsgd1na2vs0mg"},{"bike_id":"941be9ab-a677-4222-9a8e-7471fec5b6c2","system_id":"levelo_inurba_marseille","lat":43.29044,"lon":5.35916,"is_reserved":false,"is_disabled":false,"rental_uris":{"android":"levelo://app?vid=941be9ab-a677-4222-9a8e-7471fec5b6c2","ios":"levelo://app?vid=941be9ab-a677-4222-9a8e-7471fec5b6c2"},"vehicle_type_id":"4","last_reported":1761649745,"current_range_meters":6800,"station_id":"ce4bha92rcd13ifvqeg0","pricing_plan_id":"cebpf4jnsgd1na2vs0mg"},{"bike_id":"52a67fc0-7eaf-49b6-9b05-e09a5497aafa","system_id":"levelo_inurba_marseille","lat":43.22934,"lon":5.35375,"is_reserved":false,"is_disabled":false,"rental_uris":{"android":"levelo://app?vid=52a67fc0-7eaf-49b6-9b05-e09a5497aafa","ios":"levelo://app?vid=52a67fc0-7eaf-49b6-9b05-e09a5497aafa"},"vehicle_type_id":"4","last_reported":1761649745,"current_range_meters":7200,"station_id":"cpo3532slgdg3j2ikp40","pricing_plan_id":"cebpf4jnsgd1na2vs0mg"},{"bike_id":"347eb2db-1df7-4746-bdc8-5c9e2c4e7281","system_id":"levelo_inurba_marseille","lat":43.29757,"lon":5.42773,"is_reserved":false,"is_disabled":false,"rental_uris":{"android":"levelo://app?vid=347eb2db-1df7-4746-bdc8-5c9e2c4e7281","ios":"levelo://app?vid=347eb2db-1df7-4746-bdc8-5c9e2c4e7281"},"vehicle_type_id":"4","last_reported":1761649745,"current_range_meters":7200,"station_id":"st_d3md5207bmas73dh9klg","pricing_plan_id":"cebpf4jnsgd1na2vs0mg"},{"bike_id":"4f46f96e-c140-45d1-816e-1e3ae50da037","system_id":"levelo_inurba_marseille","lat":43.29298,"lon":5.37153,"is_reserved":false,"is_disabled":false,"rental_uris":{"android":"levelo://app?vid=4f46f96e-c140-45d1-816e-1e3ae50da037","ios":"levelo://app?vid=4f46f96e-c140-45d1-816e-1e3ae50da037"},"vehicle_type_id":"4","last_reported":1761649745,"current_range_meters":8000,"station_id":"ce4bgh92rcd13ifvqb40","pricing_plan_id":"cebpf4jnsgd1na2vs0mg"},{"bike_id":"b9aed265-7bb5-4917-9a1f-df45ce79c285","system_id":"levelo_inurba_marseille","lat":43.24997,"lon":5.38915,"is_reserved":false,"is_disabled":false,"rental_uris":{"android":"levelo://app?vid=b9aed265-7bb5-4917-9a1f-df45ce79c285","ios":"levelo://app?vid=b9aed265-7bb5-4917-9a1f-df45ce79c285"},"vehicle_type_id":"4","last_reported":1761649745,"current_range_meters":8000,"station_id":"ce4bhgp2rcd13ifvqfd0","pricing_plan_id":"cebpf4jnsgd1na2vs0mg"},{"bike_id":"95560b5f-8ea8-4033-94ba-80ee0a78620c","system_id":"levelo_inurba_marseille","lat":43.30389,"lon":5.42487,"is_reserved":false,"is_disabled":false,"rental_uris":{"android":"levelo://app?vid=95560b5f-8ea8-4033-94ba-80ee0a78620c","ios":"levelo://app?vid=95560b5f-8ea8-4033-94ba-80ee0a78620c"},"vehicle_type_id":"4","last_reported":1761649745,"current_range_meters":8400,"station_id":"ce4bhoh2rcd13ifvqh6g","pricing_plan_id":"cebpf4jnsgd1na2vs0mg"},{"bike_id":"eefd622a-23f4-4ae8-ba75-424b910be6b9","system_id":"levelo_inurba_marseille","lat":43.23063,"lon":5.35495,"is_reserved":false,"is_disabled":false,"rental_uris":{"android":"levelo://app?vid=eefd622a-23f4-4ae8-ba75-424b910be6b9","ios":"levelo://app?vid=eefd622a-23f4-4ae8-ba75-424b910be6b9"},"vehicle_type_id":"4","last_reported":1761649745,"current_range_meters":8400,"station_id":"cpo3342slgdg3j2ifvpg","pricing_plan_id":"cebpf4jnsgd1na2vs0mg"},{"bike_id":"ac9553c1-2e20-49d2-9627-d54e379f7e28","system_id":"levelo_inurba_marseille","lat":43.31339,"lon":5.36707,"is_reserved":false,"is_disabled":true,"rental_uris":{"android":"levelo://app?vid=ac9553c1-2e20-49d2-9627-d54e379f7e28","ios":"levelo://app?vid=ac9553c1-2e20-49d2-9627-d54e379f7e28"},"vehicle_type_id":"4","last_reported":1761649745,"current_range_meters":8400,"station_id":"ce4bgr92rcd13ifvqc6g","pricing_plan_id":"cebpf4jnsgd1na2vs0mg"},{"bike_id":"d729c0db-f8e3-4a17-9c0f-f35d2bace2da","system_id":"levelo_inurba_marseille","lat":43.313203,"lon":5.367342,"is_reserved":false,"is_disabled":false,"rental_uris":{"android":"levelo://app?vid=d729c0db-f8e3-4a17-9c0f-f35d2bace2da","ios":"levelo://app?vid=d729c0db-f8e3-4a17-9c0f-f35d2bace2da"},"vehicle_type_id":"4","last_reported":1761649745,"current_range_meters":8800,"station_id":"ce4bgr92rcd13ifvqc6g","pricing_plan_id":"cebpf4jnsgd1na2vs0mg"},{"bike_id":"a2b53201-7667-4052-8880-18effbe5f792","system_id":"levelo_inurba_marseille","lat":43.28682,"lon":5.38657,"is_reserved":false,"is_disabled":false,"rental_uris":{"android":"levelo://app?vid=a2b53201-7667-4052-8880-18effbe5f792","ios":"levelo://app?vid=a2b53201-7667-4052-8880-18effbe5f792"},"vehicle_type_id":"4","last_reported":1761649745,"current_range_meters":9200,"station_id":"ce4bh492rcd13ifvqdug","pricing_plan_id":"cebpf4jnsgd1na2vs0mg"},{"bike_id":"bbbf3dbb-fbe2-4b7e-bfad-c027ca4e1c25","system_id":"levelo_inurba_marseille","lat":43.28476,"lon":5.48393,"is_reserved":false,"is_disabled":false,"rental_uris":{"android":"levelo://app?vid=bbbf3dbb-fbe2-4b7e-bfad-c027ca4e1c25","ios":"levelo://app?vid=bbbf3dbb-fbe2-4b7e-bfad-c027ca4e1c25"},"vehicle_type_id":"4","last_reported":1761649745,"current_range_meters":9200,"station_id":"st_d3svhcjqgbts73a3dn0g","pricing_plan_id":"cebpf4jnsgd1na2vs0mg"},{"bike_id":"d940a89c-e506-4808-b0da-7a07838fdfff","system_id":"levelo_inurba_marseille","lat":43.27312,"lon":5.39074,"is_reserved":false,"is_disabled":false,"rental_uris":{"android":"levelo://app?vid=d940a89c-e506-4808-b0da-7a07838fdfff","ios":"levelo://app?vid=d940a89c-e506-4808-b0da-7a07838fdfff"},"vehicle_type_id":"4","last_reported":1761649745,"current_range_meters":9200,"station_id":"ce4bhgp2rcd13ifvqfe0","pricing_plan_id":"cebpf4jnsgd1na2vs0mg"},{"bike_id":"f5adc0f6-8f78-420c-a3cc-2381696afa4a","system_id":"levelo_inurba_marseille","lat":43.28853,"lon":5.42512,"is_reserved":false,"is_disabled":true,"rental_uris":{"android":"levelo://app?vid=f5adc0f6-8f78-420c-a3cc-2381696afa4a","ios":"levelo://app?vid=f5adc0f6-8f78-420c-a3cc-2381696afa4a"},"vehicle_type_id":"4","last_reported":1761649745,"current_range_meters":9200,"station_id":"st_d3b462108ojc7389ooeg","pricing_plan_id":"cebpf4jnsgd1na2vs0mg"},{"bike_id":"2319520a-fc10-4ea5-a5ca-d3a4702f6c7b","system_id":"levelo_inurba_marseille","lat":43.29898,"lon":5.43664,"is_reserved":false,"is_disabled":false,"rental_uris":{"android":"levelo://app?vid=2319520a-fc10-4ea5-a5ca-d3a4702f6c7b","ios":"levelo://app?vid=2319520a-fc10-4ea5-a5ca-d3a4702f6c7b"},"vehicle_type_id":"4","last_reported":1761649745,"current_range_meters":9600,"station_id":"ce4bhpp2rcd13ifvqhfg","pricing_plan_id":"cebpf4jnsgd1na2vs0mg"},{"bike_id":"3e015c14-d665-4e19-8f59-83bc78f5c5f8","system_id":"levelo_inurba_marseille","lat":43.28615,"lon":5.35101,"is_reserved":false,"is_disabled":false,"rental_uris":{"android":"levelo://app?vid=3e015c14-d665-4e19-8f59-83bc78f5c5f8","ios":"levelo://app?vid=3e015c14-d665-4e19-8f59-83bc78f5c5f8"},"vehicle_type_id":"4","last_reported":1761649745,"current_range_meters":9600,"station_id":"ce4bhch2rcd13ifvqeug","pricing_plan_id":"cebpf4jnsgd1na2vs0mg"},{"bike_id":"eea3c3c3-734f-4fd3-8061-ed84cfe47b38","system_id":"levelo_inurba_marseille","lat":43.32555,"lon":5.39104,"is_reserved":false,"is_disabled":false,"rental_uris":{"android":"levelo://app?vid=eea3c3c3-734f-4fd3-8061-ed84cfe47b38","ios":"levelo://app?vid=eea3c3c3-734f-4fd3-8061-ed84cfe47b38"},"vehicle_type_id":"4","last_reported":1761649745,"current_range_meters":9600,"station_id":"","pricing_plan_id":"cebpf4jnsgd1na2vs0mg"},{"bike_id":"b3241da2-f8bb-47f5-a1fb-added95072c1","system_id":"levelo_inurba_marseille","lat":43.253371,"lon":5.421779,"is_reserved":false,"is_disabled":false,"rental_uris":{"android":"levelo://app?vid=b3241da2-f8bb-47f5-a1fb-added95072c1","ios":"levelo://app?vid=b3241da2-f8bb-47f5-a1fb-added95072c1"},"vehicle_type_id":"4","last_reported":1761649745,"current_range_meters":9600,"station_id":"st_d2m65c5bi1j21697t3ng","pricing_plan_id":"cebpf4jnsgd1na2vs0mg"},{"bike_id":"c896b697-d7c3-47ea-81cb-50811f76c96f","system_id":"levelo_inurba_marseille","lat":43.25087,"lon":5.39511,"is_reserved":false,"is_disabled":false,"rental_uris":{"android":"levelo://app?vid=c896b697-d7c3-47ea-81cb-50811f76c96f","ios":"levelo://app?vid=c896b697-d7c3-47ea-81cb-50811f76c96f"},"vehicle_type_id":"4","last_reported":1761649745,"current_range_meters":10000,"station_id":"ce4bhm12rcd13ifvqgkg","pricing_plan_id":"cebpf4jnsgd1na2vs0mg"},{"bike_id":"836f14e1-39bc-446a-8e26-833658824b6e","system_id":"levelo_inurba_marseille","lat":43.28193,"lon":5.39072,"is_reserved":false,"is_disabled":false,"rental_uris":{"android":"levelo://app?vid=836f14e1-39bc-446a-8e26-833658824b6e","ios":"levelo://app?vid=836f14e1-39bc-446a-8e26-833658824b6e"},"vehicle_type_id":"4","last_reported":1761649745,"current_range_meters":10800,"station_id":"ce4bhn92rcd13ifvqgsg","pricing_plan_id":"cebpf4jnsgd1na2vs0mg"},{"bike_id":"f3673a60-efd2-465f-aa18-cb0baaf105f7","system_id":"levelo_inurba_marseille","lat":43.31073,"lon":5.40036,"is_reserved":false,"is_disabled":false,"rental_uris":{"android":"levelo://app?vid=f3673a60-efd2-465f-aa18-cb0baaf105f7","ios":"levelo://app?vid=f3673a60-efd2-465f-aa18-cb0baaf105f7"},"vehicle_type_id":"4","last_reported":1761649745,"current_range_meters":10800,"station_id":"","pricing_plan_id":"cebpf4jnsgd1na2vs0mg"},{"bike_id":"d840e009-d66a-4263-964b-f2c1c855217d","system_id":"levelo_inurba_marseille","lat":43.297554,"lon":5.427757,"is_reserved":false,"is_disabled":false,"rental_uris":{"android":"levelo://app?vid=d840e009-d66a-4263-964b-f2c1c855217d","ios":"levelo://app?vid=d840e009-d66a-4263-964b-f2c1c855217d"},"vehicle_type_id":"4","last_reported":1761649745,"current_range_meters":10800,"station_id":"st_d3md5207bmas73dh9klg","pricing_plan_id":"cebpf4jnsgd1na2vs0mg"},{"bike_id":"1880ebb9-7edb-463e-976b-226e958b9ebe","system_id":"levelo_inurba_marseille","lat":43.31097,"lon":5.37487,"is_reserved":false,"is_disabled":false,"rental_uris":{"android":"levelo://app?vid=1880ebb9-7edb-463e-976b-226e958b9ebe","ios":"levelo://app?vid=1880ebb9-7edb-463e-976b-226e958b9ebe"},"vehicle_type_id":"4","last_reported":1761649745,"current_range_meters":11200,"station_id":"ce4bgt12rcd13ifvqce0","pricing_plan_id":"cebpf4jnsgd1na2vs0mg"},{"bike_id":"8062c369-ff3b-4a48-b2ef-d270e82c4cf4","system_id":"levelo_inurba_marseille","lat":43.23063,"lon":5.35446,"is_reserved":false,"is_disabled":false,"rental_uris":{"android":"levelo://app?vid=8062c369-ff3b-4a48-b2ef-d270e82c4cf4","ios":"levelo://app?vid=8062c369-ff3b-4a48-b2ef-d270e82c4cf4"},"vehicle_type_id":"4","last_reported":1761649745,"current_range_meters":11200,"station_id":"cpo3342slgdg3j2ifvpg","pricing_plan_id":"cebpf4jnsgd1na2vs0mg"},{"bike_id":"aaaed192-3f15-422a-b1fc-58052d869cd7","system_id":"levelo_inurba_marseille","lat":43.26676,"lon":5.38275,"is_reserved":false,"is_disabled":false,"rental_uris":{"android":"levelo://app?vid=aaaed192-3f15-422a-b1fc-58052d869cd7","ios":"levelo://app?vid=aaaed192-3f15-422a-b1fc-58052d869cd7"},"vehicle_type_id":"4","last_reported":1761649745,"current_range_meters":11200,"station_id":"ce4bhg92rcd13ifvqf90","pricing_plan_id":"cebpf4jnsgd1na2vs0mg"},{"bike_id":"ff806bd2-c7e9-493a-9703-ad992684e451","system_id":"levelo_inurba_marseille","lat":43.296263,"lon":5.377142,"is_reserved":false,"is_disabled":true,"rental_uris":{"android":"levelo://app?vid=ff806bd2-c7e9-493a-9703-ad992684e451","ios":"levelo://app?vid=ff806bd2-c7e9-493a-9703-ad992684e451"},"vehicle_type_id":"4","last_reported":1761649745,"current_range_meters":11600,"station_id":"","pricing_plan_id":"cebpf4jnsgd1na2vs0mg"},{"bike_id":"dbcbcef0-4b5f-446e-9d2e-80d991993c2b","system_id":"levelo_inurba_marseille","lat":43.29528,"lon":5.40233,"is_reserved":false,"is_disabled":false,"rental_uris":{"android":"levelo://app?vid=dbcbcef0-4b5f-446e-9d2e-80d991993c2b","ios":"levelo://app?vid=dbcbcef0-4b5f-446e-9d2e-80d991993c2b"},"vehicle_type_id":"4","last_reported":1761649745,"current_range_meters":11600,"station_id":"","pricing_plan_id":"cebpf4jnsgd1na2vs0mg"},{"bike_id":"4bf9d265-8b82-4e6d-af96-57b56fdfaed3","system_id":"levelo_inurba_marseille","lat":43.29753,"lon":5.42779,"is_reserved":false,"is_disabled":false,"rental_uris":{"android":"levelo://app?vid=4bf9d265-8b82-4e6d-af96-57b56fdfaed3","ios":"levelo://app?vid=4bf9d265-8b82-4e6d-af96-57b56fdfaed3"},"vehicle_type_id":"4","last_reported":1761649745,"current_range_meters":12000,"station_id":"st_d3md5207bmas73dh9klg","pricing_plan_id":"cebpf4jnsgd1na2vs0mg"},{"bike_id":"7b1b6fda-acbf-4bcc-9c4e-eb02a7bb672a","system_id":"levelo_inurba_marseille","lat":43.24171,"lon":5.36394,"is_reserved":false,"is_disabled":false,"rental_uris":{"android":"levelo://app?vid=7b1b6fda-acbf-4bcc-9c4e-eb02a7bb672a","ios":"levelo://app?vid=7b1b6fda-acbf-4bcc-9c4e-eb02a7bb672a"},"vehicle_type_id":"4","last_reported":1761649745,"current_range_meters":12400,"station_id":"cpo36qri1sfpv3e86is0","pricing_plan_id":"cebpf4jnsgd1na2vs0mg"},{"bike_id":"c592c177-6813-4a1b-87e7-a1311d7aad3c","system_id":"levelo_inurba_marseille","lat":43.30465,"lon":5.37913,"is_reserved":false,"is_disabled":false,"rental_uris":{"android":"levelo://app?vid=c592c177-6813-4a1b-87e7-a1311d7aad3c","ios":"levelo://app?vid=c592c177-6813-4a1b-87e7-a1311d7aad3c"},"vehicle_type_id":"4","last_reported":1761649745,"current_range_meters":12400,"station_id":"ce4bgup2rcd13ifvqcn0","pricing_plan_id":"cebpf4jnsgd1na2vs0mg"},{"bike_id":"72027f48-7d34-4735-a026-8054254790a8","system_id":"levelo_inurba_marseille","lat":43.29004,"lon":5.35609,"is_reserved":false,"is_disabled":false,"rental_uris":{"android":"levelo://app?vid=72027f48-7d34-4735-a026-8054254790a8","ios":"levelo://app?vid=72027f48-7d34-4735-a026-8054254790a8"},"vehicle_type_id":"4","last_reported":1761649745,"current_range_meters":12400,"station_id":"ce4bhb92rcd13ifvqen0","pricing_plan_id":"cebpf4jnsgd1na2vs0mg"},{"bike_id":"9eb27e8b-0951-4c08-8214-6e629081e2a3","system_id":"levelo_inurba_marseille","lat":43.24175,"lon":5.36411,"is_reserved":false,"is_disabled":false,"rental_uris":{"android":"levelo://app?vid=9eb27e8b-0951-4c08-8214-6e629081e2a3","ios":"levelo://app?vid=9eb27e8b-0951-4c08-8214-6e629081e2a3"},"vehicle_type_id":"4","last_reported":1761649745,"current_range_meters":12400,"station_id":"cpo36qri1sfpv3e86is0","pricing_plan_id":"cebpf4jnsgd1na2vs0mg"},{"bike_id":"6abb9e09-33f3-43f3-9417-8cc0cf0144f6","system_id":"levelo_inurba_marseille","lat":43.29927,"lon":5.37441,"is_reserved":false,"is_disabled":false,"rental_uris":{"android":"levelo://app?vid=6abb9e09-33f3-43f3-9417-8cc0cf0144f6","ios":"levelo://app?vid=6abb9e09-33f3-43f3-9417-8cc0cf0144f6"},"vehicle_type_id":"4","last_reported":1761649745,"current_range_meters":12400,"station_id":"ce4bgjh2rcd13ifvqbg0","pricing_plan_id":"cebpf4jnsgd1na2vs0mg"},{"bike_id":"da7305bc-9098-4a3f-9bea-8372d29d8b76","system_id":"levelo_inurba_marseille","lat":43.312321,"lon":5.36851,"is_reserved":false,"is_disabled":false,"rental_uris":{"android":"levelo://app?vid=da7305bc-9098-4a3f-9bea-8372d29d8b76","ios":"levelo://app?vid=da7305bc-9098-4a3f-9bea-8372d29d8b76"},"vehicle_type_id":"4","last_reported":1761649745,"current_range_meters":12800,"station_id":"ce4bgl92rcd13ifvqbq0","pricing_plan_id":"cebpf4jnsgd1na2vs0mg"},{"bike_id":"d7b556e6-ac3d-4fe4-b136-c7cd05c756e3","system_id":"levelo_inurba_marseille","lat":43.23064,"lon":5.35487,"is_reserved":false,"is_disabled":false,"rental_uris":{"android":"levelo://app?vid=d7b556e6-ac3d-4fe4-b136-c7cd05c756e3","ios":"levelo://app?vid=d7b556e6-ac3d-4fe4-b136-c7cd05c756e3"},"vehicle_type_id":"4","last_reported":1761649745,"current_range_meters":13600,"station_id":"cpo3342slgdg3j2ifvpg","pricing_plan_id":"cebpf4jnsgd1na2vs0mg"},{"bike_id":"0b29f2b5-468f-4c39-baef-fa8688d42667","system_id":"levelo_inurba_marseille","lat":43.29223,"lon":5.3606,"is_reserved":false,"is_disabled":false,"rental_uris":{"android":"levelo://app?vid=0b29f2b5-468f-4c39-baef-fa8688d42667","ios":"levelo://app?vid=0b29f2b5-468f-4c39-baef-fa8688d42667"},"vehicle_type_id":"4","last_reported":1761649745,"current_range_meters":13600,"station_id":"ce4bhbh2rcd13ifvqeqg","pricing_plan_id":"cebpf4jnsgd1na2vs0mg"},{"bike_id":"f568391f-b71f-4807-9099-53eb6b0dc22d","system_id":"levelo_inurba_marseille","lat":43.29785,"lon":5.38153,"is_reserved":false,"is_disabled":false,"rental_uris":{"android":"levelo://app?vid=f568391f-b71f-4807-9099-53eb6b0dc22d","ios":"levelo://app?vid=f568391f-b71f-4807-9099-53eb6b0dc22d"},"vehicle_type_id":"4","last_reported":1761649745,"current_range_meters":13600,"station_id":"ce4bgip2rcd13ifvqbb0","pricing_plan_id":"cebpf4jnsgd1na2vs0mg"},{"bike_id":"8f21cba2-f85c-41c4-a39d-7cb2d0dd35a0","system_id":"levelo_inurba_marseille","lat":43.24386,"lon":5.37055,"is_reserved":false,"is_disabled":false,"rental_uris":{"android":"levelo://app?vid=8f21cba2-f85c-41c4-a39d-7cb2d0dd35a0","ios":"levelo://app?vid=8f21cba2-f85c-41c4-a39d-7cb2d0dd35a0"},"vehicle_type_id":"4","last_reported":1761649745,"current_range_meters":13600,"station_id":"ce4bhhh2rcd13ifvqfk0","pricing_plan_id":"cebpf4jnsgd1na2vs0mg"},{"bike_id":"d5ca831f-8041-403e-ada8-7b4196c3d5be","system_id":"levelo_inurba_marseille","lat":43.293714,"lon":5.379385,"is_reserved":false,"is_disabled":false,"rental_uris":{"android":"levelo://app?vid=d5ca831f-8041-403e-ada8-7b4196c3d5be","ios":"levelo://app?vid=d5ca831f-8041-403e-ada8-7b4196c3d5be"},"vehicle_type_id":"4","last_reported":1761649745,"current_range_meters":13600,"station_id":"","pricing_plan_id":"cebpf4jnsgd1na2vs0mg"},{"bike_id":"1429ad51-b2c4-4486-af1d-e82cd091d65b","system_id":"levelo_inurba_marseille","lat":43.29368,"lon":5.37842,"is_reserved":false,"is_disabled":false,"rental_uris":{"android":"levelo://app?vid=1429ad51-b2c4-4486-af1d-e82cd091d65b","ios":"levelo://app?vid=1429ad51-b2c4-4486-af1d-e82cd091d65b"},"vehicle_type_id":"4","last_reported":1761649745,"current_range_meters":13600,"station_id":"ce4bgjh2rcd13ifvqbf0","pricing_plan_id":"cebpf4jnsgd1na2vs0mg"},{"bike_id":"aaa731ae-3c8e-44e7-b3b3-1a62fe8fd280","system_id":"levelo_inurba_marseille","lat":43.22552,"lon":5.41638,"is_reserved":false,"is_disabled":false,"rental_uris":{"android":"levelo://app?vid=aaa731ae-3c8e-44e7-b3b3-1a62fe8fd280","ios":"levelo://app?vid=aaa731ae-3c8e-44e7-b3b3-1a62fe8fd280"},"vehicle_type_id":"4","last_reported":1761649745,"current_range_meters":14000,"station_id":"st_d2o4gvlbi1j2169b742g","pricing_plan_id":"cebpf4jnsgd1na2vs0mg"},{"bike_id":"d29f7c8a-4c3a-438f-9a0a-9878d9035f6a","system_id":"levelo_inurba_marseille","lat":43.29093,"lon":5.381393,"is_reserved":false,"is_disabled":false,"rental_uris":{"android":"levelo://app?vid=d29f7c8a-4c3a-438f-9a0a-9878d9035f6a","ios":"levelo://app?vid=d29f7c8a-4c3a-438f-9a0a-9878d9035f6a"},"vehicle_type_id":"4","last_reported":1761649745,"current_range_meters":14000,"station_id":"ce4bh512rcd13ifvqe2g","pricing_plan_id":"cebpf4jnsgd1na2vs0mg"},{"bike_id":"8558a5c2-c98c-435f-9440-bff6aaf9cb32","system_id":"levelo_inurba_marseille","lat":43.28706,"lon":5.39997,"is_reserved":false,"is_disabled":true,"rental_uris":{"android":"levelo://app?vid=8558a5c2-c98c-435f-9440-bff6aaf9cb32","ios":"levelo://app?vid=8558a5c2-c98c-435f-9440-bff6aaf9cb32"},"vehicle_type_id":"4","last_reported":1761649745,"current_range_meters":14000,"station_id":"ce4bho92rcd13ifvqh3g","pricing_plan_id":"cebpf4jnsgd1na2vs0mg"},{"bike_id":"67b6b2af-170f-4d3f-b658-3b5832e081b4","system_id":"levelo_inurba_marseille","lat":43.246666,"lon":5.381546,"is_reserved":false,"is_disabled":false,"rental_uris":{"android":"levelo://app?vid=67b6b2af-170f-4d3f-b658-3b5832e081b4","ios":"levelo://app?vid=67b6b2af-170f-4d3f-b658-3b5832e081b4"},"vehicle_type_id":"4","last_reported":1761649745,"current_range_meters":14000,"station_id":"","pricing_plan_id":"cebpf4jnsgd1na2vs0mg"},{"bike_id":"a60cb070-d57c-4cd2-8d5d-f1d4b549ff3a","system_id":"levelo_inurba_marseille","lat":43.32355,"lon":5.36757,"is_reserved":false,"is_disabled":false,"rental_uris":{"android":"levelo://app?vid=a60cb070-d57c-4cd2-8d5d-f1d4b549ff3a","ios":"levelo://app?vid=a60cb070-d57c-4cd2-8d5d-f1d4b549ff3a"},"vehicle_type_id":"4","last_reported":1761649745,"current_range_meters":14000,"station_id":"ce4bhsh2rcd13ifvqi2g","pricing_plan_id":"cebpf4jnsgd1na2vs0mg"},{"bike_id":"1ee4e481-212e-4409-a7c4-795d220b77e3","system_id":"levelo_inurba_marseille","lat":43.24953,"lon":5.40493,"is_reserved":false,"is_disabled":false,"rental_uris":{"android":"levelo://app?vid=1ee4e481-212e-4409-a7c4-795d220b77e3","ios":"levelo://app?vid=1ee4e481-212e-4409-a7c4-795d220b77e3"},"vehicle_type_id":"4","last_reported":1761649745,"current_range_meters":14000,"station_id":"st_d2ngiaodas8pm72gd1h0","pricing_plan_id":"cebpf4jnsgd1na2vs0mg"},{"bike_id":"97e7dceb-337d-4d27-b699-2508ccea9e4b","system_id":"levelo_inurba_marseille","lat":43.28962,"lon":5.37823,"is_reserved":false,"is_disabled":false,"rental_uris":{"android":"levelo://app?vid=97e7dceb-337d-4d27-b699-2508ccea9e4b","ios":"levelo://app?vid=97e7dceb-337d-4d27-b699-2508ccea9e4b"},"vehicle_type_id":"4","last_reported":1761649745,"current_range_meters":14000,"station_id":"ce4bh9p2rcd13ifvqed0","pricing_plan_id":"cebpf4jnsgd1na2vs0mg"},{"bike_id":"72210952-cf0a-4d44-9294-6e1c3e09ab4f","system_id":"levelo_inurba_marseille","lat":43.29594,"lon":5.38102,"is_reserved":false,"is_disabled":false,"rental_uris":{"android":"levelo://app?vid=72210952-cf0a-4d44-9294-6e1c3e09ab4f","ios":"levelo://app?vid=72210952-cf0a-4d44-9294-6e1c3e09ab4f"},"vehicle_type_id":"4","last_reported":1761649745,"current_range_meters":14000,"station_id":"ce4bgl12rcd13ifvqbo0","pricing_plan_id":"cebpf4jnsgd1na2vs0mg"},{"bike_id":"346d6f79-04b0-4e22-920d-e52df028ef66","system_id":"levelo_inurba_marseille","lat":43.23962,"lon":5.36635,"is_reserved":false,"is_disabled":false,"rental_uris":{"android":"levelo://app?vid=346d6f79-04b0-4e22-920d-e52df028ef66","ios":"levelo://app?vid=346d6f79-04b0-4e22-920d-e52df028ef66"},"vehicle_type_id":"4","last_reported":1761649745,"current_range_meters":14000,"station_id":"ce4bhi12rcd13ifvqfp0","pricing_plan_id":"cebpf4jnsgd1na2vs0mg"},{"bike_id":"2e29e5d5-f02d-4370-b8c2-460ebc9602c5","system_id":"levelo_inurba_marseille","lat":43.27064,"lon":5.4026,"is_reserved":false,"is_disabled":false,"rental_uris":{"android":"levelo://app?vid=2e29e5d5-f02d-4370-b8c2-460ebc9602c5","ios":"levelo://app?vid=2e29e5d5-f02d-4370-b8c2-460ebc9602c5"},"vehicle_type_id":"4","last_reported":1761649745,"current_range_meters":14000,"station_id":"ce4bhk92rcd13ifvqgc0","pricing_plan_id":"cebpf4jnsgd1na2vs0mg"},{"bike_id":"71df2937-bbff-4d30-8dd7-180ea0c2a2a9","system_id":"levelo_inurba_marseille","lat":43.302452,"lon":5.400772,"is_reserved":false,"is_disabled":false,"rental_uris":{"android":"levelo://app?vid=71df2937-bbff-4d30-8dd7-180ea0c2a2a9","ios":"levelo://app?vid=71df2937-bbff-4d30-8dd7-180ea0c2a2a9"},"vehicle_type_id":"4","last_reported":1761649745,"current_range_meters":14000,"station_id":"ce4bgvh2rcd13ifvqcs0","pricing_plan_id":"cebpf4jnsgd1na2vs0mg"},{"bike_id":"1fd266e2-e6c9-4a7e-8908-3af2fd2d0233","system_id":"levelo_inurba_marseille","lat":43.23795,"lon":5.36409,"is_reserved":false,"is_disabled":false,"rental_uris":{"android":"levelo://app?vid=1fd266e2-e6c9-4a7e-8908-3af2fd2d0233","ios":"levelo://app?vid=1fd266e2-e6c9-4a7e-8908-3af2fd2d0233"},"vehicle_type_id":"4","last_reported":1761649745,"current_range_meters":14000,"station_id":"","pricing_plan_id":"cebpf4jnsgd1na2vs0mg"},{"bike_id":"e1ca1064-3ac1-495e-b8d2-df8047d11b2e","system_id":"levelo_inurba_marseille","lat":43.284796,"lon":5.483853,"is_reserved":false,"is_disabled":false,"rental_uris":{"android":"levelo://app?vid=e1ca1064-3ac1-495e-b8d2-df8047d11b2e","ios":"levelo://app?vid=e1ca1064-3ac1-495e-b8d2-df8047d11b2e"},"vehicle_type_id":"4","last_reported":1761649745,"current_range_meters":14000,"station_id":"st_d3svhcjqgbts73a3dn0g","pricing_plan_id":"cebpf4jnsgd1na2vs0mg"},{"bike_id":"310e927d-d5b8-4a6f-82be-2d623690659d","system_id":"levelo_inurba_marseille","lat":43.31282,"lon":5.37729,"is_reserved":false,"is_disabled":false,"rental_uris":{"android":"levelo://app?vid=310e927d-d5b8-4a6f-82be-2d623690659d","ios":"levelo://app?vid=310e927d-d5b8-4a6f-82be-2d623690659d"},"vehicle_type_id":"4","last_reported":1761649745,"current_range_meters":14400,"station_id":"","pricing_plan_id":"cebpf4jnsgd1na2vs0mg"},{"bike_id":"db88a8a5-5637-4384-a6d7-41d8f099747a","system_id":"levelo_inurba_marseille","lat":43.312379,"lon":5.368484,"is_reserved":false,"is_disabled":false,"rental_uris":{"android":"levelo://app?vid=db88a8a5-5637-4384-a6d7-41d8f099747a","ios":"levelo://app?vid=db88a8a5-5637-4384-a6d7-41d8f099747a"},"vehicle_type_id":"4","last_reported":1761649745,"current_range_meters":14400,"station_id":"ce4bgr92rcd13ifvqc6g","pricing_plan_id":"cebpf4jnsgd1na2vs0mg"},{"bike_id":"dccef0b1-edb3-49b5-866c-43e10e5763cc","system_id":"levelo_inurba_marseille","lat":43.288095,"lon":5.438311,"is_reserved":false,"is_disabled":false,"rental_uris":{"android":"levelo://app?vid=dccef0b1-edb3-49b5-866c-43e10e5763cc","ios":"levelo://app?vid=dccef0b1-edb3-49b5-866c-43e10e5763cc"},"vehicle_type_id":"4","last_reported":1761649745,"current_range_meters":14400,"station_id":"","pricing_plan_id":"cebpf4jnsgd1na2vs0mg"},{"bike_id":"49ed0d39-51fe-4cd4-8527-50556baa8749","system_id":"levelo_inurba_marseille","lat":43.22531,"lon":5.348321,"is_reserved":false,"is_disabled":false,"rental_uris":{"android":"levelo://app?vid=49ed0d39-51fe-4cd4-8527-50556baa8749","ios":"levelo://app?vid=49ed0d39-51fe-4cd4-8527-50556baa8749"},"vehicle_type_id":"4","last_reported":1761649745,"current_range_meters":14400,"station_id":"","pricing_plan_id":"cebpf4jnsgd1na2vs0mg"},{"bike_id":"e975e8a7-f7cd-4da8-aa29-5220da96c704","system_id":"levelo_inurba_marseille","lat":43.32355,"lon":5.36756,"is_reserved":false,"is_disabled":true,"rental_uris":{"android":"levelo://app?vid=e975e8a7-f7cd-4da8-aa29-5220da96c704","ios":"levelo://app?vid=e975e8a7-f7cd-4da8-aa29-5220da96c704"},"vehicle_type_id":"4","last_reported":1761649745,"current_range_meters":14400,"station_id":"ce4bhsh2rcd13ifvqi2g","pricing_plan_id":"cebpf4jnsgd1na2vs0mg"},{"bike_id":"0514a3f3-67b0-4c2b-ad12-4e0494958384","system_id":"levelo_inurba_marseille","lat":43.24176,"lon":5.39721,"is_reserved":false,"is_disabled":false,"rental_uris":{"android":"levelo://app?vid=0514a3f3-67b0-4c2b-ad12-4e0494958384","ios":"levelo://app?vid=0514a3f3-67b0-4c2b-ad12-4e0494958384"},"vehicle_type_id":"4","last_reported":1761649745,"current_range_meters":14800,"station_id":"ce4bhn12rcd13ifvqgpg","pricing_plan_id":"cebpf4jnsgd1na2vs0mg"},{"bike_id":"dced2bcc-e95f-44ce-b7d8-7bb47def612a","system_id":"levelo_inurba_marseille","lat":43.2307,"lon":5.35496,"is_reserved":false,"is_disabled":false,"rental_uris":{"android":"levelo://app?vid=dced2bcc-e95f-44ce-b7d8-7bb47def612a","ios":"levelo://app?vid=dced2bcc-e95f-44ce-b7d8-7bb47def612a"},"vehicle_type_id":"4","last_reported":1761649745,"current_range_meters":14800,"station_id":"cpo3342slgdg3j2ifvpg","pricing_plan_id":"cebpf4jnsgd1na2vs0mg"},{"bike_id":"653b8e05-be85-45e5-8c66-8b8211dfe63a","system_id":"levelo_inurba_marseille","lat":43.225281,"lon":5.348404,"is_reserved":false,"is_disabled":false,"rental_uris":{"android":"levelo://app?vid=653b8e05-be85-45e5-8c66-8b8211dfe63a","ios":"levelo://app?vid=653b8e05-be85-45e5-8c66-8b8211dfe63a"},"vehicle_type_id":"4","last_reported":1761649745,"current_range_meters":14800,"station_id":"","pricing_plan_id":"cebpf4jnsgd1na2vs0mg"},{"bike_id":"b5821bab-7159-4d11-ae27-a8bfd4f60bfb","system_id":"levelo_inurba_marseille","lat":43.26196,"lon":5.37444,"is_reserved":false,"is_disabled":false,"rental_uris":{"android":"levelo://app?vid=b5821bab-7159-4d11-ae27-a8bfd4f60bfb","ios":"levelo://app?vid=b5821bab-7159-4d11-ae27-a8bfd4f60bfb"},"vehicle_type_id":"4","last_reported":1761649745,"current_range_meters":14800,"station_id":"ce4bhgp2rcd13ifvqfc0","pricing_plan_id":"cebpf4jnsgd1na2vs0mg"},{"bike_id":"94e6b0aa-f8c9-477e-8091-c3a189e0f238","system_id":"levelo_inurba_marseille","lat":43.2966,"lon":5.38102,"is_reserved":false,"is_disabled":false,"rental_uris":{"android":"levelo://app?vid=94e6b0aa-f8c9-477e-8091-c3a189e0f238","ios":"levelo://app?vid=94e6b0aa-f8c9-477e-8091-c3a189e0f238"},"vehicle_type_id":"4","last_reported":1761649745,"current_range_meters":15200,"station_id":"","pricing_plan_id":"cebpf4jnsgd1na2vs0mg"},{"bike_id":"2be3bf9b-39f4-4c37-8c01-9e9bcabe1c53","system_id":"levelo_inurba_marseille","lat":43.33741,"lon":5.37444,"is_reserved":false,"is_disabled":false,"rental_uris":{"android":"levelo://app?vid=2be3bf9b-39f4-4c37-8c01-9e9bcabe1c53","ios":"levelo://app?vid=2be3bf9b-39f4-4c37-8c01-9e9bcabe1c53"},"vehicle_type_id":"4","last_reported":1761649745,"current_range_meters":15200,"station_id":"","pricing_plan_id":"cebpf4jnsgd1na2vs0mg"},{"bike_id":"4ddfb4bb-556a-4528-9867-2221062f07d7","system_id":"levelo_inurba_marseille","lat":43.25923,"lon":5.40902,"is_reserved":false,"is_disabled":false,"rental_uris":{"android":"levelo://app?vid=4ddfb4bb-556a-4528-9867-2221062f07d7","ios":"levelo://app?vid=4ddfb4bb-556a-4528-9867-2221062f07d7"},"vehicle_type_id":"4","last_reported":1761649745,"current_range_meters":15200,"station_id":"ce4bhm92rcd13ifvqglg","pricing_plan_id":"cebpf4jnsgd1na2vs0mg"},{"bike_id":"f4ae8a8d-d71a-4e48-9339-66550bde7b84","system_id":"levelo_inurba_marseille","lat":43.296782,"lon":5.378637,"is_reserved":false,"is_disabled":false,"rental_uris":{"android":"levelo://app?vid=f4ae8a8d-d71a-4e48-9339-66550bde7b84","ios":"levelo://app?vid=f4ae8a8d-d71a-4e48-9339-66550bde7b84"},"vehicle_type_id":"4","last_reported":1761649745,"current_range_meters":16000,"station_id":"","pricing_plan_id":"cebpf4jnsgd1na2vs0mg"},{"bike_id":"ae8ebe94-fc0f-4409-8f77-39eb5c613a67","system_id":"levelo_inurba_marseille","lat":43.337444,"lon":5.374475,"is_reserved":false,"is_disabled":false,"rental_uris":{"android":"levelo://app?vid=ae8ebe94-fc0f-4409-8f77-39eb5c613a67","ios":"levelo://app?vid=ae8ebe94-fc0f-4409-8f77-39eb5c613a67"},"vehicle_type_id":"4","last_reported":1761649745,"current_range_meters":16400,"station_id":"","pricing_plan_id":"cebpf4jnsgd1na2vs0mg"},{"bike_id":"e27d8dba-3057-434b-857d-2d3bf43465a3","system_id":"levelo_inurba_marseille","lat":43.27812,"lon":5.40713,"is_reserved":false,"is_disabled":false,"rental_uris":{"android":"levelo://app?vid=e27d8dba-3057-434b-857d-2d3bf43465a3","ios":"levelo://app?vid=e27d8dba-3057-434b-857d-2d3bf43465a3"},"vehicle_type_id":"4","last_reported":1761649745,"current_range_meters":16400,"station_id":"ce4bhnh2rcd13ifvqgtg","pricing_plan_id":"cebpf4jnsgd1na2vs0mg"},{"bike_id":"dc3f4f27-0c87-4208-8c15-6b40e049f762","system_id":"levelo_inurba_marseille","lat":43.231555,"lon":5.437056,"is_reserved":false,"is_disabled":false,"rental_uris":{"android":"levelo://app?vid=dc3f4f27-0c87-4208-8c15-6b40e049f762","ios":"levelo://app?vid=dc3f4f27-0c87-4208-8c15-6b40e049f762"},"vehicle_type_id":"4","last_reported":1761649745,"current_range_meters":16400,"station_id":"","pricing_plan_id":"cebpf4jnsgd1na2vs0mg"},{"bike_id":"32d7653e-b033-4183-b4c0-f44169bb9067","system_id":"levelo_inurba_marseille","lat":43.32699,"lon":5.39208,"is_reserved":false,"is_disabled":false,"rental_uris":{"android":"levelo://app?vid=32d7653e-b033-4183-b4c0-f44169bb9067","ios":"levelo://app?vid=32d7653e-b033-4183-b4c0-f44169bb9067"},"vehicle_type_id":"4","last_reported":1761649745,"current_range_meters":16400,"station_id":"","pricing_plan_id":"cebpf4jnsgd1na2vs0mg"},{"bike_id":"452e8e6e-6805-4d8b-9b13-79df7a637126","system_id":"levelo_inurba_marseille","lat":43.24391,"lon":5.37062,"is_reserved":false,"is_disabled":false,"rental_uris":{"android":"levelo://app?vid=452e8e6e-6805-4d8b-9b13-79df7a637126","ios":"levelo://app?vid=452e8e6e-6805-4d8b-9b13-79df7a637126"},"vehicle_type_id":"4","last_reported":1761649745,"current_range_meters":16400,"station_id":"ce4bhhh2rcd13ifvqfk0","pricing_plan_id":"cebpf4jnsgd1na2vs0mg"},{"bike_id":"f15570b1-d048-4260-a935-7e7da6c53c57","system_id":"levelo_inurba_marseille","lat":43.296382,"lon":5.403498,"is_reserved":false,"is_disabled":false,"rental_uris":{"android":"levelo://app?vid=f15570b1-d048-4260-a935-7e7da6c53c57","ios":"levelo://app?vid=f15570b1-d048-4260-a935-7e7da6c53c57"},"vehicle_type_id":"4","last_reported":1761649745,"current_range_meters":16400,"station_id":"ce4bh0h2rcd13ifvqd60","pricing_plan_id":"cebpf4jnsgd1na2vs0mg"},{"bike_id":"5da56f60-eea9-45b5-99da-c00962ebea83","system_id":"levelo_inurba_marseille","lat":43.32278,"lon":5.38263,"is_reserved":false,"is_disabled":false,"rental_uris":{"android":"levelo://app?vid=5da56f60-eea9-45b5-99da-c00962ebea83","ios":"levelo://app?vid=5da56f60-eea9-45b5-99da-c00962ebea83"},"vehicle_type_id":"4","last_reported":1761649745,"current_range_meters":16400,"station_id":"ce4bhr12rcd13ifvqhqg","pricing_plan_id":"cebpf4jnsgd1na2vs0mg"},{"bike_id":"ca74f834-fd97-40bb-9620-5cb38a5d3e28","system_id":"levelo_inurba_marseille","lat":43.22932,"lon":5.35373,"is_reserved":false,"is_disabled":false,"rental_uris":{"android":"levelo://app?vid=ca74f834-fd97-40bb-9620-5cb38a5d3e28","ios":"levelo://app?vid=ca74f834-fd97-40bb-9620-5cb38a5d3e28"},"vehicle_type_id":"4","last_reported":1761649745,"current_range_meters":16800,"station_id":"cpo3532slgdg3j2ikp40","pricing_plan_id":"cebpf4jnsgd1na2vs0mg"},{"bike_id":"039bc2a1-d6c3-4575-b438-461c7ae7e51b","system_id":"levelo_inurba_marseille","lat":43.28217,"lon":5.39055,"is_reserved":false,"is_disabled":false,"rental_uris":{"android":"levelo://app?vid=039bc2a1-d6c3-4575-b438-461c7ae7e51b","ios":"levelo://app?vid=039bc2a1-d6c3-4575-b438-461c7ae7e51b"},"vehicle_type_id":"4","last_reported":1761649745,"current_range_meters":17200,"station_id":"ce4bhn92rcd13ifvqgsg","pricing_plan_id":"cebpf4jnsgd1na2vs0mg"},{"bike_id":"fc689893-6350-4e0a-916a-a88878849e6a","system_id":"levelo_inurba_marseille","lat":43.30382,"lon":5.42486,"is_reserved":false,"is_disabled":false,"rental_uris":{"android":"levelo://app?vid=fc689893-6350-4e0a-916a-a88878849e6a","ios":"levelo://app?vid=fc689893-6350-4e0a-916a-a88878849e6a"},"vehicle_type_id":"4","last_reported":1761649745,"current_range_meters":17200,"station_id":"ce4bhoh2rcd13ifvqh6g","pricing_plan_id":"cebpf4jnsgd1na2vs0mg"},{"bike_id":"1cf2185e-3c88-4e81-b4a2-a3faea2121de","system_id":"levelo_inurba_marseille","lat":43.24654,"lon":5.38891,"is_reserved":false,"is_disabled":false,"rental_uris":{"android":"levelo://app?vid=1cf2185e-3c88-4e81-b4a2-a3faea2121de","ios":"levelo://app?vid=1cf2185e-3c88-4e81-b4a2-a3faea2121de"},"vehicle_type_id":"4","last_reported":1761649745,"current_range_meters":17200,"station_id":"ce4bhg12rcd13ifvqf60","pricing_plan_id":"cebpf4jnsgd1na2vs0mg"},{"bike_id":"02dd205b-e97c-4104-9683-066d2523fd3f","system_id":"levelo_inurba_marseille","lat":43.23044,"lon":5.35459,"is_reserved":false,"is_disabled":false,"rental_uris":{"android":"levelo://app?vid=02dd205b-e97c-4104-9683-066d2523fd3f","ios":"levelo://app?vid=02dd205b-e97c-4104-9683-066d2523fd3f"},"vehicle_type_id":"4","last_reported":1761649745,"current_range_meters":17200,"station_id":"cpo3342slgdg3j2ifvpg","pricing_plan_id":"cebpf4jnsgd1na2vs0mg"},{"bike_id":"fc0ec4b0-3301-435f-a8cb-285894800f7a","system_id":"levelo_inurba_marseille","lat":43.32471,"lon":5.36551,"is_reserved":false,"is_disabled":false,"rental_uris":{"android":"levelo://app?vid=fc0ec4b0-3301-435f-a8cb-285894800f7a","ios":"levelo://app?vid=fc0ec4b0-3301-435f-a8cb-285894800f7a"},"vehicle_type_id":"4","last_reported":1761649745,"current_range_meters":17200,"station_id":"ce4bhs12rcd13ifvqhvg","pricing_plan_id":"cebpf4jnsgd1na2vs0mg"},{"bike_id":"f79a84f4-55d0-4441-8119-340765a2973b","system_id":"levelo_inurba_marseille","lat":43.25924,"lon":5.40911,"is_reserved":false,"is_disabled":false,"rental_uris":{"android":"levelo://app?vid=f79a84f4-55d0-4441-8119-340765a2973b","ios":"levelo://app?vid=f79a84f4-55d0-4441-8119-340765a2973b"},"vehicle_type_id":"4","last_reported":1761649745,"current_range_meters":17600,"station_id":"ce4bhm92rcd13ifvqglg","pricing_plan_id":"cebpf4jnsgd1na2vs0mg"},{"bike_id":"ebf936f2-fbaf-4fcf-9d43-e29871769b0c","system_id":"levelo_inurba_marseille","lat":43.29261,"lon":5.3763,"is_reserved":false,"is_disabled":false,"rental_uris":{"android":"levelo://app?vid=ebf936f2-fbaf-4fcf-9d43-e29871769b0c","ios":"levelo://app?vid=ebf936f2-fbaf-4fcf-9d43-e29871769b0c"},"vehicle_type_id":"4","last_reported":1761649745,"current_range_meters":17600,"station_id":"ce4bgi12rcd13ifvqb80","pricing_plan_id":"cebpf4jnsgd1na2vs0mg"},{"bike_id":"8892c35d-6bfd-41c1-a44b-1b646fc53c9b","system_id":"levelo_inurba_marseille","lat":43.2306,"lon":5.35503,"is_reserved":false,"is_disabled":false,"rental_uris":{"android":"levelo://app?vid=8892c35d-6bfd-41c1-a44b-1b646fc53c9b","ios":"levelo://app?vid=8892c35d-6bfd-41c1-a44b-1b646fc53c9b"},"vehicle_type_id":"4","last_reported":1761649745,"current_range_meters":17600,"station_id":"cpo3342slgdg3j2ifvpg","pricing_plan_id":"cebpf4jnsgd1na2vs0mg"},{"bike_id":"38276944-c322-4949-8fb3-99b7fd86386a","system_id":"levelo_inurba_marseille","lat":43.30527,"lon":5.36703,"is_reserved":false,"is_disabled":false,"rental_uris":{"android":"levelo://app?vid=38276944-c322-4949-8fb3-99b7fd86386a","ios":"levelo://app?vid=38276944-c322-4949-8fb3-99b7fd86386a"},"vehicle_type_id":"4","last_reported":1761649745,"current_range_meters":17600,"station_id":"ce4bgrp2rcd13ifvqc9g","pricing_plan_id":"cebpf4jnsgd1na2vs0mg"},{"bike_id":"c2d0d3af-9ec1-45db-b066-a7a73caaafc0","system_id":"levelo_inurba_marseille","lat":43.27936,"lon":5.41046,"is_reserved":false,"is_disabled":false,"rental_uris":{"android":"levelo://app?vid=c2d0d3af-9ec1-45db-b066-a7a73caaafc0","ios":"levelo://app?vid=c2d0d3af-9ec1-45db-b066-a7a73caaafc0"},"vehicle_type_id":"4","last_reported":1761649745,"current_range_meters":17600,"station_id":"ce4bhnp2rcd13ifvqh0g","pricing_plan_id":"cebpf4jnsgd1na2vs0mg"},{"bike_id":"99373ff4-c6ad-47a3-8ec0-acdae6a78daf","system_id":"levelo_inurba_marseille","lat":43.30546,"lon":5.36555,"is_reserved":false,"is_disabled":false,"rental_uris":{"android":"levelo://app?vid=99373ff4-c6ad-47a3-8ec0-acdae6a78daf","ios":"levelo://app?vid=99373ff4-c6ad-47a3-8ec0-acdae6a78daf"},"vehicle_type_id":"4","last_reported":1761649745,"current_range_meters":17600,"station_id":"ce4bgs12rcd13ifvqcag","pricing_plan_id":"cebpf4jnsgd1na2vs0mg"},{"bike_id":"85a7df2c-8dcf-46f5-826c-c18168f09c7e","system_id":"levelo_inurba_marseille","lat":43.23048,"lon":5.35471,"is_reserved":false,"is_disabled":false,"rental_uris":{"android":"levelo://app?vid=85a7df2c-8dcf-46f5-826c-c18168f09c7e","ios":"levelo://app?vid=85a7df2c-8dcf-46f5-826c-c18168f09c7e"},"vehicle_type_id":"4","last_reported":1761649745,"current_range_meters":17600,"station_id":"cpo3342slgdg3j2ifvpg","pricing_plan_id":"cebpf4jnsgd1na2vs0mg"},{"bike_id":"11ef3bae-f74c-4d6c-9e1c-74445fbc74b3","system_id":"levelo_inurba_marseille","lat":43.255105,"lon":5.376553,"is_reserved":false,"is_disabled":false,"rental_uris":{"android":"levelo://app?vid=11ef3bae-f74c-4d6c-9e1c-74445fbc74b3","ios":"levelo://app?vid=11ef3bae-f74c-4d6c-9e1c-74445fbc74b3"},"vehicle_type_id":"4","last_reported":1761649745,"current_range_meters":17600,"station_id":"ce4bhh12rcd13ifvqff0","pricing_plan_id":"cebpf4jnsgd1na2vs0mg"},{"bike_id":"d5d227ed-f82b-41ab-be3e-db91ac78eac3","system_id":"levelo_inurba_marseille","lat":43.29266,"lon":5.37603,"is_reserved":false,"is_disabled":false,"rental_uris":{"android":"levelo://app?vid=d5d227ed-f82b-41ab-be3e-db91ac78eac3","ios":"levelo://app?vid=d5d227ed-f82b-41ab-be3e-db91ac78eac3"},"vehicle_type_id":"4","last_reported":1761649745,"current_range_meters":18000,"station_id":"ce4bgi12rcd13ifvqb80","pricing_plan_id":"cebpf4jnsgd1na2vs0mg"},{"bike_id":"604b0f68-3ceb-4c75-8bf9-59cf0c469c3b","system_id":"levelo_inurba_marseille","lat":43.2951,"lon":5.39401,"is_reserved":false,"is_disabled":false,"rental_uris":{"android":"levelo://app?vid=604b0f68-3ceb-4c75-8bf9-59cf0c469c3b","ios":"levelo://app?vid=604b0f68-3ceb-4c75-8bf9-59cf0c469c3b"},"vehicle_type_id":"4","last_reported":1761649745,"current_range_meters":18000,"station_id":"ce4bh292rcd13ifvqdf0","pricing_plan_id":"cebpf4jnsgd1na2vs0mg"},{"bike_id":"a5b9631c-fc00-4689-bef7-803838a946a9","system_id":"levelo_inurba_marseille","lat":43.23151,"lon":5.43718,"is_reserved":false,"is_disabled":false,"rental_uris":{"android":"levelo://app?vid=a5b9631c-fc00-4689-bef7-803838a946a9","ios":"levelo://app?vid=a5b9631c-fc00-4689-bef7-803838a946a9"},"vehicle_type_id":"4","last_reported":1761649745,"current_range_meters":18000,"station_id":"ce4bhmp2rcd13ifvqgog","pricing_plan_id":"cebpf4jnsgd1na2vs0mg"},{"bike_id":"13b3f6e2-ccd2-4de2-9eb6-0de2e8fab3a4","system_id":"levelo_inurba_marseille","lat":43.27312,"lon":5.39064,"is_reserved":false,"is_disabled":false,"rental_uris":{"android":"levelo://app?vid=13b3f6e2-ccd2-4de2-9eb6-0de2e8fab3a4","ios":"levelo://app?vid=13b3f6e2-ccd2-4de2-9eb6-0de2e8fab3a4"},"vehicle_type_id":"4","last_reported":1761649745,"current_range_meters":18000,"station_id":"ce4bhgp2rcd13ifvqfe0","pricing_plan_id":"cebpf4jnsgd1na2vs0mg"},{"bike_id":"e2d4ef65-2725-48e2-8a0d-a00caf587a89","system_id":"levelo_inurba_marseille","lat":43.25092,"lon":5.39505,"is_reserved":false,"is_disabled":false,"rental_uris":{"android":"levelo://app?vid=e2d4ef65-2725-48e2-8a0d-a00caf587a89","ios":"levelo://app?vid=e2d4ef65-2725-48e2-8a0d-a00caf587a89"},"vehicle_type_id":"4","last_reported":1761649745,"current_range_meters":18000,"station_id":"ce4bhm12rcd13ifvqgkg","pricing_plan_id":"cebpf4jnsgd1na2vs0mg"},{"bike_id":"0ce4beac-931d-4b8b-ae24-47beb3161278","system_id":"levelo_inurba_marseille","lat":43.28466,"lon":5.3841,"is_reserved":false,"is_disabled":false,"rental_uris":{"android":"levelo://app?vid=0ce4beac-931d-4b8b-ae24-47beb3161278","ios":"levelo://app?vid=0ce4beac-931d-4b8b-ae24-47beb3161278"},"vehicle_type_id":"4","last_reported":1761649745,"current_range_meters":18000,"station_id":"ce4bh512rcd13ifvqe3g","pricing_plan_id":"cebpf4jnsgd1na2vs0mg"},{"bike_id":"8743deb1-3e1b-4fe6-ab63-b75dc0a57f17","system_id":"levelo_inurba_marseille","lat":43.230654,"lon":5.354894,"is_reserved":false,"is_disabled":false,"rental_uris":{"android":"levelo://app?vid=8743deb1-3e1b-4fe6-ab63-b75dc0a57f17","ios":"levelo://app?vid=8743deb1-3e1b-4fe6-ab63-b75dc0a57f17"},"vehicle_type_id":"4","last_reported":1761649745,"current_range_meters":18000,"station_id":"cpo3342slgdg3j2ifvpg","pricing_plan_id":"cebpf4jnsgd1na2vs0mg"},{"bike_id":"62048c1d-e486-4431-b42e-9f448f8dd9e9","system_id":"levelo_inurba_marseille","lat":43.290056,"lon":5.356152,"is_reserved":false,"is_disabled":false,"rental_uris":{"android":"levelo://app?vid=62048c1d-e486-4431-b42e-9f448f8dd9e9","ios":"levelo://app?vid=62048c1d-e486-4431-b42e-9f448f8dd9e9"},"vehicle_type_id":"4","last_reported":1761649745,"current_range_meters":18000,"station_id":"ce4bhb92rcd13ifvqen0","pricing_plan_id":"cebpf4jnsgd1na2vs0mg"},{"bike_id":"1ecd8c86-f8b1-441f-8527-f79d8f14cbb2","system_id":"levelo_inurba_marseille","lat":43.29173,"lon":5.37155,"is_reserved":false,"is_disabled":false,"rental_uris":{"android":"levelo://app?vid=1ecd8c86-f8b1-441f-8527-f79d8f14cbb2","ios":"levelo://app?vid=1ecd8c86-f8b1-441f-8527-f79d8f14cbb2"},"vehicle_type_id":"4","last_reported":1761649745,"current_range_meters":18000,"station_id":"ce4bha92rcd13ifvqeh0","pricing_plan_id":"cebpf4jnsgd1na2vs0mg"},{"bike_id":"b1adc111-ac9c-488a-bd54-bd06284145e9","system_id":"levelo_inurba_marseille","lat":43.31694,"lon":5.40471,"is_reserved":false,"is_disabled":false,"rental_uris":{"android":"levelo://app?vid=b1adc111-ac9c-488a-bd54-bd06284145e9","ios":"levelo://app?vid=b1adc111-ac9c-488a-bd54-bd06284145e9"},"vehicle_type_id":"4","last_reported":1761649745,"current_range_meters":18800,"station_id":"ce4bh012rcd13ifvqd00","pricing_plan_id":"cebpf4jnsgd1na2vs0mg"},{"bike_id":"aa0e7e4b-f890-4f53-a40a-615d9f77115a","system_id":"levelo_inurba_marseille","lat":43.321082,"lon":5.367746,"is_reserved":false,"is_disabled":false,"rental_uris":{"android":"levelo://app?vid=aa0e7e4b-f890-4f53-a40a-615d9f77115a","ios":"levelo://app?vid=aa0e7e4b-f890-4f53-a40a-615d9f77115a"},"vehicle_type_id":"4","last_reported":1761649745,"current_range_meters":18800,"station_id":"ce4bhrh2rcd13ifvqhug","pricing_plan_id":"cebpf4jnsgd1na2vs0mg"},{"bike_id":"f4dc36c7-6111-46e3-863e-30c22df8c912","system_id":"levelo_inurba_marseille","lat":43.26811,"lon":5.39396,"is_reserved":false,"is_disabled":false,"rental_uris":{"android":"levelo://app?vid=f4dc36c7-6111-46e3-863e-30c22df8c912","ios":"levelo://app?vid=f4dc36c7-6111-46e3-863e-30c22df8c912"},"vehicle_type_id":"4","last_reported":1761649745,"current_range_meters":18800,"station_id":"ce4bhh12rcd13ifvqfg0","pricing_plan_id":"cebpf4jnsgd1na2vs0mg"},{"bike_id":"cf532674-ded9-4c61-87c1-a0668ebf0df3","system_id":"levelo_inurba_marseille","lat":43.24063,"lon":5.37724,"is_reserved":false,"is_disabled":false,"rental_uris":{"android":"levelo://app?vid=cf532674-ded9-4c61-87c1-a0668ebf0df3","ios":"levelo://app?vid=cf532674-ded9-4c61-87c1-a0668ebf0df3"},"vehicle_type_id":"4","last_reported":1761649745,"current_range_meters":18800,"station_id":"ce4bhnp2rcd13ifvqgvg","pricing_plan_id":"cebpf4jnsgd1na2vs0mg"},{"bike_id":"1ff14011-1bb3-49a1-9941-97d38a0c81be","system_id":"levelo_inurba_marseille","lat":43.25094,"lon":5.39514,"is_reserved":false,"is_disabled":false,"rental_uris":{"android":"levelo://app?vid=1ff14011-1bb3-49a1-9941-97d38a0c81be","ios":"levelo://app?vid=1ff14011-1bb3-49a1-9941-97d38a0c81be"},"vehicle_type_id":"4","last_reported":1761649745,"current_range_meters":18800,"station_id":"ce4bhm12rcd13ifvqgkg","pricing_plan_id":"cebpf4jnsgd1na2vs0mg"},{"bike_id":"0a7d461a-b14a-434d-83d5-54250c194da0","system_id":"levelo_inurba_marseille","lat":43.283416,"lon":5.38105,"is_reserved":false,"is_disabled":false,"rental_uris":{"android":"levelo://app?vid=0a7d461a-b14a-434d-83d5-54250c194da0","ios":"levelo://app?vid=0a7d461a-b14a-434d-83d5-54250c194da0"},"vehicle_type_id":"4","last_reported":1761649745,"current_range_meters":18800,"station_id":"ce4bh412rcd13ifvqdr0","pricing_plan_id":"cebpf4jnsgd1na2vs0mg"},{"bike_id":"6ce8387a-7217-4885-b90c-41215d188545","system_id":"levelo_inurba_marseille","lat":43.28867,"lon":5.40928,"is_reserved":false,"is_disabled":false,"rental_uris":{"android":"levelo://app?vid=6ce8387a-7217-4885-b90c-41215d188545","ios":"levelo://app?vid=6ce8387a-7217-4885-b90c-41215d188545"},"vehicle_type_id":"4","last_reported":1761649745,"current_range_meters":18800,"station_id":"","pricing_plan_id":"cebpf4jnsgd1na2vs0mg"},{"bike_id":"3c172d5e-4be3-4447-81d6-5d4b4efa8bc0","system_id":"levelo_inurba_marseille","lat":43.265406,"lon":5.385409,"is_reserved":false,"is_disabled":false,"rental_uris":{"android":"levelo://app?vid=3c172d5e-4be3-4447-81d6-5d4b4efa8bc0","ios":"levelo://app?vid=3c172d5e-4be3-4447-81d6-5d4b4efa8bc0"},"vehicle_type_id":"4","last_reported":1761649745,"current_range_meters":18800,"station_id":"","pricing_plan_id":"cebpf4jnsgd1na2vs0mg"},{"bike_id":"6d8da19b-0143-43ba-a2b6-b774a32597d4","system_id":"levelo_inurba_marseille","lat":43.28155,"lon":5.34757,"is_reserved":false,"is_disabled":false,"rental_uris":{"android":"levelo://app?vid=6d8da19b-0143-43ba-a2b6-b774a32597d4","ios":"levelo://app?vid=6d8da19b-0143-43ba-a2b6-b774a32597d4"},"vehicle_type_id":"4","last_reported":1761649745,"current_range_meters":19200,"station_id":"","pricing_plan_id":"cebpf4jnsgd1na2vs0mg"},{"bike_id":"db8e8f2e-4226-40f7-bb62-0fd5beb6a260","system_id":"levelo_inurba_marseille","lat":43.308,"lon":5.38142,"is_reserved":false,"is_disabled":false,"rental_uris":{"android":"levelo://app?vid=db8e8f2e-4226-40f7-bb62-0fd5beb6a260","ios":"levelo://app?vid=db8e8f2e-4226-40f7-bb62-0fd5beb6a260"},"vehicle_type_id":"4","last_reported":1761649745,"current_range_meters":19200,"station_id":"ce4bgt12rcd13ifvqce0","pricing_plan_id":"cebpf4jnsgd1na2vs0mg"},{"bike_id":"96b93a83-82f2-4d31-acb8-139fbce4500d","system_id":"levelo_inurba_marseille","lat":43.22929,"lon":5.35358,"is_reserved":false,"is_disabled":false,"rental_uris":{"android":"levelo://app?vid=96b93a83-82f2-4d31-acb8-139fbce4500d","ios":"levelo://app?vid=96b93a83-82f2-4d31-acb8-139fbce4500d"},"vehicle_type_id":"4","last_reported":1761649745,"current_range_meters":19200,"station_id":"cpo3532slgdg3j2ikp40","pricing_plan_id":"cebpf4jnsgd1na2vs0mg"},{"bike_id":"941eca81-61b6-4376-acbb-773a2fc9f625","system_id":"levelo_inurba_marseille","lat":43.320936,"lon":5.367755,"is_reserved":false,"is_disabled":false,"rental_uris":{"android":"levelo://app?vid=941eca81-61b6-4376-acbb-773a2fc9f625","ios":"levelo://app?vid=941eca81-61b6-4376-acbb-773a2fc9f625"},"vehicle_type_id":"4","last_reported":1761649745,"current_range_meters":19600,"station_id":"ce4bhrh2rcd13ifvqhug","pricing_plan_id":"cebpf4jnsgd1na2vs0mg"},{"bike_id":"8e2dcd31-6a9c-4b7f-a366-5e2640173d3c","system_id":"levelo_inurba_marseille","lat":43.229399,"lon":5.353808,"is_reserved":false,"is_disabled":false,"rental_uris":{"android":"levelo://app?vid=8e2dcd31-6a9c-4b7f-a366-5e2640173d3c","ios":"levelo://app?vid=8e2dcd31-6a9c-4b7f-a366-5e2640173d3c"},"vehicle_type_id":"4","last_reported":1761649745,"current_range_meters":19600,"station_id":"cpo3532slgdg3j2ikp40","pricing_plan_id":"cebpf4jnsgd1na2vs0mg"},{"bike_id":"14fed8bf-0e52-4b67-9780-8d00ed00b796","system_id":"levelo_inurba_marseille","lat":43.25087,"lon":5.39507,"is_reserved":false,"is_disabled":false,"rental_uris":{"android":"levelo://app?vid=14fed8bf-0e52-4b67-9780-8d00ed00b796","ios":"levelo://app?vid=14fed8bf-0e52-4b67-9780-8d00ed00b796"},"vehicle_type_id":"4","last_reported":1761649745,"current_range_meters":19600,"station_id":"ce4bhm12rcd13ifvqgkg","pricing_plan_id":"cebpf4jnsgd1na2vs0mg"},{"bike_id":"faee4aed-34d1-4e59-9f3e-bc2337688920","system_id":"levelo_inurba_marseille","lat":43.31721,"lon":5.43686,"is_reserved":false,"is_disabled":true,"rental_uris":{"android":"levelo://app?vid=faee4aed-34d1-4e59-9f3e-bc2337688920","ios":"levelo://app?vid=faee4aed-34d1-4e59-9f3e-bc2337688920"},"vehicle_type_id":"4","last_reported":1761649745,"current_range_meters":19600,"station_id":"ce4bhp92rcd13ifvqhcg","pricing_plan_id":"cebpf4jnsgd1na2vs0mg"},{"bike_id":"eda8b567-81ba-4a8c-9adf-4c4f15cf1290","system_id":"levelo_inurba_marseille","lat":43.31528,"lon":5.3803,"is_reserved":false,"is_disabled":false,"rental_uris":{"android":"levelo://app?vid=eda8b567-81ba-4a8c-9adf-4c4f15cf1290","ios":"levelo://app?vid=eda8b567-81ba-4a8c-9adf-4c4f15cf1290"},"vehicle_type_id":"4","last_reported":1761649745,"current_range_meters":19600,"station_id":"ce4bhsp2rcd13ifvqi50","pricing_plan_id":"cebpf4jnsgd1na2vs0mg"},{"bike_id":"f6adb9c1-4a78-4322-baec-aa5f6f5d93b6","system_id":"levelo_inurba_marseille","lat":43.225321,"lon":5.348302,"is_reserved":false,"is_disabled":false,"rental_uris":{"android":"levelo://app?vid=f6adb9c1-4a78-4322-baec-aa5f6f5d93b6","ios":"levelo://app?vid=f6adb9c1-4a78-4322-baec-aa5f6f5d93b6"},"vehicle_type_id":"4","last_reported":1761649745,"current_range_meters":19600,"station_id":"","pricing_plan_id":"cebpf4jnsgd1na2vs0mg"},{"bike_id":"4f24d0df-7b9a-48fa-a400-a6a0ae0f4ff8","system_id":"levelo_inurba_marseille","lat":43.24186,"lon":5.39707,"is_reserved":false,"is_disabled":false,"rental_uris":{"android":"levelo://app?vid=4f24d0df-7b9a-48fa-a400-a6a0ae0f4ff8","ios":"levelo://app?vid=4f24d0df-7b9a-48fa-a400-a6a0ae0f4ff8"},"vehicle_type_id":"4","last_reported":1761649745,"current_range_meters":19600,"station_id":"ce4bhn12rcd13ifvqgpg","pricing_plan_id":"cebpf4jnsgd1na2vs0mg"},{"bike_id":"e3260d53-1f31-4048-a6b1-57d9b1375877","system_id":"levelo_inurba_marseille","lat":43.28531,"lon":5.44074,"is_reserved":false,"is_disabled":false,"rental_uris":{"android":"levelo://app?vid=e3260d53-1f31-4048-a6b1-57d9b1375877","ios":"levelo://app?vid=e3260d53-1f31-4048-a6b1-57d9b1375877"},"vehicle_type_id":"4","last_reported":1761649745,"current_range_meters":20000,"station_id":"st_d3j3df2ikq2c7380ej80","pricing_plan_id":"cebpf4jnsgd1na2vs0mg"},{"bike_id":"3d00cf23-a66b-47a1-8eb3-f05af16b09a1","system_id":"levelo_inurba_marseille","lat":43.24393,"lon":5.3707,"is_reserved":false,"is_disabled":false,"rental_uris":{"android":"levelo://app?vid=3d00cf23-a66b-47a1-8eb3-f05af16b09a1","ios":"levelo://app?vid=3d00cf23-a66b-47a1-8eb3-f05af16b09a1"},"vehicle_type_id":"4","last_reported":1761649745,"current_range_meters":20000,"station_id":"ce4bhhh2rcd13ifvqfk0","pricing_plan_id":"cebpf4jnsgd1na2vs0mg"},{"bike_id":"8f40e585-9573-4a47-a5fc-e6719e6dcb82","system_id":"levelo_inurba_marseille","lat":43.30195,"lon":5.36622,"is_reserved":false,"is_disabled":true,"rental_uris":{"android":"levelo://app?vid=8f40e585-9573-4a47-a5fc-e6719e6dcb82","ios":"levelo://app?vid=8f40e585-9573-4a47-a5fc-e6719e6dcb82"},"vehicle_type_id":"4","last_reported":1761649745,"current_range_meters":20000,"station_id":"ce4bgrh2rcd13ifvqc8g","pricing_plan_id":"cebpf4jnsgd1na2vs0mg"},{"bike_id":"60e48d99-4eb3-4f02-8e95-5ec5b2f3486e","system_id":"levelo_inurba_marseille","lat":43.24176,"lon":5.397312,"is_reserved":false,"is_disabled":false,"rental_uris":{"android":"levelo://app?vid=60e48d99-4eb3-4f02-8e95-5ec5b2f3486e","ios":"levelo://app?vid=60e48d99-4eb3-4f02-8e95-5ec5b2f3486e"},"vehicle_type_id":"4","last_reported":1761649745,"current_range_meters":20000,"station_id":"ce4bhn12rcd13ifvqgpg","pricing_plan_id":"cebpf4jnsgd1na2vs0mg"},{"bike_id":"3ecd2193-21d9-4a3b-84a6-0ec598c9f344","system_id":"levelo_inurba_marseille","lat":43.284705,"lon":5.384006,"is_reserved":false,"is_disabled":false,"rental_uris":{"android":"levelo://app?vid=3ecd2193-21d9-4a3b-84a6-0ec598c9f344","ios":"levelo://app?vid=3ecd2193-21d9-4a3b-84a6-0ec598c9f344"},"vehicle_type_id":"4","last_reported":1761649745,"current_range_meters":20000,"station_id":"ce4bh512rcd13ifvqe3g","pricing_plan_id":"cebpf4jnsgd1na2vs0mg"},{"bike_id":"1d2f5121-1156-406d-9bfb-6de607efd7cf","system_id":"levelo_inurba_marseille","lat":43.25951,"lon":5.40912,"is_reserved":false,"is_disabled":false,"rental_uris":{"android":"levelo://app?vid=1d2f5121-1156-406d-9bfb-6de607efd7cf","ios":"levelo://app?vid=1d2f5121-1156-406d-9bfb-6de607efd7cf"},"vehicle_type_id":"4","last_reported":1761649745,"current_range_meters":20000,"station_id":"ce4bhm92rcd13ifvqglg","pricing_plan_id":"cebpf4jnsgd1na2vs0mg"},{"bike_id":"75dc66b3-0d26-400d-85b7-e985f64e2136","system_id":"levelo_inurba_marseille","lat":43.289923,"lon":5.437011,"is_reserved":false,"is_disabled":false,"rental_uris":{"android":"levelo://app?vid=75dc66b3-0d26-400d-85b7-e985f64e2136","ios":"levelo://app?vid=75dc66b3-0d26-400d-85b7-e985f64e2136"},"vehicle_type_id":"4","last_reported":1761649745,"current_range_meters":20400,"station_id":"","pricing_plan_id":"cebpf4jnsgd1na2vs0mg"},{"bike_id":"39d094ac-6017-4390-8e80-c3e2498dcfcf","system_id":"levelo_inurba_marseille","lat":43.24623,"lon":5.43156,"is_reserved":false,"is_disabled":false,"rental_uris":{"android":"levelo://app?vid=39d094ac-6017-4390-8e80-c3e2498dcfcf","ios":"levelo://app?vid=39d094ac-6017-4390-8e80-c3e2498dcfcf"},"vehicle_type_id":"4","last_reported":1761649745,"current_range_meters":20400,"station_id":"st_d2m6c4gdas8pm72e190g","pricing_plan_id":"cebpf4jnsgd1na2vs0mg"},{"bike_id":"1a34b5a4-3c1e-479b-b6f5-76f97d5c5c52","system_id":"levelo_inurba_marseille","lat":43.28525,"lon":5.44101,"is_reserved":false,"is_disabled":false,"rental_uris":{"android":"levelo://app?vid=1a34b5a4-3c1e-479b-b6f5-76f97d5c5c52","ios":"levelo://app?vid=1a34b5a4-3c1e-479b-b6f5-76f97d5c5c52"},"vehicle_type_id":"4","last_reported":1761649745,"current_range_meters":20400,"station_id":"st_d3j3df2ikq2c7380ej80","pricing_plan_id":"cebpf4jnsgd1na2vs0mg"},{"bike_id":"2189424e-81a3-40c0-a4a8-97a0659f7b13","system_id":"levelo_inurba_marseille","lat":43.25115,"lon":5.40322,"is_reserved":false,"is_disabled":false,"rental_uris":{"android":"levelo://app?vid=2189424e-81a3-40c0-a4a8-97a0659f7b13","ios":"levelo://app?vid=2189424e-81a3-40c0-a4a8-97a0659f7b13"},"vehicle_type_id":"4","last_reported":1761649745,"current_range_meters":20400,"station_id":"ce4bhlh2rcd13ifvqgig","pricing_plan_id":"cebpf4jnsgd1na2vs0mg"},{"bike_id":"9c5e323f-4e40-4ea8-9cfe-19c2bbd40dcd","system_id":"levelo_inurba_marseille","lat":43.287111,"lon":5.373774,"is_reserved":false,"is_disabled":false,"rental_uris":{"android":"levelo://app?vid=9c5e323f-4e40-4ea8-9cfe-19c2bbd40dcd","ios":"levelo://app?vid=9c5e323f-4e40-4ea8-9cfe-19c2bbd40dcd"},"vehicle_type_id":"4","last_reported":1761649745,"current_range_meters":20400,"station_id":"ce4bh3p2rcd13ifvqdq0","pricing_plan_id":"cebpf4jnsgd1na2vs0mg"},{"bike_id":"d8f01a87-338f-417f-87fc-81131e46bf2c","system_id":"levelo_inurba_marseille","lat":43.28273,"lon":5.35054,"is_reserved":false,"is_disabled":false,"rental_uris":{"android":"levelo://app?vid=d8f01a87-338f-417f-87fc-81131e46bf2c","ios":"levelo://app?vid=d8f01a87-338f-417f-87fc-81131e46bf2c"},"vehicle_type_id":"4","last_reported":1761649745,"current_range_meters":20400,"station_id":"ce4bhbp2rcd13ifvqerg","pricing_plan_id":"cebpf4jnsgd1na2vs0mg"},{"bike_id":"a049967b-d347-4414-83a8-1154d36b087e","system_id":"levelo_inurba_marseille","lat":43.2435,"lon":5.37142,"is_reserved":false,"is_disabled":false,"rental_uris":{"android":"levelo://app?vid=a049967b-d347-4414-83a8-1154d36b087e","ios":"levelo://app?vid=a049967b-d347-4414-83a8-1154d36b087e"},"vehicle_type_id":"4","last_reported":1761649745,"current_range_meters":20400,"station_id":"","pricing_plan_id":"cebpf4jnsgd1na2vs0mg"},{"bike_id":"77aca274-2e3a-4a8e-804c-9f85e16926cd","system_id":"levelo_inurba_marseille","lat":43.24384,"lon":5.37056,"is_reserved":false,"is_disabled":false,"rental_uris":{"android":"levelo://app?vid=77aca274-2e3a-4a8e-804c-9f85e16926cd","ios":"levelo://app?vid=77aca274-2e3a-4a8e-804c-9f85e16926cd"},"vehicle_type_id":"4","last_reported":1761649745,"current_range_meters":20400,"station_id":"ce4bhhh2rcd13ifvqfk0","pricing_plan_id":"cebpf4jnsgd1na2vs0mg"},{"bike_id":"a6a36ca0-1ed9-4d75-8414-93b5b9e3f512","system_id":"levelo_inurba_marseille","lat":43.29169,"lon":5.37155,"is_reserved":false,"is_disabled":false,"rental_uris":{"android":"levelo://app?vid=a6a36ca0-1ed9-4d75-8414-93b5b9e3f512","ios":"levelo://app?vid=a6a36ca0-1ed9-4d75-8414-93b5b9e3f512"},"vehicle_type_id":"4","last_reported":1761649745,"current_range_meters":20400,"station_id":"ce4bha92rcd13ifvqeh0","pricing_plan_id":"cebpf4jnsgd1na2vs0mg"},{"bike_id":"1ac836c7-eb02-4716-9688-85d2defe987f","system_id":"levelo_inurba_marseille","lat":43.29619,"lon":5.37171,"is_reserved":false,"is_disabled":false,"rental_uris":{"android":"levelo://app?vid=1ac836c7-eb02-4716-9688-85d2defe987f","ios":"levelo://app?vid=1ac836c7-eb02-4716-9688-85d2defe987f"},"vehicle_type_id":"4","last_reported":1761649745,"current_range_meters":20800,"station_id":"ce4bgnh2rcd13ifvqc0g","pricing_plan_id":"cebpf4jnsgd1na2vs0mg"},{"bike_id":"2fdd854e-8126-4bcd-b839-6b264caa95d9","system_id":"levelo_inurba_marseille","lat":43.26957,"lon":5.38633,"is_reserved":false,"is_disabled":false,"rental_uris":{"android":"levelo://app?vid=2fdd854e-8126-4bcd-b839-6b264caa95d9","ios":"levelo://app?vid=2fdd854e-8126-4bcd-b839-6b264caa95d9"},"vehicle_type_id":"4","last_reported":1761649745,"current_range_meters":20800,"station_id":"ce4bhh92rcd13ifvqfh0","pricing_plan_id":"cebpf4jnsgd1na2vs0mg"},{"bike_id":"ff172ac2-7565-43b3-b14a-170de46f0b4c","system_id":"levelo_inurba_marseille","lat":43.24166,"lon":5.39738,"is_reserved":false,"is_disabled":false,"rental_uris":{"android":"levelo://app?vid=ff172ac2-7565-43b3-b14a-170de46f0b4c","ios":"levelo://app?vid=ff172ac2-7565-43b3-b14a-170de46f0b4c"},"vehicle_type_id":"4","last_reported":1761649745,"current_range_meters":20800,"station_id":"ce4bhn12rcd13ifvqgpg","pricing_plan_id":"cebpf4jnsgd1na2vs0mg"},{"bike_id":"723a003b-69e7-40c1-8770-b8861d0b490a","system_id":"levelo_inurba_marseille","lat":43.229326,"lon":5.353826,"is_reserved":false,"is_disabled":false,"rental_uris":{"android":"levelo://app?vid=723a003b-69e7-40c1-8770-b8861d0b490a","ios":"levelo://app?vid=723a003b-69e7-40c1-8770-b8861d0b490a"},"vehicle_type_id":"4","last_reported":1761649745,"current_range_meters":20800,"station_id":"cpo3532slgdg3j2ikp40","pricing_plan_id":"cebpf4jnsgd1na2vs0mg"},{"bike_id":"9dc8d07b-42e3-4452-8661-3df98a697023","system_id":"levelo_inurba_marseille","lat":43.28101,"lon":5.37831,"is_reserved":false,"is_disabled":false,"rental_uris":{"android":"levelo://app?vid=9dc8d07b-42e3-4452-8661-3df98a697023","ios":"levelo://app?vid=9dc8d07b-42e3-4452-8661-3df98a697023"},"vehicle_type_id":"4","last_reported":1761649745,"current_range_meters":20800,"station_id":"ce4bha12rcd13ifvqee0","pricing_plan_id":"cebpf4jnsgd1na2vs0mg"},{"bike_id":"db0d7fd2-78fb-49f2-88b1-362741a795cb","system_id":"levelo_inurba_marseille","lat":43.337444,"lon":5.374475,"is_reserved":false,"is_disabled":false,"rental_uris":{"android":"levelo://app?vid=db0d7fd2-78fb-49f2-88b1-362741a795cb","ios":"levelo://app?vid=db0d7fd2-78fb-49f2-88b1-362741a795cb"},"vehicle_type_id":"4","last_reported":1761649745,"current_range_meters":21600,"station_id":"","pricing_plan_id":"cebpf4jnsgd1na2vs0mg"},{"bike_id":"7360dde9-c6f3-4146-8f4e-b7bda3257fd2","system_id":"levelo_inurba_marseille","lat":43.30542,"lon":5.36544,"is_reserved":false,"is_disabled":false,"rental_uris":{"android":"levelo://app?vid=7360dde9-c6f3-4146-8f4e-b7bda3257fd2","ios":"levelo://app?vid=7360dde9-c6f3-4146-8f4e-b7bda3257fd2"},"vehicle_type_id":"4","last_reported":1761649745,"current_range_meters":21600,"station_id":"ce4bgs12rcd13ifvqcag","pricing_plan_id":"cebpf4jnsgd1na2vs0mg"},{"bike_id":"9fbba057-dacf-495b-8346-f987d25ac873","system_id":"levelo_inurba_marseille","lat":43.3375,"lon":5.3749,"is_reserved":false,"is_disabled":false,"rental_uris":{"android":"levelo://app?vid=9fbba057-dacf-495b-8346-f987d25ac873","ios":"levelo://app?vid=9fbba057-dacf-495b-8346-f987d25ac873"},"vehicle_type_id":"4","last_reported":1761649745,"current_range_meters":21600,"station_id":"","pricing_plan_id":"cebpf4jnsgd1na2vs0mg"},{"bike_id":"edc72fb2-7f14-4c75-8c38-0a11b9902215","system_id":"levelo_inurba_marseille","lat":43.239628,"lon":5.366166,"is_reserved":false,"is_disabled":false,"rental_uris":{"android":"levelo://app?vid=edc72fb2-7f14-4c75-8c38-0a11b9902215","ios":"levelo://app?vid=edc72fb2-7f14-4c75-8c38-0a11b9902215"},"vehicle_type_id":"4","last_reported":1761649745,"current_range_meters":21600,"station_id":"ce4bhi12rcd13ifvqfp0","pricing_plan_id":"cebpf4jnsgd1na2vs0mg"},{"bike_id":"221e9e2a-2e9e-49a1-a2b1-916f4fe16926","system_id":"levelo_inurba_marseille","lat":43.30594,"lon":5.39358,"is_reserved":false,"is_disabled":false,"rental_uris":{"android":"levelo://app?vid=221e9e2a-2e9e-49a1-a2b1-916f4fe16926","ios":"levelo://app?vid=221e9e2a-2e9e-49a1-a2b1-916f4fe16926"},"vehicle_type_id":"4","last_reported":1761649745,"current_range_meters":21600,"station_id":"ce4bh0p2rcd13ifvqd80","pricing_plan_id":"cebpf4jnsgd1na2vs0mg"},{"bike_id":"44b2bdb4-22d5-439d-a09b-e3983b77297e","system_id":"levelo_inurba_marseille","lat":43.312191,"lon":5.396193,"is_reserved":false,"is_disabled":false,"rental_uris":{"android":"levelo://app?vid=44b2bdb4-22d5-439d-a09b-e3983b77297e","ios":"levelo://app?vid=44b2bdb4-22d5-439d-a09b-e3983b77297e"},"vehicle_type_id":"4","last_reported":1761649745,"current_range_meters":21600,"station_id":"ce4bgvp2rcd13ifvqcu0","pricing_plan_id":"cebpf4jnsgd1na2vs0mg"},{"bike_id":"26fe4e43-6685-4528-a529-fbd524981758","system_id":"levelo_inurba_marseille","lat":43.240711,"lon":5.37752,"is_reserved":false,"is_disabled":false,"rental_uris":{"android":"levelo://app?vid=26fe4e43-6685-4528-a529-fbd524981758","ios":"levelo://app?vid=26fe4e43-6685-4528-a529-fbd524981758"},"vehicle_type_id":"4","last_reported":1761649745,"current_range_meters":21600,"station_id":"ce4bhnp2rcd13ifvqgvg","pricing_plan_id":"cebpf4jnsgd1na2vs0mg"},{"bike_id":"036e4f11-a538-44e0-9363-2a866923620b","system_id":"levelo_inurba_marseille","lat":43.255134,"lon":5.376565,"is_reserved":false,"is_disabled":false,"rental_uris":{"android":"levelo://app?vid=036e4f11-a538-44e0-9363-2a866923620b","ios":"levelo://app?vid=036e4f11-a538-44e0-9363-2a866923620b"},"vehicle_type_id":"4","last_reported":1761649745,"current_range_meters":21600,"station_id":"ce4bhh12rcd13ifvqff0","pricing_plan_id":"cebpf4jnsgd1na2vs0mg"},{"bike_id":"d9a6a1f6-ad3e-4d83-b3dd-5f0ef903b947","system_id":"levelo_inurba_marseille","lat":43.230866,"lon":5.354803,"is_reserved":false,"is_disabled":false,"rental_uris":{"android":"levelo://app?vid=d9a6a1f6-ad3e-4d83-b3dd-5f0ef903b947","ios":"levelo://app?vid=d9a6a1f6-ad3e-4d83-b3dd-5f0ef903b947"},"vehicle_type_id":"4","last_reported":1761649745,"current_range_meters":22000,"station_id":"","pricing_plan_id":"cebpf4jnsgd1na2vs0mg"},{"bike_id":"0278b3ce-87fd-4225-a971-5cd6d347c42c","system_id":"levelo_inurba_marseille","lat":43.29227,"lon":5.36082,"is_reserved":false,"is_disabled":false,"rental_uris":{"android":"levelo://app?vid=0278b3ce-87fd-4225-a971-5cd6d347c42c","ios":"levelo://app?vid=0278b3ce-87fd-4225-a971-5cd6d347c42c"},"vehicle_type_id":"4","last_reported":1761649745,"current_range_meters":22000,"station_id":"ce4bhbh2rcd13ifvqeqg","pricing_plan_id":"cebpf4jnsgd1na2vs0mg"},{"bike_id":"fbb75000-48f5-4dbe-aa37-aa4a8d769d08","system_id":"levelo_inurba_marseille","lat":43.229269,"lon":5.35373,"is_reserved":false,"is_disabled":false,"rental_uris":{"android":"levelo://app?vid=fbb75000-48f5-4dbe-aa37-aa4a8d769d08","ios":"levelo://app?vid=fbb75000-48f5-4dbe-aa37-aa4a8d769d08"},"vehicle_type_id":"4","last_reported":1761649745,"current_range_meters":22000,"station_id":"cpo3532slgdg3j2ikp40","pricing_plan_id":"cebpf4jnsgd1na2vs0mg"},{"bike_id":"74d682ec-7f1c-4aa7-822b-0f0977be3f38","system_id":"levelo_inurba_marseille","lat":43.24164,"lon":5.3639,"is_reserved":false,"is_disabled":false,"rental_uris":{"android":"levelo://app?vid=74d682ec-7f1c-4aa7-822b-0f0977be3f38","ios":"levelo://app?vid=74d682ec-7f1c-4aa7-822b-0f0977be3f38"},"vehicle_type_id":"4","last_reported":1761649745,"current_range_meters":22000,"station_id":"cpo36qri1sfpv3e86is0","pricing_plan_id":"cebpf4jnsgd1na2vs0mg"},{"bike_id":"556c95c4-e39d-4a50-b32b-6e1b11658636","system_id":"levelo_inurba_marseille","lat":43.241707,"lon":5.363994,"is_reserved":false,"is_disabled":false,"rental_uris":{"android":"levelo://app?vid=556c95c4-e39d-4a50-b32b-6e1b11658636","ios":"levelo://app?vid=556c95c4-e39d-4a50-b32b-6e1b11658636"},"vehicle_type_id":"4","last_reported":1761649745,"current_range_meters":22000,"station_id":"cpo36qri1sfpv3e86is0","pricing_plan_id":"cebpf4jnsgd1na2vs0mg"},{"bike_id":"efa11b73-8f4f-43ea-8d90-4d68787997a0","system_id":"levelo_inurba_marseille","lat":43.30525,"lon":5.36691,"is_reserved":false,"is_disabled":false,"rental_uris":{"android":"levelo://app?vid=efa11b73-8f4f-43ea-8d90-4d68787997a0","ios":"levelo://app?vid=efa11b73-8f4f-43ea-8d90-4d68787997a0"},"vehicle_type_id":"4","last_reported":1761649745,"current_range_meters":22000,"station_id":"ce4bgrp2rcd13ifvqc9g","pricing_plan_id":"cebpf4jnsgd1na2vs0mg"},{"bike_id":"7e8c1e26-ecbd-4814-afed-2c8de011139c","system_id":"levelo_inurba_marseille","lat":43.26683,"lon":5.38264,"is_reserved":false,"is_disabled":false,"rental_uris":{"android":"levelo://app?vid=7e8c1e26-ecbd-4814-afed-2c8de011139c","ios":"levelo://app?vid=7e8c1e26-ecbd-4814-afed-2c8de011139c"},"vehicle_type_id":"4","last_reported":1761649745,"current_range_meters":22400,"station_id":"ce4bhg92rcd13ifvqf90","pricing_plan_id":"cebpf4jnsgd1na2vs0mg"},{"bike_id":"0aaccd4f-3ae6-4377-997d-dfcefde2220d","system_id":"levelo_inurba_marseille","lat":43.23963,"lon":5.36624,"is_reserved":false,"is_disabled":false,"rental_uris":{"android":"levelo://app?vid=0aaccd4f-3ae6-4377-997d-dfcefde2220d","ios":"levelo://app?vid=0aaccd4f-3ae6-4377-997d-dfcefde2220d"},"vehicle_type_id":"4","last_reported":1761649745,"current_range_meters":22400,"station_id":"ce4bhi12rcd13ifvqfp0","pricing_plan_id":"cebpf4jnsgd1na2vs0mg"},{"bike_id":"6fa77929-e505-416b-9afd-2bfca1b80818","system_id":"levelo_inurba_marseille","lat":43.30906,"lon":5.36886,"is_reserved":false,"is_disabled":false,"rental_uris":{"android":"levelo://app?vid=6fa77929-e505-416b-9afd-2bfca1b80818","ios":"levelo://app?vid=6fa77929-e505-416b-9afd-2bfca1b80818"},"vehicle_type_id":"4","last_reported":1761649745,"current_range_meters":22400,"station_id":"ce4bgn92rcd13ifvqbvg","pricing_plan_id":"cebpf4jnsgd1na2vs0mg"},{"bike_id":"47e1e78b-045c-462a-97bf-cd3a9dfd847d","system_id":"levelo_inurba_marseille","lat":43.29853,"lon":5.3628,"is_reserved":false,"is_disabled":false,"rental_uris":{"android":"levelo://app?vid=47e1e78b-045c-462a-97bf-cd3a9dfd847d","ios":"levelo://app?vid=47e1e78b-045c-462a-97bf-cd3a9dfd847d"},"vehicle_type_id":"4","last_reported":1761649745,"current_range_meters":22400,"station_id":"ce4bgpp2rcd13ifvqc3g","pricing_plan_id":"cebpf4jnsgd1na2vs0mg"},{"bike_id":"a0474314-7ae2-4494-9e0f-783c40c1c91a","system_id":"levelo_inurba_marseille","lat":43.22928,"lon":5.35348,"is_reserved":false,"is_disabled":false,"rental_uris":{"android":"levelo://app?vid=a0474314-7ae2-4494-9e0f-783c40c1c91a","ios":"levelo://app?vid=a0474314-7ae2-4494-9e0f-783c40c1c91a"},"vehicle_type_id":"4","last_reported":1761649745,"current_range_meters":22400,"station_id":"cpo3532slgdg3j2ikp40","pricing_plan_id":"cebpf4jnsgd1na2vs0mg"},{"bike_id":"9d19aa12-f7d8-4182-8cd0-6d800ec08c05","system_id":"levelo_inurba_marseille","lat":43.276166,"lon":5.360981,"is_reserved":false,"is_disabled":true,"rental_uris":{"android":"levelo://app?vid=9d19aa12-f7d8-4182-8cd0-6d800ec08c05","ios":"levelo://app?vid=9d19aa12-f7d8-4182-8cd0-6d800ec08c05"},"vehicle_type_id":"4","last_reported":1761649745,"current_range_meters":22400,"station_id":"ce4bgj92rcd13ifvqbe0","pricing_plan_id":"cebpf4jnsgd1na2vs0mg"},{"bike_id":"f1fd0721-ff1a-4bd5-988e-a77e52cf7919","system_id":"levelo_inurba_marseille","lat":43.321102,"lon":5.367697,"is_reserved":false,"is_disabled":false,"rental_uris":{"android":"levelo://app?vid=f1fd0721-ff1a-4bd5-988e-a77e52cf7919","ios":"levelo://app?vid=f1fd0721-ff1a-4bd5-988e-a77e52cf7919"},"vehicle_type_id":"4","last_reported":1761649745,"current_range_meters":22800,"station_id":"ce4bhrh2rcd13ifvqhug","pricing_plan_id":"cebpf4jnsgd1na2vs0mg"},{"bike_id":"51f5d3a4-5ca4-428d-8c3a-6dc58c961bd7","system_id":"levelo_inurba_marseille","lat":43.31234,"lon":5.36879,"is_reserved":false,"is_disabled":false,"rental_uris":{"android":"levelo://app?vid=51f5d3a4-5ca4-428d-8c3a-6dc58c961bd7","ios":"levelo://app?vid=51f5d3a4-5ca4-428d-8c3a-6dc58c961bd7"},"vehicle_type_id":"4","last_reported":1761649745,"current_range_meters":22800,"station_id":"ce4bgl92rcd13ifvqbq0","pricing_plan_id":"cebpf4jnsgd1na2vs0mg"},{"bike_id":"b1fe57ed-71d9-4e16-b5a4-9d7bcf1ece4b","system_id":"levelo_inurba_marseille","lat":43.27332,"lon":5.39074,"is_reserved":false,"is_disabled":false,"rental_uris":{"android":"levelo://app?vid=b1fe57ed-71d9-4e16-b5a4-9d7bcf1ece4b","ios":"levelo://app?vid=b1fe57ed-71d9-4e16-b5a4-9d7bcf1ece4b"},"vehicle_type_id":"4","last_reported":1761649745,"current_range_meters":22800,"station_id":"ce4bhgp2rcd13ifvqfe0","pricing_plan_id":"cebpf4jnsgd1na2vs0mg"},{"bike_id":"3ae55b5e-2e2e-4c57-811d-a0779f10eeea","system_id":"levelo_inurba_marseille","lat":43.25511,"lon":5.37654,"is_reserved":false,"is_disabled":false,"rental_uris":{"android":"levelo://app?vid=3ae55b5e-2e2e-4c57-811d-a0779f10eeea","ios":"levelo://app?vid=3ae55b5e-2e2e-4c57-811d-a0779f10eeea"},"vehicle_type_id":"4","last_reported":1761649745,"current_range_meters":22800,"station_id":"ce4bhh12rcd13ifvqff0","pricing_plan_id":"cebpf4jnsgd1na2vs0mg"},{"bike_id":"cd14ddf7-fd4c-467d-9de5-6b88d966db5b","system_id":"levelo_inurba_marseille","lat":43.33924,"lon":5.39771,"is_reserved":false,"is_disabled":false,"rental_uris":{"android":"levelo://app?vid=cd14ddf7-fd4c-467d-9de5-6b88d966db5b","ios":"levelo://app?vid=cd14ddf7-fd4c-467d-9de5-6b88d966db5b"},"vehicle_type_id":"4","last_reported":1761649745,"current_range_meters":22800,"station_id":"","pricing_plan_id":"cebpf4jnsgd1na2vs0mg"},{"bike_id":"e7648629-0488-45b6-9788-6dcb1c23e80a","system_id":"levelo_inurba_marseille","lat":43.30896,"lon":5.36842,"is_reserved":false,"is_disabled":false,"rental_uris":{"android":"levelo://app?vid=e7648629-0488-45b6-9788-6dcb1c23e80a","ios":"levelo://app?vid=e7648629-0488-45b6-9788-6dcb1c23e80a"},"vehicle_type_id":"4","last_reported":1761649745,"current_range_meters":22800,"station_id":"ce4bgn92rcd13ifvqbvg","pricing_plan_id":"cebpf4jnsgd1na2vs0mg"},{"bike_id":"6a3d38ed-7f41-406f-9797-b9104d3a6b7f","system_id":"levelo_inurba_marseille","lat":43.29802,"lon":5.39349,"is_reserved":false,"is_disabled":false,"rental_uris":{"android":"levelo://app?vid=6a3d38ed-7f41-406f-9797-b9104d3a6b7f","ios":"levelo://app?vid=6a3d38ed-7f41-406f-9797-b9104d3a6b7f"},"vehicle_type_id":"4","last_reported":1761649745,"current_range_meters":23200,"station_id":"chh1huq6cuj3fo74tm60","pricing_plan_id":"cebpf4jnsgd1na2vs0mg"},{"bike_id":"a0257cb7-6e09-4e57-9074-9166ca511388","system_id":"levelo_inurba_marseille","lat":43.22553,"lon":5.41635,"is_reserved":false,"is_disabled":false,"rental_uris":{"android":"levelo://app?vid=a0257cb7-6e09-4e57-9074-9166ca511388","ios":"levelo://app?vid=a0257cb7-6e09-4e57-9074-9166ca511388"},"vehicle_type_id":"4","last_reported":1761649745,"current_range_meters":23200,"station_id":"st_d2o4gvlbi1j2169b742g","pricing_plan_id":"cebpf4jnsgd1na2vs0mg"},{"bike_id":"215661ea-3f6f-4808-928f-8970d80fc0d3","system_id":"levelo_inurba_marseille","lat":43.31342,"lon":5.37928,"is_reserved":false,"is_disabled":false,"rental_uris":{"android":"levelo://app?vid=215661ea-3f6f-4808-928f-8970d80fc0d3","ios":"levelo://app?vid=215661ea-3f6f-4808-928f-8970d80fc0d3"},"vehicle_type_id":"4","last_reported":1761649745,"current_range_meters":23200,"station_id":"","pricing_plan_id":"cebpf4jnsgd1na2vs0mg"},{"bike_id":"1c3fcfc8-1d41-453e-a80c-77758ea9e916","system_id":"levelo_inurba_marseille","lat":43.28437,"lon":5.48466,"is_reserved":false,"is_disabled":false,"rental_uris":{"android":"levelo://app?vid=1c3fcfc8-1d41-453e-a80c-77758ea9e916","ios":"levelo://app?vid=1c3fcfc8-1d41-453e-a80c-77758ea9e916"},"vehicle_type_id":"4","last_reported":1761649745,"current_range_meters":23200,"station_id":"st_d3svhcjqgbts73a3dn0g","pricing_plan_id":"cebpf4jnsgd1na2vs0mg"},{"bike_id":"e0fbdcc5-6675-4290-bb45-c9c73d698af6","system_id":"levelo_inurba_marseille","lat":43.22566,"lon":5.416261,"is_reserved":false,"is_disabled":false,"rental_uris":{"android":"levelo://app?vid=e0fbdcc5-6675-4290-bb45-c9c73d698af6","ios":"levelo://app?vid=e0fbdcc5-6675-4290-bb45-c9c73d698af6"},"vehicle_type_id":"4","last_reported":1761649745,"current_range_meters":23200,"station_id":"st_d2o4gvlbi1j2169b742g","pricing_plan_id":"cebpf4jnsgd1na2vs0mg"},{"bike_id":"e79927bd-9b4b-4067-adc1-bb0cfb26e43d","system_id":"levelo_inurba_marseille","lat":43.284097,"lon":5.375015,"is_reserved":false,"is_disabled":false,"rental_uris":{"android":"levelo://app?vid=e79927bd-9b4b-4067-adc1-bb0cfb26e43d","ios":"levelo://app?vid=e79927bd-9b4b-4067-adc1-bb0cfb26e43d"},"vehicle_type_id":"4","last_reported":1761649745,"current_range_meters":23200,"station_id":"ce4bhgh2rcd13ifvqfa0","pricing_plan_id":"cebpf4jnsgd1na2vs0mg"},{"bike_id":"e7e727c2-a137-4f94-8828-adcc43b80462","system_id":"levelo_inurba_marseille","lat":43.31387,"lon":5.36699,"is_reserved":false,"is_disabled":false,"rental_uris":{"android":"levelo://app?vid=e7e727c2-a137-4f94-8828-adcc43b80462","ios":"levelo://app?vid=e7e727c2-a137-4f94-8828-adcc43b80462"},"vehicle_type_id":"4","last_reported":1761649745,"current_range_meters":23200,"station_id":"ce4bgr92rcd13ifvqc6g","pricing_plan_id":"cebpf4jnsgd1na2vs0mg"},{"bike_id":"de83384f-3f6d-4387-a1b7-6c3b790cfbb5","system_id":"levelo_inurba_marseille","lat":43.31337,"lon":5.36723,"is_reserved":false,"is_disabled":false,"rental_uris":{"android":"levelo://app?vid=de83384f-3f6d-4387-a1b7-6c3b790cfbb5","ios":"levelo://app?vid=de83384f-3f6d-4387-a1b7-6c3b790cfbb5"},"vehicle_type_id":"4","last_reported":1761649745,"current_range_meters":23200,"station_id":"ce4bgr92rcd13ifvqc6g","pricing_plan_id":"cebpf4jnsgd1na2vs0mg"},{"bike_id":"5dad549c-22f5-4fe4-be34-75c579151a18","system_id":"levelo_inurba_marseille","lat":43.24071,"lon":5.37749,"is_reserved":false,"is_disabled":false,"rental_uris":{"android":"levelo://app?vid=5dad549c-22f5-4fe4-be34-75c579151a18","ios":"levelo://app?vid=5dad549c-22f5-4fe4-be34-75c579151a18"},"vehicle_type_id":"4","last_reported":1761649745,"current_range_meters":24000,"station_id":"ce4bhnp2rcd13ifvqgvg","pricing_plan_id":"cebpf4jnsgd1na2vs0mg"},{"bike_id":"13d21ce8-8c86-4daa-b22e-e4a109236182","system_id":"levelo_inurba_marseille","lat":43.29045,"lon":5.35914,"is_reserved":false,"is_disabled":false,"rental_uris":{"android":"levelo://app?vid=13d21ce8-8c86-4daa-b22e-e4a109236182","ios":"levelo://app?vid=13d21ce8-8c86-4daa-b22e-e4a109236182"},"vehicle_type_id":"4","last_reported":1761649745,"current_range_meters":24000,"station_id":"ce4bha92rcd13ifvqeg0","pricing_plan_id":"cebpf4jnsgd1na2vs0mg"},{"bike_id":"bebcd4f4-fec4-4c96-829a-9930ac894aa7","system_id":"levelo_inurba_marseille","lat":43.28482,"lon":5.48398,"is_reserved":false,"is_disabled":false,"rental_uris":{"android":"levelo://app?vid=bebcd4f4-fec4-4c96-829a-9930ac894aa7","ios":"levelo://app?vid=bebcd4f4-fec4-4c96-829a-9930ac894aa7"},"vehicle_type_id":"4","last_reported":1761649745,"current_range_meters":24000,"station_id":"st_d3svhcjqgbts73a3dn0g","pricing_plan_id":"cebpf4jnsgd1na2vs0mg"},{"bike_id":"f62ff307-ec32-4ee2-a162-cf459405d683","system_id":"levelo_inurba_marseille","lat":43.29564,"lon":5.37522,"is_reserved":false,"is_disabled":false,"rental_uris":{"android":"levelo://app?vid=f62ff307-ec32-4ee2-a162-cf459405d683","ios":"levelo://app?vid=f62ff307-ec32-4ee2-a162-cf459405d683"},"vehicle_type_id":"4","last_reported":1761649745,"current_range_meters":24000,"station_id":"ce4bgh92rcd13ifvqb50","pricing_plan_id":"cebpf4jnsgd1na2vs0mg"},{"bike_id":"1beb15b8-a5a8-4709-b5e9-b2ac3acbb08e","system_id":"levelo_inurba_marseille","lat":43.24398,"lon":5.37079,"is_reserved":false,"is_disabled":false,"rental_uris":{"android":"levelo://app?vid=1beb15b8-a5a8-4709-b5e9-b2ac3acbb08e","ios":"levelo://app?vid=1beb15b8-a5a8-4709-b5e9-b2ac3acbb08e"},"vehicle_type_id":"4","last_reported":1761649745,"current_range_meters":24000,"station_id":"ce4bhhh2rcd13ifvqfk0","pricing_plan_id":"cebpf4jnsgd1na2vs0mg"},{"bike_id":"35947ea1-0063-4d9c-a9ae-a4f9042d4dc2","system_id":"levelo_inurba_marseille","lat":43.25954,"lon":5.40909,"is_reserved":false,"is_disabled":false,"rental_uris":{"android":"levelo://app?vid=35947ea1-0063-4d9c-a9ae-a4f9042d4dc2","ios":"levelo://app?vid=35947ea1-0063-4d9c-a9ae-a4f9042d4dc2"},"vehicle_type_id":"4","last_reported":1761649745,"current_range_meters":24000,"station_id":"ce4bhm92rcd13ifvqglg","pricing_plan_id":"cebpf4jnsgd1na2vs0mg"},{"bike_id":"bef451cf-02b8-43a1-88d4-e7ed14d172b7","system_id":"levelo_inurba_marseille","lat":43.29038,"lon":5.3995,"is_reserved":false,"is_disabled":false,"rental_uris":{"android":"levelo://app?vid=bef451cf-02b8-43a1-88d4-e7ed14d172b7","ios":"levelo://app?vid=bef451cf-02b8-43a1-88d4-e7ed14d172b7"},"vehicle_type_id":"4","last_reported":1761649745,"current_range_meters":24000,"station_id":"ce4bh392rcd13ifvqdm0","pricing_plan_id":"cebpf4jnsgd1na2vs0mg"},{"bike_id":"eaa4c121-cf6a-4527-8936-534fc8c83ae3","system_id":"levelo_inurba_marseille","lat":43.31081,"lon":5.42429,"is_reserved":false,"is_disabled":false,"rental_uris":{"android":"levelo://app?vid=eaa4c121-cf6a-4527-8936-534fc8c83ae3","ios":"levelo://app?vid=eaa4c121-cf6a-4527-8936-534fc8c83ae3"},"vehicle_type_id":"4","last_reported":1761649745,"current_range_meters":24000,"station_id":"ce4bhp92rcd13ifvqhag","pricing_plan_id":"cebpf4jnsgd1na2vs0mg"},{"bike_id":"01e91930-39bc-46e9-9498-9b69adad7759","system_id":"levelo_inurba_marseille","lat":43.28342,"lon":5.38099,"is_reserved":false,"is_disabled":false,"rental_uris":{"android":"levelo://app?vid=01e91930-39bc-46e9-9498-9b69adad7759","ios":"levelo://app?vid=01e91930-39bc-46e9-9498-9b69adad7759"},"vehicle_type_id":"4","last_reported":1761649745,"current_range_meters":24000,"station_id":"ce4bh412rcd13ifvqdr0","pricing_plan_id":"cebpf4jnsgd1na2vs0mg"},{"bike_id":"2f228a0c-c830-49fe-9cdf-a92b43417c1b","system_id":"levelo_inurba_marseille","lat":43.29819,"lon":5.44063,"is_reserved":false,"is_disabled":false,"rental_uris":{"android":"levelo://app?vid=2f228a0c-c830-49fe-9cdf-a92b43417c1b","ios":"levelo://app?vid=2f228a0c-c830-49fe-9cdf-a92b43417c1b"},"vehicle_type_id":"4","last_reported":1761649745,"current_range_meters":24400,"station_id":"st_d3jp68qikq2c7381ktn0","pricing_plan_id":"cebpf4jnsgd1na2vs0mg"},{"bike_id":"7ba3ab5d-3ad3-424a-b874-103f6127b996","system_id":"levelo_inurba_marseille","lat":43.292627,"lon":5.400626,"is_reserved":false,"is_disabled":true,"rental_uris":{"android":"levelo://app?vid=7ba3ab5d-3ad3-424a-b874-103f6127b996","ios":"levelo://app?vid=7ba3ab5d-3ad3-424a-b874-103f6127b996"},"vehicle_type_id":"4","last_reported":1761649745,"current_range_meters":24400,"station_id":"","pricing_plan_id":"cebpf4jnsgd1na2vs0mg"},{"bike_id":"d73c6fde-6d13-42f3-a61b-9e8f044187c6","system_id":"levelo_inurba_marseille","lat":43.259292,"lon":5.409043,"is_reserved":false,"is_disabled":false,"rental_uris":{"android":"levelo://app?vid=d73c6fde-6d13-42f3-a61b-9e8f044187c6","ios":"levelo://app?vid=d73c6fde-6d13-42f3-a61b-9e8f044187c6"},"vehicle_type_id":"4","last_reported":1761649745,"current_range_meters":24400,"station_id":"ce4bhm92rcd13ifvqglg","pricing_plan_id":"cebpf4jnsgd1na2vs0mg"},{"bike_id":"6eb8a2b1-c502-4afd-8163-c96e0ccc5f71","system_id":"levelo_inurba_marseille","lat":43.284776,"lon":5.483785,"is_reserved":false,"is_disabled":false,"rental_uris":{"android":"levelo://app?vid=6eb8a2b1-c502-4afd-8163-c96e0ccc5f71","ios":"levelo://app?vid=6eb8a2b1-c502-4afd-8163-c96e0ccc5f71"},"vehicle_type_id":"4","last_reported":1761649745,"current_range_meters":24400,"station_id":"st_d3svhcjqgbts73a3dn0g","pricing_plan_id":"cebpf4jnsgd1na2vs0mg"},{"bike_id":"59cc68e0-5dec-4f10-b4a0-4104931adb77","system_id":"levelo_inurba_marseille","lat":43.28944,"lon":5.3641,"is_reserved":false,"is_disabled":false,"rental_uris":{"android":"levelo://app?vid=59cc68e0-5dec-4f10-b4a0-4104931adb77","ios":"levelo://app?vid=59cc68e0-5dec-4f10-b4a0-4104931adb77"},"vehicle_type_id":"4","last_reported":1761649745,"current_range_meters":24400,"station_id":"ce4bhc92rcd13ifvqetg","pricing_plan_id":"cebpf4jnsgd1na2vs0mg"},{"bike_id":"6e56c21c-73e6-45fa-871a-35c43aa4cd4f","system_id":"levelo_inurba_marseille","lat":43.28263,"lon":5.35051,"is_reserved":false,"is_disabled":false,"rental_uris":{"android":"levelo://app?vid=6e56c21c-73e6-45fa-871a-35c43aa4cd4f","ios":"levelo://app?vid=6e56c21c-73e6-45fa-871a-35c43aa4cd4f"},"vehicle_type_id":"4","last_reported":1761649745,"current_range_meters":24400,"station_id":"ce4bhbp2rcd13ifvqerg","pricing_plan_id":"cebpf4jnsgd1na2vs0mg"},{"bike_id":"a18dbf48-2c4d-4fa4-a4c5-c9871d73c9a0","system_id":"levelo_inurba_marseille","lat":43.301994,"lon":5.383462,"is_reserved":false,"is_disabled":false,"rental_uris":{"android":"levelo://app?vid=a18dbf48-2c4d-4fa4-a4c5-c9871d73c9a0","ios":"levelo://app?vid=a18dbf48-2c4d-4fa4-a4c5-c9871d73c9a0"},"vehicle_type_id":"4","last_reported":1761649745,"current_range_meters":24400,"station_id":"ce4bgup2rcd13ifvqcn0","pricing_plan_id":"cebpf4jnsgd1na2vs0mg"},{"bike_id":"b3b9bf72-b8cd-4c84-8af0-81d23e5997ab","system_id":"levelo_inurba_marseille","lat":43.29004,"lon":5.35619,"is_reserved":false,"is_disabled":true,"rental_uris":{"android":"levelo://app?vid=b3b9bf72-b8cd-4c84-8af0-81d23e5997ab","ios":"levelo://app?vid=b3b9bf72-b8cd-4c84-8af0-81d23e5997ab"},"vehicle_type_id":"4","last_reported":1761649745,"current_range_meters":24400,"station_id":"","pricing_plan_id":"cebpf4jnsgd1na2vs0mg"},{"bike_id":"052ff002-d7b4-4cbc-980b-ae1ddc663652","system_id":"levelo_inurba_marseille","lat":43.23144,"lon":5.43708,"is_reserved":false,"is_disabled":false,"rental_uris":{"android":"levelo://app?vid=052ff002-d7b4-4cbc-980b-ae1ddc663652","ios":"levelo://app?vid=052ff002-d7b4-4cbc-980b-ae1ddc663652"},"vehicle_type_id":"4","last_reported":1761649745,"current_range_meters":24400,"station_id":"ce4bhmp2rcd13ifvqgog","pricing_plan_id":"cebpf4jnsgd1na2vs0mg"},{"bike_id":"23a1c8dd-ae68-462e-b6e8-33b5eb76f388","system_id":"levelo_inurba_marseille","lat":43.32928,"lon":5.4056,"is_reserved":false,"is_disabled":false,"rental_uris":{"android":"levelo://app?vid=23a1c8dd-ae68-462e-b6e8-33b5eb76f388","ios":"levelo://app?vid=23a1c8dd-ae68-462e-b6e8-33b5eb76f388"},"vehicle_type_id":"4","last_reported":1761649745,"current_range_meters":24400,"station_id":"","pricing_plan_id":"cebpf4jnsgd1na2vs0mg"},{"bike_id":"3d7ca14f-a3b9-4ef9-847b-8539ed5d6c69","system_id":"levelo_inurba_marseille","lat":43.25818,"lon":5.39426,"is_reserved":false,"is_disabled":false,"rental_uris":{"android":"levelo://app?vid=3d7ca14f-a3b9-4ef9-847b-8539ed5d6c69","ios":"levelo://app?vid=3d7ca14f-a3b9-4ef9-847b-8539ed5d6c69"},"vehicle_type_id":"4","last_reported":1761649745,"current_range_meters":24400,"station_id":"ce4bhip2rcd13ifvqft0","pricing_plan_id":"cebpf4jnsgd1na2vs0mg"},{"bike_id":"aa436b42-7859-41a0-ab2a-ffc0abada1db","system_id":"levelo_inurba_marseille","lat":43.24389,"lon":5.37061,"is_reserved":false,"is_disabled":false,"rental_uris":{"android":"levelo://app?vid=aa436b42-7859-41a0-ab2a-ffc0abada1db","ios":"levelo://app?vid=aa436b42-7859-41a0-ab2a-ffc0abada1db"},"vehicle_type_id":"4","last_reported":1761649745,"current_range_meters":24800,"station_id":"ce4bhhh2rcd13ifvqfk0","pricing_plan_id":"cebpf4jnsgd1na2vs0mg"},{"bike_id":"e5630c7b-afc0-4b4d-8035-6a0bd11c7e4f","system_id":"levelo_inurba_marseille","lat":43.25723,"lon":5.41114,"is_reserved":false,"is_disabled":false,"rental_uris":{"android":"levelo://app?vid=e5630c7b-afc0-4b4d-8035-6a0bd11c7e4f","ios":"levelo://app?vid=e5630c7b-afc0-4b4d-8035-6a0bd11c7e4f"},"vehicle_type_id":"4","last_reported":1761649745,"current_range_meters":24800,"station_id":"ce4bhkp2rcd13ifvqgd0","pricing_plan_id":"cebpf4jnsgd1na2vs0mg"},{"bike_id":"a22a343e-3d3f-4e03-aa03-54ca9b1fec3f","system_id":"levelo_inurba_marseille","lat":43.24174,"lon":5.36389,"is_reserved":false,"is_disabled":false,"rental_uris":{"android":"levelo://app?vid=a22a343e-3d3f-4e03-aa03-54ca9b1fec3f","ios":"levelo://app?vid=a22a343e-3d3f-4e03-aa03-54ca9b1fec3f"},"vehicle_type_id":"4","last_reported":1761649745,"current_range_meters":24800,"station_id":"cpo36qri1sfpv3e86is0","pricing_plan_id":"cebpf4jnsgd1na2vs0mg"},{"bike_id":"5d6dab70-76c7-420b-ad97-bb518b3696b2","system_id":"levelo_inurba_marseille","lat":43.30548,"lon":5.36508,"is_reserved":false,"is_disabled":false,"rental_uris":{"android":"levelo://app?vid=5d6dab70-76c7-420b-ad97-bb518b3696b2","ios":"levelo://app?vid=5d6dab70-76c7-420b-ad97-bb518b3696b2"},"vehicle_type_id":"4","last_reported":1761649745,"current_range_meters":24800,"station_id":"ce4bgs12rcd13ifvqcag","pricing_plan_id":"cebpf4jnsgd1na2vs0mg"},{"bike_id":"fb79e274-0da6-428d-8794-e41ab2e006bc","system_id":"levelo_inurba_marseille","lat":43.32485,"lon":5.3655,"is_reserved":false,"is_disabled":false,"rental_uris":{"android":"levelo://app?vid=fb79e274-0da6-428d-8794-e41ab2e006bc","ios":"levelo://app?vid=fb79e274-0da6-428d-8794-e41ab2e006bc"},"vehicle_type_id":"4","last_reported":1761649745,"current_range_meters":24800,"station_id":"ce4bhs12rcd13ifvqhvg","pricing_plan_id":"cebpf4jnsgd1na2vs0mg"},{"bike_id":"dc0d9de5-3875-40b4-930a-b13c8fc88ec5","system_id":"levelo_inurba_marseille","lat":43.30384,"lon":5.42484,"is_reserved":false,"is_disabled":false,"rental_uris":{"android":"levelo://app?vid=dc0d9de5-3875-40b4-930a-b13c8fc88ec5","ios":"levelo://app?vid=dc0d9de5-3875-40b4-930a-b13c8fc88ec5"},"vehicle_type_id":"4","last_reported":1761649745,"current_range_meters":24800,"station_id":"ce4bhoh2rcd13ifvqh6g","pricing_plan_id":"cebpf4jnsgd1na2vs0mg"},{"bike_id":"760560d0-7535-43f0-bc37-d7a82ac100ac","system_id":"levelo_inurba_marseille","lat":43.31992,"lon":5.38167,"is_reserved":false,"is_disabled":false,"rental_uris":{"android":"levelo://app?vid=760560d0-7535-43f0-bc37-d7a82ac100ac","ios":"levelo://app?vid=760560d0-7535-43f0-bc37-d7a82ac100ac"},"vehicle_type_id":"4","last_reported":1761649745,"current_range_meters":24800,"station_id":"ce4bhr12rcd13ifvqhpg","pricing_plan_id":"cebpf4jnsgd1na2vs0mg"},