{"last_updated":1743239365,"ttl":60,"version":"2.2","data":{"bikes":[{"bike_id":"5543037f-7ecd-4779-90ae-e6f4699ee2ea","system_id":"levelo_inurba_marseille","lat":43.28024,"lon":5.36957,"is_reserved":false,"is_disabled":false,"rental_uris":{"android":"levelo://app?vid=5543037f-7ecd-4779-90ae-e6f4699ee2ea","ios":"levelo://app?vid=5543037f-7ecd-4779-90ae-e6f4699ee2ea"},"vehicle_type_id":"4","last_reported":1743239365,"current_range_meters":2800,"station_id":"ce4bha12rcd13ifvqef0","pricing_plan_id":"cebpf4jnsgd1na2vs0mg"},{"bike_id":"14e18bf1-2825-4fad-944c-bd8cadf579ff","system_id":"levelo_inurba_marseille","lat":43.26588,"lon":5.3726,"is_reserved":false,"is_disabled":false,"rental_uris":{"android":"levelo://app?vid=14e18bf1-2825-4fad-944c-bd8cadf579ff","ios":"levelo://app?vid=14e18bf1-2825-4fad-944c-bd8cadf579ff"},"vehicle_type_id":"4","last_reported":1743239365,"current_range_meters":2800,"station_id":"ce4bhg12rcd13ifvqf70","pricing_plan_id":"cebpf4jnsgd1na2vs0mg"},{"bike_id":"ddb3e057-8a1c-4f4a-8056-17b5b845e0b9","system_id":"levelo_inurba_marseille","lat":43.28073,"lon":5.39859,"is_reserved":false,"is_disabled":false,"rental_uris":{"android":"levelo://app?vid=ddb3e057-8a1c-4f4a-8056-17b5b845e0b9","ios":"levelo://app?vid=ddb3e057-8a1c-4f4a-8056-17b5b845e0b9"},"vehicle_type_id":"4","last_reported":1743239365,"current_range_meters":3200,"station_id":"","pricing_plan_id":"cebpf4jnsgd1na2vs0mg"},{"bike_id":"afe28815-8a73-49ff-b459-a43d1aa57539","system_id":"levelo_inurba_marseille","lat":43.25827,"lon":5.39428,"is_reserved":false,"is_disabled":false,"rental_uris":{"android":"levelo://app?vid=afe28815-8a73-49ff-b459-a43d1aa57539","ios":"levelo://app?vid=afe28815-8a73-49ff-b459-a43d1aa57539"},"vehicle_type_id":"4","last_reported":1743239365,"current_range_meters":3200,"station_id":"ce4bhip2rcd13ifvqft0","pricing_plan_id":"cebpf4jnsgd1na2vs0mg"},{"bike_id":"0dc18e21-69e2-4229-a9eb-2ac145b34db8","system_id":"levelo_inurba_marseille","lat":43.29026,"lon":5.38125,"is_reserved":false,"is_disabled":false,"rental_uris":{"android":"levelo://app?vid=0dc18e21-69e2-4229-a9eb-2ac145b34db8","ios":"levelo://app?vid=0dc18e21-69e2-4229-a9eb-2ac145b34db8"},"vehicle_type_id":"4","last_reported":1743239365,"current_range_meters":3200,"station_id":"ce4bh4p2rcd13ifvqe1g","pricing_plan_id":"cebpf4jnsgd1na2vs0mg"},{"bike_id":"c14a8fc7-e8db-45ab-b563-5fdd959cef0f","system_id":"levelo_inurba_marseille","lat":43.26034,"lon":5.41732,"is_reserved":false,"is_disabled":true,"rental_uris":{"android":"levelo://app?vid=c14a8fc7-e8db-45ab-b563-5fdd959cef0f","ios":"levelo://app?vid=c14a8fc7-e8db-45ab-b563-5fdd959cef0f"},"vehicle_type_id":"4","last_reported":1743239365,"current_range_meters":3200,"station_id":"","pricing_plan_id":"cebpf4jnsgd1na2vs0mg"},{"bike_id":"3801425b-e231-40ba-bc6c-f689dbd7e8f2","system_id":"levelo_inurba_marseille","lat":43.2467,"lon":5.38151,"is_reserved":false,"is_disabled":false,"rental_uris":{"android":"levelo://app?vid=3801425b-e231-40ba-bc6c-f689dbd7e8f2","ios":"levelo://app?vid=3801425b-e231-40ba-bc6c-f689dbd7e8f2"},"vehicle_type_id":"4","last_reported":1743239365,"current_range_meters":3200,"station_id":"ce4bhih2rcd13ifvqfr0","pricing_plan_id":"cebpf4jnsgd1na2vs0mg"},{"bike_id":"60f95178-9d62-475a-a884-c153403bdb99","system_id":"levelo_inurba_marseille","lat":43.26637,"lon":5.389753,"is_reserved":false,"is_disabled":false,"rental_uris":{"android":"levelo://app?vid=60f95178-9d62-475a-a884-c153403bdb99","ios":"levelo://app?vid=60f95178-9d62-475a-a884-c153403bdb99"},"vehicle_type_id":"4","last_reported":1743239365,"current_range_meters":3200,"station_id":"ce4bho92rcd13ifvqh3g","pricing_plan_id":"cebpf4jnsgd1na2vs0mg"},{"bike_id":"fc8e8371-f4e9-4721-bc19-563801e389dc","system_id":"levelo_inurba_marseille","lat":43.337444,"lon":5.374475,"is_reserved":false,"is_disabled":false,"rental_uris":{"android":"levelo://app?vid=fc8e8371-f4e9-4721-bc19-563801e389dc","ios":"levelo://app?vid=fc8e8371-f4e9-4721-bc19-563801e389dc"},"vehicle_type_id":"4","last_reported":1743239365,"current_range_meters":3200,"station_id":"","pricing_plan_id":"cebpf4jnsgd1na2vs0mg"},{"bike_id":"5c45b865-aa62-4eb2-b90a-e3b937bfc4d8","system_id":"levelo_inurba_marseille","lat":43.28614,"lon":5.37069,"is_reserved":false,"is_disabled":false,"rental_uris":{"android":"levelo://app?vid=5c45b865-aa62-4eb2-b90a-e3b937bfc4d8","ios":"levelo://app?vid=5c45b865-aa62-4eb2-b90a-e3b937bfc4d8"},"vehicle_type_id":"4","last_reported":1743239365,"current_range_meters":3600,"station_id":"ce4bht12rcd13ifvqi60","pricing_plan_id":"cebpf4jnsgd1na2vs0mg"},{"bike_id":"4f6f6be7-7c79-4f91-87d1-2ff23f840661","system_id":"levelo_inurba_marseille","lat":43.30147,"lon":5.38081,"is_reserved":false,"is_disabled":false,"rental_uris":{"android":"levelo://app?vid=4f6f6be7-7c79-4f91-87d1-2ff23f840661","ios":"levelo://app?vid=4f6f6be7-7c79-4f91-87d1-2ff23f840661"},"vehicle_type_id":"4","last_reported":1743239365,"current_range_meters":3600,"station_id":"ce4bgjp2rcd13ifvqbh0","pricing_plan_id":"cebpf4jnsgd1na2vs0mg"},{"bike_id":"64f0ea86-1180-4755-95e1-3cbc9c8d4cf5","system_id":"levelo_inurba_marseille","lat":43.330076,"lon":5.438708,"is_reserved":false,"is_disabled":true,"rental_uris":{"android":"levelo://app?vid=64f0ea86-1180-4755-95e1-3cbc9c8d4cf5","ios":"levelo://app?vid=64f0ea86-1180-4755-95e1-3cbc9c8d4cf5"},"vehicle_type_id":"4","last_reported":1743239365,"current_range_meters":3600,"station_id":"","pricing_plan_id":"cebpf4jnsgd1na2vs0mg"},{"bike_id":"54ddc8ef-31ef-4265-a7aa-db2b7650b022","system_id":"levelo_inurba_marseille","lat":43.2929,"lon":5.40169,"is_reserved":false,"is_disabled":false,"rental_uris":{"android":"levelo://app?vid=54ddc8ef-31ef-4265-a7aa-db2b7650b022","ios":"levelo://app?vid=54ddc8ef-31ef-4265-a7aa-db2b7650b022"},"vehicle_type_id":"4","last_reported":1743239365,"current_range_meters":3600,"station_id":"ce4bh312rcd13ifvqdk0","pricing_plan_id":"cebpf4jnsgd1na2vs0mg"},{"bike_id":"82baa667-98bd-4977-b334-8318fa5ff223","system_id":"levelo_inurba_marseille","lat":43.30142,"lon":5.37426,"is_reserved":false,"is_disabled":false,"rental_uris":{"android":"levelo://app?vid=82baa667-98bd-4977-b334-8318fa5ff223","ios":"levelo://app?vid=82baa667-98bd-4977-b334-8318fa5ff223"},"vehicle_type_id":"4","last_reported":1743239365,"current_range_meters":3600,"station_id":"ce4bgs92rcd13ifvqcc0","pricing_plan_id":"cebpf4jnsgd1na2vs0mg"},{"bike_id":"961245ca-8d90-4d71-b735-61afea929100","system_id":"levelo_inurba_marseille","lat":43.24177,"lon":5.36411,"is_reserved":false,"is_disabled":false,"rental_uris":{"android":"levelo://app?vid=961245ca-8d90-4d71-b735-61afea929100","ios":"levelo://app?vid=961245ca-8d90-4d71-b735-61afea929100"},"vehicle_type_id":"4","last_reported":1743239365,"current_range_meters":4000,"station_id":"cpo36qri1sfpv3e86is0","pricing_plan_id":"cebpf4jnsgd1na2vs0mg"},{"bike_id":"ec940620-2a09-4eae-aace-1a0a72b62180","system_id":"levelo_inurba_marseille","lat":43.302809,"lon":5.400815,"is_reserved":false,"is_disabled":false,"rental_uris":{"android":"levelo://app?vid=ec940620-2a09-4eae-aace-1a0a72b62180","ios":"levelo://app?vid=ec940620-2a09-4eae-aace-1a0a72b62180"},"vehicle_type_id":"4","last_reported":1743239365,"current_range_meters":4000,"station_id":"ce4bgvh2rcd13ifvqcs0","pricing_plan_id":"cebpf4jnsgd1na2vs0mg"},{"bike_id":"53b30b9a-c616-4d42-bf22-c7a666af3f3a","system_id":"levelo_inurba_marseille","lat":43.311684,"lon":5.387208,"is_reserved":false,"is_disabled":false,"rental_uris":{"android":"levelo://app?vid=53b30b9a-c616-4d42-bf22-c7a666af3f3a","ios":"levelo://app?vid=53b30b9a-c616-4d42-bf22-c7a666af3f3a"},"vehicle_type_id":"4","last_reported":1743239365,"current_range_meters":4000,"station_id":"ce4bgv12rcd13ifvqcp0","pricing_plan_id":"cebpf4jnsgd1na2vs0mg"},{"bike_id":"6bc046ae-c9d2-4b92-a760-792edc268632","system_id":"levelo_inurba_marseille","lat":43.303525,"lon":5.392896,"is_reserved":false,"is_disabled":false,"rental_uris":{"android":"levelo://app?vid=6bc046ae-c9d2-4b92-a760-792edc268632","ios":"levelo://app?vid=6bc046ae-c9d2-4b92-a760-792edc268632"},"vehicle_type_id":"4","last_reported":1743239365,"current_range_meters":4000,"station_id":"","pricing_plan_id":"cebpf4jnsgd1na2vs0mg"},{"bike_id":"716ec141-bc0c-4f72-85e8-090476190e07","system_id":"levelo_inurba_marseille","lat":43.287262,"lon":5.388863,"is_reserved":false,"is_disabled":false,"rental_uris":{"android":"levelo://app?vid=716ec141-bc0c-4f72-85e8-090476190e07","ios":"levelo://app?vid=716ec141-bc0c-4f72-85e8-090476190e07"},"vehicle_type_id":"4","last_reported":1743239365,"current_range_meters":4000,"station_id":"ce4bh3h2rcd13ifvqdn0","pricing_plan_id":"cebpf4jnsgd1na2vs0mg"},{"bike_id":"0ac88cdf-dd3a-494f-aaa5-2b24d1ce393f","system_id":"levelo_inurba_marseille","lat":43.23119,"lon":5.35509,"is_reserved":false,"is_disabled":false,"rental_uris":{"android":"levelo://app?vid=0ac88cdf-dd3a-494f-aaa5-2b24d1ce393f","ios":"levelo://app?vid=0ac88cdf-dd3a-494f-aaa5-2b24d1ce393f"},"vehicle_type_id":"4","last_reported":1743239365,"current_range_meters":4000,"station_id":"cpo3342slgdg3j2ifvpg","pricing_plan_id":"cebpf4jnsgd1na2vs0mg"},{"bike_id":"ff082602-2e71-46da-a654-4c849a6487bd","system_id":"levelo_inurba_marseille","lat":43.29256,"lon":5.40202,"is_reserved":false,"is_disabled":false,"rental_uris":{"android":"levelo://app?vid=ff082602-2e71-46da-a654-4c849a6487bd","ios":"levelo://app?vid=ff082602-2e71-46da-a654-4c849a6487bd"},"vehicle_type_id":"4","last_reported":1743239365,"current_range_meters":4400,"station_id":"","pricing_plan_id":"cebpf4jnsgd1na2vs0mg"},{"bike_id":"0714e207-7246-458a-9d1d-be45c6f0f274","system_id":"levelo_inurba_marseille","lat":43.30323,"lon":5.40441,"is_reserved":false,"is_disabled":false,"rental_uris":{"android":"levelo://app?vid=0714e207-7246-458a-9d1d-be45c6f0f274","ios":"levelo://app?vid=0714e207-7246-458a-9d1d-be45c6f0f274"},"vehicle_type_id":"4","last_reported":1743239365,"current_range_meters":4400,"station_id":"ce4bh012rcd13ifvqd10","pricing_plan_id":"cebpf4jnsgd1na2vs0mg"},{"bike_id":"d0c2ba62-325f-42ee-b4c5-fe6707aa69d7","system_id":"levelo_inurba_marseille","lat":43.24816,"lon":5.3746,"is_reserved":false,"is_disabled":false,"rental_uris":{"android":"levelo://app?vid=d0c2ba62-325f-42ee-b4c5-fe6707aa69d7","ios":"levelo://app?vid=d0c2ba62-325f-42ee-b4c5-fe6707aa69d7"},"vehicle_type_id":"4","last_reported":1743239365,"current_range_meters":4400,"station_id":"ce4bhgh2rcd13ifvqfb0","pricing_plan_id":"cebpf4jnsgd1na2vs0mg"},{"bike_id":"850e9242-7704-4fc7-b0e6-d5ec59d44395","system_id":"levelo_inurba_marseille","lat":43.279383,"lon":5.387604,"is_reserved":false,"is_disabled":false,"rental_uris":{"android":"levelo://app?vid=850e9242-7704-4fc7-b0e6-d5ec59d44395","ios":"levelo://app?vid=850e9242-7704-4fc7-b0e6-d5ec59d44395"},"vehicle_type_id":"4","last_reported":1743239365,"current_range_meters":4400,"station_id":"","pricing_plan_id":"cebpf4jnsgd1na2vs0mg"},{"bike_id":"69d4a96e-aebb-48d7-9d81-4070f7503e98","system_id":"levelo_inurba_marseille","lat":43.30827,"lon":5.37425,"is_reserved":false,"is_disabled":false,"rental_uris":{"android":"levelo://app?vid=69d4a96e-aebb-48d7-9d81-4070f7503e98","ios":"levelo://app?vid=69d4a96e-aebb-48d7-9d81-4070f7503e98"},"vehicle_type_id":"4","last_reported":1743239365,"current_range_meters":5600,"station_id":"","pricing_plan_id":"cebpf4jnsgd1na2vs0mg"},{"bike_id":"6026f9b7-25ae-4d64-8648-76338e9b1c4c","system_id":"levelo_inurba_marseille","lat":43.3232,"lon":5.38993,"is_reserved":false,"is_disabled":false,"rental_uris":{"android":"levelo://app?vid=6026f9b7-25ae-4d64-8648-76338e9b1c4c","ios":"levelo://app?vid=6026f9b7-25ae-4d64-8648-76338e9b1c4c"},"vehicle_type_id":"4","last_reported":1743239365,"current_range_meters":5600,"station_id":"","pricing_plan_id":"cebpf4jnsgd1na2vs0mg"},{"bike_id":"d8995671-8d10-4595-a48d-c072afc16bcb","system_id":"levelo_inurba_marseille","lat":43.28618,"lon":5.35103,"is_reserved":false,"is_disabled":false,"rental_uris":{"android":"levelo://app?vid=d8995671-8d10-4595-a48d-c072afc16bcb","ios":"levelo://app?vid=d8995671-8d10-4595-a48d-c072afc16bcb"},"vehicle_type_id":"4","last_reported":1743239365,"current_range_meters":5600,"station_id":"ce4bhch2rcd13ifvqeug","pricing_plan_id":"cebpf4jnsgd1na2vs0mg"},{"bike_id":"546aad17-b002-4278-9188-e4e2e3b7d824","system_id":"levelo_inurba_marseille","lat":43.30139,"lon":5.38102,"is_reserved":false,"is_disabled":false,"rental_uris":{"android":"levelo://app?vid=546aad17-b002-4278-9188-e4e2e3b7d824","ios":"levelo://app?vid=546aad17-b002-4278-9188-e4e2e3b7d824"},"vehicle_type_id":"4","last_reported":1743239365,"current_range_meters":5600,"station_id":"ce4bgjp2rcd13ifvqbh0","pricing_plan_id":"cebpf4jnsgd1na2vs0mg"},{"bike_id":"ee9a67f6-8378-40c2-854e-cdbc1deec05a","system_id":"levelo_inurba_marseille","lat":43.29247,"lon":5.3844,"is_reserved":false,"is_disabled":true,"rental_uris":{"android":"levelo://app?vid=ee9a67f6-8378-40c2-854e-cdbc1deec05a","ios":"levelo://app?vid=ee9a67f6-8378-40c2-854e-cdbc1deec05a"},"vehicle_type_id":"4","last_reported":1743239365,"current_range_meters":5600,"station_id":"ce4bh692rcd13ifvqea0","pricing_plan_id":"cebpf4jnsgd1na2vs0mg"},{"bike_id":"89cd213c-d053-472b-a767-0f3c249b368e","system_id":"levelo_inurba_marseille","lat":43.2749,"lon":5.42462,"is_reserved":false,"is_disabled":false,"rental_uris":{"android":"levelo://app?vid=89cd213c-d053-472b-a767-0f3c249b368e","ios":"levelo://app?vid=89cd213c-d053-472b-a767-0f3c249b368e"},"vehicle_type_id":"4","last_reported":1743239365,"current_range_meters":6000,"station_id":"ce4bhn92rcd13ifvqgrg","pricing_plan_id":"cebpf4jnsgd1na2vs0mg"},{"bike_id":"64614d85-14d6-4550-9679-122515eda3ee","system_id":"levelo_inurba_marseille","lat":43.26572,"lon":5.39025,"is_reserved":false,"is_disabled":true,"rental_uris":{"android":"levelo://app?vid=64614d85-14d6-4550-9679-122515eda3ee","ios":"levelo://app?vid=64614d85-14d6-4550-9679-122515eda3ee"},"vehicle_type_id":"4","last_reported":1743239365,"current_range_meters":6000,"station_id":"ce4bhe12rcd13ifvqf30","pricing_plan_id":"cebpf4jnsgd1na2vs0mg"},{"bike_id":"50ea93e6-fff8-4d2c-95d0-0b9215818caa","system_id":"levelo_inurba_marseille","lat":43.26558,"lon":5.39006,"is_reserved":false,"is_disabled":true,"rental_uris":{"android":"levelo://app?vid=50ea93e6-fff8-4d2c-95d0-0b9215818caa","ios":"levelo://app?vid=50ea93e6-fff8-4d2c-95d0-0b9215818caa"},"vehicle_type_id":"4","last_reported":1743239365,"current_range_meters":6000,"station_id":"ce4bhe12rcd13ifvqf30","pricing_plan_id":"cebpf4jnsgd1na2vs0mg"},{"bike_id":"fd134268-1499-401e-bb83-137ea2b7a695","system_id":"levelo_inurba_marseille","lat":43.23956,"lon":5.36655,"is_reserved":false,"is_disabled":false,"rental_uris":{"android":"levelo://app?vid=fd134268-1499-401e-bb83-137ea2b7a695","ios":"levelo://app?vid=fd134268-1499-401e-bb83-137ea2b7a695"},"vehicle_type_id":"4","last_reported":1743239365,"current_range_meters":6000,"station_id":"ce4bhi12rcd13ifvqfp0","pricing_plan_id":"cebpf4jnsgd1na2vs0mg"},{"bike_id":"a3514274-c949-4c91-b768-3857fda27d00","system_id":"levelo_inurba_marseille","lat":43.286101,"lon":5.370662,"is_reserved":false,"is_disabled":false,"rental_uris":{"android":"levelo://app?vid=a3514274-c949-4c91-b768-3857fda27d00","ios":"levelo://app?vid=a3514274-c949-4c91-b768-3857fda27d00"},"vehicle_type_id":"4","last_reported":1743239365,"current_range_meters":6000,"station_id":"ce4bht12rcd13ifvqi60","pricing_plan_id":"cebpf4jnsgd1na2vs0mg"},{"bike_id":"ee2588a0-8a3d-4c56-88e3-6823a90de92d","system_id":"levelo_inurba_marseille","lat":43.281,"lon":5.38572,"is_reserved":false,"is_disabled":false,"rental_uris":{"android":"levelo://app?vid=ee2588a0-8a3d-4c56-88e3-6823a90de92d","ios":"levelo://app?vid=ee2588a0-8a3d-4c56-88e3-6823a90de92d"},"vehicle_type_id":"4","last_reported":1743239365,"current_range_meters":6000,"station_id":"","pricing_plan_id":"cebpf4jnsgd1na2vs0mg"},{"bike_id":"57f8c7cb-17ce-46c9-b07d-dc98d28c951d","system_id":"levelo_inurba_marseille","lat":43.2582,"lon":5.39426,"is_reserved":false,"is_disabled":false,"rental_uris":{"android":"levelo://app?vid=57f8c7cb-17ce-46c9-b07d-dc98d28c951d","ios":"levelo://app?vid=57f8c7cb-17ce-46c9-b07d-dc98d28c951d"},"vehicle_type_id":"4","last_reported":1743239365,"current_range_meters":6000,"station_id":"ce4bhip2rcd13ifvqft0","pricing_plan_id":"cebpf4jnsgd1na2vs0mg"},{"bike_id":"bf486d29-80ae-43fc-9394-756ed3e2b73e","system_id":"levelo_inurba_marseille","lat":43.27995,"lon":5.40013,"is_reserved":false,"is_disabled":false,"rental_uris":{"android":"levelo://app?vid=bf486d29-80ae-43fc-9394-756ed3e2b73e","ios":"levelo://app?vid=bf486d29-80ae-43fc-9394-756ed3e2b73e"},"vehicle_type_id":"4","last_reported":1743239365,"current_range_meters":6400,"station_id":"ce4bho92rcd13ifvqh4g","pricing_plan_id":"cebpf4jnsgd1na2vs0mg"},{"bike_id":"192942de-ead5-41d5-a6ee-bb129a79b3fb","system_id":"levelo_inurba_marseille","lat":43.30459,"lon":5.37905,"is_reserved":false,"is_disabled":false,"rental_uris":{"android":"levelo://app?vid=192942de-ead5-41d5-a6ee-bb129a79b3fb","ios":"levelo://app?vid=192942de-ead5-41d5-a6ee-bb129a79b3fb"},"vehicle_type_id":"4","last_reported":1743239365,"current_range_meters":6400,"station_id":"ce4bgup2rcd13ifvqcn0","pricing_plan_id":"cebpf4jnsgd1na2vs0mg"},{"bike_id":"31fb89fc-7844-4a97-8e11-107f732c275a","system_id":"levelo_inurba_marseille","lat":43.31327,"lon":5.39703,"is_reserved":false,"is_disabled":false,"rental_uris":{"android":"levelo://app?vid=31fb89fc-7844-4a97-8e11-107f732c275a","ios":"levelo://app?vid=31fb89fc-7844-4a97-8e11-107f732c275a"},"vehicle_type_id":"4","last_reported":1743239365,"current_range_meters":6400,"station_id":"ce4bgvp2rcd13ifvqcu0","pricing_plan_id":"cebpf4jnsgd1na2vs0mg"},{"bike_id":"72c78bbb-f16b-4937-919e-913520fb5ad0","system_id":"levelo_inurba_marseille","lat":43.28465,"lon":5.38432,"is_reserved":false,"is_disabled":true,"rental_uris":{"android":"levelo://app?vid=72c78bbb-f16b-4937-919e-913520fb5ad0","ios":"levelo://app?vid=72c78bbb-f16b-4937-919e-913520fb5ad0"},"vehicle_type_id":"4","last_reported":1743239365,"current_range_meters":6400,"station_id":"ce4bh512rcd13ifvqe3g","pricing_plan_id":"cebpf4jnsgd1na2vs0mg"},{"bike_id":"7201e83f-6b3c-4d50-905a-46d5815f0094","system_id":"levelo_inurba_marseille","lat":43.30249,"lon":5.40084,"is_reserved":false,"is_disabled":false,"rental_uris":{"android":"levelo://app?vid=7201e83f-6b3c-4d50-905a-46d5815f0094","ios":"levelo://app?vid=7201e83f-6b3c-4d50-905a-46d5815f0094"},"vehicle_type_id":"4","last_reported":1743239365,"current_range_meters":6400,"station_id":"ce4bgvh2rcd13ifvqcs0","pricing_plan_id":"cebpf4jnsgd1na2vs0mg"},{"bike_id":"9faffa80-67d4-4e2a-9130-9db11f86ce81","system_id":"levelo_inurba_marseille","lat":43.28693,"lon":5.39982,"is_reserved":false,"is_disabled":false,"rental_uris":{"android":"levelo://app?vid=9faffa80-67d4-4e2a-9130-9db11f86ce81","ios":"levelo://app?vid=9faffa80-67d4-4e2a-9130-9db11f86ce81"},"vehicle_type_id":"4","last_reported":1743239365,"current_range_meters":6400,"station_id":"ce4bho92rcd13ifvqh3g","pricing_plan_id":"cebpf4jnsgd1na2vs0mg"},{"bike_id":"397e7a2d-ea76-421d-953d-8f4ec68badc8","system_id":"levelo_inurba_marseille","lat":43.31156,"lon":5.38707,"is_reserved":false,"is_disabled":false,"rental_uris":{"android":"levelo://app?vid=397e7a2d-ea76-421d-953d-8f4ec68badc8","ios":"levelo://app?vid=397e7a2d-ea76-421d-953d-8f4ec68badc8"},"vehicle_type_id":"4","last_reported":1743239365,"current_range_meters":6400,"station_id":"ce4bgv12rcd13ifvqcp0","pricing_plan_id":"cebpf4jnsgd1na2vs0mg"},{"bike_id":"20bf3cd3-bf42-4ca5-877d-fdcf79d8325c","system_id":"levelo_inurba_marseille","lat":43.29575,"lon":5.36747,"is_reserved":false,"is_disabled":false,"rental_uris":{"android":"levelo://app?vid=20bf3cd3-bf42-4ca5-877d-fdcf79d8325c","ios":"levelo://app?vid=20bf3cd3-bf42-4ca5-877d-fdcf79d8325c"},"vehicle_type_id":"4","last_reported":1743239365,"current_range_meters":6400,"station_id":"ce4bgph2rcd13ifvqc2g","pricing_plan_id":"cebpf4jnsgd1na2vs0mg"},{"bike_id":"0009eca3-f243-43d3-a06a-66f6a4a5ccdd","system_id":"levelo_inurba_marseille","lat":43.23192,"lon":5.35546,"is_reserved":false,"is_disabled":false,"rental_uris":{"android":"levelo://app?vid=0009eca3-f243-43d3-a06a-66f6a4a5ccdd","ios":"levelo://app?vid=0009eca3-f243-43d3-a06a-66f6a4a5ccdd"},"vehicle_type_id":"4","last_reported":1743239365,"current_range_meters":6400,"station_id":"ce4bhu92rcd13ifvqi70","pricing_plan_id":"cebpf4jnsgd1na2vs0mg"},{"bike_id":"5675727c-fa55-4ea9-9b12-a402b804e91c","system_id":"levelo_inurba_marseille","lat":43.27325,"lon":5.39097,"is_reserved":false,"is_disabled":true,"rental_uris":{"android":"levelo://app?vid=5675727c-fa55-4ea9-9b12-a402b804e91c","ios":"levelo://app?vid=5675727c-fa55-4ea9-9b12-a402b804e91c"},"vehicle_type_id":"4","last_reported":1743239365,"current_range_meters":6400,"station_id":"ce4bhgp2rcd13ifvqfe0","pricing_plan_id":"cebpf4jnsgd1na2vs0mg"},{"bike_id":"84fca53f-e092-4d1b-ab72-aadf5c335789","system_id":"levelo_inurba_marseille","lat":43.29244,"lon":5.36853,"is_reserved":false,"is_disabled":false,"rental_uris":{"android":"levelo://app?vid=84fca53f-e092-4d1b-ab72-aadf5c335789","ios":"levelo://app?vid=84fca53f-e092-4d1b-ab72-aadf5c335789"},"vehicle_type_id":"4","last_reported":1743239365,"current_range_meters":6800,"station_id":"ce4bhbp2rcd13ifvqesg","pricing_plan_id":"cebpf4jnsgd1na2vs0mg"},{"bike_id":"4a42ca1e-41e4-4233-a4bb-a180f04564d6","system_id":"levelo_inurba_marseille","lat":43.29175,"lon":5.3714,"is_reserved":false,"is_disabled":true,"rental_uris":{"android":"levelo://app?vid=4a42ca1e-41e4-4233-a4bb-a180f04564d6","ios":"levelo://app?vid=4a42ca1e-41e4-4233-a4bb-a180f04564d6"},"vehicle_type_id":"4","last_reported":1743239365,"current_range_meters":6800,"station_id":"ce4bha92rcd13ifvqeh0","pricing_plan_id":"cebpf4jnsgd1na2vs0mg"},{"bike_id":"861ae205-c318-4688-ac53-947993e1b65f","system_id":"levelo_inurba_marseille","lat":43.24168,"lon":5.3641,"is_reserved":false,"is_disabled":false,"rental_uris":{"android":"levelo://app?vid=861ae205-c318-4688-ac53-947993e1b65f","ios":"levelo://app?vid=861ae205-c318-4688-ac53-947993e1b65f"},"vehicle_type_id":"4","last_reported":1743239365,"current_range_meters":6800,"station_id":"cpo36qri1sfpv3e86is0","pricing_plan_id":"cebpf4jnsgd1na2vs0mg"},{"bike_id":"18d34e88-2ea3-41ee-9f59-ff60f8d838e2","system_id":"levelo_inurba_marseille","lat":43.29572,"lon":5.37527,"is_reserved":false,"is_disabled":false,"rental_uris":{"android":"levelo://app?vid=18d34e88-2ea3-41ee-9f59-ff60f8d838e2","ios":"levelo://app?vid=18d34e88-2ea3-41ee-9f59-ff60f8d838e2"},"vehicle_type_id":"4","last_reported":1743239365,"current_range_meters":6800,"station_id":"ce4bgh92rcd13ifvqb50","pricing_plan_id":"cebpf4jnsgd1na2vs0mg"},{"bike_id":"e68a3cd4-776d-477e-b868-19282e6dc1d7","system_id":"levelo_inurba_marseille","lat":43.30773,"lon":5.37656,"is_reserved":false,"is_disabled":false,"rental_uris":{"android":"levelo://app?vid=e68a3cd4-776d-477e-b868-19282e6dc1d7","ios":"levelo://app?vid=e68a3cd4-776d-477e-b868-19282e6dc1d7"},"vehicle_type_id":"4","last_reported":1743239365,"current_range_meters":6800,"station_id":"ce4bgv92rcd13ifvqcq0","pricing_plan_id":"cebpf4jnsgd1na2vs0mg"},{"bike_id":"372077d7-6912-4560-8e62-7c1226cc8258","system_id":"levelo_inurba_marseille","lat":43.27983,"lon":5.40026,"is_reserved":false,"is_disabled":false,"rental_uris":{"android":"levelo://app?vid=372077d7-6912-4560-8e62-7c1226cc8258","ios":"levelo://app?vid=372077d7-6912-4560-8e62-7c1226cc8258"},"vehicle_type_id":"4","last_reported":1743239365,"current_range_meters":7200,"station_id":"ce4bho92rcd13ifvqh4g","pricing_plan_id":"cebpf4jnsgd1na2vs0mg"},{"bike_id":"4bc0dbb3-90de-4eb9-aa21-74c63a07a4eb","system_id":"levelo_inurba_marseille","lat":43.31073,"lon":5.3779,"is_reserved":false,"is_disabled":false,"rental_uris":{"android":"levelo://app?vid=4bc0dbb3-90de-4eb9-aa21-74c63a07a4eb","ios":"levelo://app?vid=4bc0dbb3-90de-4eb9-aa21-74c63a07a4eb"},"vehicle_type_id":"4","last_reported":1743239365,"current_range_meters":7200,"station_id":"ce4bgt92rcd13ifvqcg0","pricing_plan_id":"cebpf4jnsgd1na2vs0mg"},{"bike_id":"f439faaa-ce2d-437b-bd83-3a4e6c6ea628","system_id":"levelo_inurba_marseille","lat":43.24176,"lon":5.39726,"is_reserved":false,"is_disabled":false,"rental_uris":{"android":"levelo://app?vid=f439faaa-ce2d-437b-bd83-3a4e6c6ea628","ios":"levelo://app?vid=f439faaa-ce2d-437b-bd83-3a4e6c6ea628"},"vehicle_type_id":"4","last_reported":1743239365,"current_range_meters":7200,"station_id":"ce4bhn12rcd13ifvqgpg","pricing_plan_id":"cebpf4jnsgd1na2vs0mg"},{"bike_id":"971c92cb-66df-438d-9a85-e63af939e6ff","system_id":"levelo_inurba_marseille","lat":43.286138,"lon":5.351021,"is_reserved":false,"is_disabled":true,"rental_uris":{"android":"levelo://app?vid=971c92cb-66df-438d-9a85-e63af939e6ff","ios":"levelo://app?vid=971c92cb-66df-438d-9a85-e63af939e6ff"},"vehicle_type_id":"4","last_reported":1743239365,"current_range_meters":7200,"station_id":"ce4bhch2rcd13ifvqeug","pricing_plan_id":"cebpf4jnsgd1na2vs0mg"},{"bike_id":"87ce5af9-2c3f-4b34-8106-a0bd98c8708b","system_id":"levelo_inurba_marseille","lat":43.27993,"lon":5.40064,"is_reserved":false,"is_disabled":false,"rental_uris":{"android":"levelo://app?vid=87ce5af9-2c3f-4b34-8106-a0bd98c8708b","ios":"levelo://app?vid=87ce5af9-2c3f-4b34-8106-a0bd98c8708b"},"vehicle_type_id":"4","last_reported":1743239365,"current_range_meters":7200,"station_id":"ce4bho92rcd13ifvqh4g","pricing_plan_id":"cebpf4jnsgd1na2vs0mg"},{"bike_id":"09012fd1-5856-42c8-860d-cb6fa0c3ec4d","system_id":"levelo_inurba_marseille","lat":43.30449,"lon":5.37914,"is_reserved":false,"is_disabled":false,"rental_uris":{"android":"levelo://app?vid=09012fd1-5856-42c8-860d-cb6fa0c3ec4d","ios":"levelo://app?vid=09012fd1-5856-42c8-860d-cb6fa0c3ec4d"},"vehicle_type_id":"4","last_reported":1743239365,"current_range_meters":7200,"station_id":"ce4bgup2rcd13ifvqcn0","pricing_plan_id":"cebpf4jnsgd1na2vs0mg"},{"bike_id":"c6b682a7-e903-4363-967f-d69957e8f7ed","system_id":"levelo_inurba_marseille","lat":43.28615,"lon":5.35088,"is_reserved":false,"is_disabled":false,"rental_uris":{"android":"levelo://app?vid=c6b682a7-e903-4363-967f-d69957e8f7ed","ios":"levelo://app?vid=c6b682a7-e903-4363-967f-d69957e8f7ed"},"vehicle_type_id":"4","last_reported":1743239365,"current_range_meters":7200,"station_id":"ce4bhch2rcd13ifvqeug","pricing_plan_id":"cebpf4jnsgd1na2vs0mg"},{"bike_id":"9706b643-c205-41ac-9b92-80d747a14eed","system_id":"levelo_inurba_marseille","lat":43.31128,"lon":5.3776,"is_reserved":false,"is_disabled":false,"rental_uris":{"android":"levelo://app?vid=9706b643-c205-41ac-9b92-80d747a14eed","ios":"levelo://app?vid=9706b643-c205-41ac-9b92-80d747a14eed"},"vehicle_type_id":"4","last_reported":1743239365,"current_range_meters":7200,"station_id":"ce4bgt92rcd13ifvqcg0","pricing_plan_id":"cebpf4jnsgd1na2vs0mg"},{"bike_id":"eb434d4f-f91f-46c6-b806-d21f13378d04","system_id":"levelo_inurba_marseille","lat":43.28263,"lon":5.35073,"is_reserved":false,"is_disabled":false,"rental_uris":{"android":"levelo://app?vid=eb434d4f-f91f-46c6-b806-d21f13378d04","ios":"levelo://app?vid=eb434d4f-f91f-46c6-b806-d21f13378d04"},"vehicle_type_id":"4","last_reported":1743239365,"current_range_meters":7200,"station_id":"ce4bhbp2rcd13ifvqerg","pricing_plan_id":"cebpf4jnsgd1na2vs0mg"},{"bike_id":"1c14bf9c-ada4-4a36-8853-740a1a2c000a","system_id":"levelo_inurba_marseille","lat":43.23203,"lon":5.35572,"is_reserved":false,"is_disabled":false,"rental_uris":{"android":"levelo://app?vid=1c14bf9c-ada4-4a36-8853-740a1a2c000a","ios":"levelo://app?vid=1c14bf9c-ada4-4a36-8853-740a1a2c000a"},"vehicle_type_id":"4","last_reported":1743239365,"current_range_meters":7200,"station_id":"ce4bhu92rcd13ifvqi70","pricing_plan_id":"cebpf4jnsgd1na2vs0mg"},{"bike_id":"afde944a-633f-47b5-a2d3-76be709cb025","system_id":"levelo_inurba_marseille","lat":43.28717,"lon":5.36086,"is_reserved":false,"is_disabled":false,"rental_uris":{"android":"levelo://app?vid=afde944a-633f-47b5-a2d3-76be709cb025","ios":"levelo://app?vid=afde944a-633f-47b5-a2d3-76be709cb025"},"vehicle_type_id":"4","last_reported":1743239365,"current_range_meters":7200,"station_id":"cki0cbj6b192h4jlfktg","pricing_plan_id":"cebpf4jnsgd1na2vs0mg"},{"bike_id":"ac7b446a-5fec-4cbb-868e-45d0239dc236","system_id":"levelo_inurba_marseille","lat":43.24701,"lon":5.38172,"is_reserved":false,"is_disabled":false,"rental_uris":{"android":"levelo://app?vid=ac7b446a-5fec-4cbb-868e-45d0239dc236","ios":"levelo://app?vid=ac7b446a-5fec-4cbb-868e-45d0239dc236"},"vehicle_type_id":"4","last_reported":1743239365,"current_range_meters":7200,"station_id":"ce4bhih2rcd13ifvqfr0","pricing_plan_id":"cebpf4jnsgd1na2vs0mg"},{"bike_id":"cbe177f9-7359-4495-b99f-8a1700a0286f","system_id":"levelo_inurba_marseille","lat":43.28729,"lon":5.36084,"is_reserved":false,"is_disabled":false,"rental_uris":{"android":"levelo://app?vid=cbe177f9-7359-4495-b99f-8a1700a0286f","ios":"levelo://app?vid=cbe177f9-7359-4495-b99f-8a1700a0286f"},"vehicle_type_id":"4","last_reported":1743239365,"current_range_meters":8000,"station_id":"cki0cbj6b192h4jlfktg","pricing_plan_id":"cebpf4jnsgd1na2vs0mg"},{"bike_id":"90df0f14-f996-423e-b605-53c2c708242e","system_id":"levelo_inurba_marseille","lat":43.31689,"lon":5.40519,"is_reserved":false,"is_disabled":false,"rental_uris":{"android":"levelo://app?vid=90df0f14-f996-423e-b605-53c2c708242e","ios":"levelo://app?vid=90df0f14-f996-423e-b605-53c2c708242e"},"vehicle_type_id":"4","last_reported":1743239365,"current_range_meters":8000,"station_id":"ce4bh012rcd13ifvqd00","pricing_plan_id":"cebpf4jnsgd1na2vs0mg"},{"bike_id":"22c2e96e-aae9-4599-b6d7-71dad65652fe","system_id":"levelo_inurba_marseille","lat":43.295207,"lon":5.39408,"is_reserved":false,"is_disabled":false,"rental_uris":{"android":"levelo://app?vid=22c2e96e-aae9-4599-b6d7-71dad65652fe","ios":"levelo://app?vid=22c2e96e-aae9-4599-b6d7-71dad65652fe"},"vehicle_type_id":"4","last_reported":1743239365,"current_range_meters":8000,"station_id":"ce4bh0h2rcd13ifvqd50","pricing_plan_id":"cebpf4jnsgd1na2vs0mg"},{"bike_id":"3c724e4a-ec93-4dd4-87a9-608ce3fa202a","system_id":"levelo_inurba_marseille","lat":43.31059,"lon":5.38344,"is_reserved":false,"is_disabled":false,"rental_uris":{"android":"levelo://app?vid=3c724e4a-ec93-4dd4-87a9-608ce3fa202a","ios":"levelo://app?vid=3c724e4a-ec93-4dd4-87a9-608ce3fa202a"},"vehicle_type_id":"4","last_reported":1743239365,"current_range_meters":8000,"station_id":"ce4bgv92rcd13ifvqcr0","pricing_plan_id":"cebpf4jnsgd1na2vs0mg"},{"bike_id":"571e43af-e4f5-404b-9dd8-9e11760bfa4c","system_id":"levelo_inurba_marseille","lat":43.287261,"lon":5.360921,"is_reserved":false,"is_disabled":false,"rental_uris":{"android":"levelo://app?vid=571e43af-e4f5-404b-9dd8-9e11760bfa4c","ios":"levelo://app?vid=571e43af-e4f5-404b-9dd8-9e11760bfa4c"},"vehicle_type_id":"4","last_reported":1743239365,"current_range_meters":8000,"station_id":"cki0cbj6b192h4jlfktg","pricing_plan_id":"cebpf4jnsgd1na2vs0mg"},{"bike_id":"42937bfa-063c-4004-9070-0c8f2cd8ea3f","system_id":"levelo_inurba_marseille","lat":43.28931,"lon":5.39629,"is_reserved":false,"is_disabled":false,"rental_uris":{"android":"levelo://app?vid=42937bfa-063c-4004-9070-0c8f2cd8ea3f","ios":"levelo://app?vid=42937bfa-063c-4004-9070-0c8f2cd8ea3f"},"vehicle_type_id":"4","last_reported":1743239365,"current_range_meters":8000,"station_id":"ce4bh3h2rcd13ifvqdn0","pricing_plan_id":"cebpf4jnsgd1na2vs0mg"},{"bike_id":"cd3b2180-5c64-4fcd-b5f0-34107a20647d","system_id":"levelo_inurba_marseille","lat":43.31985,"lon":5.3814,"is_reserved":false,"is_disabled":false,"rental_uris":{"android":"levelo://app?vid=cd3b2180-5c64-4fcd-b5f0-34107a20647d","ios":"levelo://app?vid=cd3b2180-5c64-4fcd-b5f0-34107a20647d"},"vehicle_type_id":"4","last_reported":1743239365,"current_range_meters":8400,"station_id":"ce4bhr12rcd13ifvqhpg","pricing_plan_id":"cebpf4jnsgd1na2vs0mg"},{"bike_id":"846275f0-7b72-4373-a828-815bfa22388d","system_id":"levelo_inurba_marseille","lat":43.28832,"lon":5.35852,"is_reserved":false,"is_disabled":false,"rental_uris":{"android":"levelo://app?vid=846275f0-7b72-4373-a828-815bfa22388d","ios":"levelo://app?vid=846275f0-7b72-4373-a828-815bfa22388d"},"vehicle_type_id":"4","last_reported":1743239365,"current_range_meters":8400,"station_id":"ce4bhb12rcd13ifvqem0","pricing_plan_id":"cebpf4jnsgd1na2vs0mg"},{"bike_id":"47ad7ef3-58ae-45f0-9b6e-4619eae20d58","system_id":"levelo_inurba_marseille","lat":43.29253,"lon":5.40901,"is_reserved":false,"is_disabled":false,"rental_uris":{"android":"levelo://app?vid=47ad7ef3-58ae-45f0-9b6e-4619eae20d58","ios":"levelo://app?vid=47ad7ef3-58ae-45f0-9b6e-4619eae20d58"},"vehicle_type_id":"4","last_reported":1743239365,"current_range_meters":8400,"station_id":"ce4bh192rcd13ifvqdc0","pricing_plan_id":"cebpf4jnsgd1na2vs0mg"},{"bike_id":"17d2c56a-04b7-4565-828e-4e8647a3dd59","system_id":"levelo_inurba_marseille","lat":43.23188,"lon":5.35542,"is_reserved":false,"is_disabled":false,"rental_uris":{"android":"levelo://app?vid=17d2c56a-04b7-4565-828e-4e8647a3dd59","ios":"levelo://app?vid=17d2c56a-04b7-4565-828e-4e8647a3dd59"},"vehicle_type_id":"4","last_reported":1743239365,"current_range_meters":8400,"station_id":"ce4bhu92rcd13ifvqi70","pricing_plan_id":"cebpf4jnsgd1na2vs0mg"},{"bike_id":"1e399c71-356e-429c-81a2-1c9ac6ffd8e3","system_id":"levelo_inurba_marseille","lat":43.30563,"lon":5.38432,"is_reserved":false,"is_disabled":false,"rental_uris":{"android":"levelo://app?vid=1e399c71-356e-429c-81a2-1c9ac6ffd8e3","ios":"levelo://app?vid=1e399c71-356e-429c-81a2-1c9ac6ffd8e3"},"vehicle_type_id":"4","last_reported":1743239365,"current_range_meters":8400,"station_id":"ce4bgg92rcd13ifvqb30","pricing_plan_id":"cebpf4jnsgd1na2vs0mg"},{"bike_id":"2fbf4c93-5167-4237-bd8a-2998520b5b75","system_id":"levelo_inurba_marseille","lat":43.29574,"lon":5.37508,"is_reserved":false,"is_disabled":false,"rental_uris":{"android":"levelo://app?vid=2fbf4c93-5167-4237-bd8a-2998520b5b75","ios":"levelo://app?vid=2fbf4c93-5167-4237-bd8a-2998520b5b75"},"vehicle_type_id":"4","last_reported":1743239365,"current_range_meters":8400,"station_id":"ce4bgh92rcd13ifvqb50","pricing_plan_id":"cebpf4jnsgd1na2vs0mg"},{"bike_id":"4cc2417c-0d66-42cc-a800-c7c2b9e37f65","system_id":"levelo_inurba_marseille","lat":43.26501,"lon":5.39533,"is_reserved":false,"is_disabled":false,"rental_uris":{"android":"levelo://app?vid=4cc2417c-0d66-42cc-a800-c7c2b9e37f65","ios":"levelo://app?vid=4cc2417c-0d66-42cc-a800-c7c2b9e37f65"},"vehicle_type_id":"4","last_reported":1743239365,"current_range_meters":8400,"station_id":"ce4bhi12rcd13ifvqfq0","pricing_plan_id":"cebpf4jnsgd1na2vs0mg"},{"bike_id":"d5ffff0a-47db-470d-a1ce-99a37bfcd090","system_id":"levelo_inurba_marseille","lat":43.28617,"lon":5.35111,"is_reserved":false,"is_disabled":false,"rental_uris":{"android":"levelo://app?vid=d5ffff0a-47db-470d-a1ce-99a37bfcd090","ios":"levelo://app?vid=d5ffff0a-47db-470d-a1ce-99a37bfcd090"},"vehicle_type_id":"4","last_reported":1743239365,"current_range_meters":8400,"station_id":"ce4bhch2rcd13ifvqeug","pricing_plan_id":"cebpf4jnsgd1na2vs0mg"},{"bike_id":"d6ae2dac-bcff-421f-8aa6-f2a5b3559285","system_id":"levelo_inurba_marseille","lat":43.26499,"lon":5.39544,"is_reserved":false,"is_disabled":false,"rental_uris":{"android":"levelo://app?vid=d6ae2dac-bcff-421f-8aa6-f2a5b3559285","ios":"levelo://app?vid=d6ae2dac-bcff-421f-8aa6-f2a5b3559285"},"vehicle_type_id":"4","last_reported":1743239365,"current_range_meters":8400,"station_id":"ce4bhi12rcd13ifvqfq0","pricing_plan_id":"cebpf4jnsgd1na2vs0mg"},{"bike_id":"d2be6ce3-8e79-4804-b0d3-008c875e7b9d","system_id":"levelo_inurba_marseille","lat":43.26215,"lon":5.37902,"is_reserved":false,"is_disabled":false,"rental_uris":{"android":"levelo://app?vid=d2be6ce3-8e79-4804-b0d3-008c875e7b9d","ios":"levelo://app?vid=d2be6ce3-8e79-4804-b0d3-008c875e7b9d"},"vehicle_type_id":"4","last_reported":1743239365,"current_range_meters":8800,"station_id":"ce4bhjp2rcd13ifvqg90","pricing_plan_id":"cebpf4jnsgd1na2vs0mg"},{"bike_id":"f47eba55-a588-4033-a3dc-992c836c995d","system_id":"levelo_inurba_marseille","lat":43.31687,"lon":5.40514,"is_reserved":false,"is_disabled":false,"rental_uris":{"android":"levelo://app?vid=f47eba55-a588-4033-a3dc-992c836c995d","ios":"levelo://app?vid=f47eba55-a588-4033-a3dc-992c836c995d"},"vehicle_type_id":"4","last_reported":1743239365,"current_range_meters":8800,"station_id":"ce4bh012rcd13ifvqd00","pricing_plan_id":"cebpf4jnsgd1na2vs0mg"},{"bike_id":"78879d72-d868-43c9-a743-a6ab48dd9b11","system_id":"levelo_inurba_marseille","lat":43.28665,"lon":5.36131,"is_reserved":false,"is_disabled":false,"rental_uris":{"android":"levelo://app?vid=78879d72-d868-43c9-a743-a6ab48dd9b11","ios":"levelo://app?vid=78879d72-d868-43c9-a743-a6ab48dd9b11"},"vehicle_type_id":"4","last_reported":1743239365,"current_range_meters":8800,"station_id":"","pricing_plan_id":"cebpf4jnsgd1na2vs0mg"},{"bike_id":"ce7c6272-329b-498a-ba4f-aa551f61410c","system_id":"levelo_inurba_marseille","lat":43.30897,"lon":5.37185,"is_reserved":false,"is_disabled":false,"rental_uris":{"android":"levelo://app?vid=ce7c6272-329b-498a-ba4f-aa551f61410c","ios":"levelo://app?vid=ce7c6272-329b-498a-ba4f-aa551f61410c"},"vehicle_type_id":"4","last_reported":1743239365,"current_range_meters":8800,"station_id":"ce4bguh2rcd13ifvqckg","pricing_plan_id":"cebpf4jnsgd1na2vs0mg"},{"bike_id":"6082a6d8-29f3-4441-bd82-d0f95ead75d7","system_id":"levelo_inurba_marseille","lat":43.23195,"lon":5.35554,"is_reserved":false,"is_disabled":false,"rental_uris":{"android":"levelo://app?vid=6082a6d8-29f3-4441-bd82-d0f95ead75d7","ios":"levelo://app?vid=6082a6d8-29f3-4441-bd82-d0f95ead75d7"},"vehicle_type_id":"4","last_reported":1743239365,"current_range_meters":8800,"station_id":"ce4bhu92rcd13ifvqi70","pricing_plan_id":"cebpf4jnsgd1na2vs0mg"},{"bike_id":"b5ace6c6-32e3-486d-9744-efb1ce0dfa9d","system_id":"levelo_inurba_marseille","lat":43.28616,"lon":5.37072,"is_reserved":false,"is_disabled":false,"rental_uris":{"android":"levelo://app?vid=b5ace6c6-32e3-486d-9744-efb1ce0dfa9d","ios":"levelo://app?vid=b5ace6c6-32e3-486d-9744-efb1ce0dfa9d"},"vehicle_type_id":"4","last_reported":1743239365,"current_range_meters":8800,"station_id":"ce4bht12rcd13ifvqi60","pricing_plan_id":"cebpf4jnsgd1na2vs0mg"},{"bike_id":"4fbfc3e6-1d5a-469b-ab70-bfc87a275095","system_id":"levelo_inurba_marseille","lat":43.2319,"lon":5.35558,"is_reserved":false,"is_disabled":false,"rental_uris":{"android":"levelo://app?vid=4fbfc3e6-1d5a-469b-ab70-bfc87a275095","ios":"levelo://app?vid=4fbfc3e6-1d5a-469b-ab70-bfc87a275095"},"vehicle_type_id":"4","last_reported":1743239365,"current_range_meters":8800,"station_id":"ce4bhu92rcd13ifvqi70","pricing_plan_id":"cebpf4jnsgd1na2vs0mg"},{"bike_id":"bb238aab-ecce-4d51-ba90-677f93725c94","system_id":"levelo_inurba_marseille","lat":43.341445,"lon":5.409183,"is_reserved":false,"is_disabled":false,"rental_uris":{"android":"levelo://app?vid=bb238aab-ecce-4d51-ba90-677f93725c94","ios":"levelo://app?vid=bb238aab-ecce-4d51-ba90-677f93725c94"},"vehicle_type_id":"4","last_reported":1743239365,"current_range_meters":8800,"station_id":"ce4bhqh2rcd13ifvqhlg","pricing_plan_id":"cebpf4jnsgd1na2vs0mg"},{"bike_id":"6d350eed-f5e9-4bb5-9aae-76808ba8819e","system_id":"levelo_inurba_marseille","lat":43.28615,"lon":5.35109,"is_reserved":false,"is_disabled":false,"rental_uris":{"android":"levelo://app?vid=6d350eed-f5e9-4bb5-9aae-76808ba8819e","ios":"levelo://app?vid=6d350eed-f5e9-4bb5-9aae-76808ba8819e"},"vehicle_type_id":"4","last_reported":1743239365,"current_range_meters":8800,"station_id":"ce4bhch2rcd13ifvqeug","pricing_plan_id":"cebpf4jnsgd1na2vs0mg"},{"bike_id":"9b07f703-2e8e-4c1b-8a58-5dceb8720c22","system_id":"levelo_inurba_marseille","lat":43.28926,"lon":5.38402,"is_reserved":false,"is_disabled":false,"rental_uris":{"android":"levelo://app?vid=9b07f703-2e8e-4c1b-8a58-5dceb8720c22","ios":"levelo://app?vid=9b07f703-2e8e-4c1b-8a58-5dceb8720c22"},"vehicle_type_id":"4","last_reported":1743239365,"current_range_meters":9200,"station_id":"ce4bh612rcd13ifvqe6g","pricing_plan_id":"cebpf4jnsgd1na2vs0mg"},{"bike_id":"7cb45fac-62b5-4ead-be9c-e53660ce9dfb","system_id":"levelo_inurba_marseille","lat":43.287256,"lon":5.399996,"is_reserved":false,"is_disabled":true,"rental_uris":{"android":"levelo://app?vid=7cb45fac-62b5-4ead-be9c-e53660ce9dfb","ios":"levelo://app?vid=7cb45fac-62b5-4ead-be9c-e53660ce9dfb"},"vehicle_type_id":"4","last_reported":1743239365,"current_range_meters":9200,"station_id":"ce4bho92rcd13ifvqh3g","pricing_plan_id":"cebpf4jnsgd1na2vs0mg"},{"bike_id":"d110ea9c-afe8-47f1-b008-e66bc6e44a55","system_id":"levelo_inurba_marseille","lat":43.28436,"lon":5.34997,"is_reserved":false,"is_disabled":false,"rental_uris":{"android":"levelo://app?vid=d110ea9c-afe8-47f1-b008-e66bc6e44a55","ios":"levelo://app?vid=d110ea9c-afe8-47f1-b008-e66bc6e44a55"},"vehicle_type_id":"4","last_reported":1743239365,"current_range_meters":9200,"station_id":"ce4bhbh2rcd13ifvqepg","pricing_plan_id":"cebpf4jnsgd1na2vs0mg"},{"bike_id":"5931979f-217a-43a6-8599-373bf824e6f5","system_id":"levelo_inurba_marseille","lat":43.28703,"lon":5.3998,"is_reserved":false,"is_disabled":false,"rental_uris":{"android":"levelo://app?vid=5931979f-217a-43a6-8599-373bf824e6f5","ios":"levelo://app?vid=5931979f-217a-43a6-8599-373bf824e6f5"},"vehicle_type_id":"4","last_reported":1743239365,"current_range_meters":9200,"station_id":"ce4bho92rcd13ifvqh3g","pricing_plan_id":"cebpf4jnsgd1na2vs0mg"},{"bike_id":"676aa410-285a-48fa-832f-41d35fee7288","system_id":"levelo_inurba_marseille","lat":43.28603,"lon":5.37064,"is_reserved":false,"is_disabled":false,"rental_uris":{"android":"levelo://app?vid=676aa410-285a-48fa-832f-41d35fee7288","ios":"levelo://app?vid=676aa410-285a-48fa-832f-41d35fee7288"},"vehicle_type_id":"4","last_reported":1743239365,"current_range_meters":9200,"station_id":"ce4bht12rcd13ifvqi60","pricing_plan_id":"cebpf4jnsgd1na2vs0mg"},{"bike_id":"3b87e3b4-0f84-4a5b-a239-13d769e66ffb","system_id":"levelo_inurba_marseille","lat":43.29969,"lon":5.38497,"is_reserved":false,"is_disabled":false,"rental_uris":{"android":"levelo://app?vid=3b87e3b4-0f84-4a5b-a239-13d769e66ffb","ios":"levelo://app?vid=3b87e3b4-0f84-4a5b-a239-13d769e66ffb"},"vehicle_type_id":"4","last_reported":1743239365,"current_range_meters":9200,"station_id":"ce4bgj92rcd13ifvqbd0","pricing_plan_id":"cebpf4jnsgd1na2vs0mg"},{"bike_id":"201331f6-89d2-473a-a738-b22172ea4f15","system_id":"levelo_inurba_marseille","lat":43.31272,"lon":5.40161,"is_reserved":false,"is_disabled":false,"rental_uris":{"android":"levelo://app?vid=201331f6-89d2-473a-a738-b22172ea4f15","ios":"levelo://app?vid=201331f6-89d2-473a-a738-b22172ea4f15"},"vehicle_type_id":"4","last_reported":1743239365,"current_range_meters":9200,"station_id":"ce4bh092rcd13ifvqd30","pricing_plan_id":"cebpf4jnsgd1na2vs0mg"},{"bike_id":"787c5a7b-7ea5-4559-9257-3bbdf77951a7","system_id":"levelo_inurba_marseille","lat":43.31086,"lon":5.38348,"is_reserved":false,"is_disabled":false,"rental_uris":{"android":"levelo://app?vid=787c5a7b-7ea5-4559-9257-3bbdf77951a7","ios":"levelo://app?vid=787c5a7b-7ea5-4559-9257-3bbdf77951a7"},"vehicle_type_id":"4","last_reported":1743239365,"current_range_meters":9200,"station_id":"ce4bgv92rcd13ifvqcr0","pricing_plan_id":"cebpf4jnsgd1na2vs0mg"},{"bike_id":"1a8ec8fe-cd0f-44f4-9a76-dfc354a60ccc","system_id":"levelo_inurba_marseille","lat":43.23966,"lon":5.36627,"is_reserved":false,"is_disabled":false,"rental_uris":{"android":"levelo://app?vid=1a8ec8fe-cd0f-44f4-9a76-dfc354a60ccc","ios":"levelo://app?vid=1a8ec8fe-cd0f-44f4-9a76-dfc354a60ccc"},"vehicle_type_id":"4","last_reported":1743239365,"current_range_meters":9200,"station_id":"ce4bhi12rcd13ifvqfp0","pricing_plan_id":"cebpf4jnsgd1na2vs0mg"},{"bike_id":"ea4d652d-0687-4fa8-9e2c-7cf26eec9129","system_id":"levelo_inurba_marseille","lat":43.29244,"lon":5.38431,"is_reserved":false,"is_disabled":true,"rental_uris":{"android":"levelo://app?vid=ea4d652d-0687-4fa8-9e2c-7cf26eec9129","ios":"levelo://app?vid=ea4d652d-0687-4fa8-9e2c-7cf26eec9129"},"vehicle_type_id":"4","last_reported":1743239365,"current_range_meters":9200,"station_id":"ce4bh692rcd13ifvqea0","pricing_plan_id":"cebpf4jnsgd1na2vs0mg"},{"bike_id":"e4614adf-59ca-49c9-9f29-fb2629aacd37","system_id":"levelo_inurba_marseille","lat":43.2861,"lon":5.35109,"is_reserved":false,"is_disabled":true,"rental_uris":{"android":"levelo://app?vid=e4614adf-59ca-49c9-9f29-fb2629aacd37","ios":"levelo://app?vid=e4614adf-59ca-49c9-9f29-fb2629aacd37"},"vehicle_type_id":"4","last_reported":1743239365,"current_range_meters":9200,"station_id":"ce4bhch2rcd13ifvqeug","pricing_plan_id":"cebpf4jnsgd1na2vs0mg"},{"bike_id":"b1ecd358-38ec-4753-8af1-9b87454b444a","system_id":"levelo_inurba_marseille","lat":43.28623,"lon":5.35102,"is_reserved":false,"is_disabled":false,"rental_uris":{"android":"levelo://app?vid=b1ecd358-38ec-4753-8af1-9b87454b444a","ios":"levelo://app?vid=b1ecd358-38ec-4753-8af1-9b87454b444a"},"vehicle_type_id":"4","last_reported":1743239365,"current_range_meters":9600,"station_id":"ce4bhch2rcd13ifvqeug","pricing_plan_id":"cebpf4jnsgd1na2vs0mg"},{"bike_id":"983c4c9f-ee1a-4d13-8ce7-bfd36c479f46","system_id":"levelo_inurba_marseille","lat":43.24179,"lon":5.36393,"is_reserved":false,"is_disabled":false,"rental_uris":{"android":"levelo://app?vid=983c4c9f-ee1a-4d13-8ce7-bfd36c479f46","ios":"levelo://app?vid=983c4c9f-ee1a-4d13-8ce7-bfd36c479f46"},"vehicle_type_id":"4","last_reported":1743239365,"current_range_meters":9600,"station_id":"cpo36qri1sfpv3e86is0","pricing_plan_id":"cebpf4jnsgd1na2vs0mg"},{"bike_id":"8b6540df-f0de-4fe4-a1a8-c73d8d908f05","system_id":"levelo_inurba_marseille","lat":43.32368,"lon":5.38889,"is_reserved":false,"is_disabled":false,"rental_uris":{"android":"levelo://app?vid=8b6540df-f0de-4fe4-a1a8-c73d8d908f05","ios":"levelo://app?vid=8b6540df-f0de-4fe4-a1a8-c73d8d908f05"},"vehicle_type_id":"4","last_reported":1743239365,"current_range_meters":9600,"station_id":"ce4bhqp2rcd13ifvqhog","pricing_plan_id":"cebpf4jnsgd1na2vs0mg"},{"bike_id":"e65126fc-1b2b-4eac-b542-9024515520da","system_id":"levelo_inurba_marseille","lat":43.26566,"lon":5.39012,"is_reserved":false,"is_disabled":false,"rental_uris":{"android":"levelo://app?vid=e65126fc-1b2b-4eac-b542-9024515520da","ios":"levelo://app?vid=e65126fc-1b2b-4eac-b542-9024515520da"},"vehicle_type_id":"4","last_reported":1743239365,"current_range_meters":9600,"station_id":"ce4bhe12rcd13ifvqf30","pricing_plan_id":"cebpf4jnsgd1na2vs0mg"},{"bike_id":"3a2e35ff-67f7-42a4-b09b-1fe3ef6e95d8","system_id":"levelo_inurba_marseille","lat":43.22939,"lon":5.35377,"is_reserved":false,"is_disabled":false,"rental_uris":{"android":"levelo://app?vid=3a2e35ff-67f7-42a4-b09b-1fe3ef6e95d8","ios":"levelo://app?vid=3a2e35ff-67f7-42a4-b09b-1fe3ef6e95d8"},"vehicle_type_id":"4","last_reported":1743239365,"current_range_meters":9600,"station_id":"cpo3532slgdg3j2ikp40","pricing_plan_id":"cebpf4jnsgd1na2vs0mg"},{"bike_id":"1e81d356-ed66-4cfd-850f-b2d041e9d3db","system_id":"levelo_inurba_marseille","lat":43.30892,"lon":5.37196,"is_reserved":false,"is_disabled":false,"rental_uris":{"android":"levelo://app?vid=1e81d356-ed66-4cfd-850f-b2d041e9d3db","ios":"levelo://app?vid=1e81d356-ed66-4cfd-850f-b2d041e9d3db"},"vehicle_type_id":"4","last_reported":1743239365,"current_range_meters":9600,"station_id":"ce4bguh2rcd13ifvqckg","pricing_plan_id":"cebpf4jnsgd1na2vs0mg"},{"bike_id":"936627ce-2d98-4b08-be4d-c8b4627e7825","system_id":"levelo_inurba_marseille","lat":43.28027,"lon":5.36946,"is_reserved":false,"is_disabled":false,"rental_uris":{"android":"levelo://app?vid=936627ce-2d98-4b08-be4d-c8b4627e7825","ios":"levelo://app?vid=936627ce-2d98-4b08-be4d-c8b4627e7825"},"vehicle_type_id":"4","last_reported":1743239365,"current_range_meters":9600,"station_id":"ce4bha12rcd13ifvqef0","pricing_plan_id":"cebpf4jnsgd1na2vs0mg"},{"bike_id":"0e09b9eb-6456-4417-9d54-4db9601c824d","system_id":"levelo_inurba_marseille","lat":43.31708,"lon":5.40469,"is_reserved":false,"is_disabled":false,"rental_uris":{"android":"levelo://app?vid=0e09b9eb-6456-4417-9d54-4db9601c824d","ios":"levelo://app?vid=0e09b9eb-6456-4417-9d54-4db9601c824d"},"vehicle_type_id":"4","last_reported":1743239365,"current_range_meters":9200,"station_id":"ce4bh012rcd13ifvqd00","pricing_plan_id":"cebpf4jnsgd1na2vs0mg"},{"bike_id":"d14cdd1e-f0b3-48a5-be5e-77128af69a2d","system_id":"levelo_inurba_marseille","lat":43.28626,"lon":5.35121,"is_reserved":false,"is_disabled":false,"rental_uris":{"android":"levelo://app?vid=d14cdd1e-f0b3-48a5-be5e-77128af69a2d","ios":"levelo://app?vid=d14cdd1e-f0b3-48a5-be5e-77128af69a2d"},"vehicle_type_id":"4","last_reported":1743239365,"current_range_meters":9600,"station_id":"ce4bhch2rcd13ifvqeug","pricing_plan_id":"cebpf4jnsgd1na2vs0mg"},{"bike_id":"58a570af-c19b-45d8-932f-a4300a278b82","system_id":"levelo_inurba_marseille","lat":43.27245,"lon":5.3916,"is_reserved":false,"is_disabled":false,"rental_uris":{"android":"levelo://app?vid=58a570af-c19b-45d8-932f-a4300a278b82","ios":"levelo://app?vid=58a570af-c19b-45d8-932f-a4300a278b82"},"vehicle_type_id":"4","last_reported":1743239365,"current_range_meters":10000,"station_id":"ce4bhgp2rcd13ifvqfe0","pricing_plan_id":"cebpf4jnsgd1na2vs0mg"},{"bike_id":"86402da5-f9ef-43b6-a281-06ce7c4c3160","system_id":"levelo_inurba_marseille","lat":43.28619,"lon":5.35101,"is_reserved":false,"is_disabled":false,"rental_uris":{"android":"levelo://app?vid=86402da5-f9ef-43b6-a281-06ce7c4c3160","ios":"levelo://app?vid=86402da5-f9ef-43b6-a281-06ce7c4c3160"},"vehicle_type_id":"4","last_reported":1743239365,"current_range_meters":10000,"station_id":"ce4bhch2rcd13ifvqeug","pricing_plan_id":"cebpf4jnsgd1na2vs0mg"},{"bike_id":"9bd349ae-e847-4d86-a3a7-4656a1832a5d","system_id":"levelo_inurba_marseille","lat":43.29256,"lon":5.3762,"is_reserved":false,"is_disabled":false,"rental_uris":{"android":"levelo://app?vid=9bd349ae-e847-4d86-a3a7-4656a1832a5d","ios":"levelo://app?vid=9bd349ae-e847-4d86-a3a7-4656a1832a5d"},"vehicle_type_id":"4","last_reported":1743239365,"current_range_meters":10000,"station_id":"ce4bgi12rcd13ifvqb80","pricing_plan_id":"cebpf4jnsgd1na2vs0mg"},{"bike_id":"96fa1290-e699-40b9-9109-379d3b77c6fb","system_id":"levelo_inurba_marseille","lat":43.33741,"lon":5.39192,"is_reserved":false,"is_disabled":false,"rental_uris":{"android":"levelo://app?vid=96fa1290-e699-40b9-9109-379d3b77c6fb","ios":"levelo://app?vid=96fa1290-e699-40b9-9109-379d3b77c6fb"},"vehicle_type_id":"4","last_reported":1743239365,"current_range_meters":10000,"station_id":"ce4bhr92rcd13ifvqhsg","pricing_plan_id":"cebpf4jnsgd1na2vs0mg"},{"bike_id":"376e2628-4699-4887-9ff3-b8de9424e7ce","system_id":"levelo_inurba_marseille","lat":43.27963,"lon":5.41652,"is_reserved":false,"is_disabled":true,"rental_uris":{"android":"levelo://app?vid=376e2628-4699-4887-9ff3-b8de9424e7ce","ios":"levelo://app?vid=376e2628-4699-4887-9ff3-b8de9424e7ce"},"vehicle_type_id":"4","last_reported":1743239365,"current_range_meters":10000,"station_id":"ce4bho12rcd13ifvqh1g","pricing_plan_id":"cebpf4jnsgd1na2vs0mg"},{"bike_id":"e24df3ca-d1a9-442c-8ef1-b2ee2295db9b","system_id":"levelo_inurba_marseille","lat":43.27481,"lon":5.42464,"is_reserved":false,"is_disabled":false,"rental_uris":{"android":"levelo://app?vid=e24df3ca-d1a9-442c-8ef1-b2ee2295db9b","ios":"levelo://app?vid=e24df3ca-d1a9-442c-8ef1-b2ee2295db9b"},"vehicle_type_id":"4","last_reported":1743239365,"current_range_meters":10000,"station_id":"ce4bhn92rcd13ifvqgrg","pricing_plan_id":"cebpf4jnsgd1na2vs0mg"},{"bike_id":"4d33bc5b-fded-4b79-abc4-d8ca2a4f7165","system_id":"levelo_inurba_marseille","lat":43.25716,"lon":5.41117,"is_reserved":false,"is_disabled":false,"rental_uris":{"android":"levelo://app?vid=4d33bc5b-fded-4b79-abc4-d8ca2a4f7165","ios":"levelo://app?vid=4d33bc5b-fded-4b79-abc4-d8ca2a4f7165"},"vehicle_type_id":"4","last_reported":1743239365,"current_range_meters":10000,"station_id":"ce4bhkp2rcd13ifvqgd0","pricing_plan_id":"cebpf4jnsgd1na2vs0mg"},{"bike_id":"980b1b8d-c114-4f00-88f8-a0ddccb8fb71","system_id":"levelo_inurba_marseille","lat":43.28625,"lon":5.35102,"is_reserved":false,"is_disabled":false,"rental_uris":{"android":"levelo://app?vid=980b1b8d-c114-4f00-88f8-a0ddccb8fb71","ios":"levelo://app?vid=980b1b8d-c114-4f00-88f8-a0ddccb8fb71"},"vehicle_type_id":"4","last_reported":1743239365,"current_range_meters":10000,"station_id":"ce4bhch2rcd13ifvqeug","pricing_plan_id":"cebpf4jnsgd1na2vs0mg"},{"bike_id":"161d8420-1bd4-4c54-8885-cf257d3ec950","system_id":"levelo_inurba_marseille","lat":43.25,"lon":5.389376,"is_reserved":false,"is_disabled":false,"rental_uris":{"android":"levelo://app?vid=161d8420-1bd4-4c54-8885-cf257d3ec950","ios":"levelo://app?vid=161d8420-1bd4-4c54-8885-cf257d3ec950"},"vehicle_type_id":"4","last_reported":1743239365,"current_range_meters":10000,"station_id":"ce4bhgp2rcd13ifvqfd0","pricing_plan_id":"cebpf4jnsgd1na2vs0mg"},{"bike_id":"c035f2da-f26b-4831-9ad3-f5b76d194313","system_id":"levelo_inurba_marseille","lat":43.26021,"lon":5.37554,"is_reserved":false,"is_disabled":false,"rental_uris":{"android":"levelo://app?vid=c035f2da-f26b-4831-9ad3-f5b76d194313","ios":"levelo://app?vid=c035f2da-f26b-4831-9ad3-f5b76d194313"},"vehicle_type_id":"4","last_reported":1743239365,"current_range_meters":10800,"station_id":"ce4bhgh2rcd13ifvqfa0","pricing_plan_id":"cebpf4jnsgd1na2vs0mg"},{"bike_id":"a2dd611d-97f8-4a80-9052-0416216c6368","system_id":"levelo_inurba_marseille","lat":43.29212,"lon":5.36058,"is_reserved":false,"is_disabled":true,"rental_uris":{"android":"levelo://app?vid=a2dd611d-97f8-4a80-9052-0416216c6368","ios":"levelo://app?vid=a2dd611d-97f8-4a80-9052-0416216c6368"},"vehicle_type_id":"4","last_reported":1743239365,"current_range_meters":10800,"station_id":"ce4bhbh2rcd13ifvqeqg","pricing_plan_id":"cebpf4jnsgd1na2vs0mg"},{"bike_id":"b3e12deb-03b8-40b6-93a4-f8c1a5ecb254","system_id":"levelo_inurba_marseille","lat":43.28929,"lon":5.3963,"is_reserved":false,"is_disabled":false,"rental_uris":{"android":"levelo://app?vid=b3e12deb-03b8-40b6-93a4-f8c1a5ecb254","ios":"levelo://app?vid=b3e12deb-03b8-40b6-93a4-f8c1a5ecb254"},"vehicle_type_id":"4","last_reported":1743239365,"current_range_meters":10800,"station_id":"ce4bh3h2rcd13ifvqdn0","pricing_plan_id":"cebpf4jnsgd1na2vs0mg"},{"bike_id":"4b2323ae-94b8-41f7-9062-4d9bd4bd549e","system_id":"levelo_inurba_marseille","lat":43.241714,"lon":5.363961,"is_reserved":false,"is_disabled":false,"rental_uris":{"android":"levelo://app?vid=4b2323ae-94b8-41f7-9062-4d9bd4bd549e","ios":"levelo://app?vid=4b2323ae-94b8-41f7-9062-4d9bd4bd549e"},"vehicle_type_id":"4","last_reported":1743239365,"current_range_meters":10800,"station_id":"cpo36qri1sfpv3e86is0","pricing_plan_id":"cebpf4jnsgd1na2vs0mg"},{"bike_id":"9b4b936a-6ccf-4470-91dd-67504c3f349f","system_id":"levelo_inurba_marseille","lat":43.2694,"lon":5.38697,"is_reserved":false,"is_disabled":false,"rental_uris":{"android":"levelo://app?vid=9b4b936a-6ccf-4470-91dd-67504c3f349f","ios":"levelo://app?vid=9b4b936a-6ccf-4470-91dd-67504c3f349f"},"vehicle_type_id":"4","last_reported":1743239365,"current_range_meters":10800,"station_id":"ce4bhh92rcd13ifvqfh0","pricing_plan_id":"cebpf4jnsgd1na2vs0mg"},{"bike_id":"bc13ce4b-80c3-434c-be50-109c6ccb0031","system_id":"levelo_inurba_marseille","lat":43.29247,"lon":5.4089,"is_reserved":false,"is_disabled":false,"rental_uris":{"android":"levelo://app?vid=bc13ce4b-80c3-434c-be50-109c6ccb0031","ios":"levelo://app?vid=bc13ce4b-80c3-434c-be50-109c6ccb0031"},"vehicle_type_id":"4","last_reported":1743239365,"current_range_meters":10800,"station_id":"ce4bh192rcd13ifvqdc0","pricing_plan_id":"cebpf4jnsgd1na2vs0mg"},{"bike_id":"4586e23a-2d77-446c-8e8c-a15b6ae5de02","system_id":"levelo_inurba_marseille","lat":43.28579,"lon":5.38169,"is_reserved":false,"is_disabled":false,"rental_uris":{"android":"levelo://app?vid=4586e23a-2d77-446c-8e8c-a15b6ae5de02","ios":"levelo://app?vid=4586e23a-2d77-446c-8e8c-a15b6ae5de02"},"vehicle_type_id":"4","last_reported":1743239365,"current_range_meters":10800,"station_id":"","pricing_plan_id":"cebpf4jnsgd1na2vs0mg"},{"bike_id":"3a632c6f-7f42-4629-aa6e-0a86e11bf372","system_id":"levelo_inurba_marseille","lat":43.24167,"lon":5.39703,"is_reserved":false,"is_disabled":false,"rental_uris":{"android":"levelo://app?vid=3a632c6f-7f42-4629-aa6e-0a86e11bf372","ios":"levelo://app?vid=3a632c6f-7f42-4629-aa6e-0a86e11bf372"},"vehicle_type_id":"4","last_reported":1743239365,"current_range_meters":10800,"station_id":"ce4bhn12rcd13ifvqgpg","pricing_plan_id":"cebpf4jnsgd1na2vs0mg"},{"bike_id":"993980d6-9d20-4788-86fc-be6d236dccfb","system_id":"levelo_inurba_marseille","lat":43.29281,"lon":5.40138,"is_reserved":false,"is_disabled":false,"rental_uris":{"android":"levelo://app?vid=993980d6-9d20-4788-86fc-be6d236dccfb","ios":"levelo://app?vid=993980d6-9d20-4788-86fc-be6d236dccfb"},"vehicle_type_id":"4","last_reported":1743239365,"current_range_meters":10800,"station_id":"ce4bh312rcd13ifvqdk0","pricing_plan_id":"cebpf4jnsgd1na2vs0mg"},{"bike_id":"f9de63e8-e5f0-486f-88e4-96470d4381e2","system_id":"levelo_inurba_marseille","lat":43.292729,"lon":5.401417,"is_reserved":false,"is_disabled":false,"rental_uris":{"android":"levelo://app?vid=f9de63e8-e5f0-486f-88e4-96470d4381e2","ios":"levelo://app?vid=f9de63e8-e5f0-486f-88e4-96470d4381e2"},"vehicle_type_id":"4","last_reported":1743239365,"current_range_meters":11200,"station_id":"ce4bh312rcd13ifvqdk0","pricing_plan_id":"cebpf4jnsgd1na2vs0mg"},{"bike_id":"b6ecfa4e-cdee-4528-b11d-87a4cbf7f502","system_id":"levelo_inurba_marseille","lat":43.2826,"lon":5.35064,"is_reserved":false,"is_disabled":false,"rental_uris":{"android":"levelo://app?vid=b6ecfa4e-cdee-4528-b11d-87a4cbf7f502","ios":"levelo://app?vid=b6ecfa4e-cdee-4528-b11d-87a4cbf7f502"},"vehicle_type_id":"4","last_reported":1743239365,"current_range_meters":11200,"station_id":"ce4bhbp2rcd13ifvqerg","pricing_plan_id":"cebpf4jnsgd1na2vs0mg"},{"bike_id":"6923d6a9-7a78-46cf-a22b-73ed15f379bc","system_id":"levelo_inurba_marseille","lat":43.2809,"lon":5.39635,"is_reserved":false,"is_disabled":false,"rental_uris":{"android":"levelo://app?vid=6923d6a9-7a78-46cf-a22b-73ed15f379bc","ios":"levelo://app?vid=6923d6a9-7a78-46cf-a22b-73ed15f379bc"},"vehicle_type_id":"4","last_reported":1743239365,"current_range_meters":11200,"station_id":"ce4bho12rcd13ifvqh2g","pricing_plan_id":"cebpf4jnsgd1na2vs0mg"},{"bike_id":"3d6f77a5-38af-4abc-b9f0-4b0dedd9675c","system_id":"levelo_inurba_marseille","lat":43.24919,"lon":5.39422,"is_reserved":false,"is_disabled":false,"rental_uris":{"android":"levelo://app?vid=3d6f77a5-38af-4abc-b9f0-4b0dedd9675c","ios":"levelo://app?vid=3d6f77a5-38af-4abc-b9f0-4b0dedd9675c"},"vehicle_type_id":"4","last_reported":1743239365,"current_range_meters":11200,"station_id":"","pricing_plan_id":"cebpf4jnsgd1na2vs0mg"},{"bike_id":"236a2761-4496-4c76-8a79-278fe0986d65","system_id":"levelo_inurba_marseille","lat":43.26056,"lon":5.39402,"is_reserved":false,"is_disabled":false,"rental_uris":{"android":"levelo://app?vid=236a2761-4496-4c76-8a79-278fe0986d65","ios":"levelo://app?vid=236a2761-4496-4c76-8a79-278fe0986d65"},"vehicle_type_id":"4","last_reported":1743239365,"current_range_meters":11200,"station_id":"ce4bhh92rcd13ifvqfj0","pricing_plan_id":"cebpf4jnsgd1na2vs0mg"},{"bike_id":"ad074726-9d59-42fc-b92d-c5e8dd37ec8f","system_id":"levelo_inurba_marseille","lat":43.2622,"lon":5.40462,"is_reserved":false,"is_disabled":false,"rental_uris":{"android":"levelo://app?vid=ad074726-9d59-42fc-b92d-c5e8dd37ec8f","ios":"levelo://app?vid=ad074726-9d59-42fc-b92d-c5e8dd37ec8f"},"vehicle_type_id":"4","last_reported":1743239365,"current_range_meters":11200,"station_id":"ce4bhmh2rcd13ifvqgmg","pricing_plan_id":"cebpf4jnsgd1na2vs0mg"},{"bike_id":"3f7539a9-fe9d-4bf3-a143-40a9bdd56d65","system_id":"levelo_inurba_marseille","lat":43.295526,"lon":5.42281,"is_reserved":false,"is_disabled":true,"rental_uris":{"android":"levelo://app?vid=3f7539a9-fe9d-4bf3-a143-40a9bdd56d65","ios":"levelo://app?vid=3f7539a9-fe9d-4bf3-a143-40a9bdd56d65"},"vehicle_type_id":"4","last_reported":1743239365,"current_range_meters":11200,"station_id":"ce4bhph2rcd13ifvqhdg","pricing_plan_id":"cebpf4jnsgd1na2vs0mg"},{"bike_id":"d5663f91-3cb7-47b4-8564-7ef2d5682e29","system_id":"levelo_inurba_marseille","lat":43.314872,"lon":5.373041,"is_reserved":false,"is_disabled":false,"rental_uris":{"android":"levelo://app?vid=d5663f91-3cb7-47b4-8564-7ef2d5682e29","ios":"levelo://app?vid=d5663f91-3cb7-47b4-8564-7ef2d5682e29"},"vehicle_type_id":"4","last_reported":1743239365,"current_range_meters":11200,"station_id":"ce4bgt12rcd13ifvqcd0","pricing_plan_id":"cebpf4jnsgd1na2vs0mg"},{"bike_id":"6938d0ce-f954-4fff-b95b-2d698d38a5d7","system_id":"levelo_inurba_marseille","lat":43.27946,"lon":5.4105,"is_reserved":false,"is_disabled":false,"rental_uris":{"android":"levelo://app?vid=6938d0ce-f954-4fff-b95b-2d698d38a5d7","ios":"levelo://app?vid=6938d0ce-f954-4fff-b95b-2d698d38a5d7"},"vehicle_type_id":"4","last_reported":1743239365,"current_range_meters":11200,"station_id":"ce4bhnp2rcd13ifvqh0g","pricing_plan_id":"cebpf4jnsgd1na2vs0mg"},{"bike_id":"18a7459a-9de6-4413-bb5e-bd445e06b1f8","system_id":"levelo_inurba_marseille","lat":43.291978,"lon":5.357996,"is_reserved":false,"is_disabled":false,"rental_uris":{"android":"levelo://app?vid=18a7459a-9de6-4413-bb5e-bd445e06b1f8","ios":"levelo://app?vid=18a7459a-9de6-4413-bb5e-bd445e06b1f8"},"vehicle_type_id":"4","last_reported":1743239365,"current_range_meters":11200,"station_id":"ce4bhb12rcd13ifvqel0","pricing_plan_id":"cebpf4jnsgd1na2vs0mg"},{"bike_id":"e0f1b2ee-33a1-445d-92e7-ea488fd69453","system_id":"levelo_inurba_marseille","lat":43.29296,"lon":5.37171,"is_reserved":false,"is_disabled":false,"rental_uris":{"android":"levelo://app?vid=e0f1b2ee-33a1-445d-92e7-ea488fd69453","ios":"levelo://app?vid=e0f1b2ee-33a1-445d-92e7-ea488fd69453"},"vehicle_type_id":"4","last_reported":1743239365,"current_range_meters":11600,"station_id":"ce4bgh92rcd13ifvqb40","pricing_plan_id":"cebpf4jnsgd1na2vs0mg"},{"bike_id":"9f2583cf-461d-4d57-8c37-99ef1e89cade","system_id":"levelo_inurba_marseille","lat":43.231954,"lon":5.355511,"is_reserved":false,"is_disabled":false,"rental_uris":{"android":"levelo://app?vid=9f2583cf-461d-4d57-8c37-99ef1e89cade","ios":"levelo://app?vid=9f2583cf-461d-4d57-8c37-99ef1e89cade"},"vehicle_type_id":"4","last_reported":1743239365,"current_range_meters":11600,"station_id":"ce4bhu92rcd13ifvqi70","pricing_plan_id":"cebpf4jnsgd1na2vs0mg"},{"bike_id":"cdb23cee-8db9-4bb0-aaa7-914f0fcd7d3e","system_id":"levelo_inurba_marseille","lat":43.28032,"lon":5.36939,"is_reserved":false,"is_disabled":false,"rental_uris":{"android":"levelo://app?vid=cdb23cee-8db9-4bb0-aaa7-914f0fcd7d3e","ios":"levelo://app?vid=cdb23cee-8db9-4bb0-aaa7-914f0fcd7d3e"},"vehicle_type_id":"4","last_reported":1743239365,"current_range_meters":12000,"station_id":"ce4bha12rcd13ifvqef0","pricing_plan_id":"cebpf4jnsgd1na2vs0mg"},{"bike_id":"8c7f8eda-084c-48db-b1e8-98138a0008f4","system_id":"levelo_inurba_marseille","lat":43.30243,"lon":5.40055,"is_reserved":false,"is_disabled":false,"rental_uris":{"android":"levelo://app?vid=8c7f8eda-084c-48db-b1e8-98138a0008f4","ios":"levelo://app?vid=8c7f8eda-084c-48db-b1e8-98138a0008f4"},"vehicle_type_id":"4","last_reported":1743239365,"current_range_meters":12000,"station_id":"ce4bgvh2rcd13ifvqcs0","pricing_plan_id":"cebpf4jnsgd1na2vs0mg"},{"bike_id":"96ac20e8-5840-4579-b371-184ec6253952","system_id":"levelo_inurba_marseille","lat":43.27488,"lon":5.4114,"is_reserved":false,"is_disabled":false,"rental_uris":{"android":"levelo://app?vid=96ac20e8-5840-4579-b371-184ec6253952","ios":"levelo://app?vid=96ac20e8-5840-4579-b371-184ec6253952"},"vehicle_type_id":"4","last_reported":1743239365,"current_range_meters":12000,"station_id":"","pricing_plan_id":"cebpf4jnsgd1na2vs0mg"},{"bike_id":"d3ecc912-dd45-41e9-9931-0b8cba10b689","system_id":"levelo_inurba_marseille","lat":43.27917,"lon":5.39596,"is_reserved":false,"is_disabled":false,"rental_uris":{"android":"levelo://app?vid=d3ecc912-dd45-41e9-9931-0b8cba10b689","ios":"levelo://app?vid=d3ecc912-dd45-41e9-9931-0b8cba10b689"},"vehicle_type_id":"4","last_reported":1743239365,"current_range_meters":12000,"station_id":"ce4bhf92rcd13ifvqf40","pricing_plan_id":"cebpf4jnsgd1na2vs0mg"},{"bike_id":"7fdcd55f-1c78-4ded-99ed-725169c92149","system_id":"levelo_inurba_marseille","lat":43.27372,"lon":5.38296,"is_reserved":false,"is_disabled":false,"rental_uris":{"android":"levelo://app?vid=7fdcd55f-1c78-4ded-99ed-725169c92149","ios":"levelo://app?vid=7fdcd55f-1c78-4ded-99ed-725169c92149"},"vehicle_type_id":"4","last_reported":1743239365,"current_range_meters":12000,"station_id":"","pricing_plan_id":"cebpf4jnsgd1na2vs0mg"},{"bike_id":"a6841dc8-fe23-408f-b976-0d4692ece61b","system_id":"levelo_inurba_marseille","lat":43.30474,"lon":5.37894,"is_reserved":false,"is_disabled":false,"rental_uris":{"android":"levelo://app?vid=a6841dc8-fe23-408f-b976-0d4692ece61b","ios":"levelo://app?vid=a6841dc8-fe23-408f-b976-0d4692ece61b"},"vehicle_type_id":"4","last_reported":1743239365,"current_range_meters":12400,"station_id":"ce4bgup2rcd13ifvqcn0","pricing_plan_id":"cebpf4jnsgd1na2vs0mg"},{"bike_id":"56c7d975-e736-42e5-8d46-a2b4f71c4ac2","system_id":"levelo_inurba_marseille","lat":43.28755,"lon":5.39955,"is_reserved":false,"is_disabled":true,"rental_uris":{"android":"levelo://app?vid=56c7d975-e736-42e5-8d46-a2b4f71c4ac2","ios":"levelo://app?vid=56c7d975-e736-42e5-8d46-a2b4f71c4ac2"},"vehicle_type_id":"4","last_reported":1743239365,"current_range_meters":12400,"station_id":"","pricing_plan_id":"cebpf4jnsgd1na2vs0mg"},{"bike_id":"b10013b1-6e18-45d0-93c6-e52068d555f2","system_id":"levelo_inurba_marseille","lat":43.28456,"lon":5.35892,"is_reserved":false,"is_disabled":false,"rental_uris":{"android":"levelo://app?vid=b10013b1-6e18-45d0-93c6-e52068d555f2","ios":"levelo://app?vid=b10013b1-6e18-45d0-93c6-e52068d555f2"},"vehicle_type_id":"4","last_reported":1743239365,"current_range_meters":12400,"station_id":"ce4bhah2rcd13ifvqei0","pricing_plan_id":"cebpf4jnsgd1na2vs0mg"},{"bike_id":"7f9e733c-fa89-49ab-8010-8acb21ac5585","system_id":"levelo_inurba_marseille","lat":43.23141,"lon":5.43715,"is_reserved":false,"is_disabled":false,"rental_uris":{"android":"levelo://app?vid=7f9e733c-fa89-49ab-8010-8acb21ac5585","ios":"levelo://app?vid=7f9e733c-fa89-49ab-8010-8acb21ac5585"},"vehicle_type_id":"4","last_reported":1743239365,"current_range_meters":12400,"station_id":"ce4bhmp2rcd13ifvqgog","pricing_plan_id":"cebpf4jnsgd1na2vs0mg"},{"bike_id":"3c923253-0a0b-4c75-a63a-cdc1218da2bb","system_id":"levelo_inurba_marseille","lat":43.29605,"lon":5.37711,"is_reserved":false,"is_disabled":false,"rental_uris":{"android":"levelo://app?vid=3c923253-0a0b-4c75-a63a-cdc1218da2bb","ios":"levelo://app?vid=3c923253-0a0b-4c75-a63a-cdc1218da2bb"},"vehicle_type_id":"4","last_reported":1743239365,"current_range_meters":12400,"station_id":"ce4bgi92rcd13ifvqb90","pricing_plan_id":"cebpf4jnsgd1na2vs0mg"},{"bike_id":"89b372e0-e34b-4448-a651-9f0d9816c98e","system_id":"levelo_inurba_marseille","lat":43.24167,"lon":5.36412,"is_reserved":false,"is_disabled":false,"rental_uris":{"android":"levelo://app?vid=89b372e0-e34b-4448-a651-9f0d9816c98e","ios":"levelo://app?vid=89b372e0-e34b-4448-a651-9f0d9816c98e"},"vehicle_type_id":"4","last_reported":1743239365,"current_range_meters":12400,"station_id":"cpo36qri1sfpv3e86is0","pricing_plan_id":"cebpf4jnsgd1na2vs0mg"},{"bike_id":"699cb6a9-80bb-4d7b-8f84-b25847471872","system_id":"levelo_inurba_marseille","lat":43.28927,"lon":5.36393,"is_reserved":false,"is_disabled":false,"rental_uris":{"android":"levelo://app?vid=699cb6a9-80bb-4d7b-8f84-b25847471872","ios":"levelo://app?vid=699cb6a9-80bb-4d7b-8f84-b25847471872"},"vehicle_type_id":"4","last_reported":1743239365,"current_range_meters":12400,"station_id":"ce4bhc92rcd13ifvqetg","pricing_plan_id":"cebpf4jnsgd1na2vs0mg"},{"bike_id":"aa8607bb-b5d2-4f91-a082-c4272120a7ed","system_id":"levelo_inurba_marseille","lat":43.28904,"lon":5.36414,"is_reserved":false,"is_disabled":true,"rental_uris":{"android":"levelo://app?vid=aa8607bb-b5d2-4f91-a082-c4272120a7ed","ios":"levelo://app?vid=aa8607bb-b5d2-4f91-a082-c4272120a7ed"},"vehicle_type_id":"4","last_reported":1743239365,"current_range_meters":12400,"station_id":"","pricing_plan_id":"cebpf4jnsgd1na2vs0mg"},{"bike_id":"acf1e1c3-a629-4c7b-a838-cba3f3b54603","system_id":"levelo_inurba_marseille","lat":43.31866,"lon":5.3763,"is_reserved":false,"is_disabled":false,"rental_uris":{"android":"levelo://app?vid=acf1e1c3-a629-4c7b-a838-cba3f3b54603","ios":"levelo://app?vid=acf1e1c3-a629-4c7b-a838-cba3f3b54603"},"vehicle_type_id":"4","last_reported":1743239365,"current_range_meters":12400,"station_id":"","pricing_plan_id":"cebpf4jnsgd1na2vs0mg"},{"bike_id":"d42b0697-0001-445f-a5ab-e97cd50bb993","system_id":"levelo_inurba_marseille","lat":43.248068,"lon":5.374569,"is_reserved":false,"is_disabled":false,"rental_uris":{"android":"levelo://app?vid=d42b0697-0001-445f-a5ab-e97cd50bb993","ios":"levelo://app?vid=d42b0697-0001-445f-a5ab-e97cd50bb993"},"vehicle_type_id":"4","last_reported":1743239365,"current_range_meters":12800,"station_id":"ce4bhgh2rcd13ifvqfb0","pricing_plan_id":"cebpf4jnsgd1na2vs0mg"},{"bike_id":"eaddfac1-0bf4-4f61-8016-0c16cda63728","system_id":"levelo_inurba_marseille","lat":43.292299,"lon":5.360561,"is_reserved":false,"is_disabled":false,"rental_uris":{"android":"levelo://app?vid=eaddfac1-0bf4-4f61-8016-0c16cda63728","ios":"levelo://app?vid=eaddfac1-0bf4-4f61-8016-0c16cda63728"},"vehicle_type_id":"4","last_reported":1743239365,"current_range_meters":12800,"station_id":"ce4bhbh2rcd13ifvqeqg","pricing_plan_id":"cebpf4jnsgd1na2vs0mg"},{"bike_id":"7b02f918-78bf-44ba-a3dd-89303956f071","system_id":"levelo_inurba_marseille","lat":43.30152,"lon":5.38076,"is_reserved":false,"is_disabled":false,"rental_uris":{"android":"levelo://app?vid=7b02f918-78bf-44ba-a3dd-89303956f071","ios":"levelo://app?vid=7b02f918-78bf-44ba-a3dd-89303956f071"},"vehicle_type_id":"4","last_reported":1743239365,"current_range_meters":12800,"station_id":"ce4bgjp2rcd13ifvqbh0","pricing_plan_id":"cebpf4jnsgd1na2vs0mg"},{"bike_id":"4d84894c-24d9-4f73-874b-b0df2ef91235","system_id":"levelo_inurba_marseille","lat":43.30454,"lon":5.37911,"is_reserved":false,"is_disabled":false,"rental_uris":{"android":"levelo://app?vid=4d84894c-24d9-4f73-874b-b0df2ef91235","ios":"levelo://app?vid=4d84894c-24d9-4f73-874b-b0df2ef91235"},"vehicle_type_id":"4","last_reported":1743239365,"current_range_meters":12800,"station_id":"ce4bgup2rcd13ifvqcn0","pricing_plan_id":"cebpf4jnsgd1na2vs0mg"},{"bike_id":"3f2bcfca-c616-4059-a95b-b1ee7948eb41","system_id":"levelo_inurba_marseille","lat":43.29896,"lon":5.39756,"is_reserved":false,"is_disabled":false,"rental_uris":{"android":"levelo://app?vid=3f2bcfca-c616-4059-a95b-b1ee7948eb41","ios":"levelo://app?vid=3f2bcfca-c616-4059-a95b-b1ee7948eb41"},"vehicle_type_id":"4","last_reported":1743239365,"current_range_meters":12800,"station_id":"ce4bh0h2rcd13ifvqd50","pricing_plan_id":"cebpf4jnsgd1na2vs0mg"},{"bike_id":"43e30df2-3ea2-4192-ac27-17ac9e6bf6ec","system_id":"levelo_inurba_marseille","lat":43.32374,"lon":5.38879,"is_reserved":false,"is_disabled":false,"rental_uris":{"android":"levelo://app?vid=43e30df2-3ea2-4192-ac27-17ac9e6bf6ec","ios":"levelo://app?vid=43e30df2-3ea2-4192-ac27-17ac9e6bf6ec"},"vehicle_type_id":"4","last_reported":1743239365,"current_range_meters":12800,"station_id":"ce4bhqp2rcd13ifvqhog","pricing_plan_id":"cebpf4jnsgd1na2vs0mg"},{"bike_id":"7e90ed50-369f-4c36-8d0e-ae1002dc7af7","system_id":"levelo_inurba_marseille","lat":43.30874,"lon":5.39643,"is_reserved":false,"is_disabled":false,"rental_uris":{"android":"levelo://app?vid=7e90ed50-369f-4c36-8d0e-ae1002dc7af7","ios":"levelo://app?vid=7e90ed50-369f-4c36-8d0e-ae1002dc7af7"},"vehicle_type_id":"4","last_reported":1743239365,"current_range_meters":13600,"station_id":"ce4bh012rcd13ifvqcv0","pricing_plan_id":"cebpf4jnsgd1na2vs0mg"},{"bike_id":"1da42759-035b-4bae-83d6-6cc72b580fb3","system_id":"levelo_inurba_marseille","lat":43.28997,"lon":5.37836,"is_reserved":false,"is_disabled":false,"rental_uris":{"android":"levelo://app?vid=1da42759-035b-4bae-83d6-6cc72b580fb3","ios":"levelo://app?vid=1da42759-035b-4bae-83d6-6cc72b580fb3"},"vehicle_type_id":"4","last_reported":1743239365,"current_range_meters":13600,"station_id":"ce4bh9p2rcd13ifvqed0","pricing_plan_id":"cebpf4jnsgd1na2vs0mg"},{"bike_id":"abd3241e-325c-4afb-bdb7-08c1b88e1658","system_id":"levelo_inurba_marseille","lat":43.288501,"lon":5.358455,"is_reserved":false,"is_disabled":false,"rental_uris":{"android":"levelo://app?vid=abd3241e-325c-4afb-bdb7-08c1b88e1658","ios":"levelo://app?vid=abd3241e-325c-4afb-bdb7-08c1b88e1658"},"vehicle_type_id":"4","last_reported":1743239365,"current_range_meters":13600,"station_id":"ce4bhb12rcd13ifvqem0","pricing_plan_id":"cebpf4jnsgd1na2vs0mg"},{"bike_id":"516eec70-9871-443d-bcef-31d65d51e4f5","system_id":"levelo_inurba_marseille","lat":43.30286,"lon":5.37717,"is_reserved":false,"is_disabled":false,"rental_uris":{"android":"levelo://app?vid=516eec70-9871-443d-bcef-31d65d51e4f5","ios":"levelo://app?vid=516eec70-9871-443d-bcef-31d65d51e4f5"},"vehicle_type_id":"4","last_reported":1743239365,"current_range_meters":13600,"station_id":"ce4bguh2rcd13ifvqcj0","pricing_plan_id":"cebpf4jnsgd1na2vs0mg"},{"bike_id":"25bb5fbc-8229-4010-b703-31f5ee6ac141","system_id":"levelo_inurba_marseille","lat":43.306061,"lon":5.365735,"is_reserved":false,"is_disabled":false,"rental_uris":{"android":"levelo://app?vid=25bb5fbc-8229-4010-b703-31f5ee6ac141","ios":"levelo://app?vid=25bb5fbc-8229-4010-b703-31f5ee6ac141"},"vehicle_type_id":"4","last_reported":1743239365,"current_range_meters":14000,"station_id":"ce4bgs12rcd13ifvqcag","pricing_plan_id":"cebpf4jnsgd1na2vs0mg"},{"bike_id":"76d4ed16-8625-4a14-a5f1-d28ac2574c13","system_id":"levelo_inurba_marseille","lat":43.245429,"lon":5.395381,"is_reserved":false,"is_disabled":false,"rental_uris":{"android":"levelo://app?vid=76d4ed16-8625-4a14-a5f1-d28ac2574c13","ios":"levelo://app?vid=76d4ed16-8625-4a14-a5f1-d28ac2574c13"},"vehicle_type_id":"4","last_reported":1743239365,"current_range_meters":14000,"station_id":"","pricing_plan_id":"cebpf4jnsgd1na2vs0mg"},{"bike_id":"906b540e-e920-417f-92b5-0ef35349f644","system_id":"levelo_inurba_marseille","lat":43.31542,"lon":5.39693,"is_reserved":false,"is_disabled":false,"rental_uris":{"android":"levelo://app?vid=906b540e-e920-417f-92b5-0ef35349f644","ios":"levelo://app?vid=906b540e-e920-417f-92b5-0ef35349f644"},"vehicle_type_id":"4","last_reported":1743239365,"current_range_meters":14000,"station_id":"","pricing_plan_id":"cebpf4jnsgd1na2vs0mg"},{"bike_id":"0509fd5a-cd70-40f1-b26e-3f3e3192484f","system_id":"levelo_inurba_marseille","lat":43.28944,"lon":5.36383,"is_reserved":false,"is_disabled":false,"rental_uris":{"android":"levelo://app?vid=0509fd5a-cd70-40f1-b26e-3f3e3192484f","ios":"levelo://app?vid=0509fd5a-cd70-40f1-b26e-3f3e3192484f"},"vehicle_type_id":"4","last_reported":1743239365,"current_range_meters":14000,"station_id":"ce4bhc92rcd13ifvqetg","pricing_plan_id":"cebpf4jnsgd1na2vs0mg"},{"bike_id":"55c46d49-9363-40b2-8dbf-638f8433b356","system_id":"levelo_inurba_marseille","lat":43.24809,"lon":5.37451,"is_reserved":false,"is_disabled":false,"rental_uris":{"android":"levelo://app?vid=55c46d49-9363-40b2-8dbf-638f8433b356","ios":"levelo://app?vid=55c46d49-9363-40b2-8dbf-638f8433b356"},"vehicle_type_id":"4","last_reported":1743239365,"current_range_meters":14000,"station_id":"ce4bhgh2rcd13ifvqfb0","pricing_plan_id":"cebpf4jnsgd1na2vs0mg"},{"bike_id":"00be0317-17ab-4e44-83e9-4e55c9cffd8f","system_id":"levelo_inurba_marseille","lat":43.23954,"lon":5.36663,"is_reserved":false,"is_disabled":false,"rental_uris":{"android":"levelo://app?vid=00be0317-17ab-4e44-83e9-4e55c9cffd8f","ios":"levelo://app?vid=00be0317-17ab-4e44-83e9-4e55c9cffd8f"},"vehicle_type_id":"4","last_reported":1743239365,"current_range_meters":14000,"station_id":"ce4bhi12rcd13ifvqfp0","pricing_plan_id":"cebpf4jnsgd1na2vs0mg"},{"bike_id":"978df694-d29a-44b6-ad67-f789edd14ca0","system_id":"levelo_inurba_marseille","lat":43.29298,"lon":5.37445,"is_reserved":false,"is_disabled":false,"rental_uris":{"android":"levelo://app?vid=978df694-d29a-44b6-ad67-f789edd14ca0","ios":"levelo://app?vid=978df694-d29a-44b6-ad67-f789edd14ca0"},"vehicle_type_id":"4","last_reported":1743239365,"current_range_meters":14000,"station_id":"ce4bgi12rcd13ifvqb70","pricing_plan_id":"cebpf4jnsgd1na2vs0mg"},{"bike_id":"b089e2bb-29e2-4335-8a3f-8b20faa88529","system_id":"levelo_inurba_marseille","lat":43.27956,"lon":5.41018,"is_reserved":false,"is_disabled":false,"rental_uris":{"android":"levelo://app?vid=b089e2bb-29e2-4335-8a3f-8b20faa88529","ios":"levelo://app?vid=b089e2bb-29e2-4335-8a3f-8b20faa88529"},"vehicle_type_id":"4","last_reported":1743239365,"current_range_meters":14000,"station_id":"ce4bhnp2rcd13ifvqh0g","pricing_plan_id":"cebpf4jnsgd1na2vs0mg"},{"bike_id":"b1faf2d3-6abb-4622-ae93-2caf0fc98d7d","system_id":"levelo_inurba_marseille","lat":43.31182,"lon":5.38698,"is_reserved":false,"is_disabled":true,"rental_uris":{"android":"levelo://app?vid=b1faf2d3-6abb-4622-ae93-2caf0fc98d7d","ios":"levelo://app?vid=b1faf2d3-6abb-4622-ae93-2caf0fc98d7d"},"vehicle_type_id":"4","last_reported":1743239365,"current_range_meters":14000,"station_id":"ce4bgv12rcd13ifvqcp0","pricing_plan_id":"cebpf4jnsgd1na2vs0mg"},{"bike_id":"9f50066e-01fa-4519-9f61-8109fe65f5d9","system_id":"levelo_inurba_marseille","lat":43.28598,"lon":5.37054,"is_reserved":false,"is_disabled":false,"rental_uris":{"android":"levelo://app?vid=9f50066e-01fa-4519-9f61-8109fe65f5d9","ios":"levelo://app?vid=9f50066e-01fa-4519-9f61-8109fe65f5d9"},"vehicle_type_id":"4","last_reported":1743239365,"current_range_meters":14400,"station_id":"ce4bht12rcd13ifvqi60","pricing_plan_id":"cebpf4jnsgd1na2vs0mg"},{"bike_id":"5a53d0ae-485c-4888-8827-1e6d992be149","system_id":"levelo_inurba_marseille","lat":43.30665,"lon":5.40106,"is_reserved":false,"is_disabled":false,"rental_uris":{"android":"levelo://app?vid=5a53d0ae-485c-4888-8827-1e6d992be149","ios":"levelo://app?vid=5a53d0ae-485c-4888-8827-1e6d992be149"},"vehicle_type_id":"4","last_reported":1743239365,"current_range_meters":14400,"station_id":"ce4bh112rcd13ifvqda0","pricing_plan_id":"cebpf4jnsgd1na2vs0mg"},{"bike_id":"02f481f7-aa80-4e7c-af3d-398870f03701","system_id":"levelo_inurba_marseille","lat":43.2963,"lon":5.40606,"is_reserved":false,"is_disabled":false,"rental_uris":{"android":"levelo://app?vid=02f481f7-aa80-4e7c-af3d-398870f03701","ios":"levelo://app?vid=02f481f7-aa80-4e7c-af3d-398870f03701"},"vehicle_type_id":"4","last_reported":1743239365,"current_range_meters":14400,"station_id":"ce4bh0h2rcd13ifvqd60","pricing_plan_id":"cebpf4jnsgd1na2vs0mg"},{"bike_id":"d72c46ba-81e9-4bd0-bbbe-0ccc61af7475","system_id":"levelo_inurba_marseille","lat":43.30462,"lon":5.37903,"is_reserved":false,"is_disabled":false,"rental_uris":{"android":"levelo://app?vid=d72c46ba-81e9-4bd0-bbbe-0ccc61af7475","ios":"levelo://app?vid=d72c46ba-81e9-4bd0-bbbe-0ccc61af7475"},"vehicle_type_id":"4","last_reported":1743239365,"current_range_meters":14800,"station_id":"ce4bgup2rcd13ifvqcn0","pricing_plan_id":"cebpf4jnsgd1na2vs0mg"},{"bike_id":"653ea6de-a177-4007-9cfa-5f3f77e975f6","system_id":"levelo_inurba_marseille","lat":43.24804,"lon":5.37455,"is_reserved":false,"is_disabled":false,"rental_uris":{"android":"levelo://app?vid=653ea6de-a177-4007-9cfa-5f3f77e975f6","ios":"levelo://app?vid=653ea6de-a177-4007-9cfa-5f3f77e975f6"},"vehicle_type_id":"4","last_reported":1743239365,"current_range_meters":14800,"station_id":"ce4bhgh2rcd13ifvqfb0","pricing_plan_id":"cebpf4jnsgd1na2vs0mg"},{"bike_id":"c573c046-f36a-4bd3-af73-5fc85d05e776","system_id":"levelo_inurba_marseille","lat":43.28457,"lon":5.35893,"is_reserved":false,"is_disabled":false,"rental_uris":{"android":"levelo://app?vid=c573c046-f36a-4bd3-af73-5fc85d05e776","ios":"levelo://app?vid=c573c046-f36a-4bd3-af73-5fc85d05e776"},"vehicle_type_id":"4","last_reported":1743239365,"current_range_meters":15200,"station_id":"ce4bhah2rcd13ifvqei0","pricing_plan_id":"cebpf4jnsgd1na2vs0mg"},{"bike_id":"4854182c-5e3b-4312-b39b-614ebdd62b8d","system_id":"levelo_inurba_marseille","lat":43.25942,"lon":5.40898,"is_reserved":false,"is_disabled":false,"rental_uris":{"android":"levelo://app?vid=4854182c-5e3b-4312-b39b-614ebdd62b8d","ios":"levelo://app?vid=4854182c-5e3b-4312-b39b-614ebdd62b8d"},"vehicle_type_id":"4","last_reported":1743239365,"current_range_meters":15200,"station_id":"ce4bhm92rcd13ifvqglg","pricing_plan_id":"cebpf4jnsgd1na2vs0mg"},{"bike_id":"34796b3a-b04a-4029-9a2c-b49dac168ad7","system_id":"levelo_inurba_marseille","lat":43.28389,"lon":5.38626,"is_reserved":false,"is_disabled":false,"rental_uris":{"android":"levelo://app?vid=34796b3a-b04a-4029-9a2c-b49dac168ad7","ios":"levelo://app?vid=34796b3a-b04a-4029-9a2c-b49dac168ad7"},"vehicle_type_id":"4","last_reported":1743239365,"current_range_meters":15200,"station_id":"ce4bh492rcd13ifvqdvg","pricing_plan_id":"cebpf4jnsgd1na2vs0mg"},{"bike_id":"939fef5b-bbd4-4de2-b4fc-b103e449f9b5","system_id":"levelo_inurba_marseille","lat":43.25391,"lon":5.41863,"is_reserved":false,"is_disabled":false,"rental_uris":{"android":"levelo://app?vid=939fef5b-bbd4-4de2-b4fc-b103e449f9b5","ios":"levelo://app?vid=939fef5b-bbd4-4de2-b4fc-b103e449f9b5"},"vehicle_type_id":"4","last_reported":1743239365,"current_range_meters":15200,"station_id":"","pricing_plan_id":"cebpf4jnsgd1na2vs0mg"},{"bike_id":"6f1cabef-c2f0-42e6-98ee-463597090745","system_id":"levelo_inurba_marseille","lat":43.2793,"lon":5.41042,"is_reserved":false,"is_disabled":false,"rental_uris":{"android":"levelo://app?vid=6f1cabef-c2f0-42e6-98ee-463597090745","ios":"levelo://app?vid=6f1cabef-c2f0-42e6-98ee-463597090745"},"vehicle_type_id":"4","last_reported":1743239365,"current_range_meters":15200,"station_id":"ce4bhnp2rcd13ifvqh0g","pricing_plan_id":"cebpf4jnsgd1na2vs0mg"},{"bike_id":"0ef00b6c-48ab-486d-971d-9aa1fc157095","system_id":"levelo_inurba_marseille","lat":43.28852,"lon":5.39321,"is_reserved":false,"is_disabled":true,"rental_uris":{"android":"levelo://app?vid=0ef00b6c-48ab-486d-971d-9aa1fc157095","ios":"levelo://app?vid=0ef00b6c-48ab-486d-971d-9aa1fc157095"},"vehicle_type_id":"4","last_reported":1743239365,"current_range_meters":16000,"station_id":"ce4bh2p2rcd13ifvqdi0","pricing_plan_id":"cebpf4jnsgd1na2vs0mg"},{"bike_id":"1194d893-debc-41d7-b347-816267570776","system_id":"levelo_inurba_marseille","lat":43.3376,"lon":5.39181,"is_reserved":false,"is_disabled":false,"rental_uris":{"android":"levelo://app?vid=1194d893-debc-41d7-b347-816267570776","ios":"levelo://app?vid=1194d893-debc-41d7-b347-816267570776"},"vehicle_type_id":"4","last_reported":1743239365,"current_range_meters":16000,"station_id":"ce4bhr92rcd13ifvqhsg","pricing_plan_id":"cebpf4jnsgd1na2vs0mg"},{"bike_id":"ac1005b0-08b8-45c9-9895-7f639bf5e17f","system_id":"levelo_inurba_marseille","lat":43.23187,"lon":5.3553,"is_reserved":false,"is_disabled":false,"rental_uris":{"android":"levelo://app?vid=ac1005b0-08b8-45c9-9895-7f639bf5e17f","ios":"levelo://app?vid=ac1005b0-08b8-45c9-9895-7f639bf5e17f"},"vehicle_type_id":"4","last_reported":1743239365,"current_range_meters":16000,"station_id":"ce4bhu92rcd13ifvqi70","pricing_plan_id":"cebpf4jnsgd1na2vs0mg"},{"bike_id":"e6967797-29d0-4947-88e5-61bc42de65df","system_id":"levelo_inurba_marseille","lat":43.28623,"lon":5.35101,"is_reserved":false,"is_disabled":false,"rental_uris":{"android":"levelo://app?vid=e6967797-29d0-4947-88e5-61bc42de65df","ios":"levelo://app?vid=e6967797-29d0-4947-88e5-61bc42de65df"},"vehicle_type_id":"4","last_reported":1743239365,"current_range_meters":16000,"station_id":"ce4bhch2rcd13ifvqeug","pricing_plan_id":"cebpf4jnsgd1na2vs0mg"},{"bike_id":"7093e1d1-bd24-4c38-9f2d-46b007c685d4","system_id":"levelo_inurba_marseille","lat":43.26193,"lon":5.37453,"is_reserved":false,"is_disabled":true,"rental_uris":{"android":"levelo://app?vid=7093e1d1-bd24-4c38-9f2d-46b007c685d4","ios":"levelo://app?vid=7093e1d1-bd24-4c38-9f2d-46b007c685d4"},"vehicle_type_id":"4","last_reported":1743239365,"current_range_meters":16000,"station_id":"ce4bhgp2rcd13ifvqfc0","pricing_plan_id":"cebpf4jnsgd1na2vs0mg"},{"bike_id":"a90d481a-7039-457f-a5b9-3dabbed904f5","system_id":"levelo_inurba_marseille","lat":43.27942,"lon":5.4103,"is_reserved":false,"is_disabled":false,"rental_uris":{"android":"levelo://app?vid=a90d481a-7039-457f-a5b9-3dabbed904f5","ios":"levelo://app?vid=a90d481a-7039-457f-a5b9-3dabbed904f5"},"vehicle_type_id":"4","last_reported":1743239365,"current_range_meters":16000,"station_id":"ce4bhnp2rcd13ifvqh0g","pricing_plan_id":"cebpf4jnsgd1na2vs0mg"},{"bike_id":"5a92a956-d3a6-4e4d-8122-e43495629b3b","system_id":"levelo_inurba_marseille","lat":43.33768,"lon":5.39183,"is_reserved":false,"is_disabled":false,"rental_uris":{"android":"levelo://app?vid=5a92a956-d3a6-4e4d-8122-e43495629b3b","ios":"levelo://app?vid=5a92a956-d3a6-4e4d-8122-e43495629b3b"},"vehicle_type_id":"4","last_reported":1743239365,"current_range_meters":16000,"station_id":"","pricing_plan_id":"cebpf4jnsgd1na2vs0mg"},{"bike_id":"ed5a1ae2-fa61-4587-b9a2-42244092b811","system_id":"levelo_inurba_marseille","lat":43.30148,"lon":5.38082,"is_reserved":false,"is_disabled":false,"rental_uris":{"android":"levelo://app?vid=ed5a1ae2-fa61-4587-b9a2-42244092b811","ios":"levelo://app?vid=ed5a1ae2-fa61-4587-b9a2-42244092b811"},"vehicle_type_id":"4","last_reported":1743239365,"current_range_meters":16000,"station_id":"ce4bgjp2rcd13ifvqbh0","pricing_plan_id":"cebpf4jnsgd1na2vs0mg"},{"bike_id":"bd1c45cb-d5d1-4f8f-97ec-c397d56e1dd5","system_id":"levelo_inurba_marseille","lat":43.24543,"lon":5.39534,"is_reserved":false,"is_disabled":false,"rental_uris":{"android":"levelo://app?vid=bd1c45cb-d5d1-4f8f-97ec-c397d56e1dd5","ios":"levelo://app?vid=bd1c45cb-d5d1-4f8f-97ec-c397d56e1dd5"},"vehicle_type_id":"4","last_reported":1743239365,"current_range_meters":16000,"station_id":"ce4bhlp2rcd13ifvqgjg","pricing_plan_id":"cebpf4jnsgd1na2vs0mg"},{"bike_id":"3fc690cc-514e-49af-8c16-561a3329ac3e","system_id":"levelo_inurba_marseille","lat":43.27063,"lon":5.42275,"is_reserved":false,"is_disabled":false,"rental_uris":{"android":"levelo://app?vid=3fc690cc-514e-49af-8c16-561a3329ac3e","ios":"levelo://app?vid=3fc690cc-514e-49af-8c16-561a3329ac3e"},"vehicle_type_id":"4","last_reported":1743239365,"current_range_meters":16000,"station_id":"ce4bhk92rcd13ifvqgb0","pricing_plan_id":"cebpf4jnsgd1na2vs0mg"},{"bike_id":"d98e8d89-ccc3-4acd-989c-2455a0a226fe","system_id":"levelo_inurba_marseille","lat":43.29894,"lon":5.37479,"is_reserved":false,"is_disabled":false,"rental_uris":{"android":"levelo://app?vid=d98e8d89-ccc3-4acd-989c-2455a0a226fe","ios":"levelo://app?vid=d98e8d89-ccc3-4acd-989c-2455a0a226fe"},"vehicle_type_id":"4","last_reported":1743239365,"current_range_meters":16400,"station_id":"ce4bgjh2rcd13ifvqbg0","pricing_plan_id":"cebpf4jnsgd1na2vs0mg"},{"bike_id":"bd90bf75-9c99-4619-93c2-7a5fd83388b5","system_id":"levelo_inurba_marseille","lat":43.313603,"lon":5.388284,"is_reserved":false,"is_disabled":false,"rental_uris":{"android":"levelo://app?vid=bd90bf75-9c99-4619-93c2-7a5fd83388b5","ios":"levelo://app?vid=bd90bf75-9c99-4619-93c2-7a5fd83388b5"},"vehicle_type_id":"4","last_reported":1743239365,"current_range_meters":16400,"station_id":"ce4bgt92rcd13ifvqcf0","pricing_plan_id":"cebpf4jnsgd1na2vs0mg"},{"bike_id":"cccdfc50-9172-4019-9d86-2d339a3ec58f","system_id":"levelo_inurba_marseille","lat":43.24666,"lon":5.38186,"is_reserved":false,"is_disabled":false,"rental_uris":{"android":"levelo://app?vid=cccdfc50-9172-4019-9d86-2d339a3ec58f","ios":"levelo://app?vid=cccdfc50-9172-4019-9d86-2d339a3ec58f"},"vehicle_type_id":"4","last_reported":1743239365,"current_range_meters":16400,"station_id":"ce4bhih2rcd13ifvqfr0","pricing_plan_id":"cebpf4jnsgd1na2vs0mg"},{"bike_id":"71fe3d8c-48d0-4358-901d-55546353d839","system_id":"levelo_inurba_marseille","lat":43.32358,"lon":5.38884,"is_reserved":false,"is_disabled":false,"rental_uris":{"android":"levelo://app?vid=71fe3d8c-48d0-4358-901d-55546353d839","ios":"levelo://app?vid=71fe3d8c-48d0-4358-901d-55546353d839"},"vehicle_type_id":"4","last_reported":1743239365,"current_range_meters":16400,"station_id":"ce4bhqp2rcd13ifvqhog","pricing_plan_id":"cebpf4jnsgd1na2vs0mg"},{"bike_id":"10464d76-2c66-4964-ad24-5716ce09aec6","system_id":"levelo_inurba_marseille","lat":43.30272,"lon":5.37703,"is_reserved":false,"is_disabled":false,"rental_uris":{"android":"levelo://app?vid=10464d76-2c66-4964-ad24-5716ce09aec6","ios":"levelo://app?vid=10464d76-2c66-4964-ad24-5716ce09aec6"},"vehicle_type_id":"4","last_reported":1743239365,"current_range_meters":16400,"station_id":"ce4bguh2rcd13ifvqcj0","pricing_plan_id":"cebpf4jnsgd1na2vs0mg"},{"bike_id":"840ae9bc-70a3-4137-82c8-440b461f4fff","system_id":"levelo_inurba_marseille","lat":43.29774,"lon":5.38107,"is_reserved":false,"is_disabled":true,"rental_uris":{"android":"levelo://app?vid=840ae9bc-70a3-4137-82c8-440b461f4fff","ios":"levelo://app?vid=840ae9bc-70a3-4137-82c8-440b461f4fff"},"vehicle_type_id":"4","last_reported":1743239365,"current_range_meters":16400,"station_id":"","pricing_plan_id":"cebpf4jnsgd1na2vs0mg"},{"bike_id":"8289ed12-207c-4527-9aa9-26999cc35458","system_id":"levelo_inurba_marseille","lat":43.2319,"lon":5.35561,"is_reserved":false,"is_disabled":false,"rental_uris":{"android":"levelo://app?vid=8289ed12-207c-4527-9aa9-26999cc35458","ios":"levelo://app?vid=8289ed12-207c-4527-9aa9-26999cc35458"},"vehicle_type_id":"4","last_reported":1743239365,"current_range_meters":16400,"station_id":"ce4bhu92rcd13ifvqi70","pricing_plan_id":"cebpf4jnsgd1na2vs0mg"},{"bike_id":"6529c415-bf76-4961-a2d2-254d87cb691d","system_id":"levelo_inurba_marseille","lat":43.299221,"lon":5.3747,"is_reserved":false,"is_disabled":false,"rental_uris":{"android":"levelo://app?vid=6529c415-bf76-4961-a2d2-254d87cb691d","ios":"levelo://app?vid=6529c415-bf76-4961-a2d2-254d87cb691d"},"vehicle_type_id":"4","last_reported":1743239365,"current_range_meters":16400,"station_id":"","pricing_plan_id":"cebpf4jnsgd1na2vs0mg"},{"bike_id":"ca176c29-5ce6-4aeb-974c-c0fab76ab411","system_id":"levelo_inurba_marseille","lat":43.265496,"lon":5.390218,"is_reserved":false,"is_disabled":false,"rental_uris":{"android":"levelo://app?vid=ca176c29-5ce6-4aeb-974c-c0fab76ab411","ios":"levelo://app?vid=ca176c29-5ce6-4aeb-974c-c0fab76ab411"},"vehicle_type_id":"4","last_reported":1743239365,"current_range_meters":16400,"station_id":"ce4bhe12rcd13ifvqf30","pricing_plan_id":"cebpf4jnsgd1na2vs0mg"},{"bike_id":"2d32ba84-a01d-40d3-812a-d4e4daae37cb","system_id":"levelo_inurba_marseille","lat":43.29062,"lon":5.37169,"is_reserved":false,"is_disabled":false,"rental_uris":{"android":"levelo://app?vid=2d32ba84-a01d-40d3-812a-d4e4daae37cb","ios":"levelo://app?vid=2d32ba84-a01d-40d3-812a-d4e4daae37cb"},"vehicle_type_id":"4","last_reported":1743239365,"current_range_meters":16400,"station_id":"ce4bh5p2rcd13ifvqe4g","pricing_plan_id":"cebpf4jnsgd1na2vs0mg"},{"bike_id":"98579b26-9c15-4dca-8ae6-7d823c3aab07","system_id":"levelo_inurba_marseille","lat":43.29576,"lon":5.37493,"is_reserved":false,"is_disabled":false,"rental_uris":{"android":"levelo://app?vid=98579b26-9c15-4dca-8ae6-7d823c3aab07","ios":"levelo://app?vid=98579b26-9c15-4dca-8ae6-7d823c3aab07"},"vehicle_type_id":"4","last_reported":1743239365,"current_range_meters":16400,"station_id":"ce4bgh92rcd13ifvqb50","pricing_plan_id":"cebpf4jnsgd1na2vs0mg"},{"bike_id":"2a651215-29ff-4da6-821d-6aba547eb86b","system_id":"levelo_inurba_marseille","lat":43.2926,"lon":5.36018,"is_reserved":false,"is_disabled":false,"rental_uris":{"android":"levelo://app?vid=2a651215-29ff-4da6-821d-6aba547eb86b","ios":"levelo://app?vid=2a651215-29ff-4da6-821d-6aba547eb86b"},"vehicle_type_id":"4","last_reported":1743239365,"current_range_meters":16400,"station_id":"","pricing_plan_id":"cebpf4jnsgd1na2vs0mg"},{"bike_id":"0a9ec2eb-1e79-43a5-ae4d-326ab3ba938e","system_id":"levelo_inurba_marseille","lat":43.286114,"lon":5.351095,"is_reserved":false,"is_disabled":false,"rental_uris":{"android":"levelo://app?vid=0a9ec2eb-1e79-43a5-ae4d-326ab3ba938e","ios":"levelo://app?vid=0a9ec2eb-1e79-43a5-ae4d-326ab3ba938e"},"vehicle_type_id":"4","last_reported":1743239365,"current_range_meters":16400,"station_id":"ce4bhch2rcd13ifvqeug","pricing_plan_id":"cebpf4jnsgd1na2vs0mg"},{"bike_id":"8bcc045e-f28b-442a-a0af-38457b26197c","system_id":"levelo_inurba_marseille","lat":43.24167,"lon":5.36397,"is_reserved":false,"is_disabled":false,"rental_uris":{"android":"levelo://app?vid=8bcc045e-f28b-442a-a0af-38457b26197c","ios":"levelo://app?vid=8bcc045e-f28b-442a-a0af-38457b26197c"},"vehicle_type_id":"4","last_reported":1743239365,"current_range_meters":16400,"station_id":"cpo36qri1sfpv3e86is0","pricing_plan_id":"cebpf4jnsgd1na2vs0mg"},{"bike_id":"bfe9f647-8ff6-4884-b7a5-135fb423ab91","system_id":"levelo_inurba_marseille","lat":43.29821,"lon":5.38076,"is_reserved":false,"is_disabled":false,"rental_uris":{"android":"levelo://app?vid=bfe9f647-8ff6-4884-b7a5-135fb423ab91","ios":"levelo://app?vid=bfe9f647-8ff6-4884-b7a5-135fb423ab91"},"vehicle_type_id":"4","last_reported":1743239365,"current_range_meters":16400,"station_id":"ce4bgip2rcd13ifvqbb0","pricing_plan_id":"cebpf4jnsgd1na2vs0mg"},{"bike_id":"0e9d92a7-df29-43d8-906d-2a51c6561f7d","system_id":"levelo_inurba_marseille","lat":43.28435,"lon":5.34967,"is_reserved":false,"is_disabled":false,"rental_uris":{"android":"levelo://app?vid=0e9d92a7-df29-43d8-906d-2a51c6561f7d","ios":"levelo://app?vid=0e9d92a7-df29-43d8-906d-2a51c6561f7d"},"vehicle_type_id":"4","last_reported":1743239365,"current_range_meters":16400,"station_id":"ce4bhbh2rcd13ifvqepg","pricing_plan_id":"cebpf4jnsgd1na2vs0mg"},{"bike_id":"da21a048-f5c9-4d55-9b7a-8dcd992892ce","system_id":"levelo_inurba_marseille","lat":43.30379,"lon":5.42487,"is_reserved":false,"is_disabled":true,"rental_uris":{"android":"levelo://app?vid=da21a048-f5c9-4d55-9b7a-8dcd992892ce","ios":"levelo://app?vid=da21a048-f5c9-4d55-9b7a-8dcd992892ce"},"vehicle_type_id":"4","last_reported":1743239365,"current_range_meters":16800,"station_id":"ce4bhoh2rcd13ifvqh6g","pricing_plan_id":"cebpf4jnsgd1na2vs0mg"},{"bike_id":"d724537e-d470-448f-bfa0-429e37902de0","system_id":"levelo_inurba_marseille","lat":43.28277,"lon":5.35066,"is_reserved":false,"is_disabled":false,"rental_uris":{"android":"levelo://app?vid=d724537e-d470-448f-bfa0-429e37902de0","ios":"levelo://app?vid=d724537e-d470-448f-bfa0-429e37902de0"},"vehicle_type_id":"4","last_reported":1743239365,"current_range_meters":16800,"station_id":"ce4bhbp2rcd13ifvqerg","pricing_plan_id":"cebpf4jnsgd1na2vs0mg"},{"bike_id":"ea212a2c-ebda-4fd3-87a5-afdf194e9b39","system_id":"levelo_inurba_marseille","lat":43.31588,"lon":5.38935,"is_reserved":false,"is_disabled":false,"rental_uris":{"android":"levelo://app?vid=ea212a2c-ebda-4fd3-87a5-afdf194e9b39","ios":"levelo://app?vid=ea212a2c-ebda-4fd3-87a5-afdf194e9b39"},"vehicle_type_id":"4","last_reported":1743239365,"current_range_meters":16800,"station_id":"","pricing_plan_id":"cebpf4jnsgd1na2vs0mg"},{"bike_id":"860f6837-d8af-4d01-b895-5a0420462367","system_id":"levelo_inurba_marseille","lat":43.303499,"lon":5.418756,"is_reserved":false,"is_disabled":false,"rental_uris":{"android":"levelo://app?vid=860f6837-d8af-4d01-b895-5a0420462367","ios":"levelo://app?vid=860f6837-d8af-4d01-b895-5a0420462367"},"vehicle_type_id":"4","last_reported":1743239365,"current_range_meters":16800,"station_id":"ce4bhop2rcd13ifvqh7g","pricing_plan_id":"cebpf4jnsgd1na2vs0mg"},{"bike_id":"f8feeb6c-4c74-49d7-9bbd-fe1d815b652b","system_id":"levelo_inurba_marseille","lat":43.32362,"lon":5.388945,"is_reserved":false,"is_disabled":false,"rental_uris":{"android":"levelo://app?vid=f8feeb6c-4c74-49d7-9bbd-fe1d815b652b","ios":"levelo://app?vid=f8feeb6c-4c74-49d7-9bbd-fe1d815b652b"},"vehicle_type_id":"4","last_reported":1743239365,"current_range_meters":16800,"station_id":"ce4bhqp2rcd13ifvqhog","pricing_plan_id":"cebpf4jnsgd1na2vs0mg"},{"bike_id":"f00c41d5-3001-4204-9e53-b380623ac516","system_id":"levelo_inurba_marseille","lat":43.34339,"lon":5.41744,"is_reserved":false,"is_disabled":false,"rental_uris":{"android":"levelo://app?vid=f00c41d5-3001-4204-9e53-b380623ac516","ios":"levelo://app?vid=f00c41d5-3001-4204-9e53-b380623ac516"},"vehicle_type_id":"4","last_reported":1743239365,"current_range_meters":16800,"station_id":"","pricing_plan_id":"cebpf4jnsgd1na2vs0mg"},{"bike_id":"7fcdb0f9-3334-43bd-bbaa-eef4e1209a76","system_id":"levelo_inurba_marseille","lat":43.30327,"lon":5.4044,"is_reserved":false,"is_disabled":false,"rental_uris":{"android":"levelo://app?vid=7fcdb0f9-3334-43bd-bbaa-eef4e1209a76","ios":"levelo://app?vid=7fcdb0f9-3334-43bd-bbaa-eef4e1209a76"},"vehicle_type_id":"4","last_reported":1743239365,"current_range_meters":16800,"station_id":"ce4bh012rcd13ifvqd10","pricing_plan_id":"cebpf4jnsgd1na2vs0mg"},{"bike_id":"b27b83ee-bd34-494b-878e-84f69ee4ca06","system_id":"levelo_inurba_marseille","lat":43.29958,"lon":5.3655,"is_reserved":false,"is_disabled":false,"rental_uris":{"android":"levelo://app?vid=b27b83ee-bd34-494b-878e-84f69ee4ca06","ios":"levelo://app?vid=b27b83ee-bd34-494b-878e-84f69ee4ca06"},"vehicle_type_id":"4","last_reported":1743239365,"current_range_meters":17200,"station_id":"ce4bgm92rcd13ifvqbr0","pricing_plan_id":"cebpf4jnsgd1na2vs0mg"},{"bike_id":"d12ba4a0-e517-4edf-9739-9b09eb285b12","system_id":"levelo_inurba_marseille","lat":43.27211,"lon":5.39182,"is_reserved":false,"is_disabled":false,"rental_uris":{"android":"levelo://app?vid=d12ba4a0-e517-4edf-9739-9b09eb285b12","ios":"levelo://app?vid=d12ba4a0-e517-4edf-9739-9b09eb285b12"},"vehicle_type_id":"4","last_reported":1743239365,"current_range_meters":17200,"station_id":"ce4bhhp2rcd13ifvqfm0","pricing_plan_id":"cebpf4jnsgd1na2vs0mg"},{"bike_id":"57574d51-3863-4dfd-a480-3fb0acc908a0","system_id":"levelo_inurba_marseille","lat":43.28613,"lon":5.35124,"is_reserved":false,"is_disabled":false,"rental_uris":{"android":"levelo://app?vid=57574d51-3863-4dfd-a480-3fb0acc908a0","ios":"levelo://app?vid=57574d51-3863-4dfd-a480-3fb0acc908a0"},"vehicle_type_id":"4","last_reported":1743239365,"current_range_meters":17200,"station_id":"ce4bhch2rcd13ifvqeug","pricing_plan_id":"cebpf4jnsgd1na2vs0mg"},{"bike_id":"59359988-faf5-47a1-b5f8-d319a6e1abfa","system_id":"levelo_inurba_marseille","lat":43.28409,"lon":5.34978,"is_reserved":false,"is_disabled":false,"rental_uris":{"android":"levelo://app?vid=59359988-faf5-47a1-b5f8-d319a6e1abfa","ios":"levelo://app?vid=59359988-faf5-47a1-b5f8-d319a6e1abfa"},"vehicle_type_id":"4","last_reported":1743239365,"current_range_meters":17200,"station_id":"ce4bhbh2rcd13ifvqepg","pricing_plan_id":"cebpf4jnsgd1na2vs0mg"},{"bike_id":"38536edd-6596-40c2-93a9-221abfa20013","system_id":"levelo_inurba_marseille","lat":43.29272,"lon":5.3685,"is_reserved":false,"is_disabled":false,"rental_uris":{"android":"levelo://app?vid=38536edd-6596-40c2-93a9-221abfa20013","ios":"levelo://app?vid=38536edd-6596-40c2-93a9-221abfa20013"},"vehicle_type_id":"4","last_reported":1743239365,"current_range_meters":17200,"station_id":"ce4bhbp2rcd13ifvqesg","pricing_plan_id":"cebpf4jnsgd1na2vs0mg"},{"bike_id":"2559d63b-f0fc-4aac-8df6-4ce95166fb40","system_id":"levelo_inurba_marseille","lat":43.262018,"lon":5.379255,"is_reserved":false,"is_disabled":true,"rental_uris":{"android":"levelo://app?vid=2559d63b-f0fc-4aac-8df6-4ce95166fb40","ios":"levelo://app?vid=2559d63b-f0fc-4aac-8df6-4ce95166fb40"},"vehicle_type_id":"4","last_reported":1743239365,"current_range_meters":17200,"station_id":"ce4bhjp2rcd13ifvqg90","pricing_plan_id":"cebpf4jnsgd1na2vs0mg"},{"bike_id":"0a054900-ac8c-4b77-a7f1-aac9c1d65319","system_id":"levelo_inurba_marseille","lat":43.22937,"lon":5.35392,"is_reserved":false,"is_disabled":false,"rental_uris":{"android":"levelo://app?vid=0a054900-ac8c-4b77-a7f1-aac9c1d65319","ios":"levelo://app?vid=0a054900-ac8c-4b77-a7f1-aac9c1d65319"},"vehicle_type_id":"4","last_reported":1743239365,"current_range_meters":17200,"station_id":"cpo3532slgdg3j2ikp40","pricing_plan_id":"cebpf4jnsgd1na2vs0mg"},