{"last_updated":1774787506,"ttl":60,"version":"2.2","data":{"bikes":[{"bike_id":"c82691aa-ba67-49e2-8ab8-9f87a1546b96","system_id":"levelo_inurba_marseille","lat":43.23195,"lon":5.35539,"is_reserved":false,"is_disabled":false,"rental_uris":{"android":"levelo://app?vid=c82691aa-ba67-49e2-8ab8-9f87a1546b96","ios":"levelo://app?vid=c82691aa-ba67-49e2-8ab8-9f87a1546b96"},"vehicle_type_id":"4","last_reported":1774787507,"current_range_meters":2800,"station_id":"ce4bhu92rcd13ifvqi70","pricing_plan_id":"cebpf4jnsgd1na2vs0mg"},{"bike_id":"253bfbd1-c3f6-4b72-a716-55890f3b4db7","system_id":"levelo_inurba_marseille","lat":43.28509,"lon":5.48366,"is_reserved":false,"is_disabled":false,"rental_uris":{"android":"levelo://app?vid=253bfbd1-c3f6-4b72-a716-55890f3b4db7","ios":"levelo://app?vid=253bfbd1-c3f6-4b72-a716-55890f3b4db7"},"vehicle_type_id":"4","last_reported":1774787507,"current_range_meters":2800,"station_id":"","pricing_plan_id":"cebpf4jnsgd1na2vs0mg"},{"bike_id":"fda2d77b-30f1-450d-ae09-39beb5f69eaa","system_id":"levelo_inurba_marseille","lat":43.2957,"lon":5.37494,"is_reserved":false,"is_disabled":false,"rental_uris":{"android":"levelo://app?vid=fda2d77b-30f1-450d-ae09-39beb5f69eaa","ios":"levelo://app?vid=fda2d77b-30f1-450d-ae09-39beb5f69eaa"},"vehicle_type_id":"4","last_reported":1774787507,"current_range_meters":2800,"station_id":"ce4bgh92rcd13ifvqb50","pricing_plan_id":"cebpf4jnsgd1na2vs0mg"},{"bike_id":"f01b192e-7aa3-4959-afd0-3354d8e77ca6","system_id":"levelo_inurba_marseille","lat":43.2978,"lon":5.37092,"is_reserved":false,"is_disabled":false,"rental_uris":{"android":"levelo://app?vid=f01b192e-7aa3-4959-afd0-3354d8e77ca6","ios":"levelo://app?vid=f01b192e-7aa3-4959-afd0-3354d8e77ca6"},"vehicle_type_id":"4","last_reported":1774787507,"current_range_meters":2800,"station_id":"ce4bgop2rcd13ifvqc1g","pricing_plan_id":"cebpf4jnsgd1na2vs0mg"},{"bike_id":"095d3dfd-7913-48cf-adc6-11f38fc63e1a","system_id":"levelo_inurba_marseille","lat":43.25231,"lon":5.38038,"is_reserved":false,"is_disabled":false,"rental_uris":{"android":"levelo://app?vid=095d3dfd-7913-48cf-adc6-11f38fc63e1a","ios":"levelo://app?vid=095d3dfd-7913-48cf-adc6-11f38fc63e1a"},"vehicle_type_id":"4","last_reported":1774787507,"current_range_meters":2800,"station_id":"","pricing_plan_id":"cebpf4jnsgd1na2vs0mg"},{"bike_id":"6f348649-3b5a-4143-911c-4cd4b0517f43","system_id":"levelo_inurba_marseille","lat":43.3045,"lon":5.37569,"is_reserved":false,"is_disabled":false,"rental_uris":{"android":"levelo://app?vid=6f348649-3b5a-4143-911c-4cd4b0517f43","ios":"levelo://app?vid=6f348649-3b5a-4143-911c-4cd4b0517f43"},"vehicle_type_id":"4","last_reported":1774787507,"current_range_meters":3200,"station_id":"","pricing_plan_id":"cebpf4jnsgd1na2vs0mg"},{"bike_id":"4f129c1b-6e45-46c4-910f-c0b5dcfec85b","system_id":"levelo_inurba_marseille","lat":43.29935,"lon":5.36502,"is_reserved":false,"is_disabled":true,"rental_uris":{"android":"levelo://app?vid=4f129c1b-6e45-46c4-910f-c0b5dcfec85b","ios":"levelo://app?vid=4f129c1b-6e45-46c4-910f-c0b5dcfec85b"},"vehicle_type_id":"4","last_reported":1774787507,"current_range_meters":3200,"station_id":"ce4bgm92rcd13ifvqbr0","pricing_plan_id":"cebpf4jnsgd1na2vs0mg"},{"bike_id":"d91c32bd-f3d6-46b4-8dba-4d34de60f7e4","system_id":"levelo_inurba_marseille","lat":43.28857,"lon":5.35863,"is_reserved":false,"is_disabled":false,"rental_uris":{"android":"levelo://app?vid=d91c32bd-f3d6-46b4-8dba-4d34de60f7e4","ios":"levelo://app?vid=d91c32bd-f3d6-46b4-8dba-4d34de60f7e4"},"vehicle_type_id":"4","last_reported":1774787507,"current_range_meters":3200,"station_id":"ce4bhb12rcd13ifvqem0","pricing_plan_id":"cebpf4jnsgd1na2vs0mg"},{"bike_id":"9838442e-79cd-4f6a-bff7-a0fb829a22f1","system_id":"levelo_inurba_marseille","lat":43.29088,"lon":5.36646,"is_reserved":false,"is_disabled":false,"rental_uris":{"android":"levelo://app?vid=9838442e-79cd-4f6a-bff7-a0fb829a22f1","ios":"levelo://app?vid=9838442e-79cd-4f6a-bff7-a0fb829a22f1"},"vehicle_type_id":"4","last_reported":1774787507,"current_range_meters":3200,"station_id":"","pricing_plan_id":"cebpf4jnsgd1na2vs0mg"},{"bike_id":"dd248d32-c868-4ae4-b5b3-29ece18e5679","system_id":"levelo_inurba_marseille","lat":43.27618,"lon":5.36107,"is_reserved":false,"is_disabled":false,"rental_uris":{"android":"levelo://app?vid=dd248d32-c868-4ae4-b5b3-29ece18e5679","ios":"levelo://app?vid=dd248d32-c868-4ae4-b5b3-29ece18e5679"},"vehicle_type_id":"4","last_reported":1774787507,"current_range_meters":3200,"station_id":"ce4bgj92rcd13ifvqbe0","pricing_plan_id":"cebpf4jnsgd1na2vs0mg"},{"bike_id":"3137e3ea-7797-4cae-a237-2a996dd9ad4a","system_id":"levelo_inurba_marseille","lat":43.2848,"lon":5.48396,"is_reserved":false,"is_disabled":false,"rental_uris":{"android":"levelo://app?vid=3137e3ea-7797-4cae-a237-2a996dd9ad4a","ios":"levelo://app?vid=3137e3ea-7797-4cae-a237-2a996dd9ad4a"},"vehicle_type_id":"4","last_reported":1774787507,"current_range_meters":3600,"station_id":"","pricing_plan_id":"cebpf4jnsgd1na2vs0mg"},{"bike_id":"c924a7ad-5380-4b8b-8127-b880c2e93ca9","system_id":"levelo_inurba_marseille","lat":43.29636,"lon":5.40584,"is_reserved":false,"is_disabled":false,"rental_uris":{"android":"levelo://app?vid=c924a7ad-5380-4b8b-8127-b880c2e93ca9","ios":"levelo://app?vid=c924a7ad-5380-4b8b-8127-b880c2e93ca9"},"vehicle_type_id":"4","last_reported":1774787507,"current_range_meters":3600,"station_id":"ce4bh0h2rcd13ifvqd60","pricing_plan_id":"cebpf4jnsgd1na2vs0mg"},{"bike_id":"601e68f3-b3b7-4a82-ae2b-e2230d0158f3","system_id":"levelo_inurba_marseille","lat":43.29973,"lon":5.37178,"is_reserved":false,"is_disabled":false,"rental_uris":{"android":"levelo://app?vid=601e68f3-b3b7-4a82-ae2b-e2230d0158f3","ios":"levelo://app?vid=601e68f3-b3b7-4a82-ae2b-e2230d0158f3"},"vehicle_type_id":"4","last_reported":1774787507,"current_range_meters":3600,"station_id":"ce4bgr92rcd13ifvqc7g","pricing_plan_id":"cebpf4jnsgd1na2vs0mg"},{"bike_id":"42ac2f6b-68e9-415e-abf4-d533376356a8","system_id":"levelo_inurba_marseille","lat":43.29534,"lon":5.38654,"is_reserved":false,"is_disabled":false,"rental_uris":{"android":"levelo://app?vid=42ac2f6b-68e9-415e-abf4-d533376356a8","ios":"levelo://app?vid=42ac2f6b-68e9-415e-abf4-d533376356a8"},"vehicle_type_id":"4","last_reported":1774787507,"current_range_meters":3600,"station_id":"","pricing_plan_id":"cebpf4jnsgd1na2vs0mg"},{"bike_id":"76afd0f9-39c6-4d10-a3a3-3323a029e46a","system_id":"levelo_inurba_marseille","lat":43.23382,"lon":5.41243,"is_reserved":false,"is_disabled":false,"rental_uris":{"android":"levelo://app?vid=76afd0f9-39c6-4d10-a3a3-3323a029e46a","ios":"levelo://app?vid=76afd0f9-39c6-4d10-a3a3-3323a029e46a"},"vehicle_type_id":"4","last_reported":1774787507,"current_range_meters":3600,"station_id":"","pricing_plan_id":"cebpf4jnsgd1na2vs0mg"},{"bike_id":"b6d75310-1f09-4d3a-82e5-bf0096756e96","system_id":"levelo_inurba_marseille","lat":43.28537,"lon":5.44081,"is_reserved":false,"is_disabled":false,"rental_uris":{"android":"levelo://app?vid=b6d75310-1f09-4d3a-82e5-bf0096756e96","ios":"levelo://app?vid=b6d75310-1f09-4d3a-82e5-bf0096756e96"},"vehicle_type_id":"4","last_reported":1774787507,"current_range_meters":3600,"station_id":"st_d3j3df2ikq2c7380ej80","pricing_plan_id":"cebpf4jnsgd1na2vs0mg"},{"bike_id":"1a7fb594-fd28-4248-9991-4acd93df2a8c","system_id":"levelo_inurba_marseille","lat":43.29975,"lon":5.38495,"is_reserved":false,"is_disabled":true,"rental_uris":{"android":"levelo://app?vid=1a7fb594-fd28-4248-9991-4acd93df2a8c","ios":"levelo://app?vid=1a7fb594-fd28-4248-9991-4acd93df2a8c"},"vehicle_type_id":"4","last_reported":1774787507,"current_range_meters":3600,"station_id":"ce4bgj92rcd13ifvqbd0","pricing_plan_id":"cebpf4jnsgd1na2vs0mg"},{"bike_id":"c26ece64-6cbd-4eef-8650-174002bd185b","system_id":"levelo_inurba_marseille","lat":43.22557,"lon":5.4164,"is_reserved":false,"is_disabled":false,"rental_uris":{"android":"levelo://app?vid=c26ece64-6cbd-4eef-8650-174002bd185b","ios":"levelo://app?vid=c26ece64-6cbd-4eef-8650-174002bd185b"},"vehicle_type_id":"4","last_reported":1774787507,"current_range_meters":3600,"station_id":"st_d2o4gvlbi1j2169b742g","pricing_plan_id":"cebpf4jnsgd1na2vs0mg"},{"bike_id":"44c4f8e8-bf4e-499e-a390-242ea5035213","system_id":"levelo_inurba_marseille","lat":43.28622,"lon":5.35085,"is_reserved":false,"is_disabled":false,"rental_uris":{"android":"levelo://app?vid=44c4f8e8-bf4e-499e-a390-242ea5035213","ios":"levelo://app?vid=44c4f8e8-bf4e-499e-a390-242ea5035213"},"vehicle_type_id":"4","last_reported":1774787507,"current_range_meters":3600,"station_id":"ce4bhch2rcd13ifvqeug","pricing_plan_id":"cebpf4jnsgd1na2vs0mg"},{"bike_id":"fcd96e6e-5337-4617-85cb-948954f9c95a","system_id":"levelo_inurba_marseille","lat":43.29493,"lon":5.43287,"is_reserved":false,"is_disabled":false,"rental_uris":{"android":"levelo://app?vid=fcd96e6e-5337-4617-85cb-948954f9c95a","ios":"levelo://app?vid=fcd96e6e-5337-4617-85cb-948954f9c95a"},"vehicle_type_id":"4","last_reported":1774787507,"current_range_meters":3600,"station_id":"st_d3j5ugp08ojc73fj9d10","pricing_plan_id":"cebpf4jnsgd1na2vs0mg"},{"bike_id":"2b165c85-8fd6-474e-b450-eb800151af1b","system_id":"levelo_inurba_marseille","lat":43.2293,"lon":5.35377,"is_reserved":false,"is_disabled":false,"rental_uris":{"android":"levelo://app?vid=2b165c85-8fd6-474e-b450-eb800151af1b","ios":"levelo://app?vid=2b165c85-8fd6-474e-b450-eb800151af1b"},"vehicle_type_id":"4","last_reported":1774787507,"current_range_meters":3600,"station_id":"cpo3532slgdg3j2ikp40","pricing_plan_id":"cebpf4jnsgd1na2vs0mg"},{"bike_id":"e1890812-482e-44ca-9155-8025277e0cc6","system_id":"levelo_inurba_marseille","lat":43.27838,"lon":5.39191,"is_reserved":false,"is_disabled":false,"rental_uris":{"android":"levelo://app?vid=e1890812-482e-44ca-9155-8025277e0cc6","ios":"levelo://app?vid=e1890812-482e-44ca-9155-8025277e0cc6"},"vehicle_type_id":"4","last_reported":1774787507,"current_range_meters":4000,"station_id":"ce4bhjp2rcd13ifvqga0","pricing_plan_id":"cebpf4jnsgd1na2vs0mg"},{"bike_id":"51bce78c-bc3c-4784-8de9-77f753713ae5","system_id":"levelo_inurba_marseille","lat":43.31336,"lon":5.36722,"is_reserved":false,"is_disabled":false,"rental_uris":{"android":"levelo://app?vid=51bce78c-bc3c-4784-8de9-77f753713ae5","ios":"levelo://app?vid=51bce78c-bc3c-4784-8de9-77f753713ae5"},"vehicle_type_id":"4","last_reported":1774787507,"current_range_meters":4000,"station_id":"ce4bgr92rcd13ifvqc6g","pricing_plan_id":"cebpf4jnsgd1na2vs0mg"},{"bike_id":"451a5f24-c040-4b1d-af60-c45f4f404333","system_id":"levelo_inurba_marseille","lat":43.23897,"lon":5.37418,"is_reserved":false,"is_disabled":false,"rental_uris":{"android":"levelo://app?vid=451a5f24-c040-4b1d-af60-c45f4f404333","ios":"levelo://app?vid=451a5f24-c040-4b1d-af60-c45f4f404333"},"vehicle_type_id":"4","last_reported":1774787507,"current_range_meters":4000,"station_id":"st_d6sm7csbq4hs73f8fpjg","pricing_plan_id":"cebpf4jnsgd1na2vs0mg"},{"bike_id":"cd54dc5b-eef2-49ee-a6fa-402f58aeed05","system_id":"levelo_inurba_marseille","lat":43.3305,"lon":5.39025,"is_reserved":false,"is_disabled":false,"rental_uris":{"android":"levelo://app?vid=cd54dc5b-eef2-49ee-a6fa-402f58aeed05","ios":"levelo://app?vid=cd54dc5b-eef2-49ee-a6fa-402f58aeed05"},"vehicle_type_id":"4","last_reported":1774787507,"current_range_meters":4000,"station_id":"ce4bhr92rcd13ifvqhrg","pricing_plan_id":"cebpf4jnsgd1na2vs0mg"},{"bike_id":"c420f719-a4cc-4702-b6da-68e6d0f37e6c","system_id":"levelo_inurba_marseille","lat":43.28535,"lon":5.44081,"is_reserved":false,"is_disabled":false,"rental_uris":{"android":"levelo://app?vid=c420f719-a4cc-4702-b6da-68e6d0f37e6c","ios":"levelo://app?vid=c420f719-a4cc-4702-b6da-68e6d0f37e6c"},"vehicle_type_id":"4","last_reported":1774787507,"current_range_meters":4000,"station_id":"st_d3j3df2ikq2c7380ej80","pricing_plan_id":"cebpf4jnsgd1na2vs0mg"},{"bike_id":"24579790-dbc0-48f5-9802-612c25e33241","system_id":"levelo_inurba_marseille","lat":43.28548,"lon":5.44105,"is_reserved":false,"is_disabled":false,"rental_uris":{"android":"levelo://app?vid=24579790-dbc0-48f5-9802-612c25e33241","ios":"levelo://app?vid=24579790-dbc0-48f5-9802-612c25e33241"},"vehicle_type_id":"4","last_reported":1774787507,"current_range_meters":4000,"station_id":"st_d3j3df2ikq2c7380ej80","pricing_plan_id":"cebpf4jnsgd1na2vs0mg"},{"bike_id":"037db2a8-476c-4e7e-9e7a-e93e170ee11d","system_id":"levelo_inurba_marseille","lat":43.23067,"lon":5.3549,"is_reserved":false,"is_disabled":false,"rental_uris":{"android":"levelo://app?vid=037db2a8-476c-4e7e-9e7a-e93e170ee11d","ios":"levelo://app?vid=037db2a8-476c-4e7e-9e7a-e93e170ee11d"},"vehicle_type_id":"4","last_reported":1774787507,"current_range_meters":4000,"station_id":"cpo3342slgdg3j2ifvpg","pricing_plan_id":"cebpf4jnsgd1na2vs0mg"},{"bike_id":"f057f137-0cac-4b50-91e6-948f8581886d","system_id":"levelo_inurba_marseille","lat":43.24663,"lon":5.38164,"is_reserved":false,"is_disabled":false,"rental_uris":{"android":"levelo://app?vid=f057f137-0cac-4b50-91e6-948f8581886d","ios":"levelo://app?vid=f057f137-0cac-4b50-91e6-948f8581886d"},"vehicle_type_id":"4","last_reported":1774787507,"current_range_meters":4000,"station_id":"ce4bhih2rcd13ifvqfr0","pricing_plan_id":"cebpf4jnsgd1na2vs0mg"},{"bike_id":"44e6ef2e-f582-4dae-8b58-95600b73b872","system_id":"levelo_inurba_marseille","lat":43.33539,"lon":5.3747,"is_reserved":false,"is_disabled":false,"rental_uris":{"android":"levelo://app?vid=44e6ef2e-f582-4dae-8b58-95600b73b872","ios":"levelo://app?vid=44e6ef2e-f582-4dae-8b58-95600b73b872"},"vehicle_type_id":"4","last_reported":1774787507,"current_range_meters":4000,"station_id":"st_d46tts09ee8s73dlu43g","pricing_plan_id":"cebpf4jnsgd1na2vs0mg"},{"bike_id":"290afd09-0584-4963-a797-1ed96debbdfe","system_id":"levelo_inurba_marseille","lat":43.21185,"lon":5.35061,"is_reserved":false,"is_disabled":false,"rental_uris":{"android":"levelo://app?vid=290afd09-0584-4963-a797-1ed96debbdfe","ios":"levelo://app?vid=290afd09-0584-4963-a797-1ed96debbdfe"},"vehicle_type_id":"4","last_reported":1774787507,"current_range_meters":4400,"station_id":"st_cvj6sg6p6f1abm77japg","pricing_plan_id":"cebpf4jnsgd1na2vs0mg"},{"bike_id":"7fb91986-23eb-460b-b5f2-f64a7d4c80d6","system_id":"levelo_inurba_marseille","lat":43.23193,"lon":5.35559,"is_reserved":false,"is_disabled":false,"rental_uris":{"android":"levelo://app?vid=7fb91986-23eb-460b-b5f2-f64a7d4c80d6","ios":"levelo://app?vid=7fb91986-23eb-460b-b5f2-f64a7d4c80d6"},"vehicle_type_id":"4","last_reported":1774787507,"current_range_meters":4400,"station_id":"ce4bhu92rcd13ifvqi70","pricing_plan_id":"cebpf4jnsgd1na2vs0mg"},{"bike_id":"c8e3f134-bd1d-4bd8-925f-75061382b49c","system_id":"levelo_inurba_marseille","lat":43.2954,"lon":5.38652,"is_reserved":false,"is_disabled":false,"rental_uris":{"android":"levelo://app?vid=c8e3f134-bd1d-4bd8-925f-75061382b49c","ios":"levelo://app?vid=c8e3f134-bd1d-4bd8-925f-75061382b49c"},"vehicle_type_id":"4","last_reported":1774787507,"current_range_meters":4400,"station_id":"","pricing_plan_id":"cebpf4jnsgd1na2vs0mg"},{"bike_id":"899c9f36-9b83-4ce9-bd7d-0f95dd541b6a","system_id":"levelo_inurba_marseille","lat":43.32345,"lon":5.36745,"is_reserved":false,"is_disabled":false,"rental_uris":{"android":"levelo://app?vid=899c9f36-9b83-4ce9-bd7d-0f95dd541b6a","ios":"levelo://app?vid=899c9f36-9b83-4ce9-bd7d-0f95dd541b6a"},"vehicle_type_id":"4","last_reported":1774787507,"current_range_meters":4400,"station_id":"ce4bhsh2rcd13ifvqi2g","pricing_plan_id":"cebpf4jnsgd1na2vs0mg"},{"bike_id":"07f80e43-fb47-44d0-a0d9-ef8abee5c944","system_id":"levelo_inurba_marseille","lat":43.22569,"lon":5.41625,"is_reserved":false,"is_disabled":false,"rental_uris":{"android":"levelo://app?vid=07f80e43-fb47-44d0-a0d9-ef8abee5c944","ios":"levelo://app?vid=07f80e43-fb47-44d0-a0d9-ef8abee5c944"},"vehicle_type_id":"4","last_reported":1774787507,"current_range_meters":4400,"station_id":"st_d2o4gvlbi1j2169b742g","pricing_plan_id":"cebpf4jnsgd1na2vs0mg"},{"bike_id":"f8d401ea-d032-4e17-b855-b6e19a8fece9","system_id":"levelo_inurba_marseille","lat":43.21754,"lon":5.34591,"is_reserved":false,"is_disabled":false,"rental_uris":{"android":"levelo://app?vid=f8d401ea-d032-4e17-b855-b6e19a8fece9","ios":"levelo://app?vid=f8d401ea-d032-4e17-b855-b6e19a8fece9"},"vehicle_type_id":"4","last_reported":1774787507,"current_range_meters":4400,"station_id":"st_cvj6r9ubvosntc0bgbag","pricing_plan_id":"cebpf4jnsgd1na2vs0mg"},{"bike_id":"3ff24676-23bf-45ec-b0f9-26c82beab495","system_id":"levelo_inurba_marseille","lat":43.2467,"lon":5.38126,"is_reserved":false,"is_disabled":false,"rental_uris":{"android":"levelo://app?vid=3ff24676-23bf-45ec-b0f9-26c82beab495","ios":"levelo://app?vid=3ff24676-23bf-45ec-b0f9-26c82beab495"},"vehicle_type_id":"4","last_reported":1774787507,"current_range_meters":4400,"station_id":"ce4bhih2rcd13ifvqfr0","pricing_plan_id":"cebpf4jnsgd1na2vs0mg"},{"bike_id":"e5e08ad1-e7e1-4437-a773-1e8c1fe104ed","system_id":"levelo_inurba_marseille","lat":43.2798,"lon":5.41655,"is_reserved":false,"is_disabled":false,"rental_uris":{"android":"levelo://app?vid=e5e08ad1-e7e1-4437-a773-1e8c1fe104ed","ios":"levelo://app?vid=e5e08ad1-e7e1-4437-a773-1e8c1fe104ed"},"vehicle_type_id":"4","last_reported":1774787507,"current_range_meters":4400,"station_id":"ce4bho12rcd13ifvqh1g","pricing_plan_id":"cebpf4jnsgd1na2vs0mg"},{"bike_id":"825bca4a-aff7-48e8-8885-db808d49f605","system_id":"levelo_inurba_marseille","lat":43.25492,"lon":5.3763,"is_reserved":false,"is_disabled":false,"rental_uris":{"android":"levelo://app?vid=825bca4a-aff7-48e8-8885-db808d49f605","ios":"levelo://app?vid=825bca4a-aff7-48e8-8885-db808d49f605"},"vehicle_type_id":"4","last_reported":1774787507,"current_range_meters":4400,"station_id":"ce4bhh12rcd13ifvqff0","pricing_plan_id":"cebpf4jnsgd1na2vs0mg"},{"bike_id":"2bf237c2-c4a5-409d-aaf2-b153a3e1ff10","system_id":"levelo_inurba_marseille","lat":43.21762,"lon":5.34612,"is_reserved":false,"is_disabled":false,"rental_uris":{"android":"levelo://app?vid=2bf237c2-c4a5-409d-aaf2-b153a3e1ff10","ios":"levelo://app?vid=2bf237c2-c4a5-409d-aaf2-b153a3e1ff10"},"vehicle_type_id":"4","last_reported":1774787507,"current_range_meters":4800,"station_id":"st_cvj6r9ubvosntc0bgbag","pricing_plan_id":"cebpf4jnsgd1na2vs0mg"},{"bike_id":"b440f915-7c96-42ea-b473-2e75d3f76e0e","system_id":"levelo_inurba_marseille","lat":43.28408,"lon":5.34963,"is_reserved":false,"is_disabled":false,"rental_uris":{"android":"levelo://app?vid=b440f915-7c96-42ea-b473-2e75d3f76e0e","ios":"levelo://app?vid=b440f915-7c96-42ea-b473-2e75d3f76e0e"},"vehicle_type_id":"4","last_reported":1774787507,"current_range_meters":4800,"station_id":"ce4bhbh2rcd13ifvqepg","pricing_plan_id":"cebpf4jnsgd1na2vs0mg"},{"bike_id":"1bebdd87-eb20-43f1-8d96-9fdb37cf655b","system_id":"levelo_inurba_marseille","lat":43.2953,"lon":5.38667,"is_reserved":false,"is_disabled":false,"rental_uris":{"android":"levelo://app?vid=1bebdd87-eb20-43f1-8d96-9fdb37cf655b","ios":"levelo://app?vid=1bebdd87-eb20-43f1-8d96-9fdb37cf655b"},"vehicle_type_id":"4","last_reported":1774787507,"current_range_meters":4800,"station_id":"","pricing_plan_id":"cebpf4jnsgd1na2vs0mg"},{"bike_id":"c09263af-5f3c-4487-9b20-dca4afc4c1ed","system_id":"levelo_inurba_marseille","lat":43.28619,"lon":5.35075,"is_reserved":false,"is_disabled":false,"rental_uris":{"android":"levelo://app?vid=c09263af-5f3c-4487-9b20-dca4afc4c1ed","ios":"levelo://app?vid=c09263af-5f3c-4487-9b20-dca4afc4c1ed"},"vehicle_type_id":"4","last_reported":1774787507,"current_range_meters":4800,"station_id":"ce4bhch2rcd13ifvqeug","pricing_plan_id":"cebpf4jnsgd1na2vs0mg"},{"bike_id":"7d993648-4329-4d39-96ae-b41daf5adec8","system_id":"levelo_inurba_marseille","lat":43.303205,"lon":5.392387,"is_reserved":false,"is_disabled":false,"rental_uris":{"android":"levelo://app?vid=7d993648-4329-4d39-96ae-b41daf5adec8","ios":"levelo://app?vid=7d993648-4329-4d39-96ae-b41daf5adec8"},"vehicle_type_id":"4","last_reported":1774787507,"current_range_meters":4800,"station_id":"ce4bgkh2rcd13ifvqbk0","pricing_plan_id":"cebpf4jnsgd1na2vs0mg"},{"bike_id":"2194c3e1-98f8-47bc-a8ab-c697b71e9c69","system_id":"levelo_inurba_marseille","lat":43.24553,"lon":5.39516,"is_reserved":false,"is_disabled":false,"rental_uris":{"android":"levelo://app?vid=2194c3e1-98f8-47bc-a8ab-c697b71e9c69","ios":"levelo://app?vid=2194c3e1-98f8-47bc-a8ab-c697b71e9c69"},"vehicle_type_id":"4","last_reported":1774787507,"current_range_meters":4800,"station_id":"ce4bhlp2rcd13ifvqgjg","pricing_plan_id":"cebpf4jnsgd1na2vs0mg"},{"bike_id":"9c90e154-1ad6-4039-8066-16f77ee3b88c","system_id":"levelo_inurba_marseille","lat":43.29535,"lon":5.38654,"is_reserved":false,"is_disabled":false,"rental_uris":{"android":"levelo://app?vid=9c90e154-1ad6-4039-8066-16f77ee3b88c","ios":"levelo://app?vid=9c90e154-1ad6-4039-8066-16f77ee3b88c"},"vehicle_type_id":"4","last_reported":1774787507,"current_range_meters":4800,"station_id":"","pricing_plan_id":"cebpf4jnsgd1na2vs0mg"},{"bike_id":"c6f90e2b-88f1-460b-81b2-8507b7e5ba85","system_id":"levelo_inurba_marseille","lat":43.29026,"lon":5.38643,"is_reserved":false,"is_disabled":false,"rental_uris":{"android":"levelo://app?vid=c6f90e2b-88f1-460b-81b2-8507b7e5ba85","ios":"levelo://app?vid=c6f90e2b-88f1-460b-81b2-8507b7e5ba85"},"vehicle_type_id":"4","last_reported":1774787507,"current_range_meters":4800,"station_id":"ce4bh4p2rcd13ifvqe0g","pricing_plan_id":"cebpf4jnsgd1na2vs0mg"},{"bike_id":"c2981b41-70b3-4e70-8d06-dc1902aed07f","system_id":"levelo_inurba_marseille","lat":43.28621,"lon":5.35092,"is_reserved":false,"is_disabled":false,"rental_uris":{"android":"levelo://app?vid=c2981b41-70b3-4e70-8d06-dc1902aed07f","ios":"levelo://app?vid=c2981b41-70b3-4e70-8d06-dc1902aed07f"},"vehicle_type_id":"4","last_reported":1774787507,"current_range_meters":4800,"station_id":"ce4bhch2rcd13ifvqeug","pricing_plan_id":"cebpf4jnsgd1na2vs0mg"},{"bike_id":"b1e731c5-a019-40fb-b94c-b458e0eddb64","system_id":"levelo_inurba_marseille","lat":43.23761,"lon":5.38489,"is_reserved":false,"is_disabled":false,"rental_uris":{"android":"levelo://app?vid=b1e731c5-a019-40fb-b94c-b458e0eddb64","ios":"levelo://app?vid=b1e731c5-a019-40fb-b94c-b458e0eddb64"},"vehicle_type_id":"4","last_reported":1774787507,"current_range_meters":5600,"station_id":"","pricing_plan_id":"cebpf4jnsgd1na2vs0mg"},{"bike_id":"5d490b95-0f21-4f16-b6a0-c5beac32f58f","system_id":"levelo_inurba_marseille","lat":43.30959,"lon":5.3903,"is_reserved":false,"is_disabled":true,"rental_uris":{"android":"levelo://app?vid=5d490b95-0f21-4f16-b6a0-c5beac32f58f","ios":"levelo://app?vid=5d490b95-0f21-4f16-b6a0-c5beac32f58f"},"vehicle_type_id":"4","last_reported":1774787507,"current_range_meters":5600,"station_id":"ce4bgup2rcd13ifvqco0","pricing_plan_id":"cebpf4jnsgd1na2vs0mg"},{"bike_id":"a334d62f-56c3-4832-b179-2367c719aa28","system_id":"levelo_inurba_marseille","lat":43.25118,"lon":5.40316,"is_reserved":false,"is_disabled":false,"rental_uris":{"android":"levelo://app?vid=a334d62f-56c3-4832-b179-2367c719aa28","ios":"levelo://app?vid=a334d62f-56c3-4832-b179-2367c719aa28"},"vehicle_type_id":"4","last_reported":1774787507,"current_range_meters":5600,"station_id":"ce4bhlh2rcd13ifvqgig","pricing_plan_id":"cebpf4jnsgd1na2vs0mg"},{"bike_id":"2c46e4b0-a2ca-415e-8d0e-765460846233","system_id":"levelo_inurba_marseille","lat":43.23148,"lon":5.43728,"is_reserved":false,"is_disabled":false,"rental_uris":{"android":"levelo://app?vid=2c46e4b0-a2ca-415e-8d0e-765460846233","ios":"levelo://app?vid=2c46e4b0-a2ca-415e-8d0e-765460846233"},"vehicle_type_id":"4","last_reported":1774787507,"current_range_meters":5600,"station_id":"ce4bhmp2rcd13ifvqgog","pricing_plan_id":"cebpf4jnsgd1na2vs0mg"},{"bike_id":"9bc0b937-b0d9-43c5-9555-6ff47bb13b73","system_id":"levelo_inurba_marseille","lat":43.33149,"lon":5.37701,"is_reserved":false,"is_disabled":false,"rental_uris":{"android":"levelo://app?vid=9bc0b937-b0d9-43c5-9555-6ff47bb13b73","ios":"levelo://app?vid=9bc0b937-b0d9-43c5-9555-6ff47bb13b73"},"vehicle_type_id":"4","last_reported":1774787507,"current_range_meters":5600,"station_id":"st_d46cu089ee8s73dldbu0","pricing_plan_id":"cebpf4jnsgd1na2vs0mg"},{"bike_id":"67c1c6e6-4211-4250-be02-a52880e1c23a","system_id":"levelo_inurba_marseille","lat":43.26514,"lon":5.40739,"is_reserved":false,"is_disabled":false,"rental_uris":{"android":"levelo://app?vid=67c1c6e6-4211-4250-be02-a52880e1c23a","ios":"levelo://app?vid=67c1c6e6-4211-4250-be02-a52880e1c23a"},"vehicle_type_id":"4","last_reported":1774787507,"current_range_meters":5600,"station_id":"","pricing_plan_id":"cebpf4jnsgd1na2vs0mg"},{"bike_id":"9473938d-ad30-47cc-bdec-3acb033f8baf","system_id":"levelo_inurba_marseille","lat":43.23056,"lon":5.35485,"is_reserved":false,"is_disabled":false,"rental_uris":{"android":"levelo://app?vid=9473938d-ad30-47cc-bdec-3acb033f8baf","ios":"levelo://app?vid=9473938d-ad30-47cc-bdec-3acb033f8baf"},"vehicle_type_id":"4","last_reported":1774787507,"current_range_meters":5600,"station_id":"cpo3342slgdg3j2ifvpg","pricing_plan_id":"cebpf4jnsgd1na2vs0mg"},{"bike_id":"5a400ffc-c5d8-4ac0-bcbd-0294511da483","system_id":"levelo_inurba_marseille","lat":43.30298,"lon":5.39237,"is_reserved":false,"is_disabled":false,"rental_uris":{"android":"levelo://app?vid=5a400ffc-c5d8-4ac0-bcbd-0294511da483","ios":"levelo://app?vid=5a400ffc-c5d8-4ac0-bcbd-0294511da483"},"vehicle_type_id":"4","last_reported":1774787507,"current_range_meters":5600,"station_id":"ce4bgkh2rcd13ifvqbk0","pricing_plan_id":"cebpf4jnsgd1na2vs0mg"},{"bike_id":"4c397df7-2403-4b63-a939-e0703f6f4605","system_id":"levelo_inurba_marseille","lat":43.30567,"lon":5.3645,"is_reserved":false,"is_disabled":false,"rental_uris":{"android":"levelo://app?vid=4c397df7-2403-4b63-a939-e0703f6f4605","ios":"levelo://app?vid=4c397df7-2403-4b63-a939-e0703f6f4605"},"vehicle_type_id":"4","last_reported":1774787507,"current_range_meters":6000,"station_id":"","pricing_plan_id":"cebpf4jnsgd1na2vs0mg"},{"bike_id":"44b061ea-ac90-4ccb-8d43-7cab8ff1f0e0","system_id":"levelo_inurba_marseille","lat":43.26068,"lon":5.39384,"is_reserved":false,"is_disabled":false,"rental_uris":{"android":"levelo://app?vid=44b061ea-ac90-4ccb-8d43-7cab8ff1f0e0","ios":"levelo://app?vid=44b061ea-ac90-4ccb-8d43-7cab8ff1f0e0"},"vehicle_type_id":"4","last_reported":1774787507,"current_range_meters":6000,"station_id":"ce4bhh92rcd13ifvqfj0","pricing_plan_id":"cebpf4jnsgd1na2vs0mg"},{"bike_id":"fda14196-35ed-4b75-a15b-2717a437f32b","system_id":"levelo_inurba_marseille","lat":43.29019,"lon":5.38623,"is_reserved":false,"is_disabled":false,"rental_uris":{"android":"levelo://app?vid=fda14196-35ed-4b75-a15b-2717a437f32b","ios":"levelo://app?vid=fda14196-35ed-4b75-a15b-2717a437f32b"},"vehicle_type_id":"4","last_reported":1774787507,"current_range_meters":6000,"station_id":"ce4bh4p2rcd13ifvqe0g","pricing_plan_id":"cebpf4jnsgd1na2vs0mg"},{"bike_id":"d42918c2-5949-42d0-8ebe-a9ca1daba3bd","system_id":"levelo_inurba_marseille","lat":43.28468,"lon":5.35882,"is_reserved":false,"is_disabled":true,"rental_uris":{"android":"levelo://app?vid=d42918c2-5949-42d0-8ebe-a9ca1daba3bd","ios":"levelo://app?vid=d42918c2-5949-42d0-8ebe-a9ca1daba3bd"},"vehicle_type_id":"4","last_reported":1774787507,"current_range_meters":6000,"station_id":"ce4bhah2rcd13ifvqei0","pricing_plan_id":"cebpf4jnsgd1na2vs0mg"},{"bike_id":"8c941434-7bbe-479c-a48b-5170f2bc45af","system_id":"levelo_inurba_marseille","lat":43.24573,"lon":5.3949,"is_reserved":false,"is_disabled":false,"rental_uris":{"android":"levelo://app?vid=8c941434-7bbe-479c-a48b-5170f2bc45af","ios":"levelo://app?vid=8c941434-7bbe-479c-a48b-5170f2bc45af"},"vehicle_type_id":"4","last_reported":1774787507,"current_range_meters":6000,"station_id":"ce4bhlp2rcd13ifvqgjg","pricing_plan_id":"cebpf4jnsgd1na2vs0mg"},{"bike_id":"f31d687b-f39f-4799-a123-ec0aec4b625b","system_id":"levelo_inurba_marseille","lat":43.306,"lon":5.37194,"is_reserved":false,"is_disabled":true,"rental_uris":{"android":"levelo://app?vid=f31d687b-f39f-4799-a123-ec0aec4b625b","ios":"levelo://app?vid=f31d687b-f39f-4799-a123-ec0aec4b625b"},"vehicle_type_id":"4","last_reported":1774787507,"current_range_meters":6000,"station_id":"ce4bgqh2rcd13ifvqc4g","pricing_plan_id":"cebpf4jnsgd1na2vs0mg"},{"bike_id":"b7ccf9bc-d05b-4bfb-bfa4-d6f6c81fada1","system_id":"levelo_inurba_marseille","lat":43.24167,"lon":5.36394,"is_reserved":false,"is_disabled":false,"rental_uris":{"android":"levelo://app?vid=b7ccf9bc-d05b-4bfb-bfa4-d6f6c81fada1","ios":"levelo://app?vid=b7ccf9bc-d05b-4bfb-bfa4-d6f6c81fada1"},"vehicle_type_id":"4","last_reported":1774787507,"current_range_meters":6000,"station_id":"cpo36qri1sfpv3e86is0","pricing_plan_id":"cebpf4jnsgd1na2vs0mg"},{"bike_id":"26b425c3-8620-40c5-a06d-0c005a193c92","system_id":"levelo_inurba_marseille","lat":43.2256,"lon":5.41631,"is_reserved":false,"is_disabled":false,"rental_uris":{"android":"levelo://app?vid=26b425c3-8620-40c5-a06d-0c005a193c92","ios":"levelo://app?vid=26b425c3-8620-40c5-a06d-0c005a193c92"},"vehicle_type_id":"4","last_reported":1774787507,"current_range_meters":6000,"station_id":"st_d2o4gvlbi1j2169b742g","pricing_plan_id":"cebpf4jnsgd1na2vs0mg"},{"bike_id":"2c76498e-1409-4d1d-aa11-912dd68ff926","system_id":"levelo_inurba_marseille","lat":43.28566,"lon":5.44111,"is_reserved":false,"is_disabled":false,"rental_uris":{"android":"levelo://app?vid=2c76498e-1409-4d1d-aa11-912dd68ff926","ios":"levelo://app?vid=2c76498e-1409-4d1d-aa11-912dd68ff926"},"vehicle_type_id":"4","last_reported":1774787507,"current_range_meters":6400,"station_id":"st_d3j3df2ikq2c7380ej80","pricing_plan_id":"cebpf4jnsgd1na2vs0mg"},{"bike_id":"92cb4986-12bc-44d4-ad49-496427bf2b45","system_id":"levelo_inurba_marseille","lat":43.28532,"lon":5.44096,"is_reserved":false,"is_disabled":false,"rental_uris":{"android":"levelo://app?vid=92cb4986-12bc-44d4-ad49-496427bf2b45","ios":"levelo://app?vid=92cb4986-12bc-44d4-ad49-496427bf2b45"},"vehicle_type_id":"4","last_reported":1774787507,"current_range_meters":6400,"station_id":"st_d3j3df2ikq2c7380ej80","pricing_plan_id":"cebpf4jnsgd1na2vs0mg"},{"bike_id":"76201515-ae70-408c-82ba-b2d7c39b0327","system_id":"levelo_inurba_marseille","lat":43.25117,"lon":5.40348,"is_reserved":false,"is_disabled":false,"rental_uris":{"android":"levelo://app?vid=76201515-ae70-408c-82ba-b2d7c39b0327","ios":"levelo://app?vid=76201515-ae70-408c-82ba-b2d7c39b0327"},"vehicle_type_id":"4","last_reported":1774787507,"current_range_meters":6400,"station_id":"ce4bhlh2rcd13ifvqgig","pricing_plan_id":"cebpf4jnsgd1na2vs0mg"},{"bike_id":"ce4bb8b5-8a16-4588-8ca5-c266a05621c6","system_id":"levelo_inurba_marseille","lat":43.23897,"lon":5.37441,"is_reserved":false,"is_disabled":false,"rental_uris":{"android":"levelo://app?vid=ce4bb8b5-8a16-4588-8ca5-c266a05621c6","ios":"levelo://app?vid=ce4bb8b5-8a16-4588-8ca5-c266a05621c6"},"vehicle_type_id":"4","last_reported":1774787507,"current_range_meters":6400,"station_id":"st_d6sm7csbq4hs73f8fpjg","pricing_plan_id":"cebpf4jnsgd1na2vs0mg"},{"bike_id":"f41a6846-d9aa-4fd5-8b6d-0bd213e73c21","system_id":"levelo_inurba_marseille","lat":43.21748,"lon":5.3459,"is_reserved":false,"is_disabled":false,"rental_uris":{"android":"levelo://app?vid=f41a6846-d9aa-4fd5-8b6d-0bd213e73c21","ios":"levelo://app?vid=f41a6846-d9aa-4fd5-8b6d-0bd213e73c21"},"vehicle_type_id":"4","last_reported":1774787507,"current_range_meters":6400,"station_id":"st_cvj6r9ubvosntc0bgbag","pricing_plan_id":"cebpf4jnsgd1na2vs0mg"},{"bike_id":"aa784291-0cfb-4b19-881b-743d51a4c83e","system_id":"levelo_inurba_marseille","lat":43.29927,"lon":5.3654,"is_reserved":false,"is_disabled":false,"rental_uris":{"android":"levelo://app?vid=aa784291-0cfb-4b19-881b-743d51a4c83e","ios":"levelo://app?vid=aa784291-0cfb-4b19-881b-743d51a4c83e"},"vehicle_type_id":"4","last_reported":1774787507,"current_range_meters":6400,"station_id":"ce4bgm92rcd13ifvqbr0","pricing_plan_id":"cebpf4jnsgd1na2vs0mg"},{"bike_id":"0f430097-8d5e-4a5a-9147-4fc5e40a362e","system_id":"levelo_inurba_marseille","lat":43.3351,"lon":5.37409,"is_reserved":false,"is_disabled":false,"rental_uris":{"android":"levelo://app?vid=0f430097-8d5e-4a5a-9147-4fc5e40a362e","ios":"levelo://app?vid=0f430097-8d5e-4a5a-9147-4fc5e40a362e"},"vehicle_type_id":"4","last_reported":1774787507,"current_range_meters":6800,"station_id":"st_d46tts09ee8s73dlu43g","pricing_plan_id":"cebpf4jnsgd1na2vs0mg"},{"bike_id":"02f24484-d422-40d6-996e-505884b43ff9","system_id":"levelo_inurba_marseille","lat":43.24558,"lon":5.39529,"is_reserved":false,"is_disabled":false,"rental_uris":{"android":"levelo://app?vid=02f24484-d422-40d6-996e-505884b43ff9","ios":"levelo://app?vid=02f24484-d422-40d6-996e-505884b43ff9"},"vehicle_type_id":"4","last_reported":1774787507,"current_range_meters":6800,"station_id":"ce4bhlp2rcd13ifvqgjg","pricing_plan_id":"cebpf4jnsgd1na2vs0mg"},{"bike_id":"56603236-0b6d-44e6-924a-3489e7c8fead","system_id":"levelo_inurba_marseille","lat":43.25742,"lon":5.38703,"is_reserved":false,"is_disabled":false,"rental_uris":{"android":"levelo://app?vid=56603236-0b6d-44e6-924a-3489e7c8fead","ios":"levelo://app?vid=56603236-0b6d-44e6-924a-3489e7c8fead"},"vehicle_type_id":"4","last_reported":1774787507,"current_range_meters":6800,"station_id":"","pricing_plan_id":"cebpf4jnsgd1na2vs0mg"},{"bike_id":"659ccfdf-569f-4f01-84dd-6c9bbfa33ac4","system_id":"levelo_inurba_marseille","lat":43.23783,"lon":5.36608,"is_reserved":false,"is_disabled":false,"rental_uris":{"android":"levelo://app?vid=659ccfdf-569f-4f01-84dd-6c9bbfa33ac4","ios":"levelo://app?vid=659ccfdf-569f-4f01-84dd-6c9bbfa33ac4"},"vehicle_type_id":"4","last_reported":1774787507,"current_range_meters":6800,"station_id":"st_d3nk18o9ro0c73en2l3g","pricing_plan_id":"cebpf4jnsgd1na2vs0mg"},{"bike_id":"2f2b1d2c-1be4-402e-a839-6d84d3bfb79f","system_id":"levelo_inurba_marseille","lat":43.28419,"lon":5.35019,"is_reserved":false,"is_disabled":false,"rental_uris":{"android":"levelo://app?vid=2f2b1d2c-1be4-402e-a839-6d84d3bfb79f","ios":"levelo://app?vid=2f2b1d2c-1be4-402e-a839-6d84d3bfb79f"},"vehicle_type_id":"4","last_reported":1774787507,"current_range_meters":6800,"station_id":"ce4bhbh2rcd13ifvqepg","pricing_plan_id":"cebpf4jnsgd1na2vs0mg"},{"bike_id":"b8394b2d-a1de-4bd2-9f24-92a64dcc9e4c","system_id":"levelo_inurba_marseille","lat":43.29533,"lon":5.38548,"is_reserved":false,"is_disabled":false,"rental_uris":{"android":"levelo://app?vid=b8394b2d-a1de-4bd2-9f24-92a64dcc9e4c","ios":"levelo://app?vid=b8394b2d-a1de-4bd2-9f24-92a64dcc9e4c"},"vehicle_type_id":"4","last_reported":1774787507,"current_range_meters":6800,"station_id":"","pricing_plan_id":"cebpf4jnsgd1na2vs0mg"},{"bike_id":"78dd3568-91f0-4078-bccb-a466abd0ab7b","system_id":"levelo_inurba_marseille","lat":43.30596,"lon":5.39356,"is_reserved":false,"is_disabled":false,"rental_uris":{"android":"levelo://app?vid=78dd3568-91f0-4078-bccb-a466abd0ab7b","ios":"levelo://app?vid=78dd3568-91f0-4078-bccb-a466abd0ab7b"},"vehicle_type_id":"4","last_reported":1774787507,"current_range_meters":7200,"station_id":"ce4bh0p2rcd13ifvqd80","pricing_plan_id":"cebpf4jnsgd1na2vs0mg"},{"bike_id":"cbdae8f2-2059-4bf5-8897-d44458cee5f3","system_id":"levelo_inurba_marseille","lat":43.32378,"lon":5.38871,"is_reserved":false,"is_disabled":false,"rental_uris":{"android":"levelo://app?vid=cbdae8f2-2059-4bf5-8897-d44458cee5f3","ios":"levelo://app?vid=cbdae8f2-2059-4bf5-8897-d44458cee5f3"},"vehicle_type_id":"4","last_reported":1774787507,"current_range_meters":7200,"station_id":"ce4bhqp2rcd13ifvqhog","pricing_plan_id":"cebpf4jnsgd1na2vs0mg"},{"bike_id":"2d0fdc3d-338a-4727-826c-caea44a0cbfa","system_id":"levelo_inurba_marseille","lat":43.29825,"lon":5.44064,"is_reserved":false,"is_disabled":false,"rental_uris":{"android":"levelo://app?vid=2d0fdc3d-338a-4727-826c-caea44a0cbfa","ios":"levelo://app?vid=2d0fdc3d-338a-4727-826c-caea44a0cbfa"},"vehicle_type_id":"4","last_reported":1774787507,"current_range_meters":7200,"station_id":"st_d3jp68qikq2c7381ktn0","pricing_plan_id":"cebpf4jnsgd1na2vs0mg"},{"bike_id":"c0770d51-a5b7-4365-82af-877ad2e93493","system_id":"levelo_inurba_marseille","lat":43.28608,"lon":5.35096,"is_reserved":false,"is_disabled":false,"rental_uris":{"android":"levelo://app?vid=c0770d51-a5b7-4365-82af-877ad2e93493","ios":"levelo://app?vid=c0770d51-a5b7-4365-82af-877ad2e93493"},"vehicle_type_id":"4","last_reported":1774787507,"current_range_meters":7200,"station_id":"ce4bhch2rcd13ifvqeug","pricing_plan_id":"cebpf4jnsgd1na2vs0mg"},{"bike_id":"1b52061f-2407-41b6-9fde-eceac5ab1e54","system_id":"levelo_inurba_marseille","lat":43.21187,"lon":5.35072,"is_reserved":false,"is_disabled":false,"rental_uris":{"android":"levelo://app?vid=1b52061f-2407-41b6-9fde-eceac5ab1e54","ios":"levelo://app?vid=1b52061f-2407-41b6-9fde-eceac5ab1e54"},"vehicle_type_id":"4","last_reported":1774787507,"current_range_meters":7200,"station_id":"st_cvj6sg6p6f1abm77japg","pricing_plan_id":"cebpf4jnsgd1na2vs0mg"},{"bike_id":"c609aa61-79d9-47bd-b7b7-62d640d7b9ef","system_id":"levelo_inurba_marseille","lat":43.2654,"lon":5.3729,"is_reserved":false,"is_disabled":true,"rental_uris":{"android":"levelo://app?vid=c609aa61-79d9-47bd-b7b7-62d640d7b9ef","ios":"levelo://app?vid=c609aa61-79d9-47bd-b7b7-62d640d7b9ef"},"vehicle_type_id":"4","last_reported":1774787507,"current_range_meters":7200,"station_id":"ce4bhg12rcd13ifvqf70","pricing_plan_id":"cebpf4jnsgd1na2vs0mg"},{"bike_id":"baf7c004-e890-47af-ba3f-3dcb4a5e4db3","system_id":"levelo_inurba_marseille","lat":43.24651,"lon":5.38903,"is_reserved":false,"is_disabled":false,"rental_uris":{"android":"levelo://app?vid=baf7c004-e890-47af-ba3f-3dcb4a5e4db3","ios":"levelo://app?vid=baf7c004-e890-47af-ba3f-3dcb4a5e4db3"},"vehicle_type_id":"4","last_reported":1774787507,"current_range_meters":7200,"station_id":"ce4bhg12rcd13ifvqf60","pricing_plan_id":"cebpf4jnsgd1na2vs0mg"},{"bike_id":"5dc7a0c1-467a-4151-97ef-a8a655c4f7a5","system_id":"levelo_inurba_marseille","lat":43.28476,"lon":5.48395,"is_reserved":false,"is_disabled":false,"rental_uris":{"android":"levelo://app?vid=5dc7a0c1-467a-4151-97ef-a8a655c4f7a5","ios":"levelo://app?vid=5dc7a0c1-467a-4151-97ef-a8a655c4f7a5"},"vehicle_type_id":"4","last_reported":1774787507,"current_range_meters":7200,"station_id":"","pricing_plan_id":"cebpf4jnsgd1na2vs0mg"},{"bike_id":"4a218af2-f2d1-4390-94dd-d5a265584f25","system_id":"levelo_inurba_marseille","lat":43.30538,"lon":5.36528,"is_reserved":false,"is_disabled":false,"rental_uris":{"android":"levelo://app?vid=4a218af2-f2d1-4390-94dd-d5a265584f25","ios":"levelo://app?vid=4a218af2-f2d1-4390-94dd-d5a265584f25"},"vehicle_type_id":"4","last_reported":1774787507,"current_range_meters":7200,"station_id":"ce4bgs12rcd13ifvqcag","pricing_plan_id":"cebpf4jnsgd1na2vs0mg"},{"bike_id":"56ed71d3-4f24-4bcb-9e63-f10b7aa4866e","system_id":"levelo_inurba_marseille","lat":43.28415,"lon":5.34971,"is_reserved":false,"is_disabled":false,"rental_uris":{"android":"levelo://app?vid=56ed71d3-4f24-4bcb-9e63-f10b7aa4866e","ios":"levelo://app?vid=56ed71d3-4f24-4bcb-9e63-f10b7aa4866e"},"vehicle_type_id":"4","last_reported":1774787507,"current_range_meters":7200,"station_id":"ce4bhbh2rcd13ifvqepg","pricing_plan_id":"cebpf4jnsgd1na2vs0mg"},{"bike_id":"fe46a177-f80a-4d69-b2ae-915d23543f7e","system_id":"levelo_inurba_marseille","lat":43.30342,"lon":5.41893,"is_reserved":false,"is_disabled":false,"rental_uris":{"android":"levelo://app?vid=fe46a177-f80a-4d69-b2ae-915d23543f7e","ios":"levelo://app?vid=fe46a177-f80a-4d69-b2ae-915d23543f7e"},"vehicle_type_id":"4","last_reported":1774787507,"current_range_meters":7200,"station_id":"ce4bhop2rcd13ifvqh7g","pricing_plan_id":"cebpf4jnsgd1na2vs0mg"},{"bike_id":"ad6e85ce-4347-4dcc-b444-687c3ea5eab5","system_id":"levelo_inurba_marseille","lat":43.305531,"lon":5.36549,"is_reserved":false,"is_disabled":false,"rental_uris":{"android":"levelo://app?vid=ad6e85ce-4347-4dcc-b444-687c3ea5eab5","ios":"levelo://app?vid=ad6e85ce-4347-4dcc-b444-687c3ea5eab5"},"vehicle_type_id":"4","last_reported":1774787507,"current_range_meters":7200,"station_id":"ce4bgs12rcd13ifvqcag","pricing_plan_id":"cebpf4jnsgd1na2vs0mg"},{"bike_id":"85c064ab-2e0a-424d-8615-0d9a447ae2ea","system_id":"levelo_inurba_marseille","lat":43.29523,"lon":5.39059,"is_reserved":false,"is_disabled":false,"rental_uris":{"android":"levelo://app?vid=85c064ab-2e0a-424d-8615-0d9a447ae2ea","ios":"levelo://app?vid=85c064ab-2e0a-424d-8615-0d9a447ae2ea"},"vehicle_type_id":"4","last_reported":1774787507,"current_range_meters":7200,"station_id":"ce4bh3p2rcd13ifvqdp0","pricing_plan_id":"cebpf4jnsgd1na2vs0mg"},{"bike_id":"86158243-0de7-41f0-b955-e75f48e85b06","system_id":"levelo_inurba_marseille","lat":43.302592,"lon":5.400803,"is_reserved":false,"is_disabled":false,"rental_uris":{"android":"levelo://app?vid=86158243-0de7-41f0-b955-e75f48e85b06","ios":"levelo://app?vid=86158243-0de7-41f0-b955-e75f48e85b06"},"vehicle_type_id":"4","last_reported":1774787507,"current_range_meters":7200,"station_id":"ce4bgt92rcd13ifvqcg0","pricing_plan_id":"cebpf4jnsgd1na2vs0mg"},{"bike_id":"0e9bc596-9844-44d3-95e8-284970572294","system_id":"levelo_inurba_marseille","lat":43.26213,"lon":5.37441,"is_reserved":false,"is_disabled":false,"rental_uris":{"android":"levelo://app?vid=0e9bc596-9844-44d3-95e8-284970572294","ios":"levelo://app?vid=0e9bc596-9844-44d3-95e8-284970572294"},"vehicle_type_id":"4","last_reported":1774787507,"current_range_meters":7200,"station_id":"ce4bhgp2rcd13ifvqfc0","pricing_plan_id":"cebpf4jnsgd1na2vs0mg"},{"bike_id":"860407bc-513f-4910-b3a0-87ea13c637b1","system_id":"levelo_inurba_marseille","lat":43.28529,"lon":5.44102,"is_reserved":false,"is_disabled":false,"rental_uris":{"android":"levelo://app?vid=860407bc-513f-4910-b3a0-87ea13c637b1","ios":"levelo://app?vid=860407bc-513f-4910-b3a0-87ea13c637b1"},"vehicle_type_id":"4","last_reported":1774787507,"current_range_meters":8000,"station_id":"st_d3j3df2ikq2c7380ej80","pricing_plan_id":"cebpf4jnsgd1na2vs0mg"},{"bike_id":"a67226ee-3237-4e8b-9f2f-b21b539af8b6","system_id":"levelo_inurba_marseille","lat":43.26445,"lon":5.40902,"is_reserved":false,"is_disabled":false,"rental_uris":{"android":"levelo://app?vid=a67226ee-3237-4e8b-9f2f-b21b539af8b6","ios":"levelo://app?vid=a67226ee-3237-4e8b-9f2f-b21b539af8b6"},"vehicle_type_id":"4","last_reported":1774787507,"current_range_meters":8000,"station_id":"","pricing_plan_id":"cebpf4jnsgd1na2vs0mg"},{"bike_id":"c3ad9aae-2095-478f-b355-43899e698b74","system_id":"levelo_inurba_marseille","lat":43.29531,"lon":5.38666,"is_reserved":false,"is_disabled":false,"rental_uris":{"android":"levelo://app?vid=c3ad9aae-2095-478f-b355-43899e698b74","ios":"levelo://app?vid=c3ad9aae-2095-478f-b355-43899e698b74"},"vehicle_type_id":"4","last_reported":1774787507,"current_range_meters":8000,"station_id":"","pricing_plan_id":"cebpf4jnsgd1na2vs0mg"},{"bike_id":"345872dc-6cdd-47db-a22e-41d392ca5071","system_id":"levelo_inurba_marseille","lat":43.29564,"lon":5.42289,"is_reserved":false,"is_disabled":false,"rental_uris":{"android":"levelo://app?vid=345872dc-6cdd-47db-a22e-41d392ca5071","ios":"levelo://app?vid=345872dc-6cdd-47db-a22e-41d392ca5071"},"vehicle_type_id":"4","last_reported":1774787507,"current_range_meters":8000,"station_id":"ce4bhph2rcd13ifvqhdg","pricing_plan_id":"cebpf4jnsgd1na2vs0mg"},{"bike_id":"2de38fd0-4d56-4129-8633-4ee1741a5e1b","system_id":"levelo_inurba_marseille","lat":43.21209,"lon":5.35073,"is_reserved":false,"is_disabled":false,"rental_uris":{"android":"levelo://app?vid=2de38fd0-4d56-4129-8633-4ee1741a5e1b","ios":"levelo://app?vid=2de38fd0-4d56-4129-8633-4ee1741a5e1b"},"vehicle_type_id":"4","last_reported":1774787507,"current_range_meters":8000,"station_id":"st_cvj6sg6p6f1abm77japg","pricing_plan_id":"cebpf4jnsgd1na2vs0mg"},{"bike_id":"3f200426-1eba-4d5e-acb1-a1a43666133b","system_id":"levelo_inurba_marseille","lat":43.21188,"lon":5.35066,"is_reserved":false,"is_disabled":false,"rental_uris":{"android":"levelo://app?vid=3f200426-1eba-4d5e-acb1-a1a43666133b","ios":"levelo://app?vid=3f200426-1eba-4d5e-acb1-a1a43666133b"},"vehicle_type_id":"4","last_reported":1774787507,"current_range_meters":8000,"station_id":"st_cvj6sg6p6f1abm77japg","pricing_plan_id":"cebpf4jnsgd1na2vs0mg"},{"bike_id":"6627d87e-d8cc-4315-9870-c98a872f12b5","system_id":"levelo_inurba_marseille","lat":43.24682,"lon":5.38184,"is_reserved":false,"is_disabled":false,"rental_uris":{"android":"levelo://app?vid=6627d87e-d8cc-4315-9870-c98a872f12b5","ios":"levelo://app?vid=6627d87e-d8cc-4315-9870-c98a872f12b5"},"vehicle_type_id":"4","last_reported":1774787507,"current_range_meters":8000,"station_id":"ce4bhih2rcd13ifvqfr0","pricing_plan_id":"cebpf4jnsgd1na2vs0mg"},{"bike_id":"90aaae4f-4bea-44a9-9991-726dd88eccf2","system_id":"levelo_inurba_marseille","lat":43.23409,"lon":5.41227,"is_reserved":false,"is_disabled":true,"rental_uris":{"android":"levelo://app?vid=90aaae4f-4bea-44a9-9991-726dd88eccf2","ios":"levelo://app?vid=90aaae4f-4bea-44a9-9991-726dd88eccf2"},"vehicle_type_id":"4","last_reported":1774787507,"current_range_meters":8000,"station_id":"","pricing_plan_id":"cebpf4jnsgd1na2vs0mg"},{"bike_id":"b8bf157e-659b-4230-b7a5-7abce9abcca2","system_id":"levelo_inurba_marseille","lat":43.24655,"lon":5.38159,"is_reserved":false,"is_disabled":false,"rental_uris":{"android":"levelo://app?vid=b8bf157e-659b-4230-b7a5-7abce9abcca2","ios":"levelo://app?vid=b8bf157e-659b-4230-b7a5-7abce9abcca2"},"vehicle_type_id":"4","last_reported":1774787507,"current_range_meters":8000,"station_id":"ce4bhih2rcd13ifvqfr0","pricing_plan_id":"cebpf4jnsgd1na2vs0mg"},{"bike_id":"8b1fb8c6-b47c-4f5d-a426-634c42e0dcfc","system_id":"levelo_inurba_marseille","lat":43.28538,"lon":5.44102,"is_reserved":false,"is_disabled":false,"rental_uris":{"android":"levelo://app?vid=8b1fb8c6-b47c-4f5d-a426-634c42e0dcfc","ios":"levelo://app?vid=8b1fb8c6-b47c-4f5d-a426-634c42e0dcfc"},"vehicle_type_id":"4","last_reported":1774787507,"current_range_meters":8000,"station_id":"st_d3j3df2ikq2c7380ej80","pricing_plan_id":"cebpf4jnsgd1na2vs0mg"},{"bike_id":"4632252b-ae52-448c-8098-4aac9bdc698d","system_id":"levelo_inurba_marseille","lat":43.32662,"lon":5.4099,"is_reserved":false,"is_disabled":false,"rental_uris":{"android":"levelo://app?vid=4632252b-ae52-448c-8098-4aac9bdc698d","ios":"levelo://app?vid=4632252b-ae52-448c-8098-4aac9bdc698d"},"vehicle_type_id":"4","last_reported":1774787507,"current_range_meters":8000,"station_id":"ce4bhpp2rcd13ifvqhgg","pricing_plan_id":"cebpf4jnsgd1na2vs0mg"},{"bike_id":"f6278587-a1cd-439c-8100-93edd043cdab","system_id":"levelo_inurba_marseille","lat":43.28265,"lon":5.35068,"is_reserved":false,"is_disabled":false,"rental_uris":{"android":"levelo://app?vid=f6278587-a1cd-439c-8100-93edd043cdab","ios":"levelo://app?vid=f6278587-a1cd-439c-8100-93edd043cdab"},"vehicle_type_id":"4","last_reported":1774787507,"current_range_meters":8000,"station_id":"ce4bhbp2rcd13ifvqerg","pricing_plan_id":"cebpf4jnsgd1na2vs0mg"},{"bike_id":"37a09801-86cb-416f-bbab-ab34e63afa51","system_id":"levelo_inurba_marseille","lat":43.29106,"lon":5.3813,"is_reserved":false,"is_disabled":false,"rental_uris":{"android":"levelo://app?vid=37a09801-86cb-416f-bbab-ab34e63afa51","ios":"levelo://app?vid=37a09801-86cb-416f-bbab-ab34e63afa51"},"vehicle_type_id":"4","last_reported":1774787507,"current_range_meters":8000,"station_id":"ce4bh512rcd13ifvqe2g","pricing_plan_id":"cebpf4jnsgd1na2vs0mg"},{"bike_id":"e8064a33-c58e-4ea9-b957-d82a4c5e022a","system_id":"levelo_inurba_marseille","lat":43.29017,"lon":5.38638,"is_reserved":false,"is_disabled":false,"rental_uris":{"android":"levelo://app?vid=e8064a33-c58e-4ea9-b957-d82a4c5e022a","ios":"levelo://app?vid=e8064a33-c58e-4ea9-b957-d82a4c5e022a"},"vehicle_type_id":"4","last_reported":1774787507,"current_range_meters":8000,"station_id":"ce4bh4p2rcd13ifvqe0g","pricing_plan_id":"cebpf4jnsgd1na2vs0mg"},{"bike_id":"4563e8d6-62ce-4e27-a283-6f0663dd501e","system_id":"levelo_inurba_marseille","lat":43.22571,"lon":5.41626,"is_reserved":false,"is_disabled":false,"rental_uris":{"android":"levelo://app?vid=4563e8d6-62ce-4e27-a283-6f0663dd501e","ios":"levelo://app?vid=4563e8d6-62ce-4e27-a283-6f0663dd501e"},"vehicle_type_id":"4","last_reported":1774787507,"current_range_meters":8000,"station_id":"st_d2o4gvlbi1j2169b742g","pricing_plan_id":"cebpf4jnsgd1na2vs0mg"},{"bike_id":"0cff88ae-2283-4203-9e7d-41cb24f02508","system_id":"levelo_inurba_marseille","lat":43.23178,"lon":5.39991,"is_reserved":false,"is_disabled":false,"rental_uris":{"android":"levelo://app?vid=0cff88ae-2283-4203-9e7d-41cb24f02508","ios":"levelo://app?vid=0cff88ae-2283-4203-9e7d-41cb24f02508"},"vehicle_type_id":"4","last_reported":1774787507,"current_range_meters":8000,"station_id":"ce4bhn12rcd13ifvqgqg","pricing_plan_id":"cebpf4jnsgd1na2vs0mg"},{"bike_id":"1ba6a70b-3064-48ec-ae90-59465422b3c7","system_id":"levelo_inurba_marseille","lat":43.245,"lon":5.39514,"is_reserved":false,"is_disabled":false,"rental_uris":{"android":"levelo://app?vid=1ba6a70b-3064-48ec-ae90-59465422b3c7","ios":"levelo://app?vid=1ba6a70b-3064-48ec-ae90-59465422b3c7"},"vehicle_type_id":"4","last_reported":1774787507,"current_range_meters":8000,"station_id":"","pricing_plan_id":"cebpf4jnsgd1na2vs0mg"},{"bike_id":"4b78a906-a644-47b7-8f58-983ab6b8c664","system_id":"levelo_inurba_marseille","lat":43.28405,"lon":5.34979,"is_reserved":false,"is_disabled":false,"rental_uris":{"android":"levelo://app?vid=4b78a906-a644-47b7-8f58-983ab6b8c664","ios":"levelo://app?vid=4b78a906-a644-47b7-8f58-983ab6b8c664"},"vehicle_type_id":"4","last_reported":1774787507,"current_range_meters":8400,"station_id":"ce4bhbh2rcd13ifvqepg","pricing_plan_id":"cebpf4jnsgd1na2vs0mg"},{"bike_id":"6dafe508-3b0a-4272-9fd1-3fc040810955","system_id":"levelo_inurba_marseille","lat":43.29,"lon":5.35605,"is_reserved":false,"is_disabled":false,"rental_uris":{"android":"levelo://app?vid=6dafe508-3b0a-4272-9fd1-3fc040810955","ios":"levelo://app?vid=6dafe508-3b0a-4272-9fd1-3fc040810955"},"vehicle_type_id":"4","last_reported":1774787507,"current_range_meters":8400,"station_id":"ce4bhb92rcd13ifvqen0","pricing_plan_id":"cebpf4jnsgd1na2vs0mg"},{"bike_id":"aeca9453-ce08-40c1-8c68-c50a96f12fa4","system_id":"levelo_inurba_marseille","lat":43.28624,"lon":5.35101,"is_reserved":false,"is_disabled":false,"rental_uris":{"android":"levelo://app?vid=aeca9453-ce08-40c1-8c68-c50a96f12fa4","ios":"levelo://app?vid=aeca9453-ce08-40c1-8c68-c50a96f12fa4"},"vehicle_type_id":"4","last_reported":1774787507,"current_range_meters":8400,"station_id":"ce4bhch2rcd13ifvqeug","pricing_plan_id":"cebpf4jnsgd1na2vs0mg"},{"bike_id":"2457fc1b-679d-4a71-90e9-ad408ab6ed9d","system_id":"levelo_inurba_marseille","lat":43.33269,"lon":5.37919,"is_reserved":false,"is_disabled":false,"rental_uris":{"android":"levelo://app?vid=2457fc1b-679d-4a71-90e9-ad408ab6ed9d","ios":"levelo://app?vid=2457fc1b-679d-4a71-90e9-ad408ab6ed9d"},"vehicle_type_id":"4","last_reported":1774787507,"current_range_meters":8400,"station_id":"","pricing_plan_id":"cebpf4jnsgd1na2vs0mg"},{"bike_id":"5de85d78-1949-4cfd-96e8-5aa9cf3e26ad","system_id":"levelo_inurba_marseille","lat":43.28932,"lon":5.38389,"is_reserved":false,"is_disabled":false,"rental_uris":{"android":"levelo://app?vid=5de85d78-1949-4cfd-96e8-5aa9cf3e26ad","ios":"levelo://app?vid=5de85d78-1949-4cfd-96e8-5aa9cf3e26ad"},"vehicle_type_id":"4","last_reported":1774787507,"current_range_meters":8400,"station_id":"ce4bh612rcd13ifvqe6g","pricing_plan_id":"cebpf4jnsgd1na2vs0mg"},{"bike_id":"e78df1bf-ea66-40c9-b8dd-be73a39597aa","system_id":"levelo_inurba_marseille","lat":43.2953,"lon":5.39038,"is_reserved":false,"is_disabled":true,"rental_uris":{"android":"levelo://app?vid=e78df1bf-ea66-40c9-b8dd-be73a39597aa","ios":"levelo://app?vid=e78df1bf-ea66-40c9-b8dd-be73a39597aa"},"vehicle_type_id":"4","last_reported":1774787507,"current_range_meters":8400,"station_id":"ce4bh3p2rcd13ifvqdp0","pricing_plan_id":"cebpf4jnsgd1na2vs0mg"},{"bike_id":"146fe2ea-4747-4720-9376-9b95e4ee4866","system_id":"levelo_inurba_marseille","lat":43.24802,"lon":5.37451,"is_reserved":false,"is_disabled":false,"rental_uris":{"android":"levelo://app?vid=146fe2ea-4747-4720-9376-9b95e4ee4866","ios":"levelo://app?vid=146fe2ea-4747-4720-9376-9b95e4ee4866"},"vehicle_type_id":"4","last_reported":1774787507,"current_range_meters":8400,"station_id":"ce4bhgh2rcd13ifvqfb0","pricing_plan_id":"cebpf4jnsgd1na2vs0mg"},{"bike_id":"44915c9a-aea2-4058-a63d-a42a0e8e3242","system_id":"levelo_inurba_marseille","lat":43.29522,"lon":5.39044,"is_reserved":false,"is_disabled":false,"rental_uris":{"android":"levelo://app?vid=44915c9a-aea2-4058-a63d-a42a0e8e3242","ios":"levelo://app?vid=44915c9a-aea2-4058-a63d-a42a0e8e3242"},"vehicle_type_id":"4","last_reported":1774787507,"current_range_meters":8400,"station_id":"ce4bh3p2rcd13ifvqdp0","pricing_plan_id":"cebpf4jnsgd1na2vs0mg"},{"bike_id":"855896c7-1d47-46c5-847f-925777f9ad5c","system_id":"levelo_inurba_marseille","lat":43.29976,"lon":5.38483,"is_reserved":false,"is_disabled":true,"rental_uris":{"android":"levelo://app?vid=855896c7-1d47-46c5-847f-925777f9ad5c","ios":"levelo://app?vid=855896c7-1d47-46c5-847f-925777f9ad5c"},"vehicle_type_id":"4","last_reported":1774787507,"current_range_meters":8400,"station_id":"ce4bgj92rcd13ifvqbd0","pricing_plan_id":"cebpf4jnsgd1na2vs0mg"},{"bike_id":"f444bdcb-4100-43a3-9677-4ddf5059ebd5","system_id":"levelo_inurba_marseille","lat":43.29004,"lon":5.35613,"is_reserved":false,"is_disabled":false,"rental_uris":{"android":"levelo://app?vid=f444bdcb-4100-43a3-9677-4ddf5059ebd5","ios":"levelo://app?vid=f444bdcb-4100-43a3-9677-4ddf5059ebd5"},"vehicle_type_id":"4","last_reported":1774787507,"current_range_meters":8400,"station_id":"ce4bhb92rcd13ifvqen0","pricing_plan_id":"cebpf4jnsgd1na2vs0mg"},{"bike_id":"83c421a9-58a3-4017-9a24-08613107f879","system_id":"levelo_inurba_marseille","lat":43.30143,"lon":5.39892,"is_reserved":false,"is_disabled":true,"rental_uris":{"android":"levelo://app?vid=83c421a9-58a3-4017-9a24-08613107f879","ios":"levelo://app?vid=83c421a9-58a3-4017-9a24-08613107f879"},"vehicle_type_id":"4","last_reported":1774787507,"current_range_meters":8400,"station_id":"ce4bh0h2rcd13ifvqd40","pricing_plan_id":"cebpf4jnsgd1na2vs0mg"},{"bike_id":"32a7a92c-b34f-4be3-bc6d-bf21d2e60027","system_id":"levelo_inurba_marseille","lat":43.3276,"lon":5.36603,"is_reserved":false,"is_disabled":true,"rental_uris":{"android":"levelo://app?vid=32a7a92c-b34f-4be3-bc6d-bf21d2e60027","ios":"levelo://app?vid=32a7a92c-b34f-4be3-bc6d-bf21d2e60027"},"vehicle_type_id":"4","last_reported":1774787507,"current_range_meters":8400,"station_id":"","pricing_plan_id":"cebpf4jnsgd1na2vs0mg"},{"bike_id":"8ebdddeb-65fa-4a6a-a7a1-243a6f4f1f0d","system_id":"levelo_inurba_marseille","lat":43.30421,"lon":5.39749,"is_reserved":false,"is_disabled":true,"rental_uris":{"android":"levelo://app?vid=8ebdddeb-65fa-4a6a-a7a1-243a6f4f1f0d","ios":"levelo://app?vid=8ebdddeb-65fa-4a6a-a7a1-243a6f4f1f0d"},"vehicle_type_id":"4","last_reported":1774787507,"current_range_meters":8400,"station_id":"ce4bh092rcd13ifvqd20","pricing_plan_id":"cebpf4jnsgd1na2vs0mg"},{"bike_id":"c3b94241-2775-4cd4-b8ff-695de7c4631c","system_id":"levelo_inurba_marseille","lat":43.25404,"lon":5.41883,"is_reserved":false,"is_disabled":false,"rental_uris":{"android":"levelo://app?vid=c3b94241-2775-4cd4-b8ff-695de7c4631c","ios":"levelo://app?vid=c3b94241-2775-4cd4-b8ff-695de7c4631c"},"vehicle_type_id":"4","last_reported":1774787507,"current_range_meters":8400,"station_id":"","pricing_plan_id":"cebpf4jnsgd1na2vs0mg"},{"bike_id":"bfddc201-8f4a-483c-9f8e-b5162374e5bb","system_id":"levelo_inurba_marseille","lat":43.29077,"lon":5.43088,"is_reserved":false,"is_disabled":false,"rental_uris":{"android":"levelo://app?vid=bfddc201-8f4a-483c-9f8e-b5162374e5bb","ios":"levelo://app?vid=bfddc201-8f4a-483c-9f8e-b5162374e5bb"},"vehicle_type_id":"4","last_reported":1774787507,"current_range_meters":8400,"station_id":"","pricing_plan_id":"cebpf4jnsgd1na2vs0mg"},{"bike_id":"25a215c0-6185-4988-a946-459e463e94c2","system_id":"levelo_inurba_marseille","lat":43.28621,"lon":5.35113,"is_reserved":false,"is_disabled":false,"rental_uris":{"android":"levelo://app?vid=25a215c0-6185-4988-a946-459e463e94c2","ios":"levelo://app?vid=25a215c0-6185-4988-a946-459e463e94c2"},"vehicle_type_id":"4","last_reported":1774787507,"current_range_meters":8400,"station_id":"ce4bhch2rcd13ifvqeug","pricing_plan_id":"cebpf4jnsgd1na2vs0mg"},{"bike_id":"2fdec7e8-c03d-4168-9889-834c3290f586","system_id":"levelo_inurba_marseille","lat":43.23147,"lon":5.43725,"is_reserved":false,"is_disabled":false,"rental_uris":{"android":"levelo://app?vid=2fdec7e8-c03d-4168-9889-834c3290f586","ios":"levelo://app?vid=2fdec7e8-c03d-4168-9889-834c3290f586"},"vehicle_type_id":"4","last_reported":1774787507,"current_range_meters":8400,"station_id":"ce4bhmp2rcd13ifvqgog","pricing_plan_id":"cebpf4jnsgd1na2vs0mg"},{"bike_id":"630e3311-70ce-4726-82ff-5b8a2c82a77d","system_id":"levelo_inurba_marseille","lat":43.26055,"lon":5.3937,"is_reserved":false,"is_disabled":false,"rental_uris":{"android":"levelo://app?vid=630e3311-70ce-4726-82ff-5b8a2c82a77d","ios":"levelo://app?vid=630e3311-70ce-4726-82ff-5b8a2c82a77d"},"vehicle_type_id":"4","last_reported":1774787507,"current_range_meters":8400,"station_id":"ce4bhh92rcd13ifvqfj0","pricing_plan_id":"cebpf4jnsgd1na2vs0mg"},{"bike_id":"d99f7d03-e422-43ce-a697-0c9c82a01cbc","system_id":"levelo_inurba_marseille","lat":43.27692,"lon":5.38914,"is_reserved":false,"is_disabled":false,"rental_uris":{"android":"levelo://app?vid=d99f7d03-e422-43ce-a697-0c9c82a01cbc","ios":"levelo://app?vid=d99f7d03-e422-43ce-a697-0c9c82a01cbc"},"vehicle_type_id":"4","last_reported":1774787507,"current_range_meters":8800,"station_id":"ce4bhi12rcd13ifvqfo0","pricing_plan_id":"cebpf4jnsgd1na2vs0mg"},{"bike_id":"4a1cd1f9-dee8-4a38-9996-334929ed333a","system_id":"levelo_inurba_marseille","lat":43.24164,"lon":5.39718,"is_reserved":false,"is_disabled":false,"rental_uris":{"android":"levelo://app?vid=4a1cd1f9-dee8-4a38-9996-334929ed333a","ios":"levelo://app?vid=4a1cd1f9-dee8-4a38-9996-334929ed333a"},"vehicle_type_id":"4","last_reported":1774787507,"current_range_meters":8800,"station_id":"ce4bhn12rcd13ifvqgpg","pricing_plan_id":"cebpf4jnsgd1na2vs0mg"},{"bike_id":"79786bf8-1419-4108-89fd-48a209ee6b32","system_id":"levelo_inurba_marseille","lat":43.30919,"lon":5.36873,"is_reserved":false,"is_disabled":false,"rental_uris":{"android":"levelo://app?vid=79786bf8-1419-4108-89fd-48a209ee6b32","ios":"levelo://app?vid=79786bf8-1419-4108-89fd-48a209ee6b32"},"vehicle_type_id":"4","last_reported":1774787507,"current_range_meters":8800,"station_id":"ce4bgn92rcd13ifvqbvg","pricing_plan_id":"cebpf4jnsgd1na2vs0mg"},{"bike_id":"091fbb56-7d3b-4ffb-8a03-f31144f96123","system_id":"levelo_inurba_marseille","lat":43.25113,"lon":5.40317,"is_reserved":false,"is_disabled":false,"rental_uris":{"android":"levelo://app?vid=091fbb56-7d3b-4ffb-8a03-f31144f96123","ios":"levelo://app?vid=091fbb56-7d3b-4ffb-8a03-f31144f96123"},"vehicle_type_id":"4","last_reported":1774787507,"current_range_meters":8800,"station_id":"ce4bhlh2rcd13ifvqgig","pricing_plan_id":"cebpf4jnsgd1na2vs0mg"},{"bike_id":"a26521b6-ae36-49b3-8c17-71b965eb6e3c","system_id":"levelo_inurba_marseille","lat":43.2604,"lon":5.37537,"is_reserved":false,"is_disabled":false,"rental_uris":{"android":"levelo://app?vid=a26521b6-ae36-49b3-8c17-71b965eb6e3c","ios":"levelo://app?vid=a26521b6-ae36-49b3-8c17-71b965eb6e3c"},"vehicle_type_id":"4","last_reported":1774787507,"current_range_meters":8800,"station_id":"ce4bhgh2rcd13ifvqfa0","pricing_plan_id":"cebpf4jnsgd1na2vs0mg"},{"bike_id":"b4dd00eb-e494-45a6-9b0b-914f0da4cc47","system_id":"levelo_inurba_marseille","lat":43.31245,"lon":5.36854,"is_reserved":false,"is_disabled":false,"rental_uris":{"android":"levelo://app?vid=b4dd00eb-e494-45a6-9b0b-914f0da4cc47","ios":"levelo://app?vid=b4dd00eb-e494-45a6-9b0b-914f0da4cc47"},"vehicle_type_id":"4","last_reported":1774787507,"current_range_meters":8800,"station_id":"ce4bgl92rcd13ifvqbq0","pricing_plan_id":"cebpf4jnsgd1na2vs0mg"},{"bike_id":"8b21ac48-466c-4ed6-92ae-f569a5a73ca9","system_id":"levelo_inurba_marseille","lat":43.28475,"lon":5.48394,"is_reserved":false,"is_disabled":false,"rental_uris":{"android":"levelo://app?vid=8b21ac48-466c-4ed6-92ae-f569a5a73ca9","ios":"levelo://app?vid=8b21ac48-466c-4ed6-92ae-f569a5a73ca9"},"vehicle_type_id":"4","last_reported":1774787507,"current_range_meters":8800,"station_id":"","pricing_plan_id":"cebpf4jnsgd1na2vs0mg"},{"bike_id":"b236f643-53ba-43fa-b29d-c90773116eb2","system_id":"levelo_inurba_marseille","lat":43.24495,"lon":5.42518,"is_reserved":false,"is_disabled":false,"rental_uris":{"android":"levelo://app?vid=b236f643-53ba-43fa-b29d-c90773116eb2","ios":"levelo://app?vid=b236f643-53ba-43fa-b29d-c90773116eb2"},"vehicle_type_id":"4","last_reported":1774787507,"current_range_meters":8800,"station_id":"st_d4a3vfp97mjs738cd8kg","pricing_plan_id":"cebpf4jnsgd1na2vs0mg"},{"bike_id":"48c12b74-6f3a-40a8-94b3-e62be28f6fcf","system_id":"levelo_inurba_marseille","lat":43.32351,"lon":5.36769,"is_reserved":false,"is_disabled":false,"rental_uris":{"android":"levelo://app?vid=48c12b74-6f3a-40a8-94b3-e62be28f6fcf","ios":"levelo://app?vid=48c12b74-6f3a-40a8-94b3-e62be28f6fcf"},"vehicle_type_id":"4","last_reported":1774787507,"current_range_meters":8800,"station_id":"ce4bhsh2rcd13ifvqi2g","pricing_plan_id":"cebpf4jnsgd1na2vs0mg"},{"bike_id":"8de278e2-e816-48b7-b9f8-61d77c6dddb0","system_id":"levelo_inurba_marseille","lat":43.23953,"lon":5.36674,"is_reserved":false,"is_disabled":false,"rental_uris":{"android":"levelo://app?vid=8de278e2-e816-48b7-b9f8-61d77c6dddb0","ios":"levelo://app?vid=8de278e2-e816-48b7-b9f8-61d77c6dddb0"},"vehicle_type_id":"4","last_reported":1774787507,"current_range_meters":8800,"station_id":"ce4bhi12rcd13ifvqfp0","pricing_plan_id":"cebpf4jnsgd1na2vs0mg"},{"bike_id":"8efaf94a-553c-4be0-aacc-a876b10b3ac1","system_id":"levelo_inurba_marseille","lat":43.32364,"lon":5.36766,"is_reserved":false,"is_disabled":false,"rental_uris":{"android":"levelo://app?vid=8efaf94a-553c-4be0-aacc-a876b10b3ac1","ios":"levelo://app?vid=8efaf94a-553c-4be0-aacc-a876b10b3ac1"},"vehicle_type_id":"4","last_reported":1774787507,"current_range_meters":8800,"station_id":"ce4bhsh2rcd13ifvqi2g","pricing_plan_id":"cebpf4jnsgd1na2vs0mg"},{"bike_id":"465a005f-bc9d-4920-9ac8-b11e5b95a524","system_id":"levelo_inurba_marseille","lat":43.27376,"lon":5.36267,"is_reserved":false,"is_disabled":false,"rental_uris":{"android":"levelo://app?vid=465a005f-bc9d-4920-9ac8-b11e5b95a524","ios":"levelo://app?vid=465a005f-bc9d-4920-9ac8-b11e5b95a524"},"vehicle_type_id":"4","last_reported":1774787507,"current_range_meters":8800,"station_id":"ce4bhbh2rcd13ifvqeo0","pricing_plan_id":"cebpf4jnsgd1na2vs0mg"},{"bike_id":"ba3a252a-3ca1-4a7a-a0cd-bd615f9d4e25","system_id":"levelo_inurba_marseille","lat":43.29262,"lon":5.36849,"is_reserved":false,"is_disabled":false,"rental_uris":{"android":"levelo://app?vid=ba3a252a-3ca1-4a7a-a0cd-bd615f9d4e25","ios":"levelo://app?vid=ba3a252a-3ca1-4a7a-a0cd-bd615f9d4e25"},"vehicle_type_id":"4","last_reported":1774787507,"current_range_meters":8800,"station_id":"ce4bhbp2rcd13ifvqesg","pricing_plan_id":"cebpf4jnsgd1na2vs0mg"},{"bike_id":"f65f9ba1-6303-4d94-8334-3ce721a50aca","system_id":"levelo_inurba_marseille","lat":43.25841,"lon":5.39422,"is_reserved":false,"is_disabled":false,"rental_uris":{"android":"levelo://app?vid=f65f9ba1-6303-4d94-8334-3ce721a50aca","ios":"levelo://app?vid=f65f9ba1-6303-4d94-8334-3ce721a50aca"},"vehicle_type_id":"4","last_reported":1774787507,"current_range_meters":8800,"station_id":"ce4bhip2rcd13ifvqft0","pricing_plan_id":"cebpf4jnsgd1na2vs0mg"},{"bike_id":"9637d252-3d43-4ab6-bc19-8995e1f56706","system_id":"levelo_inurba_marseille","lat":43.26568,"lon":5.39024,"is_reserved":false,"is_disabled":false,"rental_uris":{"android":"levelo://app?vid=9637d252-3d43-4ab6-bc19-8995e1f56706","ios":"levelo://app?vid=9637d252-3d43-4ab6-bc19-8995e1f56706"},"vehicle_type_id":"4","last_reported":1774787507,"current_range_meters":9200,"station_id":"ce4bhe12rcd13ifvqf30","pricing_plan_id":"cebpf4jnsgd1na2vs0mg"},{"bike_id":"f66113de-f3fb-4667-a759-f56810ed7f83","system_id":"levelo_inurba_marseille","lat":43.23893,"lon":5.37669,"is_reserved":false,"is_disabled":false,"rental_uris":{"android":"levelo://app?vid=f66113de-f3fb-4667-a759-f56810ed7f83","ios":"levelo://app?vid=f66113de-f3fb-4667-a759-f56810ed7f83"},"vehicle_type_id":"4","last_reported":1774787507,"current_range_meters":9200,"station_id":"","pricing_plan_id":"cebpf4jnsgd1na2vs0mg"},{"bike_id":"6203cc5b-78c8-4340-86f0-d1622ecdf35e","system_id":"levelo_inurba_marseille","lat":43.26385,"lon":5.41067,"is_reserved":false,"is_disabled":false,"rental_uris":{"android":"levelo://app?vid=6203cc5b-78c8-4340-86f0-d1622ecdf35e","ios":"levelo://app?vid=6203cc5b-78c8-4340-86f0-d1622ecdf35e"},"vehicle_type_id":"4","last_reported":1774787507,"current_range_meters":9200,"station_id":"st_d4e5ca6na9uc73bfl5fg","pricing_plan_id":"cebpf4jnsgd1na2vs0mg"},{"bike_id":"78ac4372-d8d6-448b-a0bb-a3ec321e1231","system_id":"levelo_inurba_marseille","lat":43.28614,"lon":5.35082,"is_reserved":false,"is_disabled":false,"rental_uris":{"android":"levelo://app?vid=78ac4372-d8d6-448b-a0bb-a3ec321e1231","ios":"levelo://app?vid=78ac4372-d8d6-448b-a0bb-a3ec321e1231"},"vehicle_type_id":"4","last_reported":1774787507,"current_range_meters":9200,"station_id":"ce4bhch2rcd13ifvqeug","pricing_plan_id":"cebpf4jnsgd1na2vs0mg"},{"bike_id":"b88f0692-9fc2-4799-bedb-b0f13212b350","system_id":"levelo_inurba_marseille","lat":43.21209,"lon":5.35048,"is_reserved":false,"is_disabled":false,"rental_uris":{"android":"levelo://app?vid=b88f0692-9fc2-4799-bedb-b0f13212b350","ios":"levelo://app?vid=b88f0692-9fc2-4799-bedb-b0f13212b350"},"vehicle_type_id":"4","last_reported":1774787507,"current_range_meters":9200,"station_id":"st_cvj6sg6p6f1abm77japg","pricing_plan_id":"cebpf4jnsgd1na2vs0mg"},{"bike_id":"2eb80afc-7a16-4cba-93dd-cb0a41503461","system_id":"levelo_inurba_marseille","lat":43.21744,"lon":5.34605,"is_reserved":false,"is_disabled":false,"rental_uris":{"android":"levelo://app?vid=2eb80afc-7a16-4cba-93dd-cb0a41503461","ios":"levelo://app?vid=2eb80afc-7a16-4cba-93dd-cb0a41503461"},"vehicle_type_id":"4","last_reported":1774787507,"current_range_meters":9200,"station_id":"st_cvj6r9ubvosntc0bgbag","pricing_plan_id":"cebpf4jnsgd1na2vs0mg"},{"bike_id":"397278e0-440c-401a-b00e-94a337b5111d","system_id":"levelo_inurba_marseille","lat":43.28529,"lon":5.44062,"is_reserved":false,"is_disabled":false,"rental_uris":{"android":"levelo://app?vid=397278e0-440c-401a-b00e-94a337b5111d","ios":"levelo://app?vid=397278e0-440c-401a-b00e-94a337b5111d"},"vehicle_type_id":"4","last_reported":1774787507,"current_range_meters":9200,"station_id":"st_d3j3df2ikq2c7380ej80","pricing_plan_id":"cebpf4jnsgd1na2vs0mg"},{"bike_id":"ce7cc80b-ebcb-4e62-9553-a1687f6d3ba2","system_id":"levelo_inurba_marseille","lat":43.27376,"lon":5.36256,"is_reserved":false,"is_disabled":false,"rental_uris":{"android":"levelo://app?vid=ce7cc80b-ebcb-4e62-9553-a1687f6d3ba2","ios":"levelo://app?vid=ce7cc80b-ebcb-4e62-9553-a1687f6d3ba2"},"vehicle_type_id":"4","last_reported":1774787507,"current_range_meters":9200,"station_id":"ce4bhbh2rcd13ifvqeo0","pricing_plan_id":"cebpf4jnsgd1na2vs0mg"},{"bike_id":"360cc1bb-ea03-4ff2-ae19-1fc21079e50c","system_id":"levelo_inurba_marseille","lat":43.21199,"lon":5.3507,"is_reserved":false,"is_disabled":false,"rental_uris":{"android":"levelo://app?vid=360cc1bb-ea03-4ff2-ae19-1fc21079e50c","ios":"levelo://app?vid=360cc1bb-ea03-4ff2-ae19-1fc21079e50c"},"vehicle_type_id":"4","last_reported":1774787507,"current_range_meters":9200,"station_id":"st_cvj6sg6p6f1abm77japg","pricing_plan_id":"cebpf4jnsgd1na2vs0mg"},{"bike_id":"ffbbe2a9-7484-4d0d-b2fd-42cde22f05be","system_id":"levelo_inurba_marseille","lat":43.25526,"lon":5.37638,"is_reserved":false,"is_disabled":false,"rental_uris":{"android":"levelo://app?vid=ffbbe2a9-7484-4d0d-b2fd-42cde22f05be","ios":"levelo://app?vid=ffbbe2a9-7484-4d0d-b2fd-42cde22f05be"},"vehicle_type_id":"4","last_reported":1774787507,"current_range_meters":9200,"station_id":"ce4bhh12rcd13ifvqff0","pricing_plan_id":"cebpf4jnsgd1na2vs0mg"},{"bike_id":"436a14e6-8c4f-48b5-acc8-deed1975664e","system_id":"levelo_inurba_marseille","lat":43.28423,"lon":5.34988,"is_reserved":false,"is_disabled":false,"rental_uris":{"android":"levelo://app?vid=436a14e6-8c4f-48b5-acc8-deed1975664e","ios":"levelo://app?vid=436a14e6-8c4f-48b5-acc8-deed1975664e"},"vehicle_type_id":"4","last_reported":1774787507,"current_range_meters":9200,"station_id":"ce4bhbh2rcd13ifvqepg","pricing_plan_id":"cebpf4jnsgd1na2vs0mg"},{"bike_id":"96d392f8-7fff-4df3-ab95-29e797d95701","system_id":"levelo_inurba_marseille","lat":43.24555,"lon":5.39525,"is_reserved":false,"is_disabled":false,"rental_uris":{"android":"levelo://app?vid=96d392f8-7fff-4df3-ab95-29e797d95701","ios":"levelo://app?vid=96d392f8-7fff-4df3-ab95-29e797d95701"},"vehicle_type_id":"4","last_reported":1774787507,"current_range_meters":9200,"station_id":"ce4bhlp2rcd13ifvqgjg","pricing_plan_id":"cebpf4jnsgd1na2vs0mg"},{"bike_id":"4096f1c8-965c-46e3-8095-e2b3f08129e2","system_id":"levelo_inurba_marseille","lat":43.31226,"lon":5.36859,"is_reserved":false,"is_disabled":false,"rental_uris":{"android":"levelo://app?vid=4096f1c8-965c-46e3-8095-e2b3f08129e2","ios":"levelo://app?vid=4096f1c8-965c-46e3-8095-e2b3f08129e2"},"vehicle_type_id":"4","last_reported":1774787507,"current_range_meters":9200,"station_id":"ce4bgl92rcd13ifvqbq0","pricing_plan_id":"cebpf4jnsgd1na2vs0mg"},{"bike_id":"ac474735-c61d-45e8-87ad-b3c1098691e0","system_id":"levelo_inurba_marseille","lat":43.23061,"lon":5.35494,"is_reserved":false,"is_disabled":false,"rental_uris":{"android":"levelo://app?vid=ac474735-c61d-45e8-87ad-b3c1098691e0","ios":"levelo://app?vid=ac474735-c61d-45e8-87ad-b3c1098691e0"},"vehicle_type_id":"4","last_reported":1774787507,"current_range_meters":9200,"station_id":"cpo3342slgdg3j2ifvpg","pricing_plan_id":"cebpf4jnsgd1na2vs0mg"},{"bike_id":"dc6c1ab8-4e84-44c3-98cc-92f090bae8ef","system_id":"levelo_inurba_marseille","lat":43.29516,"lon":5.39053,"is_reserved":false,"is_disabled":false,"rental_uris":{"android":"levelo://app?vid=dc6c1ab8-4e84-44c3-98cc-92f090bae8ef","ios":"levelo://app?vid=dc6c1ab8-4e84-44c3-98cc-92f090bae8ef"},"vehicle_type_id":"4","last_reported":1774787507,"current_range_meters":9200,"station_id":"ce4bh3p2rcd13ifvqdp0","pricing_plan_id":"cebpf4jnsgd1na2vs0mg"},{"bike_id":"aea41b74-0875-4007-a8fe-66599b4e59e6","system_id":"levelo_inurba_marseille","lat":43.28893,"lon":5.45682,"is_reserved":false,"is_disabled":false,"rental_uris":{"android":"levelo://app?vid=aea41b74-0875-4007-a8fe-66599b4e59e6","ios":"levelo://app?vid=aea41b74-0875-4007-a8fe-66599b4e59e6"},"vehicle_type_id":"4","last_reported":1774787507,"current_range_meters":9200,"station_id":"","pricing_plan_id":"cebpf4jnsgd1na2vs0mg"},{"bike_id":"6e77ebcf-80dc-4128-8b34-da33e18c2b17","system_id":"levelo_inurba_marseille","lat":43.27837,"lon":5.3921,"is_reserved":false,"is_disabled":false,"rental_uris":{"android":"levelo://app?vid=6e77ebcf-80dc-4128-8b34-da33e18c2b17","ios":"levelo://app?vid=6e77ebcf-80dc-4128-8b34-da33e18c2b17"},"vehicle_type_id":"4","last_reported":1774787507,"current_range_meters":9200,"station_id":"ce4bhjp2rcd13ifvqga0","pricing_plan_id":"cebpf4jnsgd1na2vs0mg"},{"bike_id":"2f5be23e-58ba-42cb-9d0a-f8ffe8257664","system_id":"levelo_inurba_marseille","lat":43.23152,"lon":5.43705,"is_reserved":false,"is_disabled":false,"rental_uris":{"android":"levelo://app?vid=2f5be23e-58ba-42cb-9d0a-f8ffe8257664","ios":"levelo://app?vid=2f5be23e-58ba-42cb-9d0a-f8ffe8257664"},"vehicle_type_id":"4","last_reported":1774787507,"current_range_meters":9200,"station_id":"ce4bhmp2rcd13ifvqgog","pricing_plan_id":"cebpf4jnsgd1na2vs0mg"},{"bike_id":"8b26d475-adfb-43a5-b19c-caf4f104de28","system_id":"levelo_inurba_marseille","lat":43.23066,"lon":5.35504,"is_reserved":false,"is_disabled":false,"rental_uris":{"android":"levelo://app?vid=8b26d475-adfb-43a5-b19c-caf4f104de28","ios":"levelo://app?vid=8b26d475-adfb-43a5-b19c-caf4f104de28"},"vehicle_type_id":"4","last_reported":1774787507,"current_range_meters":9600,"station_id":"cpo3342slgdg3j2ifvpg","pricing_plan_id":"cebpf4jnsgd1na2vs0mg"},{"bike_id":"b1cbf460-56cf-47f4-9cfc-cba147627bd7","system_id":"levelo_inurba_marseille","lat":43.21204,"lon":5.35053,"is_reserved":false,"is_disabled":false,"rental_uris":{"android":"levelo://app?vid=b1cbf460-56cf-47f4-9cfc-cba147627bd7","ios":"levelo://app?vid=b1cbf460-56cf-47f4-9cfc-cba147627bd7"},"vehicle_type_id":"4","last_reported":1774787507,"current_range_meters":9600,"station_id":"st_cvj6sg6p6f1abm77japg","pricing_plan_id":"cebpf4jnsgd1na2vs0mg"},{"bike_id":"8eb433e2-99ff-4186-9b79-fd6535098fae","system_id":"levelo_inurba_marseille","lat":43.22534,"lon":5.34832,"is_reserved":false,"is_disabled":false,"rental_uris":{"android":"levelo://app?vid=8eb433e2-99ff-4186-9b79-fd6535098fae","ios":"levelo://app?vid=8eb433e2-99ff-4186-9b79-fd6535098fae"},"vehicle_type_id":"4","last_reported":1774787507,"current_range_meters":9600,"station_id":"","pricing_plan_id":"cebpf4jnsgd1na2vs0mg"},{"bike_id":"6221d696-eabc-48d0-9847-3a9825ddd566","system_id":"levelo_inurba_marseille","lat":43.337444,"lon":5.374475,"is_reserved":false,"is_disabled":false,"rental_uris":{"android":"levelo://app?vid=6221d696-eabc-48d0-9847-3a9825ddd566","ios":"levelo://app?vid=6221d696-eabc-48d0-9847-3a9825ddd566"},"vehicle_type_id":"4","last_reported":1774787507,"current_range_meters":9600,"station_id":"","pricing_plan_id":"cebpf4jnsgd1na2vs0mg"},{"bike_id":"1b42944a-8e9d-43e4-8c02-34640e302b7a","system_id":"levelo_inurba_marseille","lat":43.29874,"lon":5.38908,"is_reserved":false,"is_disabled":true,"rental_uris":{"android":"levelo://app?vid=1b42944a-8e9d-43e4-8c02-34640e302b7a","ios":"levelo://app?vid=1b42944a-8e9d-43e4-8c02-34640e302b7a"},"vehicle_type_id":"4","last_reported":1774787507,"current_range_meters":9600,"station_id":"ce4bh392rcd13ifvqdl0","pricing_plan_id":"cebpf4jnsgd1na2vs0mg"},{"bike_id":"6d189367-b1da-46a7-b7d8-cc2f6c5c510a","system_id":"levelo_inurba_marseille","lat":43.24071,"lon":5.37738,"is_reserved":false,"is_disabled":false,"rental_uris":{"android":"levelo://app?vid=6d189367-b1da-46a7-b7d8-cc2f6c5c510a","ios":"levelo://app?vid=6d189367-b1da-46a7-b7d8-cc2f6c5c510a"},"vehicle_type_id":"4","last_reported":1774787507,"current_range_meters":9600,"station_id":"ce4bhnp2rcd13ifvqgvg","pricing_plan_id":"cebpf4jnsgd1na2vs0mg"},{"bike_id":"cc1d2bfc-f1f7-4b58-b176-bea335e5c3bd","system_id":"levelo_inurba_marseille","lat":43.29315,"lon":5.37119,"is_reserved":false,"is_disabled":false,"rental_uris":{"android":"levelo://app?vid=cc1d2bfc-f1f7-4b58-b176-bea335e5c3bd","ios":"levelo://app?vid=cc1d2bfc-f1f7-4b58-b176-bea335e5c3bd"},"vehicle_type_id":"4","last_reported":1774787507,"current_range_meters":9600,"station_id":"","pricing_plan_id":"cebpf4jnsgd1na2vs0mg"},{"bike_id":"18b8b91d-1c03-4395-84e6-03fd13b2ef1e","system_id":"levelo_inurba_marseille","lat":43.2841,"lon":5.34967,"is_reserved":false,"is_disabled":false,"rental_uris":{"android":"levelo://app?vid=18b8b91d-1c03-4395-84e6-03fd13b2ef1e","ios":"levelo://app?vid=18b8b91d-1c03-4395-84e6-03fd13b2ef1e"},"vehicle_type_id":"4","last_reported":1774787507,"current_range_meters":9600,"station_id":"ce4bhbh2rcd13ifvqepg","pricing_plan_id":"cebpf4jnsgd1na2vs0mg"},{"bike_id":"3e14eafa-0254-4f03-9b87-b8a8c3b3ca65","system_id":"levelo_inurba_marseille","lat":43.28488,"lon":5.48372,"is_reserved":false,"is_disabled":false,"rental_uris":{"android":"levelo://app?vid=3e14eafa-0254-4f03-9b87-b8a8c3b3ca65","ios":"levelo://app?vid=3e14eafa-0254-4f03-9b87-b8a8c3b3ca65"},"vehicle_type_id":"4","last_reported":1774787507,"current_range_meters":9600,"station_id":"","pricing_plan_id":"cebpf4jnsgd1na2vs0mg"},{"bike_id":"aa096f04-9bc4-4c84-b180-63b983513b22","system_id":"levelo_inurba_marseille","lat":43.32495,"lon":5.3827,"is_reserved":false,"is_disabled":false,"rental_uris":{"android":"levelo://app?vid=aa096f04-9bc4-4c84-b180-63b983513b22","ios":"levelo://app?vid=aa096f04-9bc4-4c84-b180-63b983513b22"},"vehicle_type_id":"4","last_reported":1774787507,"current_range_meters":9600,"station_id":"st_d4asgbiv49dc73anf9m0","pricing_plan_id":"cebpf4jnsgd1na2vs0mg"},{"bike_id":"0494ab6b-fd15-4c32-b24d-6d69a8df40f0","system_id":"levelo_inurba_marseille","lat":43.29968,"lon":5.38489,"is_reserved":false,"is_disabled":false,"rental_uris":{"android":"levelo://app?vid=0494ab6b-fd15-4c32-b24d-6d69a8df40f0","ios":"levelo://app?vid=0494ab6b-fd15-4c32-b24d-6d69a8df40f0"},"vehicle_type_id":"4","last_reported":1774787507,"current_range_meters":9600,"station_id":"ce4bgj92rcd13ifvqbd0","pricing_plan_id":"cebpf4jnsgd1na2vs0mg"},{"bike_id":"2cbc1068-deb8-4f8b-8b76-d186b40fac16","system_id":"levelo_inurba_marseille","lat":43.29545,"lon":5.39054,"is_reserved":false,"is_disabled":false,"rental_uris":{"android":"levelo://app?vid=2cbc1068-deb8-4f8b-8b76-d186b40fac16","ios":"levelo://app?vid=2cbc1068-deb8-4f8b-8b76-d186b40fac16"},"vehicle_type_id":"4","last_reported":1774787507,"current_range_meters":9600,"station_id":"ce4bh3p2rcd13ifvqdp0","pricing_plan_id":"cebpf4jnsgd1na2vs0mg"},{"bike_id":"77fb3337-f6bb-42a5-8c07-6f4807686a26","system_id":"levelo_inurba_marseille","lat":43.21747,"lon":5.34604,"is_reserved":false,"is_disabled":false,"rental_uris":{"android":"levelo://app?vid=77fb3337-f6bb-42a5-8c07-6f4807686a26","ios":"levelo://app?vid=77fb3337-f6bb-42a5-8c07-6f4807686a26"},"vehicle_type_id":"4","last_reported":1774787507,"current_range_meters":9600,"station_id":"st_cvj6r9ubvosntc0bgbag","pricing_plan_id":"cebpf4jnsgd1na2vs0mg"},{"bike_id":"06b53612-4274-4a2a-a30c-9f8601005844","system_id":"levelo_inurba_marseille","lat":43.28422,"lon":5.3498,"is_reserved":false,"is_disabled":false,"rental_uris":{"android":"levelo://app?vid=06b53612-4274-4a2a-a30c-9f8601005844","ios":"levelo://app?vid=06b53612-4274-4a2a-a30c-9f8601005844"},"vehicle_type_id":"4","last_reported":1774787507,"current_range_meters":9600,"station_id":"ce4bhbh2rcd13ifvqepg","pricing_plan_id":"cebpf4jnsgd1na2vs0mg"},{"bike_id":"5996e96e-47dc-46a6-ab95-328ed59c396d","system_id":"levelo_inurba_marseille","lat":43.2902,"lon":5.38634,"is_reserved":false,"is_disabled":false,"rental_uris":{"android":"levelo://app?vid=5996e96e-47dc-46a6-ab95-328ed59c396d","ios":"levelo://app?vid=5996e96e-47dc-46a6-ab95-328ed59c396d"},"vehicle_type_id":"4","last_reported":1774787507,"current_range_meters":9600,"station_id":"ce4bh4p2rcd13ifvqe0g","pricing_plan_id":"cebpf4jnsgd1na2vs0mg"},{"bike_id":"f80b49c2-904e-47b6-8d38-d811b0e62949","system_id":"levelo_inurba_marseille","lat":43.26421,"lon":5.39887,"is_reserved":false,"is_disabled":false,"rental_uris":{"android":"levelo://app?vid=f80b49c2-904e-47b6-8d38-d811b0e62949","ios":"levelo://app?vid=f80b49c2-904e-47b6-8d38-d811b0e62949"},"vehicle_type_id":"4","last_reported":1774787507,"current_range_meters":9600,"station_id":"","pricing_plan_id":"cebpf4jnsgd1na2vs0mg"},{"bike_id":"532c5324-fb16-4a5e-b25b-a57e56be9441","system_id":"levelo_inurba_marseille","lat":43.2842,"lon":5.34964,"is_reserved":false,"is_disabled":false,"rental_uris":{"android":"levelo://app?vid=532c5324-fb16-4a5e-b25b-a57e56be9441","ios":"levelo://app?vid=532c5324-fb16-4a5e-b25b-a57e56be9441"},"vehicle_type_id":"4","last_reported":1774787507,"current_range_meters":9600,"station_id":"ce4bhbh2rcd13ifvqepg","pricing_plan_id":"cebpf4jnsgd1na2vs0mg"},{"bike_id":"c3459aa8-47f1-4f6d-a5da-65d4df55c052","system_id":"levelo_inurba_marseille","lat":43.217504,"lon":5.345957,"is_reserved":false,"is_disabled":false,"rental_uris":{"android":"levelo://app?vid=c3459aa8-47f1-4f6d-a5da-65d4df55c052","ios":"levelo://app?vid=c3459aa8-47f1-4f6d-a5da-65d4df55c052"},"vehicle_type_id":"4","last_reported":1774787507,"current_range_meters":9600,"station_id":"st_cvj6r9ubvosntc0bgbag","pricing_plan_id":"cebpf4jnsgd1na2vs0mg"},{"bike_id":"91d7065a-b180-466d-a8f5-3622fef2d1a7","system_id":"levelo_inurba_marseille","lat":43.28263,"lon":5.35074,"is_reserved":false,"is_disabled":false,"rental_uris":{"android":"levelo://app?vid=91d7065a-b180-466d-a8f5-3622fef2d1a7","ios":"levelo://app?vid=91d7065a-b180-466d-a8f5-3622fef2d1a7"},"vehicle_type_id":"4","last_reported":1774787507,"current_range_meters":10000,"station_id":"ce4bhbp2rcd13ifvqerg","pricing_plan_id":"cebpf4jnsgd1na2vs0mg"},{"bike_id":"05f9bb45-8809-4205-b9e3-1f1e967f85de","system_id":"levelo_inurba_marseille","lat":43.28627,"lon":5.3507,"is_reserved":false,"is_disabled":false,"rental_uris":{"android":"levelo://app?vid=05f9bb45-8809-4205-b9e3-1f1e967f85de","ios":"levelo://app?vid=05f9bb45-8809-4205-b9e3-1f1e967f85de"},"vehicle_type_id":"4","last_reported":1774787507,"current_range_meters":10000,"station_id":"ce4bhch2rcd13ifvqeug","pricing_plan_id":"cebpf4jnsgd1na2vs0mg"},{"bike_id":"e7748134-61a0-40ea-8c74-d4dd3b6d234d","system_id":"levelo_inurba_marseille","lat":43.23791,"lon":5.36627,"is_reserved":false,"is_disabled":false,"rental_uris":{"android":"levelo://app?vid=e7748134-61a0-40ea-8c74-d4dd3b6d234d","ios":"levelo://app?vid=e7748134-61a0-40ea-8c74-d4dd3b6d234d"},"vehicle_type_id":"4","last_reported":1774787507,"current_range_meters":10000,"station_id":"st_d3nk18o9ro0c73en2l3g","pricing_plan_id":"cebpf4jnsgd1na2vs0mg"},{"bike_id":"8ae7d4cc-742f-4d9c-b136-378247d45b9d","system_id":"levelo_inurba_marseille","lat":43.29006,"lon":5.35609,"is_reserved":false,"is_disabled":false,"rental_uris":{"android":"levelo://app?vid=8ae7d4cc-742f-4d9c-b136-378247d45b9d","ios":"levelo://app?vid=8ae7d4cc-742f-4d9c-b136-378247d45b9d"},"vehicle_type_id":"4","last_reported":1774787507,"current_range_meters":10000,"station_id":"ce4bhb92rcd13ifvqen0","pricing_plan_id":"cebpf4jnsgd1na2vs0mg"},{"bike_id":"10f001e3-1b5e-4722-bd6e-1cdc4b551001","system_id":"levelo_inurba_marseille","lat":43.28425,"lon":5.34987,"is_reserved":false,"is_disabled":false,"rental_uris":{"android":"levelo://app?vid=10f001e3-1b5e-4722-bd6e-1cdc4b551001","ios":"levelo://app?vid=10f001e3-1b5e-4722-bd6e-1cdc4b551001"},"vehicle_type_id":"4","last_reported":1774787507,"current_range_meters":10000,"station_id":"ce4bhbh2rcd13ifvqepg","pricing_plan_id":"cebpf4jnsgd1na2vs0mg"},{"bike_id":"5c4058ac-b231-433f-9345-a2389dd03893","system_id":"levelo_inurba_marseille","lat":43.27368,"lon":5.36245,"is_reserved":false,"is_disabled":false,"rental_uris":{"android":"levelo://app?vid=5c4058ac-b231-433f-9345-a2389dd03893","ios":"levelo://app?vid=5c4058ac-b231-433f-9345-a2389dd03893"},"vehicle_type_id":"4","last_reported":1774787507,"current_range_meters":10000,"station_id":"ce4bhbh2rcd13ifvqeo0","pricing_plan_id":"cebpf4jnsgd1na2vs0mg"},{"bike_id":"f7511be8-6fac-4cad-a9c5-27d25444e3d3","system_id":"levelo_inurba_marseille","lat":43.31347,"lon":5.36707,"is_reserved":false,"is_disabled":false,"rental_uris":{"android":"levelo://app?vid=f7511be8-6fac-4cad-a9c5-27d25444e3d3","ios":"levelo://app?vid=f7511be8-6fac-4cad-a9c5-27d25444e3d3"},"vehicle_type_id":"4","last_reported":1774787507,"current_range_meters":10000,"station_id":"ce4bgr92rcd13ifvqc6g","pricing_plan_id":"cebpf4jnsgd1na2vs0mg"},{"bike_id":"9e61549d-eea4-4019-910e-edc64cb8b2ba","system_id":"levelo_inurba_marseille","lat":43.23065,"lon":5.35497,"is_reserved":false,"is_disabled":false,"rental_uris":{"android":"levelo://app?vid=9e61549d-eea4-4019-910e-edc64cb8b2ba","ios":"levelo://app?vid=9e61549d-eea4-4019-910e-edc64cb8b2ba"},"vehicle_type_id":"4","last_reported":1774787507,"current_range_meters":10000,"station_id":"cpo3342slgdg3j2ifvpg","pricing_plan_id":"cebpf4jnsgd1na2vs0mg"},{"bike_id":"5cd86f4e-c5d8-4ff1-ba09-621dac041865","system_id":"levelo_inurba_marseille","lat":43.24348,"lon":5.40845,"is_reserved":false,"is_disabled":false,"rental_uris":{"android":"levelo://app?vid=5cd86f4e-c5d8-4ff1-ba09-621dac041865","ios":"levelo://app?vid=5cd86f4e-c5d8-4ff1-ba09-621dac041865"},"vehicle_type_id":"4","last_reported":1774787507,"current_range_meters":10000,"station_id":"","pricing_plan_id":"cebpf4jnsgd1na2vs0mg"},{"bike_id":"5444e17a-f5c3-4cd7-8cc8-ed97c7571625","system_id":"levelo_inurba_marseille","lat":43.29249,"lon":5.3686,"is_reserved":false,"is_disabled":false,"rental_uris":{"android":"levelo://app?vid=5444e17a-f5c3-4cd7-8cc8-ed97c7571625","ios":"levelo://app?vid=5444e17a-f5c3-4cd7-8cc8-ed97c7571625"},"vehicle_type_id":"4","last_reported":1774787507,"current_range_meters":10800,"station_id":"ce4bhbp2rcd13ifvqesg","pricing_plan_id":"cebpf4jnsgd1na2vs0mg"},{"bike_id":"b1cbee6f-5252-47e1-abc8-2154ff88b339","system_id":"levelo_inurba_marseille","lat":43.32342,"lon":5.36709,"is_reserved":false,"is_disabled":false,"rental_uris":{"android":"levelo://app?vid=b1cbee6f-5252-47e1-abc8-2154ff88b339","ios":"levelo://app?vid=b1cbee6f-5252-47e1-abc8-2154ff88b339"},"vehicle_type_id":"4","last_reported":1774787507,"current_range_meters":10800,"station_id":"ce4bhsh2rcd13ifvqi2g","pricing_plan_id":"cebpf4jnsgd1na2vs0mg"},{"bike_id":"081396a9-4582-40d9-8629-4006a7a9aaee","system_id":"levelo_inurba_marseille","lat":43.28489,"lon":5.48382,"is_reserved":false,"is_disabled":false,"rental_uris":{"android":"levelo://app?vid=081396a9-4582-40d9-8629-4006a7a9aaee","ios":"levelo://app?vid=081396a9-4582-40d9-8629-4006a7a9aaee"},"vehicle_type_id":"4","last_reported":1774787507,"current_range_meters":10800,"station_id":"","pricing_plan_id":"cebpf4jnsgd1na2vs0mg"},{"bike_id":"60005e45-ad33-4e76-a3db-619cd42aec5f","system_id":"levelo_inurba_marseille","lat":43.28409,"lon":5.34969,"is_reserved":false,"is_disabled":false,"rental_uris":{"android":"levelo://app?vid=60005e45-ad33-4e76-a3db-619cd42aec5f","ios":"levelo://app?vid=60005e45-ad33-4e76-a3db-619cd42aec5f"},"vehicle_type_id":"4","last_reported":1774787507,"current_range_meters":10800,"station_id":"ce4bhbh2rcd13ifvqepg","pricing_plan_id":"cebpf4jnsgd1na2vs0mg"},{"bike_id":"ca2e7868-af0d-474f-a9d6-22436e4d7643","system_id":"levelo_inurba_marseille","lat":43.337444,"lon":5.374475,"is_reserved":false,"is_disabled":false,"rental_uris":{"android":"levelo://app?vid=ca2e7868-af0d-474f-a9d6-22436e4d7643","ios":"levelo://app?vid=ca2e7868-af0d-474f-a9d6-22436e4d7643"},"vehicle_type_id":"4","last_reported":1774787507,"current_range_meters":10800,"station_id":"","pricing_plan_id":"cebpf4jnsgd1na2vs0mg"},{"bike_id":"6cfdba25-b046-4c72-a8ed-0a53871061d1","system_id":"levelo_inurba_marseille","lat":43.2842,"lon":5.3498,"is_reserved":false,"is_disabled":false,"rental_uris":{"android":"levelo://app?vid=6cfdba25-b046-4c72-a8ed-0a53871061d1","ios":"levelo://app?vid=6cfdba25-b046-4c72-a8ed-0a53871061d1"},"vehicle_type_id":"4","last_reported":1774787507,"current_range_meters":10800,"station_id":"ce4bhbh2rcd13ifvqepg","pricing_plan_id":"cebpf4jnsgd1na2vs0mg"},{"bike_id":"2b50c2a8-b711-41a7-baf3-7f6ea868bf8b","system_id":"levelo_inurba_marseille","lat":43.28615,"lon":5.351,"is_reserved":false,"is_disabled":false,"rental_uris":{"android":"levelo://app?vid=2b50c2a8-b711-41a7-baf3-7f6ea868bf8b","ios":"levelo://app?vid=2b50c2a8-b711-41a7-baf3-7f6ea868bf8b"},"vehicle_type_id":"4","last_reported":1774787507,"current_range_meters":10800,"station_id":"ce4bhch2rcd13ifvqeug","pricing_plan_id":"cebpf4jnsgd1na2vs0mg"},{"bike_id":"fd33c646-9200-4ec6-98dc-c32506d931b7","system_id":"levelo_inurba_marseille","lat":43.28627,"lon":5.35107,"is_reserved":false,"is_disabled":false,"rental_uris":{"android":"levelo://app?vid=fd33c646-9200-4ec6-98dc-c32506d931b7","ios":"levelo://app?vid=fd33c646-9200-4ec6-98dc-c32506d931b7"},"vehicle_type_id":"4","last_reported":1774787507,"current_range_meters":10800,"station_id":"ce4bhch2rcd13ifvqeug","pricing_plan_id":"cebpf4jnsgd1na2vs0mg"},{"bike_id":"b159cfdc-4e3d-42c0-b5ef-43f4122d544b","system_id":"levelo_inurba_marseille","lat":43.3134,"lon":5.36725,"is_reserved":false,"is_disabled":false,"rental_uris":{"android":"levelo://app?vid=b159cfdc-4e3d-42c0-b5ef-43f4122d544b","ios":"levelo://app?vid=b159cfdc-4e3d-42c0-b5ef-43f4122d544b"},"vehicle_type_id":"4","last_reported":1774787507,"current_range_meters":10800,"station_id":"ce4bgr92rcd13ifvqc6g","pricing_plan_id":"cebpf4jnsgd1na2vs0mg"},{"bike_id":"a3410a43-779f-412b-aa84-39d5fc63fb20","system_id":"levelo_inurba_marseille","lat":43.24464,"lon":5.42537,"is_reserved":false,"is_disabled":false,"rental_uris":{"android":"levelo://app?vid=a3410a43-779f-412b-aa84-39d5fc63fb20","ios":"levelo://app?vid=a3410a43-779f-412b-aa84-39d5fc63fb20"},"vehicle_type_id":"4","last_reported":1774787507,"current_range_meters":10800,"station_id":"st_d4a3vfp97mjs738cd8kg","pricing_plan_id":"cebpf4jnsgd1na2vs0mg"},{"bike_id":"0aaeb449-948c-496a-b713-c028b991b7ea","system_id":"levelo_inurba_marseille","lat":43.28477,"lon":5.48409,"is_reserved":false,"is_disabled":false,"rental_uris":{"android":"levelo://app?vid=0aaeb449-948c-496a-b713-c028b991b7ea","ios":"levelo://app?vid=0aaeb449-948c-496a-b713-c028b991b7ea"},"vehicle_type_id":"4","last_reported":1774787507,"current_range_meters":10800,"station_id":"st_d3svhcjqgbts73a3dn0g","pricing_plan_id":"cebpf4jnsgd1na2vs0mg"},{"bike_id":"8dfcaa98-e54a-46ed-893d-3bb636452709","system_id":"levelo_inurba_marseille","lat":43.26235,"lon":5.40442,"is_reserved":false,"is_disabled":false,"rental_uris":{"android":"levelo://app?vid=8dfcaa98-e54a-46ed-893d-3bb636452709","ios":"levelo://app?vid=8dfcaa98-e54a-46ed-893d-3bb636452709"},"vehicle_type_id":"4","last_reported":1774787507,"current_range_meters":10800,"station_id":"ce4bhmh2rcd13ifvqgmg","pricing_plan_id":"cebpf4jnsgd1na2vs0mg"},{"bike_id":"20a80d48-b582-4670-b024-d043424a6446","system_id":"levelo_inurba_marseille","lat":43.24512,"lon":5.39711,"is_reserved":false,"is_disabled":false,"rental_uris":{"android":"levelo://app?vid=20a80d48-b582-4670-b024-d043424a6446","ios":"levelo://app?vid=20a80d48-b582-4670-b024-d043424a6446"},"vehicle_type_id":"4","last_reported":1774787507,"current_range_meters":10800,"station_id":"","pricing_plan_id":"cebpf4jnsgd1na2vs0mg"},{"bike_id":"d1feea73-92fd-42db-9e4a-21f243332e21","system_id":"levelo_inurba_marseille","lat":43.23785,"lon":5.36624,"is_reserved":false,"is_disabled":false,"rental_uris":{"android":"levelo://app?vid=d1feea73-92fd-42db-9e4a-21f243332e21","ios":"levelo://app?vid=d1feea73-92fd-42db-9e4a-21f243332e21"},"vehicle_type_id":"4","last_reported":1774787507,"current_range_meters":10800,"station_id":"st_d3nk18o9ro0c73en2l3g","pricing_plan_id":"cebpf4jnsgd1na2vs0mg"},{"bike_id":"0af897bb-0c09-471d-a0b9-529cb79215d0","system_id":"levelo_inurba_marseille","lat":43.26064,"lon":5.39387,"is_reserved":false,"is_disabled":false,"rental_uris":{"android":"levelo://app?vid=0af897bb-0c09-471d-a0b9-529cb79215d0","ios":"levelo://app?vid=0af897bb-0c09-471d-a0b9-529cb79215d0"},"vehicle_type_id":"4","last_reported":1774787507,"current_range_meters":10800,"station_id":"ce4bhh92rcd13ifvqfj0","pricing_plan_id":"cebpf4jnsgd1na2vs0mg"},{"bike_id":"262224aa-5cb1-4c15-8791-83b647f81270","system_id":"levelo_inurba_marseille","lat":43.21194,"lon":5.35072,"is_reserved":false,"is_disabled":false,"rental_uris":{"android":"levelo://app?vid=262224aa-5cb1-4c15-8791-83b647f81270","ios":"levelo://app?vid=262224aa-5cb1-4c15-8791-83b647f81270"},"vehicle_type_id":"4","last_reported":1774787507,"current_range_meters":10800,"station_id":"","pricing_plan_id":"cebpf4jnsgd1na2vs0mg"},{"bike_id":"bf369341-e606-4218-8a27-7e1eddc9da96","system_id":"levelo_inurba_marseille","lat":43.28,"lon":5.3999,"is_reserved":false,"is_disabled":false,"rental_uris":{"android":"levelo://app?vid=bf369341-e606-4218-8a27-7e1eddc9da96","ios":"levelo://app?vid=bf369341-e606-4218-8a27-7e1eddc9da96"},"vehicle_type_id":"4","last_reported":1774787507,"current_range_meters":10800,"station_id":"ce4bho92rcd13ifvqh4g","pricing_plan_id":"cebpf4jnsgd1na2vs0mg"},{"bike_id":"a0999d65-1a64-4644-b073-a899770e589a","system_id":"levelo_inurba_marseille","lat":43.238,"lon":5.36636,"is_reserved":false,"is_disabled":false,"rental_uris":{"android":"levelo://app?vid=a0999d65-1a64-4644-b073-a899770e589a","ios":"levelo://app?vid=a0999d65-1a64-4644-b073-a899770e589a"},"vehicle_type_id":"4","last_reported":1774787507,"current_range_meters":10800,"station_id":"st_d3nk18o9ro0c73en2l3g","pricing_plan_id":"cebpf4jnsgd1na2vs0mg"},{"bike_id":"c448a442-30a4-4284-b827-ae08009e43b4","system_id":"levelo_inurba_marseille","lat":43.29633,"lon":5.3807,"is_reserved":false,"is_disabled":true,"rental_uris":{"android":"levelo://app?vid=c448a442-30a4-4284-b827-ae08009e43b4","ios":"levelo://app?vid=c448a442-30a4-4284-b827-ae08009e43b4"},"vehicle_type_id":"4","last_reported":1774787507,"current_range_meters":10800,"station_id":"ce4bgl12rcd13ifvqbo0","pricing_plan_id":"cebpf4jnsgd1na2vs0mg"},{"bike_id":"cf895956-b469-43d4-816c-a7d211507799","system_id":"levelo_inurba_marseille","lat":43.29729,"lon":5.37031,"is_reserved":false,"is_disabled":false,"rental_uris":{"android":"levelo://app?vid=cf895956-b469-43d4-816c-a7d211507799","ios":"levelo://app?vid=cf895956-b469-43d4-816c-a7d211507799"},"vehicle_type_id":"4","last_reported":1774787507,"current_range_meters":10800,"station_id":"","pricing_plan_id":"cebpf4jnsgd1na2vs0mg"},{"bike_id":"826ee45c-02b8-4e18-8f7b-8f44d73625ea","system_id":"levelo_inurba_marseille","lat":43.304718,"lon":5.373065,"is_reserved":false,"is_disabled":false,"rental_uris":{"android":"levelo://app?vid=826ee45c-02b8-4e18-8f7b-8f44d73625ea","ios":"levelo://app?vid=826ee45c-02b8-4e18-8f7b-8f44d73625ea"},"vehicle_type_id":"4","last_reported":1774787507,"current_range_meters":10800,"station_id":"ce4bgqh2rcd13ifvqc4g","pricing_plan_id":"cebpf4jnsgd1na2vs0mg"},{"bike_id":"5f1a297c-01eb-46bd-af35-511921964f6c","system_id":"levelo_inurba_marseille","lat":43.28792,"lon":5.35994,"is_reserved":false,"is_disabled":false,"rental_uris":{"android":"levelo://app?vid=5f1a297c-01eb-46bd-af35-511921964f6c","ios":"levelo://app?vid=5f1a297c-01eb-46bd-af35-511921964f6c"},"vehicle_type_id":"4","last_reported":1774787507,"current_range_meters":10800,"station_id":"","pricing_plan_id":"cebpf4jnsgd1na2vs0mg"},{"bike_id":"4d392a02-90b9-4d62-95e0-dd3eeab70b16","system_id":"levelo_inurba_marseille","lat":43.21741,"lon":5.34604,"is_reserved":false,"is_disabled":false,"rental_uris":{"android":"levelo://app?vid=4d392a02-90b9-4d62-95e0-dd3eeab70b16","ios":"levelo://app?vid=4d392a02-90b9-4d62-95e0-dd3eeab70b16"},"vehicle_type_id":"4","last_reported":1774787507,"current_range_meters":10800,"station_id":"st_cvj6r9ubvosntc0bgbag","pricing_plan_id":"cebpf4jnsgd1na2vs0mg"},{"bike_id":"64520afc-2104-4c0a-b4fd-b3f342d15b6b","system_id":"levelo_inurba_marseille","lat":43.28531,"lon":5.44099,"is_reserved":false,"is_disabled":false,"rental_uris":{"android":"levelo://app?vid=64520afc-2104-4c0a-b4fd-b3f342d15b6b","ios":"levelo://app?vid=64520afc-2104-4c0a-b4fd-b3f342d15b6b"},"vehicle_type_id":"4","last_reported":1774787507,"current_range_meters":10800,"station_id":"st_d3j3df2ikq2c7380ej80","pricing_plan_id":"cebpf4jnsgd1na2vs0mg"},{"bike_id":"624c0da2-f898-441e-b4f4-9b72e0ca55b3","system_id":"levelo_inurba_marseille","lat":43.23797,"lon":5.36622,"is_reserved":false,"is_disabled":false,"rental_uris":{"android":"levelo://app?vid=624c0da2-f898-441e-b4f4-9b72e0ca55b3","ios":"levelo://app?vid=624c0da2-f898-441e-b4f4-9b72e0ca55b3"},"vehicle_type_id":"4","last_reported":1774787507,"current_range_meters":10800,"station_id":"st_d3nk18o9ro0c73en2l3g","pricing_plan_id":"cebpf4jnsgd1na2vs0mg"},{"bike_id":"f103cc34-96c3-4868-ad5e-e0c28779d718","system_id":"levelo_inurba_marseille","lat":43.23061,"lon":5.35462,"is_reserved":false,"is_disabled":false,"rental_uris":{"android":"levelo://app?vid=f103cc34-96c3-4868-ad5e-e0c28779d718","ios":"levelo://app?vid=f103cc34-96c3-4868-ad5e-e0c28779d718"},"vehicle_type_id":"4","last_reported":1774787507,"current_range_meters":10800,"station_id":"cpo3342slgdg3j2ifvpg","pricing_plan_id":"cebpf4jnsgd1na2vs0mg"},{"bike_id":"7a8b55aa-2105-434f-97d6-2644484ea385","system_id":"levelo_inurba_marseille","lat":43.27129,"lon":5.39241,"is_reserved":false,"is_disabled":false,"rental_uris":{"android":"levelo://app?vid=7a8b55aa-2105-434f-97d6-2644484ea385","ios":"levelo://app?vid=7a8b55aa-2105-434f-97d6-2644484ea385"},"vehicle_type_id":"4","last_reported":1774787507,"current_range_meters":10800,"station_id":"","pricing_plan_id":"cebpf4jnsgd1na2vs0mg"},{"bike_id":"4cf43f35-8451-4d33-a27e-48b8f0d8cc62","system_id":"levelo_inurba_marseille","lat":43.28477,"lon":5.48406,"is_reserved":false,"is_disabled":false,"rental_uris":{"android":"levelo://app?vid=4cf43f35-8451-4d33-a27e-48b8f0d8cc62","ios":"levelo://app?vid=4cf43f35-8451-4d33-a27e-48b8f0d8cc62"},"vehicle_type_id":"4","last_reported":1774787507,"current_range_meters":11200,"station_id":"st_d3svhcjqgbts73a3dn0g","pricing_plan_id":"cebpf4jnsgd1na2vs0mg"},{"bike_id":"9dc4b4ca-fefd-40ac-9398-ed621983e3db","system_id":"levelo_inurba_marseille","lat":43.29372,"lon":5.37841,"is_reserved":false,"is_disabled":false,"rental_uris":{"android":"levelo://app?vid=9dc4b4ca-fefd-40ac-9398-ed621983e3db","ios":"levelo://app?vid=9dc4b4ca-fefd-40ac-9398-ed621983e3db"},"vehicle_type_id":"4","last_reported":1774787507,"current_range_meters":11200,"station_id":"ce4bgjh2rcd13ifvqbf0","pricing_plan_id":"cebpf4jnsgd1na2vs0mg"},{"bike_id":"9d805782-2350-4e56-b117-cef8a8ea3fef","system_id":"levelo_inurba_marseille","lat":43.24762,"lon":5.37366,"is_reserved":false,"is_disabled":false,"rental_uris":{"android":"levelo://app?vid=9d805782-2350-4e56-b117-cef8a8ea3fef","ios":"levelo://app?vid=9d805782-2350-4e56-b117-cef8a8ea3fef"},"vehicle_type_id":"4","last_reported":1774787507,"current_range_meters":11200,"station_id":"","pricing_plan_id":"cebpf4jnsgd1na2vs0mg"},{"bike_id":"d8d18bea-b682-442e-8bd3-841eee487048","system_id":"levelo_inurba_marseille","lat":43.28229,"lon":5.39022,"is_reserved":false,"is_disabled":false,"rental_uris":{"android":"levelo://app?vid=d8d18bea-b682-442e-8bd3-841eee487048","ios":"levelo://app?vid=d8d18bea-b682-442e-8bd3-841eee487048"},"vehicle_type_id":"4","last_reported":1774787507,"current_range_meters":11200,"station_id":"","pricing_plan_id":"cebpf4jnsgd1na2vs0mg"},{"bike_id":"9c719e14-99db-448e-b6a8-249dbce4b79a","system_id":"levelo_inurba_marseille","lat":43.2739,"lon":5.36248,"is_reserved":false,"is_disabled":false,"rental_uris":{"android":"levelo://app?vid=9c719e14-99db-448e-b6a8-249dbce4b79a","ios":"levelo://app?vid=9c719e14-99db-448e-b6a8-249dbce4b79a"},"vehicle_type_id":"4","last_reported":1774787507,"current_range_meters":11200,"station_id":"ce4bhbh2rcd13ifvqeo0","pricing_plan_id":"cebpf4jnsgd1na2vs0mg"},{"bike_id":"ed81ca7d-029b-4949-9833-0cf6f60f940f","system_id":"levelo_inurba_marseille","lat":43.29588,"lon":5.36736,"is_reserved":false,"is_disabled":false,"rental_uris":{"android":"levelo://app?vid=ed81ca7d-029b-4949-9833-0cf6f60f940f","ios":"levelo://app?vid=ed81ca7d-029b-4949-9833-0cf6f60f940f"},"vehicle_type_id":"4","last_reported":1774787507,"current_range_meters":11200,"station_id":"ce4bgph2rcd13ifvqc2g","pricing_plan_id":"cebpf4jnsgd1na2vs0mg"},{"bike_id":"5a98e30a-2237-4c1e-9c04-11b2256b7fff","system_id":"levelo_inurba_marseille","lat":43.27998,"lon":5.40003,"is_reserved":false,"is_disabled":false,"rental_uris":{"android":"levelo://app?vid=5a98e30a-2237-4c1e-9c04-11b2256b7fff","ios":"levelo://app?vid=5a98e30a-2237-4c1e-9c04-11b2256b7fff"},"vehicle_type_id":"4","last_reported":1774787507,"current_range_meters":11200,"station_id":"ce4bho92rcd13ifvqh4g","pricing_plan_id":"cebpf4jnsgd1na2vs0mg"},{"bike_id":"7e8a2637-3b49-48ba-8f65-a0fde4f92f21","system_id":"levelo_inurba_marseille","lat":43.21741,"lon":5.34595,"is_reserved":false,"is_disabled":false,"rental_uris":{"android":"levelo://app?vid=7e8a2637-3b49-48ba-8f65-a0fde4f92f21","ios":"levelo://app?vid=7e8a2637-3b49-48ba-8f65-a0fde4f92f21"},"vehicle_type_id":"4","last_reported":1774787507,"current_range_meters":11200,"station_id":"st_cvj6r9ubvosntc0bgbag","pricing_plan_id":"cebpf4jnsgd1na2vs0mg"},{"bike_id":"f2be668f-3e4c-4b42-b51a-a916a69cd9f9","system_id":"levelo_inurba_marseille","lat":43.30544,"lon":5.36671,"is_reserved":false,"is_disabled":false,"rental_uris":{"android":"levelo://app?vid=f2be668f-3e4c-4b42-b51a-a916a69cd9f9","ios":"levelo://app?vid=f2be668f-3e4c-4b42-b51a-a916a69cd9f9"},