{"last_updated":1740838061,"ttl":60,"version":"2.2","data":{"bikes":[{"bike_id":"a784e81d-5006-4453-9717-ffbf01f0dbd6","system_id":"levelo_inurba_marseille","lat":43.29971,"lon":5.38487,"is_reserved":false,"is_disabled":true,"rental_uris":{"android":"levelo://app?vid=a784e81d-5006-4453-9717-ffbf01f0dbd6","ios":"levelo://app?vid=a784e81d-5006-4453-9717-ffbf01f0dbd6"},"vehicle_type_id":"4","last_reported":1740838061,"current_range_meters":3200,"station_id":"ce4bgj92rcd13ifvqbd0","pricing_plan_id":"cebpf4jnsgd1na2vs0mg"},{"bike_id":"aca14adc-36e9-46db-966a-05761590058e","system_id":"levelo_inurba_marseille","lat":43.30206,"lon":5.39797,"is_reserved":false,"is_disabled":false,"rental_uris":{"android":"levelo://app?vid=aca14adc-36e9-46db-966a-05761590058e","ios":"levelo://app?vid=aca14adc-36e9-46db-966a-05761590058e"},"vehicle_type_id":"4","last_reported":1740838061,"current_range_meters":3600,"station_id":"","pricing_plan_id":"cebpf4jnsgd1na2vs0mg"},{"bike_id":"436f5027-5773-444a-b93f-86d07bb2e496","system_id":"levelo_inurba_marseille","lat":43.2797,"lon":5.38736,"is_reserved":false,"is_disabled":false,"rental_uris":{"android":"levelo://app?vid=436f5027-5773-444a-b93f-86d07bb2e496","ios":"levelo://app?vid=436f5027-5773-444a-b93f-86d07bb2e496"},"vehicle_type_id":"4","last_reported":1740838061,"current_range_meters":3600,"station_id":"ce4bhg12rcd13ifvqf80","pricing_plan_id":"cebpf4jnsgd1na2vs0mg"},{"bike_id":"17ddbbb5-11e9-4dea-8d48-8df35a23e77a","system_id":"levelo_inurba_marseille","lat":43.31617,"lon":5.39163,"is_reserved":false,"is_disabled":false,"rental_uris":{"android":"levelo://app?vid=17ddbbb5-11e9-4dea-8d48-8df35a23e77a","ios":"levelo://app?vid=17ddbbb5-11e9-4dea-8d48-8df35a23e77a"},"vehicle_type_id":"4","last_reported":1740838061,"current_range_meters":3600,"station_id":"","pricing_plan_id":"cebpf4jnsgd1na2vs0mg"},{"bike_id":"51254141-d350-4739-8f91-9c1ecd241bcb","system_id":"levelo_inurba_marseille","lat":43.29854,"lon":5.36278,"is_reserved":false,"is_disabled":false,"rental_uris":{"android":"levelo://app?vid=51254141-d350-4739-8f91-9c1ecd241bcb","ios":"levelo://app?vid=51254141-d350-4739-8f91-9c1ecd241bcb"},"vehicle_type_id":"4","last_reported":1740838061,"current_range_meters":3600,"station_id":"ce4bgpp2rcd13ifvqc3g","pricing_plan_id":"cebpf4jnsgd1na2vs0mg"},{"bike_id":"0e07936b-b5f4-4ce0-90ff-73c063994f1c","system_id":"levelo_inurba_marseille","lat":43.31039,"lon":5.40347,"is_reserved":false,"is_disabled":false,"rental_uris":{"android":"levelo://app?vid=0e07936b-b5f4-4ce0-90ff-73c063994f1c","ios":"levelo://app?vid=0e07936b-b5f4-4ce0-90ff-73c063994f1c"},"vehicle_type_id":"4","last_reported":1740838061,"current_range_meters":4000,"station_id":"","pricing_plan_id":"cebpf4jnsgd1na2vs0mg"},{"bike_id":"fec06910-07f0-48a6-a5fb-cac0e9b54af9","system_id":"levelo_inurba_marseille","lat":43.25715,"lon":5.41805,"is_reserved":false,"is_disabled":false,"rental_uris":{"android":"levelo://app?vid=fec06910-07f0-48a6-a5fb-cac0e9b54af9","ios":"levelo://app?vid=fec06910-07f0-48a6-a5fb-cac0e9b54af9"},"vehicle_type_id":"4","last_reported":1740838061,"current_range_meters":4800,"station_id":"","pricing_plan_id":"cebpf4jnsgd1na2vs0mg"},{"bike_id":"d5268437-48bd-439b-a1ad-02724b992d95","system_id":"levelo_inurba_marseille","lat":43.28945,"lon":5.36625,"is_reserved":false,"is_disabled":false,"rental_uris":{"android":"levelo://app?vid=d5268437-48bd-439b-a1ad-02724b992d95","ios":"levelo://app?vid=d5268437-48bd-439b-a1ad-02724b992d95"},"vehicle_type_id":"4","last_reported":1740838061,"current_range_meters":4800,"station_id":"ce4bhap2rcd13ifvqek0","pricing_plan_id":"cebpf4jnsgd1na2vs0mg"},{"bike_id":"0565dc59-e967-4326-aeb1-bf0f881c5bf4","system_id":"levelo_inurba_marseille","lat":43.28107,"lon":5.37837,"is_reserved":false,"is_disabled":false,"rental_uris":{"android":"levelo://app?vid=0565dc59-e967-4326-aeb1-bf0f881c5bf4","ios":"levelo://app?vid=0565dc59-e967-4326-aeb1-bf0f881c5bf4"},"vehicle_type_id":"4","last_reported":1740838061,"current_range_meters":4800,"station_id":"ce4bha12rcd13ifvqee0","pricing_plan_id":"cebpf4jnsgd1na2vs0mg"},{"bike_id":"4a9e6264-d863-4ecc-a470-f0d1cba244d7","system_id":"levelo_inurba_marseille","lat":43.27329,"lon":5.39098,"is_reserved":false,"is_disabled":false,"rental_uris":{"android":"levelo://app?vid=4a9e6264-d863-4ecc-a470-f0d1cba244d7","ios":"levelo://app?vid=4a9e6264-d863-4ecc-a470-f0d1cba244d7"},"vehicle_type_id":"4","last_reported":1740838061,"current_range_meters":5600,"station_id":"ce4bhgp2rcd13ifvqfe0","pricing_plan_id":"cebpf4jnsgd1na2vs0mg"},{"bike_id":"2d89f0a0-ce29-427b-9e22-0d94634bb6ff","system_id":"levelo_inurba_marseille","lat":43.309604,"lon":5.390302,"is_reserved":false,"is_disabled":false,"rental_uris":{"android":"levelo://app?vid=2d89f0a0-ce29-427b-9e22-0d94634bb6ff","ios":"levelo://app?vid=2d89f0a0-ce29-427b-9e22-0d94634bb6ff"},"vehicle_type_id":"4","last_reported":1740838061,"current_range_meters":4800,"station_id":"ce4bh3p2rcd13ifvqdp0","pricing_plan_id":"cebpf4jnsgd1na2vs0mg"},{"bike_id":"4097b1c9-81ed-4381-9f60-ce4d99e4355d","system_id":"levelo_inurba_marseille","lat":43.23061,"lon":5.35486,"is_reserved":false,"is_disabled":false,"rental_uris":{"android":"levelo://app?vid=4097b1c9-81ed-4381-9f60-ce4d99e4355d","ios":"levelo://app?vid=4097b1c9-81ed-4381-9f60-ce4d99e4355d"},"vehicle_type_id":"4","last_reported":1740838061,"current_range_meters":5600,"station_id":"cpo3342slgdg3j2ifvpg","pricing_plan_id":"cebpf4jnsgd1na2vs0mg"},{"bike_id":"49e0a034-277f-4658-83cf-83e39377ef50","system_id":"levelo_inurba_marseille","lat":43.29498,"lon":5.37931,"is_reserved":false,"is_disabled":false,"rental_uris":{"android":"levelo://app?vid=49e0a034-277f-4658-83cf-83e39377ef50","ios":"levelo://app?vid=49e0a034-277f-4658-83cf-83e39377ef50"},"vehicle_type_id":"4","last_reported":1740838061,"current_range_meters":5600,"station_id":"","pricing_plan_id":"cebpf4jnsgd1na2vs0mg"},{"bike_id":"58a68f7e-3a58-4830-88c7-f299e7022d3e","system_id":"levelo_inurba_marseille","lat":43.31477,"lon":5.37298,"is_reserved":false,"is_disabled":false,"rental_uris":{"android":"levelo://app?vid=58a68f7e-3a58-4830-88c7-f299e7022d3e","ios":"levelo://app?vid=58a68f7e-3a58-4830-88c7-f299e7022d3e"},"vehicle_type_id":"4","last_reported":1740838061,"current_range_meters":5600,"station_id":"ce4bgt12rcd13ifvqcd0","pricing_plan_id":"cebpf4jnsgd1na2vs0mg"},{"bike_id":"cf2b171e-15b4-4c26-bb9d-86353daf03c0","system_id":"levelo_inurba_marseille","lat":43.29313,"lon":5.37147,"is_reserved":false,"is_disabled":false,"rental_uris":{"android":"levelo://app?vid=cf2b171e-15b4-4c26-bb9d-86353daf03c0","ios":"levelo://app?vid=cf2b171e-15b4-4c26-bb9d-86353daf03c0"},"vehicle_type_id":"4","last_reported":1740838061,"current_range_meters":5600,"station_id":"ce4bgh92rcd13ifvqb40","pricing_plan_id":"cebpf4jnsgd1na2vs0mg"},{"bike_id":"3de9aeda-1f9a-4bbc-8b90-e02a49e56ca9","system_id":"levelo_inurba_marseille","lat":43.23197,"lon":5.35544,"is_reserved":false,"is_disabled":false,"rental_uris":{"android":"levelo://app?vid=3de9aeda-1f9a-4bbc-8b90-e02a49e56ca9","ios":"levelo://app?vid=3de9aeda-1f9a-4bbc-8b90-e02a49e56ca9"},"vehicle_type_id":"4","last_reported":1740838061,"current_range_meters":5600,"station_id":"ce4bhu92rcd13ifvqi70","pricing_plan_id":"cebpf4jnsgd1na2vs0mg"},{"bike_id":"5aa63f21-09e7-4528-a8fd-b8073cc13dd3","system_id":"levelo_inurba_marseille","lat":43.29104,"lon":5.38149,"is_reserved":false,"is_disabled":false,"rental_uris":{"android":"levelo://app?vid=5aa63f21-09e7-4528-a8fd-b8073cc13dd3","ios":"levelo://app?vid=5aa63f21-09e7-4528-a8fd-b8073cc13dd3"},"vehicle_type_id":"4","last_reported":1740838061,"current_range_meters":6000,"station_id":"ce4bh512rcd13ifvqe2g","pricing_plan_id":"cebpf4jnsgd1na2vs0mg"},{"bike_id":"9125a52a-7636-4ef7-91be-dae27247ba17","system_id":"levelo_inurba_marseille","lat":43.25501,"lon":5.37654,"is_reserved":false,"is_disabled":false,"rental_uris":{"android":"levelo://app?vid=9125a52a-7636-4ef7-91be-dae27247ba17","ios":"levelo://app?vid=9125a52a-7636-4ef7-91be-dae27247ba17"},"vehicle_type_id":"4","last_reported":1740838061,"current_range_meters":6000,"station_id":"ce4bhh12rcd13ifvqff0","pricing_plan_id":"cebpf4jnsgd1na2vs0mg"},{"bike_id":"bcb3dd3d-4bbe-4a55-8cc6-0ab0579bcdbe","system_id":"levelo_inurba_marseille","lat":43.31715,"lon":5.37737,"is_reserved":false,"is_disabled":false,"rental_uris":{"android":"levelo://app?vid=bcb3dd3d-4bbe-4a55-8cc6-0ab0579bcdbe","ios":"levelo://app?vid=bcb3dd3d-4bbe-4a55-8cc6-0ab0579bcdbe"},"vehicle_type_id":"4","last_reported":1740838061,"current_range_meters":6000,"station_id":"ce4bgth2rcd13ifvqch0","pricing_plan_id":"cebpf4jnsgd1na2vs0mg"},{"bike_id":"8801a290-ef5d-4c99-95b0-d002981a9173","system_id":"levelo_inurba_marseille","lat":43.28483,"lon":5.38559,"is_reserved":false,"is_disabled":false,"rental_uris":{"android":"levelo://app?vid=8801a290-ef5d-4c99-95b0-d002981a9173","ios":"levelo://app?vid=8801a290-ef5d-4c99-95b0-d002981a9173"},"vehicle_type_id":"4","last_reported":1740838061,"current_range_meters":6400,"station_id":"ce4bh8p2rcd13ifvqeb0","pricing_plan_id":"cebpf4jnsgd1na2vs0mg"},{"bike_id":"649ee275-78b1-4db3-812f-fe4d0b7e5ee7","system_id":"levelo_inurba_marseille","lat":43.26201,"lon":5.3793,"is_reserved":false,"is_disabled":false,"rental_uris":{"android":"levelo://app?vid=649ee275-78b1-4db3-812f-fe4d0b7e5ee7","ios":"levelo://app?vid=649ee275-78b1-4db3-812f-fe4d0b7e5ee7"},"vehicle_type_id":"4","last_reported":1740838061,"current_range_meters":6400,"station_id":"ce4bhjp2rcd13ifvqg90","pricing_plan_id":"cebpf4jnsgd1na2vs0mg"},{"bike_id":"9eb62bd7-0fdc-491b-9eef-be0a9f73fbfb","system_id":"levelo_inurba_marseille","lat":43.24207,"lon":5.36397,"is_reserved":false,"is_disabled":false,"rental_uris":{"android":"levelo://app?vid=9eb62bd7-0fdc-491b-9eef-be0a9f73fbfb","ios":"levelo://app?vid=9eb62bd7-0fdc-491b-9eef-be0a9f73fbfb"},"vehicle_type_id":"4","last_reported":1740838061,"current_range_meters":6800,"station_id":"cpo36qri1sfpv3e86is0","pricing_plan_id":"cebpf4jnsgd1na2vs0mg"},{"bike_id":"16325748-e5d0-41a0-8d09-b5763a7f1752","system_id":"levelo_inurba_marseille","lat":43.28617,"lon":5.35116,"is_reserved":false,"is_disabled":false,"rental_uris":{"android":"levelo://app?vid=16325748-e5d0-41a0-8d09-b5763a7f1752","ios":"levelo://app?vid=16325748-e5d0-41a0-8d09-b5763a7f1752"},"vehicle_type_id":"4","last_reported":1740838061,"current_range_meters":6800,"station_id":"ce4bhch2rcd13ifvqeug","pricing_plan_id":"cebpf4jnsgd1na2vs0mg"},{"bike_id":"f5fc676c-3c4b-470d-b394-15a460bc6e14","system_id":"levelo_inurba_marseille","lat":43.28983,"lon":5.37859,"is_reserved":false,"is_disabled":false,"rental_uris":{"android":"levelo://app?vid=f5fc676c-3c4b-470d-b394-15a460bc6e14","ios":"levelo://app?vid=f5fc676c-3c4b-470d-b394-15a460bc6e14"},"vehicle_type_id":"4","last_reported":1740838061,"current_range_meters":6800,"station_id":"ce4bh9p2rcd13ifvqed0","pricing_plan_id":"cebpf4jnsgd1na2vs0mg"},{"bike_id":"4cf5188c-d2e7-4df0-b8d4-7934652c385d","system_id":"levelo_inurba_marseille","lat":43.33599,"lon":5.41001,"is_reserved":false,"is_disabled":false,"rental_uris":{"android":"levelo://app?vid=4cf5188c-d2e7-4df0-b8d4-7934652c385d","ios":"levelo://app?vid=4cf5188c-d2e7-4df0-b8d4-7934652c385d"},"vehicle_type_id":"4","last_reported":1740838061,"current_range_meters":6400,"station_id":"ce4bhqh2rcd13ifvqhmg","pricing_plan_id":"cebpf4jnsgd1na2vs0mg"},{"bike_id":"adf89d74-0c1c-433b-9b2c-22841d2f937a","system_id":"levelo_inurba_marseille","lat":43.29299,"lon":5.37149,"is_reserved":false,"is_disabled":false,"rental_uris":{"android":"levelo://app?vid=adf89d74-0c1c-433b-9b2c-22841d2f937a","ios":"levelo://app?vid=adf89d74-0c1c-433b-9b2c-22841d2f937a"},"vehicle_type_id":"4","last_reported":1740838061,"current_range_meters":6800,"station_id":"ce4bgh92rcd13ifvqb40","pricing_plan_id":"cebpf4jnsgd1na2vs0mg"},{"bike_id":"2b27496a-92da-45c4-90b5-1a5b197a9405","system_id":"levelo_inurba_marseille","lat":43.27206,"lon":5.39184,"is_reserved":false,"is_disabled":false,"rental_uris":{"android":"levelo://app?vid=2b27496a-92da-45c4-90b5-1a5b197a9405","ios":"levelo://app?vid=2b27496a-92da-45c4-90b5-1a5b197a9405"},"vehicle_type_id":"4","last_reported":1740838061,"current_range_meters":8000,"station_id":"ce4bhhp2rcd13ifvqfm0","pricing_plan_id":"cebpf4jnsgd1na2vs0mg"},{"bike_id":"457cb67d-8962-48f5-b9c1-fadc0aebc649","system_id":"levelo_inurba_marseille","lat":43.31501,"lon":5.37283,"is_reserved":false,"is_disabled":false,"rental_uris":{"android":"levelo://app?vid=457cb67d-8962-48f5-b9c1-fadc0aebc649","ios":"levelo://app?vid=457cb67d-8962-48f5-b9c1-fadc0aebc649"},"vehicle_type_id":"4","last_reported":1740838061,"current_range_meters":7200,"station_id":"ce4bgt12rcd13ifvqcd0","pricing_plan_id":"cebpf4jnsgd1na2vs0mg"},{"bike_id":"15832f90-976b-44e3-a3aa-6bcca45efae8","system_id":"levelo_inurba_marseille","lat":43.29849,"lon":5.36278,"is_reserved":false,"is_disabled":false,"rental_uris":{"android":"levelo://app?vid=15832f90-976b-44e3-a3aa-6bcca45efae8","ios":"levelo://app?vid=15832f90-976b-44e3-a3aa-6bcca45efae8"},"vehicle_type_id":"4","last_reported":1740838061,"current_range_meters":7200,"station_id":"ce4bgpp2rcd13ifvqc3g","pricing_plan_id":"cebpf4jnsgd1na2vs0mg"},{"bike_id":"576bf4de-0033-46bf-9e74-74d91d945d5e","system_id":"levelo_inurba_marseille","lat":43.31229,"lon":5.36858,"is_reserved":false,"is_disabled":false,"rental_uris":{"android":"levelo://app?vid=576bf4de-0033-46bf-9e74-74d91d945d5e","ios":"levelo://app?vid=576bf4de-0033-46bf-9e74-74d91d945d5e"},"vehicle_type_id":"4","last_reported":1740838061,"current_range_meters":7200,"station_id":"ce4bgl92rcd13ifvqbq0","pricing_plan_id":"cebpf4jnsgd1na2vs0mg"},{"bike_id":"0ab120ab-3a7e-4696-a6dc-798f549c5678","system_id":"levelo_inurba_marseille","lat":43.29272,"lon":5.36842,"is_reserved":false,"is_disabled":false,"rental_uris":{"android":"levelo://app?vid=0ab120ab-3a7e-4696-a6dc-798f549c5678","ios":"levelo://app?vid=0ab120ab-3a7e-4696-a6dc-798f549c5678"},"vehicle_type_id":"4","last_reported":1740838061,"current_range_meters":7200,"station_id":"ce4bhbp2rcd13ifvqesg","pricing_plan_id":"cebpf4jnsgd1na2vs0mg"},{"bike_id":"d36301ff-065c-4644-9520-d9e8e53fafb9","system_id":"levelo_inurba_marseille","lat":43.2721,"lon":5.39192,"is_reserved":false,"is_disabled":false,"rental_uris":{"android":"levelo://app?vid=d36301ff-065c-4644-9520-d9e8e53fafb9","ios":"levelo://app?vid=d36301ff-065c-4644-9520-d9e8e53fafb9"},"vehicle_type_id":"4","last_reported":1740838061,"current_range_meters":7200,"station_id":"ce4bhhp2rcd13ifvqfm0","pricing_plan_id":"cebpf4jnsgd1na2vs0mg"},{"bike_id":"87b985b0-b21a-457b-876e-995bf2ff8f5e","system_id":"levelo_inurba_marseille","lat":43.32107,"lon":5.36783,"is_reserved":false,"is_disabled":false,"rental_uris":{"android":"levelo://app?vid=87b985b0-b21a-457b-876e-995bf2ff8f5e","ios":"levelo://app?vid=87b985b0-b21a-457b-876e-995bf2ff8f5e"},"vehicle_type_id":"4","last_reported":1740838061,"current_range_meters":7200,"station_id":"ce4bhrh2rcd13ifvqhug","pricing_plan_id":"cebpf4jnsgd1na2vs0mg"},{"bike_id":"8dbd79ab-8d7e-44ba-9f11-4afd7e562df1","system_id":"levelo_inurba_marseille","lat":43.25004,"lon":5.38929,"is_reserved":false,"is_disabled":false,"rental_uris":{"android":"levelo://app?vid=8dbd79ab-8d7e-44ba-9f11-4afd7e562df1","ios":"levelo://app?vid=8dbd79ab-8d7e-44ba-9f11-4afd7e562df1"},"vehicle_type_id":"4","last_reported":1740838061,"current_range_meters":7200,"station_id":"ce4bhgp2rcd13ifvqfd0","pricing_plan_id":"cebpf4jnsgd1na2vs0mg"},{"bike_id":"4512fcf6-7ce0-4688-8381-cae668fadc96","system_id":"levelo_inurba_marseille","lat":43.3234,"lon":5.40619,"is_reserved":false,"is_disabled":false,"rental_uris":{"android":"levelo://app?vid=4512fcf6-7ce0-4688-8381-cae668fadc96","ios":"levelo://app?vid=4512fcf6-7ce0-4688-8381-cae668fadc96"},"vehicle_type_id":"4","last_reported":1740838061,"current_range_meters":6800,"station_id":"ce4bhq92rcd13ifvqhjg","pricing_plan_id":"cebpf4jnsgd1na2vs0mg"},{"bike_id":"35a4782e-5d2e-4fb8-8175-5ce018572fa7","system_id":"levelo_inurba_marseille","lat":43.3113,"lon":5.40361,"is_reserved":false,"is_disabled":false,"rental_uris":{"android":"levelo://app?vid=35a4782e-5d2e-4fb8-8175-5ce018572fa7","ios":"levelo://app?vid=35a4782e-5d2e-4fb8-8175-5ce018572fa7"},"vehicle_type_id":"4","last_reported":1740838061,"current_range_meters":8000,"station_id":"","pricing_plan_id":"cebpf4jnsgd1na2vs0mg"},{"bike_id":"d5481c01-2984-43f7-9ca9-876cf6aa8921","system_id":"levelo_inurba_marseille","lat":43.27999,"lon":5.40005,"is_reserved":false,"is_disabled":false,"rental_uris":{"android":"levelo://app?vid=d5481c01-2984-43f7-9ca9-876cf6aa8921","ios":"levelo://app?vid=d5481c01-2984-43f7-9ca9-876cf6aa8921"},"vehicle_type_id":"4","last_reported":1740838061,"current_range_meters":8000,"station_id":"ce4bho92rcd13ifvqh4g","pricing_plan_id":"cebpf4jnsgd1na2vs0mg"},{"bike_id":"e8e574a6-d13a-4906-9b60-657faa08b971","system_id":"levelo_inurba_marseille","lat":43.26816,"lon":5.40263,"is_reserved":false,"is_disabled":false,"rental_uris":{"android":"levelo://app?vid=e8e574a6-d13a-4906-9b60-657faa08b971","ios":"levelo://app?vid=e8e574a6-d13a-4906-9b60-657faa08b971"},"vehicle_type_id":"4","last_reported":1740838061,"current_range_meters":8000,"station_id":"ce501612rcd8frsf0b60","pricing_plan_id":"cebpf4jnsgd1na2vs0mg"},{"bike_id":"be047da3-12fb-470e-9d78-68641c40dc2c","system_id":"levelo_inurba_marseille","lat":43.286768,"lon":5.409565,"is_reserved":false,"is_disabled":false,"rental_uris":{"android":"levelo://app?vid=be047da3-12fb-470e-9d78-68641c40dc2c","ios":"levelo://app?vid=be047da3-12fb-470e-9d78-68641c40dc2c"},"vehicle_type_id":"4","last_reported":1740838061,"current_range_meters":8000,"station_id":"","pricing_plan_id":"cebpf4jnsgd1na2vs0mg"},{"bike_id":"77b7c322-7703-4fb8-9103-770e7bb5551e","system_id":"levelo_inurba_marseille","lat":43.26572,"lon":5.37316,"is_reserved":false,"is_disabled":false,"rental_uris":{"android":"levelo://app?vid=77b7c322-7703-4fb8-9103-770e7bb5551e","ios":"levelo://app?vid=77b7c322-7703-4fb8-9103-770e7bb5551e"},"vehicle_type_id":"4","last_reported":1740838061,"current_range_meters":8000,"station_id":"ce4bhg12rcd13ifvqf70","pricing_plan_id":"cebpf4jnsgd1na2vs0mg"},{"bike_id":"303a0433-1642-4c1f-a5e7-d3c8fdf345cb","system_id":"levelo_inurba_marseille","lat":43.29201,"lon":5.35806,"is_reserved":false,"is_disabled":false,"rental_uris":{"android":"levelo://app?vid=303a0433-1642-4c1f-a5e7-d3c8fdf345cb","ios":"levelo://app?vid=303a0433-1642-4c1f-a5e7-d3c8fdf345cb"},"vehicle_type_id":"4","last_reported":1740838061,"current_range_meters":4400,"station_id":"ce4bhb12rcd13ifvqel0","pricing_plan_id":"cebpf4jnsgd1na2vs0mg"},{"bike_id":"1ef83ca4-2f4d-464d-9fb6-924b48a09432","system_id":"levelo_inurba_marseille","lat":43.294373,"lon":5.397493,"is_reserved":false,"is_disabled":false,"rental_uris":{"android":"levelo://app?vid=1ef83ca4-2f4d-464d-9fb6-924b48a09432","ios":"levelo://app?vid=1ef83ca4-2f4d-464d-9fb6-924b48a09432"},"vehicle_type_id":"4","last_reported":1740838061,"current_range_meters":8400,"station_id":"ce4bh3h2rcd13ifvqdo0","pricing_plan_id":"cebpf4jnsgd1na2vs0mg"},{"bike_id":"257c4849-dc72-4ebc-b295-ab798a49160b","system_id":"levelo_inurba_marseille","lat":43.26203,"lon":5.37927,"is_reserved":false,"is_disabled":false,"rental_uris":{"android":"levelo://app?vid=257c4849-dc72-4ebc-b295-ab798a49160b","ios":"levelo://app?vid=257c4849-dc72-4ebc-b295-ab798a49160b"},"vehicle_type_id":"4","last_reported":1740838061,"current_range_meters":8400,"station_id":"ce4bhjp2rcd13ifvqg90","pricing_plan_id":"cebpf4jnsgd1na2vs0mg"},{"bike_id":"47b9d14b-9a9a-45f0-bb6d-6ab8a869f29e","system_id":"levelo_inurba_marseille","lat":43.28468,"lon":5.38556,"is_reserved":false,"is_disabled":false,"rental_uris":{"android":"levelo://app?vid=47b9d14b-9a9a-45f0-bb6d-6ab8a869f29e","ios":"levelo://app?vid=47b9d14b-9a9a-45f0-bb6d-6ab8a869f29e"},"vehicle_type_id":"4","last_reported":1740838061,"current_range_meters":8400,"station_id":"ce4bh8p2rcd13ifvqeb0","pricing_plan_id":"cebpf4jnsgd1na2vs0mg"},{"bike_id":"2f2014cd-a3cb-42fd-9d45-8c9bbd09611c","system_id":"levelo_inurba_marseille","lat":43.24398,"lon":5.37058,"is_reserved":false,"is_disabled":false,"rental_uris":{"android":"levelo://app?vid=2f2014cd-a3cb-42fd-9d45-8c9bbd09611c","ios":"levelo://app?vid=2f2014cd-a3cb-42fd-9d45-8c9bbd09611c"},"vehicle_type_id":"4","last_reported":1740838061,"current_range_meters":8400,"station_id":"ce4bhhh2rcd13ifvqfk0","pricing_plan_id":"cebpf4jnsgd1na2vs0mg"},{"bike_id":"a5fd71ea-4807-4e2d-a716-448c8cd70326","system_id":"levelo_inurba_marseille","lat":43.26561,"lon":5.373,"is_reserved":false,"is_disabled":false,"rental_uris":{"android":"levelo://app?vid=a5fd71ea-4807-4e2d-a716-448c8cd70326","ios":"levelo://app?vid=a5fd71ea-4807-4e2d-a716-448c8cd70326"},"vehicle_type_id":"4","last_reported":1740838061,"current_range_meters":8400,"station_id":"ce4bhg12rcd13ifvqf70","pricing_plan_id":"cebpf4jnsgd1na2vs0mg"},{"bike_id":"bf6bac71-41d6-4283-8c68-f5dcc4d40d52","system_id":"levelo_inurba_marseille","lat":43.28271,"lon":5.35083,"is_reserved":false,"is_disabled":false,"rental_uris":{"android":"levelo://app?vid=bf6bac71-41d6-4283-8c68-f5dcc4d40d52","ios":"levelo://app?vid=bf6bac71-41d6-4283-8c68-f5dcc4d40d52"},"vehicle_type_id":"4","last_reported":1740838061,"current_range_meters":8800,"station_id":"ce4bhbp2rcd13ifvqerg","pricing_plan_id":"cebpf4jnsgd1na2vs0mg"},{"bike_id":"3f5e4c77-943b-4a46-b257-614bf13afec4","system_id":"levelo_inurba_marseille","lat":43.241713,"lon":5.364014,"is_reserved":false,"is_disabled":false,"rental_uris":{"android":"levelo://app?vid=3f5e4c77-943b-4a46-b257-614bf13afec4","ios":"levelo://app?vid=3f5e4c77-943b-4a46-b257-614bf13afec4"},"vehicle_type_id":"4","last_reported":1740838061,"current_range_meters":8800,"station_id":"cpo36qri1sfpv3e86is0","pricing_plan_id":"cebpf4jnsgd1na2vs0mg"},{"bike_id":"afb2ba15-7296-4d79-a3a2-07d069185413","system_id":"levelo_inurba_marseille","lat":43.30553,"lon":5.36531,"is_reserved":false,"is_disabled":false,"rental_uris":{"android":"levelo://app?vid=afb2ba15-7296-4d79-a3a2-07d069185413","ios":"levelo://app?vid=afb2ba15-7296-4d79-a3a2-07d069185413"},"vehicle_type_id":"4","last_reported":1740838061,"current_range_meters":8800,"station_id":"ce4bgs12rcd13ifvqcag","pricing_plan_id":"cebpf4jnsgd1na2vs0mg"},{"bike_id":"7f9a5607-3d05-4199-a7b0-fd9e68e531eb","system_id":"levelo_inurba_marseille","lat":43.29977,"lon":5.37111,"is_reserved":false,"is_disabled":false,"rental_uris":{"android":"levelo://app?vid=7f9a5607-3d05-4199-a7b0-fd9e68e531eb","ios":"levelo://app?vid=7f9a5607-3d05-4199-a7b0-fd9e68e531eb"},"vehicle_type_id":"4","last_reported":1740838061,"current_range_meters":8800,"station_id":"ce4bgr92rcd13ifvqc7g","pricing_plan_id":"cebpf4jnsgd1na2vs0mg"},{"bike_id":"fa32e183-306a-47e5-ad8c-fff869084beb","system_id":"levelo_inurba_marseille","lat":43.29592,"lon":5.38104,"is_reserved":false,"is_disabled":false,"rental_uris":{"android":"levelo://app?vid=fa32e183-306a-47e5-ad8c-fff869084beb","ios":"levelo://app?vid=fa32e183-306a-47e5-ad8c-fff869084beb"},"vehicle_type_id":"4","last_reported":1740838061,"current_range_meters":8800,"station_id":"ce4bgl12rcd13ifvqbo0","pricing_plan_id":"cebpf4jnsgd1na2vs0mg"},{"bike_id":"1e90af25-4e98-4932-bc55-e4f702068827","system_id":"levelo_inurba_marseille","lat":43.31752,"lon":5.42381,"is_reserved":false,"is_disabled":false,"rental_uris":{"android":"levelo://app?vid=1e90af25-4e98-4932-bc55-e4f702068827","ios":"levelo://app?vid=1e90af25-4e98-4932-bc55-e4f702068827"},"vehicle_type_id":"4","last_reported":1740838061,"current_range_meters":8800,"station_id":"ce4bhp92rcd13ifvqhbg","pricing_plan_id":"cebpf4jnsgd1na2vs0mg"},{"bike_id":"2e5b1c00-cc3f-4398-9d7c-2f6eede7d980","system_id":"levelo_inurba_marseille","lat":43.30146,"lon":5.39886,"is_reserved":false,"is_disabled":false,"rental_uris":{"android":"levelo://app?vid=2e5b1c00-cc3f-4398-9d7c-2f6eede7d980","ios":"levelo://app?vid=2e5b1c00-cc3f-4398-9d7c-2f6eede7d980"},"vehicle_type_id":"4","last_reported":1740838061,"current_range_meters":8800,"station_id":"ce4bh0h2rcd13ifvqd40","pricing_plan_id":"cebpf4jnsgd1na2vs0mg"},{"bike_id":"f7888e25-446f-4da8-96e6-65d5daad9223","system_id":"levelo_inurba_marseille","lat":43.28422,"lon":5.34983,"is_reserved":false,"is_disabled":false,"rental_uris":{"android":"levelo://app?vid=f7888e25-446f-4da8-96e6-65d5daad9223","ios":"levelo://app?vid=f7888e25-446f-4da8-96e6-65d5daad9223"},"vehicle_type_id":"4","last_reported":1740838061,"current_range_meters":8800,"station_id":"ce4bhbh2rcd13ifvqepg","pricing_plan_id":"cebpf4jnsgd1na2vs0mg"},{"bike_id":"65ae9cc9-5d25-4ac1-a152-669df0c2cc00","system_id":"levelo_inurba_marseille","lat":43.3093,"lon":5.40141,"is_reserved":false,"is_disabled":false,"rental_uris":{"android":"levelo://app?vid=65ae9cc9-5d25-4ac1-a152-669df0c2cc00","ios":"levelo://app?vid=65ae9cc9-5d25-4ac1-a152-669df0c2cc00"},"vehicle_type_id":"4","last_reported":1740838061,"current_range_meters":8800,"station_id":"ce4bgvp2rcd13ifvqct0","pricing_plan_id":"cebpf4jnsgd1na2vs0mg"},{"bike_id":"364b209e-752e-45ea-b26c-06b2552c1833","system_id":"levelo_inurba_marseille","lat":43.23193,"lon":5.35557,"is_reserved":false,"is_disabled":false,"rental_uris":{"android":"levelo://app?vid=364b209e-752e-45ea-b26c-06b2552c1833","ios":"levelo://app?vid=364b209e-752e-45ea-b26c-06b2552c1833"},"vehicle_type_id":"4","last_reported":1740838061,"current_range_meters":9600,"station_id":"ce4bhu92rcd13ifvqi70","pricing_plan_id":"cebpf4jnsgd1na2vs0mg"},{"bike_id":"eb6f3018-35af-4819-ab6e-f07ea1f8c2d5","system_id":"levelo_inurba_marseille","lat":43.31748,"lon":5.38997,"is_reserved":false,"is_disabled":false,"rental_uris":{"android":"levelo://app?vid=eb6f3018-35af-4819-ab6e-f07ea1f8c2d5","ios":"levelo://app?vid=eb6f3018-35af-4819-ab6e-f07ea1f8c2d5"},"vehicle_type_id":"4","last_reported":1740838061,"current_range_meters":4400,"station_id":"ce4bhqp2rcd13ifvqhng","pricing_plan_id":"cebpf4jnsgd1na2vs0mg"},{"bike_id":"49e9cdc7-76a5-4b66-ae2d-61c73beb73a8","system_id":"levelo_inurba_marseille","lat":43.24198,"lon":5.36378,"is_reserved":false,"is_disabled":false,"rental_uris":{"android":"levelo://app?vid=49e9cdc7-76a5-4b66-ae2d-61c73beb73a8","ios":"levelo://app?vid=49e9cdc7-76a5-4b66-ae2d-61c73beb73a8"},"vehicle_type_id":"4","last_reported":1740838061,"current_range_meters":9200,"station_id":"cpo36qri1sfpv3e86is0","pricing_plan_id":"cebpf4jnsgd1na2vs0mg"},{"bike_id":"2b0dcac6-30fe-42c6-8cbc-cd5acb4b205c","system_id":"levelo_inurba_marseille","lat":43.28417,"lon":5.37508,"is_reserved":false,"is_disabled":false,"rental_uris":{"android":"levelo://app?vid=2b0dcac6-30fe-42c6-8cbc-cd5acb4b205c","ios":"levelo://app?vid=2b0dcac6-30fe-42c6-8cbc-cd5acb4b205c"},"vehicle_type_id":"4","last_reported":1740838061,"current_range_meters":9200,"station_id":"ce4bh412rcd13ifvqds0","pricing_plan_id":"cebpf4jnsgd1na2vs0mg"},{"bike_id":"593edb3c-7add-4a3d-9dbe-95cef549de0d","system_id":"levelo_inurba_marseille","lat":43.230684,"lon":5.354894,"is_reserved":false,"is_disabled":false,"rental_uris":{"android":"levelo://app?vid=593edb3c-7add-4a3d-9dbe-95cef549de0d","ios":"levelo://app?vid=593edb3c-7add-4a3d-9dbe-95cef549de0d"},"vehicle_type_id":"4","last_reported":1740838061,"current_range_meters":9200,"station_id":"cpo3342slgdg3j2ifvpg","pricing_plan_id":"cebpf4jnsgd1na2vs0mg"},{"bike_id":"a6b80584-6453-4fc7-9b63-74321c6e86a1","system_id":"levelo_inurba_marseille","lat":43.27083,"lon":5.42283,"is_reserved":false,"is_disabled":false,"rental_uris":{"android":"levelo://app?vid=a6b80584-6453-4fc7-9b63-74321c6e86a1","ios":"levelo://app?vid=a6b80584-6453-4fc7-9b63-74321c6e86a1"},"vehicle_type_id":"4","last_reported":1740838061,"current_range_meters":9600,"station_id":"ce4bhk92rcd13ifvqgb0","pricing_plan_id":"cebpf4jnsgd1na2vs0mg"},{"bike_id":"e395c10b-2a7c-46d5-a411-74e51948b5c2","system_id":"levelo_inurba_marseille","lat":43.28482,"lon":5.38564,"is_reserved":false,"is_disabled":false,"rental_uris":{"android":"levelo://app?vid=e395c10b-2a7c-46d5-a411-74e51948b5c2","ios":"levelo://app?vid=e395c10b-2a7c-46d5-a411-74e51948b5c2"},"vehicle_type_id":"4","last_reported":1740838061,"current_range_meters":9600,"station_id":"ce4bh8p2rcd13ifvqeb0","pricing_plan_id":"cebpf4jnsgd1na2vs0mg"},{"bike_id":"6c1ec418-4b5a-488c-8bae-ed1a437dc1f8","system_id":"levelo_inurba_marseille","lat":43.28941,"lon":5.3664,"is_reserved":false,"is_disabled":false,"rental_uris":{"android":"levelo://app?vid=6c1ec418-4b5a-488c-8bae-ed1a437dc1f8","ios":"levelo://app?vid=6c1ec418-4b5a-488c-8bae-ed1a437dc1f8"},"vehicle_type_id":"4","last_reported":1740838061,"current_range_meters":9600,"station_id":"ce4bhap2rcd13ifvqek0","pricing_plan_id":"cebpf4jnsgd1na2vs0mg"},{"bike_id":"7801115e-f003-46cf-bd58-78c6df56886e","system_id":"levelo_inurba_marseille","lat":43.29908,"lon":5.3815,"is_reserved":false,"is_disabled":false,"rental_uris":{"android":"levelo://app?vid=7801115e-f003-46cf-bd58-78c6df56886e","ios":"levelo://app?vid=7801115e-f003-46cf-bd58-78c6df56886e"},"vehicle_type_id":"4","last_reported":1740838061,"current_range_meters":9600,"station_id":"ce4bgj12rcd13ifvqbc0","pricing_plan_id":"cebpf4jnsgd1na2vs0mg"},{"bike_id":"bddf37d4-a2ae-4c74-bcad-602e7e9ee614","system_id":"levelo_inurba_marseille","lat":43.24697,"lon":5.38142,"is_reserved":false,"is_disabled":false,"rental_uris":{"android":"levelo://app?vid=bddf37d4-a2ae-4c74-bcad-602e7e9ee614","ios":"levelo://app?vid=bddf37d4-a2ae-4c74-bcad-602e7e9ee614"},"vehicle_type_id":"4","last_reported":1740838061,"current_range_meters":9600,"station_id":"ce4bhih2rcd13ifvqfr0","pricing_plan_id":"cebpf4jnsgd1na2vs0mg"},{"bike_id":"c5497b0c-9174-4c9e-9496-2aeee6e22a36","system_id":"levelo_inurba_marseille","lat":43.29896,"lon":5.43659,"is_reserved":false,"is_disabled":false,"rental_uris":{"android":"levelo://app?vid=c5497b0c-9174-4c9e-9496-2aeee6e22a36","ios":"levelo://app?vid=c5497b0c-9174-4c9e-9496-2aeee6e22a36"},"vehicle_type_id":"4","last_reported":1740838061,"current_range_meters":9600,"station_id":"ce4bhpp2rcd13ifvqhfg","pricing_plan_id":"cebpf4jnsgd1na2vs0mg"},{"bike_id":"f52665a8-f9c4-4570-bda1-94b083719607","system_id":"levelo_inurba_marseille","lat":43.30928,"lon":5.40177,"is_reserved":false,"is_disabled":false,"rental_uris":{"android":"levelo://app?vid=f52665a8-f9c4-4570-bda1-94b083719607","ios":"levelo://app?vid=f52665a8-f9c4-4570-bda1-94b083719607"},"vehicle_type_id":"4","last_reported":1740838061,"current_range_meters":9600,"station_id":"ce4bgvp2rcd13ifvqct0","pricing_plan_id":"cebpf4jnsgd1na2vs0mg"},{"bike_id":"6581f07b-f4c8-45e5-91e9-df2094e3176d","system_id":"levelo_inurba_marseille","lat":43.31441,"lon":5.37382,"is_reserved":false,"is_disabled":false,"rental_uris":{"android":"levelo://app?vid=6581f07b-f4c8-45e5-91e9-df2094e3176d","ios":"levelo://app?vid=6581f07b-f4c8-45e5-91e9-df2094e3176d"},"vehicle_type_id":"4","last_reported":1740838061,"current_range_meters":9600,"station_id":"","pricing_plan_id":"cebpf4jnsgd1na2vs0mg"},{"bike_id":"c65e2549-0bd4-4200-87e8-04da94f3c3c4","system_id":"levelo_inurba_marseille","lat":43.284256,"lon":5.349917,"is_reserved":false,"is_disabled":false,"rental_uris":{"android":"levelo://app?vid=c65e2549-0bd4-4200-87e8-04da94f3c3c4","ios":"levelo://app?vid=c65e2549-0bd4-4200-87e8-04da94f3c3c4"},"vehicle_type_id":"4","last_reported":1740838061,"current_range_meters":10000,"station_id":"ce4bhbh2rcd13ifvqepg","pricing_plan_id":"cebpf4jnsgd1na2vs0mg"},{"bike_id":"139050b7-cc14-425c-aabb-ac9ff8b48701","system_id":"levelo_inurba_marseille","lat":43.29984,"lon":5.38494,"is_reserved":false,"is_disabled":false,"rental_uris":{"android":"levelo://app?vid=139050b7-cc14-425c-aabb-ac9ff8b48701","ios":"levelo://app?vid=139050b7-cc14-425c-aabb-ac9ff8b48701"},"vehicle_type_id":"4","last_reported":1740838061,"current_range_meters":9600,"station_id":"ce4bgj92rcd13ifvqbd0","pricing_plan_id":"cebpf4jnsgd1na2vs0mg"},{"bike_id":"60d4e3af-a938-45a6-a89b-d7fe9130f2cc","system_id":"levelo_inurba_marseille","lat":43.24184,"lon":5.39733,"is_reserved":false,"is_disabled":false,"rental_uris":{"android":"levelo://app?vid=60d4e3af-a938-45a6-a89b-d7fe9130f2cc","ios":"levelo://app?vid=60d4e3af-a938-45a6-a89b-d7fe9130f2cc"},"vehicle_type_id":"4","last_reported":1740838061,"current_range_meters":10000,"station_id":"ce4bhn12rcd13ifvqgpg","pricing_plan_id":"cebpf4jnsgd1na2vs0mg"},{"bike_id":"b777b4cf-3a59-4bd6-bbe8-877c47f15172","system_id":"levelo_inurba_marseille","lat":43.2928,"lon":5.36853,"is_reserved":false,"is_disabled":false,"rental_uris":{"android":"levelo://app?vid=b777b4cf-3a59-4bd6-bbe8-877c47f15172","ios":"levelo://app?vid=b777b4cf-3a59-4bd6-bbe8-877c47f15172"},"vehicle_type_id":"4","last_reported":1740838061,"current_range_meters":10000,"station_id":"ce4bhbp2rcd13ifvqesg","pricing_plan_id":"cebpf4jnsgd1na2vs0mg"},{"bike_id":"60821833-f14f-43f9-80db-e4594e0e2886","system_id":"levelo_inurba_marseille","lat":43.26576,"lon":5.3902,"is_reserved":false,"is_disabled":false,"rental_uris":{"android":"levelo://app?vid=60821833-f14f-43f9-80db-e4594e0e2886","ios":"levelo://app?vid=60821833-f14f-43f9-80db-e4594e0e2886"},"vehicle_type_id":"4","last_reported":1740838061,"current_range_meters":10000,"station_id":"ce4bhe12rcd13ifvqf30","pricing_plan_id":"cebpf4jnsgd1na2vs0mg"},{"bike_id":"a0f4785f-b6c3-496b-9268-b69bebe4b0b2","system_id":"levelo_inurba_marseille","lat":43.29735,"lon":5.37687,"is_reserved":false,"is_disabled":false,"rental_uris":{"android":"levelo://app?vid=a0f4785f-b6c3-496b-9268-b69bebe4b0b2","ios":"levelo://app?vid=a0f4785f-b6c3-496b-9268-b69bebe4b0b2"},"vehicle_type_id":"4","last_reported":1740838061,"current_range_meters":10000,"station_id":"ce4bgkh2rcd13ifvqbl0","pricing_plan_id":"cebpf4jnsgd1na2vs0mg"},{"bike_id":"597c78d8-1097-48db-b3be-fafc8754eab9","system_id":"levelo_inurba_marseille","lat":43.24171,"lon":5.36415,"is_reserved":false,"is_disabled":false,"rental_uris":{"android":"levelo://app?vid=597c78d8-1097-48db-b3be-fafc8754eab9","ios":"levelo://app?vid=597c78d8-1097-48db-b3be-fafc8754eab9"},"vehicle_type_id":"4","last_reported":1740838061,"current_range_meters":10000,"station_id":"cpo36qri1sfpv3e86is0","pricing_plan_id":"cebpf4jnsgd1na2vs0mg"},{"bike_id":"3252ce38-942a-44c1-8efc-f562cd340bf6","system_id":"levelo_inurba_marseille","lat":43.26956,"lon":5.40269,"is_reserved":false,"is_disabled":false,"rental_uris":{"android":"levelo://app?vid=3252ce38-942a-44c1-8efc-f562cd340bf6","ios":"levelo://app?vid=3252ce38-942a-44c1-8efc-f562cd340bf6"},"vehicle_type_id":"4","last_reported":1740838061,"current_range_meters":12400,"station_id":"cjm6bp8fraef2m0cb0m0","pricing_plan_id":"cebpf4jnsgd1na2vs0mg"},{"bike_id":"11eeaa41-65fd-4096-aabf-ea952f76267a","system_id":"levelo_inurba_marseille","lat":43.34148,"lon":5.40897,"is_reserved":false,"is_disabled":false,"rental_uris":{"android":"levelo://app?vid=11eeaa41-65fd-4096-aabf-ea952f76267a","ios":"levelo://app?vid=11eeaa41-65fd-4096-aabf-ea952f76267a"},"vehicle_type_id":"4","last_reported":1740838061,"current_range_meters":10000,"station_id":"ce4bhqh2rcd13ifvqhlg","pricing_plan_id":"cebpf4jnsgd1na2vs0mg"},{"bike_id":"b04fd336-72f8-426b-9bb3-be5f57f2937f","system_id":"levelo_inurba_marseille","lat":43.23198,"lon":5.35554,"is_reserved":false,"is_disabled":false,"rental_uris":{"android":"levelo://app?vid=b04fd336-72f8-426b-9bb3-be5f57f2937f","ios":"levelo://app?vid=b04fd336-72f8-426b-9bb3-be5f57f2937f"},"vehicle_type_id":"4","last_reported":1740838061,"current_range_meters":10800,"station_id":"ce4bhu92rcd13ifvqi70","pricing_plan_id":"cebpf4jnsgd1na2vs0mg"},{"bike_id":"4bd4b995-1984-49fc-b229-218c3bec2a20","system_id":"levelo_inurba_marseille","lat":43.284167,"lon":5.34977,"is_reserved":false,"is_disabled":false,"rental_uris":{"android":"levelo://app?vid=4bd4b995-1984-49fc-b229-218c3bec2a20","ios":"levelo://app?vid=4bd4b995-1984-49fc-b229-218c3bec2a20"},"vehicle_type_id":"4","last_reported":1740838061,"current_range_meters":10800,"station_id":"ce4bhbh2rcd13ifvqepg","pricing_plan_id":"cebpf4jnsgd1na2vs0mg"},{"bike_id":"3ae43e61-e460-4942-a7d7-9a08b7b0118e","system_id":"levelo_inurba_marseille","lat":43.24823,"lon":5.37449,"is_reserved":false,"is_disabled":false,"rental_uris":{"android":"levelo://app?vid=3ae43e61-e460-4942-a7d7-9a08b7b0118e","ios":"levelo://app?vid=3ae43e61-e460-4942-a7d7-9a08b7b0118e"},"vehicle_type_id":"4","last_reported":1740838061,"current_range_meters":10800,"station_id":"ce4bhgh2rcd13ifvqfb0","pricing_plan_id":"cebpf4jnsgd1na2vs0mg"},{"bike_id":"2c2f8a1b-e94d-4c4f-a519-08f4c8da73bd","system_id":"levelo_inurba_marseille","lat":43.30911,"lon":5.36844,"is_reserved":false,"is_disabled":false,"rental_uris":{"android":"levelo://app?vid=2c2f8a1b-e94d-4c4f-a519-08f4c8da73bd","ios":"levelo://app?vid=2c2f8a1b-e94d-4c4f-a519-08f4c8da73bd"},"vehicle_type_id":"4","last_reported":1740838061,"current_range_meters":10800,"station_id":"ce4bgn92rcd13ifvqbvg","pricing_plan_id":"cebpf4jnsgd1na2vs0mg"},{"bike_id":"2789cdbe-4172-4b79-9d75-df8c4d8ece0a","system_id":"levelo_inurba_marseille","lat":43.26215,"lon":5.37443,"is_reserved":false,"is_disabled":false,"rental_uris":{"android":"levelo://app?vid=2789cdbe-4172-4b79-9d75-df8c4d8ece0a","ios":"levelo://app?vid=2789cdbe-4172-4b79-9d75-df8c4d8ece0a"},"vehicle_type_id":"4","last_reported":1740838061,"current_range_meters":10800,"station_id":"ce4bhgp2rcd13ifvqfc0","pricing_plan_id":"cebpf4jnsgd1na2vs0mg"},{"bike_id":"f9d0bcf9-457c-415f-8919-1630ecfeacaa","system_id":"levelo_inurba_marseille","lat":43.30589,"lon":5.36465,"is_reserved":false,"is_disabled":false,"rental_uris":{"android":"levelo://app?vid=f9d0bcf9-457c-415f-8919-1630ecfeacaa","ios":"levelo://app?vid=f9d0bcf9-457c-415f-8919-1630ecfeacaa"},"vehicle_type_id":"4","last_reported":1740838061,"current_range_meters":11200,"station_id":"ce4bgs12rcd13ifvqcag","pricing_plan_id":"cebpf4jnsgd1na2vs0mg"},{"bike_id":"bfed2ebd-e330-4a5a-b5be-6bb11921ccd1","system_id":"levelo_inurba_marseille","lat":43.29046,"lon":5.35925,"is_reserved":false,"is_disabled":false,"rental_uris":{"android":"levelo://app?vid=bfed2ebd-e330-4a5a-b5be-6bb11921ccd1","ios":"levelo://app?vid=bfed2ebd-e330-4a5a-b5be-6bb11921ccd1"},"vehicle_type_id":"4","last_reported":1740838061,"current_range_meters":10800,"station_id":"ce4bha92rcd13ifvqeg0","pricing_plan_id":"cebpf4jnsgd1na2vs0mg"},{"bike_id":"99b026e9-b37d-4d8a-abf2-e73b23e9c69f","system_id":"levelo_inurba_marseille","lat":43.28706,"lon":5.3739,"is_reserved":false,"is_disabled":false,"rental_uris":{"android":"levelo://app?vid=99b026e9-b37d-4d8a-abf2-e73b23e9c69f","ios":"levelo://app?vid=99b026e9-b37d-4d8a-abf2-e73b23e9c69f"},"vehicle_type_id":"4","last_reported":1740838061,"current_range_meters":11200,"station_id":"ce4bh3p2rcd13ifvqdq0","pricing_plan_id":"cebpf4jnsgd1na2vs0mg"},{"bike_id":"f140038b-6259-40dd-bc28-a0612fbd43ae","system_id":"levelo_inurba_marseille","lat":43.30532,"lon":5.36724,"is_reserved":false,"is_disabled":false,"rental_uris":{"android":"levelo://app?vid=f140038b-6259-40dd-bc28-a0612fbd43ae","ios":"levelo://app?vid=f140038b-6259-40dd-bc28-a0612fbd43ae"},"vehicle_type_id":"4","last_reported":1740838061,"current_range_meters":11200,"station_id":"ce4bgrp2rcd13ifvqc9g","pricing_plan_id":"cebpf4jnsgd1na2vs0mg"},{"bike_id":"244595f1-0f06-48bf-afcf-1acd2408a26e","system_id":"levelo_inurba_marseille","lat":43.30907,"lon":5.36854,"is_reserved":false,"is_disabled":false,"rental_uris":{"android":"levelo://app?vid=244595f1-0f06-48bf-afcf-1acd2408a26e","ios":"levelo://app?vid=244595f1-0f06-48bf-afcf-1acd2408a26e"},"vehicle_type_id":"4","last_reported":1740838061,"current_range_meters":11600,"station_id":"ce4bgn92rcd13ifvqbvg","pricing_plan_id":"cebpf4jnsgd1na2vs0mg"},{"bike_id":"389c580f-a1e5-4b16-a1f8-80f559acc1ab","system_id":"levelo_inurba_marseille","lat":43.29984,"lon":5.38497,"is_reserved":false,"is_disabled":false,"rental_uris":{"android":"levelo://app?vid=389c580f-a1e5-4b16-a1f8-80f559acc1ab","ios":"levelo://app?vid=389c580f-a1e5-4b16-a1f8-80f559acc1ab"},"vehicle_type_id":"4","last_reported":1740838061,"current_range_meters":11200,"station_id":"ce4bgj92rcd13ifvqbd0","pricing_plan_id":"cebpf4jnsgd1na2vs0mg"},{"bike_id":"4173ab11-cfcd-47c2-852b-a3c8ad0413b4","system_id":"levelo_inurba_marseille","lat":43.29969,"lon":5.37194,"is_reserved":false,"is_disabled":false,"rental_uris":{"android":"levelo://app?vid=4173ab11-cfcd-47c2-852b-a3c8ad0413b4","ios":"levelo://app?vid=4173ab11-cfcd-47c2-852b-a3c8ad0413b4"},"vehicle_type_id":"4","last_reported":1740838061,"current_range_meters":11600,"station_id":"ce4bgr92rcd13ifvqc7g","pricing_plan_id":"cebpf4jnsgd1na2vs0mg"},{"bike_id":"74252580-0762-4324-bb29-27b572d5406f","system_id":"levelo_inurba_marseille","lat":43.29577,"lon":5.36743,"is_reserved":false,"is_disabled":false,"rental_uris":{"android":"levelo://app?vid=74252580-0762-4324-bb29-27b572d5406f","ios":"levelo://app?vid=74252580-0762-4324-bb29-27b572d5406f"},"vehicle_type_id":"4","last_reported":1740838061,"current_range_meters":12400,"station_id":"ce4bgph2rcd13ifvqc2g","pricing_plan_id":"cebpf4jnsgd1na2vs0mg"},{"bike_id":"43e1e04c-280b-4d54-bbb9-c3921d8e975b","system_id":"levelo_inurba_marseille","lat":43.29279,"lon":5.36853,"is_reserved":false,"is_disabled":false,"rental_uris":{"android":"levelo://app?vid=43e1e04c-280b-4d54-bbb9-c3921d8e975b","ios":"levelo://app?vid=43e1e04c-280b-4d54-bbb9-c3921d8e975b"},"vehicle_type_id":"4","last_reported":1740838061,"current_range_meters":11600,"station_id":"ce4bhbp2rcd13ifvqesg","pricing_plan_id":"cebpf4jnsgd1na2vs0mg"},{"bike_id":"1a5afd5b-35dd-445f-ac39-bd3776858dd4","system_id":"levelo_inurba_marseille","lat":43.29316,"lon":5.37202,"is_reserved":false,"is_disabled":false,"rental_uris":{"android":"levelo://app?vid=1a5afd5b-35dd-445f-ac39-bd3776858dd4","ios":"levelo://app?vid=1a5afd5b-35dd-445f-ac39-bd3776858dd4"},"vehicle_type_id":"4","last_reported":1740838061,"current_range_meters":11600,"station_id":"ce4bgh92rcd13ifvqb40","pricing_plan_id":"cebpf4jnsgd1na2vs0mg"},{"bike_id":"161d70e9-e213-4bf5-bde1-9c3d7296d89c","system_id":"levelo_inurba_marseille","lat":43.27827,"lon":5.39201,"is_reserved":false,"is_disabled":false,"rental_uris":{"android":"levelo://app?vid=161d70e9-e213-4bf5-bde1-9c3d7296d89c","ios":"levelo://app?vid=161d70e9-e213-4bf5-bde1-9c3d7296d89c"},"vehicle_type_id":"4","last_reported":1740838061,"current_range_meters":11600,"station_id":"ce4bhjp2rcd13ifvqga0","pricing_plan_id":"cebpf4jnsgd1na2vs0mg"},{"bike_id":"a5d0b9d3-e2dd-48e3-99fb-6bc67eb3cd49","system_id":"levelo_inurba_marseille","lat":43.29266,"lon":5.3686,"is_reserved":false,"is_disabled":false,"rental_uris":{"android":"levelo://app?vid=a5d0b9d3-e2dd-48e3-99fb-6bc67eb3cd49","ios":"levelo://app?vid=a5d0b9d3-e2dd-48e3-99fb-6bc67eb3cd49"},"vehicle_type_id":"4","last_reported":1740838061,"current_range_meters":11600,"station_id":"ce4bhbp2rcd13ifvqesg","pricing_plan_id":"cebpf4jnsgd1na2vs0mg"},{"bike_id":"8bb33282-5a35-4582-9cde-e53a3dbdbcc5","system_id":"levelo_inurba_marseille","lat":43.24396,"lon":5.37056,"is_reserved":false,"is_disabled":false,"rental_uris":{"android":"levelo://app?vid=8bb33282-5a35-4582-9cde-e53a3dbdbcc5","ios":"levelo://app?vid=8bb33282-5a35-4582-9cde-e53a3dbdbcc5"},"vehicle_type_id":"4","last_reported":1740838061,"current_range_meters":11600,"station_id":"ce4bhhh2rcd13ifvqfk0","pricing_plan_id":"cebpf4jnsgd1na2vs0mg"},{"bike_id":"28735e1e-72d4-426f-8db9-d1047f137bab","system_id":"levelo_inurba_marseille","lat":43.31229,"lon":5.36851,"is_reserved":false,"is_disabled":false,"rental_uris":{"android":"levelo://app?vid=28735e1e-72d4-426f-8db9-d1047f137bab","ios":"levelo://app?vid=28735e1e-72d4-426f-8db9-d1047f137bab"},"vehicle_type_id":"4","last_reported":1740838061,"current_range_meters":12400,"station_id":"ce4bgl92rcd13ifvqbq0","pricing_plan_id":"cebpf4jnsgd1na2vs0mg"},{"bike_id":"504955a9-a847-4fb8-9bfa-304fe40ca109","system_id":"levelo_inurba_marseille","lat":43.25121,"lon":5.40323,"is_reserved":false,"is_disabled":false,"rental_uris":{"android":"levelo://app?vid=504955a9-a847-4fb8-9bfa-304fe40ca109","ios":"levelo://app?vid=504955a9-a847-4fb8-9bfa-304fe40ca109"},"vehicle_type_id":"4","last_reported":1740838061,"current_range_meters":11600,"station_id":"ce4bhlh2rcd13ifvqgig","pricing_plan_id":"cebpf4jnsgd1na2vs0mg"},{"bike_id":"4015c440-7267-44b4-8be2-f4b87cb51aa9","system_id":"levelo_inurba_marseille","lat":43.25584,"lon":5.38229,"is_reserved":false,"is_disabled":false,"rental_uris":{"android":"levelo://app?vid=4015c440-7267-44b4-8be2-f4b87cb51aa9","ios":"levelo://app?vid=4015c440-7267-44b4-8be2-f4b87cb51aa9"},"vehicle_type_id":"4","last_reported":1740838061,"current_range_meters":12000,"station_id":"ce4bhih2rcd13ifvqfs0","pricing_plan_id":"cebpf4jnsgd1na2vs0mg"},{"bike_id":"112ab245-0e86-483c-b08b-7076e9168f77","system_id":"levelo_inurba_marseille","lat":43.24174,"lon":5.39735,"is_reserved":false,"is_disabled":false,"rental_uris":{"android":"levelo://app?vid=112ab245-0e86-483c-b08b-7076e9168f77","ios":"levelo://app?vid=112ab245-0e86-483c-b08b-7076e9168f77"},"vehicle_type_id":"4","last_reported":1740838061,"current_range_meters":12000,"station_id":"ce4bhn12rcd13ifvqgpg","pricing_plan_id":"cebpf4jnsgd1na2vs0mg"},{"bike_id":"2667b23c-67ae-471f-a157-93cd2283f666","system_id":"levelo_inurba_marseille","lat":43.29602,"lon":5.38091,"is_reserved":false,"is_disabled":false,"rental_uris":{"android":"levelo://app?vid=2667b23c-67ae-471f-a157-93cd2283f666","ios":"levelo://app?vid=2667b23c-67ae-471f-a157-93cd2283f666"},"vehicle_type_id":"4","last_reported":1740838061,"current_range_meters":12000,"station_id":"ce4bgl12rcd13ifvqbo0","pricing_plan_id":"cebpf4jnsgd1na2vs0mg"},{"bike_id":"0693b9d6-4a9d-4e38-bfa2-80f934bcc2e3","system_id":"levelo_inurba_marseille","lat":43.241691,"lon":5.364088,"is_reserved":false,"is_disabled":false,"rental_uris":{"android":"levelo://app?vid=0693b9d6-4a9d-4e38-bfa2-80f934bcc2e3","ios":"levelo://app?vid=0693b9d6-4a9d-4e38-bfa2-80f934bcc2e3"},"vehicle_type_id":"4","last_reported":1740838061,"current_range_meters":12400,"station_id":"cpo36qri1sfpv3e86is0","pricing_plan_id":"cebpf4jnsgd1na2vs0mg"},{"bike_id":"57935e38-0e66-4267-a220-8bc3c49d17a8","system_id":"levelo_inurba_marseille","lat":43.28002,"lon":5.41663,"is_reserved":false,"is_disabled":false,"rental_uris":{"android":"levelo://app?vid=57935e38-0e66-4267-a220-8bc3c49d17a8","ios":"levelo://app?vid=57935e38-0e66-4267-a220-8bc3c49d17a8"},"vehicle_type_id":"4","last_reported":1740838061,"current_range_meters":12000,"station_id":"ce4bhnh2rcd13ifvqgtg","pricing_plan_id":"cebpf4jnsgd1na2vs0mg"},{"bike_id":"e3ea0c82-575d-4f15-b57c-6eebd57f815a","system_id":"levelo_inurba_marseille","lat":43.27367,"lon":5.39133,"is_reserved":false,"is_disabled":true,"rental_uris":{"android":"levelo://app?vid=e3ea0c82-575d-4f15-b57c-6eebd57f815a","ios":"levelo://app?vid=e3ea0c82-575d-4f15-b57c-6eebd57f815a"},"vehicle_type_id":"4","last_reported":1740838061,"current_range_meters":12800,"station_id":"","pricing_plan_id":"cebpf4jnsgd1na2vs0mg"},{"bike_id":"b2e305f4-4025-4f74-b98e-5d952d9547fb","system_id":"levelo_inurba_marseille","lat":43.287045,"lon":5.373752,"is_reserved":false,"is_disabled":false,"rental_uris":{"android":"levelo://app?vid=b2e305f4-4025-4f74-b98e-5d952d9547fb","ios":"levelo://app?vid=b2e305f4-4025-4f74-b98e-5d952d9547fb"},"vehicle_type_id":"4","last_reported":1740838061,"current_range_meters":12800,"station_id":"ce4bh3p2rcd13ifvqdq0","pricing_plan_id":"cebpf4jnsgd1na2vs0mg"},{"bike_id":"5536e9e9-9b45-4af7-a246-7743eb09920e","system_id":"levelo_inurba_marseille","lat":43.29318,"lon":5.37194,"is_reserved":false,"is_disabled":false,"rental_uris":{"android":"levelo://app?vid=5536e9e9-9b45-4af7-a246-7743eb09920e","ios":"levelo://app?vid=5536e9e9-9b45-4af7-a246-7743eb09920e"},"vehicle_type_id":"4","last_reported":1740838061,"current_range_meters":13600,"station_id":"ce4bgh92rcd13ifvqb40","pricing_plan_id":"cebpf4jnsgd1na2vs0mg"},{"bike_id":"2b368b3d-d962-4c21-9c9d-5bc7c2351d31","system_id":"levelo_inurba_marseille","lat":43.31695,"lon":5.40457,"is_reserved":false,"is_disabled":false,"rental_uris":{"android":"levelo://app?vid=2b368b3d-d962-4c21-9c9d-5bc7c2351d31","ios":"levelo://app?vid=2b368b3d-d962-4c21-9c9d-5bc7c2351d31"},"vehicle_type_id":"4","last_reported":1740838061,"current_range_meters":13600,"station_id":"ce4bh012rcd13ifvqd00","pricing_plan_id":"cebpf4jnsgd1na2vs0mg"},{"bike_id":"9e70006a-cdf2-4919-93a2-3c66955a3b59","system_id":"levelo_inurba_marseille","lat":43.323627,"lon":5.367559,"is_reserved":false,"is_disabled":false,"rental_uris":{"android":"levelo://app?vid=9e70006a-cdf2-4919-93a2-3c66955a3b59","ios":"levelo://app?vid=9e70006a-cdf2-4919-93a2-3c66955a3b59"},"vehicle_type_id":"4","last_reported":1740838061,"current_range_meters":13600,"station_id":"ce4bhsh2rcd13ifvqi2g","pricing_plan_id":"cebpf4jnsgd1na2vs0mg"},{"bike_id":"f5d3ac68-6969-41d5-bc29-93594324e7ab","system_id":"levelo_inurba_marseille","lat":43.29229,"lon":5.39561,"is_reserved":false,"is_disabled":false,"rental_uris":{"android":"levelo://app?vid=f5d3ac68-6969-41d5-bc29-93594324e7ab","ios":"levelo://app?vid=f5d3ac68-6969-41d5-bc29-93594324e7ab"},"vehicle_type_id":"4","last_reported":1740838061,"current_range_meters":13600,"station_id":"","pricing_plan_id":"cebpf4jnsgd1na2vs0mg"},{"bike_id":"9bab801d-51b1-45f7-b26a-e5aff8ae1b84","system_id":"levelo_inurba_marseille","lat":43.30806,"lon":5.3816,"is_reserved":false,"is_disabled":false,"rental_uris":{"android":"levelo://app?vid=9bab801d-51b1-45f7-b26a-e5aff8ae1b84","ios":"levelo://app?vid=9bab801d-51b1-45f7-b26a-e5aff8ae1b84"},"vehicle_type_id":"4","last_reported":1740838061,"current_range_meters":12800,"station_id":"ce4bgt12rcd13ifvqce0","pricing_plan_id":"cebpf4jnsgd1na2vs0mg"},{"bike_id":"3d326c83-df55-456d-a39d-f1c118f8a994","system_id":"levelo_inurba_marseille","lat":43.30224,"lon":5.40018,"is_reserved":false,"is_disabled":true,"rental_uris":{"android":"levelo://app?vid=3d326c83-df55-456d-a39d-f1c118f8a994","ios":"levelo://app?vid=3d326c83-df55-456d-a39d-f1c118f8a994"},"vehicle_type_id":"4","last_reported":1740838061,"current_range_meters":13600,"station_id":"ce4bgvh2rcd13ifvqcs0","pricing_plan_id":"cebpf4jnsgd1na2vs0mg"},{"bike_id":"f29cf692-8c6d-4211-8104-375b5ebb9160","system_id":"levelo_inurba_marseille","lat":43.2316,"lon":5.43692,"is_reserved":false,"is_disabled":false,"rental_uris":{"android":"levelo://app?vid=f29cf692-8c6d-4211-8104-375b5ebb9160","ios":"levelo://app?vid=f29cf692-8c6d-4211-8104-375b5ebb9160"},"vehicle_type_id":"4","last_reported":1740838061,"current_range_meters":14000,"station_id":"ce4bhmp2rcd13ifvqgog","pricing_plan_id":"cebpf4jnsgd1na2vs0mg"},{"bike_id":"c0a73909-5f19-4ff1-b04b-2e7eaa690592","system_id":"levelo_inurba_marseille","lat":43.22935,"lon":5.35379,"is_reserved":false,"is_disabled":false,"rental_uris":{"android":"levelo://app?vid=c0a73909-5f19-4ff1-b04b-2e7eaa690592","ios":"levelo://app?vid=c0a73909-5f19-4ff1-b04b-2e7eaa690592"},"vehicle_type_id":"4","last_reported":1740838061,"current_range_meters":14000,"station_id":"cpo3532slgdg3j2ikp40","pricing_plan_id":"cebpf4jnsgd1na2vs0mg"},{"bike_id":"3e89a7de-8c08-4c9b-bbc9-5e1d905d7df8","system_id":"levelo_inurba_marseille","lat":43.25117,"lon":5.4032,"is_reserved":false,"is_disabled":false,"rental_uris":{"android":"levelo://app?vid=3e89a7de-8c08-4c9b-bbc9-5e1d905d7df8","ios":"levelo://app?vid=3e89a7de-8c08-4c9b-bbc9-5e1d905d7df8"},"vehicle_type_id":"4","last_reported":1740838061,"current_range_meters":14000,"station_id":"ce4bhlh2rcd13ifvqgig","pricing_plan_id":"cebpf4jnsgd1na2vs0mg"},{"bike_id":"fb18759c-f3ca-4612-8704-baf08a44bab2","system_id":"levelo_inurba_marseille","lat":43.2842,"lon":5.34994,"is_reserved":false,"is_disabled":false,"rental_uris":{"android":"levelo://app?vid=fb18759c-f3ca-4612-8704-baf08a44bab2","ios":"levelo://app?vid=fb18759c-f3ca-4612-8704-baf08a44bab2"},"vehicle_type_id":"4","last_reported":1740838061,"current_range_meters":14000,"station_id":"ce4bhbh2rcd13ifvqepg","pricing_plan_id":"cebpf4jnsgd1na2vs0mg"},{"bike_id":"555693bd-3b1a-4f7c-96a4-b3450f2696ce","system_id":"levelo_inurba_marseille","lat":43.30608,"lon":5.37135,"is_reserved":false,"is_disabled":false,"rental_uris":{"android":"levelo://app?vid=555693bd-3b1a-4f7c-96a4-b3450f2696ce","ios":"levelo://app?vid=555693bd-3b1a-4f7c-96a4-b3450f2696ce"},"vehicle_type_id":"4","last_reported":1740838061,"current_range_meters":14400,"station_id":"","pricing_plan_id":"cebpf4jnsgd1na2vs0mg"},{"bike_id":"4f73c5d5-f697-47c0-a3f5-39f3afff7a66","system_id":"levelo_inurba_marseille","lat":43.23203,"lon":5.35551,"is_reserved":false,"is_disabled":false,"rental_uris":{"android":"levelo://app?vid=4f73c5d5-f697-47c0-a3f5-39f3afff7a66","ios":"levelo://app?vid=4f73c5d5-f697-47c0-a3f5-39f3afff7a66"},"vehicle_type_id":"4","last_reported":1740838061,"current_range_meters":14000,"station_id":"ce4bhu92rcd13ifvqi70","pricing_plan_id":"cebpf4jnsgd1na2vs0mg"},{"bike_id":"e0a413a7-bc6b-4647-8e86-c0926ac098ec","system_id":"levelo_inurba_marseille","lat":43.29275,"lon":5.36909,"is_reserved":false,"is_disabled":false,"rental_uris":{"android":"levelo://app?vid=e0a413a7-bc6b-4647-8e86-c0926ac098ec","ios":"levelo://app?vid=e0a413a7-bc6b-4647-8e86-c0926ac098ec"},"vehicle_type_id":"4","last_reported":1740838061,"current_range_meters":14400,"station_id":"","pricing_plan_id":"cebpf4jnsgd1na2vs0mg"},{"bike_id":"d876cf5d-2e50-4606-9f11-2ff62b9adc7b","system_id":"levelo_inurba_marseille","lat":43.23064,"lon":5.35489,"is_reserved":false,"is_disabled":false,"rental_uris":{"android":"levelo://app?vid=d876cf5d-2e50-4606-9f11-2ff62b9adc7b","ios":"levelo://app?vid=d876cf5d-2e50-4606-9f11-2ff62b9adc7b"},"vehicle_type_id":"4","last_reported":1740838061,"current_range_meters":14400,"station_id":"cpo3342slgdg3j2ifvpg","pricing_plan_id":"cebpf4jnsgd1na2vs0mg"},{"bike_id":"8235333d-301f-40af-bcff-249a4ee0b3a0","system_id":"levelo_inurba_marseille","lat":43.29602,"lon":5.38102,"is_reserved":false,"is_disabled":false,"rental_uris":{"android":"levelo://app?vid=8235333d-301f-40af-bcff-249a4ee0b3a0","ios":"levelo://app?vid=8235333d-301f-40af-bcff-249a4ee0b3a0"},"vehicle_type_id":"4","last_reported":1740838061,"current_range_meters":14400,"station_id":"ce4bgl12rcd13ifvqbo0","pricing_plan_id":"cebpf4jnsgd1na2vs0mg"},{"bike_id":"c5123a9c-5b5a-4f25-bbe9-97c8fe62bff7","system_id":"levelo_inurba_marseille","lat":43.30604,"lon":5.37231,"is_reserved":false,"is_disabled":false,"rental_uris":{"android":"levelo://app?vid=c5123a9c-5b5a-4f25-bbe9-97c8fe62bff7","ios":"levelo://app?vid=c5123a9c-5b5a-4f25-bbe9-97c8fe62bff7"},"vehicle_type_id":"4","last_reported":1740838061,"current_range_meters":14400,"station_id":"ce4bgqh2rcd13ifvqc4g","pricing_plan_id":"cebpf4jnsgd1na2vs0mg"},{"bike_id":"ba110a3d-9153-4b74-9c61-b6788b5ebe3d","system_id":"levelo_inurba_marseille","lat":43.27002,"lon":5.401062,"is_reserved":false,"is_disabled":false,"rental_uris":{"android":"levelo://app?vid=ba110a3d-9153-4b74-9c61-b6788b5ebe3d","ios":"levelo://app?vid=ba110a3d-9153-4b74-9c61-b6788b5ebe3d"},"vehicle_type_id":"4","last_reported":1740838061,"current_range_meters":14400,"station_id":"ce4bgn12rcd13ifvqbt0","pricing_plan_id":"cebpf4jnsgd1na2vs0mg"},{"bike_id":"08a2d3ad-f2dd-4493-8549-3d6141caf513","system_id":"levelo_inurba_marseille","lat":43.29308,"lon":5.37162,"is_reserved":false,"is_disabled":false,"rental_uris":{"android":"levelo://app?vid=08a2d3ad-f2dd-4493-8549-3d6141caf513","ios":"levelo://app?vid=08a2d3ad-f2dd-4493-8549-3d6141caf513"},"vehicle_type_id":"4","last_reported":1740838061,"current_range_meters":14800,"station_id":"ce4bgh92rcd13ifvqb40","pricing_plan_id":"cebpf4jnsgd1na2vs0mg"},{"bike_id":"cf09f08f-2d53-4e7c-91a3-9c192f5923d9","system_id":"levelo_inurba_marseille","lat":43.27677,"lon":5.38874,"is_reserved":false,"is_disabled":false,"rental_uris":{"android":"levelo://app?vid=cf09f08f-2d53-4e7c-91a3-9c192f5923d9","ios":"levelo://app?vid=cf09f08f-2d53-4e7c-91a3-9c192f5923d9"},"vehicle_type_id":"4","last_reported":1740838061,"current_range_meters":14800,"station_id":"ce4bhi12rcd13ifvqfo0","pricing_plan_id":"cebpf4jnsgd1na2vs0mg"},{"bike_id":"a0568a2d-5744-4393-a769-f8a4199ff590","system_id":"levelo_inurba_marseille","lat":43.29309,"lon":5.37159,"is_reserved":false,"is_disabled":false,"rental_uris":{"android":"levelo://app?vid=a0568a2d-5744-4393-a769-f8a4199ff590","ios":"levelo://app?vid=a0568a2d-5744-4393-a769-f8a4199ff590"},"vehicle_type_id":"4","last_reported":1740838061,"current_range_meters":14800,"station_id":"ce4bgh92rcd13ifvqb40","pricing_plan_id":"cebpf4jnsgd1na2vs0mg"},{"bike_id":"8090c255-a93b-445f-a1ae-11c6ea91e4f5","system_id":"levelo_inurba_marseille","lat":43.314971,"lon":5.373126,"is_reserved":false,"is_disabled":false,"rental_uris":{"android":"levelo://app?vid=8090c255-a93b-445f-a1ae-11c6ea91e4f5","ios":"levelo://app?vid=8090c255-a93b-445f-a1ae-11c6ea91e4f5"},"vehicle_type_id":"4","last_reported":1740838061,"current_range_meters":14800,"station_id":"ce4bgt12rcd13ifvqcd0","pricing_plan_id":"cebpf4jnsgd1na2vs0mg"},{"bike_id":"476112c9-3c40-48ac-9bab-1099ff64d6be","system_id":"levelo_inurba_marseille","lat":43.30144,"lon":5.38079,"is_reserved":false,"is_disabled":false,"rental_uris":{"android":"levelo://app?vid=476112c9-3c40-48ac-9bab-1099ff64d6be","ios":"levelo://app?vid=476112c9-3c40-48ac-9bab-1099ff64d6be"},"vehicle_type_id":"4","last_reported":1740838061,"current_range_meters":16000,"station_id":"ce4bgjp2rcd13ifvqbh0","pricing_plan_id":"cebpf4jnsgd1na2vs0mg"},{"bike_id":"5d7c7708-0760-4884-8883-b9dd9eef0e36","system_id":"levelo_inurba_marseille","lat":43.298,"lon":5.38108,"is_reserved":false,"is_disabled":false,"rental_uris":{"android":"levelo://app?vid=5d7c7708-0760-4884-8883-b9dd9eef0e36","ios":"levelo://app?vid=5d7c7708-0760-4884-8883-b9dd9eef0e36"},"vehicle_type_id":"4","last_reported":1740838061,"current_range_meters":14800,"station_id":"ce4bgip2rcd13ifvqbb0","pricing_plan_id":"cebpf4jnsgd1na2vs0mg"},{"bike_id":"f6859461-eb1b-4285-a68c-bb639996eef9","system_id":"levelo_inurba_marseille","lat":43.29013,"lon":5.37844,"is_reserved":false,"is_disabled":false,"rental_uris":{"android":"levelo://app?vid=f6859461-eb1b-4285-a68c-bb639996eef9","ios":"levelo://app?vid=f6859461-eb1b-4285-a68c-bb639996eef9"},"vehicle_type_id":"4","last_reported":1740838061,"current_range_meters":14800,"station_id":"ce4bh9p2rcd13ifvqed0","pricing_plan_id":"cebpf4jnsgd1na2vs0mg"},{"bike_id":"d7413954-b5d7-4971-a5e6-3c9f193a11ee","system_id":"levelo_inurba_marseille","lat":43.33595,"lon":5.4101,"is_reserved":false,"is_disabled":false,"rental_uris":{"android":"levelo://app?vid=d7413954-b5d7-4971-a5e6-3c9f193a11ee","ios":"levelo://app?vid=d7413954-b5d7-4971-a5e6-3c9f193a11ee"},"vehicle_type_id":"4","last_reported":1740838061,"current_range_meters":16000,"station_id":"ce4bhqh2rcd13ifvqhmg","pricing_plan_id":"cebpf4jnsgd1na2vs0mg"},{"bike_id":"e8e6831b-a529-4553-bd85-0d3ce372cee8","system_id":"levelo_inurba_marseille","lat":43.29892,"lon":5.39731,"is_reserved":false,"is_disabled":false,"rental_uris":{"android":"levelo://app?vid=e8e6831b-a529-4553-bd85-0d3ce372cee8","ios":"levelo://app?vid=e8e6831b-a529-4553-bd85-0d3ce372cee8"},"vehicle_type_id":"4","last_reported":1740838061,"current_range_meters":15200,"station_id":"","pricing_plan_id":"cebpf4jnsgd1na2vs0mg"},{"bike_id":"5a6082a0-b400-4437-bd7d-00a7ae739891","system_id":"levelo_inurba_marseille","lat":43.2862,"lon":5.35106,"is_reserved":false,"is_disabled":false,"rental_uris":{"android":"levelo://app?vid=5a6082a0-b400-4437-bd7d-00a7ae739891","ios":"levelo://app?vid=5a6082a0-b400-4437-bd7d-00a7ae739891"},"vehicle_type_id":"4","last_reported":1740838061,"current_range_meters":15200,"station_id":"ce4bhch2rcd13ifvqeug","pricing_plan_id":"cebpf4jnsgd1na2vs0mg"},{"bike_id":"ef03a3f5-7eb7-484e-a782-a578552c3412","system_id":"levelo_inurba_marseille","lat":43.30224,"lon":5.3947,"is_reserved":false,"is_disabled":false,"rental_uris":{"android":"levelo://app?vid=ef03a3f5-7eb7-484e-a782-a578552c3412","ios":"levelo://app?vid=ef03a3f5-7eb7-484e-a782-a578552c3412"},"vehicle_type_id":"4","last_reported":1740838061,"current_range_meters":15200,"station_id":"ce4bh0p2rcd13ifvqd70","pricing_plan_id":"cebpf4jnsgd1na2vs0mg"},{"bike_id":"27d57ba8-cb2b-4da3-bcfc-1efd3956d0fa","system_id":"levelo_inurba_marseille","lat":43.295596,"lon":5.422799,"is_reserved":false,"is_disabled":false,"rental_uris":{"android":"levelo://app?vid=27d57ba8-cb2b-4da3-bcfc-1efd3956d0fa","ios":"levelo://app?vid=27d57ba8-cb2b-4da3-bcfc-1efd3956d0fa"},"vehicle_type_id":"4","last_reported":1740838061,"current_range_meters":16000,"station_id":"ce4bhph2rcd13ifvqhdg","pricing_plan_id":"cebpf4jnsgd1na2vs0mg"},{"bike_id":"97585fad-9490-4e57-b217-1b43f3a78e11","system_id":"levelo_inurba_marseille","lat":43.31079,"lon":5.42435,"is_reserved":false,"is_disabled":false,"rental_uris":{"android":"levelo://app?vid=97585fad-9490-4e57-b217-1b43f3a78e11","ios":"levelo://app?vid=97585fad-9490-4e57-b217-1b43f3a78e11"},"vehicle_type_id":"4","last_reported":1740838061,"current_range_meters":16000,"station_id":"ce4bhp92rcd13ifvqhag","pricing_plan_id":"cebpf4jnsgd1na2vs0mg"},{"bike_id":"75cacdd1-032d-44f3-80c0-7c98daff7c98","system_id":"levelo_inurba_marseille","lat":43.298534,"lon":5.362739,"is_reserved":false,"is_disabled":false,"rental_uris":{"android":"levelo://app?vid=75cacdd1-032d-44f3-80c0-7c98daff7c98","ios":"levelo://app?vid=75cacdd1-032d-44f3-80c0-7c98daff7c98"},"vehicle_type_id":"4","last_reported":1740838061,"current_range_meters":16000,"station_id":"ce4bgpp2rcd13ifvqc3g","pricing_plan_id":"cebpf4jnsgd1na2vs0mg"},{"bike_id":"f1317508-b318-42b3-b6cc-485d3729a439","system_id":"levelo_inurba_marseille","lat":43.26208,"lon":5.37938,"is_reserved":false,"is_disabled":false,"rental_uris":{"android":"levelo://app?vid=f1317508-b318-42b3-b6cc-485d3729a439","ios":"levelo://app?vid=f1317508-b318-42b3-b6cc-485d3729a439"},"vehicle_type_id":"4","last_reported":1740838061,"current_range_meters":16000,"station_id":"ce4bhjp2rcd13ifvqg90","pricing_plan_id":"cebpf4jnsgd1na2vs0mg"},{"bike_id":"e8a4174b-d864-40cb-846a-f39075f76a49","system_id":"levelo_inurba_marseille","lat":43.22936,"lon":5.3538,"is_reserved":false,"is_disabled":false,"rental_uris":{"android":"levelo://app?vid=e8a4174b-d864-40cb-846a-f39075f76a49","ios":"levelo://app?vid=e8a4174b-d864-40cb-846a-f39075f76a49"},"vehicle_type_id":"4","last_reported":1740838061,"current_range_meters":16000,"station_id":"cpo3532slgdg3j2ikp40","pricing_plan_id":"cebpf4jnsgd1na2vs0mg"},{"bike_id":"20d46fcb-4529-4896-b225-392c7b6d1f52","system_id":"levelo_inurba_marseille","lat":43.292156,"lon":5.393171,"is_reserved":false,"is_disabled":true,"rental_uris":{"android":"levelo://app?vid=20d46fcb-4529-4896-b225-392c7b6d1f52","ios":"levelo://app?vid=20d46fcb-4529-4896-b225-392c7b6d1f52"},"vehicle_type_id":"4","last_reported":1740838061,"current_range_meters":16000,"station_id":"ce4bh192rcd13ifvqdd0","pricing_plan_id":"cebpf4jnsgd1na2vs0mg"},{"bike_id":"0f8dc723-f288-4ef9-a295-e1b7db86db79","system_id":"levelo_inurba_marseille","lat":43.268,"lon":5.40259,"is_reserved":false,"is_disabled":false,"rental_uris":{"android":"levelo://app?vid=0f8dc723-f288-4ef9-a295-e1b7db86db79","ios":"levelo://app?vid=0f8dc723-f288-4ef9-a295-e1b7db86db79"},"vehicle_type_id":"4","last_reported":1740838061,"current_range_meters":16000,"station_id":"ce501612rcd8frsf0b60","pricing_plan_id":"cebpf4jnsgd1na2vs0mg"},{"bike_id":"b22ff26f-5dd9-49b6-9f03-a2616f612626","system_id":"levelo_inurba_marseille","lat":43.298126,"lon":5.380838,"is_reserved":false,"is_disabled":false,"rental_uris":{"android":"levelo://app?vid=b22ff26f-5dd9-49b6-9f03-a2616f612626","ios":"levelo://app?vid=b22ff26f-5dd9-49b6-9f03-a2616f612626"},"vehicle_type_id":"4","last_reported":1740838061,"current_range_meters":16000,"station_id":"ce4bh092rcd13ifvqd20","pricing_plan_id":"cebpf4jnsgd1na2vs0mg"},{"bike_id":"3eea0f89-b137-40d9-a4fd-d1c6a11e78cf","system_id":"levelo_inurba_marseille","lat":43.25583,"lon":5.38249,"is_reserved":false,"is_disabled":false,"rental_uris":{"android":"levelo://app?vid=3eea0f89-b137-40d9-a4fd-d1c6a11e78cf","ios":"levelo://app?vid=3eea0f89-b137-40d9-a4fd-d1c6a11e78cf"},"vehicle_type_id":"4","last_reported":1740838061,"current_range_meters":16000,"station_id":"ce4bhih2rcd13ifvqfs0","pricing_plan_id":"cebpf4jnsgd1na2vs0mg"},{"bike_id":"58566acd-9c28-48cc-9caf-f05349e31810","system_id":"levelo_inurba_marseille","lat":43.28938,"lon":5.36635,"is_reserved":false,"is_disabled":false,"rental_uris":{"android":"levelo://app?vid=58566acd-9c28-48cc-9caf-f05349e31810","ios":"levelo://app?vid=58566acd-9c28-48cc-9caf-f05349e31810"},"vehicle_type_id":"4","last_reported":1740838061,"current_range_meters":16400,"station_id":"ce4bhap2rcd13ifvqek0","pricing_plan_id":"cebpf4jnsgd1na2vs0mg"},{"bike_id":"bf5fa3ae-6ca5-4c5c-8b6c-da129c572841","system_id":"levelo_inurba_marseille","lat":43.286166,"lon":5.351028,"is_reserved":false,"is_disabled":false,"rental_uris":{"android":"levelo://app?vid=bf5fa3ae-6ca5-4c5c-8b6c-da129c572841","ios":"levelo://app?vid=bf5fa3ae-6ca5-4c5c-8b6c-da129c572841"},"vehicle_type_id":"4","last_reported":1740838061,"current_range_meters":16000,"station_id":"ce4bha92rcd13ifvqeg0","pricing_plan_id":"cebpf4jnsgd1na2vs0mg"},{"bike_id":"218457ac-5064-4483-b256-7af7da02f0cd","system_id":"levelo_inurba_marseille","lat":43.279705,"lon":5.387322,"is_reserved":false,"is_disabled":true,"rental_uris":{"android":"levelo://app?vid=218457ac-5064-4483-b256-7af7da02f0cd","ios":"levelo://app?vid=218457ac-5064-4483-b256-7af7da02f0cd"},"vehicle_type_id":"4","last_reported":1740838061,"current_range_meters":16000,"station_id":"ce4bhg12rcd13ifvqf80","pricing_plan_id":"cebpf4jnsgd1na2vs0mg"},{"bike_id":"c8694e6f-92d4-4f83-b4ca-2552ef59703f","system_id":"levelo_inurba_marseille","lat":43.22938,"lon":5.35368,"is_reserved":false,"is_disabled":false,"rental_uris":{"android":"levelo://app?vid=c8694e6f-92d4-4f83-b4ca-2552ef59703f","ios":"levelo://app?vid=c8694e6f-92d4-4f83-b4ca-2552ef59703f"},"vehicle_type_id":"4","last_reported":1740838061,"current_range_meters":16400,"station_id":"cpo3532slgdg3j2ikp40","pricing_plan_id":"cebpf4jnsgd1na2vs0mg"},{"bike_id":"38a1c2e2-5c11-454e-a194-550050338f56","system_id":"levelo_inurba_marseille","lat":43.2721,"lon":5.3918,"is_reserved":false,"is_disabled":false,"rental_uris":{"android":"levelo://app?vid=38a1c2e2-5c11-454e-a194-550050338f56","ios":"levelo://app?vid=38a1c2e2-5c11-454e-a194-550050338f56"},"vehicle_type_id":"4","last_reported":1740838061,"current_range_meters":16400,"station_id":"ce4bhhp2rcd13ifvqfm0","pricing_plan_id":"cebpf4jnsgd1na2vs0mg"},{"bike_id":"24dfa1a3-0eda-4af3-a199-730de4f500ea","system_id":"levelo_inurba_marseille","lat":43.30793,"lon":5.38176,"is_reserved":false,"is_disabled":false,"rental_uris":{"android":"levelo://app?vid=24dfa1a3-0eda-4af3-a199-730de4f500ea","ios":"levelo://app?vid=24dfa1a3-0eda-4af3-a199-730de4f500ea"},"vehicle_type_id":"4","last_reported":1740838061,"current_range_meters":16000,"station_id":"ce4bgt12rcd13ifvqce0","pricing_plan_id":"cebpf4jnsgd1na2vs0mg"},{"bike_id":"c26a6110-5873-42f9-b993-0340790998ca","system_id":"levelo_inurba_marseille","lat":43.2952,"lon":5.39058,"is_reserved":false,"is_disabled":false,"rental_uris":{"android":"levelo://app?vid=c26a6110-5873-42f9-b993-0340790998ca","ios":"levelo://app?vid=c26a6110-5873-42f9-b993-0340790998ca"},"vehicle_type_id":"4","last_reported":1740838061,"current_range_meters":16400,"station_id":"ce4bh3p2rcd13ifvqdp0","pricing_plan_id":"cebpf4jnsgd1na2vs0mg"},{"bike_id":"284ccf54-027c-46be-951e-e78156f52c46","system_id":"levelo_inurba_marseille","lat":43.29255,"lon":5.38447,"is_reserved":false,"is_disabled":false,"rental_uris":{"android":"levelo://app?vid=284ccf54-027c-46be-951e-e78156f52c46","ios":"levelo://app?vid=284ccf54-027c-46be-951e-e78156f52c46"},"vehicle_type_id":"4","last_reported":1740838061,"current_range_meters":16400,"station_id":"ce4bh692rcd13ifvqea0","pricing_plan_id":"cebpf4jnsgd1na2vs0mg"},{"bike_id":"591e4c91-4ae2-48db-a850-e6bc66d7a323","system_id":"levelo_inurba_marseille","lat":43.29554,"lon":5.42297,"is_reserved":false,"is_disabled":false,"rental_uris":{"android":"levelo://app?vid=591e4c91-4ae2-48db-a850-e6bc66d7a323","ios":"levelo://app?vid=591e4c91-4ae2-48db-a850-e6bc66d7a323"},"vehicle_type_id":"4","last_reported":1740838061,"current_range_meters":16000,"station_id":"ce4bhph2rcd13ifvqhdg","pricing_plan_id":"cebpf4jnsgd1na2vs0mg"},{"bike_id":"524d6600-3349-4276-b985-cfc002e64c52","system_id":"levelo_inurba_marseille","lat":43.302063,"lon":5.394707,"is_reserved":false,"is_disabled":false,"rental_uris":{"android":"levelo://app?vid=524d6600-3349-4276-b985-cfc002e64c52","ios":"levelo://app?vid=524d6600-3349-4276-b985-cfc002e64c52"},"vehicle_type_id":"4","last_reported":1740838061,"current_range_meters":16000,"station_id":"ce4bh012rcd13ifvqd10","pricing_plan_id":"cebpf4jnsgd1na2vs0mg"},{"bike_id":"97660e11-152b-48a1-9b57-8ac6abeca229","system_id":"levelo_inurba_marseille","lat":43.299002,"lon":5.436627,"is_reserved":false,"is_disabled":false,"rental_uris":{"android":"levelo://app?vid=97660e11-152b-48a1-9b57-8ac6abeca229","ios":"levelo://app?vid=97660e11-152b-48a1-9b57-8ac6abeca229"},"vehicle_type_id":"4","last_reported":1740838061,"current_range_meters":16800,"station_id":"ce4bhpp2rcd13ifvqhfg","pricing_plan_id":"cebpf4jnsgd1na2vs0mg"},{"bike_id":"28094c26-ebf7-4f10-9752-a86036fd897f","system_id":"levelo_inurba_marseille","lat":43.284233,"lon":5.349787,"is_reserved":false,"is_disabled":false,"rental_uris":{"android":"levelo://app?vid=28094c26-ebf7-4f10-9752-a86036fd897f","ios":"levelo://app?vid=28094c26-ebf7-4f10-9752-a86036fd897f"},"vehicle_type_id":"4","last_reported":1740838061,"current_range_meters":16800,"station_id":"ce4bhbh2rcd13ifvqepg","pricing_plan_id":"cebpf4jnsgd1na2vs0mg"},{"bike_id":"06c244b9-00db-41f8-80d3-a0534c994322","system_id":"levelo_inurba_marseille","lat":43.2694,"lon":5.3864,"is_reserved":false,"is_disabled":false,"rental_uris":{"android":"levelo://app?vid=06c244b9-00db-41f8-80d3-a0534c994322","ios":"levelo://app?vid=06c244b9-00db-41f8-80d3-a0534c994322"},"vehicle_type_id":"4","last_reported":1740838061,"current_range_meters":16400,"station_id":"ce4bhh92rcd13ifvqfh0","pricing_plan_id":"cebpf4jnsgd1na2vs0mg"},{"bike_id":"c6bc9b85-3803-49aa-b83c-08f0c6dcab90","system_id":"levelo_inurba_marseille","lat":43.24398,"lon":5.37071,"is_reserved":false,"is_disabled":false,"rental_uris":{"android":"levelo://app?vid=c6bc9b85-3803-49aa-b83c-08f0c6dcab90","ios":"levelo://app?vid=c6bc9b85-3803-49aa-b83c-08f0c6dcab90"},"vehicle_type_id":"4","last_reported":1740838061,"current_range_meters":16800,"station_id":"ce4bhhh2rcd13ifvqfk0","pricing_plan_id":"cebpf4jnsgd1na2vs0mg"},{"bike_id":"3bb09152-75b2-4229-b4a4-cc2dd48bc9aa","system_id":"levelo_inurba_marseille","lat":43.32046,"lon":5.4154,"is_reserved":false,"is_disabled":false,"rental_uris":{"android":"levelo://app?vid=3bb09152-75b2-4229-b4a4-cc2dd48bc9aa","ios":"levelo://app?vid=3bb09152-75b2-4229-b4a4-cc2dd48bc9aa"},"vehicle_type_id":"4","last_reported":1740838061,"current_range_meters":16800,"station_id":"ce4bhq92rcd13ifvqhkg","pricing_plan_id":"cebpf4jnsgd1na2vs0mg"},{"bike_id":"a197c053-f495-4388-bb09-62f1a25a335b","system_id":"levelo_inurba_marseille","lat":43.23082,"lon":5.35482,"is_reserved":false,"is_disabled":false,"rental_uris":{"android":"levelo://app?vid=a197c053-f495-4388-bb09-62f1a25a335b","ios":"levelo://app?vid=a197c053-f495-4388-bb09-62f1a25a335b"},"vehicle_type_id":"4","last_reported":1740838061,"current_range_meters":16800,"station_id":"cpo3342slgdg3j2ifvpg","pricing_plan_id":"cebpf4jnsgd1na2vs0mg"},{"bike_id":"6beccde7-f926-477c-bb20-bf13069e0832","system_id":"levelo_inurba_marseille","lat":43.29036,"lon":5.37569,"is_reserved":false,"is_disabled":false,"rental_uris":{"android":"levelo://app?vid=6beccde7-f926-477c-bb20-bf13069e0832","ios":"levelo://app?vid=6beccde7-f926-477c-bb20-bf13069e0832"},"vehicle_type_id":"4","last_reported":1740838061,"current_range_meters":16800,"station_id":"ce4bh692rcd13ifvqe90","pricing_plan_id":"cebpf4jnsgd1na2vs0mg"},{"bike_id":"5956f691-eeaf-488b-9e1c-cb23d7ee3cad","system_id":"levelo_inurba_marseille","lat":43.29845,"lon":5.36269,"is_reserved":false,"is_disabled":false,"rental_uris":{"android":"levelo://app?vid=5956f691-eeaf-488b-9e1c-cb23d7ee3cad","ios":"levelo://app?vid=5956f691-eeaf-488b-9e1c-cb23d7ee3cad"},"vehicle_type_id":"4","last_reported":1740838061,"current_range_meters":16800,"station_id":"ce4bgpp2rcd13ifvqc3g","pricing_plan_id":"cebpf4jnsgd1na2vs0mg"},{"bike_id":"f7c019bb-24d5-47dd-b673-042e5277a8f7","system_id":"levelo_inurba_marseille","lat":43.30153,"lon":5.381,"is_reserved":false,"is_disabled":false,"rental_uris":{"android":"levelo://app?vid=f7c019bb-24d5-47dd-b673-042e5277a8f7","ios":"levelo://app?vid=f7c019bb-24d5-47dd-b673-042e5277a8f7"},"vehicle_type_id":"4","last_reported":1740838061,"current_range_meters":16800,"station_id":"ce4bgjp2rcd13ifvqbh0","pricing_plan_id":"cebpf4jnsgd1na2vs0mg"},{"bike_id":"ae07f147-26ae-41a1-8aee-2851f6dcc9df","system_id":"levelo_inurba_marseille","lat":43.28112,"lon":5.39883,"is_reserved":false,"is_disabled":false,"rental_uris":{"android":"levelo://app?vid=ae07f147-26ae-41a1-8aee-2851f6dcc9df","ios":"levelo://app?vid=ae07f147-26ae-41a1-8aee-2851f6dcc9df"},"vehicle_type_id":"4","last_reported":1740838061,"current_range_meters":17200,"station_id":"","pricing_plan_id":"cebpf4jnsgd1na2vs0mg"},{"bike_id":"ffe714ed-8c20-4a89-8de0-4dba1597b1d3","system_id":"levelo_inurba_marseille","lat":43.29633,"lon":5.3715,"is_reserved":false,"is_disabled":false,"rental_uris":{"android":"levelo://app?vid=ffe714ed-8c20-4a89-8de0-4dba1597b1d3","ios":"levelo://app?vid=ffe714ed-8c20-4a89-8de0-4dba1597b1d3"},"vehicle_type_id":"4","last_reported":1740838061,"current_range_meters":17200,"station_id":"ce4bgnh2rcd13ifvqc0g","pricing_plan_id":"cebpf4jnsgd1na2vs0mg"},{"bike_id":"5f58e767-9619-4aff-a7ce-6fecff2cc717","system_id":"levelo_inurba_marseille","lat":43.28436,"lon":5.39207,"is_reserved":false,"is_disabled":false,"rental_uris":{"android":"levelo://app?vid=5f58e767-9619-4aff-a7ce-6fecff2cc717","ios":"levelo://app?vid=5f58e767-9619-4aff-a7ce-6fecff2cc717"},"vehicle_type_id":"4","last_reported":1740838061,"current_range_meters":17200,"station_id":"ce4bhoh2rcd13ifvqh5g","pricing_plan_id":"cebpf4jnsgd1na2vs0mg"},{"bike_id":"af049065-c9f0-4189-960c-caead01984c5","system_id":"levelo_inurba_marseille","lat":43.27322,"lon":5.3909,"is_reserved":false,"is_disabled":false,"rental_uris":{"android":"levelo://app?vid=af049065-c9f0-4189-960c-caead01984c5","ios":"levelo://app?vid=af049065-c9f0-4189-960c-caead01984c5"},"vehicle_type_id":"4","last_reported":1740838061,"current_range_meters":17200,"station_id":"ce4bhgp2rcd13ifvqfe0","pricing_plan_id":"cebpf4jnsgd1na2vs0mg"},{"bike_id":"9e5520b4-bf3a-4c93-8806-f068ef30cd9f","system_id":"levelo_inurba_marseille","lat":43.27383,"lon":5.36262,"is_reserved":false,"is_disabled":false,"rental_uris":{"android":"levelo://app?vid=9e5520b4-bf3a-4c93-8806-f068ef30cd9f","ios":"levelo://app?vid=9e5520b4-bf3a-4c93-8806-f068ef30cd9f"},"vehicle_type_id":"4","last_reported":1740838061,"current_range_meters":17200,"station_id":"ce4bhbh2rcd13ifvqeo0","pricing_plan_id":"cebpf4jnsgd1na2vs0mg"},{"bike_id":"49645587-4897-47af-80cb-ea0df5af90cc","system_id":"levelo_inurba_marseille","lat":43.26216,"lon":5.37445,"is_reserved":false,"is_disabled":false,"rental_uris":{"android":"levelo://app?vid=49645587-4897-47af-80cb-ea0df5af90cc","ios":"levelo://app?vid=49645587-4897-47af-80cb-ea0df5af90cc"},"vehicle_type_id":"4","last_reported":1740838061,"current_range_meters":17200,"station_id":"ce4bhgp2rcd13ifvqfc0","pricing_plan_id":"cebpf4jnsgd1na2vs0mg"},{"bike_id":"3d3e1218-9db2-47a8-a44c-42be77ca5680","system_id":"levelo_inurba_marseille","lat":43.29272,"lon":5.36866,"is_reserved":false,"is_disabled":false,"rental_uris":{"android":"levelo://app?vid=3d3e1218-9db2-47a8-a44c-42be77ca5680","ios":"levelo://app?vid=3d3e1218-9db2-47a8-a44c-42be77ca5680"},"vehicle_type_id":"4","last_reported":1740838061,"current_range_meters":17200,"station_id":"ce4bhbp2rcd13ifvqesg","pricing_plan_id":"cebpf4jnsgd1na2vs0mg"},{"bike_id":"76d58a2e-82e7-4e1d-a98f-c6152e9b38bc","system_id":"levelo_inurba_marseille","lat":43.27319,"lon":5.3908,"is_reserved":false,"is_disabled":false,"rental_uris":{"android":"levelo://app?vid=76d58a2e-82e7-4e1d-a98f-c6152e9b38bc","ios":"levelo://app?vid=76d58a2e-82e7-4e1d-a98f-c6152e9b38bc"},"vehicle_type_id":"4","last_reported":1740838061,"current_range_meters":17200,"station_id":"ce4bhgp2rcd13ifvqfe0","pricing_plan_id":"cebpf4jnsgd1na2vs0mg"},{"bike_id":"3c9c65ff-a2a8-4c52-a6f4-62bcc77556ef","system_id":"levelo_inurba_marseille","lat":43.24173,"lon":5.36406,"is_reserved":false,"is_disabled":false,"rental_uris":{"android":"levelo://app?vid=3c9c65ff-a2a8-4c52-a6f4-62bcc77556ef","ios":"levelo://app?vid=3c9c65ff-a2a8-4c52-a6f4-62bcc77556ef"},"vehicle_type_id":"4","last_reported":1740838061,"current_range_meters":17200,"station_id":"cpo36qri1sfpv3e86is0","pricing_plan_id":"cebpf4jnsgd1na2vs0mg"},{"bike_id":"c272f144-1302-4356-8d7d-046dcce3b360","system_id":"levelo_inurba_marseille","lat":43.26204,"lon":5.37931,"is_reserved":false,"is_disabled":false,"rental_uris":{"android":"levelo://app?vid=c272f144-1302-4356-8d7d-046dcce3b360","ios":"levelo://app?vid=c272f144-1302-4356-8d7d-046dcce3b360"},"vehicle_type_id":"4","last_reported":1740838061,"current_range_meters":17200,"station_id":"ce4bhjp2rcd13ifvqg90","pricing_plan_id":"cebpf4jnsgd1na2vs0mg"},{"bike_id":"7823a789-113a-40ae-a3f9-3b27eb5735e7","system_id":"levelo_inurba_marseille","lat":43.29584,"lon":5.39976,"is_reserved":false,"is_disabled":false,"rental_uris":{"android":"levelo://app?vid=7823a789-113a-40ae-a3f9-3b27eb5735e7","ios":"levelo://app?vid=7823a789-113a-40ae-a3f9-3b27eb5735e7"},"vehicle_type_id":"4","last_reported":1740838061,"current_range_meters":17600,"station_id":"ce4bh312rcd13ifvqdj0","pricing_plan_id":"cebpf4jnsgd1na2vs0mg"},{"bike_id":"3e0dfe8e-516c-45d2-9fb6-b841e772a05c","system_id":"levelo_inurba_marseille","lat":43.27209,"lon":5.39185,"is_reserved":false,"is_disabled":false,"rental_uris":{"android":"levelo://app?vid=3e0dfe8e-516c-45d2-9fb6-b841e772a05c","ios":"levelo://app?vid=3e0dfe8e-516c-45d2-9fb6-b841e772a05c"},"vehicle_type_id":"4","last_reported":1740838061,"current_range_meters":17600,"station_id":"ce4bhhp2rcd13ifvqfm0","pricing_plan_id":"cebpf4jnsgd1na2vs0mg"},{"bike_id":"953cc1e5-7e17-4c1d-b0f2-bff801d3a91c","system_id":"levelo_inurba_marseille","lat":43.29253,"lon":5.38435,"is_reserved":false,"is_disabled":true,"rental_uris":{"android":"levelo://app?vid=953cc1e5-7e17-4c1d-b0f2-bff801d3a91c","ios":"levelo://app?vid=953cc1e5-7e17-4c1d-b0f2-bff801d3a91c"},"vehicle_type_id":"4","last_reported":1740838061,"current_range_meters":17600,"station_id":"ce4bh692rcd13ifvqea0","pricing_plan_id":"cebpf4jnsgd1na2vs0mg"},{"bike_id":"57cd94f2-e7d7-48fa-948e-308f17077047","system_id":"levelo_inurba_marseille","lat":43.29101,"lon":5.38146,"is_reserved":false,"is_disabled":false,"rental_uris":{"android":"levelo://app?vid=57cd94f2-e7d7-48fa-948e-308f17077047","ios":"levelo://app?vid=57cd94f2-e7d7-48fa-948e-308f17077047"},"vehicle_type_id":"4","last_reported":1740838061,"current_range_meters":17600,"station_id":"ce4bh512rcd13ifvqe2g","pricing_plan_id":"cebpf4jnsgd1na2vs0mg"},{"bike_id":"1a19f09d-0b6a-4b64-9d93-aa6bb1c37f46","system_id":"levelo_inurba_marseille","lat":43.29601,"lon":5.38089,"is_reserved":false,"is_disabled":false,"rental_uris":{"android":"levelo://app?vid=1a19f09d-0b6a-4b64-9d93-aa6bb1c37f46","ios":"levelo://app?vid=1a19f09d-0b6a-4b64-9d93-aa6bb1c37f46"},"vehicle_type_id":"4","last_reported":1740838061,"current_range_meters":17600,"station_id":"ce4bgl12rcd13ifvqbo0","pricing_plan_id":"cebpf4jnsgd1na2vs0mg"},{"bike_id":"a1ed7fff-a7c6-4601-950e-4bc387f7db69","system_id":"levelo_inurba_marseille","lat":43.2452,"lon":5.38019,"is_reserved":false,"is_disabled":false,"rental_uris":{"android":"levelo://app?vid=a1ed7fff-a7c6-4601-950e-4bc387f7db69","ios":"levelo://app?vid=a1ed7fff-a7c6-4601-950e-4bc387f7db69"},"vehicle_type_id":"4","last_reported":1740838061,"current_range_meters":17600,"station_id":"","pricing_plan_id":"cebpf4jnsgd1na2vs0mg"},{"bike_id":"51488355-cec3-4549-a8df-af618d811700","system_id":"levelo_inurba_marseille","lat":43.31691,"lon":5.40476,"is_reserved":false,"is_disabled":false,"rental_uris":{"android":"levelo://app?vid=51488355-cec3-4549-a8df-af618d811700","ios":"levelo://app?vid=51488355-cec3-4549-a8df-af618d811700"},"vehicle_type_id":"4","last_reported":1740838061,"current_range_meters":18000,"station_id":"ce4bh012rcd13ifvqd00","pricing_plan_id":"cebpf4jnsgd1na2vs0mg"},{"bike_id":"dbd24d78-1e72-4b79-b29c-55756f89ecc8","system_id":"levelo_inurba_marseille","lat":43.25012,"lon":5.38927,"is_reserved":false,"is_disabled":false,"rental_uris":{"android":"levelo://app?vid=dbd24d78-1e72-4b79-b29c-55756f89ecc8","ios":"levelo://app?vid=dbd24d78-1e72-4b79-b29c-55756f89ecc8"},"vehicle_type_id":"4","last_reported":1740838061,"current_range_meters":17600,"station_id":"ce4bhgp2rcd13ifvqfd0","pricing_plan_id":"cebpf4jnsgd1na2vs0mg"},{"bike_id":"f8774b53-6aad-4c74-8fcb-de09dc38caee","system_id":"levelo_inurba_marseille","lat":43.273776,"lon":5.36256,"is_reserved":false,"is_disabled":true,"rental_uris":{"android":"levelo://app?vid=f8774b53-6aad-4c74-8fcb-de09dc38caee","ios":"levelo://app?vid=f8774b53-6aad-4c74-8fcb-de09dc38caee"},"vehicle_type_id":"4","last_reported":1740838061,"current_range_meters":18000,"station_id":"ce4bhbh2rcd13ifvqeo0","pricing_plan_id":"cebpf4jnsgd1na2vs0mg"},{"bike_id":"33c951cc-444f-49ba-bdb7-2ae131148385","system_id":"levelo_inurba_marseille","lat":43.28719,"lon":5.39996,"is_reserved":false,"is_disabled":false,"rental_uris":{"android":"levelo://app?vid=33c951cc-444f-49ba-bdb7-2ae131148385","ios":"levelo://app?vid=33c951cc-444f-49ba-bdb7-2ae131148385"},"vehicle_type_id":"4","last_reported":1740838061,"current_range_meters":18000,"station_id":"ce4bho92rcd13ifvqh3g","pricing_plan_id":"cebpf4jnsgd1na2vs0mg"},{"bike_id":"e2b1a97c-05f9-4994-8c76-5c4c26614832","system_id":"levelo_inurba_marseille","lat":43.26575,"lon":5.37288,"is_reserved":false,"is_disabled":false,"rental_uris":{"android":"levelo://app?vid=e2b1a97c-05f9-4994-8c76-5c4c26614832","ios":"levelo://app?vid=e2b1a97c-05f9-4994-8c76-5c4c26614832"},"vehicle_type_id":"4","last_reported":1740838061,"current_range_meters":18000,"station_id":"ce4bhg12rcd13ifvqf70","pricing_plan_id":"cebpf4jnsgd1na2vs0mg"},{"bike_id":"72e40fce-be0c-4a64-a81b-cc9086c19cca","system_id":"levelo_inurba_marseille","lat":43.23196,"lon":5.35554,"is_reserved":false,"is_disabled":false,"rental_uris":{"android":"levelo://app?vid=72e40fce-be0c-4a64-a81b-cc9086c19cca","ios":"levelo://app?vid=72e40fce-be0c-4a64-a81b-cc9086c19cca"},"vehicle_type_id":"4","last_reported":1740838061,"current_range_meters":18000,"station_id":"ce4bhu92rcd13ifvqi70","pricing_plan_id":"cebpf4jnsgd1na2vs0mg"},{"bike_id":"620a5eb3-daee-44ad-a3ba-f984dc8c768a","system_id":"levelo_inurba_marseille","lat":43.30238,"lon":5.36573,"is_reserved":false,"is_disabled":true,"rental_uris":{"android":"levelo://app?vid=620a5eb3-daee-44ad-a3ba-f984dc8c768a","ios":"levelo://app?vid=620a5eb3-daee-44ad-a3ba-f984dc8c768a"},"vehicle_type_id":"4","last_reported":1740838061,"current_range_meters":18000,"station_id":"","pricing_plan_id":"cebpf4jnsgd1na2vs0mg"},{"bike_id":"aee6f784-9031-4e59-82af-e3769b098ade","system_id":"levelo_inurba_marseille","lat":43.2904,"lon":5.37562,"is_reserved":false,"is_disabled":false,"rental_uris":{"android":"levelo://app?vid=aee6f784-9031-4e59-82af-e3769b098ade","ios":"levelo://app?vid=aee6f784-9031-4e59-82af-e3769b098ade"},"vehicle_type_id":"4","last_reported":1740838061,"current_range_meters":18000,"station_id":"ce4bh692rcd13ifvqe90","pricing_plan_id":"cebpf4jnsgd1na2vs0mg"},{"bike_id":"785b2088-e997-4eaf-a2a1-57cc25d13a31","system_id":"levelo_inurba_marseille","lat":43.25578,"lon":5.38236,"is_reserved":false,"is_disabled":false,"rental_uris":{"android":"levelo://app?vid=785b2088-e997-4eaf-a2a1-57cc25d13a31","ios":"levelo://app?vid=785b2088-e997-4eaf-a2a1-57cc25d13a31"},"vehicle_type_id":"4","last_reported":1740838061,"current_range_meters":18000,"station_id":"ce4bhih2rcd13ifvqfs0","pricing_plan_id":"cebpf4jnsgd1na2vs0mg"},{"bike_id":"becc1179-b330-49e8-8c01-0081d3d2357e","system_id":"levelo_inurba_marseille","lat":43.29849,"lon":5.36275,"is_reserved":false,"is_disabled":false,"rental_uris":{"android":"levelo://app?vid=becc1179-b330-49e8-8c01-0081d3d2357e","ios":"levelo://app?vid=becc1179-b330-49e8-8c01-0081d3d2357e"},"vehicle_type_id":"4","last_reported":1740838061,"current_range_meters":18000,"station_id":"ce4bgpp2rcd13ifvqc3g","pricing_plan_id":"cebpf4jnsgd1na2vs0mg"},{"bike_id":"d0338d15-401f-4f02-ad15-e1eebf71fa48","system_id":"levelo_inurba_marseille","lat":43.29605,"lon":5.38095,"is_reserved":false,"is_disabled":false,"rental_uris":{"android":"levelo://app?vid=d0338d15-401f-4f02-ad15-e1eebf71fa48","ios":"levelo://app?vid=d0338d15-401f-4f02-ad15-e1eebf71fa48"},"vehicle_type_id":"4","last_reported":1740838061,"current_range_meters":18000,"station_id":"ce4bgl12rcd13ifvqbo0","pricing_plan_id":"cebpf4jnsgd1na2vs0mg"},{"bike_id":"66cd4003-c414-4870-b7e6-9f2876273f3d","system_id":"levelo_inurba_marseille","lat":43.25109,"lon":5.4033,"is_reserved":false,"is_disabled":false,"rental_uris":{"android":"levelo://app?vid=66cd4003-c414-4870-b7e6-9f2876273f3d","ios":"levelo://app?vid=66cd4003-c414-4870-b7e6-9f2876273f3d"},"vehicle_type_id":"4","last_reported":1740838061,"current_range_meters":18000,"station_id":"ce4bhlh2rcd13ifvqgig","pricing_plan_id":"cebpf4jnsgd1na2vs0mg"},{"bike_id":"3ad4e367-65de-459f-bb28-07c64d86a608","system_id":"levelo_inurba_marseille","lat":43.29567,"lon":5.37507,"is_reserved":false,"is_disabled":false,"rental_uris":{"android":"levelo://app?vid=3ad4e367-65de-459f-bb28-07c64d86a608","ios":"levelo://app?vid=3ad4e367-65de-459f-bb28-07c64d86a608"},"vehicle_type_id":"4","last_reported":1740838061,"current_range_meters":18000,"station_id":"ce4bgh92rcd13ifvqb50","pricing_plan_id":"cebpf4jnsgd1na2vs0mg"},{"bike_id":"e795c277-030f-4fc6-80e3-73668cccaa32","system_id":"levelo_inurba_marseille","lat":43.27071,"lon":5.4026,"is_reserved":false,"is_disabled":false,"rental_uris":{"android":"levelo://app?vid=e795c277-030f-4fc6-80e3-73668cccaa32","ios":"levelo://app?vid=e795c277-030f-4fc6-80e3-73668cccaa32"},"vehicle_type_id":"4","last_reported":1740838061,"current_range_meters":18000,"station_id":"ce4bhk92rcd13ifvqgc0","pricing_plan_id":"cebpf4jnsgd1na2vs0mg"},{"bike_id":"62732260-98f6-4334-8ddf-7278a39c6830","system_id":"levelo_inurba_marseille","lat":43.28983,"lon":5.3783,"is_reserved":false,"is_disabled":false,"rental_uris":{"android":"levelo://app?vid=62732260-98f6-4334-8ddf-7278a39c6830","ios":"levelo://app?vid=62732260-98f6-4334-8ddf-7278a39c6830"},"vehicle_type_id":"4","last_reported":1740838061,"current_range_meters":18000,"station_id":"ce4bh9p2rcd13ifvqed0","pricing_plan_id":"cebpf4jnsgd1na2vs0mg"},{"bike_id":"73022eae-0e6a-4873-bca7-f9caf82bcade","system_id":"levelo_inurba_marseille","lat":43.28425,"lon":5.34989,"is_reserved":false,"is_disabled":false,"rental_uris":{"android":"levelo://app?vid=73022eae-0e6a-4873-bca7-f9caf82bcade","ios":"levelo://app?vid=73022eae-0e6a-4873-bca7-f9caf82bcade"},"vehicle_type_id":"4","last_reported":1740838061,"current_range_meters":18000,"station_id":"ce4bhbh2rcd13ifvqepg","pricing_plan_id":"cebpf4jnsgd1na2vs0mg"},{"bike_id":"d5792e34-1a9b-4bc2-abd5-2c645e524662","system_id":"levelo_inurba_marseille","lat":43.31704,"lon":5.40389,"is_reserved":false,"is_disabled":false,"rental_uris":{"android":"levelo://app?vid=d5792e34-1a9b-4bc2-abd5-2c645e524662","ios":"levelo://app?vid=d5792e34-1a9b-4bc2-abd5-2c645e524662"},"vehicle_type_id":"4","last_reported":1740838061,"current_range_meters":18000,"station_id":"ce4bh012rcd13ifvqd00","pricing_plan_id":"cebpf4jnsgd1na2vs0mg"},{"bike_id":"9d9ea3d7-9a8c-4118-bff6-a1dc51515da1","system_id":"levelo_inurba_marseille","lat":43.298017,"lon":5.404178,"is_reserved":false,"is_disabled":false,"rental_uris":{"android":"levelo://app?vid=9d9ea3d7-9a8c-4118-bff6-a1dc51515da1","ios":"levelo://app?vid=9d9ea3d7-9a8c-4118-bff6-a1dc51515da1"},"vehicle_type_id":"4","last_reported":1740838061,"current_range_meters":19200,"station_id":"ce4bh112rcd13ifvqd90","pricing_plan_id":"cebpf4jnsgd1na2vs0mg"},{"bike_id":"9e8d1403-6349-4811-806c-6dadcbf4a868","system_id":"levelo_inurba_marseille","lat":43.28708,"lon":5.37429,"is_reserved":false,"is_disabled":false,"rental_uris":{"android":"levelo://app?vid=9e8d1403-6349-4811-806c-6dadcbf4a868","ios":"levelo://app?vid=9e8d1403-6349-4811-806c-6dadcbf4a868"},"vehicle_type_id":"4","last_reported":1740838061,"current_range_meters":18000,"station_id":"ce4bh3p2rcd13ifvqdq0","pricing_plan_id":"cebpf4jnsgd1na2vs0mg"},{"bike_id":"96090500-e92b-4618-a8ce-3e71815df01c","system_id":"levelo_inurba_marseille","lat":43.31079,"lon":5.38243,"is_reserved":false,"is_disabled":false,"rental_uris":{"android":"levelo://app?vid=96090500-e92b-4618-a8ce-3e71815df01c","ios":"levelo://app?vid=96090500-e92b-4618-a8ce-3e71815df01c"},"vehicle_type_id":"4","last_reported":1740838061,"current_range_meters":18800,"station_id":"","pricing_plan_id":"cebpf4jnsgd1na2vs0mg"},{"bike_id":"82ce3d8e-f85f-4f5a-a45f-96b5ebaa8cc4","system_id":"levelo_inurba_marseille","lat":43.29622,"lon":5.37165,"is_reserved":false,"is_disabled":false,"rental_uris":{"android":"levelo://app?vid=82ce3d8e-f85f-4f5a-a45f-96b5ebaa8cc4","ios":"levelo://app?vid=82ce3d8e-f85f-4f5a-a45f-96b5ebaa8cc4"},"vehicle_type_id":"4","last_reported":1740838061,"current_range_meters":18800,"station_id":"ce4bgnh2rcd13ifvqc0g","pricing_plan_id":"cebpf4jnsgd1na2vs0mg"},{"bike_id":"03f4218e-5cb7-4bb6-b01b-87d9fc537b0b","system_id":"levelo_inurba_marseille","lat":43.27215,"lon":5.39184,"is_reserved":false,"is_disabled":false,"rental_uris":{"android":"levelo://app?vid=03f4218e-5cb7-4bb6-b01b-87d9fc537b0b","ios":"levelo://app?vid=03f4218e-5cb7-4bb6-b01b-87d9fc537b0b"},"vehicle_type_id":"4","last_reported":1740838061,"current_range_meters":18800,"station_id":"ce4bhhp2rcd13ifvqfm0","pricing_plan_id":"cebpf4jnsgd1na2vs0mg"},{"bike_id":"ee663961-fcaf-4abe-b7a8-b95094ef8d90","system_id":"levelo_inurba_marseille","lat":43.29076,"lon":5.37169,"is_reserved":false,"is_disabled":false,"rental_uris":{"android":"levelo://app?vid=ee663961-fcaf-4abe-b7a8-b95094ef8d90","ios":"levelo://app?vid=ee663961-fcaf-4abe-b7a8-b95094ef8d90"},"vehicle_type_id":"4","last_reported":1740838061,"current_range_meters":19200,"station_id":"ce4bh5p2rcd13ifvqe4g","pricing_plan_id":"cebpf4jnsgd1na2vs0mg"},{"bike_id":"eb9f27e8-11a6-4fcf-8240-7050305fdbb6","system_id":"levelo_inurba_marseille","lat":43.29271,"lon":5.36847,"is_reserved":false,"is_disabled":false,"rental_uris":{"android":"levelo://app?vid=eb9f27e8-11a6-4fcf-8240-7050305fdbb6","ios":"levelo://app?vid=eb9f27e8-11a6-4fcf-8240-7050305fdbb6"},"vehicle_type_id":"4","last_reported":1740838061,"current_range_meters":19200,"station_id":"ce4bhbp2rcd13ifvqesg","pricing_plan_id":"cebpf4jnsgd1na2vs0mg"},{"bike_id":"91debd91-f221-4e87-8afb-07f3c74f953a","system_id":"levelo_inurba_marseille","lat":43.29624,"lon":5.40587,"is_reserved":false,"is_disabled":false,"rental_uris":{"android":"levelo://app?vid=91debd91-f221-4e87-8afb-07f3c74f953a","ios":"levelo://app?vid=91debd91-f221-4e87-8afb-07f3c74f953a"},"vehicle_type_id":"4","last_reported":1740838061,"current_range_meters":19200,"station_id":"ce4bh0h2rcd13ifvqd60","pricing_plan_id":"cebpf4jnsgd1na2vs0mg"},{"bike_id":"49dae6dc-fea0-4fb3-8e37-03ce1dbe2090","system_id":"levelo_inurba_marseille","lat":43.27226,"lon":5.3917,"is_reserved":false,"is_disabled":false,"rental_uris":{"android":"levelo://app?vid=49dae6dc-fea0-4fb3-8e37-03ce1dbe2090","ios":"levelo://app?vid=49dae6dc-fea0-4fb3-8e37-03ce1dbe2090"},"vehicle_type_id":"4","last_reported":1740838061,"current_range_meters":18800,"station_id":"ce4bhhp2rcd13ifvqfm0","pricing_plan_id":"cebpf4jnsgd1na2vs0mg"},{"bike_id":"ceca30b5-c064-42b5-a0d3-be936c413dd1","system_id":"levelo_inurba_marseille","lat":43.25008,"lon":5.38927,"is_reserved":false,"is_disabled":false,"rental_uris":{"android":"levelo://app?vid=ceca30b5-c064-42b5-a0d3-be936c413dd1","ios":"levelo://app?vid=ceca30b5-c064-42b5-a0d3-be936c413dd1"},"vehicle_type_id":"4","last_reported":1740838061,"current_range_meters":19200,"station_id":"ce4bhgp2rcd13ifvqfd0","pricing_plan_id":"cebpf4jnsgd1na2vs0mg"},{"bike_id":"ebe8b8fa-1ddd-428b-bf9e-e7b89ff05972","system_id":"levelo_inurba_marseille","lat":43.29744,"lon":5.37696,"is_reserved":false,"is_disabled":false,"rental_uris":{"android":"levelo://app?vid=ebe8b8fa-1ddd-428b-bf9e-e7b89ff05972","ios":"levelo://app?vid=ebe8b8fa-1ddd-428b-bf9e-e7b89ff05972"},"vehicle_type_id":"4","last_reported":1740838061,"current_range_meters":18800,"station_id":"ce4bgkh2rcd13ifvqbl0","pricing_plan_id":"cebpf4jnsgd1na2vs0mg"},{"bike_id":"bb03e161-a712-4dfc-8e75-21c4414e2415","system_id":"levelo_inurba_marseille","lat":43.31716,"lon":5.42396,"is_reserved":false,"is_disabled":false,"rental_uris":{"android":"levelo://app?vid=bb03e161-a712-4dfc-8e75-21c4414e2415","ios":"levelo://app?vid=bb03e161-a712-4dfc-8e75-21c4414e2415"},"vehicle_type_id":"4","last_reported":1740838061,"current_range_meters":19200,"station_id":"ce4bhp92rcd13ifvqhbg","pricing_plan_id":"cebpf4jnsgd1na2vs0mg"},{"bike_id":"69a014d1-f41c-4adb-ae21-ce5f03581acf","system_id":"levelo_inurba_marseille","lat":43.27373,"lon":5.36266,"is_reserved":false,"is_disabled":false,"rental_uris":{"android":"levelo://app?vid=69a014d1-f41c-4adb-ae21-ce5f03581acf","ios":"levelo://app?vid=69a014d1-f41c-4adb-ae21-ce5f03581acf"},"vehicle_type_id":"4","last_reported":1740838061,"current_range_meters":19200,"station_id":"ce4bhbh2rcd13ifvqeo0","pricing_plan_id":"cebpf4jnsgd1na2vs0mg"},{"bike_id":"66384d29-5a27-4fd0-8b66-cdab0890d43e","system_id":"levelo_inurba_marseille","lat":43.31327,"lon":5.39697,"is_reserved":false,"is_disabled":false,"rental_uris":{"android":"levelo://app?vid=66384d29-5a27-4fd0-8b66-cdab0890d43e","ios":"levelo://app?vid=66384d29-5a27-4fd0-8b66-cdab0890d43e"},"vehicle_type_id":"4","last_reported":1740838061,"current_range_meters":19200,"station_id":"ce4bgvp2rcd13ifvqcu0","pricing_plan_id":"cebpf4jnsgd1na2vs0mg"},{"bike_id":"606bdd66-5162-4f4c-bf53-fba710dcc40d","system_id":"levelo_inurba_marseille","lat":43.24397,"lon":5.37066,"is_reserved":false,"is_disabled":true,"rental_uris":{"android":"levelo://app?vid=606bdd66-5162-4f4c-bf53-fba710dcc40d","ios":"levelo://app?vid=606bdd66-5162-4f4c-bf53-fba710dcc40d"},"vehicle_type_id":"4","last_reported":1740838061,"current_range_meters":19600,"station_id":"ce4bhhh2rcd13ifvqfk0","pricing_plan_id":"cebpf4jnsgd1na2vs0mg"},{"bike_id":"d66b749a-0808-469e-b143-0787b08d816b","system_id":"levelo_inurba_marseille","lat":43.2622,"lon":5.37442,"is_reserved":false,"is_disabled":false,"rental_uris":{"android":"levelo://app?vid=d66b749a-0808-469e-b143-0787b08d816b","ios":"levelo://app?vid=d66b749a-0808-469e-b143-0787b08d816b"},"vehicle_type_id":"4","last_reported":1740838061,"current_range_meters":19600,"station_id":"ce4bhgp2rcd13ifvqfc0","pricing_plan_id":"cebpf4jnsgd1na2vs0mg"},{"bike_id":"02261fdd-2ea3-49fe-ad0b-4a575867edb8","system_id":"levelo_inurba_marseille","lat":43.27618,"lon":5.36113,"is_reserved":false,"is_disabled":false,"rental_uris":{"android":"levelo://app?vid=02261fdd-2ea3-49fe-ad0b-4a575867edb8","ios":"levelo://app?vid=02261fdd-2ea3-49fe-ad0b-4a575867edb8"},"vehicle_type_id":"4","last_reported":1740838061,"current_range_meters":19200,"station_id":"ce4bgj92rcd13ifvqbe0","pricing_plan_id":"cebpf4jnsgd1na2vs0mg"},{"bike_id":"ded7bde2-77a7-49c3-b746-f1cd198f56b3","system_id":"levelo_inurba_marseille","lat":43.27975,"lon":5.3875,"is_reserved":false,"is_disabled":false,"rental_uris":{"android":"levelo://app?vid=ded7bde2-77a7-49c3-b746-f1cd198f56b3","ios":"levelo://app?vid=ded7bde2-77a7-49c3-b746-f1cd198f56b3"},"vehicle_type_id":"4","last_reported":1740838061,"current_range_meters":19600,"station_id":"ce4bhg12rcd13ifvqf80","pricing_plan_id":"cebpf4jnsgd1na2vs0mg"},{"bike_id":"921d1256-91d5-46a1-8c1c-3473ac691b5d","system_id":"levelo_inurba_marseille","lat":43.29252,"lon":5.38455,"is_reserved":false,"is_disabled":false,"rental_uris":{"android":"levelo://app?vid=921d1256-91d5-46a1-8c1c-3473ac691b5d","ios":"levelo://app?vid=921d1256-91d5-46a1-8c1c-3473ac691b5d"},"vehicle_type_id":"4","last_reported":1740838061,"current_range_meters":19600,"station_id":"ce4bh692rcd13ifvqea0","pricing_plan_id":"cebpf4jnsgd1na2vs0mg"},{"bike_id":"acbe7e1b-a7d3-483d-a44b-31fa6ad7ccbc","system_id":"levelo_inurba_marseille","lat":43.22931,"lon":5.35376,"is_reserved":false,"is_disabled":false,"rental_uris":{"android":"levelo://app?vid=acbe7e1b-a7d3-483d-a44b-31fa6ad7ccbc","ios":"levelo://app?vid=acbe7e1b-a7d3-483d-a44b-31fa6ad7ccbc"},"vehicle_type_id":"4","last_reported":1740838061,"current_range_meters":19600,"station_id":"cpo3532slgdg3j2ikp40","pricing_plan_id":"cebpf4jnsgd1na2vs0mg"},{"bike_id":"35de5d9e-453d-4b6e-a49a-d72de279088a","system_id":"levelo_inurba_marseille","lat":43.26192,"lon":5.37464,"is_reserved":false,"is_disabled":false,"rental_uris":{"android":"levelo://app?vid=35de5d9e-453d-4b6e-a49a-d72de279088a","ios":"levelo://app?vid=35de5d9e-453d-4b6e-a49a-d72de279088a"},"vehicle_type_id":"4","last_reported":1740838061,"current_range_meters":20000,"station_id":"ce4bhgp2rcd13ifvqfc0","pricing_plan_id":"cebpf4jnsgd1na2vs0mg"},{"bike_id":"138e2e45-4c58-4870-bb66-374c13e6b161","system_id":"levelo_inurba_marseille","lat":43.30876,"lon":5.37577,"is_reserved":false,"is_disabled":false,"rental_uris":{"android":"levelo://app?vid=138e2e45-4c58-4870-bb66-374c13e6b161","ios":"levelo://app?vid=138e2e45-4c58-4870-bb66-374c13e6b161"},"vehicle_type_id":"4","last_reported":1740838061,"current_range_meters":20000,"station_id":"ce4bgv92rcd13ifvqcq0","pricing_plan_id":"cebpf4jnsgd1na2vs0mg"},{"bike_id":"e3e65e92-ca62-4146-ac60-29c4b8e015a0","system_id":"levelo_inurba_marseille","lat":43.28427,"lon":5.34985,"is_reserved":false,"is_disabled":false,"rental_uris":{"android":"levelo://app?vid=e3e65e92-ca62-4146-ac60-29c4b8e015a0","ios":"levelo://app?vid=e3e65e92-ca62-4146-ac60-29c4b8e015a0"},"vehicle_type_id":"4","last_reported":1740838061,"current_range_meters":20000,"station_id":"ce4bhbh2rcd13ifvqepg","pricing_plan_id":"cebpf4jnsgd1na2vs0mg"},{"bike_id":"ad3f9331-e2cd-4bf0-845a-bfb8a08a858f","system_id":"levelo_inurba_marseille","lat":43.30191,"lon":5.39775,"is_reserved":false,"is_disabled":false,"rental_uris":{"android":"levelo://app?vid=ad3f9331-e2cd-4bf0-845a-bfb8a08a858f","ios":"levelo://app?vid=ad3f9331-e2cd-4bf0-845a-bfb8a08a858f"},"vehicle_type_id":"4","last_reported":1740838061,"current_range_meters":20000,"station_id":"","pricing_plan_id":"cebpf4jnsgd1na2vs0mg"},{"bike_id":"f67f7f54-8bb8-4978-871a-dbc29c1f4ee8","system_id":"levelo_inurba_marseille","lat":43.31483,"lon":5.37309,"is_reserved":false,"is_disabled":false,"rental_uris":{"android":"levelo://app?vid=f67f7f54-8bb8-4978-871a-dbc29c1f4ee8","ios":"levelo://app?vid=f67f7f54-8bb8-4978-871a-dbc29c1f4ee8"},"vehicle_type_id":"4","last_reported":1740838061,"current_range_meters":20000,"station_id":"ce4bgt12rcd13ifvqcd0","pricing_plan_id":"cebpf4jnsgd1na2vs0mg"},{"bike_id":"219c3b0b-00a7-466e-b12d-57038ccef4f4","system_id":"levelo_inurba_marseille","lat":43.26218,"lon":5.37446,"is_reserved":false,"is_disabled":false,"rental_uris":{"android":"levelo://app?vid=219c3b0b-00a7-466e-b12d-57038ccef4f4","ios":"levelo://app?vid=219c3b0b-00a7-466e-b12d-57038ccef4f4"},"vehicle_type_id":"4","last_reported":1740838061,"current_range_meters":20000,"station_id":"ce4bhgp2rcd13ifvqfc0","pricing_plan_id":"cebpf4jnsgd1na2vs0mg"},