{"last_updated":1743668050,"ttl":60,"version":"2.2","data":{"bikes":[{"bike_id":"ec47df67-8722-4f20-be2d-639a7a452af8","system_id":"levelo_inurba_marseille","lat":43.27848,"lon":5.39203,"is_reserved":false,"is_disabled":false,"rental_uris":{"android":"levelo://app?vid=ec47df67-8722-4f20-be2d-639a7a452af8","ios":"levelo://app?vid=ec47df67-8722-4f20-be2d-639a7a452af8"},"vehicle_type_id":"4","last_reported":1743668051,"current_range_meters":2800,"station_id":"ce4bhjp2rcd13ifvqga0","pricing_plan_id":"cebpf4jnsgd1na2vs0mg"},{"bike_id":"57f792e1-6e5c-4f34-a62f-84958c24a231","system_id":"levelo_inurba_marseille","lat":43.337444,"lon":5.374475,"is_reserved":false,"is_disabled":false,"rental_uris":{"android":"levelo://app?vid=57f792e1-6e5c-4f34-a62f-84958c24a231","ios":"levelo://app?vid=57f792e1-6e5c-4f34-a62f-84958c24a231"},"vehicle_type_id":"4","last_reported":1743668051,"current_range_meters":2800,"station_id":"ce4bhkp2rcd13ifvqgd0","pricing_plan_id":"cebpf4jnsgd1na2vs0mg"},{"bike_id":"e84bef4c-cced-4cd0-b180-0053717ac75e","system_id":"levelo_inurba_marseille","lat":43.28703,"lon":5.40001,"is_reserved":false,"is_disabled":true,"rental_uris":{"android":"levelo://app?vid=e84bef4c-cced-4cd0-b180-0053717ac75e","ios":"levelo://app?vid=e84bef4c-cced-4cd0-b180-0053717ac75e"},"vehicle_type_id":"4","last_reported":1743668051,"current_range_meters":2800,"station_id":"ce4bho92rcd13ifvqh3g","pricing_plan_id":"cebpf4jnsgd1na2vs0mg"},{"bike_id":"b0ec73bf-763f-4828-bf0d-7bd36df81e73","system_id":"levelo_inurba_marseille","lat":43.2511,"lon":5.40321,"is_reserved":false,"is_disabled":false,"rental_uris":{"android":"levelo://app?vid=b0ec73bf-763f-4828-bf0d-7bd36df81e73","ios":"levelo://app?vid=b0ec73bf-763f-4828-bf0d-7bd36df81e73"},"vehicle_type_id":"4","last_reported":1743668051,"current_range_meters":2000,"station_id":"ce4bhlh2rcd13ifvqgig","pricing_plan_id":"cebpf4jnsgd1na2vs0mg"},{"bike_id":"66a6759f-f104-404f-ba35-7dd5d87e6d0b","system_id":"levelo_inurba_marseille","lat":43.30151,"lon":5.37697,"is_reserved":false,"is_disabled":false,"rental_uris":{"android":"levelo://app?vid=66a6759f-f104-404f-ba35-7dd5d87e6d0b","ios":"levelo://app?vid=66a6759f-f104-404f-ba35-7dd5d87e6d0b"},"vehicle_type_id":"4","last_reported":1743668051,"current_range_meters":2800,"station_id":"","pricing_plan_id":"cebpf4jnsgd1na2vs0mg"},{"bike_id":"7250337f-a710-425a-bfa2-6b19b250db98","system_id":"levelo_inurba_marseille","lat":43.29376,"lon":5.37856,"is_reserved":false,"is_disabled":false,"rental_uris":{"android":"levelo://app?vid=7250337f-a710-425a-bfa2-6b19b250db98","ios":"levelo://app?vid=7250337f-a710-425a-bfa2-6b19b250db98"},"vehicle_type_id":"4","last_reported":1743668051,"current_range_meters":3200,"station_id":"ce4bgjh2rcd13ifvqbf0","pricing_plan_id":"cebpf4jnsgd1na2vs0mg"},{"bike_id":"7bdf0d60-3026-4723-ac07-ebb25b9cf79f","system_id":"levelo_inurba_marseille","lat":43.28784,"lon":5.38685,"is_reserved":false,"is_disabled":false,"rental_uris":{"android":"levelo://app?vid=7bdf0d60-3026-4723-ac07-ebb25b9cf79f","ios":"levelo://app?vid=7bdf0d60-3026-4723-ac07-ebb25b9cf79f"},"vehicle_type_id":"4","last_reported":1743668051,"current_range_meters":3200,"station_id":"","pricing_plan_id":"cebpf4jnsgd1na2vs0mg"},{"bike_id":"a8581e60-8013-4dc9-ac4f-be986eb3f091","system_id":"levelo_inurba_marseille","lat":43.26202,"lon":5.37932,"is_reserved":false,"is_disabled":false,"rental_uris":{"android":"levelo://app?vid=a8581e60-8013-4dc9-ac4f-be986eb3f091","ios":"levelo://app?vid=a8581e60-8013-4dc9-ac4f-be986eb3f091"},"vehicle_type_id":"4","last_reported":1743668051,"current_range_meters":3600,"station_id":"ce4bhjp2rcd13ifvqg90","pricing_plan_id":"cebpf4jnsgd1na2vs0mg"},{"bike_id":"d7f29537-cca3-4e0f-be64-3ec5dde490a2","system_id":"levelo_inurba_marseille","lat":43.259635,"lon":5.408967,"is_reserved":false,"is_disabled":false,"rental_uris":{"android":"levelo://app?vid=d7f29537-cca3-4e0f-be64-3ec5dde490a2","ios":"levelo://app?vid=d7f29537-cca3-4e0f-be64-3ec5dde490a2"},"vehicle_type_id":"4","last_reported":1743668051,"current_range_meters":3600,"station_id":"","pricing_plan_id":"cebpf4jnsgd1na2vs0mg"},{"bike_id":"3f6bdf5c-d5cd-4933-95b2-3af91be8e28a","system_id":"levelo_inurba_marseille","lat":43.298431,"lon":5.362869,"is_reserved":false,"is_disabled":false,"rental_uris":{"android":"levelo://app?vid=3f6bdf5c-d5cd-4933-95b2-3af91be8e28a","ios":"levelo://app?vid=3f6bdf5c-d5cd-4933-95b2-3af91be8e28a"},"vehicle_type_id":"4","last_reported":1743668051,"current_range_meters":3600,"station_id":"ce4bgpp2rcd13ifvqc3g","pricing_plan_id":"cebpf4jnsgd1na2vs0mg"},{"bike_id":"c4c1fc96-eb5b-4e06-ac71-cb5fd61eb4e6","system_id":"levelo_inurba_marseille","lat":43.3043,"lon":5.38885,"is_reserved":false,"is_disabled":false,"rental_uris":{"android":"levelo://app?vid=c4c1fc96-eb5b-4e06-ac71-cb5fd61eb4e6","ios":"levelo://app?vid=c4c1fc96-eb5b-4e06-ac71-cb5fd61eb4e6"},"vehicle_type_id":"4","last_reported":1743668051,"current_range_meters":4000,"station_id":"ce4bgk12rcd13ifvqbi0","pricing_plan_id":"cebpf4jnsgd1na2vs0mg"},{"bike_id":"69308f1e-8bda-4393-ae6a-91f89142be75","system_id":"levelo_inurba_marseille","lat":43.29229,"lon":5.36073,"is_reserved":false,"is_disabled":false,"rental_uris":{"android":"levelo://app?vid=69308f1e-8bda-4393-ae6a-91f89142be75","ios":"levelo://app?vid=69308f1e-8bda-4393-ae6a-91f89142be75"},"vehicle_type_id":"4","last_reported":1743668051,"current_range_meters":4000,"station_id":"ce4bhbh2rcd13ifvqeqg","pricing_plan_id":"cebpf4jnsgd1na2vs0mg"},{"bike_id":"b1cd6b0d-96c2-4b5c-93c0-dc626e7f29fb","system_id":"levelo_inurba_marseille","lat":43.31178,"lon":5.36842,"is_reserved":false,"is_disabled":false,"rental_uris":{"android":"levelo://app?vid=b1cd6b0d-96c2-4b5c-93c0-dc626e7f29fb","ios":"levelo://app?vid=b1cd6b0d-96c2-4b5c-93c0-dc626e7f29fb"},"vehicle_type_id":"4","last_reported":1743668051,"current_range_meters":4000,"station_id":"ce4bgl92rcd13ifvqbq0","pricing_plan_id":"cebpf4jnsgd1na2vs0mg"},{"bike_id":"85f65ab3-626d-42de-9264-89f87854dd34","system_id":"levelo_inurba_marseille","lat":43.2668,"lon":5.38272,"is_reserved":false,"is_disabled":false,"rental_uris":{"android":"levelo://app?vid=85f65ab3-626d-42de-9264-89f87854dd34","ios":"levelo://app?vid=85f65ab3-626d-42de-9264-89f87854dd34"},"vehicle_type_id":"4","last_reported":1743668051,"current_range_meters":4000,"station_id":"ce4bhg92rcd13ifvqf90","pricing_plan_id":"cebpf4jnsgd1na2vs0mg"},{"bike_id":"ef3530d4-ee6e-4623-ad50-6692eef4d500","system_id":"levelo_inurba_marseille","lat":43.30549,"lon":5.36706,"is_reserved":false,"is_disabled":false,"rental_uris":{"android":"levelo://app?vid=ef3530d4-ee6e-4623-ad50-6692eef4d500","ios":"levelo://app?vid=ef3530d4-ee6e-4623-ad50-6692eef4d500"},"vehicle_type_id":"4","last_reported":1743668051,"current_range_meters":4000,"station_id":"ce4bgrp2rcd13ifvqc9g","pricing_plan_id":"cebpf4jnsgd1na2vs0mg"},{"bike_id":"f06067fe-c409-49ce-b995-b28658dd37fb","system_id":"levelo_inurba_marseille","lat":43.28669,"lon":5.37372,"is_reserved":false,"is_disabled":true,"rental_uris":{"android":"levelo://app?vid=f06067fe-c409-49ce-b995-b28658dd37fb","ios":"levelo://app?vid=f06067fe-c409-49ce-b995-b28658dd37fb"},"vehicle_type_id":"4","last_reported":1743668051,"current_range_meters":4400,"station_id":"ce4bh3p2rcd13ifvqdq0","pricing_plan_id":"cebpf4jnsgd1na2vs0mg"},{"bike_id":"121b2536-df10-4977-ac74-b0979977fe60","system_id":"levelo_inurba_marseille","lat":43.29963,"lon":5.38685,"is_reserved":false,"is_disabled":false,"rental_uris":{"android":"levelo://app?vid=121b2536-df10-4977-ac74-b0979977fe60","ios":"levelo://app?vid=121b2536-df10-4977-ac74-b0979977fe60"},"vehicle_type_id":"4","last_reported":1743668051,"current_range_meters":4400,"station_id":"","pricing_plan_id":"cebpf4jnsgd1na2vs0mg"},{"bike_id":"ff42135b-10ff-470e-83ab-bdd8bc43bd8e","system_id":"levelo_inurba_marseille","lat":43.24069,"lon":5.37765,"is_reserved":false,"is_disabled":false,"rental_uris":{"android":"levelo://app?vid=ff42135b-10ff-470e-83ab-bdd8bc43bd8e","ios":"levelo://app?vid=ff42135b-10ff-470e-83ab-bdd8bc43bd8e"},"vehicle_type_id":"4","last_reported":1743668051,"current_range_meters":4400,"station_id":"ce4bhnp2rcd13ifvqgvg","pricing_plan_id":"cebpf4jnsgd1na2vs0mg"},{"bike_id":"35681392-b9de-4fb0-ac6c-43a3198c7454","system_id":"levelo_inurba_marseille","lat":43.292104,"lon":5.394571,"is_reserved":false,"is_disabled":false,"rental_uris":{"android":"levelo://app?vid=35681392-b9de-4fb0-ac6c-43a3198c7454","ios":"levelo://app?vid=35681392-b9de-4fb0-ac6c-43a3198c7454"},"vehicle_type_id":"4","last_reported":1743668051,"current_range_meters":4800,"station_id":"ce4bh192rcd13ifvqdd0","pricing_plan_id":"cebpf4jnsgd1na2vs0mg"},{"bike_id":"433b5761-4135-42fd-a41d-bd452b283399","system_id":"levelo_inurba_marseille","lat":43.30463,"lon":5.37911,"is_reserved":false,"is_disabled":false,"rental_uris":{"android":"levelo://app?vid=433b5761-4135-42fd-a41d-bd452b283399","ios":"levelo://app?vid=433b5761-4135-42fd-a41d-bd452b283399"},"vehicle_type_id":"4","last_reported":1743668051,"current_range_meters":4800,"station_id":"ce4bgup2rcd13ifvqcn0","pricing_plan_id":"cebpf4jnsgd1na2vs0mg"},{"bike_id":"fb2494d6-6b35-4d7b-9c0b-76866a717398","system_id":"levelo_inurba_marseille","lat":43.29958,"lon":5.41314,"is_reserved":false,"is_disabled":false,"rental_uris":{"android":"levelo://app?vid=fb2494d6-6b35-4d7b-9c0b-76866a717398","ios":"levelo://app?vid=fb2494d6-6b35-4d7b-9c0b-76866a717398"},"vehicle_type_id":"4","last_reported":1743668051,"current_range_meters":4800,"station_id":"ce4bhp12rcd13ifvqh9g","pricing_plan_id":"cebpf4jnsgd1na2vs0mg"},{"bike_id":"48302313-0890-44fb-97d4-f7f3b5d44fd5","system_id":"levelo_inurba_marseille","lat":43.33146,"lon":5.40006,"is_reserved":false,"is_disabled":false,"rental_uris":{"android":"levelo://app?vid=48302313-0890-44fb-97d4-f7f3b5d44fd5","ios":"levelo://app?vid=48302313-0890-44fb-97d4-f7f3b5d44fd5"},"vehicle_type_id":"4","last_reported":1743668051,"current_range_meters":4800,"station_id":"","pricing_plan_id":"cebpf4jnsgd1na2vs0mg"},{"bike_id":"dd13711c-5545-493c-91fb-9919c24b2bdb","system_id":"levelo_inurba_marseille","lat":43.29924,"lon":5.36545,"is_reserved":false,"is_disabled":false,"rental_uris":{"android":"levelo://app?vid=dd13711c-5545-493c-91fb-9919c24b2bdb","ios":"levelo://app?vid=dd13711c-5545-493c-91fb-9919c24b2bdb"},"vehicle_type_id":"4","last_reported":1743668051,"current_range_meters":4800,"station_id":"ce4bgm92rcd13ifvqbr0","pricing_plan_id":"cebpf4jnsgd1na2vs0mg"},{"bike_id":"1331c791-6775-4642-afd5-40465ecccfa5","system_id":"levelo_inurba_marseille","lat":43.2408,"lon":5.37751,"is_reserved":false,"is_disabled":false,"rental_uris":{"android":"levelo://app?vid=1331c791-6775-4642-afd5-40465ecccfa5","ios":"levelo://app?vid=1331c791-6775-4642-afd5-40465ecccfa5"},"vehicle_type_id":"4","last_reported":1743668051,"current_range_meters":4800,"station_id":"ce4bhnp2rcd13ifvqgvg","pricing_plan_id":"cebpf4jnsgd1na2vs0mg"},{"bike_id":"026cd8d6-432d-4bbe-b9e9-9ede46821b3e","system_id":"levelo_inurba_marseille","lat":43.26958,"lon":5.38632,"is_reserved":false,"is_disabled":false,"rental_uris":{"android":"levelo://app?vid=026cd8d6-432d-4bbe-b9e9-9ede46821b3e","ios":"levelo://app?vid=026cd8d6-432d-4bbe-b9e9-9ede46821b3e"},"vehicle_type_id":"4","last_reported":1743668051,"current_range_meters":5600,"station_id":"ce4bhh92rcd13ifvqfh0","pricing_plan_id":"cebpf4jnsgd1na2vs0mg"},{"bike_id":"3e5329f3-c0cd-422c-afb1-2f46242590da","system_id":"levelo_inurba_marseille","lat":43.3192,"lon":5.37552,"is_reserved":false,"is_disabled":false,"rental_uris":{"android":"levelo://app?vid=3e5329f3-c0cd-422c-afb1-2f46242590da","ios":"levelo://app?vid=3e5329f3-c0cd-422c-afb1-2f46242590da"},"vehicle_type_id":"4","last_reported":1743668051,"current_range_meters":5600,"station_id":"","pricing_plan_id":"cebpf4jnsgd1na2vs0mg"},{"bike_id":"74d1691c-2cdd-4bb3-8881-51256d3d78c7","system_id":"levelo_inurba_marseille","lat":43.25922,"lon":5.40901,"is_reserved":false,"is_disabled":false,"rental_uris":{"android":"levelo://app?vid=74d1691c-2cdd-4bb3-8881-51256d3d78c7","ios":"levelo://app?vid=74d1691c-2cdd-4bb3-8881-51256d3d78c7"},"vehicle_type_id":"4","last_reported":1743668051,"current_range_meters":6000,"station_id":"ce4bhm92rcd13ifvqglg","pricing_plan_id":"cebpf4jnsgd1na2vs0mg"},{"bike_id":"39c94d58-86dd-4c73-88fa-10ad22a1d6b2","system_id":"levelo_inurba_marseille","lat":43.23151,"lon":5.43719,"is_reserved":false,"is_disabled":false,"rental_uris":{"android":"levelo://app?vid=39c94d58-86dd-4c73-88fa-10ad22a1d6b2","ios":"levelo://app?vid=39c94d58-86dd-4c73-88fa-10ad22a1d6b2"},"vehicle_type_id":"4","last_reported":1743668051,"current_range_meters":6400,"station_id":"ce4bhmp2rcd13ifvqgog","pricing_plan_id":"cebpf4jnsgd1na2vs0mg"},{"bike_id":"e53f9db2-d75c-4594-8157-2926a2062b6f","system_id":"levelo_inurba_marseille","lat":43.28445,"lon":5.39201,"is_reserved":false,"is_disabled":true,"rental_uris":{"android":"levelo://app?vid=e53f9db2-d75c-4594-8157-2926a2062b6f","ios":"levelo://app?vid=e53f9db2-d75c-4594-8157-2926a2062b6f"},"vehicle_type_id":"4","last_reported":1743668051,"current_range_meters":6000,"station_id":"ce4bhoh2rcd13ifvqh5g","pricing_plan_id":"cebpf4jnsgd1na2vs0mg"},{"bike_id":"859c0f11-b607-4cc7-93bc-4d276989e4f9","system_id":"levelo_inurba_marseille","lat":43.30529,"lon":5.36703,"is_reserved":false,"is_disabled":false,"rental_uris":{"android":"levelo://app?vid=859c0f11-b607-4cc7-93bc-4d276989e4f9","ios":"levelo://app?vid=859c0f11-b607-4cc7-93bc-4d276989e4f9"},"vehicle_type_id":"4","last_reported":1743668051,"current_range_meters":6000,"station_id":"ce4bgrp2rcd13ifvqc9g","pricing_plan_id":"cebpf4jnsgd1na2vs0mg"},{"bike_id":"4f1c00e5-a79d-4f0b-ab4e-3bd2b06e7d2e","system_id":"levelo_inurba_marseille","lat":43.23082,"lon":5.35507,"is_reserved":false,"is_disabled":false,"rental_uris":{"android":"levelo://app?vid=4f1c00e5-a79d-4f0b-ab4e-3bd2b06e7d2e","ios":"levelo://app?vid=4f1c00e5-a79d-4f0b-ab4e-3bd2b06e7d2e"},"vehicle_type_id":"4","last_reported":1743668051,"current_range_meters":6000,"station_id":"cpo3342slgdg3j2ifvpg","pricing_plan_id":"cebpf4jnsgd1na2vs0mg"},{"bike_id":"ecb9c604-b40d-4b39-a208-fb345ac1b3b2","system_id":"levelo_inurba_marseille","lat":43.29193,"lon":5.35811,"is_reserved":false,"is_disabled":false,"rental_uris":{"android":"levelo://app?vid=ecb9c604-b40d-4b39-a208-fb345ac1b3b2","ios":"levelo://app?vid=ecb9c604-b40d-4b39-a208-fb345ac1b3b2"},"vehicle_type_id":"4","last_reported":1743668051,"current_range_meters":5600,"station_id":"ce4bhb12rcd13ifvqel0","pricing_plan_id":"cebpf4jnsgd1na2vs0mg"},{"bike_id":"8842ad56-873e-449e-ab6f-c209bdf7aac5","system_id":"levelo_inurba_marseille","lat":43.28351,"lon":5.38103,"is_reserved":false,"is_disabled":false,"rental_uris":{"android":"levelo://app?vid=8842ad56-873e-449e-ab6f-c209bdf7aac5","ios":"levelo://app?vid=8842ad56-873e-449e-ab6f-c209bdf7aac5"},"vehicle_type_id":"4","last_reported":1743668051,"current_range_meters":6000,"station_id":"ce4bh412rcd13ifvqdr0","pricing_plan_id":"cebpf4jnsgd1na2vs0mg"},{"bike_id":"4fe354ae-9c8a-416e-ba3f-0f045fbbf6a2","system_id":"levelo_inurba_marseille","lat":43.2408,"lon":5.37755,"is_reserved":false,"is_disabled":false,"rental_uris":{"android":"levelo://app?vid=4fe354ae-9c8a-416e-ba3f-0f045fbbf6a2","ios":"levelo://app?vid=4fe354ae-9c8a-416e-ba3f-0f045fbbf6a2"},"vehicle_type_id":"4","last_reported":1743668051,"current_range_meters":6000,"station_id":"ce4bhnp2rcd13ifvqgvg","pricing_plan_id":"cebpf4jnsgd1na2vs0mg"},{"bike_id":"1c7ea303-0f0b-477c-a6b0-56cc00a9de10","system_id":"levelo_inurba_marseille","lat":43.32357,"lon":5.38897,"is_reserved":false,"is_disabled":false,"rental_uris":{"android":"levelo://app?vid=1c7ea303-0f0b-477c-a6b0-56cc00a9de10","ios":"levelo://app?vid=1c7ea303-0f0b-477c-a6b0-56cc00a9de10"},"vehicle_type_id":"4","last_reported":1743668051,"current_range_meters":6000,"station_id":"ce4bhqp2rcd13ifvqhog","pricing_plan_id":"cebpf4jnsgd1na2vs0mg"},{"bike_id":"a6c8e16e-e459-49ce-ae3e-99dcfde51ee9","system_id":"levelo_inurba_marseille","lat":43.26585,"lon":5.39009,"is_reserved":false,"is_disabled":false,"rental_uris":{"android":"levelo://app?vid=a6c8e16e-e459-49ce-ae3e-99dcfde51ee9","ios":"levelo://app?vid=a6c8e16e-e459-49ce-ae3e-99dcfde51ee9"},"vehicle_type_id":"4","last_reported":1743668051,"current_range_meters":6000,"station_id":"ce4bhe12rcd13ifvqf30","pricing_plan_id":"cebpf4jnsgd1na2vs0mg"},{"bike_id":"998e8c9f-8aa4-469d-b753-37f3143df91a","system_id":"levelo_inurba_marseille","lat":43.325,"lon":5.36546,"is_reserved":false,"is_disabled":false,"rental_uris":{"android":"levelo://app?vid=998e8c9f-8aa4-469d-b753-37f3143df91a","ios":"levelo://app?vid=998e8c9f-8aa4-469d-b753-37f3143df91a"},"vehicle_type_id":"4","last_reported":1743668051,"current_range_meters":6400,"station_id":"ce4bhs12rcd13ifvqhvg","pricing_plan_id":"cebpf4jnsgd1na2vs0mg"},{"bike_id":"f55695a6-b65f-4a30-99ab-94b2bfa63268","system_id":"levelo_inurba_marseille","lat":43.23208,"lon":5.35567,"is_reserved":false,"is_disabled":false,"rental_uris":{"android":"levelo://app?vid=f55695a6-b65f-4a30-99ab-94b2bfa63268","ios":"levelo://app?vid=f55695a6-b65f-4a30-99ab-94b2bfa63268"},"vehicle_type_id":"4","last_reported":1743668051,"current_range_meters":6400,"station_id":"ce4bhu92rcd13ifvqi70","pricing_plan_id":"cebpf4jnsgd1na2vs0mg"},{"bike_id":"a7d11798-7eaf-4f99-80ac-c9438018c0f0","system_id":"levelo_inurba_marseille","lat":43.24067,"lon":5.37732,"is_reserved":false,"is_disabled":false,"rental_uris":{"android":"levelo://app?vid=a7d11798-7eaf-4f99-80ac-c9438018c0f0","ios":"levelo://app?vid=a7d11798-7eaf-4f99-80ac-c9438018c0f0"},"vehicle_type_id":"4","last_reported":1743668051,"current_range_meters":6400,"station_id":"ce4bhnp2rcd13ifvqgvg","pricing_plan_id":"cebpf4jnsgd1na2vs0mg"},{"bike_id":"2cf61775-cb21-4b86-a7af-7925ef8f8bd8","system_id":"levelo_inurba_marseille","lat":43.22925,"lon":5.35427,"is_reserved":false,"is_disabled":false,"rental_uris":{"android":"levelo://app?vid=2cf61775-cb21-4b86-a7af-7925ef8f8bd8","ios":"levelo://app?vid=2cf61775-cb21-4b86-a7af-7925ef8f8bd8"},"vehicle_type_id":"4","last_reported":1743668051,"current_range_meters":6400,"station_id":"cpo3532slgdg3j2ikp40","pricing_plan_id":"cebpf4jnsgd1na2vs0mg"},{"bike_id":"d3345442-2654-4ddc-b869-fce22decea38","system_id":"levelo_inurba_marseille","lat":43.23052,"lon":5.355,"is_reserved":false,"is_disabled":false,"rental_uris":{"android":"levelo://app?vid=d3345442-2654-4ddc-b869-fce22decea38","ios":"levelo://app?vid=d3345442-2654-4ddc-b869-fce22decea38"},"vehicle_type_id":"4","last_reported":1743668051,"current_range_meters":6400,"station_id":"cpo3342slgdg3j2ifvpg","pricing_plan_id":"cebpf4jnsgd1na2vs0mg"},{"bike_id":"282c8a95-c2b2-418d-b472-df38a1525c51","system_id":"levelo_inurba_marseille","lat":43.26581,"lon":5.39014,"is_reserved":false,"is_disabled":false,"rental_uris":{"android":"levelo://app?vid=282c8a95-c2b2-418d-b472-df38a1525c51","ios":"levelo://app?vid=282c8a95-c2b2-418d-b472-df38a1525c51"},"vehicle_type_id":"4","last_reported":1743668051,"current_range_meters":6800,"station_id":"ce4bhe12rcd13ifvqf30","pricing_plan_id":"cebpf4jnsgd1na2vs0mg"},{"bike_id":"eb1723e2-7d01-4cf0-ad22-71299ca2c61c","system_id":"levelo_inurba_marseille","lat":43.29307,"lon":5.37172,"is_reserved":false,"is_disabled":true,"rental_uris":{"android":"levelo://app?vid=eb1723e2-7d01-4cf0-ad22-71299ca2c61c","ios":"levelo://app?vid=eb1723e2-7d01-4cf0-ad22-71299ca2c61c"},"vehicle_type_id":"4","last_reported":1743668051,"current_range_meters":6800,"station_id":"ce4bgh92rcd13ifvqb40","pricing_plan_id":"cebpf4jnsgd1na2vs0mg"},{"bike_id":"b80ee275-2592-4659-b2e9-175feb839700","system_id":"levelo_inurba_marseille","lat":43.23202,"lon":5.35548,"is_reserved":false,"is_disabled":false,"rental_uris":{"android":"levelo://app?vid=b80ee275-2592-4659-b2e9-175feb839700","ios":"levelo://app?vid=b80ee275-2592-4659-b2e9-175feb839700"},"vehicle_type_id":"4","last_reported":1743668051,"current_range_meters":6800,"station_id":"ce4bhu92rcd13ifvqi70","pricing_plan_id":"cebpf4jnsgd1na2vs0mg"},{"bike_id":"d157a8ac-f1ea-480a-a1ee-9ac00962bb01","system_id":"levelo_inurba_marseille","lat":43.29556,"lon":5.42287,"is_reserved":false,"is_disabled":false,"rental_uris":{"android":"levelo://app?vid=d157a8ac-f1ea-480a-a1ee-9ac00962bb01","ios":"levelo://app?vid=d157a8ac-f1ea-480a-a1ee-9ac00962bb01"},"vehicle_type_id":"4","last_reported":1743668051,"current_range_meters":6800,"station_id":"ce4bhph2rcd13ifvqhdg","pricing_plan_id":"cebpf4jnsgd1na2vs0mg"},{"bike_id":"d1c0b0aa-686c-46ac-a54e-c913c9582ae4","system_id":"levelo_inurba_marseille","lat":43.27321,"lon":5.39145,"is_reserved":false,"is_disabled":false,"rental_uris":{"android":"levelo://app?vid=d1c0b0aa-686c-46ac-a54e-c913c9582ae4","ios":"levelo://app?vid=d1c0b0aa-686c-46ac-a54e-c913c9582ae4"},"vehicle_type_id":"4","last_reported":1743668051,"current_range_meters":6800,"station_id":"","pricing_plan_id":"cebpf4jnsgd1na2vs0mg"},{"bike_id":"7bc507c4-187b-4cb2-a5ef-07322f924baf","system_id":"levelo_inurba_marseille","lat":43.22935,"lon":5.35391,"is_reserved":false,"is_disabled":false,"rental_uris":{"android":"levelo://app?vid=7bc507c4-187b-4cb2-a5ef-07322f924baf","ios":"levelo://app?vid=7bc507c4-187b-4cb2-a5ef-07322f924baf"},"vehicle_type_id":"4","last_reported":1743668051,"current_range_meters":6800,"station_id":"cpo3532slgdg3j2ikp40","pricing_plan_id":"cebpf4jnsgd1na2vs0mg"},{"bike_id":"54fe4193-4a71-4120-926d-2460e18bf146","system_id":"levelo_inurba_marseille","lat":43.27486,"lon":5.42452,"is_reserved":false,"is_disabled":false,"rental_uris":{"android":"levelo://app?vid=54fe4193-4a71-4120-926d-2460e18bf146","ios":"levelo://app?vid=54fe4193-4a71-4120-926d-2460e18bf146"},"vehicle_type_id":"4","last_reported":1743668051,"current_range_meters":6800,"station_id":"ce4bhn92rcd13ifvqgrg","pricing_plan_id":"cebpf4jnsgd1na2vs0mg"},{"bike_id":"8d5b971e-28a3-40d2-975a-686cbf6dfadd","system_id":"levelo_inurba_marseille","lat":43.29558,"lon":5.42291,"is_reserved":false,"is_disabled":false,"rental_uris":{"android":"levelo://app?vid=8d5b971e-28a3-40d2-975a-686cbf6dfadd","ios":"levelo://app?vid=8d5b971e-28a3-40d2-975a-686cbf6dfadd"},"vehicle_type_id":"4","last_reported":1743668051,"current_range_meters":6800,"station_id":"ce4bhph2rcd13ifvqhdg","pricing_plan_id":"cebpf4jnsgd1na2vs0mg"},{"bike_id":"05f613f6-c91e-4b85-9f58-7470d57bd4fe","system_id":"levelo_inurba_marseille","lat":43.31501,"lon":5.37298,"is_reserved":false,"is_disabled":true,"rental_uris":{"android":"levelo://app?vid=05f613f6-c91e-4b85-9f58-7470d57bd4fe","ios":"levelo://app?vid=05f613f6-c91e-4b85-9f58-7470d57bd4fe"},"vehicle_type_id":"4","last_reported":1743668051,"current_range_meters":6800,"station_id":"ce4bgt12rcd13ifvqcd0","pricing_plan_id":"cebpf4jnsgd1na2vs0mg"},{"bike_id":"9fd868ca-6ca2-4756-bac9-da1743cb8424","system_id":"levelo_inurba_marseille","lat":43.30917,"lon":5.36856,"is_reserved":false,"is_disabled":false,"rental_uris":{"android":"levelo://app?vid=9fd868ca-6ca2-4756-bac9-da1743cb8424","ios":"levelo://app?vid=9fd868ca-6ca2-4756-bac9-da1743cb8424"},"vehicle_type_id":"4","last_reported":1743668051,"current_range_meters":6800,"station_id":"ce4bgn92rcd13ifvqbvg","pricing_plan_id":"cebpf4jnsgd1na2vs0mg"},{"bike_id":"2886d5c9-f04a-47b9-beaf-ab9f496505b1","system_id":"levelo_inurba_marseille","lat":43.24071,"lon":5.37761,"is_reserved":false,"is_disabled":false,"rental_uris":{"android":"levelo://app?vid=2886d5c9-f04a-47b9-beaf-ab9f496505b1","ios":"levelo://app?vid=2886d5c9-f04a-47b9-beaf-ab9f496505b1"},"vehicle_type_id":"4","last_reported":1743668051,"current_range_meters":6800,"station_id":"ce4bhnp2rcd13ifvqgvg","pricing_plan_id":"cebpf4jnsgd1na2vs0mg"},{"bike_id":"8f3e1b2f-5b30-4481-b392-2bb03a617956","system_id":"levelo_inurba_marseille","lat":43.28606,"lon":5.37068,"is_reserved":false,"is_disabled":false,"rental_uris":{"android":"levelo://app?vid=8f3e1b2f-5b30-4481-b392-2bb03a617956","ios":"levelo://app?vid=8f3e1b2f-5b30-4481-b392-2bb03a617956"},"vehicle_type_id":"4","last_reported":1743668051,"current_range_meters":7200,"station_id":"ce4bht12rcd13ifvqi60","pricing_plan_id":"cebpf4jnsgd1na2vs0mg"},{"bike_id":"1e56f8b0-0569-43fd-956b-7c3d45c8ba02","system_id":"levelo_inurba_marseille","lat":43.29331,"lon":5.4116,"is_reserved":false,"is_disabled":false,"rental_uris":{"android":"levelo://app?vid=1e56f8b0-0569-43fd-956b-7c3d45c8ba02","ios":"levelo://app?vid=1e56f8b0-0569-43fd-956b-7c3d45c8ba02"},"vehicle_type_id":"4","last_reported":1743668051,"current_range_meters":7200,"station_id":"","pricing_plan_id":"cebpf4jnsgd1na2vs0mg"},{"bike_id":"fe147b08-794f-4cc8-a62c-e589ca5791a1","system_id":"levelo_inurba_marseille","lat":43.25917,"lon":5.40925,"is_reserved":false,"is_disabled":false,"rental_uris":{"android":"levelo://app?vid=fe147b08-794f-4cc8-a62c-e589ca5791a1","ios":"levelo://app?vid=fe147b08-794f-4cc8-a62c-e589ca5791a1"},"vehicle_type_id":"4","last_reported":1743668051,"current_range_meters":7200,"station_id":"ce4bhm92rcd13ifvqglg","pricing_plan_id":"cebpf4jnsgd1na2vs0mg"},{"bike_id":"d53777c8-71ae-4227-ab5d-b5d248512007","system_id":"levelo_inurba_marseille","lat":43.23152,"lon":5.43717,"is_reserved":false,"is_disabled":false,"rental_uris":{"android":"levelo://app?vid=d53777c8-71ae-4227-ab5d-b5d248512007","ios":"levelo://app?vid=d53777c8-71ae-4227-ab5d-b5d248512007"},"vehicle_type_id":"4","last_reported":1743668051,"current_range_meters":7200,"station_id":"ce4bhmp2rcd13ifvqgog","pricing_plan_id":"cebpf4jnsgd1na2vs0mg"},{"bike_id":"d9e91dec-31d9-4aaa-83c2-1e7b57c17579","system_id":"levelo_inurba_marseille","lat":43.30459,"lon":5.37921,"is_reserved":false,"is_disabled":false,"rental_uris":{"android":"levelo://app?vid=d9e91dec-31d9-4aaa-83c2-1e7b57c17579","ios":"levelo://app?vid=d9e91dec-31d9-4aaa-83c2-1e7b57c17579"},"vehicle_type_id":"4","last_reported":1743668051,"current_range_meters":7200,"station_id":"ce4bgup2rcd13ifvqcn0","pricing_plan_id":"cebpf4jnsgd1na2vs0mg"},{"bike_id":"634397d6-3e53-45ab-b5ae-102ac30306ca","system_id":"levelo_inurba_marseille","lat":43.25929,"lon":5.4091,"is_reserved":false,"is_disabled":false,"rental_uris":{"android":"levelo://app?vid=634397d6-3e53-45ab-b5ae-102ac30306ca","ios":"levelo://app?vid=634397d6-3e53-45ab-b5ae-102ac30306ca"},"vehicle_type_id":"4","last_reported":1743668051,"current_range_meters":7200,"station_id":"ce4bhm92rcd13ifvqglg","pricing_plan_id":"cebpf4jnsgd1na2vs0mg"},{"bike_id":"04556df8-715f-45d8-b288-9c8fd51282f9","system_id":"levelo_inurba_marseille","lat":43.23185,"lon":5.35572,"is_reserved":false,"is_disabled":false,"rental_uris":{"android":"levelo://app?vid=04556df8-715f-45d8-b288-9c8fd51282f9","ios":"levelo://app?vid=04556df8-715f-45d8-b288-9c8fd51282f9"},"vehicle_type_id":"4","last_reported":1743668051,"current_range_meters":8000,"station_id":"ce4bhu92rcd13ifvqi70","pricing_plan_id":"cebpf4jnsgd1na2vs0mg"},{"bike_id":"988a4b2a-1fca-4561-9342-57ad8b6adb1c","system_id":"levelo_inurba_marseille","lat":43.22949,"lon":5.35336,"is_reserved":false,"is_disabled":false,"rental_uris":{"android":"levelo://app?vid=988a4b2a-1fca-4561-9342-57ad8b6adb1c","ios":"levelo://app?vid=988a4b2a-1fca-4561-9342-57ad8b6adb1c"},"vehicle_type_id":"4","last_reported":1743668051,"current_range_meters":8000,"station_id":"cpo3532slgdg3j2ikp40","pricing_plan_id":"cebpf4jnsgd1na2vs0mg"},{"bike_id":"3b948fbe-ea54-4e7f-8a80-214f816bc66c","system_id":"levelo_inurba_marseille","lat":43.24164,"lon":5.3973,"is_reserved":false,"is_disabled":false,"rental_uris":{"android":"levelo://app?vid=3b948fbe-ea54-4e7f-8a80-214f816bc66c","ios":"levelo://app?vid=3b948fbe-ea54-4e7f-8a80-214f816bc66c"},"vehicle_type_id":"4","last_reported":1743668051,"current_range_meters":8000,"station_id":"ce4bhn12rcd13ifvqgpg","pricing_plan_id":"cebpf4jnsgd1na2vs0mg"},{"bike_id":"f87e996c-206a-47d9-8697-84a2d463fdc3","system_id":"levelo_inurba_marseille","lat":43.23193,"lon":5.35561,"is_reserved":false,"is_disabled":false,"rental_uris":{"android":"levelo://app?vid=f87e996c-206a-47d9-8697-84a2d463fdc3","ios":"levelo://app?vid=f87e996c-206a-47d9-8697-84a2d463fdc3"},"vehicle_type_id":"4","last_reported":1743668051,"current_range_meters":8000,"station_id":"ce4bhu92rcd13ifvqi70","pricing_plan_id":"cebpf4jnsgd1na2vs0mg"},{"bike_id":"02d5e8b2-387a-403a-bd4b-bd16b7846cf0","system_id":"levelo_inurba_marseille","lat":43.24166,"lon":5.39714,"is_reserved":false,"is_disabled":false,"rental_uris":{"android":"levelo://app?vid=02d5e8b2-387a-403a-bd4b-bd16b7846cf0","ios":"levelo://app?vid=02d5e8b2-387a-403a-bd4b-bd16b7846cf0"},"vehicle_type_id":"4","last_reported":1743668051,"current_range_meters":8000,"station_id":"ce4bhn12rcd13ifvqgpg","pricing_plan_id":"cebpf4jnsgd1na2vs0mg"},{"bike_id":"3945780b-3464-4b52-8543-cf05282ae10d","system_id":"levelo_inurba_marseille","lat":43.31197,"lon":5.36872,"is_reserved":false,"is_disabled":false,"rental_uris":{"android":"levelo://app?vid=3945780b-3464-4b52-8543-cf05282ae10d","ios":"levelo://app?vid=3945780b-3464-4b52-8543-cf05282ae10d"},"vehicle_type_id":"4","last_reported":1743668051,"current_range_meters":8000,"station_id":"ce4bgl92rcd13ifvqbq0","pricing_plan_id":"cebpf4jnsgd1na2vs0mg"},{"bike_id":"51a10d1a-396c-4ab6-b2b3-5c615c8f4247","system_id":"levelo_inurba_marseille","lat":43.29924,"lon":5.36522,"is_reserved":false,"is_disabled":false,"rental_uris":{"android":"levelo://app?vid=51a10d1a-396c-4ab6-b2b3-5c615c8f4247","ios":"levelo://app?vid=51a10d1a-396c-4ab6-b2b3-5c615c8f4247"},"vehicle_type_id":"4","last_reported":1743668051,"current_range_meters":8000,"station_id":"ce4bgm92rcd13ifvqbr0","pricing_plan_id":"cebpf4jnsgd1na2vs0mg"},{"bike_id":"a112ce08-6f4e-41f2-873e-94895f2e1506","system_id":"levelo_inurba_marseille","lat":43.27669,"lon":5.38914,"is_reserved":false,"is_disabled":true,"rental_uris":{"android":"levelo://app?vid=a112ce08-6f4e-41f2-873e-94895f2e1506","ios":"levelo://app?vid=a112ce08-6f4e-41f2-873e-94895f2e1506"},"vehicle_type_id":"4","last_reported":1743668051,"current_range_meters":8000,"station_id":"ce4bhi12rcd13ifvqfo0","pricing_plan_id":"cebpf4jnsgd1na2vs0mg"},{"bike_id":"c13962cb-474e-4e8e-b6f2-e3bb01716342","system_id":"levelo_inurba_marseille","lat":43.30508,"lon":5.36534,"is_reserved":false,"is_disabled":false,"rental_uris":{"android":"levelo://app?vid=c13962cb-474e-4e8e-b6f2-e3bb01716342","ios":"levelo://app?vid=c13962cb-474e-4e8e-b6f2-e3bb01716342"},"vehicle_type_id":"4","last_reported":1743668051,"current_range_meters":8000,"station_id":"ce4bgs12rcd13ifvqcag","pricing_plan_id":"cebpf4jnsgd1na2vs0mg"},{"bike_id":"c8c097cc-00f2-49a0-9238-138b03cf8284","system_id":"levelo_inurba_marseille","lat":43.23152,"lon":5.43713,"is_reserved":false,"is_disabled":false,"rental_uris":{"android":"levelo://app?vid=c8c097cc-00f2-49a0-9238-138b03cf8284","ios":"levelo://app?vid=c8c097cc-00f2-49a0-9238-138b03cf8284"},"vehicle_type_id":"4","last_reported":1743668051,"current_range_meters":8000,"station_id":"ce4bhmp2rcd13ifvqgog","pricing_plan_id":"cebpf4jnsgd1na2vs0mg"},{"bike_id":"546380d0-0813-4737-817f-a21e056e8d2e","system_id":"levelo_inurba_marseille","lat":43.32355,"lon":5.36767,"is_reserved":false,"is_disabled":false,"rental_uris":{"android":"levelo://app?vid=546380d0-0813-4737-817f-a21e056e8d2e","ios":"levelo://app?vid=546380d0-0813-4737-817f-a21e056e8d2e"},"vehicle_type_id":"4","last_reported":1743668051,"current_range_meters":8000,"station_id":"ce4bhsh2rcd13ifvqi2g","pricing_plan_id":"cebpf4jnsgd1na2vs0mg"},{"bike_id":"2e1d0491-8046-4a1c-910c-6d230f4ca468","system_id":"levelo_inurba_marseille","lat":43.30673,"lon":5.37377,"is_reserved":false,"is_disabled":false,"rental_uris":{"android":"levelo://app?vid=2e1d0491-8046-4a1c-910c-6d230f4ca468","ios":"levelo://app?vid=2e1d0491-8046-4a1c-910c-6d230f4ca468"},"vehicle_type_id":"4","last_reported":1743668051,"current_range_meters":8000,"station_id":"","pricing_plan_id":"cebpf4jnsgd1na2vs0mg"},{"bike_id":"ba1f99d1-7f04-4262-8727-9b2fd914c530","system_id":"levelo_inurba_marseille","lat":43.30537,"lon":5.36699,"is_reserved":false,"is_disabled":false,"rental_uris":{"android":"levelo://app?vid=ba1f99d1-7f04-4262-8727-9b2fd914c530","ios":"levelo://app?vid=ba1f99d1-7f04-4262-8727-9b2fd914c530"},"vehicle_type_id":"4","last_reported":1743668051,"current_range_meters":8400,"station_id":"ce4bgrp2rcd13ifvqc9g","pricing_plan_id":"cebpf4jnsgd1na2vs0mg"},{"bike_id":"f2884846-7722-4c0e-92fb-45648ae5d916","system_id":"levelo_inurba_marseille","lat":43.25827,"lon":5.39435,"is_reserved":false,"is_disabled":false,"rental_uris":{"android":"levelo://app?vid=f2884846-7722-4c0e-92fb-45648ae5d916","ios":"levelo://app?vid=f2884846-7722-4c0e-92fb-45648ae5d916"},"vehicle_type_id":"4","last_reported":1743668051,"current_range_meters":8400,"station_id":"ce4bhip2rcd13ifvqft0","pricing_plan_id":"cebpf4jnsgd1na2vs0mg"},{"bike_id":"162e172c-8cfa-4d6d-b126-8dbe37cf7cbe","system_id":"levelo_inurba_marseille","lat":43.2984,"lon":5.36272,"is_reserved":false,"is_disabled":false,"rental_uris":{"android":"levelo://app?vid=162e172c-8cfa-4d6d-b126-8dbe37cf7cbe","ios":"levelo://app?vid=162e172c-8cfa-4d6d-b126-8dbe37cf7cbe"},"vehicle_type_id":"4","last_reported":1743668051,"current_range_meters":8400,"station_id":"ce4bgpp2rcd13ifvqc3g","pricing_plan_id":"cebpf4jnsgd1na2vs0mg"},{"bike_id":"d0ca8bcb-5e74-47e6-b343-d966cc08be61","system_id":"levelo_inurba_marseille","lat":43.26492,"lon":5.39551,"is_reserved":false,"is_disabled":false,"rental_uris":{"android":"levelo://app?vid=d0ca8bcb-5e74-47e6-b343-d966cc08be61","ios":"levelo://app?vid=d0ca8bcb-5e74-47e6-b343-d966cc08be61"},"vehicle_type_id":"4","last_reported":1743668051,"current_range_meters":8400,"station_id":"ce4bhi12rcd13ifvqfq0","pricing_plan_id":"cebpf4jnsgd1na2vs0mg"},{"bike_id":"b2930fb6-6860-48e9-ae27-435a49c66121","system_id":"levelo_inurba_marseille","lat":43.26677,"lon":5.38272,"is_reserved":false,"is_disabled":true,"rental_uris":{"android":"levelo://app?vid=b2930fb6-6860-48e9-ae27-435a49c66121","ios":"levelo://app?vid=b2930fb6-6860-48e9-ae27-435a49c66121"},"vehicle_type_id":"4","last_reported":1743668051,"current_range_meters":8400,"station_id":"ce4bhg92rcd13ifvqf90","pricing_plan_id":"cebpf4jnsgd1na2vs0mg"},{"bike_id":"32a978e0-d0c2-43d4-9b03-19a5c41c27de","system_id":"levelo_inurba_marseille","lat":43.31068,"lon":5.38352,"is_reserved":false,"is_disabled":true,"rental_uris":{"android":"levelo://app?vid=32a978e0-d0c2-43d4-9b03-19a5c41c27de","ios":"levelo://app?vid=32a978e0-d0c2-43d4-9b03-19a5c41c27de"},"vehicle_type_id":"4","last_reported":1743668051,"current_range_meters":8400,"station_id":"ce4bgv92rcd13ifvqcr0","pricing_plan_id":"cebpf4jnsgd1na2vs0mg"},{"bike_id":"281634d5-afc9-4799-9822-0d78f51594fe","system_id":"levelo_inurba_marseille","lat":43.30942,"lon":5.39033,"is_reserved":false,"is_disabled":false,"rental_uris":{"android":"levelo://app?vid=281634d5-afc9-4799-9822-0d78f51594fe","ios":"levelo://app?vid=281634d5-afc9-4799-9822-0d78f51594fe"},"vehicle_type_id":"4","last_reported":1743668051,"current_range_meters":8400,"station_id":"ce4bgup2rcd13ifvqco0","pricing_plan_id":"cebpf4jnsgd1na2vs0mg"},{"bike_id":"d97c6895-9a58-42bd-9edc-053f218b5b60","system_id":"levelo_inurba_marseille","lat":43.29543,"lon":5.36363,"is_reserved":false,"is_disabled":false,"rental_uris":{"android":"levelo://app?vid=d97c6895-9a58-42bd-9edc-053f218b5b60","ios":"levelo://app?vid=d97c6895-9a58-42bd-9edc-053f218b5b60"},"vehicle_type_id":"4","last_reported":1743668051,"current_range_meters":8400,"station_id":"","pricing_plan_id":"cebpf4jnsgd1na2vs0mg"},{"bike_id":"077a1457-05ce-40eb-848c-d21a2d99d665","system_id":"levelo_inurba_marseille","lat":43.30531,"lon":5.36715,"is_reserved":false,"is_disabled":false,"rental_uris":{"android":"levelo://app?vid=077a1457-05ce-40eb-848c-d21a2d99d665","ios":"levelo://app?vid=077a1457-05ce-40eb-848c-d21a2d99d665"},"vehicle_type_id":"4","last_reported":1743668051,"current_range_meters":8400,"station_id":"ce4bgrp2rcd13ifvqc9g","pricing_plan_id":"cebpf4jnsgd1na2vs0mg"},{"bike_id":"75dae32f-059a-4b5b-a5e8-963c6eda2f66","system_id":"levelo_inurba_marseille","lat":43.27522,"lon":5.41,"is_reserved":false,"is_disabled":false,"rental_uris":{"android":"levelo://app?vid=75dae32f-059a-4b5b-a5e8-963c6eda2f66","ios":"levelo://app?vid=75dae32f-059a-4b5b-a5e8-963c6eda2f66"},"vehicle_type_id":"4","last_reported":1743668051,"current_range_meters":8400,"station_id":"","pricing_plan_id":"cebpf4jnsgd1na2vs0mg"},{"bike_id":"aa653c26-703a-4ef5-b434-00b5e2aae9ce","system_id":"levelo_inurba_marseille","lat":43.25726,"lon":5.41109,"is_reserved":false,"is_disabled":false,"rental_uris":{"android":"levelo://app?vid=aa653c26-703a-4ef5-b434-00b5e2aae9ce","ios":"levelo://app?vid=aa653c26-703a-4ef5-b434-00b5e2aae9ce"},"vehicle_type_id":"4","last_reported":1743668051,"current_range_meters":8400,"station_id":"ce4bhkp2rcd13ifvqgd0","pricing_plan_id":"cebpf4jnsgd1na2vs0mg"},{"bike_id":"7ba67d0a-4dd2-434e-9233-c217be617343","system_id":"levelo_inurba_marseille","lat":43.337716,"lon":5.374613,"is_reserved":false,"is_disabled":false,"rental_uris":{"android":"levelo://app?vid=7ba67d0a-4dd2-434e-9233-c217be617343","ios":"levelo://app?vid=7ba67d0a-4dd2-434e-9233-c217be617343"},"vehicle_type_id":"4","last_reported":1743668051,"current_range_meters":8800,"station_id":"","pricing_plan_id":"cebpf4jnsgd1na2vs0mg"},{"bike_id":"806f15f5-826d-41fe-94bf-7198bfd375b1","system_id":"levelo_inurba_marseille","lat":43.23137,"lon":5.43727,"is_reserved":false,"is_disabled":false,"rental_uris":{"android":"levelo://app?vid=806f15f5-826d-41fe-94bf-7198bfd375b1","ios":"levelo://app?vid=806f15f5-826d-41fe-94bf-7198bfd375b1"},"vehicle_type_id":"4","last_reported":1743668051,"current_range_meters":8800,"station_id":"ce4bhmp2rcd13ifvqgog","pricing_plan_id":"cebpf4jnsgd1na2vs0mg"},{"bike_id":"5eb45a6c-7d71-4fc0-92e1-ab1d443daee5","system_id":"levelo_inurba_marseille","lat":43.30146,"lon":5.37418,"is_reserved":false,"is_disabled":false,"rental_uris":{"android":"levelo://app?vid=5eb45a6c-7d71-4fc0-92e1-ab1d443daee5","ios":"levelo://app?vid=5eb45a6c-7d71-4fc0-92e1-ab1d443daee5"},"vehicle_type_id":"4","last_reported":1743668051,"current_range_meters":8800,"station_id":"ce4bgs92rcd13ifvqcc0","pricing_plan_id":"cebpf4jnsgd1na2vs0mg"},{"bike_id":"b6c83da9-b3c4-4843-9a1d-36871e12515b","system_id":"levelo_inurba_marseille","lat":43.26114,"lon":5.41464,"is_reserved":false,"is_disabled":false,"rental_uris":{"android":"levelo://app?vid=b6c83da9-b3c4-4843-9a1d-36871e12515b","ios":"levelo://app?vid=b6c83da9-b3c4-4843-9a1d-36871e12515b"},"vehicle_type_id":"4","last_reported":1743668051,"current_range_meters":8800,"station_id":"","pricing_plan_id":"cebpf4jnsgd1na2vs0mg"},{"bike_id":"e1b03b21-5eb0-483c-b4ac-ea8a29304382","system_id":"levelo_inurba_marseille","lat":43.23063,"lon":5.35496,"is_reserved":false,"is_disabled":false,"rental_uris":{"android":"levelo://app?vid=e1b03b21-5eb0-483c-b4ac-ea8a29304382","ios":"levelo://app?vid=e1b03b21-5eb0-483c-b4ac-ea8a29304382"},"vehicle_type_id":"4","last_reported":1743668051,"current_range_meters":9200,"station_id":"cpo3342slgdg3j2ifvpg","pricing_plan_id":"cebpf4jnsgd1na2vs0mg"},{"bike_id":"915a352d-4bee-44a6-acdd-d714f3d678fb","system_id":"levelo_inurba_marseille","lat":43.27494,"lon":5.42453,"is_reserved":false,"is_disabled":false,"rental_uris":{"android":"levelo://app?vid=915a352d-4bee-44a6-acdd-d714f3d678fb","ios":"levelo://app?vid=915a352d-4bee-44a6-acdd-d714f3d678fb"},"vehicle_type_id":"4","last_reported":1743668051,"current_range_meters":9200,"station_id":"ce4bhn92rcd13ifvqgrg","pricing_plan_id":"cebpf4jnsgd1na2vs0mg"},{"bike_id":"3374421a-949f-40b6-870f-59a2d8ba0de4","system_id":"levelo_inurba_marseille","lat":43.24166,"lon":5.36397,"is_reserved":false,"is_disabled":false,"rental_uris":{"android":"levelo://app?vid=3374421a-949f-40b6-870f-59a2d8ba0de4","ios":"levelo://app?vid=3374421a-949f-40b6-870f-59a2d8ba0de4"},"vehicle_type_id":"4","last_reported":1743668051,"current_range_meters":9200,"station_id":"cpo36qri1sfpv3e86is0","pricing_plan_id":"cebpf4jnsgd1na2vs0mg"},{"bike_id":"c2e6881a-04a3-4a38-9cc0-75cacf165e78","system_id":"levelo_inurba_marseille","lat":43.28832,"lon":5.364645,"is_reserved":false,"is_disabled":false,"rental_uris":{"android":"levelo://app?vid=c2e6881a-04a3-4a38-9cc0-75cacf165e78","ios":"levelo://app?vid=c2e6881a-04a3-4a38-9cc0-75cacf165e78"},"vehicle_type_id":"4","last_reported":1743668051,"current_range_meters":9200,"station_id":"","pricing_plan_id":"cebpf4jnsgd1na2vs0mg"},{"bike_id":"e0318588-875c-469f-92ed-8c122f99d869","system_id":"levelo_inurba_marseille","lat":43.26956,"lon":5.38629,"is_reserved":false,"is_disabled":false,"rental_uris":{"android":"levelo://app?vid=e0318588-875c-469f-92ed-8c122f99d869","ios":"levelo://app?vid=e0318588-875c-469f-92ed-8c122f99d869"},"vehicle_type_id":"4","last_reported":1743668051,"current_range_meters":9200,"station_id":"ce4bhh92rcd13ifvqfh0","pricing_plan_id":"cebpf4jnsgd1na2vs0mg"},{"bike_id":"4477ad5c-2bc0-4169-80b7-a69bbeab4f85","system_id":"levelo_inurba_marseille","lat":43.25495,"lon":5.37649,"is_reserved":false,"is_disabled":false,"rental_uris":{"android":"levelo://app?vid=4477ad5c-2bc0-4169-80b7-a69bbeab4f85","ios":"levelo://app?vid=4477ad5c-2bc0-4169-80b7-a69bbeab4f85"},"vehicle_type_id":"4","last_reported":1743668051,"current_range_meters":8800,"station_id":"ce4bhh12rcd13ifvqff0","pricing_plan_id":"cebpf4jnsgd1na2vs0mg"},{"bike_id":"b5fa61b4-55c0-4d0f-b518-f0583e71aca3","system_id":"levelo_inurba_marseille","lat":43.22926,"lon":5.35389,"is_reserved":false,"is_disabled":false,"rental_uris":{"android":"levelo://app?vid=b5fa61b4-55c0-4d0f-b518-f0583e71aca3","ios":"levelo://app?vid=b5fa61b4-55c0-4d0f-b518-f0583e71aca3"},"vehicle_type_id":"4","last_reported":1743668051,"current_range_meters":9200,"station_id":"cpo3532slgdg3j2ikp40","pricing_plan_id":"cebpf4jnsgd1na2vs0mg"},{"bike_id":"160f1b99-f55c-4706-9f49-8f96058d7754","system_id":"levelo_inurba_marseille","lat":43.30554,"lon":5.36511,"is_reserved":false,"is_disabled":true,"rental_uris":{"android":"levelo://app?vid=160f1b99-f55c-4706-9f49-8f96058d7754","ios":"levelo://app?vid=160f1b99-f55c-4706-9f49-8f96058d7754"},"vehicle_type_id":"4","last_reported":1743668051,"current_range_meters":9200,"station_id":"ce4bgs12rcd13ifvqcag","pricing_plan_id":"cebpf4jnsgd1na2vs0mg"},{"bike_id":"74157fd8-0597-409e-9f68-969f3d916f32","system_id":"levelo_inurba_marseille","lat":43.25585,"lon":5.38226,"is_reserved":false,"is_disabled":false,"rental_uris":{"android":"levelo://app?vid=74157fd8-0597-409e-9f68-969f3d916f32","ios":"levelo://app?vid=74157fd8-0597-409e-9f68-969f3d916f32"},"vehicle_type_id":"4","last_reported":1743668051,"current_range_meters":9200,"station_id":"ce4bhih2rcd13ifvqfs0","pricing_plan_id":"cebpf4jnsgd1na2vs0mg"},{"bike_id":"089804d4-2d4d-40e1-965b-7340bacee7d1","system_id":"levelo_inurba_marseille","lat":43.29596,"lon":5.38105,"is_reserved":false,"is_disabled":false,"rental_uris":{"android":"levelo://app?vid=089804d4-2d4d-40e1-965b-7340bacee7d1","ios":"levelo://app?vid=089804d4-2d4d-40e1-965b-7340bacee7d1"},"vehicle_type_id":"4","last_reported":1743668051,"current_range_meters":9200,"station_id":"ce4bgl12rcd13ifvqbo0","pricing_plan_id":"cebpf4jnsgd1na2vs0mg"},{"bike_id":"cd83c8ac-ed09-4369-9279-b6f36f2bbd3c","system_id":"levelo_inurba_marseille","lat":43.30815,"lon":5.38238,"is_reserved":false,"is_disabled":false,"rental_uris":{"android":"levelo://app?vid=cd83c8ac-ed09-4369-9279-b6f36f2bbd3c","ios":"levelo://app?vid=cd83c8ac-ed09-4369-9279-b6f36f2bbd3c"},"vehicle_type_id":"4","last_reported":1743668051,"current_range_meters":9600,"station_id":"","pricing_plan_id":"cebpf4jnsgd1na2vs0mg"},{"bike_id":"b01e890e-3e80-4df7-b669-a49952af6860","system_id":"levelo_inurba_marseille","lat":43.30465,"lon":5.3791,"is_reserved":false,"is_disabled":false,"rental_uris":{"android":"levelo://app?vid=b01e890e-3e80-4df7-b669-a49952af6860","ios":"levelo://app?vid=b01e890e-3e80-4df7-b669-a49952af6860"},"vehicle_type_id":"4","last_reported":1743668051,"current_range_meters":9600,"station_id":"ce4bgup2rcd13ifvqcn0","pricing_plan_id":"cebpf4jnsgd1na2vs0mg"},{"bike_id":"b4a3508c-11be-4b6b-87d6-fdd1390e7d88","system_id":"levelo_inurba_marseille","lat":43.31384,"lon":5.36708,"is_reserved":false,"is_disabled":false,"rental_uris":{"android":"levelo://app?vid=b4a3508c-11be-4b6b-87d6-fdd1390e7d88","ios":"levelo://app?vid=b4a3508c-11be-4b6b-87d6-fdd1390e7d88"},"vehicle_type_id":"4","last_reported":1743668051,"current_range_meters":9600,"station_id":"","pricing_plan_id":"cebpf4jnsgd1na2vs0mg"},{"bike_id":"09a8a7dc-25ab-48a6-ac8b-5ee88a884479","system_id":"levelo_inurba_marseille","lat":43.2862,"lon":5.38382,"is_reserved":false,"is_disabled":false,"rental_uris":{"android":"levelo://app?vid=09a8a7dc-25ab-48a6-ac8b-5ee88a884479","ios":"levelo://app?vid=09a8a7dc-25ab-48a6-ac8b-5ee88a884479"},"vehicle_type_id":"4","last_reported":1743668051,"current_range_meters":9600,"station_id":"","pricing_plan_id":"cebpf4jnsgd1na2vs0mg"},{"bike_id":"7d49898d-4c6e-4131-9fdb-37de62f2c79c","system_id":"levelo_inurba_marseille","lat":43.28892,"lon":5.37129,"is_reserved":false,"is_disabled":false,"rental_uris":{"android":"levelo://app?vid=7d49898d-4c6e-4131-9fdb-37de62f2c79c","ios":"levelo://app?vid=7d49898d-4c6e-4131-9fdb-37de62f2c79c"},"vehicle_type_id":"4","last_reported":1743668051,"current_range_meters":9600,"station_id":"","pricing_plan_id":"cebpf4jnsgd1na2vs0mg"},{"bike_id":"f9942b38-4b85-41d1-a828-e68229a2d475","system_id":"levelo_inurba_marseille","lat":43.26685,"lon":5.38271,"is_reserved":false,"is_disabled":false,"rental_uris":{"android":"levelo://app?vid=f9942b38-4b85-41d1-a828-e68229a2d475","ios":"levelo://app?vid=f9942b38-4b85-41d1-a828-e68229a2d475"},"vehicle_type_id":"4","last_reported":1743668051,"current_range_meters":10000,"station_id":"ce4bhg92rcd13ifvqf90","pricing_plan_id":"cebpf4jnsgd1na2vs0mg"},{"bike_id":"c3461680-3ed8-4623-ad49-b05ac3ac9b4d","system_id":"levelo_inurba_marseille","lat":43.30462,"lon":5.37904,"is_reserved":false,"is_disabled":false,"rental_uris":{"android":"levelo://app?vid=c3461680-3ed8-4623-ad49-b05ac3ac9b4d","ios":"levelo://app?vid=c3461680-3ed8-4623-ad49-b05ac3ac9b4d"},"vehicle_type_id":"4","last_reported":1743668051,"current_range_meters":10000,"station_id":"ce4bgup2rcd13ifvqcn0","pricing_plan_id":"cebpf4jnsgd1na2vs0mg"},{"bike_id":"6cb0884f-aba9-44e8-92f3-61aacc7d15b0","system_id":"levelo_inurba_marseille","lat":43.25816,"lon":5.39421,"is_reserved":false,"is_disabled":false,"rental_uris":{"android":"levelo://app?vid=6cb0884f-aba9-44e8-92f3-61aacc7d15b0","ios":"levelo://app?vid=6cb0884f-aba9-44e8-92f3-61aacc7d15b0"},"vehicle_type_id":"4","last_reported":1743668051,"current_range_meters":10000,"station_id":"ce4bhip2rcd13ifvqft0","pricing_plan_id":"cebpf4jnsgd1na2vs0mg"},{"bike_id":"3ae58bbb-27fe-4f66-93aa-3ec0b1b4782c","system_id":"levelo_inurba_marseille","lat":43.24073,"lon":5.37758,"is_reserved":false,"is_disabled":false,"rental_uris":{"android":"levelo://app?vid=3ae58bbb-27fe-4f66-93aa-3ec0b1b4782c","ios":"levelo://app?vid=3ae58bbb-27fe-4f66-93aa-3ec0b1b4782c"},"vehicle_type_id":"4","last_reported":1743668051,"current_range_meters":10000,"station_id":"ce4bhnp2rcd13ifvqgvg","pricing_plan_id":"cebpf4jnsgd1na2vs0mg"},{"bike_id":"87ebaa08-417c-4e4c-9c6c-0870e96c7115","system_id":"levelo_inurba_marseille","lat":43.25001,"lon":5.38927,"is_reserved":false,"is_disabled":false,"rental_uris":{"android":"levelo://app?vid=87ebaa08-417c-4e4c-9c6c-0870e96c7115","ios":"levelo://app?vid=87ebaa08-417c-4e4c-9c6c-0870e96c7115"},"vehicle_type_id":"4","last_reported":1743668051,"current_range_meters":10000,"station_id":"ce4bhgp2rcd13ifvqfd0","pricing_plan_id":"cebpf4jnsgd1na2vs0mg"},{"bike_id":"0b821c23-8c64-4699-97fa-6ab3f8994acf","system_id":"levelo_inurba_marseille","lat":43.30802,"lon":5.381575,"is_reserved":false,"is_disabled":true,"rental_uris":{"android":"levelo://app?vid=0b821c23-8c64-4699-97fa-6ab3f8994acf","ios":"levelo://app?vid=0b821c23-8c64-4699-97fa-6ab3f8994acf"},"vehicle_type_id":"4","last_reported":1743668051,"current_range_meters":10000,"station_id":"ce4bgt12rcd13ifvqce0","pricing_plan_id":"cebpf4jnsgd1na2vs0mg"},{"bike_id":"30353176-b308-4f50-bce3-8ec56fedb6ea","system_id":"levelo_inurba_marseille","lat":43.30542,"lon":5.36705,"is_reserved":false,"is_disabled":false,"rental_uris":{"android":"levelo://app?vid=30353176-b308-4f50-bce3-8ec56fedb6ea","ios":"levelo://app?vid=30353176-b308-4f50-bce3-8ec56fedb6ea"},"vehicle_type_id":"4","last_reported":1743668051,"current_range_meters":10800,"station_id":"ce4bgrp2rcd13ifvqc9g","pricing_plan_id":"cebpf4jnsgd1na2vs0mg"},{"bike_id":"d5be55a1-ab43-4588-ae7b-d796d9eafdd8","system_id":"levelo_inurba_marseille","lat":43.2985,"lon":5.36277,"is_reserved":false,"is_disabled":false,"rental_uris":{"android":"levelo://app?vid=d5be55a1-ab43-4588-ae7b-d796d9eafdd8","ios":"levelo://app?vid=d5be55a1-ab43-4588-ae7b-d796d9eafdd8"},"vehicle_type_id":"4","last_reported":1743668051,"current_range_meters":10800,"station_id":"ce4bgpp2rcd13ifvqc3g","pricing_plan_id":"cebpf4jnsgd1na2vs0mg"},{"bike_id":"99301fc0-a3c3-4395-9adf-b646740cffda","system_id":"levelo_inurba_marseille","lat":43.2593,"lon":5.40906,"is_reserved":false,"is_disabled":false,"rental_uris":{"android":"levelo://app?vid=99301fc0-a3c3-4395-9adf-b646740cffda","ios":"levelo://app?vid=99301fc0-a3c3-4395-9adf-b646740cffda"},"vehicle_type_id":"4","last_reported":1743668051,"current_range_meters":10800,"station_id":"ce4bhm92rcd13ifvqglg","pricing_plan_id":"cebpf4jnsgd1na2vs0mg"},{"bike_id":"2a03ca0f-844a-4b81-b6e1-a6b9efe34faa","system_id":"levelo_inurba_marseille","lat":43.29612,"lon":5.37158,"is_reserved":false,"is_disabled":false,"rental_uris":{"android":"levelo://app?vid=2a03ca0f-844a-4b81-b6e1-a6b9efe34faa","ios":"levelo://app?vid=2a03ca0f-844a-4b81-b6e1-a6b9efe34faa"},"vehicle_type_id":"4","last_reported":1743668051,"current_range_meters":10000,"station_id":"ce4bgnh2rcd13ifvqc0g","pricing_plan_id":"cebpf4jnsgd1na2vs0mg"},{"bike_id":"9ada3385-2eea-446a-95da-f8740519d0e3","system_id":"levelo_inurba_marseille","lat":43.24086,"lon":5.3775,"is_reserved":false,"is_disabled":false,"rental_uris":{"android":"levelo://app?vid=9ada3385-2eea-446a-95da-f8740519d0e3","ios":"levelo://app?vid=9ada3385-2eea-446a-95da-f8740519d0e3"},"vehicle_type_id":"4","last_reported":1743668051,"current_range_meters":10800,"station_id":"ce4bhnp2rcd13ifvqgvg","pricing_plan_id":"cebpf4jnsgd1na2vs0mg"},{"bike_id":"2635283e-ffd4-4c1f-b9e8-1b146ac4c8cc","system_id":"levelo_inurba_marseille","lat":43.30194,"lon":5.41937,"is_reserved":false,"is_disabled":false,"rental_uris":{"android":"levelo://app?vid=2635283e-ffd4-4c1f-b9e8-1b146ac4c8cc","ios":"levelo://app?vid=2635283e-ffd4-4c1f-b9e8-1b146ac4c8cc"},"vehicle_type_id":"4","last_reported":1743668051,"current_range_meters":11200,"station_id":"","pricing_plan_id":"cebpf4jnsgd1na2vs0mg"},{"bike_id":"22bcfedc-fd1a-42ef-b4ce-f8cb0c81bc99","system_id":"levelo_inurba_marseille","lat":43.30136,"lon":5.387921,"is_reserved":false,"is_disabled":true,"rental_uris":{"android":"levelo://app?vid=22bcfedc-fd1a-42ef-b4ce-f8cb0c81bc99","ios":"levelo://app?vid=22bcfedc-fd1a-42ef-b4ce-f8cb0c81bc99"},"vehicle_type_id":"4","last_reported":1743668051,"current_range_meters":10800,"station_id":"ce4bghh2rcd13ifvqb60","pricing_plan_id":"cebpf4jnsgd1na2vs0mg"},{"bike_id":"96358b86-edd6-47bd-8cdc-7d4ebef66ea1","system_id":"levelo_inurba_marseille","lat":43.27068,"lon":5.42275,"is_reserved":false,"is_disabled":false,"rental_uris":{"android":"levelo://app?vid=96358b86-edd6-47bd-8cdc-7d4ebef66ea1","ios":"levelo://app?vid=96358b86-edd6-47bd-8cdc-7d4ebef66ea1"},"vehicle_type_id":"4","last_reported":1743668051,"current_range_meters":10800,"station_id":"ce4bhk92rcd13ifvqgb0","pricing_plan_id":"cebpf4jnsgd1na2vs0mg"},{"bike_id":"8d5a2db5-747c-427c-934b-df4ad8f07d1b","system_id":"levelo_inurba_marseille","lat":43.29249,"lon":5.37593,"is_reserved":false,"is_disabled":false,"rental_uris":{"android":"levelo://app?vid=8d5a2db5-747c-427c-934b-df4ad8f07d1b","ios":"levelo://app?vid=8d5a2db5-747c-427c-934b-df4ad8f07d1b"},"vehicle_type_id":"4","last_reported":1743668051,"current_range_meters":11200,"station_id":"ce4bgi12rcd13ifvqb80","pricing_plan_id":"cebpf4jnsgd1na2vs0mg"},{"bike_id":"662d12fd-c30c-4b2f-8948-d9a23f1c4ef7","system_id":"levelo_inurba_marseille","lat":43.31321,"lon":5.39693,"is_reserved":false,"is_disabled":false,"rental_uris":{"android":"levelo://app?vid=662d12fd-c30c-4b2f-8948-d9a23f1c4ef7","ios":"levelo://app?vid=662d12fd-c30c-4b2f-8948-d9a23f1c4ef7"},"vehicle_type_id":"4","last_reported":1743668051,"current_range_meters":10800,"station_id":"ce4bgvp2rcd13ifvqcu0","pricing_plan_id":"cebpf4jnsgd1na2vs0mg"},{"bike_id":"1c89932c-db4d-4345-9571-d5eb72e47a40","system_id":"levelo_inurba_marseille","lat":43.3045,"lon":5.3792,"is_reserved":false,"is_disabled":true,"rental_uris":{"android":"levelo://app?vid=1c89932c-db4d-4345-9571-d5eb72e47a40","ios":"levelo://app?vid=1c89932c-db4d-4345-9571-d5eb72e47a40"},"vehicle_type_id":"4","last_reported":1743668051,"current_range_meters":11200,"station_id":"ce4bgup2rcd13ifvqcn0","pricing_plan_id":"cebpf4jnsgd1na2vs0mg"},{"bike_id":"e6f02e74-383c-4bae-b8c4-037430863270","system_id":"levelo_inurba_marseille","lat":43.23064,"lon":5.35494,"is_reserved":false,"is_disabled":false,"rental_uris":{"android":"levelo://app?vid=e6f02e74-383c-4bae-b8c4-037430863270","ios":"levelo://app?vid=e6f02e74-383c-4bae-b8c4-037430863270"},"vehicle_type_id":"4","last_reported":1743668051,"current_range_meters":11200,"station_id":"cpo3342slgdg3j2ifvpg","pricing_plan_id":"cebpf4jnsgd1na2vs0mg"},{"bike_id":"1503f0aa-ff8c-48af-92f3-b20415e7dc97","system_id":"levelo_inurba_marseille","lat":43.24079,"lon":5.37746,"is_reserved":false,"is_disabled":false,"rental_uris":{"android":"levelo://app?vid=1503f0aa-ff8c-48af-92f3-b20415e7dc97","ios":"levelo://app?vid=1503f0aa-ff8c-48af-92f3-b20415e7dc97"},"vehicle_type_id":"4","last_reported":1743668051,"current_range_meters":11200,"station_id":"ce4bhnp2rcd13ifvqgvg","pricing_plan_id":"cebpf4jnsgd1na2vs0mg"},{"bike_id":"8e4581a0-ac48-45f0-8881-72e126b8df71","system_id":"levelo_inurba_marseille","lat":43.31225,"lon":5.36871,"is_reserved":false,"is_disabled":false,"rental_uris":{"android":"levelo://app?vid=8e4581a0-ac48-45f0-8881-72e126b8df71","ios":"levelo://app?vid=8e4581a0-ac48-45f0-8881-72e126b8df71"},"vehicle_type_id":"4","last_reported":1743668051,"current_range_meters":11200,"station_id":"ce4bgl92rcd13ifvqbq0","pricing_plan_id":"cebpf4jnsgd1na2vs0mg"},{"bike_id":"b82ef2bd-0499-4626-ae86-4b30a150d18a","system_id":"levelo_inurba_marseille","lat":43.24066,"lon":5.37766,"is_reserved":false,"is_disabled":false,"rental_uris":{"android":"levelo://app?vid=b82ef2bd-0499-4626-ae86-4b30a150d18a","ios":"levelo://app?vid=b82ef2bd-0499-4626-ae86-4b30a150d18a"},"vehicle_type_id":"4","last_reported":1743668051,"current_range_meters":11200,"station_id":"ce4bhnp2rcd13ifvqgvg","pricing_plan_id":"cebpf4jnsgd1na2vs0mg"},{"bike_id":"c13336a2-47ce-488c-b5b6-77c01a3ac1d1","system_id":"levelo_inurba_marseille","lat":43.31896,"lon":5.40739,"is_reserved":false,"is_disabled":true,"rental_uris":{"android":"levelo://app?vid=c13336a2-47ce-488c-b5b6-77c01a3ac1d1","ios":"levelo://app?vid=c13336a2-47ce-488c-b5b6-77c01a3ac1d1"},"vehicle_type_id":"4","last_reported":1743668051,"current_range_meters":11600,"station_id":"ce4bhq12rcd13ifvqhig","pricing_plan_id":"cebpf4jnsgd1na2vs0mg"},{"bike_id":"70e5b39f-29e3-4ea9-aa83-5a60a8eec6f8","system_id":"levelo_inurba_marseille","lat":43.25048,"lon":5.41699,"is_reserved":false,"is_disabled":false,"rental_uris":{"android":"levelo://app?vid=70e5b39f-29e3-4ea9-aa83-5a60a8eec6f8","ios":"levelo://app?vid=70e5b39f-29e3-4ea9-aa83-5a60a8eec6f8"},"vehicle_type_id":"4","last_reported":1743668051,"current_range_meters":11600,"station_id":"","pricing_plan_id":"cebpf4jnsgd1na2vs0mg"},{"bike_id":"87f98a64-6a9a-4611-80f7-3da7f6df3ee4","system_id":"levelo_inurba_marseille","lat":43.28719,"lon":5.37913,"is_reserved":false,"is_disabled":false,"rental_uris":{"android":"levelo://app?vid=87f98a64-6a9a-4611-80f7-3da7f6df3ee4","ios":"levelo://app?vid=87f98a64-6a9a-4611-80f7-3da7f6df3ee4"},"vehicle_type_id":"4","last_reported":1743668051,"current_range_meters":12000,"station_id":"ce4bh9p2rcd13ifvqec0","pricing_plan_id":"cebpf4jnsgd1na2vs0mg"},{"bike_id":"f643681e-8235-4c37-9c4a-1e80de4494c0","system_id":"levelo_inurba_marseille","lat":43.309005,"lon":5.368383,"is_reserved":false,"is_disabled":false,"rental_uris":{"android":"levelo://app?vid=f643681e-8235-4c37-9c4a-1e80de4494c0","ios":"levelo://app?vid=f643681e-8235-4c37-9c4a-1e80de4494c0"},"vehicle_type_id":"4","last_reported":1743668051,"current_range_meters":12000,"station_id":"ce4bgn92rcd13ifvqbvg","pricing_plan_id":"cebpf4jnsgd1na2vs0mg"},{"bike_id":"43895958-8326-4f80-9edd-cbe4dcf9704f","system_id":"levelo_inurba_marseille","lat":43.2968,"lon":5.37326,"is_reserved":false,"is_disabled":false,"rental_uris":{"android":"levelo://app?vid=43895958-8326-4f80-9edd-cbe4dcf9704f","ios":"levelo://app?vid=43895958-8326-4f80-9edd-cbe4dcf9704f"},"vehicle_type_id":"4","last_reported":1743668051,"current_range_meters":11600,"station_id":"ce4bgk12rcd13ifvqbj0","pricing_plan_id":"cebpf4jnsgd1na2vs0mg"},{"bike_id":"f8c62789-a6b7-4539-b99c-e6c73b69ae5e","system_id":"levelo_inurba_marseille","lat":43.30309,"lon":5.40445,"is_reserved":false,"is_disabled":true,"rental_uris":{"android":"levelo://app?vid=f8c62789-a6b7-4539-b99c-e6c73b69ae5e","ios":"levelo://app?vid=f8c62789-a6b7-4539-b99c-e6c73b69ae5e"},"vehicle_type_id":"4","last_reported":1743668051,"current_range_meters":12000,"station_id":"ce4bh012rcd13ifvqd10","pricing_plan_id":"cebpf4jnsgd1na2vs0mg"},{"bike_id":"f56b212f-3702-4226-a7b2-bb6045cd1a6a","system_id":"levelo_inurba_marseille","lat":43.24075,"lon":5.37769,"is_reserved":false,"is_disabled":false,"rental_uris":{"android":"levelo://app?vid=f56b212f-3702-4226-a7b2-bb6045cd1a6a","ios":"levelo://app?vid=f56b212f-3702-4226-a7b2-bb6045cd1a6a"},"vehicle_type_id":"4","last_reported":1743668051,"current_range_meters":12000,"station_id":"ce4bhnp2rcd13ifvqgvg","pricing_plan_id":"cebpf4jnsgd1na2vs0mg"},{"bike_id":"e3a29d38-a611-4b12-87ef-2fb8a21c41d5","system_id":"levelo_inurba_marseille","lat":43.22912,"lon":5.35372,"is_reserved":false,"is_disabled":false,"rental_uris":{"android":"levelo://app?vid=e3a29d38-a611-4b12-87ef-2fb8a21c41d5","ios":"levelo://app?vid=e3a29d38-a611-4b12-87ef-2fb8a21c41d5"},"vehicle_type_id":"4","last_reported":1743668051,"current_range_meters":12000,"station_id":"cpo3532slgdg3j2ikp40","pricing_plan_id":"cebpf4jnsgd1na2vs0mg"},{"bike_id":"c1c63035-c83b-4419-8cbf-133778d95125","system_id":"levelo_inurba_marseille","lat":43.29773,"lon":5.39375,"is_reserved":false,"is_disabled":true,"rental_uris":{"android":"levelo://app?vid=c1c63035-c83b-4419-8cbf-133778d95125","ios":"levelo://app?vid=c1c63035-c83b-4419-8cbf-133778d95125"},"vehicle_type_id":"4","last_reported":1743668051,"current_range_meters":12000,"station_id":"chh1huq6cuj3fo74tm60","pricing_plan_id":"cebpf4jnsgd1na2vs0mg"},{"bike_id":"e330163d-6cd0-4bfe-b5ae-99fba611728c","system_id":"levelo_inurba_marseille","lat":43.29278,"lon":5.36843,"is_reserved":false,"is_disabled":false,"rental_uris":{"android":"levelo://app?vid=e330163d-6cd0-4bfe-b5ae-99fba611728c","ios":"levelo://app?vid=e330163d-6cd0-4bfe-b5ae-99fba611728c"},"vehicle_type_id":"4","last_reported":1743668051,"current_range_meters":12000,"station_id":"ce4bhbp2rcd13ifvqesg","pricing_plan_id":"cebpf4jnsgd1na2vs0mg"},{"bike_id":"035f2e95-5128-410e-bcd5-c744465a7416","system_id":"levelo_inurba_marseille","lat":43.292552,"lon":5.368535,"is_reserved":false,"is_disabled":false,"rental_uris":{"android":"levelo://app?vid=035f2e95-5128-410e-bcd5-c744465a7416","ios":"levelo://app?vid=035f2e95-5128-410e-bcd5-c744465a7416"},"vehicle_type_id":"4","last_reported":1743668051,"current_range_meters":12400,"station_id":"ce4bgn12rcd13ifvqbt0","pricing_plan_id":"cebpf4jnsgd1na2vs0mg"},{"bike_id":"efddeda7-6eb2-4c14-868d-fa0ce0b35ef3","system_id":"levelo_inurba_marseille","lat":43.31328,"lon":5.3829,"is_reserved":false,"is_disabled":false,"rental_uris":{"android":"levelo://app?vid=efddeda7-6eb2-4c14-868d-fa0ce0b35ef3","ios":"levelo://app?vid=efddeda7-6eb2-4c14-868d-fa0ce0b35ef3"},"vehicle_type_id":"4","last_reported":1743668051,"current_range_meters":12400,"station_id":"","pricing_plan_id":"cebpf4jnsgd1na2vs0mg"},{"bike_id":"7a2ba730-9820-4b99-bb4a-9605925001af","system_id":"levelo_inurba_marseille","lat":43.30526,"lon":5.3654,"is_reserved":false,"is_disabled":false,"rental_uris":{"android":"levelo://app?vid=7a2ba730-9820-4b99-bb4a-9605925001af","ios":"levelo://app?vid=7a2ba730-9820-4b99-bb4a-9605925001af"},"vehicle_type_id":"4","last_reported":1743668051,"current_range_meters":12400,"station_id":"ce4bgs12rcd13ifvqcag","pricing_plan_id":"cebpf4jnsgd1na2vs0mg"},{"bike_id":"cc3629cd-0b38-4c41-844e-f89cec5f6593","system_id":"levelo_inurba_marseille","lat":43.30906,"lon":5.36852,"is_reserved":false,"is_disabled":false,"rental_uris":{"android":"levelo://app?vid=cc3629cd-0b38-4c41-844e-f89cec5f6593","ios":"levelo://app?vid=cc3629cd-0b38-4c41-844e-f89cec5f6593"},"vehicle_type_id":"4","last_reported":1743668051,"current_range_meters":12400,"station_id":"ce4bgn92rcd13ifvqbvg","pricing_plan_id":"cebpf4jnsgd1na2vs0mg"},{"bike_id":"6c89c935-a855-49de-94cc-301a02501094","system_id":"levelo_inurba_marseille","lat":43.3014,"lon":5.37422,"is_reserved":false,"is_disabled":false,"rental_uris":{"android":"levelo://app?vid=6c89c935-a855-49de-94cc-301a02501094","ios":"levelo://app?vid=6c89c935-a855-49de-94cc-301a02501094"},"vehicle_type_id":"4","last_reported":1743668051,"current_range_meters":12400,"station_id":"ce4bgs92rcd13ifvqcc0","pricing_plan_id":"cebpf4jnsgd1na2vs0mg"},{"bike_id":"db720a25-fd83-4ba2-a028-14a7a80a6a2b","system_id":"levelo_inurba_marseille","lat":43.29843,"lon":5.36281,"is_reserved":false,"is_disabled":false,"rental_uris":{"android":"levelo://app?vid=db720a25-fd83-4ba2-a028-14a7a80a6a2b","ios":"levelo://app?vid=db720a25-fd83-4ba2-a028-14a7a80a6a2b"},"vehicle_type_id":"4","last_reported":1743668051,"current_range_meters":12400,"station_id":"ce4bgpp2rcd13ifvqc3g","pricing_plan_id":"cebpf4jnsgd1na2vs0mg"},{"bike_id":"a6c1a4d5-d420-40e3-8359-eb7fa21fc083","system_id":"levelo_inurba_marseille","lat":43.26188,"lon":5.37451,"is_reserved":false,"is_disabled":true,"rental_uris":{"android":"levelo://app?vid=a6c1a4d5-d420-40e3-8359-eb7fa21fc083","ios":"levelo://app?vid=a6c1a4d5-d420-40e3-8359-eb7fa21fc083"},"vehicle_type_id":"4","last_reported":1743668051,"current_range_meters":12400,"station_id":"ce4bhgp2rcd13ifvqfc0","pricing_plan_id":"cebpf4jnsgd1na2vs0mg"},{"bike_id":"d1946664-1140-491f-b11d-03c95ed9fdee","system_id":"levelo_inurba_marseille","lat":43.2593,"lon":5.40914,"is_reserved":false,"is_disabled":false,"rental_uris":{"android":"levelo://app?vid=d1946664-1140-491f-b11d-03c95ed9fdee","ios":"levelo://app?vid=d1946664-1140-491f-b11d-03c95ed9fdee"},"vehicle_type_id":"4","last_reported":1743668051,"current_range_meters":12800,"station_id":"ce4bhm92rcd13ifvqglg","pricing_plan_id":"cebpf4jnsgd1na2vs0mg"},{"bike_id":"1bd4c5e9-3479-4a34-bfb9-e556a3bbe8ed","system_id":"levelo_inurba_marseille","lat":43.2306,"lon":5.354917,"is_reserved":false,"is_disabled":false,"rental_uris":{"android":"levelo://app?vid=1bd4c5e9-3479-4a34-bfb9-e556a3bbe8ed","ios":"levelo://app?vid=1bd4c5e9-3479-4a34-bfb9-e556a3bbe8ed"},"vehicle_type_id":"4","last_reported":1743668051,"current_range_meters":12800,"station_id":"cpo3342slgdg3j2ifvpg","pricing_plan_id":"cebpf4jnsgd1na2vs0mg"},{"bike_id":"68c86f90-59ad-4da9-8066-2c3d19ee26b4","system_id":"levelo_inurba_marseille","lat":43.30917,"lon":5.36812,"is_reserved":false,"is_disabled":false,"rental_uris":{"android":"levelo://app?vid=68c86f90-59ad-4da9-8066-2c3d19ee26b4","ios":"levelo://app?vid=68c86f90-59ad-4da9-8066-2c3d19ee26b4"},"vehicle_type_id":"4","last_reported":1743668051,"current_range_meters":13600,"station_id":"ce4bgn92rcd13ifvqbvg","pricing_plan_id":"cebpf4jnsgd1na2vs0mg"},{"bike_id":"f6bd48ca-490c-403f-ba54-859cabc59f02","system_id":"levelo_inurba_marseille","lat":43.29926,"lon":5.37465,"is_reserved":false,"is_disabled":true,"rental_uris":{"android":"levelo://app?vid=f6bd48ca-490c-403f-ba54-859cabc59f02","ios":"levelo://app?vid=f6bd48ca-490c-403f-ba54-859cabc59f02"},"vehicle_type_id":"4","last_reported":1743668051,"current_range_meters":13600,"station_id":"ce4bgjh2rcd13ifvqbg0","pricing_plan_id":"cebpf4jnsgd1na2vs0mg"},{"bike_id":"f812244b-ce1a-4079-8ef8-11a38deed5c3","system_id":"levelo_inurba_marseille","lat":43.26054,"lon":5.39398,"is_reserved":false,"is_disabled":false,"rental_uris":{"android":"levelo://app?vid=f812244b-ce1a-4079-8ef8-11a38deed5c3","ios":"levelo://app?vid=f812244b-ce1a-4079-8ef8-11a38deed5c3"},"vehicle_type_id":"4","last_reported":1743668051,"current_range_meters":13600,"station_id":"ce4bhh92rcd13ifvqfj0","pricing_plan_id":"cebpf4jnsgd1na2vs0mg"},{"bike_id":"005283db-9aca-49eb-ae41-cbf0dc140b6c","system_id":"levelo_inurba_marseille","lat":43.30129,"lon":5.37299,"is_reserved":false,"is_disabled":false,"rental_uris":{"android":"levelo://app?vid=005283db-9aca-49eb-ae41-cbf0dc140b6c","ios":"levelo://app?vid=005283db-9aca-49eb-ae41-cbf0dc140b6c"},"vehicle_type_id":"4","last_reported":1743668051,"current_range_meters":13600,"station_id":"","pricing_plan_id":"cebpf4jnsgd1na2vs0mg"},{"bike_id":"06672b07-330e-431c-bcbe-eb28c04beb47","system_id":"levelo_inurba_marseille","lat":43.29035,"lon":5.39973,"is_reserved":false,"is_disabled":true,"rental_uris":{"android":"levelo://app?vid=06672b07-330e-431c-bcbe-eb28c04beb47","ios":"levelo://app?vid=06672b07-330e-431c-bcbe-eb28c04beb47"},"vehicle_type_id":"4","last_reported":1743668051,"current_range_meters":13600,"station_id":"ce4bh392rcd13ifvqdm0","pricing_plan_id":"cebpf4jnsgd1na2vs0mg"},{"bike_id":"0f93957f-a521-4d14-978a-5cded8dc75b3","system_id":"levelo_inurba_marseille","lat":43.29005,"lon":5.35611,"is_reserved":false,"is_disabled":false,"rental_uris":{"android":"levelo://app?vid=0f93957f-a521-4d14-978a-5cded8dc75b3","ios":"levelo://app?vid=0f93957f-a521-4d14-978a-5cded8dc75b3"},"vehicle_type_id":"4","last_reported":1743668051,"current_range_meters":13600,"station_id":"ce4bhb92rcd13ifvqen0","pricing_plan_id":"cebpf4jnsgd1na2vs0mg"},{"bike_id":"1e48b422-20d1-48d6-8d55-b423257d66ce","system_id":"levelo_inurba_marseille","lat":43.28725,"lon":5.37936,"is_reserved":false,"is_disabled":false,"rental_uris":{"android":"levelo://app?vid=1e48b422-20d1-48d6-8d55-b423257d66ce","ios":"levelo://app?vid=1e48b422-20d1-48d6-8d55-b423257d66ce"},"vehicle_type_id":"4","last_reported":1743668051,"current_range_meters":14000,"station_id":"ce4bh9p2rcd13ifvqec0","pricing_plan_id":"cebpf4jnsgd1na2vs0mg"},{"bike_id":"13a24fcc-8048-441c-b975-f73376da5d57","system_id":"levelo_inurba_marseille","lat":43.2872,"lon":5.37916,"is_reserved":false,"is_disabled":false,"rental_uris":{"android":"levelo://app?vid=13a24fcc-8048-441c-b975-f73376da5d57","ios":"levelo://app?vid=13a24fcc-8048-441c-b975-f73376da5d57"},"vehicle_type_id":"4","last_reported":1743668051,"current_range_meters":14000,"station_id":"ce4bh9p2rcd13ifvqec0","pricing_plan_id":"cebpf4jnsgd1na2vs0mg"},{"bike_id":"6a460605-a1a5-4a46-a586-c3b768b3064f","system_id":"levelo_inurba_marseille","lat":43.27498,"lon":5.42473,"is_reserved":false,"is_disabled":false,"rental_uris":{"android":"levelo://app?vid=6a460605-a1a5-4a46-a586-c3b768b3064f","ios":"levelo://app?vid=6a460605-a1a5-4a46-a586-c3b768b3064f"},"vehicle_type_id":"4","last_reported":1743668051,"current_range_meters":14000,"station_id":"ce4bhn92rcd13ifvqgrg","pricing_plan_id":"cebpf4jnsgd1na2vs0mg"},{"bike_id":"0aa69f03-0878-4038-837b-a34d05729b70","system_id":"levelo_inurba_marseille","lat":43.30491,"lon":5.36709,"is_reserved":false,"is_disabled":false,"rental_uris":{"android":"levelo://app?vid=0aa69f03-0878-4038-837b-a34d05729b70","ios":"levelo://app?vid=0aa69f03-0878-4038-837b-a34d05729b70"},"vehicle_type_id":"4","last_reported":1743668051,"current_range_meters":14000,"station_id":"ce4bgrp2rcd13ifvqc9g","pricing_plan_id":"cebpf4jnsgd1na2vs0mg"},{"bike_id":"91e00ce0-f4a4-45f2-a965-cb691406b41d","system_id":"levelo_inurba_marseille","lat":43.27616,"lon":5.36122,"is_reserved":false,"is_disabled":false,"rental_uris":{"android":"levelo://app?vid=91e00ce0-f4a4-45f2-a965-cb691406b41d","ios":"levelo://app?vid=91e00ce0-f4a4-45f2-a965-cb691406b41d"},"vehicle_type_id":"4","last_reported":1743668051,"current_range_meters":14000,"station_id":"ce4bgj92rcd13ifvqbe0","pricing_plan_id":"cebpf4jnsgd1na2vs0mg"},{"bike_id":"215d9bff-237e-41bf-ae0d-13774ccdfab2","system_id":"levelo_inurba_marseille","lat":43.2952,"lon":5.39038,"is_reserved":false,"is_disabled":false,"rental_uris":{"android":"levelo://app?vid=215d9bff-237e-41bf-ae0d-13774ccdfab2","ios":"levelo://app?vid=215d9bff-237e-41bf-ae0d-13774ccdfab2"},"vehicle_type_id":"4","last_reported":1743668051,"current_range_meters":13600,"station_id":"ce4bh3p2rcd13ifvqdp0","pricing_plan_id":"cebpf4jnsgd1na2vs0mg"},{"bike_id":"8e2424bb-8c50-4583-b41b-a7e00143b6c2","system_id":"levelo_inurba_marseille","lat":43.24074,"lon":5.3776,"is_reserved":false,"is_disabled":false,"rental_uris":{"android":"levelo://app?vid=8e2424bb-8c50-4583-b41b-a7e00143b6c2","ios":"levelo://app?vid=8e2424bb-8c50-4583-b41b-a7e00143b6c2"},"vehicle_type_id":"4","last_reported":1743668051,"current_range_meters":14000,"station_id":"ce4bhnp2rcd13ifvqgvg","pricing_plan_id":"cebpf4jnsgd1na2vs0mg"},{"bike_id":"841946bd-6940-4794-9af4-41cbe287891a","system_id":"levelo_inurba_marseille","lat":43.27379,"lon":5.36273,"is_reserved":false,"is_disabled":false,"rental_uris":{"android":"levelo://app?vid=841946bd-6940-4794-9af4-41cbe287891a","ios":"levelo://app?vid=841946bd-6940-4794-9af4-41cbe287891a"},"vehicle_type_id":"4","last_reported":1743668051,"current_range_meters":14000,"station_id":"ce4bhbh2rcd13ifvqeo0","pricing_plan_id":"cebpf4jnsgd1na2vs0mg"},{"bike_id":"d5efcd13-9084-4a44-95bc-d0283a96f497","system_id":"levelo_inurba_marseille","lat":43.25726,"lon":5.41108,"is_reserved":false,"is_disabled":false,"rental_uris":{"android":"levelo://app?vid=d5efcd13-9084-4a44-95bc-d0283a96f497","ios":"levelo://app?vid=d5efcd13-9084-4a44-95bc-d0283a96f497"},"vehicle_type_id":"4","last_reported":1743668051,"current_range_meters":14000,"station_id":"ce4bhkp2rcd13ifvqgd0","pricing_plan_id":"cebpf4jnsgd1na2vs0mg"},{"bike_id":"c4a572fc-9583-4451-9311-b4ecfa8ac0c2","system_id":"levelo_inurba_marseille","lat":43.30468,"lon":5.37906,"is_reserved":false,"is_disabled":false,"rental_uris":{"android":"levelo://app?vid=c4a572fc-9583-4451-9311-b4ecfa8ac0c2","ios":"levelo://app?vid=c4a572fc-9583-4451-9311-b4ecfa8ac0c2"},"vehicle_type_id":"4","last_reported":1743668051,"current_range_meters":12800,"station_id":"ce4bgup2rcd13ifvqcn0","pricing_plan_id":"cebpf4jnsgd1na2vs0mg"},{"bike_id":"a88a6d8d-9419-4680-aefe-83fb40289737","system_id":"levelo_inurba_marseille","lat":43.2679,"lon":5.39415,"is_reserved":false,"is_disabled":false,"rental_uris":{"android":"levelo://app?vid=a88a6d8d-9419-4680-aefe-83fb40289737","ios":"levelo://app?vid=a88a6d8d-9419-4680-aefe-83fb40289737"},"vehicle_type_id":"4","last_reported":1743668051,"current_range_meters":14400,"station_id":"ce4bhh12rcd13ifvqfg0","pricing_plan_id":"cebpf4jnsgd1na2vs0mg"},{"bike_id":"47008afc-3b0b-4824-94d0-cd29b8da4e48","system_id":"levelo_inurba_marseille","lat":43.29886,"lon":5.3652,"is_reserved":false,"is_disabled":false,"rental_uris":{"android":"levelo://app?vid=47008afc-3b0b-4824-94d0-cd29b8da4e48","ios":"levelo://app?vid=47008afc-3b0b-4824-94d0-cd29b8da4e48"},"vehicle_type_id":"4","last_reported":1743668051,"current_range_meters":14400,"station_id":"ce4bgrh2rcd13ifvqc8g","pricing_plan_id":"cebpf4jnsgd1na2vs0mg"},{"bike_id":"22b8702c-0dfe-451a-841a-e968657038a3","system_id":"levelo_inurba_marseille","lat":43.32493,"lon":5.36572,"is_reserved":false,"is_disabled":false,"rental_uris":{"android":"levelo://app?vid=22b8702c-0dfe-451a-841a-e968657038a3","ios":"levelo://app?vid=22b8702c-0dfe-451a-841a-e968657038a3"},"vehicle_type_id":"4","last_reported":1743668051,"current_range_meters":14400,"station_id":"ce4bhs12rcd13ifvqhvg","pricing_plan_id":"cebpf4jnsgd1na2vs0mg"},{"bike_id":"36c04240-3a35-4919-b3b1-da37b44e1e8f","system_id":"levelo_inurba_marseille","lat":43.27374,"lon":5.36259,"is_reserved":false,"is_disabled":false,"rental_uris":{"android":"levelo://app?vid=36c04240-3a35-4919-b3b1-da37b44e1e8f","ios":"levelo://app?vid=36c04240-3a35-4919-b3b1-da37b44e1e8f"},"vehicle_type_id":"4","last_reported":1743668051,"current_range_meters":14000,"station_id":"ce4bhbh2rcd13ifvqeo0","pricing_plan_id":"cebpf4jnsgd1na2vs0mg"},{"bike_id":"a8f68bb3-93d5-4e8f-b698-b0cf332cdff9","system_id":"levelo_inurba_marseille","lat":43.23145,"lon":5.43705,"is_reserved":false,"is_disabled":false,"rental_uris":{"android":"levelo://app?vid=a8f68bb3-93d5-4e8f-b698-b0cf332cdff9","ios":"levelo://app?vid=a8f68bb3-93d5-4e8f-b698-b0cf332cdff9"},"vehicle_type_id":"4","last_reported":1743668051,"current_range_meters":14400,"station_id":"ce4bhmp2rcd13ifvqgog","pricing_plan_id":"cebpf4jnsgd1na2vs0mg"},{"bike_id":"63139285-137c-4e8d-8e95-6c2a275f8333","system_id":"levelo_inurba_marseille","lat":43.32122,"lon":5.3678,"is_reserved":false,"is_disabled":false,"rental_uris":{"android":"levelo://app?vid=63139285-137c-4e8d-8e95-6c2a275f8333","ios":"levelo://app?vid=63139285-137c-4e8d-8e95-6c2a275f8333"},"vehicle_type_id":"4","last_reported":1743668051,"current_range_meters":14400,"station_id":"ce4bhrh2rcd13ifvqhug","pricing_plan_id":"cebpf4jnsgd1na2vs0mg"},{"bike_id":"b7c30abf-03fd-4a19-b99f-e3c7d91f3380","system_id":"levelo_inurba_marseille","lat":43.27971,"lon":5.38734,"is_reserved":false,"is_disabled":false,"rental_uris":{"android":"levelo://app?vid=b7c30abf-03fd-4a19-b99f-e3c7d91f3380","ios":"levelo://app?vid=b7c30abf-03fd-4a19-b99f-e3c7d91f3380"},"vehicle_type_id":"4","last_reported":1743668051,"current_range_meters":14400,"station_id":"ce4bhg12rcd13ifvqf80","pricing_plan_id":"cebpf4jnsgd1na2vs0mg"},{"bike_id":"4dc2e017-2338-4c8e-8c49-115d78626747","system_id":"levelo_inurba_marseille","lat":43.307313,"lon":5.424492,"is_reserved":false,"is_disabled":false,"rental_uris":{"android":"levelo://app?vid=4dc2e017-2338-4c8e-8c49-115d78626747","ios":"levelo://app?vid=4dc2e017-2338-4c8e-8c49-115d78626747"},"vehicle_type_id":"4","last_reported":1743668051,"current_range_meters":14400,"station_id":"st_cvj6ca6bvosntc0bfgr0","pricing_plan_id":"cebpf4jnsgd1na2vs0mg"},{"bike_id":"a6303451-5b45-435c-bf0e-748f94cc010d","system_id":"levelo_inurba_marseille","lat":43.231881,"lon":5.355518,"is_reserved":false,"is_disabled":false,"rental_uris":{"android":"levelo://app?vid=a6303451-5b45-435c-bf0e-748f94cc010d","ios":"levelo://app?vid=a6303451-5b45-435c-bf0e-748f94cc010d"},"vehicle_type_id":"4","last_reported":1743668051,"current_range_meters":14800,"station_id":"ce4bhu92rcd13ifvqi70","pricing_plan_id":"cebpf4jnsgd1na2vs0mg"},{"bike_id":"ac210117-acb3-488a-84a3-c20745564cb0","system_id":"levelo_inurba_marseille","lat":43.29534,"lon":5.39045,"is_reserved":false,"is_disabled":false,"rental_uris":{"android":"levelo://app?vid=ac210117-acb3-488a-84a3-c20745564cb0","ios":"levelo://app?vid=ac210117-acb3-488a-84a3-c20745564cb0"},"vehicle_type_id":"4","last_reported":1743668051,"current_range_meters":14400,"station_id":"ce4bh3p2rcd13ifvqdp0","pricing_plan_id":"cebpf4jnsgd1na2vs0mg"},{"bike_id":"a0cbdfe9-cdc8-4df0-890d-ff752edb70eb","system_id":"levelo_inurba_marseille","lat":43.30955,"lon":5.39044,"is_reserved":false,"is_disabled":false,"rental_uris":{"android":"levelo://app?vid=a0cbdfe9-cdc8-4df0-890d-ff752edb70eb","ios":"levelo://app?vid=a0cbdfe9-cdc8-4df0-890d-ff752edb70eb"},"vehicle_type_id":"4","last_reported":1743668051,"current_range_meters":14800,"station_id":"ce4bgup2rcd13ifvqco0","pricing_plan_id":"cebpf4jnsgd1na2vs0mg"},{"bike_id":"8f86bb90-b294-4048-b2fb-c228dc101b21","system_id":"levelo_inurba_marseille","lat":43.31406,"lon":5.36653,"is_reserved":false,"is_disabled":false,"rental_uris":{"android":"levelo://app?vid=8f86bb90-b294-4048-b2fb-c228dc101b21","ios":"levelo://app?vid=8f86bb90-b294-4048-b2fb-c228dc101b21"},"vehicle_type_id":"4","last_reported":1743668051,"current_range_meters":14800,"station_id":"","pricing_plan_id":"cebpf4jnsgd1na2vs0mg"},{"bike_id":"a3f08ef1-7d5b-471d-9709-34f8f33e3e4f","system_id":"levelo_inurba_marseille","lat":43.264922,"lon":5.395478,"is_reserved":false,"is_disabled":false,"rental_uris":{"android":"levelo://app?vid=a3f08ef1-7d5b-471d-9709-34f8f33e3e4f","ios":"levelo://app?vid=a3f08ef1-7d5b-471d-9709-34f8f33e3e4f"},"vehicle_type_id":"4","last_reported":1743668051,"current_range_meters":14800,"station_id":"ce4bhi12rcd13ifvqfq0","pricing_plan_id":"cebpf4jnsgd1na2vs0mg"},{"bike_id":"f1e5f20d-e5bb-4349-9a72-f7ab8a004414","system_id":"levelo_inurba_marseille","lat":43.30299,"lon":5.40409,"is_reserved":false,"is_disabled":true,"rental_uris":{"android":"levelo://app?vid=f1e5f20d-e5bb-4349-9a72-f7ab8a004414","ios":"levelo://app?vid=f1e5f20d-e5bb-4349-9a72-f7ab8a004414"},"vehicle_type_id":"4","last_reported":1743668051,"current_range_meters":14800,"station_id":"ce4bh012rcd13ifvqd10","pricing_plan_id":"cebpf4jnsgd1na2vs0mg"},{"bike_id":"5f46717b-05d1-4f34-a220-8087932d755b","system_id":"levelo_inurba_marseille","lat":43.30083,"lon":5.36954,"is_reserved":false,"is_disabled":false,"rental_uris":{"android":"levelo://app?vid=5f46717b-05d1-4f34-a220-8087932d755b","ios":"levelo://app?vid=5f46717b-05d1-4f34-a220-8087932d755b"},"vehicle_type_id":"4","last_reported":1743668051,"current_range_meters":14800,"station_id":"","pricing_plan_id":"cebpf4jnsgd1na2vs0mg"},{"bike_id":"1c98b99c-34fc-4e0b-a00c-d64c82ae3564","system_id":"levelo_inurba_marseille","lat":43.30551,"lon":5.3654,"is_reserved":false,"is_disabled":false,"rental_uris":{"android":"levelo://app?vid=1c98b99c-34fc-4e0b-a00c-d64c82ae3564","ios":"levelo://app?vid=1c98b99c-34fc-4e0b-a00c-d64c82ae3564"},"vehicle_type_id":"4","last_reported":1743668051,"current_range_meters":15200,"station_id":"ce4bgs12rcd13ifvqcag","pricing_plan_id":"cebpf4jnsgd1na2vs0mg"},{"bike_id":"4c6c26e9-c2c0-42ca-bbad-340608c64a5a","system_id":"levelo_inurba_marseille","lat":43.3135,"lon":5.36767,"is_reserved":false,"is_disabled":false,"rental_uris":{"android":"levelo://app?vid=4c6c26e9-c2c0-42ca-bbad-340608c64a5a","ios":"levelo://app?vid=4c6c26e9-c2c0-42ca-bbad-340608c64a5a"},"vehicle_type_id":"4","last_reported":1743668051,"current_range_meters":15200,"station_id":"ce4bgr92rcd13ifvqc6g","pricing_plan_id":"cebpf4jnsgd1na2vs0mg"},{"bike_id":"3cf36ae3-759c-46c8-a090-0eb77d348fb3","system_id":"levelo_inurba_marseille","lat":43.28392,"lon":5.37545,"is_reserved":false,"is_disabled":false,"rental_uris":{"android":"levelo://app?vid=3cf36ae3-759c-46c8-a090-0eb77d348fb3","ios":"levelo://app?vid=3cf36ae3-759c-46c8-a090-0eb77d348fb3"},"vehicle_type_id":"4","last_reported":1743668051,"current_range_meters":15200,"station_id":"ce4bh412rcd13ifvqds0","pricing_plan_id":"cebpf4jnsgd1na2vs0mg"},{"bike_id":"4be18bc7-d72e-4500-a6db-3042a6924001","system_id":"levelo_inurba_marseille","lat":43.29791,"lon":5.38129,"is_reserved":false,"is_disabled":false,"rental_uris":{"android":"levelo://app?vid=4be18bc7-d72e-4500-a6db-3042a6924001","ios":"levelo://app?vid=4be18bc7-d72e-4500-a6db-3042a6924001"},"vehicle_type_id":"4","last_reported":1743668051,"current_range_meters":15200,"station_id":"ce4bgip2rcd13ifvqbb0","pricing_plan_id":"cebpf4jnsgd1na2vs0mg"},{"bike_id":"0da307f0-a737-4f3f-8786-4dd451d57e79","system_id":"levelo_inurba_marseille","lat":43.3083,"lon":5.36758,"is_reserved":false,"is_disabled":false,"rental_uris":{"android":"levelo://app?vid=0da307f0-a737-4f3f-8786-4dd451d57e79","ios":"levelo://app?vid=0da307f0-a737-4f3f-8786-4dd451d57e79"},"vehicle_type_id":"4","last_reported":1743668051,"current_range_meters":16000,"station_id":"","pricing_plan_id":"cebpf4jnsgd1na2vs0mg"},{"bike_id":"9f3ff78f-1f2f-4a2e-b6cd-758555277ff0","system_id":"levelo_inurba_marseille","lat":43.25112,"lon":5.40333,"is_reserved":false,"is_disabled":false,"rental_uris":{"android":"levelo://app?vid=9f3ff78f-1f2f-4a2e-b6cd-758555277ff0","ios":"levelo://app?vid=9f3ff78f-1f2f-4a2e-b6cd-758555277ff0"},"vehicle_type_id":"4","last_reported":1743668051,"current_range_meters":15200,"station_id":"ce4bhlh2rcd13ifvqgig","pricing_plan_id":"cebpf4jnsgd1na2vs0mg"},{"bike_id":"1cbe7f82-dfcf-424c-a807-824623af4732","system_id":"levelo_inurba_marseille","lat":43.24066,"lon":5.37766,"is_reserved":false,"is_disabled":false,"rental_uris":{"android":"levelo://app?vid=1cbe7f82-dfcf-424c-a807-824623af4732","ios":"levelo://app?vid=1cbe7f82-dfcf-424c-a807-824623af4732"},"vehicle_type_id":"4","last_reported":1743668051,"current_range_meters":16000,"station_id":"ce4bhnp2rcd13ifvqgvg","pricing_plan_id":"cebpf4jnsgd1na2vs0mg"},{"bike_id":"e82bc24b-9cdc-495b-a5d4-b8706dc4f90c","system_id":"levelo_inurba_marseille","lat":43.31346,"lon":5.36712,"is_reserved":false,"is_disabled":false,"rental_uris":{"android":"levelo://app?vid=e82bc24b-9cdc-495b-a5d4-b8706dc4f90c","ios":"levelo://app?vid=e82bc24b-9cdc-495b-a5d4-b8706dc4f90c"},"vehicle_type_id":"4","last_reported":1743668051,"current_range_meters":16000,"station_id":"ce4bgr92rcd13ifvqc6g","pricing_plan_id":"cebpf4jnsgd1na2vs0mg"},{"bike_id":"8ab04e8f-c432-41cc-b5c5-8fe666f18f9d","system_id":"levelo_inurba_marseille","lat":43.30528,"lon":5.36703,"is_reserved":false,"is_disabled":false,"rental_uris":{"android":"levelo://app?vid=8ab04e8f-c432-41cc-b5c5-8fe666f18f9d","ios":"levelo://app?vid=8ab04e8f-c432-41cc-b5c5-8fe666f18f9d"},"vehicle_type_id":"4","last_reported":1743668051,"current_range_meters":16000,"station_id":"ce4bgrp2rcd13ifvqc9g","pricing_plan_id":"cebpf4jnsgd1na2vs0mg"},{"bike_id":"d51c8d57-4afe-42bb-8094-738edcbcb1a1","system_id":"levelo_inurba_marseille","lat":43.2835,"lon":5.3864,"is_reserved":false,"is_disabled":false,"rental_uris":{"android":"levelo://app?vid=d51c8d57-4afe-42bb-8094-738edcbcb1a1","ios":"levelo://app?vid=d51c8d57-4afe-42bb-8094-738edcbcb1a1"},"vehicle_type_id":"4","last_reported":1743668051,"current_range_meters":16000,"station_id":"ce4bh492rcd13ifvqdvg","pricing_plan_id":"cebpf4jnsgd1na2vs0mg"},{"bike_id":"639a96a3-0003-45fd-b4c6-1a8b9975d9c4","system_id":"levelo_inurba_marseille","lat":43.25929,"lon":5.40905,"is_reserved":false,"is_disabled":false,"rental_uris":{"android":"levelo://app?vid=639a96a3-0003-45fd-b4c6-1a8b9975d9c4","ios":"levelo://app?vid=639a96a3-0003-45fd-b4c6-1a8b9975d9c4"},"vehicle_type_id":"4","last_reported":1743668051,"current_range_meters":16000,"station_id":"ce4bhm92rcd13ifvqglg","pricing_plan_id":"cebpf4jnsgd1na2vs0mg"},{"bike_id":"67741621-ecbb-4d51-b2bf-5f620a73deb4","system_id":"levelo_inurba_marseille","lat":43.26207,"lon":5.37923,"is_reserved":false,"is_disabled":true,"rental_uris":{"android":"levelo://app?vid=67741621-ecbb-4d51-b2bf-5f620a73deb4","ios":"levelo://app?vid=67741621-ecbb-4d51-b2bf-5f620a73deb4"},"vehicle_type_id":"4","last_reported":1743668051,"current_range_meters":16000,"station_id":"ce4bhjp2rcd13ifvqg90","pricing_plan_id":"cebpf4jnsgd1na2vs0mg"},{"bike_id":"e9947125-e4b1-4977-bee9-fb031515997e","system_id":"levelo_inurba_marseille","lat":43.24541,"lon":5.39545,"is_reserved":false,"is_disabled":false,"rental_uris":{"android":"levelo://app?vid=e9947125-e4b1-4977-bee9-fb031515997e","ios":"levelo://app?vid=e9947125-e4b1-4977-bee9-fb031515997e"},"vehicle_type_id":"4","last_reported":1743668051,"current_range_meters":16000,"station_id":"ce4bhlp2rcd13ifvqgjg","pricing_plan_id":"cebpf4jnsgd1na2vs0mg"},{"bike_id":"d0c4dc3e-5142-4982-82de-ad5232544f4e","system_id":"levelo_inurba_marseille","lat":43.301575,"lon":5.393214,"is_reserved":false,"is_disabled":false,"rental_uris":{"android":"levelo://app?vid=d0c4dc3e-5142-4982-82de-ad5232544f4e","ios":"levelo://app?vid=d0c4dc3e-5142-4982-82de-ad5232544f4e"},"vehicle_type_id":"4","last_reported":1743668051,"current_range_meters":16000,"station_id":"ce4bha92rcd13ifvqeh0","pricing_plan_id":"cebpf4jnsgd1na2vs0mg"},{"bike_id":"16e30be1-6821-4531-b2d3-8709a32f4f02","system_id":"levelo_inurba_marseille","lat":43.30473,"lon":5.379195,"is_reserved":false,"is_disabled":false,"rental_uris":{"android":"levelo://app?vid=16e30be1-6821-4531-b2d3-8709a32f4f02","ios":"levelo://app?vid=16e30be1-6821-4531-b2d3-8709a32f4f02"},"vehicle_type_id":"4","last_reported":1743668051,"current_range_meters":16400,"station_id":"ce4bgup2rcd13ifvqcn0","pricing_plan_id":"cebpf4jnsgd1na2vs0mg"},{"bike_id":"105e98cd-a98a-4daf-a9df-78e469bd932b","system_id":"levelo_inurba_marseille","lat":43.32492,"lon":5.36576,"is_reserved":false,"is_disabled":true,"rental_uris":{"android":"levelo://app?vid=105e98cd-a98a-4daf-a9df-78e469bd932b","ios":"levelo://app?vid=105e98cd-a98a-4daf-a9df-78e469bd932b"},"vehicle_type_id":"4","last_reported":1743668051,"current_range_meters":16400,"station_id":"ce4bhs12rcd13ifvqhvg","pricing_plan_id":"cebpf4jnsgd1na2vs0mg"},{"bike_id":"5908285b-b0e5-43e6-bda7-7ad27bf71349","system_id":"levelo_inurba_marseille","lat":43.29268,"lon":5.3761,"is_reserved":false,"is_disabled":false,"rental_uris":{"android":"levelo://app?vid=5908285b-b0e5-43e6-bda7-7ad27bf71349","ios":"levelo://app?vid=5908285b-b0e5-43e6-bda7-7ad27bf71349"},"vehicle_type_id":"4","last_reported":1743668051,"current_range_meters":16400,"station_id":"ce4bgi12rcd13ifvqb80","pricing_plan_id":"cebpf4jnsgd1na2vs0mg"},{"bike_id":"9d7b4579-2f49-4625-9d98-42fe0dd225fc","system_id":"levelo_inurba_marseille","lat":43.30213,"lon":5.41908,"is_reserved":false,"is_disabled":false,"rental_uris":{"android":"levelo://app?vid=9d7b4579-2f49-4625-9d98-42fe0dd225fc","ios":"levelo://app?vid=9d7b4579-2f49-4625-9d98-42fe0dd225fc"},"vehicle_type_id":"4","last_reported":1743668051,"current_range_meters":16400,"station_id":"","pricing_plan_id":"cebpf4jnsgd1na2vs0mg"},{"bike_id":"0ce365e9-190c-4da1-97d4-bbc095d5dcc2","system_id":"levelo_inurba_marseille","lat":43.31311,"lon":5.36729,"is_reserved":false,"is_disabled":false,"rental_uris":{"android":"levelo://app?vid=0ce365e9-190c-4da1-97d4-bbc095d5dcc2","ios":"levelo://app?vid=0ce365e9-190c-4da1-97d4-bbc095d5dcc2"},"vehicle_type_id":"4","last_reported":1743668051,"current_range_meters":16400,"station_id":"ce4bgr92rcd13ifvqc6g","pricing_plan_id":"cebpf4jnsgd1na2vs0mg"},{"bike_id":"7dd3d695-940a-4e08-b82e-e0039b952e5d","system_id":"levelo_inurba_marseille","lat":43.29849,"lon":5.36288,"is_reserved":false,"is_disabled":false,"rental_uris":{"android":"levelo://app?vid=7dd3d695-940a-4e08-b82e-e0039b952e5d","ios":"levelo://app?vid=7dd3d695-940a-4e08-b82e-e0039b952e5d"},"vehicle_type_id":"4","last_reported":1743668051,"current_range_meters":16400,"station_id":"ce4bgpp2rcd13ifvqc3g","pricing_plan_id":"cebpf4jnsgd1na2vs0mg"},{"bike_id":"4518a972-00d3-482f-9c17-91f410acf9f0","system_id":"levelo_inurba_marseille","lat":43.3089,"lon":5.37175,"is_reserved":false,"is_disabled":false,"rental_uris":{"android":"levelo://app?vid=4518a972-00d3-482f-9c17-91f410acf9f0","ios":"levelo://app?vid=4518a972-00d3-482f-9c17-91f410acf9f0"},"vehicle_type_id":"4","last_reported":1743668051,"current_range_meters":16400,"station_id":"ce4bguh2rcd13ifvqckg","pricing_plan_id":"cebpf4jnsgd1na2vs0mg"},{"bike_id":"b9fd7ae2-adc0-4039-936b-43e44aa2e508","system_id":"levelo_inurba_marseille","lat":43.26031,"lon":5.37547,"is_reserved":false,"is_disabled":false,"rental_uris":{"android":"levelo://app?vid=b9fd7ae2-adc0-4039-936b-43e44aa2e508","ios":"levelo://app?vid=b9fd7ae2-adc0-4039-936b-43e44aa2e508"},"vehicle_type_id":"4","last_reported":1743668051,"current_range_meters":16400,"station_id":"ce4bhgh2rcd13ifvqfa0","pricing_plan_id":"cebpf4jnsgd1na2vs0mg"},{"bike_id":"416dbf46-c3b6-4144-a79a-c09d4af88311","system_id":"levelo_inurba_marseille","lat":43.30547,"lon":5.36689,"is_reserved":false,"is_disabled":false,"rental_uris":{"android":"levelo://app?vid=416dbf46-c3b6-4144-a79a-c09d4af88311","ios":"levelo://app?vid=416dbf46-c3b6-4144-a79a-c09d4af88311"},"vehicle_type_id":"4","last_reported":1743668051,"current_range_meters":16400,"station_id":"ce4bgrp2rcd13ifvqc9g","pricing_plan_id":"cebpf4jnsgd1na2vs0mg"},{"bike_id":"f308b1de-1691-437b-b2c2-f8d7eb293b8c","system_id":"levelo_inurba_marseille","lat":43.32365,"lon":5.38883,"is_reserved":false,"is_disabled":false,"rental_uris":{"android":"levelo://app?vid=f308b1de-1691-437b-b2c2-f8d7eb293b8c","ios":"levelo://app?vid=f308b1de-1691-437b-b2c2-f8d7eb293b8c"},"vehicle_type_id":"4","last_reported":1743668051,"current_range_meters":16400,"station_id":"ce4bhqp2rcd13ifvqhog","pricing_plan_id":"cebpf4jnsgd1na2vs0mg"},{"bike_id":"65c86302-8ef0-46f4-ab6e-bac7149a2865","system_id":"levelo_inurba_marseille","lat":43.321,"lon":5.36776,"is_reserved":false,"is_disabled":false,"rental_uris":{"android":"levelo://app?vid=65c86302-8ef0-46f4-ab6e-bac7149a2865","ios":"levelo://app?vid=65c86302-8ef0-46f4-ab6e-bac7149a2865"},"vehicle_type_id":"4","last_reported":1743668051,"current_range_meters":16400,"station_id":"ce4bhrh2rcd13ifvqhug","pricing_plan_id":"cebpf4jnsgd1na2vs0mg"},{"bike_id":"a0832530-2cf9-4f19-a63d-c5be278c0831","system_id":"levelo_inurba_marseille","lat":43.33609,"lon":5.41038,"is_reserved":false,"is_disabled":false,"rental_uris":{"android":"levelo://app?vid=a0832530-2cf9-4f19-a63d-c5be278c0831","ios":"levelo://app?vid=a0832530-2cf9-4f19-a63d-c5be278c0831"},"vehicle_type_id":"4","last_reported":1743668051,"current_range_meters":16800,"station_id":"ce4bhqh2rcd13ifvqhmg","pricing_plan_id":"cebpf4jnsgd1na2vs0mg"},{"bike_id":"fb348b09-6abb-47a4-a266-91f2eeaee291","system_id":"levelo_inurba_marseille","lat":43.32108,"lon":5.36776,"is_reserved":false,"is_disabled":false,"rental_uris":{"android":"levelo://app?vid=fb348b09-6abb-47a4-a266-91f2eeaee291","ios":"levelo://app?vid=fb348b09-6abb-47a4-a266-91f2eeaee291"},"vehicle_type_id":"4","last_reported":1743668051,"current_range_meters":16800,"station_id":"ce4bhrh2rcd13ifvqhug","pricing_plan_id":"cebpf4jnsgd1na2vs0mg"},{"bike_id":"11b4cfb3-f050-4609-bf5a-8f0b078f8eb2","system_id":"levelo_inurba_marseille","lat":43.29561,"lon":5.4228,"is_reserved":false,"is_disabled":false,"rental_uris":{"android":"levelo://app?vid=11b4cfb3-f050-4609-bf5a-8f0b078f8eb2","ios":"levelo://app?vid=11b4cfb3-f050-4609-bf5a-8f0b078f8eb2"},"vehicle_type_id":"4","last_reported":1743668051,"current_range_meters":16800,"station_id":"ce4bhph2rcd13ifvqhdg","pricing_plan_id":"cebpf4jnsgd1na2vs0mg"},{"bike_id":"792f8f10-0c80-44da-a67f-82e8db1bc71b","system_id":"levelo_inurba_marseille","lat":43.26566,"lon":5.39017,"is_reserved":false,"is_disabled":false,"rental_uris":{"android":"levelo://app?vid=792f8f10-0c80-44da-a67f-82e8db1bc71b","ios":"levelo://app?vid=792f8f10-0c80-44da-a67f-82e8db1bc71b"},"vehicle_type_id":"4","last_reported":1743668051,"current_range_meters":16800,"station_id":"ce4bhe12rcd13ifvqf30","pricing_plan_id":"cebpf4jnsgd1na2vs0mg"},{"bike_id":"5ae1c10f-57be-40cd-bda1-9af5c5b20118","system_id":"levelo_inurba_marseille","lat":43.28483,"lon":5.38526,"is_reserved":false,"is_disabled":false,"rental_uris":{"android":"levelo://app?vid=5ae1c10f-57be-40cd-bda1-9af5c5b20118","ios":"levelo://app?vid=5ae1c10f-57be-40cd-bda1-9af5c5b20118"},"vehicle_type_id":"4","last_reported":1743668051,"current_range_meters":16800,"station_id":"ce4bh8p2rcd13ifvqeb0","pricing_plan_id":"cebpf4jnsgd1na2vs0mg"},{"bike_id":"dcb844d7-0299-4861-813c-aa91eb67efa8","system_id":"levelo_inurba_marseille","lat":43.24079,"lon":5.37747,"is_reserved":false,"is_disabled":false,"rental_uris":{"android":"levelo://app?vid=dcb844d7-0299-4861-813c-aa91eb67efa8","ios":"levelo://app?vid=dcb844d7-0299-4861-813c-aa91eb67efa8"},"vehicle_type_id":"4","last_reported":1743668051,"current_range_meters":16800,"station_id":"ce4bhnp2rcd13ifvqgvg","pricing_plan_id":"cebpf4jnsgd1na2vs0mg"},{"bike_id":"c0e36771-dbe7-477f-9122-f8476f7b7779","system_id":"levelo_inurba_marseille","lat":43.32352,"lon":5.36754,"is_reserved":false,"is_disabled":false,"rental_uris":{"android":"levelo://app?vid=c0e36771-dbe7-477f-9122-f8476f7b7779","ios":"levelo://app?vid=c0e36771-dbe7-477f-9122-f8476f7b7779"},"vehicle_type_id":"4","last_reported":1743668051,"current_range_meters":16800,"station_id":"ce4bhsh2rcd13ifvqi2g","pricing_plan_id":"cebpf4jnsgd1na2vs0mg"},{"bike_id":"10dba690-16cc-4e3a-8cf1-837f9f6eb283","system_id":"levelo_inurba_marseille","lat":43.30135,"lon":5.37408,"is_reserved":false,"is_disabled":false,"rental_uris":{"android":"levelo://app?vid=10dba690-16cc-4e3a-8cf1-837f9f6eb283","ios":"levelo://app?vid=10dba690-16cc-4e3a-8cf1-837f9f6eb283"},"vehicle_type_id":"4","last_reported":1743668051,"current_range_meters":16800,"station_id":"ce4bgs92rcd13ifvqcc0","pricing_plan_id":"cebpf4jnsgd1na2vs0mg"},{"bike_id":"e6b69cd2-f965-4a12-9e02-6f28a269f9f9","system_id":"levelo_inurba_marseille","lat":43.230532,"lon":5.354919,"is_reserved":false,"is_disabled":false,"rental_uris":{"android":"levelo://app?vid=e6b69cd2-f965-4a12-9e02-6f28a269f9f9","ios":"levelo://app?vid=e6b69cd2-f965-4a12-9e02-6f28a269f9f9"},"vehicle_type_id":"4","last_reported":1743668051,"current_range_meters":17200,"station_id":"cpo3342slgdg3j2ifvpg","pricing_plan_id":"cebpf4jnsgd1na2vs0mg"},{"bike_id":"0df0e7a9-81b2-41f8-8fc9-9278b36af5a7","system_id":"levelo_inurba_marseille","lat":43.25085,"lon":5.39522,"is_reserved":false,"is_disabled":false,"rental_uris":{"android":"levelo://app?vid=0df0e7a9-81b2-41f8-8fc9-9278b36af5a7","ios":"levelo://app?vid=0df0e7a9-81b2-41f8-8fc9-9278b36af5a7"},"vehicle_type_id":"4","last_reported":1743668051,"current_range_meters":17200,"station_id":"ce4bhm12rcd13ifvqgkg","pricing_plan_id":"cebpf4jnsgd1na2vs0mg"},{"bike_id":"0ddde6b8-0881-44bb-aa7b-31adc8f1bbaf","system_id":"levelo_inurba_marseille","lat":43.3055,"lon":5.36542,"is_reserved":false,"is_disabled":false,"rental_uris":{"android":"levelo://app?vid=0ddde6b8-0881-44bb-aa7b-31adc8f1bbaf","ios":"levelo://app?vid=0ddde6b8-0881-44bb-aa7b-31adc8f1bbaf"},"vehicle_type_id":"4","last_reported":1743668051,"current_range_meters":17200,"station_id":"ce4bgs12rcd13ifvqcag","pricing_plan_id":"cebpf4jnsgd1na2vs0mg"},{"bike_id":"b45f2408-15cc-4e0b-9266-09135399cd5c","system_id":"levelo_inurba_marseille","lat":43.302736,"lon":5.37709,"is_reserved":false,"is_disabled":false,"rental_uris":{"android":"levelo://app?vid=b45f2408-15cc-4e0b-9266-09135399cd5c","ios":"levelo://app?vid=b45f2408-15cc-4e0b-9266-09135399cd5c"},"vehicle_type_id":"4","last_reported":1743668051,"current_range_meters":16800,"station_id":"ce4bguh2rcd13ifvqcj0","pricing_plan_id":"cebpf4jnsgd1na2vs0mg"},{"bike_id":"8b7ab987-1a63-45d2-a9ee-e6bc0b756ad5","system_id":"levelo_inurba_marseille","lat":43.24084,"lon":5.37748,"is_reserved":false,"is_disabled":false,"rental_uris":{"android":"levelo://app?vid=8b7ab987-1a63-45d2-a9ee-e6bc0b756ad5","ios":"levelo://app?vid=8b7ab987-1a63-45d2-a9ee-e6bc0b756ad5"},"vehicle_type_id":"4","last_reported":1743668051,"current_range_meters":17200,"station_id":"ce4bhnp2rcd13ifvqgvg","pricing_plan_id":"cebpf4jnsgd1na2vs0mg"},{"bike_id":"415e78bb-9473-4ace-87dd-2f5d3cbda86c","system_id":"levelo_inurba_marseille","lat":43.28698,"lon":5.37965,"is_reserved":false,"is_disabled":true,"rental_uris":{"android":"levelo://app?vid=415e78bb-9473-4ace-87dd-2f5d3cbda86c","ios":"levelo://app?vid=415e78bb-9473-4ace-87dd-2f5d3cbda86c"},"vehicle_type_id":"4","last_reported":1743668051,"current_range_meters":17200,"station_id":"ce4bh9p2rcd13ifvqec0","pricing_plan_id":"cebpf4jnsgd1na2vs0mg"},{"bike_id":"9c734a31-381e-4746-8814-1d1fc33edac4","system_id":"levelo_inurba_marseille","lat":43.33024,"lon":5.39038,"is_reserved":false,"is_disabled":false,"rental_uris":{"android":"levelo://app?vid=9c734a31-381e-4746-8814-1d1fc33edac4","ios":"levelo://app?vid=9c734a31-381e-4746-8814-1d1fc33edac4"},"vehicle_type_id":"4","last_reported":1743668051,"current_range_meters":17200,"station_id":"ce4bhr92rcd13ifvqhrg","pricing_plan_id":"cebpf4jnsgd1na2vs0mg"},{"bike_id":"fb4cfac6-d54b-4f49-96fe-f3cb5cad9b95","system_id":"levelo_inurba_marseille","lat":43.30569,"lon":5.36485,"is_reserved":false,"is_disabled":false,"rental_uris":{"android":"levelo://app?vid=fb4cfac6-d54b-4f49-96fe-f3cb5cad9b95","ios":"levelo://app?vid=fb4cfac6-d54b-4f49-96fe-f3cb5cad9b95"},"vehicle_type_id":"4","last_reported":1743668051,"current_range_meters":17200,"station_id":"ce4bgs12rcd13ifvqcag","pricing_plan_id":"cebpf4jnsgd1na2vs0mg"},{"bike_id":"f2386129-2651-4419-945f-03c95fb411b8","system_id":"levelo_inurba_marseille","lat":43.29514,"lon":5.39008,"is_reserved":false,"is_disabled":false,"rental_uris":{"android":"levelo://app?vid=f2386129-2651-4419-945f-03c95fb411b8","ios":"levelo://app?vid=f2386129-2651-4419-945f-03c95fb411b8"},"vehicle_type_id":"4","last_reported":1743668051,"current_range_meters":17200,"station_id":"ce4bh3p2rcd13ifvqdp0","pricing_plan_id":"cebpf4jnsgd1na2vs0mg"},{"bike_id":"01b0a9ad-3831-4655-b527-575598803827","system_id":"levelo_inurba_marseille","lat":43.26676,"lon":5.38259,"is_reserved":false,"is_disabled":false,"rental_uris":{"android":"levelo://app?vid=01b0a9ad-3831-4655-b527-575598803827","ios":"levelo://app?vid=01b0a9ad-3831-4655-b527-575598803827"},"vehicle_type_id":"4","last_reported":1743668051,"current_range_meters":17200,"station_id":"ce4bhg92rcd13ifvqf90","pricing_plan_id":"cebpf4jnsgd1na2vs0mg"},{"bike_id":"229ba492-02d9-4033-b935-7f43b75a8976","system_id":"levelo_inurba_marseille","lat":43.30554,"lon":5.36537,"is_reserved":false,"is_disabled":false,"rental_uris":{"android":"levelo://app?vid=229ba492-02d9-4033-b935-7f43b75a8976","ios":"levelo://app?vid=229ba492-02d9-4033-b935-7f43b75a8976"},"vehicle_type_id":"4","last_reported":1743668051,"current_range_meters":17200,"station_id":"ce4bgs12rcd13ifvqcag","pricing_plan_id":"cebpf4jnsgd1na2vs0mg"},{"bike_id":"df8a1bae-dad0-4014-ba11-9263cbdbd8c9","system_id":"levelo_inurba_marseille","lat":43.24074,"lon":5.37756,"is_reserved":false,"is_disabled":false,"rental_uris":{"android":"levelo://app?vid=df8a1bae-dad0-4014-ba11-9263cbdbd8c9","ios":"levelo://app?vid=df8a1bae-dad0-4014-ba11-9263cbdbd8c9"},"vehicle_type_id":"4","last_reported":1743668051,"current_range_meters":17200,"station_id":"ce4bhnp2rcd13ifvqgvg","pricing_plan_id":"cebpf4jnsgd1na2vs0mg"},{"bike_id":"33844c88-7ac4-4578-a73f-de0664d6d179","system_id":"levelo_inurba_marseille","lat":43.255825,"lon":5.382373,"is_reserved":false,"is_disabled":false,"rental_uris":{"android":"levelo://app?vid=33844c88-7ac4-4578-a73f-de0664d6d179","ios":"levelo://app?vid=33844c88-7ac4-4578-a73f-de0664d6d179"},"vehicle_type_id":"4","last_reported":1743668051,"current_range_meters":16800,"station_id":"ce4bhih2rcd13ifvqfs0","pricing_plan_id":"cebpf4jnsgd1na2vs0mg"},{"bike_id":"4caff8e0-340c-490f-8a5a-b26f15704f76","system_id":"levelo_inurba_marseille","lat":43.2858,"lon":5.38439,"is_reserved":false,"is_disabled":false,"rental_uris":{"android":"levelo://app?vid=4caff8e0-340c-490f-8a5a-b26f15704f76","ios":"levelo://app?vid=4caff8e0-340c-490f-8a5a-b26f15704f76"},"vehicle_type_id":"4","last_reported":1743668051,"current_range_meters":17600,"station_id":"","pricing_plan_id":"cebpf4jnsgd1na2vs0mg"},{"bike_id":"4bc3510e-a77a-4147-b9e1-23b23b2f7e9f","system_id":"levelo_inurba_marseille","lat":43.30314,"lon":5.36895,"is_reserved":false,"is_disabled":false,"rental_uris":{"android":"levelo://app?vid=4bc3510e-a77a-4147-b9e1-23b23b2f7e9f","ios":"levelo://app?vid=4bc3510e-a77a-4147-b9e1-23b23b2f7e9f"},"vehicle_type_id":"4","last_reported":1743668051,"current_range_meters":17600,"station_id":"ce4bgqh2rcd13ifvqc5g","pricing_plan_id":"cebpf4jnsgd1na2vs0mg"},{"bike_id":"e8eca314-9223-46e2-854b-bc81555c08d4","system_id":"levelo_inurba_marseille","lat":43.30544,"lon":5.36692,"is_reserved":false,"is_disabled":false,"rental_uris":{"android":"levelo://app?vid=e8eca314-9223-46e2-854b-bc81555c08d4","ios":"levelo://app?vid=e8eca314-9223-46e2-854b-bc81555c08d4"},"vehicle_type_id":"4","last_reported":1743668051,"current_range_meters":17600,"station_id":"ce4bgrp2rcd13ifvqc9g","pricing_plan_id":"cebpf4jnsgd1na2vs0mg"},