{"last_updated":1723914381,"ttl":30,"version":"2.2","data":{"bikes":[{"bike_id":"8c760463-633e-4bd4-821d-1b11ed94327f","system_id":"levelo_inurba_marseille","lat":43.312239,"lon":5.368562,"is_reserved":false,"is_disabled":false,"rental_uris":{"android":"levelo://app?vid=8c760463-633e-4bd4-821d-1b11ed94327f","ios":"levelo://app?vid=8c760463-633e-4bd4-821d-1b11ed94327f"},"vehicle_type_id":"4","last_reported":1723914381,"current_range_meters":2400,"station_id":"ce4bgl92rcd13ifvqbq0","pricing_plan_id":"cebpf4jnsgd1na2vs0mg"},{"bike_id":"4250409e-40e9-40a0-ae9d-4dfad43268dc","system_id":"levelo_inurba_marseille","lat":43.312239,"lon":5.368562,"is_reserved":false,"is_disabled":false,"rental_uris":{"android":"levelo://app?vid=4250409e-40e9-40a0-ae9d-4dfad43268dc","ios":"levelo://app?vid=4250409e-40e9-40a0-ae9d-4dfad43268dc"},"vehicle_type_id":"4","last_reported":1723914381,"current_range_meters":16400,"station_id":"ce4bgl92rcd13ifvqbq0","pricing_plan_id":"cebpf4jnsgd1na2vs0mg"},{"bike_id":"219c2f4b-c115-4c7b-9592-afd4f5f975f5","system_id":"levelo_inurba_marseille","lat":43.31485,"lon":5.37303,"is_reserved":false,"is_disabled":false,"rental_uris":{"android":"levelo://app?vid=219c2f4b-c115-4c7b-9592-afd4f5f975f5","ios":"levelo://app?vid=219c2f4b-c115-4c7b-9592-afd4f5f975f5"},"vehicle_type_id":"4","last_reported":1723914381,"current_range_meters":31200,"station_id":"","pricing_plan_id":"cebpf4jnsgd1na2vs0mg"},{"bike_id":"b5beec6d-a89d-4973-9e27-653c5c29665d","system_id":"levelo_inurba_marseille","lat":43.314811,"lon":5.373103,"is_reserved":false,"is_disabled":false,"rental_uris":{"android":"levelo://app?vid=b5beec6d-a89d-4973-9e27-653c5c29665d","ios":"levelo://app?vid=b5beec6d-a89d-4973-9e27-653c5c29665d"},"vehicle_type_id":"4","last_reported":1723914381,"current_range_meters":24800,"station_id":"ce4bgt12rcd13ifvqcd0","pricing_plan_id":"cebpf4jnsgd1na2vs0mg"},{"bike_id":"4eb7b0e0-c473-4c2f-9441-d2dbfa10207d","system_id":"levelo_inurba_marseille","lat":43.314811,"lon":5.373103,"is_reserved":false,"is_disabled":false,"rental_uris":{"android":"levelo://app?vid=4eb7b0e0-c473-4c2f-9441-d2dbfa10207d","ios":"levelo://app?vid=4eb7b0e0-c473-4c2f-9441-d2dbfa10207d"},"vehicle_type_id":"4","last_reported":1723914381,"current_range_meters":17600,"station_id":"ce4bgt12rcd13ifvqcd0","pricing_plan_id":"cebpf4jnsgd1na2vs0mg"},{"bike_id":"8b459383-07c4-43a9-8444-5624568a4592","system_id":"levelo_inurba_marseille","lat":43.314811,"lon":5.373104,"is_reserved":false,"is_disabled":false,"rental_uris":{"android":"levelo://app?vid=8b459383-07c4-43a9-8444-5624568a4592","ios":"levelo://app?vid=8b459383-07c4-43a9-8444-5624568a4592"},"vehicle_type_id":"4","last_reported":1723914381,"current_range_meters":29600,"station_id":"ce4bgt12rcd13ifvqcd0","pricing_plan_id":"cebpf4jnsgd1na2vs0mg"},{"bike_id":"d8cca32a-dbbf-4ece-86c7-15774833e029","system_id":"levelo_inurba_marseille","lat":43.31497,"lon":5.37309,"is_reserved":false,"is_disabled":false,"rental_uris":{"android":"levelo://app?vid=d8cca32a-dbbf-4ece-86c7-15774833e029","ios":"levelo://app?vid=d8cca32a-dbbf-4ece-86c7-15774833e029"},"vehicle_type_id":"4","last_reported":1723914381,"current_range_meters":0,"station_id":"ce4bgt12rcd13ifvqcd0","pricing_plan_id":"cebpf4jnsgd1na2vs0mg"},{"bike_id":"8cc52adb-2ecc-4f43-a11d-3f944a1ae28e","system_id":"levelo_inurba_marseille","lat":43.314811,"lon":5.373103,"is_reserved":false,"is_disabled":false,"rental_uris":{"android":"levelo://app?vid=8cc52adb-2ecc-4f43-a11d-3f944a1ae28e","ios":"levelo://app?vid=8cc52adb-2ecc-4f43-a11d-3f944a1ae28e"},"vehicle_type_id":"4","last_reported":1723914381,"current_range_meters":8400,"station_id":"ce4bgt12rcd13ifvqcd0","pricing_plan_id":"cebpf4jnsgd1na2vs0mg"},{"bike_id":"f4bb82aa-3d7e-4385-85c7-5b03e7cceb50","system_id":"levelo_inurba_marseille","lat":43.315227,"lon":5.374753,"is_reserved":false,"is_disabled":false,"rental_uris":{"android":"levelo://app?vid=f4bb82aa-3d7e-4385-85c7-5b03e7cceb50","ios":"levelo://app?vid=f4bb82aa-3d7e-4385-85c7-5b03e7cceb50"},"vehicle_type_id":"4","last_reported":1723914381,"current_range_meters":6000,"station_id":"","pricing_plan_id":"cebpf4jnsgd1na2vs0mg"},{"bike_id":"8dfee2f1-abbd-4cf9-94e2-a901373b87b9","system_id":"levelo_inurba_marseille","lat":43.3055,"lon":5.36551,"is_reserved":false,"is_disabled":false,"rental_uris":{"android":"levelo://app?vid=8dfee2f1-abbd-4cf9-94e2-a901373b87b9","ios":"levelo://app?vid=8dfee2f1-abbd-4cf9-94e2-a901373b87b9"},"vehicle_type_id":"4","last_reported":1723914381,"current_range_meters":0,"station_id":"ce4bgs12rcd13ifvqcag","pricing_plan_id":"cebpf4jnsgd1na2vs0mg"},{"bike_id":"900c5512-37e3-47c6-9f43-b784c78d89a6","system_id":"levelo_inurba_marseille","lat":43.305714,"lon":5.365633,"is_reserved":false,"is_disabled":false,"rental_uris":{"android":"levelo://app?vid=900c5512-37e3-47c6-9f43-b784c78d89a6","ios":"levelo://app?vid=900c5512-37e3-47c6-9f43-b784c78d89a6"},"vehicle_type_id":"4","last_reported":1723914381,"current_range_meters":31200,"station_id":"ce4bgs12rcd13ifvqcag","pricing_plan_id":"cebpf4jnsgd1na2vs0mg"},{"bike_id":"d6c66f1f-6b62-40dc-b59b-84c392a29ee3","system_id":"levelo_inurba_marseille","lat":43.305714,"lon":5.365633,"is_reserved":false,"is_disabled":false,"rental_uris":{"android":"levelo://app?vid=d6c66f1f-6b62-40dc-b59b-84c392a29ee3","ios":"levelo://app?vid=d6c66f1f-6b62-40dc-b59b-84c392a29ee3"},"vehicle_type_id":"4","last_reported":1723914381,"current_range_meters":20000,"station_id":"ce4bgs12rcd13ifvqcag","pricing_plan_id":"cebpf4jnsgd1na2vs0mg"},{"bike_id":"d64eac0d-c854-4268-9cea-feb47b77b1b4","system_id":"levelo_inurba_marseille","lat":43.30534,"lon":5.3655,"is_reserved":false,"is_disabled":false,"rental_uris":{"android":"levelo://app?vid=d64eac0d-c854-4268-9cea-feb47b77b1b4","ios":"levelo://app?vid=d64eac0d-c854-4268-9cea-feb47b77b1b4"},"vehicle_type_id":"4","last_reported":1723914381,"current_range_meters":4800,"station_id":"ce4bgs12rcd13ifvqcag","pricing_plan_id":"cebpf4jnsgd1na2vs0mg"},{"bike_id":"a379a6fc-45f6-4a4b-9123-a239f1df211f","system_id":"levelo_inurba_marseille","lat":43.305706,"lon":5.365654,"is_reserved":false,"is_disabled":false,"rental_uris":{"android":"levelo://app?vid=a379a6fc-45f6-4a4b-9123-a239f1df211f","ios":"levelo://app?vid=a379a6fc-45f6-4a4b-9123-a239f1df211f"},"vehicle_type_id":"4","last_reported":1723914381,"current_range_meters":5600,"station_id":"ce4bgs12rcd13ifvqcag","pricing_plan_id":"cebpf4jnsgd1na2vs0mg"},{"bike_id":"08d57c4e-28fa-491d-b271-4860135107cd","system_id":"levelo_inurba_marseille","lat":43.3053,"lon":5.36563,"is_reserved":false,"is_disabled":false,"rental_uris":{"android":"levelo://app?vid=08d57c4e-28fa-491d-b271-4860135107cd","ios":"levelo://app?vid=08d57c4e-28fa-491d-b271-4860135107cd"},"vehicle_type_id":"4","last_reported":1723914381,"current_range_meters":12000,"station_id":"ce4bgs12rcd13ifvqcag","pricing_plan_id":"cebpf4jnsgd1na2vs0mg"},{"bike_id":"4cd11319-0954-4c5e-a0a3-e945e11c0330","system_id":"levelo_inurba_marseille","lat":43.305706,"lon":5.365654,"is_reserved":false,"is_disabled":false,"rental_uris":{"android":"levelo://app?vid=4cd11319-0954-4c5e-a0a3-e945e11c0330","ios":"levelo://app?vid=4cd11319-0954-4c5e-a0a3-e945e11c0330"},"vehicle_type_id":"4","last_reported":1723914381,"current_range_meters":7200,"station_id":"ce4bgs12rcd13ifvqcag","pricing_plan_id":"cebpf4jnsgd1na2vs0mg"},{"bike_id":"46425458-287d-4a8b-81a3-99d2df9f1dd8","system_id":"levelo_inurba_marseille","lat":43.305989,"lon":5.37225,"is_reserved":false,"is_disabled":false,"rental_uris":{"android":"levelo://app?vid=46425458-287d-4a8b-81a3-99d2df9f1dd8","ios":"levelo://app?vid=46425458-287d-4a8b-81a3-99d2df9f1dd8"},"vehicle_type_id":"4","last_reported":1723914381,"current_range_meters":3200,"station_id":"ce4bgqh2rcd13ifvqc4g","pricing_plan_id":"cebpf4jnsgd1na2vs0mg"},{"bike_id":"f2926eaf-66d2-483e-be57-9278057dd72d","system_id":"levelo_inurba_marseille","lat":43.307945,"lon":5.376487,"is_reserved":false,"is_disabled":false,"rental_uris":{"android":"levelo://app?vid=f2926eaf-66d2-483e-be57-9278057dd72d","ios":"levelo://app?vid=f2926eaf-66d2-483e-be57-9278057dd72d"},"vehicle_type_id":"4","last_reported":1723914381,"current_range_meters":5200,"station_id":"ce4bgv92rcd13ifvqcq0","pricing_plan_id":"cebpf4jnsgd1na2vs0mg"},{"bike_id":"3ab117d3-a602-404f-8750-26d630c34c50","system_id":"levelo_inurba_marseille","lat":43.307945,"lon":5.376487,"is_reserved":false,"is_disabled":false,"rental_uris":{"android":"levelo://app?vid=3ab117d3-a602-404f-8750-26d630c34c50","ios":"levelo://app?vid=3ab117d3-a602-404f-8750-26d630c34c50"},"vehicle_type_id":"4","last_reported":1723914381,"current_range_meters":3600,"station_id":"ce4bgv92rcd13ifvqcq0","pricing_plan_id":"cebpf4jnsgd1na2vs0mg"},{"bike_id":"2f7b45a2-a57b-42bc-aacb-de22e6724dc1","system_id":"levelo_inurba_marseille","lat":43.307945,"lon":5.376487,"is_reserved":false,"is_disabled":false,"rental_uris":{"android":"levelo://app?vid=2f7b45a2-a57b-42bc-aacb-de22e6724dc1","ios":"levelo://app?vid=2f7b45a2-a57b-42bc-aacb-de22e6724dc1"},"vehicle_type_id":"4","last_reported":1723914381,"current_range_meters":12800,"station_id":"ce4bgv92rcd13ifvqcq0","pricing_plan_id":"cebpf4jnsgd1na2vs0mg"},{"bike_id":"83a382b2-f029-476d-8d5c-a7d079386355","system_id":"levelo_inurba_marseille","lat":43.307945,"lon":5.376487,"is_reserved":false,"is_disabled":false,"rental_uris":{"android":"levelo://app?vid=83a382b2-f029-476d-8d5c-a7d079386355","ios":"levelo://app?vid=83a382b2-f029-476d-8d5c-a7d079386355"},"vehicle_type_id":"4","last_reported":1723914381,"current_range_meters":6800,"station_id":"ce4bgv92rcd13ifvqcq0","pricing_plan_id":"cebpf4jnsgd1na2vs0mg"},{"bike_id":"51bfa639-88c8-40eb-b68d-4db5a7c57275","system_id":"levelo_inurba_marseille","lat":43.317075,"lon":5.377367,"is_reserved":false,"is_disabled":false,"rental_uris":{"android":"levelo://app?vid=51bfa639-88c8-40eb-b68d-4db5a7c57275","ios":"levelo://app?vid=51bfa639-88c8-40eb-b68d-4db5a7c57275"},"vehicle_type_id":"4","last_reported":1723914381,"current_range_meters":6400,"station_id":"ce4bgth2rcd13ifvqch0","pricing_plan_id":"cebpf4jnsgd1na2vs0mg"},{"bike_id":"da861545-f4ef-4d37-a866-4a4fba90eab1","system_id":"levelo_inurba_marseille","lat":43.317075,"lon":5.377367,"is_reserved":false,"is_disabled":false,"rental_uris":{"android":"levelo://app?vid=da861545-f4ef-4d37-a866-4a4fba90eab1","ios":"levelo://app?vid=da861545-f4ef-4d37-a866-4a4fba90eab1"},"vehicle_type_id":"4","last_reported":1723914381,"current_range_meters":1200,"station_id":"ce4bgth2rcd13ifvqch0","pricing_plan_id":"cebpf4jnsgd1na2vs0mg"},{"bike_id":"6f3b0fff-03c6-4bf2-bf94-008f2d7ba3a4","system_id":"levelo_inurba_marseille","lat":43.3137,"lon":5.3792,"is_reserved":false,"is_disabled":false,"rental_uris":{"android":"levelo://app?vid=6f3b0fff-03c6-4bf2-bf94-008f2d7ba3a4","ios":"levelo://app?vid=6f3b0fff-03c6-4bf2-bf94-008f2d7ba3a4"},"vehicle_type_id":"4","last_reported":1723914381,"current_range_meters":2400,"station_id":"","pricing_plan_id":"cebpf4jnsgd1na2vs0mg"},{"bike_id":"6ec6aab1-8a2f-4fbb-ad63-571a694418f4","system_id":"levelo_inurba_marseille","lat":43.303046,"lon":5.368981,"is_reserved":false,"is_disabled":false,"rental_uris":{"android":"levelo://app?vid=6ec6aab1-8a2f-4fbb-ad63-571a694418f4","ios":"levelo://app?vid=6ec6aab1-8a2f-4fbb-ad63-571a694418f4"},"vehicle_type_id":"4","last_reported":1723914381,"current_range_meters":7600,"station_id":"ce4bgqh2rcd13ifvqc5g","pricing_plan_id":"cebpf4jnsgd1na2vs0mg"},{"bike_id":"91773cca-fe41-454d-b413-ea845edb5e84","system_id":"levelo_inurba_marseille","lat":43.303046,"lon":5.368981,"is_reserved":false,"is_disabled":false,"rental_uris":{"android":"levelo://app?vid=91773cca-fe41-454d-b413-ea845edb5e84","ios":"levelo://app?vid=91773cca-fe41-454d-b413-ea845edb5e84"},"vehicle_type_id":"4","last_reported":1723914381,"current_range_meters":7200,"station_id":"ce4bgqh2rcd13ifvqc5g","pricing_plan_id":"cebpf4jnsgd1na2vs0mg"},{"bike_id":"46b94668-613d-44a5-a4e1-85c25b1b928c","system_id":"levelo_inurba_marseille","lat":43.315289,"lon":5.380349,"is_reserved":false,"is_disabled":false,"rental_uris":{"android":"levelo://app?vid=46b94668-613d-44a5-a4e1-85c25b1b928c","ios":"levelo://app?vid=46b94668-613d-44a5-a4e1-85c25b1b928c"},"vehicle_type_id":"4","last_reported":1723914381,"current_range_meters":21200,"station_id":"ce4bhsp2rcd13ifvqi50","pricing_plan_id":"cebpf4jnsgd1na2vs0mg"},{"bike_id":"3ecaacc4-a174-454a-87ee-66ae2927f762","system_id":"levelo_inurba_marseille","lat":43.31419,"lon":5.38066,"is_reserved":false,"is_disabled":false,"rental_uris":{"android":"levelo://app?vid=3ecaacc4-a174-454a-87ee-66ae2927f762","ios":"levelo://app?vid=3ecaacc4-a174-454a-87ee-66ae2927f762"},"vehicle_type_id":"4","last_reported":1723914381,"current_range_meters":1200,"station_id":"","pricing_plan_id":"cebpf4jnsgd1na2vs0mg"},{"bike_id":"6525aa52-816a-4c8e-ad78-f32505ccdfba","system_id":"levelo_inurba_marseille","lat":43.31028,"lon":5.38062,"is_reserved":false,"is_disabled":false,"rental_uris":{"android":"levelo://app?vid=6525aa52-816a-4c8e-ad78-f32505ccdfba","ios":"levelo://app?vid=6525aa52-816a-4c8e-ad78-f32505ccdfba"},"vehicle_type_id":"4","last_reported":1723914381,"current_range_meters":4800,"station_id":"","pricing_plan_id":"cebpf4jnsgd1na2vs0mg"},{"bike_id":"c867e4fa-ca77-4754-ac6b-ee5239945874","system_id":"levelo_inurba_marseille","lat":43.308606,"lon":5.380817,"is_reserved":false,"is_disabled":false,"rental_uris":{"android":"levelo://app?vid=c867e4fa-ca77-4754-ac6b-ee5239945874","ios":"levelo://app?vid=c867e4fa-ca77-4754-ac6b-ee5239945874"},"vehicle_type_id":"4","last_reported":1723914381,"current_range_meters":13600,"station_id":"","pricing_plan_id":"cebpf4jnsgd1na2vs0mg"},{"bike_id":"29bf1fb6-e13a-4354-8590-395502618994","system_id":"levelo_inurba_marseille","lat":43.308012,"lon":5.381511,"is_reserved":false,"is_disabled":false,"rental_uris":{"android":"levelo://app?vid=29bf1fb6-e13a-4354-8590-395502618994","ios":"levelo://app?vid=29bf1fb6-e13a-4354-8590-395502618994"},"vehicle_type_id":"4","last_reported":1723914381,"current_range_meters":16400,"station_id":"ce4bgt12rcd13ifvqce0","pricing_plan_id":"cebpf4jnsgd1na2vs0mg"},{"bike_id":"d32a12db-c1e2-4bac-b05f-be0377690f1d","system_id":"levelo_inurba_marseille","lat":43.30467,"lon":5.37903,"is_reserved":false,"is_disabled":false,"rental_uris":{"android":"levelo://app?vid=d32a12db-c1e2-4bac-b05f-be0377690f1d","ios":"levelo://app?vid=d32a12db-c1e2-4bac-b05f-be0377690f1d"},"vehicle_type_id":"4","last_reported":1723914381,"current_range_meters":800,"station_id":"ce4bgup2rcd13ifvqcn0","pricing_plan_id":"cebpf4jnsgd1na2vs0mg"},{"bike_id":"fdcb2314-c3ea-4c21-bb54-56e4a390394c","system_id":"levelo_inurba_marseille","lat":43.30462,"lon":5.37901,"is_reserved":false,"is_disabled":false,"rental_uris":{"android":"levelo://app?vid=fdcb2314-c3ea-4c21-bb54-56e4a390394c","ios":"levelo://app?vid=fdcb2314-c3ea-4c21-bb54-56e4a390394c"},"vehicle_type_id":"4","last_reported":1723914381,"current_range_meters":0,"station_id":"ce4bgup2rcd13ifvqcn0","pricing_plan_id":"cebpf4jnsgd1na2vs0mg"},{"bike_id":"92dda2c0-6cdc-4866-97d9-e56c66a9b54c","system_id":"levelo_inurba_marseille","lat":43.324771,"lon":5.36557,"is_reserved":false,"is_disabled":false,"rental_uris":{"android":"levelo://app?vid=92dda2c0-6cdc-4866-97d9-e56c66a9b54c","ios":"levelo://app?vid=92dda2c0-6cdc-4866-97d9-e56c66a9b54c"},"vehicle_type_id":"4","last_reported":1723914381,"current_range_meters":30000,"station_id":"ce4bhs12rcd13ifvqhvg","pricing_plan_id":"cebpf4jnsgd1na2vs0mg"},{"bike_id":"2cc6356a-ab01-451c-aadd-5de1b980f636","system_id":"levelo_inurba_marseille","lat":43.324771,"lon":5.36557,"is_reserved":false,"is_disabled":false,"rental_uris":{"android":"levelo://app?vid=2cc6356a-ab01-451c-aadd-5de1b980f636","ios":"levelo://app?vid=2cc6356a-ab01-451c-aadd-5de1b980f636"},"vehicle_type_id":"4","last_reported":1723914381,"current_range_meters":15600,"station_id":"ce4bhs12rcd13ifvqhvg","pricing_plan_id":"cebpf4jnsgd1na2vs0mg"},{"bike_id":"f13913d4-2bb9-46fd-83b1-fab02a814654","system_id":"levelo_inurba_marseille","lat":43.324771,"lon":5.36557,"is_reserved":false,"is_disabled":false,"rental_uris":{"android":"levelo://app?vid=f13913d4-2bb9-46fd-83b1-fab02a814654","ios":"levelo://app?vid=f13913d4-2bb9-46fd-83b1-fab02a814654"},"vehicle_type_id":"4","last_reported":1723914381,"current_range_meters":0,"station_id":"ce4bhs12rcd13ifvqhvg","pricing_plan_id":"cebpf4jnsgd1na2vs0mg"},{"bike_id":"756aeab3-2325-4807-b1aa-6fbe6e32b280","system_id":"levelo_inurba_marseille","lat":43.324771,"lon":5.36557,"is_reserved":false,"is_disabled":false,"rental_uris":{"android":"levelo://app?vid=756aeab3-2325-4807-b1aa-6fbe6e32b280","ios":"levelo://app?vid=756aeab3-2325-4807-b1aa-6fbe6e32b280"},"vehicle_type_id":"4","last_reported":1723914381,"current_range_meters":30000,"station_id":"ce4bhs12rcd13ifvqhvg","pricing_plan_id":"cebpf4jnsgd1na2vs0mg"},{"bike_id":"3002f280-7517-4418-82ef-061406a0cac0","system_id":"levelo_inurba_marseille","lat":43.324903,"lon":5.368718,"is_reserved":false,"is_disabled":false,"rental_uris":{"android":"levelo://app?vid=3002f280-7517-4418-82ef-061406a0cac0","ios":"levelo://app?vid=3002f280-7517-4418-82ef-061406a0cac0"},"vehicle_type_id":"4","last_reported":1723914381,"current_range_meters":3200,"station_id":"","pricing_plan_id":"cebpf4jnsgd1na2vs0mg"},{"bike_id":"12f24074-b3ed-4294-9712-3012f3f35e88","system_id":"levelo_inurba_marseille","lat":43.30575,"lon":5.3817,"is_reserved":false,"is_disabled":false,"rental_uris":{"android":"levelo://app?vid=12f24074-b3ed-4294-9712-3012f3f35e88","ios":"levelo://app?vid=12f24074-b3ed-4294-9712-3012f3f35e88"},"vehicle_type_id":"4","last_reported":1723914381,"current_range_meters":18000,"station_id":"","pricing_plan_id":"cebpf4jnsgd1na2vs0mg"},{"bike_id":"5bc3daf8-8ef2-4cee-a994-533da03a1c26","system_id":"levelo_inurba_marseille","lat":43.313571,"lon":5.384829,"is_reserved":false,"is_disabled":false,"rental_uris":{"android":"levelo://app?vid=5bc3daf8-8ef2-4cee-a994-533da03a1c26","ios":"levelo://app?vid=5bc3daf8-8ef2-4cee-a994-533da03a1c26"},"vehicle_type_id":"4","last_reported":1723914381,"current_range_meters":4000,"station_id":"ce4bgt92rcd13ifvqcf0","pricing_plan_id":"cebpf4jnsgd1na2vs0mg"},{"bike_id":"239b7ce7-0358-46c4-861b-828c1bd20303","system_id":"levelo_inurba_marseille","lat":43.313571,"lon":5.384829,"is_reserved":false,"is_disabled":false,"rental_uris":{"android":"levelo://app?vid=239b7ce7-0358-46c4-861b-828c1bd20303","ios":"levelo://app?vid=239b7ce7-0358-46c4-861b-828c1bd20303"},"vehicle_type_id":"4","last_reported":1723914381,"current_range_meters":0,"station_id":"ce4bgt92rcd13ifvqcf0","pricing_plan_id":"cebpf4jnsgd1na2vs0mg"},{"bike_id":"735548fb-64b5-46d8-bc74-4fc47794355a","system_id":"levelo_inurba_marseille","lat":43.298433,"lon":5.362774,"is_reserved":false,"is_disabled":false,"rental_uris":{"android":"levelo://app?vid=735548fb-64b5-46d8-bc74-4fc47794355a","ios":"levelo://app?vid=735548fb-64b5-46d8-bc74-4fc47794355a"},"vehicle_type_id":"4","last_reported":1723914381,"current_range_meters":0,"station_id":"ce4bgpp2rcd13ifvqc3g","pricing_plan_id":"cebpf4jnsgd1na2vs0mg"},{"bike_id":"aec8bc35-5ff6-4999-9b28-59247dad1614","system_id":"levelo_inurba_marseille","lat":43.305364,"lon":5.384119,"is_reserved":false,"is_disabled":false,"rental_uris":{"android":"levelo://app?vid=aec8bc35-5ff6-4999-9b28-59247dad1614","ios":"levelo://app?vid=aec8bc35-5ff6-4999-9b28-59247dad1614"},"vehicle_type_id":"4","last_reported":1723914381,"current_range_meters":800,"station_id":"ce4bgg92rcd13ifvqb30","pricing_plan_id":"cebpf4jnsgd1na2vs0mg"},{"bike_id":"9dd149e6-a1b8-4330-916b-33cb094f131e","system_id":"levelo_inurba_marseille","lat":43.298433,"lon":5.362774,"is_reserved":false,"is_disabled":false,"rental_uris":{"android":"levelo://app?vid=9dd149e6-a1b8-4330-916b-33cb094f131e","ios":"levelo://app?vid=9dd149e6-a1b8-4330-916b-33cb094f131e"},"vehicle_type_id":"4","last_reported":1723914381,"current_range_meters":22000,"station_id":"ce4bgpp2rcd13ifvqc3g","pricing_plan_id":"cebpf4jnsgd1na2vs0mg"},{"bike_id":"b1c5f87c-72c0-47cb-82bd-e623dda9ebde","system_id":"levelo_inurba_marseille","lat":43.298433,"lon":5.362774,"is_reserved":false,"is_disabled":false,"rental_uris":{"android":"levelo://app?vid=b1c5f87c-72c0-47cb-82bd-e623dda9ebde","ios":"levelo://app?vid=b1c5f87c-72c0-47cb-82bd-e623dda9ebde"},"vehicle_type_id":"4","last_reported":1723914381,"current_range_meters":26400,"station_id":"ce4bgpp2rcd13ifvqc3g","pricing_plan_id":"cebpf4jnsgd1na2vs0mg"},{"bike_id":"e27f9c7f-060a-4446-847d-80377d9c6fb1","system_id":"levelo_inurba_marseille","lat":43.305364,"lon":5.384119,"is_reserved":false,"is_disabled":false,"rental_uris":{"android":"levelo://app?vid=e27f9c7f-060a-4446-847d-80377d9c6fb1","ios":"levelo://app?vid=e27f9c7f-060a-4446-847d-80377d9c6fb1"},"vehicle_type_id":"4","last_reported":1723914381,"current_range_meters":4800,"station_id":"ce4bgg92rcd13ifvqb30","pricing_plan_id":"cebpf4jnsgd1na2vs0mg"},{"bike_id":"02eb4d75-0996-45b8-b4b3-ada88d39d286","system_id":"levelo_inurba_marseille","lat":43.299243,"lon":5.37481,"is_reserved":false,"is_disabled":false,"rental_uris":{"android":"levelo://app?vid=02eb4d75-0996-45b8-b4b3-ada88d39d286","ios":"levelo://app?vid=02eb4d75-0996-45b8-b4b3-ada88d39d286"},"vehicle_type_id":"4","last_reported":1723914381,"current_range_meters":22400,"station_id":"ce4bgjh2rcd13ifvqbg0","pricing_plan_id":"cebpf4jnsgd1na2vs0mg"},{"bike_id":"fa93f5fc-7590-4f78-aa14-141e94a2b365","system_id":"levelo_inurba_marseille","lat":43.301417,"lon":5.3809,"is_reserved":false,"is_disabled":false,"rental_uris":{"android":"levelo://app?vid=fa93f5fc-7590-4f78-aa14-141e94a2b365","ios":"levelo://app?vid=fa93f5fc-7590-4f78-aa14-141e94a2b365"},"vehicle_type_id":"4","last_reported":1723914381,"current_range_meters":24000,"station_id":"ce4bgjp2rcd13ifvqbh0","pricing_plan_id":"cebpf4jnsgd1na2vs0mg"},{"bike_id":"22c11111-d277-4824-b088-bea56e25e453","system_id":"levelo_inurba_marseille","lat":43.301417,"lon":5.3809,"is_reserved":false,"is_disabled":false,"rental_uris":{"android":"levelo://app?vid=22c11111-d277-4824-b088-bea56e25e453","ios":"levelo://app?vid=22c11111-d277-4824-b088-bea56e25e453"},"vehicle_type_id":"4","last_reported":1723914381,"current_range_meters":0,"station_id":"ce4bgjp2rcd13ifvqbh0","pricing_plan_id":"cebpf4jnsgd1na2vs0mg"},{"bike_id":"61c8c746-bdc6-438a-a4bd-ec7ce1440abb","system_id":"levelo_inurba_marseille","lat":43.301417,"lon":5.3809,"is_reserved":false,"is_disabled":false,"rental_uris":{"android":"levelo://app?vid=61c8c746-bdc6-438a-a4bd-ec7ce1440abb","ios":"levelo://app?vid=61c8c746-bdc6-438a-a4bd-ec7ce1440abb"},"vehicle_type_id":"4","last_reported":1723914381,"current_range_meters":11200,"station_id":"ce4bgjp2rcd13ifvqbh0","pricing_plan_id":"cebpf4jnsgd1na2vs0mg"},{"bike_id":"fd6e349b-a814-4359-91b8-74641fb6a5e9","system_id":"levelo_inurba_marseille","lat":43.301417,"lon":5.3809,"is_reserved":false,"is_disabled":false,"rental_uris":{"android":"levelo://app?vid=fd6e349b-a814-4359-91b8-74641fb6a5e9","ios":"levelo://app?vid=fd6e349b-a814-4359-91b8-74641fb6a5e9"},"vehicle_type_id":"4","last_reported":1723914381,"current_range_meters":18400,"station_id":"ce4bgjp2rcd13ifvqbh0","pricing_plan_id":"cebpf4jnsgd1na2vs0mg"},{"bike_id":"4b7054a4-91be-4bc0-ae99-6f8b65a0f22b","system_id":"levelo_inurba_marseille","lat":43.301417,"lon":5.3809,"is_reserved":false,"is_disabled":false,"rental_uris":{"android":"levelo://app?vid=4b7054a4-91be-4bc0-ae99-6f8b65a0f22b","ios":"levelo://app?vid=4b7054a4-91be-4bc0-ae99-6f8b65a0f22b"},"vehicle_type_id":"4","last_reported":1723914381,"current_range_meters":0,"station_id":"ce4bgjp2rcd13ifvqbh0","pricing_plan_id":"cebpf4jnsgd1na2vs0mg"},{"bike_id":"81ba4a0c-0a46-462a-ae7c-96ded21c5ef6","system_id":"levelo_inurba_marseille","lat":43.301417,"lon":5.3809,"is_reserved":false,"is_disabled":false,"rental_uris":{"android":"levelo://app?vid=81ba4a0c-0a46-462a-ae7c-96ded21c5ef6","ios":"levelo://app?vid=81ba4a0c-0a46-462a-ae7c-96ded21c5ef6"},"vehicle_type_id":"4","last_reported":1723914381,"current_range_meters":16400,"station_id":"ce4bgjp2rcd13ifvqbh0","pricing_plan_id":"cebpf4jnsgd1na2vs0mg"},{"bike_id":"61422cf6-4ffe-43e8-bfb5-50983f52393c","system_id":"levelo_inurba_marseille","lat":43.301417,"lon":5.3809,"is_reserved":false,"is_disabled":false,"rental_uris":{"android":"levelo://app?vid=61422cf6-4ffe-43e8-bfb5-50983f52393c","ios":"levelo://app?vid=61422cf6-4ffe-43e8-bfb5-50983f52393c"},"vehicle_type_id":"4","last_reported":1723914381,"current_range_meters":0,"station_id":"ce4bgjp2rcd13ifvqbh0","pricing_plan_id":"cebpf4jnsgd1na2vs0mg"},{"bike_id":"4ab46a70-2fa0-49af-8cb3-c8a357865bd9","system_id":"levelo_inurba_marseille","lat":43.297774,"lon":5.370875,"is_reserved":false,"is_disabled":false,"rental_uris":{"android":"levelo://app?vid=4ab46a70-2fa0-49af-8cb3-c8a357865bd9","ios":"levelo://app?vid=4ab46a70-2fa0-49af-8cb3-c8a357865bd9"},"vehicle_type_id":"4","last_reported":1723914381,"current_range_meters":0,"station_id":"ce4bgop2rcd13ifvqc1g","pricing_plan_id":"cebpf4jnsgd1na2vs0mg"},{"bike_id":"1e3be176-b43b-4a21-b2d2-df3b861a4c08","system_id":"levelo_inurba_marseille","lat":43.297774,"lon":5.370875,"is_reserved":false,"is_disabled":false,"rental_uris":{"android":"levelo://app?vid=1e3be176-b43b-4a21-b2d2-df3b861a4c08","ios":"levelo://app?vid=1e3be176-b43b-4a21-b2d2-df3b861a4c08"},"vehicle_type_id":"4","last_reported":1723914381,"current_range_meters":8000,"station_id":"ce4bgop2rcd13ifvqc1g","pricing_plan_id":"cebpf4jnsgd1na2vs0mg"},{"bike_id":"8a487383-6220-46a5-95b4-21128efd8a1e","system_id":"levelo_inurba_marseille","lat":43.32286,"lon":5.38262,"is_reserved":false,"is_disabled":false,"rental_uris":{"android":"levelo://app?vid=8a487383-6220-46a5-95b4-21128efd8a1e","ios":"levelo://app?vid=8a487383-6220-46a5-95b4-21128efd8a1e"},"vehicle_type_id":"4","last_reported":1723914381,"current_range_meters":21600,"station_id":"ce4bhr12rcd13ifvqhqg","pricing_plan_id":"cebpf4jnsgd1na2vs0mg"},{"bike_id":"e0351634-cfd3-4ede-b9c6-58441e4dbee4","system_id":"levelo_inurba_marseille","lat":43.29857,"lon":5.3747,"is_reserved":false,"is_disabled":false,"rental_uris":{"android":"levelo://app?vid=e0351634-cfd3-4ede-b9c6-58441e4dbee4","ios":"levelo://app?vid=e0351634-cfd3-4ede-b9c6-58441e4dbee4"},"vehicle_type_id":"4","last_reported":1723914381,"current_range_meters":17200,"station_id":"","pricing_plan_id":"cebpf4jnsgd1na2vs0mg"},{"bike_id":"51b67538-2c59-431d-b5bb-b17f55fa0d96","system_id":"levelo_inurba_marseille","lat":43.297774,"lon":5.370875,"is_reserved":false,"is_disabled":false,"rental_uris":{"android":"levelo://app?vid=51b67538-2c59-431d-b5bb-b17f55fa0d96","ios":"levelo://app?vid=51b67538-2c59-431d-b5bb-b17f55fa0d96"},"vehicle_type_id":"4","last_reported":1723914381,"current_range_meters":20800,"station_id":"ce4bgop2rcd13ifvqc1g","pricing_plan_id":"cebpf4jnsgd1na2vs0mg"},{"bike_id":"912c3802-ff8c-462a-9082-27bf9d58f56c","system_id":"levelo_inurba_marseille","lat":43.322872,"lon":5.382756,"is_reserved":false,"is_disabled":false,"rental_uris":{"android":"levelo://app?vid=912c3802-ff8c-462a-9082-27bf9d58f56c","ios":"levelo://app?vid=912c3802-ff8c-462a-9082-27bf9d58f56c"},"vehicle_type_id":"4","last_reported":1723914381,"current_range_meters":23200,"station_id":"ce4bhr12rcd13ifvqhqg","pricing_plan_id":"cebpf4jnsgd1na2vs0mg"},{"bike_id":"69ab9822-b327-4deb-9420-13dfc525654f","system_id":"levelo_inurba_marseille","lat":43.322872,"lon":5.382756,"is_reserved":false,"is_disabled":false,"rental_uris":{"android":"levelo://app?vid=69ab9822-b327-4deb-9420-13dfc525654f","ios":"levelo://app?vid=69ab9822-b327-4deb-9420-13dfc525654f"},"vehicle_type_id":"4","last_reported":1723914381,"current_range_meters":21200,"station_id":"ce4bhr12rcd13ifvqhqg","pricing_plan_id":"cebpf4jnsgd1na2vs0mg"},{"bike_id":"52a23d7e-e6ca-4a93-a699-5a36a93c73bd","system_id":"levelo_inurba_marseille","lat":43.32292,"lon":5.38271,"is_reserved":false,"is_disabled":false,"rental_uris":{"android":"levelo://app?vid=52a23d7e-e6ca-4a93-a699-5a36a93c73bd","ios":"levelo://app?vid=52a23d7e-e6ca-4a93-a699-5a36a93c73bd"},"vehicle_type_id":"4","last_reported":1723914381,"current_range_meters":17600,"station_id":"ce4bhr12rcd13ifvqhqg","pricing_plan_id":"cebpf4jnsgd1na2vs0mg"},{"bike_id":"e83bc34a-7b8e-4fe1-b589-176aa19c08ee","system_id":"levelo_inurba_marseille","lat":43.3231,"lon":5.38291,"is_reserved":false,"is_disabled":false,"rental_uris":{"android":"levelo://app?vid=e83bc34a-7b8e-4fe1-b589-176aa19c08ee","ios":"levelo://app?vid=e83bc34a-7b8e-4fe1-b589-176aa19c08ee"},"vehicle_type_id":"4","last_reported":1723914381,"current_range_meters":26000,"station_id":"ce4bhr12rcd13ifvqhqg","pricing_plan_id":"cebpf4jnsgd1na2vs0mg"},{"bike_id":"40bad1ef-37d5-4600-8e99-b78591ff6ad7","system_id":"levelo_inurba_marseille","lat":43.297163,"lon":5.365866,"is_reserved":false,"is_disabled":false,"rental_uris":{"android":"levelo://app?vid=40bad1ef-37d5-4600-8e99-b78591ff6ad7","ios":"levelo://app?vid=40bad1ef-37d5-4600-8e99-b78591ff6ad7"},"vehicle_type_id":"4","last_reported":1723914381,"current_range_meters":15600,"station_id":"ce4bgn12rcd13ifvqbt0","pricing_plan_id":"cebpf4jnsgd1na2vs0mg"},{"bike_id":"44e5b6c6-87c6-483e-a13e-16359e83cdc3","system_id":"levelo_inurba_marseille","lat":43.297163,"lon":5.365866,"is_reserved":false,"is_disabled":false,"rental_uris":{"android":"levelo://app?vid=44e5b6c6-87c6-483e-a13e-16359e83cdc3","ios":"levelo://app?vid=44e5b6c6-87c6-483e-a13e-16359e83cdc3"},"vehicle_type_id":"4","last_reported":1723914381,"current_range_meters":0,"station_id":"ce4bgn12rcd13ifvqbt0","pricing_plan_id":"cebpf4jnsgd1na2vs0mg"},{"bike_id":"2f8db228-2b18-41e4-a929-c489f6091030","system_id":"levelo_inurba_marseille","lat":43.297163,"lon":5.365866,"is_reserved":false,"is_disabled":false,"rental_uris":{"android":"levelo://app?vid=2f8db228-2b18-41e4-a929-c489f6091030","ios":"levelo://app?vid=2f8db228-2b18-41e4-a929-c489f6091030"},"vehicle_type_id":"4","last_reported":1723914381,"current_range_meters":20000,"station_id":"ce4bgn12rcd13ifvqbt0","pricing_plan_id":"cebpf4jnsgd1na2vs0mg"},{"bike_id":"dc7fd73f-0a93-4be7-8d85-f10114d0a88b","system_id":"levelo_inurba_marseille","lat":43.2968,"lon":5.37291,"is_reserved":false,"is_disabled":false,"rental_uris":{"android":"levelo://app?vid=dc7fd73f-0a93-4be7-8d85-f10114d0a88b","ios":"levelo://app?vid=dc7fd73f-0a93-4be7-8d85-f10114d0a88b"},"vehicle_type_id":"4","last_reported":1723914381,"current_range_meters":31200,"station_id":"ce4bgk12rcd13ifvqbj0","pricing_plan_id":"cebpf4jnsgd1na2vs0mg"},{"bike_id":"3484d160-b58c-4b6a-8e76-e7ba9f38d2e9","system_id":"levelo_inurba_marseille","lat":43.311722,"lon":5.387247,"is_reserved":false,"is_disabled":false,"rental_uris":{"android":"levelo://app?vid=3484d160-b58c-4b6a-8e76-e7ba9f38d2e9","ios":"levelo://app?vid=3484d160-b58c-4b6a-8e76-e7ba9f38d2e9"},"vehicle_type_id":"4","last_reported":1723914381,"current_range_meters":4000,"station_id":"ce4bgv12rcd13ifvqcp0","pricing_plan_id":"cebpf4jnsgd1na2vs0mg"},{"bike_id":"d890fd88-7a43-463b-9874-2e62b7435597","system_id":"levelo_inurba_marseille","lat":43.29573,"lon":5.367355,"is_reserved":false,"is_disabled":false,"rental_uris":{"android":"levelo://app?vid=d890fd88-7a43-463b-9874-2e62b7435597","ios":"levelo://app?vid=d890fd88-7a43-463b-9874-2e62b7435597"},"vehicle_type_id":"4","last_reported":1723914381,"current_range_meters":1600,"station_id":"ce4bgph2rcd13ifvqc2g","pricing_plan_id":"cebpf4jnsgd1na2vs0mg"},{"bike_id":"7b08fa3d-fcca-44db-a21a-891d654af807","system_id":"levelo_inurba_marseille","lat":43.29573,"lon":5.367355,"is_reserved":false,"is_disabled":false,"rental_uris":{"android":"levelo://app?vid=7b08fa3d-fcca-44db-a21a-891d654af807","ios":"levelo://app?vid=7b08fa3d-fcca-44db-a21a-891d654af807"},"vehicle_type_id":"4","last_reported":1723914381,"current_range_meters":0,"station_id":"ce4bgph2rcd13ifvqc2g","pricing_plan_id":"cebpf4jnsgd1na2vs0mg"},{"bike_id":"275b6b94-61c4-4090-b71c-f3f359586733","system_id":"levelo_inurba_marseille","lat":43.29573,"lon":5.367355,"is_reserved":false,"is_disabled":false,"rental_uris":{"android":"levelo://app?vid=275b6b94-61c4-4090-b71c-f3f359586733","ios":"levelo://app?vid=275b6b94-61c4-4090-b71c-f3f359586733"},"vehicle_type_id":"4","last_reported":1723914381,"current_range_meters":9200,"station_id":"ce4bgph2rcd13ifvqc2g","pricing_plan_id":"cebpf4jnsgd1na2vs0mg"},{"bike_id":"c57035fe-2440-47af-a5fe-7c414d56c758","system_id":"levelo_inurba_marseille","lat":43.29573,"lon":5.367355,"is_reserved":false,"is_disabled":false,"rental_uris":{"android":"levelo://app?vid=c57035fe-2440-47af-a5fe-7c414d56c758","ios":"levelo://app?vid=c57035fe-2440-47af-a5fe-7c414d56c758"},"vehicle_type_id":"4","last_reported":1723914381,"current_range_meters":1200,"station_id":"ce4bgph2rcd13ifvqc2g","pricing_plan_id":"cebpf4jnsgd1na2vs0mg"},{"bike_id":"af6edc6a-03c1-4096-b8b0-80be441139a2","system_id":"levelo_inurba_marseille","lat":43.32291,"lon":5.38562,"is_reserved":false,"is_disabled":false,"rental_uris":{"android":"levelo://app?vid=af6edc6a-03c1-4096-b8b0-80be441139a2","ios":"levelo://app?vid=af6edc6a-03c1-4096-b8b0-80be441139a2"},"vehicle_type_id":"4","last_reported":1723914381,"current_range_meters":6000,"station_id":"","pricing_plan_id":"cebpf4jnsgd1na2vs0mg"},{"bike_id":"4898f984-fb53-4c5b-814a-5f907928db70","system_id":"levelo_inurba_marseille","lat":43.309589,"lon":5.390258,"is_reserved":false,"is_disabled":false,"rental_uris":{"android":"levelo://app?vid=4898f984-fb53-4c5b-814a-5f907928db70","ios":"levelo://app?vid=4898f984-fb53-4c5b-814a-5f907928db70"},"vehicle_type_id":"4","last_reported":1723914381,"current_range_meters":6400,"station_id":"ce4bgup2rcd13ifvqco0","pricing_plan_id":"cebpf4jnsgd1na2vs0mg"},{"bike_id":"1127813a-65cf-42a2-a82f-558d76263be9","system_id":"levelo_inurba_marseille","lat":43.309589,"lon":5.390258,"is_reserved":false,"is_disabled":false,"rental_uris":{"android":"levelo://app?vid=1127813a-65cf-42a2-a82f-558d76263be9","ios":"levelo://app?vid=1127813a-65cf-42a2-a82f-558d76263be9"},"vehicle_type_id":"4","last_reported":1723914381,"current_range_meters":28000,"station_id":"ce4bgup2rcd13ifvqco0","pricing_plan_id":"cebpf4jnsgd1na2vs0mg"},{"bike_id":"7972dc04-0f6e-4c65-879f-4545ee2046c2","system_id":"levelo_inurba_marseille","lat":43.322144,"lon":5.386927,"is_reserved":false,"is_disabled":false,"rental_uris":{"android":"levelo://app?vid=7972dc04-0f6e-4c65-879f-4545ee2046c2","ios":"levelo://app?vid=7972dc04-0f6e-4c65-879f-4545ee2046c2"},"vehicle_type_id":"4","last_reported":1723914381,"current_range_meters":23200,"station_id":"","pricing_plan_id":"cebpf4jnsgd1na2vs0mg"},{"bike_id":"1b90cf06-f2ae-423e-b7fc-3ffc5738d256","system_id":"levelo_inurba_marseille","lat":43.323047,"lon":5.386073,"is_reserved":false,"is_disabled":false,"rental_uris":{"android":"levelo://app?vid=1b90cf06-f2ae-423e-b7fc-3ffc5738d256","ios":"levelo://app?vid=1b90cf06-f2ae-423e-b7fc-3ffc5738d256"},"vehicle_type_id":"4","last_reported":1723914381,"current_range_meters":15200,"station_id":"","pricing_plan_id":"cebpf4jnsgd1na2vs0mg"},{"bike_id":"42356ce5-966a-4ac3-82d3-16f06cda035d","system_id":"levelo_inurba_marseille","lat":43.309589,"lon":5.390258,"is_reserved":false,"is_disabled":false,"rental_uris":{"android":"levelo://app?vid=42356ce5-966a-4ac3-82d3-16f06cda035d","ios":"levelo://app?vid=42356ce5-966a-4ac3-82d3-16f06cda035d"},"vehicle_type_id":"4","last_reported":1723914381,"current_range_meters":4400,"station_id":"ce4bgup2rcd13ifvqco0","pricing_plan_id":"cebpf4jnsgd1na2vs0mg"},{"bike_id":"7f9da29c-a42b-46ee-97df-1d53c110f1ec","system_id":"levelo_inurba_marseille","lat":43.309589,"lon":5.390258,"is_reserved":false,"is_disabled":false,"rental_uris":{"android":"levelo://app?vid=7f9da29c-a42b-46ee-97df-1d53c110f1ec","ios":"levelo://app?vid=7f9da29c-a42b-46ee-97df-1d53c110f1ec"},"vehicle_type_id":"4","last_reported":1723914381,"current_range_meters":27600,"station_id":"ce4bgup2rcd13ifvqco0","pricing_plan_id":"cebpf4jnsgd1na2vs0mg"},{"bike_id":"c7d1aa07-b02d-4cc1-96f0-b8212488106c","system_id":"levelo_inurba_marseille","lat":43.309589,"lon":5.390258,"is_reserved":false,"is_disabled":false,"rental_uris":{"android":"levelo://app?vid=c7d1aa07-b02d-4cc1-96f0-b8212488106c","ios":"levelo://app?vid=c7d1aa07-b02d-4cc1-96f0-b8212488106c"},"vehicle_type_id":"4","last_reported":1723914381,"current_range_meters":4800,"station_id":"ce4bgup2rcd13ifvqco0","pricing_plan_id":"cebpf4jnsgd1na2vs0mg"},{"bike_id":"9edcb24a-b803-445e-b345-5bad5e26fc01","system_id":"levelo_inurba_marseille","lat":43.29583,"lon":5.37503,"is_reserved":false,"is_disabled":false,"rental_uris":{"android":"levelo://app?vid=9edcb24a-b803-445e-b345-5bad5e26fc01","ios":"levelo://app?vid=9edcb24a-b803-445e-b345-5bad5e26fc01"},"vehicle_type_id":"4","last_reported":1723914381,"current_range_meters":13600,"station_id":"ce4bgh92rcd13ifvqb50","pricing_plan_id":"cebpf4jnsgd1na2vs0mg"},{"bike_id":"5675eeae-b246-4fde-9a57-8101f200933a","system_id":"levelo_inurba_marseille","lat":43.29797,"lon":5.38085,"is_reserved":false,"is_disabled":false,"rental_uris":{"android":"levelo://app?vid=5675eeae-b246-4fde-9a57-8101f200933a","ios":"levelo://app?vid=5675eeae-b246-4fde-9a57-8101f200933a"},"vehicle_type_id":"4","last_reported":1723914381,"current_range_meters":0,"station_id":"ce4bgip2rcd13ifvqbb0","pricing_plan_id":"cebpf4jnsgd1na2vs0mg"},{"bike_id":"b6b9c264-8290-4252-bf2c-60e0b3eeb254","system_id":"levelo_inurba_marseille","lat":43.29793,"lon":5.38085,"is_reserved":false,"is_disabled":false,"rental_uris":{"android":"levelo://app?vid=b6b9c264-8290-4252-bf2c-60e0b3eeb254","ios":"levelo://app?vid=b6b9c264-8290-4252-bf2c-60e0b3eeb254"},"vehicle_type_id":"4","last_reported":1723914381,"current_range_meters":0,"station_id":"ce4bgip2rcd13ifvqbb0","pricing_plan_id":"cebpf4jnsgd1na2vs0mg"},{"bike_id":"de96e95c-c8b8-4c2f-a102-ea89fbba261c","system_id":"levelo_inurba_marseille","lat":43.29577,"lon":5.37506,"is_reserved":false,"is_disabled":false,"rental_uris":{"android":"levelo://app?vid=de96e95c-c8b8-4c2f-a102-ea89fbba261c","ios":"levelo://app?vid=de96e95c-c8b8-4c2f-a102-ea89fbba261c"},"vehicle_type_id":"4","last_reported":1723914381,"current_range_meters":31200,"station_id":"ce4bgh92rcd13ifvqb50","pricing_plan_id":"cebpf4jnsgd1na2vs0mg"},{"bike_id":"fa5d7ece-83ee-4ff0-a6fa-51b44440ead5","system_id":"levelo_inurba_marseille","lat":43.304274,"lon":5.388873,"is_reserved":false,"is_disabled":false,"rental_uris":{"android":"levelo://app?vid=fa5d7ece-83ee-4ff0-a6fa-51b44440ead5","ios":"levelo://app?vid=fa5d7ece-83ee-4ff0-a6fa-51b44440ead5"},"vehicle_type_id":"4","last_reported":1723914381,"current_range_meters":0,"station_id":"ce4bgk12rcd13ifvqbi0","pricing_plan_id":"cebpf4jnsgd1na2vs0mg"},{"bike_id":"9ebb4a0d-8e65-47df-bc1c-84c441e5e5e7","system_id":"levelo_inurba_marseille","lat":43.29574,"lon":5.37517,"is_reserved":false,"is_disabled":false,"rental_uris":{"android":"levelo://app?vid=9ebb4a0d-8e65-47df-bc1c-84c441e5e5e7","ios":"levelo://app?vid=9ebb4a0d-8e65-47df-bc1c-84c441e5e5e7"},"vehicle_type_id":"4","last_reported":1723914381,"current_range_meters":19200,"station_id":"ce4bgh92rcd13ifvqb50","pricing_plan_id":"cebpf4jnsgd1na2vs0mg"},{"bike_id":"43afca45-5e6f-4991-93bd-4d5cafddb674","system_id":"levelo_inurba_marseille","lat":43.304274,"lon":5.388873,"is_reserved":false,"is_disabled":false,"rental_uris":{"android":"levelo://app?vid=43afca45-5e6f-4991-93bd-4d5cafddb674","ios":"levelo://app?vid=43afca45-5e6f-4991-93bd-4d5cafddb674"},"vehicle_type_id":"4","last_reported":1723914381,"current_range_meters":22400,"station_id":"ce4bgk12rcd13ifvqbi0","pricing_plan_id":"cebpf4jnsgd1na2vs0mg"},{"bike_id":"17c33575-516f-4c97-b557-13956ddfdae2","system_id":"levelo_inurba_marseille","lat":43.304274,"lon":5.388873,"is_reserved":false,"is_disabled":false,"rental_uris":{"android":"levelo://app?vid=17c33575-516f-4c97-b557-13956ddfdae2","ios":"levelo://app?vid=17c33575-516f-4c97-b557-13956ddfdae2"},"vehicle_type_id":"4","last_reported":1723914381,"current_range_meters":3200,"station_id":"ce4bgk12rcd13ifvqbi0","pricing_plan_id":"cebpf4jnsgd1na2vs0mg"},{"bike_id":"7bdf9e9f-4dc4-4dc2-ab1b-23c36cf6c922","system_id":"levelo_inurba_marseille","lat":43.29782,"lon":5.38099,"is_reserved":false,"is_disabled":false,"rental_uris":{"android":"levelo://app?vid=7bdf9e9f-4dc4-4dc2-ab1b-23c36cf6c922","ios":"levelo://app?vid=7bdf9e9f-4dc4-4dc2-ab1b-23c36cf6c922"},"vehicle_type_id":"4","last_reported":1723914381,"current_range_meters":0,"station_id":"ce4bgip2rcd13ifvqbb0","pricing_plan_id":"cebpf4jnsgd1na2vs0mg"},{"bike_id":"fdbd33d7-34e8-4e3f-b97e-07ff5a786bf5","system_id":"levelo_inurba_marseille","lat":43.296263,"lon":5.377094,"is_reserved":false,"is_disabled":false,"rental_uris":{"android":"levelo://app?vid=fdbd33d7-34e8-4e3f-b97e-07ff5a786bf5","ios":"levelo://app?vid=fdbd33d7-34e8-4e3f-b97e-07ff5a786bf5"},"vehicle_type_id":"4","last_reported":1723914381,"current_range_meters":0,"station_id":"ce4bgi92rcd13ifvqb90","pricing_plan_id":"cebpf4jnsgd1na2vs0mg"},{"bike_id":"e86212f3-c1dc-4a07-9a93-3ae504e6f785","system_id":"levelo_inurba_marseille","lat":43.29784,"lon":5.38114,"is_reserved":false,"is_disabled":false,"rental_uris":{"android":"levelo://app?vid=e86212f3-c1dc-4a07-9a93-3ae504e6f785","ios":"levelo://app?vid=e86212f3-c1dc-4a07-9a93-3ae504e6f785"},"vehicle_type_id":"4","last_reported":1723914381,"current_range_meters":14800,"station_id":"ce4bgip2rcd13ifvqbb0","pricing_plan_id":"cebpf4jnsgd1na2vs0mg"},{"bike_id":"0ce6491d-0e37-44c3-971c-8c3fb52eb8ac","system_id":"levelo_inurba_marseille","lat":43.296277,"lon":5.377108,"is_reserved":false,"is_disabled":false,"rental_uris":{"android":"levelo://app?vid=0ce6491d-0e37-44c3-971c-8c3fb52eb8ac","ios":"levelo://app?vid=0ce6491d-0e37-44c3-971c-8c3fb52eb8ac"},"vehicle_type_id":"4","last_reported":1723914381,"current_range_meters":21200,"station_id":"ce4bgi92rcd13ifvqb90","pricing_plan_id":"cebpf4jnsgd1na2vs0mg"},{"bike_id":"014b378e-a95f-4133-88d2-a90fe71087c1","system_id":"levelo_inurba_marseille","lat":43.309589,"lon":5.390258,"is_reserved":false,"is_disabled":false,"rental_uris":{"android":"levelo://app?vid=014b378e-a95f-4133-88d2-a90fe71087c1","ios":"levelo://app?vid=014b378e-a95f-4133-88d2-a90fe71087c1"},"vehicle_type_id":"4","last_reported":1723914381,"current_range_meters":7600,"station_id":"ce4bgup2rcd13ifvqco0","pricing_plan_id":"cebpf4jnsgd1na2vs0mg"},{"bike_id":"8250284c-6c66-41d0-bf66-4455355e396c","system_id":"levelo_inurba_marseille","lat":43.29611,"lon":5.37727,"is_reserved":false,"is_disabled":false,"rental_uris":{"android":"levelo://app?vid=8250284c-6c66-41d0-bf66-4455355e396c","ios":"levelo://app?vid=8250284c-6c66-41d0-bf66-4455355e396c"},"vehicle_type_id":"4","last_reported":1723914381,"current_range_meters":9200,"station_id":"ce4bgi92rcd13ifvqb90","pricing_plan_id":"cebpf4jnsgd1na2vs0mg"},{"bike_id":"e861ed7b-32c9-4251-91f0-f66a7f93f7c2","system_id":"levelo_inurba_marseille","lat":43.299707,"lon":5.384859,"is_reserved":false,"is_disabled":false,"rental_uris":{"android":"levelo://app?vid=e861ed7b-32c9-4251-91f0-f66a7f93f7c2","ios":"levelo://app?vid=e861ed7b-32c9-4251-91f0-f66a7f93f7c2"},"vehicle_type_id":"4","last_reported":1723914381,"current_range_meters":6400,"station_id":"ce4bgj92rcd13ifvqbd0","pricing_plan_id":"cebpf4jnsgd1na2vs0mg"},{"bike_id":"a62a44a3-38cf-4b5a-a73d-be368a62dcf2","system_id":"levelo_inurba_marseille","lat":43.295279,"lon":5.375048,"is_reserved":false,"is_disabled":false,"rental_uris":{"android":"levelo://app?vid=a62a44a3-38cf-4b5a-a73d-be368a62dcf2","ios":"levelo://app?vid=a62a44a3-38cf-4b5a-a73d-be368a62dcf2"},"vehicle_type_id":"4","last_reported":1723914381,"current_range_meters":30800,"station_id":"ce4bgkp2rcd13ifvqbmg","pricing_plan_id":"cebpf4jnsgd1na2vs0mg"},{"bike_id":"0cc9f79c-babe-4940-a5ad-a27daa9f889c","system_id":"levelo_inurba_marseille","lat":43.295279,"lon":5.375048,"is_reserved":false,"is_disabled":false,"rental_uris":{"android":"levelo://app?vid=0cc9f79c-babe-4940-a5ad-a27daa9f889c","ios":"levelo://app?vid=0cc9f79c-babe-4940-a5ad-a27daa9f889c"},"vehicle_type_id":"4","last_reported":1723914381,"current_range_meters":6400,"station_id":"ce4bgkp2rcd13ifvqbmg","pricing_plan_id":"cebpf4jnsgd1na2vs0mg"},{"bike_id":"f7c2c9a8-19f2-41d5-bb20-8cb9d57f25fa","system_id":"levelo_inurba_marseille","lat":43.299724,"lon":5.384848,"is_reserved":false,"is_disabled":false,"rental_uris":{"android":"levelo://app?vid=f7c2c9a8-19f2-41d5-bb20-8cb9d57f25fa","ios":"levelo://app?vid=f7c2c9a8-19f2-41d5-bb20-8cb9d57f25fa"},"vehicle_type_id":"4","last_reported":1723914381,"current_range_meters":14400,"station_id":"ce4bgj92rcd13ifvqbd0","pricing_plan_id":"cebpf4jnsgd1na2vs0mg"},{"bike_id":"dfbcd2ae-1b89-4549-92ec-f9414a8fb8fd","system_id":"levelo_inurba_marseille","lat":43.299717,"lon":5.384845,"is_reserved":false,"is_disabled":false,"rental_uris":{"android":"levelo://app?vid=dfbcd2ae-1b89-4549-92ec-f9414a8fb8fd","ios":"levelo://app?vid=dfbcd2ae-1b89-4549-92ec-f9414a8fb8fd"},"vehicle_type_id":"4","last_reported":1723914381,"current_range_meters":19200,"station_id":"ce4bgj92rcd13ifvqbd0","pricing_plan_id":"cebpf4jnsgd1na2vs0mg"},{"bike_id":"ccdbb7af-0b7e-475e-bbc6-c9d758b86dc5","system_id":"levelo_inurba_marseille","lat":43.299717,"lon":5.384845,"is_reserved":false,"is_disabled":false,"rental_uris":{"android":"levelo://app?vid=ccdbb7af-0b7e-475e-bbc6-c9d758b86dc5","ios":"levelo://app?vid=ccdbb7af-0b7e-475e-bbc6-c9d758b86dc5"},"vehicle_type_id":"4","last_reported":1723914381,"current_range_meters":5200,"station_id":"ce4bgj92rcd13ifvqbd0","pricing_plan_id":"cebpf4jnsgd1na2vs0mg"},{"bike_id":"9ceb7f8f-9a2e-498c-8223-81dad8cd5fc1","system_id":"levelo_inurba_marseille","lat":43.299717,"lon":5.384845,"is_reserved":false,"is_disabled":false,"rental_uris":{"android":"levelo://app?vid=9ceb7f8f-9a2e-498c-8223-81dad8cd5fc1","ios":"levelo://app?vid=9ceb7f8f-9a2e-498c-8223-81dad8cd5fc1"},"vehicle_type_id":"4","last_reported":1723914381,"current_range_meters":0,"station_id":"ce4bgj92rcd13ifvqbd0","pricing_plan_id":"cebpf4jnsgd1na2vs0mg"},{"bike_id":"96800859-e2fa-4161-8016-f0eb8b4c0bc5","system_id":"levelo_inurba_marseille","lat":43.299724,"lon":5.384848,"is_reserved":false,"is_disabled":false,"rental_uris":{"android":"levelo://app?vid=96800859-e2fa-4161-8016-f0eb8b4c0bc5","ios":"levelo://app?vid=96800859-e2fa-4161-8016-f0eb8b4c0bc5"},"vehicle_type_id":"4","last_reported":1723914381,"current_range_meters":1200,"station_id":"ce4bgj92rcd13ifvqbd0","pricing_plan_id":"cebpf4jnsgd1na2vs0mg"},{"bike_id":"3b67042b-32a9-4f58-b619-a8e933ad09a6","system_id":"levelo_inurba_marseille","lat":43.301396,"lon":5.387812,"is_reserved":false,"is_disabled":false,"rental_uris":{"android":"levelo://app?vid=3b67042b-32a9-4f58-b619-a8e933ad09a6","ios":"levelo://app?vid=3b67042b-32a9-4f58-b619-a8e933ad09a6"},"vehicle_type_id":"4","last_reported":1723914381,"current_range_meters":8000,"station_id":"ce4bghh2rcd13ifvqb60","pricing_plan_id":"cebpf4jnsgd1na2vs0mg"},{"bike_id":"425fc166-93f1-4f1a-b27a-221f2d690953","system_id":"levelo_inurba_marseille","lat":43.301396,"lon":5.387812,"is_reserved":false,"is_disabled":false,"rental_uris":{"android":"levelo://app?vid=425fc166-93f1-4f1a-b27a-221f2d690953","ios":"levelo://app?vid=425fc166-93f1-4f1a-b27a-221f2d690953"},"vehicle_type_id":"4","last_reported":1723914381,"current_range_meters":26000,"station_id":"ce4bghh2rcd13ifvqb60","pricing_plan_id":"cebpf4jnsgd1na2vs0mg"},{"bike_id":"0651b77d-db26-4104-9326-94571074f2c2","system_id":"levelo_inurba_marseille","lat":43.301396,"lon":5.387812,"is_reserved":false,"is_disabled":false,"rental_uris":{"android":"levelo://app?vid=0651b77d-db26-4104-9326-94571074f2c2","ios":"levelo://app?vid=0651b77d-db26-4104-9326-94571074f2c2"},"vehicle_type_id":"4","last_reported":1723914381,"current_range_meters":0,"station_id":"ce4bghh2rcd13ifvqb60","pricing_plan_id":"cebpf4jnsgd1na2vs0mg"},{"bike_id":"0c69e982-a5f0-495d-86fc-796afe0e011d","system_id":"levelo_inurba_marseille","lat":43.301396,"lon":5.387812,"is_reserved":false,"is_disabled":false,"rental_uris":{"android":"levelo://app?vid=0c69e982-a5f0-495d-86fc-796afe0e011d","ios":"levelo://app?vid=0c69e982-a5f0-495d-86fc-796afe0e011d"},"vehicle_type_id":"4","last_reported":1723914381,"current_range_meters":26400,"station_id":"ce4bghh2rcd13ifvqb60","pricing_plan_id":"cebpf4jnsgd1na2vs0mg"},{"bike_id":"9f5c3ea6-b824-4835-ab8e-fa38f9c34765","system_id":"levelo_inurba_marseille","lat":43.302,"lon":5.38943,"is_reserved":false,"is_disabled":false,"rental_uris":{"android":"levelo://app?vid=9f5c3ea6-b824-4835-ab8e-fa38f9c34765","ios":"levelo://app?vid=9f5c3ea6-b824-4835-ab8e-fa38f9c34765"},"vehicle_type_id":"4","last_reported":1723914381,"current_range_meters":12000,"station_id":"","pricing_plan_id":"cebpf4jnsgd1na2vs0mg"},{"bike_id":"bc9cb191-2e9c-4579-a04c-fd39ff2659db","system_id":"levelo_inurba_marseille","lat":43.29602,"lon":5.381084,"is_reserved":false,"is_disabled":false,"rental_uris":{"android":"levelo://app?vid=bc9cb191-2e9c-4579-a04c-fd39ff2659db","ios":"levelo://app?vid=bc9cb191-2e9c-4579-a04c-fd39ff2659db"},"vehicle_type_id":"4","last_reported":1723914381,"current_range_meters":10000,"station_id":"ce4bgl12rcd13ifvqbo0","pricing_plan_id":"cebpf4jnsgd1na2vs0mg"},{"bike_id":"d5340e02-0410-4b17-9758-931662d53374","system_id":"levelo_inurba_marseille","lat":43.29301,"lon":5.37158,"is_reserved":false,"is_disabled":false,"rental_uris":{"android":"levelo://app?vid=d5340e02-0410-4b17-9758-931662d53374","ios":"levelo://app?vid=d5340e02-0410-4b17-9758-931662d53374"},"vehicle_type_id":"4","last_reported":1723914381,"current_range_meters":7600,"station_id":"ce4bgh92rcd13ifvqb40","pricing_plan_id":"cebpf4jnsgd1na2vs0mg"},{"bike_id":"fbcd52cb-b858-4774-909a-cf6cb99693f3","system_id":"levelo_inurba_marseille","lat":43.292749,"lon":5.368398,"is_reserved":false,"is_disabled":false,"rental_uris":{"android":"levelo://app?vid=fbcd52cb-b858-4774-909a-cf6cb99693f3","ios":"levelo://app?vid=fbcd52cb-b858-4774-909a-cf6cb99693f3"},"vehicle_type_id":"4","last_reported":1723914381,"current_range_meters":8000,"station_id":"ce4bhbp2rcd13ifvqesg","pricing_plan_id":"cebpf4jnsgd1na2vs0mg"},{"bike_id":"9a4be0c4-ce46-456c-8398-e2a7e2bd6bea","system_id":"levelo_inurba_marseille","lat":43.292749,"lon":5.368402,"is_reserved":false,"is_disabled":false,"rental_uris":{"android":"levelo://app?vid=9a4be0c4-ce46-456c-8398-e2a7e2bd6bea","ios":"levelo://app?vid=9a4be0c4-ce46-456c-8398-e2a7e2bd6bea"},"vehicle_type_id":"4","last_reported":1723914381,"current_range_meters":4400,"station_id":"ce4bhbp2rcd13ifvqesg","pricing_plan_id":"cebpf4jnsgd1na2vs0mg"},{"bike_id":"596f1bcf-fdc5-4f50-9784-36b5e3ba0468","system_id":"levelo_inurba_marseille","lat":43.292749,"lon":5.368402,"is_reserved":false,"is_disabled":false,"rental_uris":{"android":"levelo://app?vid=596f1bcf-fdc5-4f50-9784-36b5e3ba0468","ios":"levelo://app?vid=596f1bcf-fdc5-4f50-9784-36b5e3ba0468"},"vehicle_type_id":"4","last_reported":1723914381,"current_range_meters":14400,"station_id":"ce4bhbp2rcd13ifvqesg","pricing_plan_id":"cebpf4jnsgd1na2vs0mg"},{"bike_id":"514cd054-2f8b-46e6-a072-3f8ffcb358df","system_id":"levelo_inurba_marseille","lat":43.292749,"lon":5.368402,"is_reserved":false,"is_disabled":false,"rental_uris":{"android":"levelo://app?vid=514cd054-2f8b-46e6-a072-3f8ffcb358df","ios":"levelo://app?vid=514cd054-2f8b-46e6-a072-3f8ffcb358df"},"vehicle_type_id":"4","last_reported":1723914381,"current_range_meters":6800,"station_id":"ce4bhbp2rcd13ifvqesg","pricing_plan_id":"cebpf4jnsgd1na2vs0mg"},{"bike_id":"77952521-67ae-4b15-8467-b45dd03560e5","system_id":"levelo_inurba_marseille","lat":43.293358,"lon":5.374456,"is_reserved":false,"is_disabled":false,"rental_uris":{"android":"levelo://app?vid=77952521-67ae-4b15-8467-b45dd03560e5","ios":"levelo://app?vid=77952521-67ae-4b15-8467-b45dd03560e5"},"vehicle_type_id":"4","last_reported":1723914381,"current_range_meters":28800,"station_id":"ce4bgi12rcd13ifvqb70","pricing_plan_id":"cebpf4jnsgd1na2vs0mg"},{"bike_id":"4b33d1e7-0d60-497f-8527-34dd64291a9a","system_id":"levelo_inurba_marseille","lat":43.307945,"lon":5.376487,"is_reserved":false,"is_disabled":false,"rental_uris":{"android":"levelo://app?vid=4b33d1e7-0d60-497f-8527-34dd64291a9a","ios":"levelo://app?vid=4b33d1e7-0d60-497f-8527-34dd64291a9a"},"vehicle_type_id":"4","last_reported":1723914381,"current_range_meters":12400,"station_id":"ce4bgv92rcd13ifvqcq0","pricing_plan_id":"cebpf4jnsgd1na2vs0mg"},{"bike_id":"895e8303-2c10-427d-81ed-5190f60cff5b","system_id":"levelo_inurba_marseille","lat":43.305994,"lon":5.393687,"is_reserved":false,"is_disabled":false,"rental_uris":{"android":"levelo://app?vid=895e8303-2c10-427d-81ed-5190f60cff5b","ios":"levelo://app?vid=895e8303-2c10-427d-81ed-5190f60cff5b"},"vehicle_type_id":"4","last_reported":1723914381,"current_range_meters":7200,"station_id":"ce4bh0p2rcd13ifvqd80","pricing_plan_id":"cebpf4jnsgd1na2vs0mg"},{"bike_id":"8a5ba20b-e527-47db-86e9-d6a3c7b18e40","system_id":"levelo_inurba_marseille","lat":43.305994,"lon":5.393687,"is_reserved":false,"is_disabled":false,"rental_uris":{"android":"levelo://app?vid=8a5ba20b-e527-47db-86e9-d6a3c7b18e40","ios":"levelo://app?vid=8a5ba20b-e527-47db-86e9-d6a3c7b18e40"},"vehicle_type_id":"4","last_reported":1723914381,"current_range_meters":3600,"station_id":"ce4bh0p2rcd13ifvqd80","pricing_plan_id":"cebpf4jnsgd1na2vs0mg"},{"bike_id":"06b8f861-3198-44f6-aced-d22a991ee655","system_id":"levelo_inurba_marseille","lat":43.305994,"lon":5.393687,"is_reserved":false,"is_disabled":false,"rental_uris":{"android":"levelo://app?vid=06b8f861-3198-44f6-aced-d22a991ee655","ios":"levelo://app?vid=06b8f861-3198-44f6-aced-d22a991ee655"},"vehicle_type_id":"4","last_reported":1723914381,"current_range_meters":19600,"station_id":"ce4bh0p2rcd13ifvqd80","pricing_plan_id":"cebpf4jnsgd1na2vs0mg"},{"bike_id":"428b86bc-e34a-47df-8c8e-737613dadc77","system_id":"levelo_inurba_marseille","lat":43.2936,"lon":5.37835,"is_reserved":false,"is_disabled":false,"rental_uris":{"android":"levelo://app?vid=428b86bc-e34a-47df-8c8e-737613dadc77","ios":"levelo://app?vid=428b86bc-e34a-47df-8c8e-737613dadc77"},"vehicle_type_id":"4","last_reported":1723914381,"current_range_meters":15600,"station_id":"ce4bgjh2rcd13ifvqbf0","pricing_plan_id":"cebpf4jnsgd1na2vs0mg"},{"bike_id":"81d4a63f-18bb-4cf8-a62a-63f2f9f74acf","system_id":"levelo_inurba_marseille","lat":43.2936,"lon":5.37835,"is_reserved":false,"is_disabled":false,"rental_uris":{"android":"levelo://app?vid=81d4a63f-18bb-4cf8-a62a-63f2f9f74acf","ios":"levelo://app?vid=81d4a63f-18bb-4cf8-a62a-63f2f9f74acf"},"vehicle_type_id":"4","last_reported":1723914381,"current_range_meters":30400,"station_id":"ce4bgjh2rcd13ifvqbf0","pricing_plan_id":"cebpf4jnsgd1na2vs0mg"},{"bike_id":"2f3199eb-0179-495e-a941-8d12fb773c6b","system_id":"levelo_inurba_marseille","lat":43.29227,"lon":5.36063,"is_reserved":false,"is_disabled":false,"rental_uris":{"android":"levelo://app?vid=2f3199eb-0179-495e-a941-8d12fb773c6b","ios":"levelo://app?vid=2f3199eb-0179-495e-a941-8d12fb773c6b"},"vehicle_type_id":"4","last_reported":1723914381,"current_range_meters":7600,"station_id":"ce4bhbh2rcd13ifvqeqg","pricing_plan_id":"cebpf4jnsgd1na2vs0mg"},{"bike_id":"d41c810c-3a1a-48f0-aede-6bf7f5e0ff4b","system_id":"levelo_inurba_marseille","lat":43.29224,"lon":5.36067,"is_reserved":false,"is_disabled":false,"rental_uris":{"android":"levelo://app?vid=d41c810c-3a1a-48f0-aede-6bf7f5e0ff4b","ios":"levelo://app?vid=d41c810c-3a1a-48f0-aede-6bf7f5e0ff4b"},"vehicle_type_id":"4","last_reported":1723914381,"current_range_meters":28800,"station_id":"ce4bhbh2rcd13ifvqeqg","pricing_plan_id":"cebpf4jnsgd1na2vs0mg"},{"bike_id":"b3ff1de1-e1a1-4314-9220-9839118345e2","system_id":"levelo_inurba_marseille","lat":43.29222,"lon":5.36061,"is_reserved":false,"is_disabled":false,"rental_uris":{"android":"levelo://app?vid=b3ff1de1-e1a1-4314-9220-9839118345e2","ios":"levelo://app?vid=b3ff1de1-e1a1-4314-9220-9839118345e2"},"vehicle_type_id":"4","last_reported":1723914381,"current_range_meters":5200,"station_id":"ce4bhbh2rcd13ifvqeqg","pricing_plan_id":"cebpf4jnsgd1na2vs0mg"},{"bike_id":"29105c3b-da8d-4dec-9422-44f9ff1758fa","system_id":"levelo_inurba_marseille","lat":43.30085,"lon":5.390856,"is_reserved":false,"is_disabled":false,"rental_uris":{"android":"levelo://app?vid=29105c3b-da8d-4dec-9422-44f9ff1758fa","ios":"levelo://app?vid=29105c3b-da8d-4dec-9422-44f9ff1758fa"},"vehicle_type_id":"4","last_reported":1723914381,"current_range_meters":6000,"station_id":"ce4bh192rcd13ifvqdb0","pricing_plan_id":"cebpf4jnsgd1na2vs0mg"},{"bike_id":"d7752aba-9f87-4dbf-bf4a-f1fd2ffea583","system_id":"levelo_inurba_marseille","lat":43.298764,"lon":5.388973,"is_reserved":false,"is_disabled":false,"rental_uris":{"android":"levelo://app?vid=d7752aba-9f87-4dbf-bf4a-f1fd2ffea583","ios":"levelo://app?vid=d7752aba-9f87-4dbf-bf4a-f1fd2ffea583"},"vehicle_type_id":"4","last_reported":1723914381,"current_range_meters":4000,"station_id":"ce4bh392rcd13ifvqdl0","pricing_plan_id":"cebpf4jnsgd1na2vs0mg"},{"bike_id":"ee3fb02a-2376-477e-8fe7-121b3ccdb500","system_id":"levelo_inurba_marseille","lat":43.291695,"lon":5.37139,"is_reserved":false,"is_disabled":false,"rental_uris":{"android":"levelo://app?vid=ee3fb02a-2376-477e-8fe7-121b3ccdb500","ios":"levelo://app?vid=ee3fb02a-2376-477e-8fe7-121b3ccdb500"},"vehicle_type_id":"4","last_reported":1723914381,"current_range_meters":10000,"station_id":"ce4bha92rcd13ifvqeh0","pricing_plan_id":"cebpf4jnsgd1na2vs0mg"},{"bike_id":"d5b3c047-5c26-4b79-b328-ecefa741b928","system_id":"levelo_inurba_marseille","lat":43.291675,"lon":5.371583,"is_reserved":false,"is_disabled":false,"rental_uris":{"android":"levelo://app?vid=d5b3c047-5c26-4b79-b328-ecefa741b928","ios":"levelo://app?vid=d5b3c047-5c26-4b79-b328-ecefa741b928"},"vehicle_type_id":"4","last_reported":1723914381,"current_range_meters":30400,"station_id":"ce4bha92rcd13ifvqeh0","pricing_plan_id":"cebpf4jnsgd1na2vs0mg"},{"bike_id":"61966473-cc14-470a-bd99-d12c4e68be1c","system_id":"levelo_inurba_marseille","lat":43.291671,"lon":5.371575,"is_reserved":false,"is_disabled":false,"rental_uris":{"android":"levelo://app?vid=61966473-cc14-470a-bd99-d12c4e68be1c","ios":"levelo://app?vid=61966473-cc14-470a-bd99-d12c4e68be1c"},"vehicle_type_id":"4","last_reported":1723914381,"current_range_meters":4800,"station_id":"ce4bha92rcd13ifvqeh0","pricing_plan_id":"cebpf4jnsgd1na2vs0mg"},{"bike_id":"54e53bd1-e254-4d1f-a7ed-c9e65d1653d9","system_id":"levelo_inurba_marseille","lat":43.298764,"lon":5.388973,"is_reserved":false,"is_disabled":false,"rental_uris":{"android":"levelo://app?vid=54e53bd1-e254-4d1f-a7ed-c9e65d1653d9","ios":"levelo://app?vid=54e53bd1-e254-4d1f-a7ed-c9e65d1653d9"},"vehicle_type_id":"4","last_reported":1723914381,"current_range_meters":2000,"station_id":"ce4bh392rcd13ifvqdl0","pricing_plan_id":"cebpf4jnsgd1na2vs0mg"},{"bike_id":"ef841e44-c370-46b6-9822-5de237249915","system_id":"levelo_inurba_marseille","lat":43.291671,"lon":5.371575,"is_reserved":false,"is_disabled":false,"rental_uris":{"android":"levelo://app?vid=ef841e44-c370-46b6-9822-5de237249915","ios":"levelo://app?vid=ef841e44-c370-46b6-9822-5de237249915"},"vehicle_type_id":"4","last_reported":1723914381,"current_range_meters":5600,"station_id":"ce4bha92rcd13ifvqeh0","pricing_plan_id":"cebpf4jnsgd1na2vs0mg"},{"bike_id":"ee176152-193e-4e03-b1f2-65ff3159ea5d","system_id":"levelo_inurba_marseille","lat":43.291675,"lon":5.371583,"is_reserved":false,"is_disabled":false,"rental_uris":{"android":"levelo://app?vid=ee176152-193e-4e03-b1f2-65ff3159ea5d","ios":"levelo://app?vid=ee176152-193e-4e03-b1f2-65ff3159ea5d"},"vehicle_type_id":"4","last_reported":1723914381,"current_range_meters":2000,"station_id":"ce4bha92rcd13ifvqeh0","pricing_plan_id":"cebpf4jnsgd1na2vs0mg"},{"bike_id":"2847562b-e789-4756-8517-6a899174433e","system_id":"levelo_inurba_marseille","lat":43.337168,"lon":5.391825,"is_reserved":false,"is_disabled":false,"rental_uris":{"android":"levelo://app?vid=2847562b-e789-4756-8517-6a899174433e","ios":"levelo://app?vid=2847562b-e789-4756-8517-6a899174433e"},"vehicle_type_id":"4","last_reported":1723914381,"current_range_meters":28400,"station_id":"ce4bhr92rcd13ifvqhsg","pricing_plan_id":"cebpf4jnsgd1na2vs0mg"},{"bike_id":"77a8a44b-79db-4d47-ae63-bf0aec17b87d","system_id":"levelo_inurba_marseille","lat":43.32945,"lon":5.38563,"is_reserved":false,"is_disabled":false,"rental_uris":{"android":"levelo://app?vid=77a8a44b-79db-4d47-ae63-bf0aec17b87d","ios":"levelo://app?vid=77a8a44b-79db-4d47-ae63-bf0aec17b87d"},"vehicle_type_id":"4","last_reported":1723914381,"current_range_meters":5200,"station_id":"","pricing_plan_id":"cebpf4jnsgd1na2vs0mg"},{"bike_id":"d12407ec-c610-441a-ba61-7e9f1e53fcf4","system_id":"levelo_inurba_marseille","lat":43.292005,"lon":5.357875,"is_reserved":false,"is_disabled":false,"rental_uris":{"android":"levelo://app?vid=d12407ec-c610-441a-ba61-7e9f1e53fcf4","ios":"levelo://app?vid=d12407ec-c610-441a-ba61-7e9f1e53fcf4"},"vehicle_type_id":"4","last_reported":1723914381,"current_range_meters":6400,"station_id":"ce4bhb12rcd13ifvqel0","pricing_plan_id":"cebpf4jnsgd1na2vs0mg"},{"bike_id":"da4f059e-1275-487a-aa77-be6a77808a6c","system_id":"levelo_inurba_marseille","lat":43.292005,"lon":5.357875,"is_reserved":false,"is_disabled":false,"rental_uris":{"android":"levelo://app?vid=da4f059e-1275-487a-aa77-be6a77808a6c","ios":"levelo://app?vid=da4f059e-1275-487a-aa77-be6a77808a6c"},"vehicle_type_id":"4","last_reported":1723914381,"current_range_meters":14400,"station_id":"ce4bhb12rcd13ifvqel0","pricing_plan_id":"cebpf4jnsgd1na2vs0mg"},{"bike_id":"4cabeee8-ee73-46c2-abd9-9c94c9405133","system_id":"levelo_inurba_marseille","lat":43.292005,"lon":5.357875,"is_reserved":false,"is_disabled":false,"rental_uris":{"android":"levelo://app?vid=4cabeee8-ee73-46c2-abd9-9c94c9405133","ios":"levelo://app?vid=4cabeee8-ee73-46c2-abd9-9c94c9405133"},"vehicle_type_id":"4","last_reported":1723914381,"current_range_meters":16400,"station_id":"ce4bhb12rcd13ifvqel0","pricing_plan_id":"cebpf4jnsgd1na2vs0mg"},{"bike_id":"b71c1852-d5d4-4144-96b2-d3660c030957","system_id":"levelo_inurba_marseille","lat":43.29195,"lon":5.35798,"is_reserved":false,"is_disabled":false,"rental_uris":{"android":"levelo://app?vid=b71c1852-d5d4-4144-96b2-d3660c030957","ios":"levelo://app?vid=b71c1852-d5d4-4144-96b2-d3660c030957"},"vehicle_type_id":"4","last_reported":1723914381,"current_range_meters":23600,"station_id":"ce4bhb12rcd13ifvqel0","pricing_plan_id":"cebpf4jnsgd1na2vs0mg"},{"bike_id":"ce9c272b-3e45-4cbe-bf1d-fe3d99bffd1d","system_id":"levelo_inurba_marseille","lat":43.292005,"lon":5.357875,"is_reserved":false,"is_disabled":false,"rental_uris":{"android":"levelo://app?vid=ce9c272b-3e45-4cbe-bf1d-fe3d99bffd1d","ios":"levelo://app?vid=ce9c272b-3e45-4cbe-bf1d-fe3d99bffd1d"},"vehicle_type_id":"4","last_reported":1723914381,"current_range_meters":9600,"station_id":"ce4bhb12rcd13ifvqel0","pricing_plan_id":"cebpf4jnsgd1na2vs0mg"},{"bike_id":"b803f57c-0459-4b77-8ed3-68f64c0f1d23","system_id":"levelo_inurba_marseille","lat":43.29186,"lon":5.35792,"is_reserved":false,"is_disabled":false,"rental_uris":{"android":"levelo://app?vid=b803f57c-0459-4b77-8ed3-68f64c0f1d23","ios":"levelo://app?vid=b803f57c-0459-4b77-8ed3-68f64c0f1d23"},"vehicle_type_id":"4","last_reported":1723914381,"current_range_meters":0,"station_id":"ce4bhb12rcd13ifvqel0","pricing_plan_id":"cebpf4jnsgd1na2vs0mg"},{"bike_id":"ac1de9bd-8fd7-4486-ba85-2a6f3308b29a","system_id":"levelo_inurba_marseille","lat":43.309038,"lon":5.396546,"is_reserved":false,"is_disabled":false,"rental_uris":{"android":"levelo://app?vid=ac1de9bd-8fd7-4486-ba85-2a6f3308b29a","ios":"levelo://app?vid=ac1de9bd-8fd7-4486-ba85-2a6f3308b29a"},"vehicle_type_id":"4","last_reported":1723914381,"current_range_meters":22000,"station_id":"ce4bh012rcd13ifvqcv0","pricing_plan_id":"cebpf4jnsgd1na2vs0mg"},{"bike_id":"31f83c64-4522-4a24-8b9b-12b4fe60fcfa","system_id":"levelo_inurba_marseille","lat":43.29529,"lon":5.385581,"is_reserved":false,"is_disabled":false,"rental_uris":{"android":"levelo://app?vid=31f83c64-4522-4a24-8b9b-12b4fe60fcfa","ios":"levelo://app?vid=31f83c64-4522-4a24-8b9b-12b4fe60fcfa"},"vehicle_type_id":"4","last_reported":1723914381,"current_range_meters":30000,"station_id":"ce4bgih2rcd13ifvqba0","pricing_plan_id":"cebpf4jnsgd1na2vs0mg"},{"bike_id":"6f97a770-4105-4b43-9029-426a89539251","system_id":"levelo_inurba_marseille","lat":43.29529,"lon":5.385581,"is_reserved":false,"is_disabled":false,"rental_uris":{"android":"levelo://app?vid=6f97a770-4105-4b43-9029-426a89539251","ios":"levelo://app?vid=6f97a770-4105-4b43-9029-426a89539251"},"vehicle_type_id":"4","last_reported":1723914381,"current_range_meters":3600,"station_id":"ce4bgih2rcd13ifvqba0","pricing_plan_id":"cebpf4jnsgd1na2vs0mg"},{"bike_id":"73ecf8a6-d1f3-4f1b-a023-eb24396ed159","system_id":"levelo_inurba_marseille","lat":43.29529,"lon":5.385581,"is_reserved":false,"is_disabled":false,"rental_uris":{"android":"levelo://app?vid=73ecf8a6-d1f3-4f1b-a023-eb24396ed159","ios":"levelo://app?vid=73ecf8a6-d1f3-4f1b-a023-eb24396ed159"},"vehicle_type_id":"4","last_reported":1723914381,"current_range_meters":8000,"station_id":"ce4bgih2rcd13ifvqba0","pricing_plan_id":"cebpf4jnsgd1na2vs0mg"},{"bike_id":"3e0794f9-9b9c-4189-b174-f44d2ecf2577","system_id":"levelo_inurba_marseille","lat":43.29532,"lon":5.38545,"is_reserved":false,"is_disabled":false,"rental_uris":{"android":"levelo://app?vid=3e0794f9-9b9c-4189-b174-f44d2ecf2577","ios":"levelo://app?vid=3e0794f9-9b9c-4189-b174-f44d2ecf2577"},"vehicle_type_id":"4","last_reported":1723914381,"current_range_meters":4400,"station_id":"ce4bgih2rcd13ifvqba0","pricing_plan_id":"cebpf4jnsgd1na2vs0mg"},{"bike_id":"05dc7635-3957-4be2-877f-fa9573c8455c","system_id":"levelo_inurba_marseille","lat":43.29529,"lon":5.385581,"is_reserved":false,"is_disabled":false,"rental_uris":{"android":"levelo://app?vid=05dc7635-3957-4be2-877f-fa9573c8455c","ios":"levelo://app?vid=05dc7635-3957-4be2-877f-fa9573c8455c"},"vehicle_type_id":"4","last_reported":1723914381,"current_range_meters":24800,"station_id":"ce4bgih2rcd13ifvqba0","pricing_plan_id":"cebpf4jnsgd1na2vs0mg"},{"bike_id":"26de9e09-ca41-4299-9028-af0939710205","system_id":"levelo_inurba_marseille","lat":43.29529,"lon":5.385581,"is_reserved":false,"is_disabled":false,"rental_uris":{"android":"levelo://app?vid=26de9e09-ca41-4299-9028-af0939710205","ios":"levelo://app?vid=26de9e09-ca41-4299-9028-af0939710205"},"vehicle_type_id":"4","last_reported":1723914381,"current_range_meters":16800,"station_id":"ce4bgih2rcd13ifvqba0","pricing_plan_id":"cebpf4jnsgd1na2vs0mg"},{"bike_id":"d5c46316-6df9-440d-985f-163c9cc39bb8","system_id":"levelo_inurba_marseille","lat":43.29529,"lon":5.385581,"is_reserved":false,"is_disabled":false,"rental_uris":{"android":"levelo://app?vid=d5c46316-6df9-440d-985f-163c9cc39bb8","ios":"levelo://app?vid=d5c46316-6df9-440d-985f-163c9cc39bb8"},"vehicle_type_id":"4","last_reported":1723914381,"current_range_meters":12000,"station_id":"ce4bgih2rcd13ifvqba0","pricing_plan_id":"cebpf4jnsgd1na2vs0mg"},{"bike_id":"47e06a25-8dbf-43ea-9cd4-f238a3494d9d","system_id":"levelo_inurba_marseille","lat":43.315361,"lon":5.397043,"is_reserved":false,"is_disabled":false,"rental_uris":{"android":"levelo://app?vid=47e06a25-8dbf-43ea-9cd4-f238a3494d9d","ios":"levelo://app?vid=47e06a25-8dbf-43ea-9cd4-f238a3494d9d"},"vehicle_type_id":"4","last_reported":1723914381,"current_range_meters":0,"station_id":"","pricing_plan_id":"cebpf4jnsgd1na2vs0mg"},{"bike_id":"f6e9944d-bc2f-48c3-a4d0-f63c81e225aa","system_id":"levelo_inurba_marseille","lat":43.290779,"lon":5.371482,"is_reserved":false,"is_disabled":false,"rental_uris":{"android":"levelo://app?vid=f6e9944d-bc2f-48c3-a4d0-f63c81e225aa","ios":"levelo://app?vid=f6e9944d-bc2f-48c3-a4d0-f63c81e225aa"},"vehicle_type_id":"4","last_reported":1723914381,"current_range_meters":13200,"station_id":"ce4bh5p2rcd13ifvqe4g","pricing_plan_id":"cebpf4jnsgd1na2vs0mg"},{"bike_id":"44a1cb8b-9f80-4a5e-ac8f-cda571c9ba94","system_id":"levelo_inurba_marseille","lat":43.290779,"lon":5.371482,"is_reserved":false,"is_disabled":false,"rental_uris":{"android":"levelo://app?vid=44a1cb8b-9f80-4a5e-ac8f-cda571c9ba94","ios":"levelo://app?vid=44a1cb8b-9f80-4a5e-ac8f-cda571c9ba94"},"vehicle_type_id":"4","last_reported":1723914381,"current_range_meters":0,"station_id":"ce4bh5p2rcd13ifvqe4g","pricing_plan_id":"cebpf4jnsgd1na2vs0mg"},{"bike_id":"f0be1872-7d44-464c-b517-5de0cc32687c","system_id":"levelo_inurba_marseille","lat":43.302008,"lon":5.394694,"is_reserved":false,"is_disabled":false,"rental_uris":{"android":"levelo://app?vid=f0be1872-7d44-464c-b517-5de0cc32687c","ios":"levelo://app?vid=f0be1872-7d44-464c-b517-5de0cc32687c"},"vehicle_type_id":"4","last_reported":1723914381,"current_range_meters":0,"station_id":"ce4bh0p2rcd13ifvqd70","pricing_plan_id":"cebpf4jnsgd1na2vs0mg"},{"bike_id":"e2d8b92c-b0cc-45fa-a0d1-9fd35266e7b4","system_id":"levelo_inurba_marseille","lat":43.290624,"lon":5.359245,"is_reserved":false,"is_disabled":false,"rental_uris":{"android":"levelo://app?vid=e2d8b92c-b0cc-45fa-a0d1-9fd35266e7b4","ios":"levelo://app?vid=e2d8b92c-b0cc-45fa-a0d1-9fd35266e7b4"},"vehicle_type_id":"4","last_reported":1723914381,"current_range_meters":29200,"station_id":"ce4bha92rcd13ifvqeg0","pricing_plan_id":"cebpf4jnsgd1na2vs0mg"},{"bike_id":"5a5a09bf-f5da-46c2-b205-46cdc5f79cf2","system_id":"levelo_inurba_marseille","lat":43.29044,"lon":5.3591,"is_reserved":false,"is_disabled":false,"rental_uris":{"android":"levelo://app?vid=5a5a09bf-f5da-46c2-b205-46cdc5f79cf2","ios":"levelo://app?vid=5a5a09bf-f5da-46c2-b205-46cdc5f79cf2"},"vehicle_type_id":"4","last_reported":1723914381,"current_range_meters":0,"station_id":"ce4bha92rcd13ifvqeg0","pricing_plan_id":"cebpf4jnsgd1na2vs0mg"},{"bike_id":"22f11675-4014-4f47-b048-ac77e5ae46bc","system_id":"levelo_inurba_marseille","lat":43.290631,"lon":5.359244,"is_reserved":false,"is_disabled":false,"rental_uris":{"android":"levelo://app?vid=22f11675-4014-4f47-b048-ac77e5ae46bc","ios":"levelo://app?vid=22f11675-4014-4f47-b048-ac77e5ae46bc"},"vehicle_type_id":"4","last_reported":1723914381,"current_range_meters":4800,"station_id":"ce4bha92rcd13ifvqeg0","pricing_plan_id":"cebpf4jnsgd1na2vs0mg"},{"bike_id":"91d664c9-a244-4f82-a27e-e9f8b5bcdb7a","system_id":"levelo_inurba_marseille","lat":43.294153,"lon":5.386305,"is_reserved":false,"is_disabled":false,"rental_uris":{"android":"levelo://app?vid=91d664c9-a244-4f82-a27e-e9f8b5bcdb7a","ios":"levelo://app?vid=91d664c9-a244-4f82-a27e-e9f8b5bcdb7a"},"vehicle_type_id":"4","last_reported":1723914381,"current_range_meters":29600,"station_id":"ce4bh2h2rcd13ifvqdh0","pricing_plan_id":"cebpf4jnsgd1na2vs0mg"},{"bike_id":"1dd44adc-84bc-480c-b107-c07c0b821593","system_id":"levelo_inurba_marseille","lat":43.294153,"lon":5.386305,"is_reserved":false,"is_disabled":false,"rental_uris":{"android":"levelo://app?vid=1dd44adc-84bc-480c-b107-c07c0b821593","ios":"levelo://app?vid=1dd44adc-84bc-480c-b107-c07c0b821593"},"vehicle_type_id":"4","last_reported":1723914381,"current_range_meters":5200,"station_id":"ce4bh2h2rcd13ifvqdh0","pricing_plan_id":"cebpf4jnsgd1na2vs0mg"},{"bike_id":"aff0127a-45a0-4d9b-b591-4f33b4848d19","system_id":"levelo_inurba_marseille","lat":43.2942,"lon":5.38626,"is_reserved":false,"is_disabled":false,"rental_uris":{"android":"levelo://app?vid=aff0127a-45a0-4d9b-b591-4f33b4848d19","ios":"levelo://app?vid=aff0127a-45a0-4d9b-b591-4f33b4848d19"},"vehicle_type_id":"4","last_reported":1723914381,"current_range_meters":10800,"station_id":"ce4bh2h2rcd13ifvqdh0","pricing_plan_id":"cebpf4jnsgd1na2vs0mg"},{"bike_id":"99fdcd48-a65d-4e9b-965a-18ed29606b97","system_id":"levelo_inurba_marseille","lat":43.294162,"lon":5.386292,"is_reserved":false,"is_disabled":false,"rental_uris":{"android":"levelo://app?vid=99fdcd48-a65d-4e9b-965a-18ed29606b97","ios":"levelo://app?vid=99fdcd48-a65d-4e9b-965a-18ed29606b97"},"vehicle_type_id":"4","last_reported":1723914381,"current_range_meters":4000,"station_id":"ce4bh2h2rcd13ifvqdh0","pricing_plan_id":"cebpf4jnsgd1na2vs0mg"},{"bike_id":"0c014077-bef8-4c37-bb0c-1961f149aeb8","system_id":"levelo_inurba_marseille","lat":43.289468,"lon":5.363719,"is_reserved":false,"is_disabled":false,"rental_uris":{"android":"levelo://app?vid=0c014077-bef8-4c37-bb0c-1961f149aeb8","ios":"levelo://app?vid=0c014077-bef8-4c37-bb0c-1961f149aeb8"},"vehicle_type_id":"4","last_reported":1723914381,"current_range_meters":24400,"station_id":"ce4bhc92rcd13ifvqetg","pricing_plan_id":"cebpf4jnsgd1na2vs0mg"},{"bike_id":"a6820f42-c049-4b79-9f18-75d4d6582ceb","system_id":"levelo_inurba_marseille","lat":43.28939,"lon":5.3663,"is_reserved":false,"is_disabled":false,"rental_uris":{"android":"levelo://app?vid=a6820f42-c049-4b79-9f18-75d4d6582ceb","ios":"levelo://app?vid=a6820f42-c049-4b79-9f18-75d4d6582ceb"},"vehicle_type_id":"4","last_reported":1723914381,"current_range_meters":0,"station_id":"ce4bhap2rcd13ifvqek0","pricing_plan_id":"cebpf4jnsgd1na2vs0mg"},{"bike_id":"e6596843-2a5d-49c4-8045-e26facdad3ce","system_id":"levelo_inurba_marseille","lat":43.289468,"lon":5.363719,"is_reserved":false,"is_disabled":false,"rental_uris":{"android":"levelo://app?vid=e6596843-2a5d-49c4-8045-e26facdad3ce","ios":"levelo://app?vid=e6596843-2a5d-49c4-8045-e26facdad3ce"},"vehicle_type_id":"4","last_reported":1723914381,"current_range_meters":8000,"station_id":"ce4bhc92rcd13ifvqetg","pricing_plan_id":"cebpf4jnsgd1na2vs0mg"},{"bike_id":"9f293ce3-61c5-4eba-b662-8727e5a772e7","system_id":"levelo_inurba_marseille","lat":43.29276,"lon":5.38444,"is_reserved":false,"is_disabled":false,"rental_uris":{"android":"levelo://app?vid=9f293ce3-61c5-4eba-b662-8727e5a772e7","ios":"levelo://app?vid=9f293ce3-61c5-4eba-b662-8727e5a772e7"},"vehicle_type_id":"4","last_reported":1723914381,"current_range_meters":0,"station_id":"ce4bh692rcd13ifvqea0","pricing_plan_id":"cebpf4jnsgd1na2vs0mg"},{"bike_id":"378e5980-b90f-455b-9f57-7106e4913e02","system_id":"levelo_inurba_marseille","lat":43.289033,"lon":5.366443,"is_reserved":false,"is_disabled":false,"rental_uris":{"android":"levelo://app?vid=378e5980-b90f-455b-9f57-7106e4913e02","ios":"levelo://app?vid=378e5980-b90f-455b-9f57-7106e4913e02"},"vehicle_type_id":"4","last_reported":1723914381,"current_range_meters":16000,"station_id":"ce4bhap2rcd13ifvqek0","pricing_plan_id":"cebpf4jnsgd1na2vs0mg"},{"bike_id":"fdaaf1a8-e762-4904-b81e-8695f5410be5","system_id":"levelo_inurba_marseille","lat":43.29271,"lon":5.38436,"is_reserved":false,"is_disabled":false,"rental_uris":{"android":"levelo://app?vid=fdaaf1a8-e762-4904-b81e-8695f5410be5","ios":"levelo://app?vid=fdaaf1a8-e762-4904-b81e-8695f5410be5"},"vehicle_type_id":"4","last_reported":1723914381,"current_range_meters":23200,"station_id":"ce4bh692rcd13ifvqea0","pricing_plan_id":"cebpf4jnsgd1na2vs0mg"},{"bike_id":"35095967-bdfb-4da1-b72a-f79f9827fc18","system_id":"levelo_inurba_marseille","lat":43.29263,"lon":5.38437,"is_reserved":false,"is_disabled":false,"rental_uris":{"android":"levelo://app?vid=35095967-bdfb-4da1-b72a-f79f9827fc18","ios":"levelo://app?vid=35095967-bdfb-4da1-b72a-f79f9827fc18"},"vehicle_type_id":"4","last_reported":1723914381,"current_range_meters":20000,"station_id":"ce4bh692rcd13ifvqea0","pricing_plan_id":"cebpf4jnsgd1na2vs0mg"},{"bike_id":"4a9cea6c-5f3c-4fc6-a3a0-20d6fc8b683c","system_id":"levelo_inurba_marseille","lat":43.292644,"lon":5.384257,"is_reserved":false,"is_disabled":false,"rental_uris":{"android":"levelo://app?vid=4a9cea6c-5f3c-4fc6-a3a0-20d6fc8b683c","ios":"levelo://app?vid=4a9cea6c-5f3c-4fc6-a3a0-20d6fc8b683c"},"vehicle_type_id":"4","last_reported":1723914381,"current_range_meters":0,"station_id":"ce4bh692rcd13ifvqea0","pricing_plan_id":"cebpf4jnsgd1na2vs0mg"},{"bike_id":"cfa386a0-b0fc-4a4d-b062-f7e982e822de","system_id":"levelo_inurba_marseille","lat":43.29258,"lon":5.3844,"is_reserved":false,"is_disabled":false,"rental_uris":{"android":"levelo://app?vid=cfa386a0-b0fc-4a4d-b062-f7e982e822de","ios":"levelo://app?vid=cfa386a0-b0fc-4a4d-b062-f7e982e822de"},"vehicle_type_id":"4","last_reported":1723914381,"current_range_meters":0,"station_id":"ce4bh692rcd13ifvqea0","pricing_plan_id":"cebpf4jnsgd1na2vs0mg"},{"bike_id":"387552cd-241d-4e03-8207-86e5e983b862","system_id":"levelo_inurba_marseille","lat":43.30291,"lon":5.39687,"is_reserved":false,"is_disabled":false,"rental_uris":{"android":"levelo://app?vid=387552cd-241d-4e03-8207-86e5e983b862","ios":"levelo://app?vid=387552cd-241d-4e03-8207-86e5e983b862"},"vehicle_type_id":"4","last_reported":1723914381,"current_range_meters":0,"station_id":"","pricing_plan_id":"cebpf4jnsgd1na2vs0mg"},{"bike_id":"96c09105-c210-4865-a2b0-5c2c89f3ed20","system_id":"levelo_inurba_marseille","lat":43.290103,"lon":5.356114,"is_reserved":false,"is_disabled":false,"rental_uris":{"android":"levelo://app?vid=96c09105-c210-4865-a2b0-5c2c89f3ed20","ios":"levelo://app?vid=96c09105-c210-4865-a2b0-5c2c89f3ed20"},"vehicle_type_id":"4","last_reported":1723914381,"current_range_meters":25200,"station_id":"ce4bhb92rcd13ifvqen0","pricing_plan_id":"cebpf4jnsgd1na2vs0mg"},{"bike_id":"1df23663-0d25-48c6-803d-2ef400512a28","system_id":"levelo_inurba_marseille","lat":43.294162,"lon":5.386292,"is_reserved":false,"is_disabled":false,"rental_uris":{"android":"levelo://app?vid=1df23663-0d25-48c6-803d-2ef400512a28","ios":"levelo://app?vid=1df23663-0d25-48c6-803d-2ef400512a28"},"vehicle_type_id":"4","last_reported":1723914381,"current_range_meters":16400,"station_id":"ce4bh2h2rcd13ifvqdh0","pricing_plan_id":"cebpf4jnsgd1na2vs0mg"},{"bike_id":"16f02b1e-6dd7-447e-b660-366d3bca306b","system_id":"levelo_inurba_marseille","lat":43.290104,"lon":5.356111,"is_reserved":false,"is_disabled":false,"rental_uris":{"android":"levelo://app?vid=16f02b1e-6dd7-447e-b660-366d3bca306b","ios":"levelo://app?vid=16f02b1e-6dd7-447e-b660-366d3bca306b"},"vehicle_type_id":"4","last_reported":1723914381,"current_range_meters":800,"station_id":"ce4bhb92rcd13ifvqen0","pricing_plan_id":"cebpf4jnsgd1na2vs0mg"},{"bike_id":"2b1b1f88-eea6-47f8-a66a-ac2306b60460","system_id":"levelo_inurba_marseille","lat":43.290103,"lon":5.356114,"is_reserved":false,"is_disabled":false,"rental_uris":{"android":"levelo://app?vid=2b1b1f88-eea6-47f8-a66a-ac2306b60460","ios":"levelo://app?vid=2b1b1f88-eea6-47f8-a66a-ac2306b60460"},"vehicle_type_id":"4","last_reported":1723914381,"current_range_meters":31600,"station_id":"ce4bhb92rcd13ifvqen0","pricing_plan_id":"cebpf4jnsgd1na2vs0mg"},{"bike_id":"a963fcb0-547d-4fcc-967a-570e817ea233","system_id":"levelo_inurba_marseille","lat":43.290104,"lon":5.356111,"is_reserved":false,"is_disabled":false,"rental_uris":{"android":"levelo://app?vid=a963fcb0-547d-4fcc-967a-570e817ea233","ios":"levelo://app?vid=a963fcb0-547d-4fcc-967a-570e817ea233"},"vehicle_type_id":"4","last_reported":1723914381,"current_range_meters":21200,"station_id":"ce4bhb92rcd13ifvqen0","pricing_plan_id":"cebpf4jnsgd1na2vs0mg"},{"bike_id":"1732e4ca-a35c-46af-b0d1-63983dda9ac7","system_id":"levelo_inurba_marseille","lat":43.290103,"lon":5.356114,"is_reserved":false,"is_disabled":false,"rental_uris":{"android":"levelo://app?vid=1732e4ca-a35c-46af-b0d1-63983dda9ac7","ios":"levelo://app?vid=1732e4ca-a35c-46af-b0d1-63983dda9ac7"},"vehicle_type_id":"4","last_reported":1723914381,"current_range_meters":0,"station_id":"ce4bhb92rcd13ifvqen0","pricing_plan_id":"cebpf4jnsgd1na2vs0mg"},{"bike_id":"52d3f06d-a94b-442b-8734-3e68133069d8","system_id":"levelo_inurba_marseille","lat":43.290104,"lon":5.356111,"is_reserved":false,"is_disabled":false,"rental_uris":{"android":"levelo://app?vid=52d3f06d-a94b-442b-8734-3e68133069d8","ios":"levelo://app?vid=52d3f06d-a94b-442b-8734-3e68133069d8"},"vehicle_type_id":"4","last_reported":1723914381,"current_range_meters":30400,"station_id":"ce4bhb92rcd13ifvqen0","pricing_plan_id":"cebpf4jnsgd1na2vs0mg"},{"bike_id":"08fd5eaf-81a0-4594-9dfa-0e6a6fdbc7ea","system_id":"levelo_inurba_marseille","lat":43.290995,"lon":5.381361,"is_reserved":false,"is_disabled":false,"rental_uris":{"android":"levelo://app?vid=08fd5eaf-81a0-4594-9dfa-0e6a6fdbc7ea","ios":"levelo://app?vid=08fd5eaf-81a0-4594-9dfa-0e6a6fdbc7ea"},"vehicle_type_id":"4","last_reported":1723914381,"current_range_meters":3200,"station_id":"ce4bh512rcd13ifvqe2g","pricing_plan_id":"cebpf4jnsgd1na2vs0mg"},{"bike_id":"8e684524-908e-4b36-b491-e0417489b5d2","system_id":"levelo_inurba_marseille","lat":43.290995,"lon":5.381361,"is_reserved":false,"is_disabled":false,"rental_uris":{"android":"levelo://app?vid=8e684524-908e-4b36-b491-e0417489b5d2","ios":"levelo://app?vid=8e684524-908e-4b36-b491-e0417489b5d2"},"vehicle_type_id":"4","last_reported":1723914381,"current_range_meters":16800,"station_id":"ce4bh512rcd13ifvqe2g","pricing_plan_id":"cebpf4jnsgd1na2vs0mg"},{"bike_id":"5b5ac3d6-3e4a-48f2-9c2b-23cb8b11b870","system_id":"levelo_inurba_marseille","lat":43.290995,"lon":5.381361,"is_reserved":false,"is_disabled":false,"rental_uris":{"android":"levelo://app?vid=5b5ac3d6-3e4a-48f2-9c2b-23cb8b11b870","ios":"levelo://app?vid=5b5ac3d6-3e4a-48f2-9c2b-23cb8b11b870"},"vehicle_type_id":"4","last_reported":1723914381,"current_range_meters":16000,"station_id":"ce4bh512rcd13ifvqe2g","pricing_plan_id":"cebpf4jnsgd1na2vs0mg"},{"bike_id":"3c2a257c-6527-43ad-85d5-d2bd6b2a5f0a","system_id":"levelo_inurba_marseille","lat":43.29096,"lon":5.38132,"is_reserved":false,"is_disabled":false,"rental_uris":{"android":"levelo://app?vid=3c2a257c-6527-43ad-85d5-d2bd6b2a5f0a","ios":"levelo://app?vid=3c2a257c-6527-43ad-85d5-d2bd6b2a5f0a"},"vehicle_type_id":"4","last_reported":1723914381,"current_range_meters":13200,"station_id":"ce4bh512rcd13ifvqe2g","pricing_plan_id":"cebpf4jnsgd1na2vs0mg"},{"bike_id":"3d032e29-3c18-498c-8d29-5d7d40eeb7e3","system_id":"levelo_inurba_marseille","lat":43.290995,"lon":5.381361,"is_reserved":false,"is_disabled":false,"rental_uris":{"android":"levelo://app?vid=3d032e29-3c18-498c-8d29-5d7d40eeb7e3","ios":"levelo://app?vid=3d032e29-3c18-498c-8d29-5d7d40eeb7e3"},"vehicle_type_id":"4","last_reported":1723914381,"current_range_meters":0,"station_id":"ce4bh512rcd13ifvqe2g","pricing_plan_id":"cebpf4jnsgd1na2vs0mg"},{"bike_id":"826e3dbf-86a8-431d-9b36-619abf3aa7d8","system_id":"levelo_inurba_marseille","lat":43.28947,"lon":5.37612,"is_reserved":false,"is_disabled":false,"rental_uris":{"android":"levelo://app?vid=826e3dbf-86a8-431d-9b36-619abf3aa7d8","ios":"levelo://app?vid=826e3dbf-86a8-431d-9b36-619abf3aa7d8"},"vehicle_type_id":"4","last_reported":1723914381,"current_range_meters":28000,"station_id":"","pricing_plan_id":"cebpf4jnsgd1na2vs0mg"},{"bike_id":"3b4c75d5-7db3-457c-a3e4-e1e019564203","system_id":"levelo_inurba_marseille","lat":43.290995,"lon":5.381361,"is_reserved":false,"is_disabled":false,"rental_uris":{"android":"levelo://app?vid=3b4c75d5-7db3-457c-a3e4-e1e019564203","ios":"levelo://app?vid=3b4c75d5-7db3-457c-a3e4-e1e019564203"},"vehicle_type_id":"4","last_reported":1723914381,"current_range_meters":4000,"station_id":"ce4bh512rcd13ifvqe2g","pricing_plan_id":"cebpf4jnsgd1na2vs0mg"},{"bike_id":"f52e5394-9965-401b-9d30-a2a8f0f68a74","system_id":"levelo_inurba_marseille","lat":43.295169,"lon":5.390426,"is_reserved":false,"is_disabled":false,"rental_uris":{"android":"levelo://app?vid=f52e5394-9965-401b-9d30-a2a8f0f68a74","ios":"levelo://app?vid=f52e5394-9965-401b-9d30-a2a8f0f68a74"},"vehicle_type_id":"4","last_reported":1723914381,"current_range_meters":18800,"station_id":"ce4bh3p2rcd13ifvqdp0","pricing_plan_id":"cebpf4jnsgd1na2vs0mg"},{"bike_id":"c4a83548-a315-4c6d-9402-55e4d4c358b2","system_id":"levelo_inurba_marseille","lat":43.295169,"lon":5.390426,"is_reserved":false,"is_disabled":false,"rental_uris":{"android":"levelo://app?vid=c4a83548-a315-4c6d-9402-55e4d4c358b2","ios":"levelo://app?vid=c4a83548-a315-4c6d-9402-55e4d4c358b2"},"vehicle_type_id":"4","last_reported":1723914381,"current_range_meters":0,"station_id":"ce4bh3p2rcd13ifvqdp0","pricing_plan_id":"cebpf4jnsgd1na2vs0mg"},{"bike_id":"a81ae5b7-931a-45a2-a7db-8efba2b8a93b","system_id":"levelo_inurba_marseille","lat":43.33022,"lon":5.39037,"is_reserved":false,"is_disabled":false,"rental_uris":{"android":"levelo://app?vid=a81ae5b7-931a-45a2-a7db-8efba2b8a93b","ios":"levelo://app?vid=a81ae5b7-931a-45a2-a7db-8efba2b8a93b"},"vehicle_type_id":"4","last_reported":1723914381,"current_range_meters":25200,"station_id":"ce4bhr92rcd13ifvqhrg","pricing_plan_id":"cebpf4jnsgd1na2vs0mg"},{"bike_id":"c652d86f-3e09-4996-bd41-e7ba804da06a","system_id":"levelo_inurba_marseille","lat":43.295169,"lon":5.390426,"is_reserved":false,"is_disabled":false,"rental_uris":{"android":"levelo://app?vid=c652d86f-3e09-4996-bd41-e7ba804da06a","ios":"levelo://app?vid=c652d86f-3e09-4996-bd41-e7ba804da06a"},"vehicle_type_id":"4","last_reported":1723914381,"current_range_meters":8400,"station_id":"ce4bh3p2rcd13ifvqdp0","pricing_plan_id":"cebpf4jnsgd1na2vs0mg"},{"bike_id":"d13c8cf6-f663-4525-a1a6-917f0be1ef2c","system_id":"levelo_inurba_marseille","lat":43.295169,"lon":5.390426,"is_reserved":false,"is_disabled":false,"rental_uris":{"android":"levelo://app?vid=d13c8cf6-f663-4525-a1a6-917f0be1ef2c","ios":"levelo://app?vid=d13c8cf6-f663-4525-a1a6-917f0be1ef2c"},"vehicle_type_id":"4","last_reported":1723914381,"current_range_meters":6400,"station_id":"ce4bh3p2rcd13ifvqdp0","pricing_plan_id":"cebpf4jnsgd1na2vs0mg"},{"bike_id":"20bb52d3-58bc-4c8b-8501-eb01e70943a7","system_id":"levelo_inurba_marseille","lat":43.3302,"lon":5.39044,"is_reserved":false,"is_disabled":false,"rental_uris":{"android":"levelo://app?vid=20bb52d3-58bc-4c8b-8501-eb01e70943a7","ios":"levelo://app?vid=20bb52d3-58bc-4c8b-8501-eb01e70943a7"},"vehicle_type_id":"4","last_reported":1723914381,"current_range_meters":16800,"station_id":"ce4bhr92rcd13ifvqhrg","pricing_plan_id":"cebpf4jnsgd1na2vs0mg"},{"bike_id":"19dff55e-5e96-4595-b569-6e3be591cc9a","system_id":"levelo_inurba_marseille","lat":43.295169,"lon":5.390426,"is_reserved":false,"is_disabled":false,"rental_uris":{"android":"levelo://app?vid=19dff55e-5e96-4595-b569-6e3be591cc9a","ios":"levelo://app?vid=19dff55e-5e96-4595-b569-6e3be591cc9a"},"vehicle_type_id":"4","last_reported":1723914381,"current_range_meters":24800,"station_id":"ce4bh3p2rcd13ifvqdp0","pricing_plan_id":"cebpf4jnsgd1na2vs0mg"},{"bike_id":"4e39553a-0ddf-4470-b045-0a24907120f4","system_id":"levelo_inurba_marseille","lat":43.33029,"lon":5.39045,"is_reserved":false,"is_disabled":false,"rental_uris":{"android":"levelo://app?vid=4e39553a-0ddf-4470-b045-0a24907120f4","ios":"levelo://app?vid=4e39553a-0ddf-4470-b045-0a24907120f4"},"vehicle_type_id":"4","last_reported":1723914381,"current_range_meters":6000,"station_id":"ce4bhr92rcd13ifvqhrg","pricing_plan_id":"cebpf4jnsgd1na2vs0mg"},{"bike_id":"3a638a03-f8d4-4106-951f-279626ad8992","system_id":"levelo_inurba_marseille","lat":43.28919,"lon":5.37628,"is_reserved":false,"is_disabled":false,"rental_uris":{"android":"levelo://app?vid=3a638a03-f8d4-4106-951f-279626ad8992","ios":"levelo://app?vid=3a638a03-f8d4-4106-951f-279626ad8992"},"vehicle_type_id":"4","last_reported":1723914381,"current_range_meters":20400,"station_id":"","pricing_plan_id":"cebpf4jnsgd1na2vs0mg"},{"bike_id":"738723a0-0300-48ec-8acc-74d303dead17","system_id":"levelo_inurba_marseille","lat":43.289741,"lon":5.378306,"is_reserved":false,"is_disabled":false,"rental_uris":{"android":"levelo://app?vid=738723a0-0300-48ec-8acc-74d303dead17","ios":"levelo://app?vid=738723a0-0300-48ec-8acc-74d303dead17"},"vehicle_type_id":"4","last_reported":1723914381,"current_range_meters":24000,"station_id":"ce4bh9p2rcd13ifvqed0","pricing_plan_id":"cebpf4jnsgd1na2vs0mg"},{"bike_id":"0e47d662-571f-499b-ad29-d2986053c4be","system_id":"levelo_inurba_marseille","lat":43.2901,"lon":5.381269,"is_reserved":false,"is_disabled":false,"rental_uris":{"android":"levelo://app?vid=0e47d662-571f-499b-ad29-d2986053c4be","ios":"levelo://app?vid=0e47d662-571f-499b-ad29-d2986053c4be"},"vehicle_type_id":"4","last_reported":1723914381,"current_range_meters":27200,"station_id":"ce4bh4p2rcd13ifvqe1g","pricing_plan_id":"cebpf4jnsgd1na2vs0mg"},{"bike_id":"eae9c4ee-ed44-4f7b-9960-51823b690c64","system_id":"levelo_inurba_marseille","lat":43.28858,"lon":5.35855,"is_reserved":false,"is_disabled":false,"rental_uris":{"android":"levelo://app?vid=eae9c4ee-ed44-4f7b-9960-51823b690c64","ios":"levelo://app?vid=eae9c4ee-ed44-4f7b-9960-51823b690c64"},"vehicle_type_id":"4","last_reported":1723914381,"current_range_meters":8400,"station_id":"ce4bhb12rcd13ifvqem0","pricing_plan_id":"cebpf4jnsgd1na2vs0mg"},{"bike_id":"c3ec4ba9-a305-4fa4-89fb-600149f728aa","system_id":"levelo_inurba_marseille","lat":43.288557,"lon":5.35863,"is_reserved":false,"is_disabled":false,"rental_uris":{"android":"levelo://app?vid=c3ec4ba9-a305-4fa4-89fb-600149f728aa","ios":"levelo://app?vid=c3ec4ba9-a305-4fa4-89fb-600149f728aa"},"vehicle_type_id":"4","last_reported":1723914381,"current_range_meters":22000,"station_id":"ce4bhb12rcd13ifvqem0","pricing_plan_id":"cebpf4jnsgd1na2vs0mg"},{"bike_id":"37777a8a-b3fc-40e6-81ba-a0592dea54c1","system_id":"levelo_inurba_marseille","lat":43.28856,"lon":5.358371,"is_reserved":false,"is_disabled":false,"rental_uris":{"android":"levelo://app?vid=37777a8a-b3fc-40e6-81ba-a0592dea54c1","ios":"levelo://app?vid=37777a8a-b3fc-40e6-81ba-a0592dea54c1"},"vehicle_type_id":"4","last_reported":1723914381,"current_range_meters":4000,"station_id":"ce4bhb12rcd13ifvqem0","pricing_plan_id":"cebpf4jnsgd1na2vs0mg"},{"bike_id":"843cfa22-4b30-4d44-828d-24296c905f3b","system_id":"levelo_inurba_marseille","lat":43.28858,"lon":5.35844,"is_reserved":false,"is_disabled":false,"rental_uris":{"android":"levelo://app?vid=843cfa22-4b30-4d44-828d-24296c905f3b","ios":"levelo://app?vid=843cfa22-4b30-4d44-828d-24296c905f3b"},"vehicle_type_id":"4","last_reported":1723914381,"current_range_meters":2000,"station_id":"ce4bhb12rcd13ifvqem0","pricing_plan_id":"cebpf4jnsgd1na2vs0mg"},{"bike_id":"67da9584-4f91-45e3-a392-43974826ed61","system_id":"levelo_inurba_marseille","lat":43.28856,"lon":5.35854,"is_reserved":false,"is_disabled":false,"rental_uris":{"android":"levelo://app?vid=67da9584-4f91-45e3-a392-43974826ed61","ios":"levelo://app?vid=67da9584-4f91-45e3-a392-43974826ed61"},"vehicle_type_id":"4","last_reported":1723914381,"current_range_meters":0,"station_id":"ce4bhb12rcd13ifvqem0","pricing_plan_id":"cebpf4jnsgd1na2vs0mg"},{"bike_id":"45d40de7-cb4e-4d58-961d-4adc3016b492","system_id":"levelo_inurba_marseille","lat":43.28852,"lon":5.35868,"is_reserved":false,"is_disabled":false,"rental_uris":{"android":"levelo://app?vid=45d40de7-cb4e-4d58-961d-4adc3016b492","ios":"levelo://app?vid=45d40de7-cb4e-4d58-961d-4adc3016b492"},"vehicle_type_id":"4","last_reported":1723914381,"current_range_meters":30400,"station_id":"ce4bhb12rcd13ifvqem0","pricing_plan_id":"cebpf4jnsgd1na2vs0mg"},{"bike_id":"79ed7954-0ea7-472e-9c73-0430bfc384be","system_id":"levelo_inurba_marseille","lat":43.310595,"lon":5.40114,"is_reserved":false,"is_disabled":false,"rental_uris":{"android":"levelo://app?vid=79ed7954-0ea7-472e-9c73-0430bfc384be","ios":"levelo://app?vid=79ed7954-0ea7-472e-9c73-0430bfc384be"},"vehicle_type_id":"4","last_reported":1723914381,"current_range_meters":20400,"station_id":"","pricing_plan_id":"cebpf4jnsgd1na2vs0mg"},{"bike_id":"da7042fa-8529-4040-ac21-d781139b7c81","system_id":"levelo_inurba_marseille","lat":43.28856,"lon":5.358371,"is_reserved":false,"is_disabled":false,"rental_uris":{"android":"levelo://app?vid=da7042fa-8529-4040-ac21-d781139b7c81","ios":"levelo://app?vid=da7042fa-8529-4040-ac21-d781139b7c81"},"vehicle_type_id":"4","last_reported":1723914381,"current_range_meters":24400,"station_id":"ce4bhb12rcd13ifvqem0","pricing_plan_id":"cebpf4jnsgd1na2vs0mg"},{"bike_id":"6dc734c9-02b8-47aa-9380-06c41b46f652","system_id":"levelo_inurba_marseille","lat":43.28852,"lon":5.35839,"is_reserved":false,"is_disabled":false,"rental_uris":{"android":"levelo://app?vid=6dc734c9-02b8-47aa-9380-06c41b46f652","ios":"levelo://app?vid=6dc734c9-02b8-47aa-9380-06c41b46f652"},"vehicle_type_id":"4","last_reported":1723914381,"current_range_meters":19600,"station_id":"ce4bhb12rcd13ifvqem0","pricing_plan_id":"cebpf4jnsgd1na2vs0mg"},{"bike_id":"4785e030-7a7e-4cc4-bc52-cb358c4928f9","system_id":"levelo_inurba_marseille","lat":43.28856,"lon":5.358371,"is_reserved":false,"is_disabled":false,"rental_uris":{"android":"levelo://app?vid=4785e030-7a7e-4cc4-bc52-cb358c4928f9","ios":"levelo://app?vid=4785e030-7a7e-4cc4-bc52-cb358c4928f9"},"vehicle_type_id":"4","last_reported":1723914381,"current_range_meters":18000,"station_id":"ce4bhb12rcd13ifvqem0","pricing_plan_id":"cebpf4jnsgd1na2vs0mg"},{"bike_id":"c03d6845-ce4b-4e05-8c27-3ef5c06e3a8c","system_id":"levelo_inurba_marseille","lat":43.28846,"lon":5.35842,"is_reserved":false,"is_disabled":false,"rental_uris":{"android":"levelo://app?vid=c03d6845-ce4b-4e05-8c27-3ef5c06e3a8c","ios":"levelo://app?vid=c03d6845-ce4b-4e05-8c27-3ef5c06e3a8c"},"vehicle_type_id":"4","last_reported":1723914381,"current_range_meters":0,"station_id":"ce4bhb12rcd13ifvqem0","pricing_plan_id":"cebpf4jnsgd1na2vs0mg"},{"bike_id":"217ad296-175c-48c4-a42d-b4c13448eee8","system_id":"levelo_inurba_marseille","lat":43.312609,"lon":5.401662,"is_reserved":false,"is_disabled":false,"rental_uris":{"android":"levelo://app?vid=217ad296-175c-48c4-a42d-b4c13448eee8","ios":"levelo://app?vid=217ad296-175c-48c4-a42d-b4c13448eee8"},"vehicle_type_id":"4","last_reported":1723914381,"current_range_meters":23200,"station_id":"ce4bh092rcd13ifvqd30","pricing_plan_id":"cebpf4jnsgd1na2vs0mg"},{"bike_id":"a7b4db1a-e582-4380-a76d-e7169b47bb7c","system_id":"levelo_inurba_marseille","lat":43.3374,"lon":5.37451,"is_reserved":false,"is_disabled":false,"rental_uris":{"android":"levelo://app?vid=a7b4db1a-e582-4380-a76d-e7169b47bb7c","ios":"levelo://app?vid=a7b4db1a-e582-4380-a76d-e7169b47bb7c"},"vehicle_type_id":"4","last_reported":1723914381,"current_range_meters":1600,"station_id":"","pricing_plan_id":"cebpf4jnsgd1na2vs0mg"},{"bike_id":"888d0213-8cd9-4d16-816a-97c6297c2df3","system_id":"levelo_inurba_marseille","lat":43.312609,"lon":5.401662,"is_reserved":false,"is_disabled":false,"rental_uris":{"android":"levelo://app?vid=888d0213-8cd9-4d16-816a-97c6297c2df3","ios":"levelo://app?vid=888d0213-8cd9-4d16-816a-97c6297c2df3"},"vehicle_type_id":"4","last_reported":1723914381,"current_range_meters":7600,"station_id":"ce4bh092rcd13ifvqd30","pricing_plan_id":"cebpf4jnsgd1na2vs0mg"},{"bike_id":"ac75d8e5-5139-4e43-a64e-51e7994c2517","system_id":"levelo_inurba_marseille","lat":43.337444,"lon":5.374475,"is_reserved":false,"is_disabled":false,"rental_uris":{"android":"levelo://app?vid=ac75d8e5-5139-4e43-a64e-51e7994c2517","ios":"levelo://app?vid=ac75d8e5-5139-4e43-a64e-51e7994c2517"},"vehicle_type_id":"3","last_reported":1723914381,"current_range_meters":24800,"station_id":"","pricing_plan_id":"cebpf4jnsgd1na2vs0mg"},{"bike_id":"9efb6b26-7c96-422a-843a-b47b14d204b1","system_id":"levelo_inurba_marseille","lat":43.309371,"lon":5.401449,"is_reserved":false,"is_disabled":false,"rental_uris":{"android":"levelo://app?vid=9efb6b26-7c96-422a-843a-b47b14d204b1","ios":"levelo://app?vid=9efb6b26-7c96-422a-843a-b47b14d204b1"},"vehicle_type_id":"4","last_reported":1723914381,"current_range_meters":12000,"station_id":"ce4bgvp2rcd13ifvqct0","pricing_plan_id":"cebpf4jnsgd1na2vs0mg"},{"bike_id":"b689afdb-d9bc-4fc1-ad00-6742fff60d30","system_id":"levelo_inurba_marseille","lat":43.309371,"lon":5.401449,"is_reserved":false,"is_disabled":false,"rental_uris":{"android":"levelo://app?vid=b689afdb-d9bc-4fc1-ad00-6742fff60d30","ios":"levelo://app?vid=b689afdb-d9bc-4fc1-ad00-6742fff60d30"},"vehicle_type_id":"4","last_reported":1723914381,"current_range_meters":15600,"station_id":"ce4bgvp2rcd13ifvqct0","pricing_plan_id":"cebpf4jnsgd1na2vs0mg"},{"bike_id":"c40d88bb-a520-4edb-982b-f3ac0bbc8e0f","system_id":"levelo_inurba_marseille","lat":43.28782,"lon":5.373696,"is_reserved":false,"is_disabled":false,"rental_uris":{"android":"levelo://app?vid=c40d88bb-a520-4edb-982b-f3ac0bbc8e0f","ios":"levelo://app?vid=c40d88bb-a520-4edb-982b-f3ac0bbc8e0f"},"vehicle_type_id":"4","last_reported":1723914381,"current_range_meters":10400,"station_id":"","pricing_plan_id":"cebpf4jnsgd1na2vs0mg"},{"bike_id":"a50e86ec-7142-4333-b691-0c827835f65f","system_id":"levelo_inurba_marseille","lat":43.309371,"lon":5.401449,"is_reserved":false,"is_disabled":false,"rental_uris":{"android":"levelo://app?vid=a50e86ec-7142-4333-b691-0c827835f65f","ios":"levelo://app?vid=a50e86ec-7142-4333-b691-0c827835f65f"},"vehicle_type_id":"4","last_reported":1723914381,"current_range_meters":26800,"station_id":"ce4bgvp2rcd13ifvqct0","pricing_plan_id":"cebpf4jnsgd1na2vs0mg"},{"bike_id":"199a0340-fc58-4f77-a393-f16d645f8a85","system_id":"levelo_inurba_marseille","lat":43.30642,"lon":5.401031,"is_reserved":false,"is_disabled":false,"rental_uris":{"android":"levelo://app?vid=199a0340-fc58-4f77-a393-f16d645f8a85","ios":"levelo://app?vid=199a0340-fc58-4f77-a393-f16d645f8a85"},"vehicle_type_id":"4","last_reported":1723914381,"current_range_meters":12000,"station_id":"ce4bh112rcd13ifvqda0","pricing_plan_id":"cebpf4jnsgd1na2vs0mg"},{"bike_id":"67c9af85-1ae8-42f1-a013-9bb2d37e20e7","system_id":"levelo_inurba_marseille","lat":43.306412,"lon":5.401035,"is_reserved":false,"is_disabled":false,"rental_uris":{"android":"levelo://app?vid=67c9af85-1ae8-42f1-a013-9bb2d37e20e7","ios":"levelo://app?vid=67c9af85-1ae8-42f1-a013-9bb2d37e20e7"},"vehicle_type_id":"4","last_reported":1723914381,"current_range_meters":8400,"station_id":"ce4bh112rcd13ifvqda0","pricing_plan_id":"cebpf4jnsgd1na2vs0mg"},{"bike_id":"013cfb55-a2ad-4416-a977-5534ff73af07","system_id":"levelo_inurba_marseille","lat":43.337622,"lon":5.374694,"is_reserved":false,"is_disabled":false,"rental_uris":{"android":"levelo://app?vid=013cfb55-a2ad-4416-a977-5534ff73af07","ios":"levelo://app?vid=013cfb55-a2ad-4416-a977-5534ff73af07"},"vehicle_type_id":"4","last_reported":1723914381,"current_range_meters":27200,"station_id":"","pricing_plan_id":"cebpf4jnsgd1na2vs0mg"},{"bike_id":"3c41009f-2d18-48d8-a23d-2ea0c78e24ec","system_id":"levelo_inurba_marseille","lat":43.33761,"lon":5.37479,"is_reserved":false,"is_disabled":false,"rental_uris":{"android":"levelo://app?vid=3c41009f-2d18-48d8-a23d-2ea0c78e24ec","ios":"levelo://app?vid=3c41009f-2d18-48d8-a23d-2ea0c78e24ec"},"vehicle_type_id":"4","last_reported":1723914381,"current_range_meters":24400,"station_id":"","pricing_plan_id":"cebpf4jnsgd1na2vs0mg"},{"bike_id":"1c4535f4-e6df-4f21-a60f-101c2af0b8ce","system_id":"levelo_inurba_marseille","lat":43.30642,"lon":5.401031,"is_reserved":false,"is_disabled":false,"rental_uris":{"android":"levelo://app?vid=1c4535f4-e6df-4f21-a60f-101c2af0b8ce","ios":"levelo://app?vid=1c4535f4-e6df-4f21-a60f-101c2af0b8ce"},"vehicle_type_id":"4","last_reported":1723914381,"current_range_meters":7600,"station_id":"ce4bh112rcd13ifvqda0","pricing_plan_id":"cebpf4jnsgd1na2vs0mg"},{"bike_id":"16a958e0-aafc-4396-b634-1d8af67abff0","system_id":"levelo_inurba_marseille","lat":43.33768,"lon":5.37483,"is_reserved":false,"is_disabled":false,"rental_uris":{"android":"levelo://app?vid=16a958e0-aafc-4396-b634-1d8af67abff0","ios":"levelo://app?vid=16a958e0-aafc-4396-b634-1d8af67abff0"},"vehicle_type_id":"4","last_reported":1723914381,"current_range_meters":23600,"station_id":"","pricing_plan_id":"cebpf4jnsgd1na2vs0mg"},{"bike_id":"17506a18-ef4c-4f67-8f27-fd9c09192e41","system_id":"levelo_inurba_marseille","lat":43.337704,"lon":5.374725,"is_reserved":false,"is_disabled":false,"rental_uris":{"android":"levelo://app?vid=17506a18-ef4c-4f67-8f27-fd9c09192e41","ios":"levelo://app?vid=17506a18-ef4c-4f67-8f27-fd9c09192e41"},"vehicle_type_id":"4","last_reported":1723914381,"current_range_meters":24800,"station_id":"","pricing_plan_id":"cebpf4jnsgd1na2vs0mg"},{"bike_id":"cd7ef2ad-f91c-4cda-975b-45e9692366ae","system_id":"levelo_inurba_marseille","lat":43.33771,"lon":5.3748,"is_reserved":false,"is_disabled":false,"rental_uris":{"android":"levelo://app?vid=cd7ef2ad-f91c-4cda-975b-45e9692366ae","ios":"levelo://app?vid=cd7ef2ad-f91c-4cda-975b-45e9692366ae"},