{"last_updated":1690743845,"ttl":30,"version":"2.2","data":{"bikes":[{"bike_id":"e526d4e2-849c-44ae-a0d7-5572a62df909","system_id":"levelo_inurba_marseille","lat":43.31209,"lon":5.36837,"is_reserved":false,"is_disabled":false,"rental_uris":{"android":"levelo://app?vid=e526d4e2-849c-44ae-a0d7-5572a62df909","ios":"levelo://app?vid=e526d4e2-849c-44ae-a0d7-5572a62df909"},"vehicle_type_id":"4","last_reported":1690743845,"current_range_meters":22000,"station_id":"ce4bgl92rcd13ifvqbq0","pricing_plan_id":"free"},{"bike_id":"fda26049-a134-4868-9b5c-ae3a954d239f","system_id":"levelo_inurba_marseille","lat":43.309039,"lon":5.371797,"is_reserved":false,"is_disabled":false,"rental_uris":{"android":"levelo://app?vid=fda26049-a134-4868-9b5c-ae3a954d239f","ios":"levelo://app?vid=fda26049-a134-4868-9b5c-ae3a954d239f"},"vehicle_type_id":"4","last_reported":1690743845,"current_range_meters":4000,"station_id":"ce4bguh2rcd13ifvqckg","pricing_plan_id":"free"},{"bike_id":"3398d264-cb8b-4825-8caf-eca760f170a5","system_id":"levelo_inurba_marseille","lat":43.309039,"lon":5.371797,"is_reserved":false,"is_disabled":false,"rental_uris":{"android":"levelo://app?vid=3398d264-cb8b-4825-8caf-eca760f170a5","ios":"levelo://app?vid=3398d264-cb8b-4825-8caf-eca760f170a5"},"vehicle_type_id":"4","last_reported":1690743845,"current_range_meters":6400,"station_id":"ce4bguh2rcd13ifvqckg","pricing_plan_id":"free"},{"bike_id":"2cee37e5-8f73-40b3-a0af-4150c92a4b10","system_id":"levelo_inurba_marseille","lat":43.305714,"lon":5.365633,"is_reserved":false,"is_disabled":false,"rental_uris":{"android":"levelo://app?vid=2cee37e5-8f73-40b3-a0af-4150c92a4b10","ios":"levelo://app?vid=2cee37e5-8f73-40b3-a0af-4150c92a4b10"},"vehicle_type_id":"4","last_reported":1690743845,"current_range_meters":4000,"station_id":"ce4bgs12rcd13ifvqcag","pricing_plan_id":"free"},{"bike_id":"e06a92b2-47d5-42f1-8e7a-7f44fab20fcb","system_id":"levelo_inurba_marseille","lat":43.30536,"lon":5.36702,"is_reserved":false,"is_disabled":false,"rental_uris":{"android":"levelo://app?vid=e06a92b2-47d5-42f1-8e7a-7f44fab20fcb","ios":"levelo://app?vid=e06a92b2-47d5-42f1-8e7a-7f44fab20fcb"},"vehicle_type_id":"4","last_reported":1690743845,"current_range_meters":18000,"station_id":"ce4bgrp2rcd13ifvqc9g","pricing_plan_id":"free"},{"bike_id":"f79c5e8b-ebad-49cf-9a4a-927ffa2a3de3","system_id":"levelo_inurba_marseille","lat":43.30536,"lon":5.36557,"is_reserved":false,"is_disabled":false,"rental_uris":{"android":"levelo://app?vid=f79c5e8b-ebad-49cf-9a4a-927ffa2a3de3","ios":"levelo://app?vid=f79c5e8b-ebad-49cf-9a4a-927ffa2a3de3"},"vehicle_type_id":"4","last_reported":1690743845,"current_range_meters":12000,"station_id":"","pricing_plan_id":"free"},{"bike_id":"37ea31f8-d1b1-43c5-a29c-12b30d639a92","system_id":"levelo_inurba_marseille","lat":43.305706,"lon":5.365654,"is_reserved":false,"is_disabled":false,"rental_uris":{"android":"levelo://app?vid=37ea31f8-d1b1-43c5-a29c-12b30d639a92","ios":"levelo://app?vid=37ea31f8-d1b1-43c5-a29c-12b30d639a92"},"vehicle_type_id":"4","last_reported":1690743845,"current_range_meters":2800,"station_id":"ce4bgs12rcd13ifvqcag","pricing_plan_id":"free"},{"bike_id":"6f0337f0-0cbc-44f2-a7a6-4d7e263778b0","system_id":"levelo_inurba_marseille","lat":43.305989,"lon":5.37225,"is_reserved":false,"is_disabled":false,"rental_uris":{"android":"levelo://app?vid=6f0337f0-0cbc-44f2-a7a6-4d7e263778b0","ios":"levelo://app?vid=6f0337f0-0cbc-44f2-a7a6-4d7e263778b0"},"vehicle_type_id":"4","last_reported":1690743845,"current_range_meters":9200,"station_id":"ce4bgqh2rcd13ifvqc4g","pricing_plan_id":"free"},{"bike_id":"f20ea888-8740-440b-bfeb-8eb2a7c1f652","system_id":"levelo_inurba_marseille","lat":43.30609,"lon":5.37225,"is_reserved":false,"is_disabled":false,"rental_uris":{"android":"levelo://app?vid=f20ea888-8740-440b-bfeb-8eb2a7c1f652","ios":"levelo://app?vid=f20ea888-8740-440b-bfeb-8eb2a7c1f652"},"vehicle_type_id":"4","last_reported":1690743845,"current_range_meters":24000,"station_id":"ce4bgqh2rcd13ifvqc4g","pricing_plan_id":"free"},{"bike_id":"2c612977-2518-485f-a1fb-8ce6afbfcffc","system_id":"levelo_inurba_marseille","lat":43.305989,"lon":5.37225,"is_reserved":false,"is_disabled":false,"rental_uris":{"android":"levelo://app?vid=2c612977-2518-485f-a1fb-8ce6afbfcffc","ios":"levelo://app?vid=2c612977-2518-485f-a1fb-8ce6afbfcffc"},"vehicle_type_id":"4","last_reported":1690743845,"current_range_meters":6400,"station_id":"ce4bgqh2rcd13ifvqc4g","pricing_plan_id":"free"},{"bike_id":"8beb3b25-4923-4f8b-9721-9b2df27a02f6","system_id":"levelo_inurba_marseille","lat":43.305989,"lon":5.37225,"is_reserved":false,"is_disabled":false,"rental_uris":{"android":"levelo://app?vid=8beb3b25-4923-4f8b-9721-9b2df27a02f6","ios":"levelo://app?vid=8beb3b25-4923-4f8b-9721-9b2df27a02f6"},"vehicle_type_id":"4","last_reported":1690743845,"current_range_meters":15600,"station_id":"ce4bgqh2rcd13ifvqc4g","pricing_plan_id":"free"},{"bike_id":"9c1a6130-32ab-4254-82e7-e05de6b38888","system_id":"levelo_inurba_marseille","lat":43.315293,"lon":5.380349,"is_reserved":false,"is_disabled":false,"rental_uris":{"android":"levelo://app?vid=9c1a6130-32ab-4254-82e7-e05de6b38888","ios":"levelo://app?vid=9c1a6130-32ab-4254-82e7-e05de6b38888"},"vehicle_type_id":"4","last_reported":1690743845,"current_range_meters":24000,"station_id":"ce4bhsp2rcd13ifvqi50","pricing_plan_id":"free"},{"bike_id":"63a22039-b822-44dd-8dae-3cc93c33971a","system_id":"levelo_inurba_marseille","lat":43.304606,"lon":5.379026,"is_reserved":false,"is_disabled":false,"rental_uris":{"android":"levelo://app?vid=63a22039-b822-44dd-8dae-3cc93c33971a","ios":"levelo://app?vid=63a22039-b822-44dd-8dae-3cc93c33971a"},"vehicle_type_id":"4","last_reported":1690743845,"current_range_meters":10000,"station_id":"ce4bgup2rcd13ifvqcn0","pricing_plan_id":"free"},{"bike_id":"82fe659b-d720-4c07-a3fd-0c7abbc0c30e","system_id":"levelo_inurba_marseille","lat":43.302784,"lon":5.377158,"is_reserved":false,"is_disabled":false,"rental_uris":{"android":"levelo://app?vid=82fe659b-d720-4c07-a3fd-0c7abbc0c30e","ios":"levelo://app?vid=82fe659b-d720-4c07-a3fd-0c7abbc0c30e"},"vehicle_type_id":"4","last_reported":1690743845,"current_range_meters":21200,"station_id":"ce4bguh2rcd13ifvqcj0","pricing_plan_id":"free"},{"bike_id":"e01ceff0-d3c9-4455-99f0-acea6d354c64","system_id":"levelo_inurba_marseille","lat":43.301419,"lon":5.374139,"is_reserved":false,"is_disabled":false,"rental_uris":{"android":"levelo://app?vid=e01ceff0-d3c9-4455-99f0-acea6d354c64","ios":"levelo://app?vid=e01ceff0-d3c9-4455-99f0-acea6d354c64"},"vehicle_type_id":"4","last_reported":1690743845,"current_range_meters":6000,"station_id":"ce4bgs92rcd13ifvqcc0","pricing_plan_id":"free"},{"bike_id":"163efde7-e3ec-4682-9c0c-9a29b3ffed62","system_id":"levelo_inurba_marseille","lat":43.30135,"lon":5.37421,"is_reserved":false,"is_disabled":false,"rental_uris":{"android":"levelo://app?vid=163efde7-e3ec-4682-9c0c-9a29b3ffed62","ios":"levelo://app?vid=163efde7-e3ec-4682-9c0c-9a29b3ffed62"},"vehicle_type_id":"4","last_reported":1690743845,"current_range_meters":10800,"station_id":"ce4bgs92rcd13ifvqcc0","pricing_plan_id":"free"},{"bike_id":"4f35c9e7-a8ce-4817-83d1-7dae8f34fee3","system_id":"levelo_inurba_marseille","lat":43.32003,"lon":5.38155,"is_reserved":false,"is_disabled":false,"rental_uris":{"android":"levelo://app?vid=4f35c9e7-a8ce-4817-83d1-7dae8f34fee3","ios":"levelo://app?vid=4f35c9e7-a8ce-4817-83d1-7dae8f34fee3"},"vehicle_type_id":"4","last_reported":1690743845,"current_range_meters":4800,"station_id":"ce4bhr12rcd13ifvqhpg","pricing_plan_id":"free"},{"bike_id":"e53aed83-c0f4-4e20-a148-fb34729ce561","system_id":"levelo_inurba_marseille","lat":43.2997,"lon":5.36744,"is_reserved":false,"is_disabled":false,"rental_uris":{"android":"levelo://app?vid=e53aed83-c0f4-4e20-a148-fb34729ce561","ios":"levelo://app?vid=e53aed83-c0f4-4e20-a148-fb34729ce561"},"vehicle_type_id":"4","last_reported":1690743845,"current_range_meters":18800,"station_id":"","pricing_plan_id":"free"},{"bike_id":"58151673-9a29-4361-99bf-d74074380688","system_id":"levelo_inurba_marseille","lat":43.29974,"lon":5.37188,"is_reserved":false,"is_disabled":false,"rental_uris":{"android":"levelo://app?vid=58151673-9a29-4361-99bf-d74074380688","ios":"levelo://app?vid=58151673-9a29-4361-99bf-d74074380688"},"vehicle_type_id":"4","last_reported":1690743845,"current_range_meters":8000,"station_id":"ce4bgr92rcd13ifvqc7g","pricing_plan_id":"free"},{"bike_id":"9e32126a-1b49-4733-a44e-bb472072c4d6","system_id":"levelo_inurba_marseille","lat":43.30535,"lon":5.38412,"is_reserved":false,"is_disabled":false,"rental_uris":{"android":"levelo://app?vid=9e32126a-1b49-4733-a44e-bb472072c4d6","ios":"levelo://app?vid=9e32126a-1b49-4733-a44e-bb472072c4d6"},"vehicle_type_id":"4","last_reported":1690743845,"current_range_meters":9600,"station_id":"ce4bgg92rcd13ifvqb30","pricing_plan_id":"free"},{"bike_id":"30537d43-af02-4a10-b928-7b9b8cf633d2","system_id":"levelo_inurba_marseille","lat":43.30546,"lon":5.38431,"is_reserved":false,"is_disabled":false,"rental_uris":{"android":"levelo://app?vid=30537d43-af02-4a10-b928-7b9b8cf633d2","ios":"levelo://app?vid=30537d43-af02-4a10-b928-7b9b8cf633d2"},"vehicle_type_id":"4","last_reported":1690743845,"current_range_meters":30000,"station_id":"ce4bgg92rcd13ifvqb30","pricing_plan_id":"free"},{"bike_id":"e1b509e0-4ca5-48bf-ac46-887ebb4f8fae","system_id":"levelo_inurba_marseille","lat":43.311722,"lon":5.387247,"is_reserved":false,"is_disabled":false,"rental_uris":{"android":"levelo://app?vid=e1b509e0-4ca5-48bf-ac46-887ebb4f8fae","ios":"levelo://app?vid=e1b509e0-4ca5-48bf-ac46-887ebb4f8fae"},"vehicle_type_id":"4","last_reported":1690743845,"current_range_meters":5200,"station_id":"ce4bgv12rcd13ifvqcp0","pricing_plan_id":"free"},{"bike_id":"1a96d3a4-b35e-4639-a5cf-e48747301a0d","system_id":"levelo_inurba_marseille","lat":43.311722,"lon":5.387247,"is_reserved":false,"is_disabled":false,"rental_uris":{"android":"levelo://app?vid=1a96d3a4-b35e-4639-a5cf-e48747301a0d","ios":"levelo://app?vid=1a96d3a4-b35e-4639-a5cf-e48747301a0d"},"vehicle_type_id":"4","last_reported":1690743845,"current_range_meters":2000,"station_id":"ce4bgv12rcd13ifvqcp0","pricing_plan_id":"free"},{"bike_id":"aca66f02-9315-4364-8ba1-a0a8ae90d044","system_id":"levelo_inurba_marseille","lat":43.311722,"lon":5.387247,"is_reserved":false,"is_disabled":false,"rental_uris":{"android":"levelo://app?vid=aca66f02-9315-4364-8ba1-a0a8ae90d044","ios":"levelo://app?vid=aca66f02-9315-4364-8ba1-a0a8ae90d044"},"vehicle_type_id":"4","last_reported":1690743845,"current_range_meters":9200,"station_id":"ce4bgv12rcd13ifvqcp0","pricing_plan_id":"free"},{"bike_id":"cfaa776c-e242-4ea6-b6c7-d57517a1a35f","system_id":"levelo_inurba_marseille","lat":43.311722,"lon":5.387247,"is_reserved":false,"is_disabled":false,"rental_uris":{"android":"levelo://app?vid=cfaa776c-e242-4ea6-b6c7-d57517a1a35f","ios":"levelo://app?vid=cfaa776c-e242-4ea6-b6c7-d57517a1a35f"},"vehicle_type_id":"4","last_reported":1690743845,"current_range_meters":8000,"station_id":"ce4bgv12rcd13ifvqcp0","pricing_plan_id":"free"},{"bike_id":"b5e4cfa3-18a8-4b88-b1c1-43ae8bfa065d","system_id":"levelo_inurba_marseille","lat":43.29909,"lon":5.37483,"is_reserved":false,"is_disabled":false,"rental_uris":{"android":"levelo://app?vid=b5e4cfa3-18a8-4b88-b1c1-43ae8bfa065d","ios":"levelo://app?vid=b5e4cfa3-18a8-4b88-b1c1-43ae8bfa065d"},"vehicle_type_id":"4","last_reported":1690743845,"current_range_meters":24400,"station_id":"","pricing_plan_id":"free"},{"bike_id":"a196dbb0-0ca2-44b0-8b03-b7d3a734d20c","system_id":"levelo_inurba_marseille","lat":43.32296,"lon":5.38256,"is_reserved":false,"is_disabled":false,"rental_uris":{"android":"levelo://app?vid=a196dbb0-0ca2-44b0-8b03-b7d3a734d20c","ios":"levelo://app?vid=a196dbb0-0ca2-44b0-8b03-b7d3a734d20c"},"vehicle_type_id":"4","last_reported":1690743845,"current_range_meters":23600,"station_id":"ce4bhr12rcd13ifvqhqg","pricing_plan_id":"free"},{"bike_id":"a87c3d89-8ecc-4c20-a387-7842b25267e1","system_id":"levelo_inurba_marseille","lat":43.32291,"lon":5.38268,"is_reserved":false,"is_disabled":false,"rental_uris":{"android":"levelo://app?vid=a87c3d89-8ecc-4c20-a387-7842b25267e1","ios":"levelo://app?vid=a87c3d89-8ecc-4c20-a387-7842b25267e1"},"vehicle_type_id":"4","last_reported":1690743845,"current_range_meters":28000,"station_id":"ce4bhr12rcd13ifvqhqg","pricing_plan_id":"free"},{"bike_id":"82f1e03d-e4c3-4aac-b6f0-c9fc3950fe62","system_id":"levelo_inurba_marseille","lat":43.322919,"lon":5.382674,"is_reserved":false,"is_disabled":false,"rental_uris":{"android":"levelo://app?vid=82f1e03d-e4c3-4aac-b6f0-c9fc3950fe62","ios":"levelo://app?vid=82f1e03d-e4c3-4aac-b6f0-c9fc3950fe62"},"vehicle_type_id":"4","last_reported":1690743845,"current_range_meters":20000,"station_id":"","pricing_plan_id":"free"},{"bike_id":"aff0017d-8d19-4b8c-8490-dfc322af04d7","system_id":"levelo_inurba_marseille","lat":43.32291,"lon":5.38269,"is_reserved":false,"is_disabled":false,"rental_uris":{"android":"levelo://app?vid=aff0017d-8d19-4b8c-8490-dfc322af04d7","ios":"levelo://app?vid=aff0017d-8d19-4b8c-8490-dfc322af04d7"},"vehicle_type_id":"4","last_reported":1690743845,"current_range_meters":31200,"station_id":"ce4bhr12rcd13ifvqhqg","pricing_plan_id":"free"},{"bike_id":"79bf6da4-5f08-488b-96b1-6e23f74ec5ec","system_id":"levelo_inurba_marseille","lat":43.32297,"lon":5.38267,"is_reserved":false,"is_disabled":false,"rental_uris":{"android":"levelo://app?vid=79bf6da4-5f08-488b-96b1-6e23f74ec5ec","ios":"levelo://app?vid=79bf6da4-5f08-488b-96b1-6e23f74ec5ec"},"vehicle_type_id":"4","last_reported":1690743845,"current_range_meters":31200,"station_id":"ce4bhr12rcd13ifvqhqg","pricing_plan_id":"free"},{"bike_id":"cabe5a0b-8b65-42de-85e5-73402b1600bb","system_id":"levelo_inurba_marseille","lat":43.328371,"lon":5.366909,"is_reserved":false,"is_disabled":false,"rental_uris":{"android":"levelo://app?vid=cabe5a0b-8b65-42de-85e5-73402b1600bb","ios":"levelo://app?vid=cabe5a0b-8b65-42de-85e5-73402b1600bb"},"vehicle_type_id":"4","last_reported":1690743845,"current_range_meters":19600,"station_id":"ce4bhs92rcd13ifvqi0g","pricing_plan_id":"free"},{"bike_id":"7a3debfb-a4c2-4cbf-a70c-be28fe4f20ea","system_id":"levelo_inurba_marseille","lat":43.328371,"lon":5.366909,"is_reserved":false,"is_disabled":false,"rental_uris":{"android":"levelo://app?vid=7a3debfb-a4c2-4cbf-a70c-be28fe4f20ea","ios":"levelo://app?vid=7a3debfb-a4c2-4cbf-a70c-be28fe4f20ea"},"vehicle_type_id":"4","last_reported":1690743845,"current_range_meters":13600,"station_id":"ce4bhs92rcd13ifvqi0g","pricing_plan_id":"free"},{"bike_id":"dd789220-e7b5-42c1-b9dc-dc4243148021","system_id":"levelo_inurba_marseille","lat":43.297163,"lon":5.365866,"is_reserved":false,"is_disabled":false,"rental_uris":{"android":"levelo://app?vid=dd789220-e7b5-42c1-b9dc-dc4243148021","ios":"levelo://app?vid=dd789220-e7b5-42c1-b9dc-dc4243148021"},"vehicle_type_id":"4","last_reported":1690743845,"current_range_meters":31200,"station_id":"ce4bgn12rcd13ifvqbt0","pricing_plan_id":"free"},{"bike_id":"5dd6e2e1-d27e-4722-978b-ddcf64688eab","system_id":"levelo_inurba_marseille","lat":43.296131,"lon":5.370773,"is_reserved":false,"is_disabled":false,"rental_uris":{"android":"levelo://app?vid=5dd6e2e1-d27e-4722-978b-ddcf64688eab","ios":"levelo://app?vid=5dd6e2e1-d27e-4722-978b-ddcf64688eab"},"vehicle_type_id":"4","last_reported":1690743845,"current_range_meters":800,"station_id":"ce4bgnh2rcd13ifvqc0g","pricing_plan_id":"free"},{"bike_id":"e6034b89-f056-4731-ace4-02ecb5125a68","system_id":"levelo_inurba_marseille","lat":43.299028,"lon":5.381509,"is_reserved":false,"is_disabled":false,"rental_uris":{"android":"levelo://app?vid=e6034b89-f056-4731-ace4-02ecb5125a68","ios":"levelo://app?vid=e6034b89-f056-4731-ace4-02ecb5125a68"},"vehicle_type_id":"4","last_reported":1690743845,"current_range_meters":6800,"station_id":"ce4bgj12rcd13ifvqbc0","pricing_plan_id":"free"},{"bike_id":"f0b1921d-8fc5-42f6-8214-26455e772ce5","system_id":"levelo_inurba_marseille","lat":43.309589,"lon":5.390258,"is_reserved":false,"is_disabled":false,"rental_uris":{"android":"levelo://app?vid=f0b1921d-8fc5-42f6-8214-26455e772ce5","ios":"levelo://app?vid=f0b1921d-8fc5-42f6-8214-26455e772ce5"},"vehicle_type_id":"4","last_reported":1690743845,"current_range_meters":27600,"station_id":"ce4bgup2rcd13ifvqco0","pricing_plan_id":"free"},{"bike_id":"d7d4ce60-80f4-43da-8443-98e2248587e6","system_id":"levelo_inurba_marseille","lat":43.317557,"lon":5.390173,"is_reserved":false,"is_disabled":false,"rental_uris":{"android":"levelo://app?vid=d7d4ce60-80f4-43da-8443-98e2248587e6","ios":"levelo://app?vid=d7d4ce60-80f4-43da-8443-98e2248587e6"},"vehicle_type_id":"4","last_reported":1690743845,"current_range_meters":28400,"station_id":"ce4bhqp2rcd13ifvqhng","pricing_plan_id":"free"},{"bike_id":"3628ba30-8d2c-4d48-bfe9-f1b2f9c3536f","system_id":"levelo_inurba_marseille","lat":43.298037,"lon":5.381066,"is_reserved":false,"is_disabled":false,"rental_uris":{"android":"levelo://app?vid=3628ba30-8d2c-4d48-bfe9-f1b2f9c3536f","ios":"levelo://app?vid=3628ba30-8d2c-4d48-bfe9-f1b2f9c3536f"},"vehicle_type_id":"4","last_reported":1690743845,"current_range_meters":25200,"station_id":"ce4bgip2rcd13ifvqbb0","pricing_plan_id":"free"},{"bike_id":"2e151f59-dd13-4b1a-a9f0-9fbf945c7564","system_id":"levelo_inurba_marseille","lat":43.29582,"lon":5.37508,"is_reserved":false,"is_disabled":false,"rental_uris":{"android":"levelo://app?vid=2e151f59-dd13-4b1a-a9f0-9fbf945c7564","ios":"levelo://app?vid=2e151f59-dd13-4b1a-a9f0-9fbf945c7564"},"vehicle_type_id":"4","last_reported":1690743845,"current_range_meters":13200,"station_id":"ce4bgh92rcd13ifvqb50","pricing_plan_id":"free"},{"bike_id":"b492aa82-3b55-4bbe-a816-6ef21c96383f","system_id":"levelo_inurba_marseille","lat":43.298037,"lon":5.381066,"is_reserved":false,"is_disabled":false,"rental_uris":{"android":"levelo://app?vid=b492aa82-3b55-4bbe-a816-6ef21c96383f","ios":"levelo://app?vid=b492aa82-3b55-4bbe-a816-6ef21c96383f"},"vehicle_type_id":"4","last_reported":1690743845,"current_range_meters":12800,"station_id":"ce4bgip2rcd13ifvqbb0","pricing_plan_id":"free"},{"bike_id":"1ed2856e-e7e9-4341-9465-f51dc4b9e2eb","system_id":"levelo_inurba_marseille","lat":43.295748,"lon":5.37522,"is_reserved":false,"is_disabled":false,"rental_uris":{"android":"levelo://app?vid=1ed2856e-e7e9-4341-9465-f51dc4b9e2eb","ios":"levelo://app?vid=1ed2856e-e7e9-4341-9465-f51dc4b9e2eb"},"vehicle_type_id":"4","last_reported":1690743845,"current_range_meters":0,"station_id":"ce4bgh92rcd13ifvqb50","pricing_plan_id":"free"},{"bike_id":"7a7557a6-0d1f-4080-bce1-38c3900d6640","system_id":"levelo_inurba_marseille","lat":43.304274,"lon":5.388873,"is_reserved":false,"is_disabled":false,"rental_uris":{"android":"levelo://app?vid=7a7557a6-0d1f-4080-bce1-38c3900d6640","ios":"levelo://app?vid=7a7557a6-0d1f-4080-bce1-38c3900d6640"},"vehicle_type_id":"4","last_reported":1690743845,"current_range_meters":20800,"station_id":"ce4bgk12rcd13ifvqbi0","pricing_plan_id":"free"},{"bike_id":"7446d162-66e6-4145-bfbd-3b01bcd0f382","system_id":"levelo_inurba_marseille","lat":43.294162,"lon":5.386292,"is_reserved":false,"is_disabled":false,"rental_uris":{"android":"levelo://app?vid=7446d162-66e6-4145-bfbd-3b01bcd0f382","ios":"levelo://app?vid=7446d162-66e6-4145-bfbd-3b01bcd0f382"},"vehicle_type_id":"4","last_reported":1690743845,"current_range_meters":20400,"station_id":"ce4bh2h2rcd13ifvqdh0","pricing_plan_id":"free"},{"bike_id":"335c407b-5852-4f1e-9d90-df6fee08a90a","system_id":"levelo_inurba_marseille","lat":43.296263,"lon":5.377094,"is_reserved":false,"is_disabled":false,"rental_uris":{"android":"levelo://app?vid=335c407b-5852-4f1e-9d90-df6fee08a90a","ios":"levelo://app?vid=335c407b-5852-4f1e-9d90-df6fee08a90a"},"vehicle_type_id":"4","last_reported":1690743845,"current_range_meters":19200,"station_id":"ce4bgi92rcd13ifvqb90","pricing_plan_id":"free"},{"bike_id":"b63faaae-d64c-4adc-ad77-89b9d73f5724","system_id":"levelo_inurba_marseille","lat":43.296263,"lon":5.377094,"is_reserved":false,"is_disabled":false,"rental_uris":{"android":"levelo://app?vid=b63faaae-d64c-4adc-ad77-89b9d73f5724","ios":"levelo://app?vid=b63faaae-d64c-4adc-ad77-89b9d73f5724"},"vehicle_type_id":"4","last_reported":1690743845,"current_range_meters":22800,"station_id":"ce4bgi92rcd13ifvqb90","pricing_plan_id":"free"},{"bike_id":"b156206a-f83a-452c-8180-7af59d35c704","system_id":"levelo_inurba_marseille","lat":43.299707,"lon":5.384859,"is_reserved":false,"is_disabled":false,"rental_uris":{"android":"levelo://app?vid=b156206a-f83a-452c-8180-7af59d35c704","ios":"levelo://app?vid=b156206a-f83a-452c-8180-7af59d35c704"},"vehicle_type_id":"4","last_reported":1690743845,"current_range_meters":0,"station_id":"ce4bgj92rcd13ifvqbd0","pricing_plan_id":"free"},{"bike_id":"bf8bfea2-6704-4557-9727-25ba7d665d16","system_id":"levelo_inurba_marseille","lat":43.29986,"lon":5.38492,"is_reserved":false,"is_disabled":false,"rental_uris":{"android":"levelo://app?vid=bf8bfea2-6704-4557-9727-25ba7d665d16","ios":"levelo://app?vid=bf8bfea2-6704-4557-9727-25ba7d665d16"},"vehicle_type_id":"4","last_reported":1690743845,"current_range_meters":0,"station_id":"ce4bgj92rcd13ifvqbd0","pricing_plan_id":"free"},{"bike_id":"4dcbd7bb-88e8-4ced-a5d2-afd357e08b48","system_id":"levelo_inurba_marseille","lat":43.29977,"lon":5.38482,"is_reserved":false,"is_disabled":false,"rental_uris":{"android":"levelo://app?vid=4dcbd7bb-88e8-4ced-a5d2-afd357e08b48","ios":"levelo://app?vid=4dcbd7bb-88e8-4ced-a5d2-afd357e08b48"},"vehicle_type_id":"4","last_reported":1690743845,"current_range_meters":0,"station_id":"ce4bgj92rcd13ifvqbd0","pricing_plan_id":"free"},{"bike_id":"5ffa8c1e-7c70-4334-a2b9-ec0cef53a94a","system_id":"levelo_inurba_marseille","lat":43.2953,"lon":5.37498,"is_reserved":false,"is_disabled":false,"rental_uris":{"android":"levelo://app?vid=5ffa8c1e-7c70-4334-a2b9-ec0cef53a94a","ios":"levelo://app?vid=5ffa8c1e-7c70-4334-a2b9-ec0cef53a94a"},"vehicle_type_id":"4","last_reported":1690743845,"current_range_meters":400,"station_id":"ce4bgkp2rcd13ifvqbmg","pricing_plan_id":"free"},{"bike_id":"10339b4b-821d-4a52-934a-8ad3efa3c0d6","system_id":"levelo_inurba_marseille","lat":43.299717,"lon":5.384845,"is_reserved":false,"is_disabled":false,"rental_uris":{"android":"levelo://app?vid=10339b4b-821d-4a52-934a-8ad3efa3c0d6","ios":"levelo://app?vid=10339b4b-821d-4a52-934a-8ad3efa3c0d6"},"vehicle_type_id":"4","last_reported":1690743845,"current_range_meters":6000,"station_id":"ce4bgj92rcd13ifvqbd0","pricing_plan_id":"free"},{"bike_id":"e63e799b-4ab0-4256-9c2a-7348ef3f8798","system_id":"levelo_inurba_marseille","lat":43.299717,"lon":5.384845,"is_reserved":false,"is_disabled":false,"rental_uris":{"android":"levelo://app?vid=e63e799b-4ab0-4256-9c2a-7348ef3f8798","ios":"levelo://app?vid=e63e799b-4ab0-4256-9c2a-7348ef3f8798"},"vehicle_type_id":"4","last_reported":1690743845,"current_range_meters":7600,"station_id":"ce4bgj92rcd13ifvqbd0","pricing_plan_id":"free"},{"bike_id":"b1b435d7-19ba-4ed1-8574-b95a5f045d69","system_id":"levelo_inurba_marseille","lat":43.299724,"lon":5.384848,"is_reserved":false,"is_disabled":false,"rental_uris":{"android":"levelo://app?vid=b1b435d7-19ba-4ed1-8574-b95a5f045d69","ios":"levelo://app?vid=b1b435d7-19ba-4ed1-8574-b95a5f045d69"},"vehicle_type_id":"4","last_reported":1690743845,"current_range_meters":11600,"station_id":"ce4bgj92rcd13ifvqbd0","pricing_plan_id":"free"},{"bike_id":"c372ec2b-dbfa-42f2-bca1-f0324122476d","system_id":"levelo_inurba_marseille","lat":43.32366,"lon":5.38883,"is_reserved":false,"is_disabled":false,"rental_uris":{"android":"levelo://app?vid=c372ec2b-dbfa-42f2-bca1-f0324122476d","ios":"levelo://app?vid=c372ec2b-dbfa-42f2-bca1-f0324122476d"},"vehicle_type_id":"4","last_reported":1690743845,"current_range_meters":17200,"station_id":"ce4bhqp2rcd13ifvqhog","pricing_plan_id":"free"},{"bike_id":"eeb263b1-85bf-45c1-9ae9-d4f39665097c","system_id":"levelo_inurba_marseille","lat":43.32373,"lon":5.38878,"is_reserved":false,"is_disabled":false,"rental_uris":{"android":"levelo://app?vid=eeb263b1-85bf-45c1-9ae9-d4f39665097c","ios":"levelo://app?vid=eeb263b1-85bf-45c1-9ae9-d4f39665097c"},"vehicle_type_id":"4","last_reported":1690743845,"current_range_meters":21200,"station_id":"ce4bhqp2rcd13ifvqhog","pricing_plan_id":"free"},{"bike_id":"f1b796e6-0f87-49d7-82b3-253315fed9e4","system_id":"levelo_inurba_marseille","lat":43.29602,"lon":5.381084,"is_reserved":false,"is_disabled":false,"rental_uris":{"android":"levelo://app?vid=f1b796e6-0f87-49d7-82b3-253315fed9e4","ios":"levelo://app?vid=f1b796e6-0f87-49d7-82b3-253315fed9e4"},"vehicle_type_id":"4","last_reported":1690743845,"current_range_meters":7600,"station_id":"ce4bgl12rcd13ifvqbo0","pricing_plan_id":"free"},{"bike_id":"449b083d-5ad5-4592-b96b-4b355b5039dc","system_id":"levelo_inurba_marseille","lat":43.292749,"lon":5.368398,"is_reserved":false,"is_disabled":false,"rental_uris":{"android":"levelo://app?vid=449b083d-5ad5-4592-b96b-4b355b5039dc","ios":"levelo://app?vid=449b083d-5ad5-4592-b96b-4b355b5039dc"},"vehicle_type_id":"4","last_reported":1690743845,"current_range_meters":8400,"station_id":"ce4bhbp2rcd13ifvqesg","pricing_plan_id":"free"},{"bike_id":"73536834-d5d8-42f7-934b-d1874cd47a62","system_id":"levelo_inurba_marseille","lat":43.292749,"lon":5.368398,"is_reserved":false,"is_disabled":false,"rental_uris":{"android":"levelo://app?vid=73536834-d5d8-42f7-934b-d1874cd47a62","ios":"levelo://app?vid=73536834-d5d8-42f7-934b-d1874cd47a62"},"vehicle_type_id":"4","last_reported":1690743845,"current_range_meters":5600,"station_id":"ce4bhbp2rcd13ifvqesg","pricing_plan_id":"free"},{"bike_id":"3482cb37-fb24-4701-a4d6-70812b2590e6","system_id":"levelo_inurba_marseille","lat":43.305994,"lon":5.393687,"is_reserved":false,"is_disabled":false,"rental_uris":{"android":"levelo://app?vid=3482cb37-fb24-4701-a4d6-70812b2590e6","ios":"levelo://app?vid=3482cb37-fb24-4701-a4d6-70812b2590e6"},"vehicle_type_id":"4","last_reported":1690743845,"current_range_meters":13200,"station_id":"ce4bh0p2rcd13ifvqd80","pricing_plan_id":"free"},{"bike_id":"4c9a805f-5b0a-49cb-94f9-900f4cd8a9df","system_id":"levelo_inurba_marseille","lat":43.30295,"lon":5.39207,"is_reserved":false,"is_disabled":false,"rental_uris":{"android":"levelo://app?vid=4c9a805f-5b0a-49cb-94f9-900f4cd8a9df","ios":"levelo://app?vid=4c9a805f-5b0a-49cb-94f9-900f4cd8a9df"},"vehicle_type_id":"4","last_reported":1690743845,"current_range_meters":19600,"station_id":"ce4bgkh2rcd13ifvqbk0","pricing_plan_id":"free"},{"bike_id":"29dd8285-48b2-4401-bc7f-1d68ee1f0a10","system_id":"levelo_inurba_marseille","lat":43.302992,"lon":5.392136,"is_reserved":false,"is_disabled":false,"rental_uris":{"android":"levelo://app?vid=29dd8285-48b2-4401-bc7f-1d68ee1f0a10","ios":"levelo://app?vid=29dd8285-48b2-4401-bc7f-1d68ee1f0a10"},"vehicle_type_id":"4","last_reported":1690743845,"current_range_meters":12800,"station_id":"ce4bgkh2rcd13ifvqbk0","pricing_plan_id":"free"},{"bike_id":"ef674ce9-86f3-4dc0-aff9-29f258fd5020","system_id":"levelo_inurba_marseille","lat":43.29337,"lon":5.37734,"is_reserved":false,"is_disabled":false,"rental_uris":{"android":"levelo://app?vid=ef674ce9-86f3-4dc0-aff9-29f258fd5020","ios":"levelo://app?vid=ef674ce9-86f3-4dc0-aff9-29f258fd5020"},"vehicle_type_id":"4","last_reported":1690743845,"current_range_meters":12800,"station_id":"","pricing_plan_id":"free"},{"bike_id":"e30e3dda-2a6d-42c9-8bf2-c548da952acc","system_id":"levelo_inurba_marseille","lat":43.302992,"lon":5.392136,"is_reserved":false,"is_disabled":false,"rental_uris":{"android":"levelo://app?vid=e30e3dda-2a6d-42c9-8bf2-c548da952acc","ios":"levelo://app?vid=e30e3dda-2a6d-42c9-8bf2-c548da952acc"},"vehicle_type_id":"4","last_reported":1690743845,"current_range_meters":0,"station_id":"ce4bgkh2rcd13ifvqbk0","pricing_plan_id":"free"},{"bike_id":"827512e9-6253-4bd3-a85e-b147cbd09836","system_id":"levelo_inurba_marseille","lat":43.30085,"lon":5.390856,"is_reserved":false,"is_disabled":false,"rental_uris":{"android":"levelo://app?vid=827512e9-6253-4bd3-a85e-b147cbd09836","ios":"levelo://app?vid=827512e9-6253-4bd3-a85e-b147cbd09836"},"vehicle_type_id":"4","last_reported":1690743845,"current_range_meters":23200,"station_id":"ce4bh192rcd13ifvqdb0","pricing_plan_id":"free"},{"bike_id":"2a49db6c-347d-4882-98ea-af0e1fa13178","system_id":"levelo_inurba_marseille","lat":43.29886,"lon":5.38897,"is_reserved":false,"is_disabled":false,"rental_uris":{"android":"levelo://app?vid=2a49db6c-347d-4882-98ea-af0e1fa13178","ios":"levelo://app?vid=2a49db6c-347d-4882-98ea-af0e1fa13178"},"vehicle_type_id":"4","last_reported":1690743845,"current_range_meters":10400,"station_id":"ce4bh392rcd13ifvqdl0","pricing_plan_id":"free"},{"bike_id":"e32841c6-0372-4dd1-b888-23147e1c4435","system_id":"levelo_inurba_marseille","lat":43.298764,"lon":5.388973,"is_reserved":false,"is_disabled":false,"rental_uris":{"android":"levelo://app?vid=e32841c6-0372-4dd1-b888-23147e1c4435","ios":"levelo://app?vid=e32841c6-0372-4dd1-b888-23147e1c4435"},"vehicle_type_id":"4","last_reported":1690743845,"current_range_meters":13200,"station_id":"ce4bh392rcd13ifvqdl0","pricing_plan_id":"free"},{"bike_id":"1d2b58f8-c78f-44c3-82ed-03182a9c4fd8","system_id":"levelo_inurba_marseille","lat":43.29876,"lon":5.38904,"is_reserved":false,"is_disabled":false,"rental_uris":{"android":"levelo://app?vid=1d2b58f8-c78f-44c3-82ed-03182a9c4fd8","ios":"levelo://app?vid=1d2b58f8-c78f-44c3-82ed-03182a9c4fd8"},"vehicle_type_id":"4","last_reported":1690743845,"current_range_meters":4000,"station_id":"ce4bh392rcd13ifvqdl0","pricing_plan_id":"free"},{"bike_id":"37936129-71ca-40a4-8298-3c5f322560de","system_id":"levelo_inurba_marseille","lat":43.313291,"lon":5.396838,"is_reserved":false,"is_disabled":false,"rental_uris":{"android":"levelo://app?vid=37936129-71ca-40a4-8298-3c5f322560de","ios":"levelo://app?vid=37936129-71ca-40a4-8298-3c5f322560de"},"vehicle_type_id":"4","last_reported":1690743845,"current_range_meters":15200,"station_id":"ce4bgvp2rcd13ifvqcu0","pricing_plan_id":"free"},{"bike_id":"2f65809f-3e08-4df6-892e-d252588e3ef7","system_id":"levelo_inurba_marseille","lat":43.29529,"lon":5.38536,"is_reserved":false,"is_disabled":false,"rental_uris":{"android":"levelo://app?vid=2f65809f-3e08-4df6-892e-d252588e3ef7","ios":"levelo://app?vid=2f65809f-3e08-4df6-892e-d252588e3ef7"},"vehicle_type_id":"4","last_reported":1690743845,"current_range_meters":2400,"station_id":"ce4bgih2rcd13ifvqba0","pricing_plan_id":"free"},{"bike_id":"700f93cb-6d06-46a1-a7f7-0fc5d03925b7","system_id":"levelo_inurba_marseille","lat":43.29529,"lon":5.385581,"is_reserved":false,"is_disabled":false,"rental_uris":{"android":"levelo://app?vid=700f93cb-6d06-46a1-a7f7-0fc5d03925b7","ios":"levelo://app?vid=700f93cb-6d06-46a1-a7f7-0fc5d03925b7"},"vehicle_type_id":"4","last_reported":1690743845,"current_range_meters":22000,"station_id":"ce4bgih2rcd13ifvqba0","pricing_plan_id":"free"},{"bike_id":"a7a987a6-69e3-422c-bfee-ef99e37605d7","system_id":"levelo_inurba_marseille","lat":43.29535,"lon":5.38547,"is_reserved":false,"is_disabled":false,"rental_uris":{"android":"levelo://app?vid=a7a987a6-69e3-422c-bfee-ef99e37605d7","ios":"levelo://app?vid=a7a987a6-69e3-422c-bfee-ef99e37605d7"},"vehicle_type_id":"4","last_reported":1690743845,"current_range_meters":10800,"station_id":"ce4bgih2rcd13ifvqba0","pricing_plan_id":"free"},{"bike_id":"7fc73175-f2dc-4747-a315-4da7447ca6ec","system_id":"levelo_inurba_marseille","lat":43.29529,"lon":5.385581,"is_reserved":false,"is_disabled":false,"rental_uris":{"android":"levelo://app?vid=7fc73175-f2dc-4747-a315-4da7447ca6ec","ios":"levelo://app?vid=7fc73175-f2dc-4747-a315-4da7447ca6ec"},"vehicle_type_id":"4","last_reported":1690743845,"current_range_meters":28000,"station_id":"ce4bgih2rcd13ifvqba0","pricing_plan_id":"free"},{"bike_id":"b5f4db1c-3920-4d79-989a-06bfb2a96494","system_id":"levelo_inurba_marseille","lat":43.29528,"lon":5.38537,"is_reserved":false,"is_disabled":false,"rental_uris":{"android":"levelo://app?vid=b5f4db1c-3920-4d79-989a-06bfb2a96494","ios":"levelo://app?vid=b5f4db1c-3920-4d79-989a-06bfb2a96494"},"vehicle_type_id":"4","last_reported":1690743845,"current_range_meters":24800,"station_id":"","pricing_plan_id":"free"},{"bike_id":"fe5018aa-c384-4dba-90fc-69f68322706f","system_id":"levelo_inurba_marseille","lat":43.29529,"lon":5.38542,"is_reserved":false,"is_disabled":false,"rental_uris":{"android":"levelo://app?vid=fe5018aa-c384-4dba-90fc-69f68322706f","ios":"levelo://app?vid=fe5018aa-c384-4dba-90fc-69f68322706f"},"vehicle_type_id":"4","last_reported":1690743845,"current_range_meters":1600,"station_id":"ce4bgih2rcd13ifvqba0","pricing_plan_id":"free"},{"bike_id":"865a6557-e0c7-4339-8ece-73b55a3bd533","system_id":"levelo_inurba_marseille","lat":43.29529,"lon":5.385581,"is_reserved":false,"is_disabled":false,"rental_uris":{"android":"levelo://app?vid=865a6557-e0c7-4339-8ece-73b55a3bd533","ios":"levelo://app?vid=865a6557-e0c7-4339-8ece-73b55a3bd533"},"vehicle_type_id":"4","last_reported":1690743845,"current_range_meters":3600,"station_id":"ce4bgih2rcd13ifvqba0","pricing_plan_id":"free"},{"bike_id":"f1926456-fc7c-49fa-95b8-10e53a11ff3e","system_id":"levelo_inurba_marseille","lat":43.29523,"lon":5.38533,"is_reserved":false,"is_disabled":false,"rental_uris":{"android":"levelo://app?vid=f1926456-fc7c-49fa-95b8-10e53a11ff3e","ios":"levelo://app?vid=f1926456-fc7c-49fa-95b8-10e53a11ff3e"},"vehicle_type_id":"4","last_reported":1690743845,"current_range_meters":2800,"station_id":"ce4bgih2rcd13ifvqba0","pricing_plan_id":"free"},{"bike_id":"863be538-aca5-4215-a74f-279061f1ea3a","system_id":"levelo_inurba_marseille","lat":43.29529,"lon":5.385581,"is_reserved":false,"is_disabled":false,"rental_uris":{"android":"levelo://app?vid=863be538-aca5-4215-a74f-279061f1ea3a","ios":"levelo://app?vid=863be538-aca5-4215-a74f-279061f1ea3a"},"vehicle_type_id":"4","last_reported":1690743845,"current_range_meters":17600,"station_id":"ce4bgih2rcd13ifvqba0","pricing_plan_id":"free"},{"bike_id":"1b54399c-face-4b18-837e-eb4617925928","system_id":"levelo_inurba_marseille","lat":43.302008,"lon":5.394694,"is_reserved":false,"is_disabled":false,"rental_uris":{"android":"levelo://app?vid=1b54399c-face-4b18-837e-eb4617925928","ios":"levelo://app?vid=1b54399c-face-4b18-837e-eb4617925928"},"vehicle_type_id":"4","last_reported":1690743845,"current_range_meters":22400,"station_id":"ce4bh0p2rcd13ifvqd70","pricing_plan_id":"free"},{"bike_id":"e67956ea-d6af-4ba5-925d-affc480e924e","system_id":"levelo_inurba_marseille","lat":43.302008,"lon":5.394694,"is_reserved":false,"is_disabled":false,"rental_uris":{"android":"levelo://app?vid=e67956ea-d6af-4ba5-925d-affc480e924e","ios":"levelo://app?vid=e67956ea-d6af-4ba5-925d-affc480e924e"},"vehicle_type_id":"4","last_reported":1690743845,"current_range_meters":6000,"station_id":"ce4bh0p2rcd13ifvqd70","pricing_plan_id":"free"},{"bike_id":"bddf507d-3afa-43c2-8231-857ded983886","system_id":"levelo_inurba_marseille","lat":43.302008,"lon":5.394694,"is_reserved":false,"is_disabled":false,"rental_uris":{"android":"levelo://app?vid=bddf507d-3afa-43c2-8231-857ded983886","ios":"levelo://app?vid=bddf507d-3afa-43c2-8231-857ded983886"},"vehicle_type_id":"4","last_reported":1690743845,"current_range_meters":15200,"station_id":"ce4bh0p2rcd13ifvqd70","pricing_plan_id":"free"},{"bike_id":"bf903d8d-b76e-4a62-bed7-2892c6e9730a","system_id":"levelo_inurba_marseille","lat":43.302008,"lon":5.394694,"is_reserved":false,"is_disabled":false,"rental_uris":{"android":"levelo://app?vid=bf903d8d-b76e-4a62-bed7-2892c6e9730a","ios":"levelo://app?vid=bf903d8d-b76e-4a62-bed7-2892c6e9730a"},"vehicle_type_id":"4","last_reported":1690743845,"current_range_meters":16800,"station_id":"ce4bh0p2rcd13ifvqd70","pricing_plan_id":"free"},{"bike_id":"83d2f2fd-65e1-4f82-b5e3-5a929ec9a500","system_id":"levelo_inurba_marseille","lat":43.302008,"lon":5.394694,"is_reserved":false,"is_disabled":false,"rental_uris":{"android":"levelo://app?vid=83d2f2fd-65e1-4f82-b5e3-5a929ec9a500","ios":"levelo://app?vid=83d2f2fd-65e1-4f82-b5e3-5a929ec9a500"},"vehicle_type_id":"4","last_reported":1690743845,"current_range_meters":0,"station_id":"ce4bh0p2rcd13ifvqd70","pricing_plan_id":"free"},{"bike_id":"477adb85-e791-45f8-95be-b5463da1752b","system_id":"levelo_inurba_marseille","lat":43.302008,"lon":5.394694,"is_reserved":false,"is_disabled":false,"rental_uris":{"android":"levelo://app?vid=477adb85-e791-45f8-95be-b5463da1752b","ios":"levelo://app?vid=477adb85-e791-45f8-95be-b5463da1752b"},"vehicle_type_id":"4","last_reported":1690743845,"current_range_meters":17200,"station_id":"ce4bh0p2rcd13ifvqd70","pricing_plan_id":"free"},{"bike_id":"e92ee0f2-4d61-4b42-b19c-b0e906b4c392","system_id":"levelo_inurba_marseille","lat":43.28973,"lon":5.3657,"is_reserved":false,"is_disabled":false,"rental_uris":{"android":"levelo://app?vid=e92ee0f2-4d61-4b42-b19c-b0e906b4c392","ios":"levelo://app?vid=e92ee0f2-4d61-4b42-b19c-b0e906b4c392"},"vehicle_type_id":"4","last_reported":1690743845,"current_range_meters":3200,"station_id":"","pricing_plan_id":"free"},{"bike_id":"7510b6db-2e67-48ae-ad6c-df2cf732a9ba","system_id":"levelo_inurba_marseille","lat":43.29423,"lon":5.386132,"is_reserved":false,"is_disabled":false,"rental_uris":{"android":"levelo://app?vid=7510b6db-2e67-48ae-ad6c-df2cf732a9ba","ios":"levelo://app?vid=7510b6db-2e67-48ae-ad6c-df2cf732a9ba"},"vehicle_type_id":"4","last_reported":1690743845,"current_range_meters":29600,"station_id":"ce4bh2h2rcd13ifvqdh0","pricing_plan_id":"free"},{"bike_id":"756da559-096d-4f5a-88b5-b9b8437bc540","system_id":"levelo_inurba_marseille","lat":43.294162,"lon":5.386292,"is_reserved":false,"is_disabled":false,"rental_uris":{"android":"levelo://app?vid=756da559-096d-4f5a-88b5-b9b8437bc540","ios":"levelo://app?vid=756da559-096d-4f5a-88b5-b9b8437bc540"},"vehicle_type_id":"4","last_reported":1690743845,"current_range_meters":25600,"station_id":"ce4bh2h2rcd13ifvqdh0","pricing_plan_id":"free"},{"bike_id":"06625194-9983-43a3-833e-a3b5d862f0cb","system_id":"levelo_inurba_marseille","lat":43.29419,"lon":5.38619,"is_reserved":false,"is_disabled":false,"rental_uris":{"android":"levelo://app?vid=06625194-9983-43a3-833e-a3b5d862f0cb","ios":"levelo://app?vid=06625194-9983-43a3-833e-a3b5d862f0cb"},"vehicle_type_id":"4","last_reported":1690743845,"current_range_meters":4000,"station_id":"ce4bh2h2rcd13ifvqdh0","pricing_plan_id":"free"},{"bike_id":"160e8980-b636-4ff9-a7f3-c235adcf83f7","system_id":"levelo_inurba_marseille","lat":43.29417,"lon":5.38619,"is_reserved":false,"is_disabled":false,"rental_uris":{"android":"levelo://app?vid=160e8980-b636-4ff9-a7f3-c235adcf83f7","ios":"levelo://app?vid=160e8980-b636-4ff9-a7f3-c235adcf83f7"},"vehicle_type_id":"4","last_reported":1690743845,"current_range_meters":18000,"station_id":"ce4bh2h2rcd13ifvqdh0","pricing_plan_id":"free"},{"bike_id":"ff008f79-2c41-4844-a317-365bdcd9a353","system_id":"levelo_inurba_marseille","lat":43.29419,"lon":5.38624,"is_reserved":false,"is_disabled":false,"rental_uris":{"android":"levelo://app?vid=ff008f79-2c41-4844-a317-365bdcd9a353","ios":"levelo://app?vid=ff008f79-2c41-4844-a317-365bdcd9a353"},"vehicle_type_id":"4","last_reported":1690743845,"current_range_meters":26800,"station_id":"ce4bh2h2rcd13ifvqdh0","pricing_plan_id":"free"},{"bike_id":"712a9e61-8e33-44f0-ae8c-6db6d784d44a","system_id":"levelo_inurba_marseille","lat":43.29415,"lon":5.38619,"is_reserved":false,"is_disabled":false,"rental_uris":{"android":"levelo://app?vid=712a9e61-8e33-44f0-ae8c-6db6d784d44a","ios":"levelo://app?vid=712a9e61-8e33-44f0-ae8c-6db6d784d44a"},"vehicle_type_id":"4","last_reported":1690743845,"current_range_meters":11600,"station_id":"ce4bh2h2rcd13ifvqdh0","pricing_plan_id":"free"},{"bike_id":"effc1d55-23f2-4426-b140-e80cde977e1f","system_id":"levelo_inurba_marseille","lat":43.29417,"lon":5.38625,"is_reserved":false,"is_disabled":false,"rental_uris":{"android":"levelo://app?vid=effc1d55-23f2-4426-b140-e80cde977e1f","ios":"levelo://app?vid=effc1d55-23f2-4426-b140-e80cde977e1f"},"vehicle_type_id":"4","last_reported":1690743845,"current_range_meters":8800,"station_id":"ce4bh2h2rcd13ifvqdh0","pricing_plan_id":"free"},{"bike_id":"9ac2fb07-ef65-4b25-8511-b067f40b89ea","system_id":"levelo_inurba_marseille","lat":43.29411,"lon":5.38619,"is_reserved":false,"is_disabled":false,"rental_uris":{"android":"levelo://app?vid=9ac2fb07-ef65-4b25-8511-b067f40b89ea","ios":"levelo://app?vid=9ac2fb07-ef65-4b25-8511-b067f40b89ea"},"vehicle_type_id":"4","last_reported":1690743845,"current_range_meters":13200,"station_id":"ce4bh2h2rcd13ifvqdh0","pricing_plan_id":"free"},{"bike_id":"16cc564e-7583-4bf0-b7f8-01de5bd25831","system_id":"levelo_inurba_marseille","lat":43.294162,"lon":5.386292,"is_reserved":false,"is_disabled":false,"rental_uris":{"android":"levelo://app?vid=16cc564e-7583-4bf0-b7f8-01de5bd25831","ios":"levelo://app?vid=16cc564e-7583-4bf0-b7f8-01de5bd25831"},"vehicle_type_id":"4","last_reported":1690743845,"current_range_meters":3200,"station_id":"ce4bh2h2rcd13ifvqdh0","pricing_plan_id":"free"},{"bike_id":"7cd42af5-352e-4991-99be-3afaa9cde1ec","system_id":"levelo_inurba_marseille","lat":43.29412,"lon":5.38626,"is_reserved":false,"is_disabled":false,"rental_uris":{"android":"levelo://app?vid=7cd42af5-352e-4991-99be-3afaa9cde1ec","ios":"levelo://app?vid=7cd42af5-352e-4991-99be-3afaa9cde1ec"},"vehicle_type_id":"4","last_reported":1690743845,"current_range_meters":2400,"station_id":"ce4bh2h2rcd13ifvqdh0","pricing_plan_id":"free"},{"bike_id":"b3064c09-09bc-4e0f-b3aa-dd0d2ec7a41b","system_id":"levelo_inurba_marseille","lat":43.294162,"lon":5.386292,"is_reserved":false,"is_disabled":false,"rental_uris":{"android":"levelo://app?vid=b3064c09-09bc-4e0f-b3aa-dd0d2ec7a41b","ios":"levelo://app?vid=b3064c09-09bc-4e0f-b3aa-dd0d2ec7a41b"},"vehicle_type_id":"4","last_reported":1690743845,"current_range_meters":27200,"station_id":"ce4bh2h2rcd13ifvqdh0","pricing_plan_id":"free"},{"bike_id":"73fe9104-6215-499e-b89d-2c07839ba482","system_id":"levelo_inurba_marseille","lat":43.2927,"lon":5.38436,"is_reserved":false,"is_disabled":false,"rental_uris":{"android":"levelo://app?vid=73fe9104-6215-499e-b89d-2c07839ba482","ios":"levelo://app?vid=73fe9104-6215-499e-b89d-2c07839ba482"},"vehicle_type_id":"4","last_reported":1690743845,"current_range_meters":15600,"station_id":"ce4bh692rcd13ifvqea0","pricing_plan_id":"free"},{"bike_id":"b850b518-666a-4413-8bd5-3967db82128d","system_id":"levelo_inurba_marseille","lat":43.292642,"lon":5.384254,"is_reserved":false,"is_disabled":false,"rental_uris":{"android":"levelo://app?vid=b850b518-666a-4413-8bd5-3967db82128d","ios":"levelo://app?vid=b850b518-666a-4413-8bd5-3967db82128d"},"vehicle_type_id":"4","last_reported":1690743845,"current_range_meters":23600,"station_id":"ce4bh692rcd13ifvqea0","pricing_plan_id":"free"},{"bike_id":"04210e52-b3fe-4a20-a9ba-ca8f26a2a598","system_id":"levelo_inurba_marseille","lat":43.304274,"lon":5.397513,"is_reserved":false,"is_disabled":false,"rental_uris":{"android":"levelo://app?vid=04210e52-b3fe-4a20-a9ba-ca8f26a2a598","ios":"levelo://app?vid=04210e52-b3fe-4a20-a9ba-ca8f26a2a598"},"vehicle_type_id":"4","last_reported":1690743845,"current_range_meters":6400,"station_id":"ce4bh092rcd13ifvqd20","pricing_plan_id":"free"},{"bike_id":"f730ea17-807c-453a-9eb8-c3c0d2cf340f","system_id":"levelo_inurba_marseille","lat":43.292642,"lon":5.384254,"is_reserved":false,"is_disabled":false,"rental_uris":{"android":"levelo://app?vid=f730ea17-807c-453a-9eb8-c3c0d2cf340f","ios":"levelo://app?vid=f730ea17-807c-453a-9eb8-c3c0d2cf340f"},"vehicle_type_id":"4","last_reported":1690743845,"current_range_meters":13600,"station_id":"ce4bh692rcd13ifvqea0","pricing_plan_id":"free"},{"bike_id":"5e809b5d-182b-4b30-a5b2-96a30a56c038","system_id":"levelo_inurba_marseille","lat":43.292642,"lon":5.384254,"is_reserved":false,"is_disabled":false,"rental_uris":{"android":"levelo://app?vid=5e809b5d-182b-4b30-a5b2-96a30a56c038","ios":"levelo://app?vid=5e809b5d-182b-4b30-a5b2-96a30a56c038"},"vehicle_type_id":"4","last_reported":1690743845,"current_range_meters":400,"station_id":"ce4bh692rcd13ifvqea0","pricing_plan_id":"free"},{"bike_id":"1c068fa3-dd0f-4d18-be70-2e474352068a","system_id":"levelo_inurba_marseille","lat":43.304296,"lon":5.397513,"is_reserved":false,"is_disabled":false,"rental_uris":{"android":"levelo://app?vid=1c068fa3-dd0f-4d18-be70-2e474352068a","ios":"levelo://app?vid=1c068fa3-dd0f-4d18-be70-2e474352068a"},"vehicle_type_id":"4","last_reported":1690743845,"current_range_meters":16400,"station_id":"ce4bh092rcd13ifvqd20","pricing_plan_id":"free"},{"bike_id":"c41e3035-e709-406a-9306-d4be567ad647","system_id":"levelo_inurba_marseille","lat":43.29266,"lon":5.38454,"is_reserved":false,"is_disabled":false,"rental_uris":{"android":"levelo://app?vid=c41e3035-e709-406a-9306-d4be567ad647","ios":"levelo://app?vid=c41e3035-e709-406a-9306-d4be567ad647"},"vehicle_type_id":"4","last_reported":1690743845,"current_range_meters":20400,"station_id":"ce4bh692rcd13ifvqea0","pricing_plan_id":"free"},{"bike_id":"12a883fc-2af6-4172-bcfa-5c532ebf8ffe","system_id":"levelo_inurba_marseille","lat":43.29258,"lon":5.38441,"is_reserved":false,"is_disabled":false,"rental_uris":{"android":"levelo://app?vid=12a883fc-2af6-4172-bcfa-5c532ebf8ffe","ios":"levelo://app?vid=12a883fc-2af6-4172-bcfa-5c532ebf8ffe"},"vehicle_type_id":"4","last_reported":1690743845,"current_range_meters":21200,"station_id":"ce4bh692rcd13ifvqea0","pricing_plan_id":"free"},{"bike_id":"5738edd5-1986-4c25-bd61-284c967a8bfb","system_id":"levelo_inurba_marseille","lat":43.2926,"lon":5.38448,"is_reserved":false,"is_disabled":false,"rental_uris":{"android":"levelo://app?vid=5738edd5-1986-4c25-bd61-284c967a8bfb","ios":"levelo://app?vid=5738edd5-1986-4c25-bd61-284c967a8bfb"},"vehicle_type_id":"4","last_reported":1690743845,"current_range_meters":21600,"station_id":"ce4bh692rcd13ifvqea0","pricing_plan_id":"free"},{"bike_id":"15826b93-93a4-4083-bb32-5201a2212194","system_id":"levelo_inurba_marseille","lat":43.3304,"lon":5.38918,"is_reserved":false,"is_disabled":false,"rental_uris":{"android":"levelo://app?vid=15826b93-93a4-4083-bb32-5201a2212194","ios":"levelo://app?vid=15826b93-93a4-4083-bb32-5201a2212194"},"vehicle_type_id":"4","last_reported":1690743845,"current_range_meters":30000,"station_id":"ce4bhr92rcd13ifvqhrg","pricing_plan_id":"free"},{"bike_id":"f4b8a937-478a-4113-a141-eec483a34759","system_id":"levelo_inurba_marseille","lat":43.29513,"lon":5.38928,"is_reserved":false,"is_disabled":false,"rental_uris":{"android":"levelo://app?vid=f4b8a937-478a-4113-a141-eec483a34759","ios":"levelo://app?vid=f4b8a937-478a-4113-a141-eec483a34759"},"vehicle_type_id":"4","last_reported":1690743845,"current_range_meters":8400,"station_id":"","pricing_plan_id":"free"},{"bike_id":"134ef223-0af9-48f2-bbd1-4d84dd8cb35c","system_id":"levelo_inurba_marseille","lat":43.290104,"lon":5.356111,"is_reserved":false,"is_disabled":false,"rental_uris":{"android":"levelo://app?vid=134ef223-0af9-48f2-bbd1-4d84dd8cb35c","ios":"levelo://app?vid=134ef223-0af9-48f2-bbd1-4d84dd8cb35c"},"vehicle_type_id":"4","last_reported":1690743845,"current_range_meters":31600,"station_id":"ce4bhb92rcd13ifvqen0","pricing_plan_id":"free"},{"bike_id":"a942cf92-22cd-4df3-830b-0379ed8f4259","system_id":"levelo_inurba_marseille","lat":43.297815,"lon":5.393548,"is_reserved":false,"is_disabled":false,"rental_uris":{"android":"levelo://app?vid=a942cf92-22cd-4df3-830b-0379ed8f4259","ios":"levelo://app?vid=a942cf92-22cd-4df3-830b-0379ed8f4259"},"vehicle_type_id":"4","last_reported":1690743845,"current_range_meters":12000,"station_id":"chh1huq6cuj3fo74tm60","pricing_plan_id":"free"},{"bike_id":"f1669ffe-6c14-4bc1-8178-6216d532fe24","system_id":"levelo_inurba_marseille","lat":43.29533,"lon":5.39033,"is_reserved":false,"is_disabled":false,"rental_uris":{"android":"levelo://app?vid=f1669ffe-6c14-4bc1-8178-6216d532fe24","ios":"levelo://app?vid=f1669ffe-6c14-4bc1-8178-6216d532fe24"},"vehicle_type_id":"4","last_reported":1690743845,"current_range_meters":20000,"station_id":"","pricing_plan_id":"free"},{"bike_id":"05bf2cc0-c80b-4d3b-9303-5cea93148e89","system_id":"levelo_inurba_marseille","lat":43.290995,"lon":5.381361,"is_reserved":false,"is_disabled":false,"rental_uris":{"android":"levelo://app?vid=05bf2cc0-c80b-4d3b-9303-5cea93148e89","ios":"levelo://app?vid=05bf2cc0-c80b-4d3b-9303-5cea93148e89"},"vehicle_type_id":"4","last_reported":1690743845,"current_range_meters":31200,"station_id":"ce4bh512rcd13ifvqe2g","pricing_plan_id":"free"},{"bike_id":"af1671de-0830-4c24-8bae-b14daac2a57e","system_id":"levelo_inurba_marseille","lat":43.295169,"lon":5.390426,"is_reserved":false,"is_disabled":false,"rental_uris":{"android":"levelo://app?vid=af1671de-0830-4c24-8bae-b14daac2a57e","ios":"levelo://app?vid=af1671de-0830-4c24-8bae-b14daac2a57e"},"vehicle_type_id":"4","last_reported":1690743845,"current_range_meters":22800,"station_id":"ce4bh3p2rcd13ifvqdp0","pricing_plan_id":"free"},{"bike_id":"3d01b93e-3206-4753-814e-fae352f65668","system_id":"levelo_inurba_marseille","lat":43.295169,"lon":5.390426,"is_reserved":false,"is_disabled":false,"rental_uris":{"android":"levelo://app?vid=3d01b93e-3206-4753-814e-fae352f65668","ios":"levelo://app?vid=3d01b93e-3206-4753-814e-fae352f65668"},"vehicle_type_id":"4","last_reported":1690743845,"current_range_meters":6800,"station_id":"ce4bh3p2rcd13ifvqdp0","pricing_plan_id":"free"},{"bike_id":"6d8b26a9-8341-4220-aab3-d7722cb8abee","system_id":"levelo_inurba_marseille","lat":43.295169,"lon":5.390426,"is_reserved":false,"is_disabled":false,"rental_uris":{"android":"levelo://app?vid=6d8b26a9-8341-4220-aab3-d7722cb8abee","ios":"levelo://app?vid=6d8b26a9-8341-4220-aab3-d7722cb8abee"},"vehicle_type_id":"4","last_reported":1690743845,"current_range_meters":31600,"station_id":"ce4bh3p2rcd13ifvqdp0","pricing_plan_id":"free"},{"bike_id":"338bd4be-b087-4988-a356-2bec2b828bee","system_id":"levelo_inurba_marseille","lat":43.295169,"lon":5.390426,"is_reserved":false,"is_disabled":false,"rental_uris":{"android":"levelo://app?vid=338bd4be-b087-4988-a356-2bec2b828bee","ios":"levelo://app?vid=338bd4be-b087-4988-a356-2bec2b828bee"},"vehicle_type_id":"4","last_reported":1690743845,"current_range_meters":29600,"station_id":"ce4bh3p2rcd13ifvqdp0","pricing_plan_id":"free"},{"bike_id":"01bea9d5-120d-4e33-905f-f63c34af6dd2","system_id":"levelo_inurba_marseille","lat":43.295169,"lon":5.390426,"is_reserved":false,"is_disabled":false,"rental_uris":{"android":"levelo://app?vid=01bea9d5-120d-4e33-905f-f63c34af6dd2","ios":"levelo://app?vid=01bea9d5-120d-4e33-905f-f63c34af6dd2"},"vehicle_type_id":"4","last_reported":1690743845,"current_range_meters":9200,"station_id":"ce4bh3p2rcd13ifvqdp0","pricing_plan_id":"free"},{"bike_id":"18c4c711-aa4b-4f5c-89e7-3216cb739982","system_id":"levelo_inurba_marseille","lat":43.295169,"lon":5.390426,"is_reserved":false,"is_disabled":false,"rental_uris":{"android":"levelo://app?vid=18c4c711-aa4b-4f5c-89e7-3216cb739982","ios":"levelo://app?vid=18c4c711-aa4b-4f5c-89e7-3216cb739982"},"vehicle_type_id":"4","last_reported":1690743845,"current_range_meters":6400,"station_id":"ce4bh3p2rcd13ifvqdp0","pricing_plan_id":"free"},{"bike_id":"05c1bb19-32f3-4303-9a68-57c55bc054c0","system_id":"levelo_inurba_marseille","lat":43.290214,"lon":5.381414,"is_reserved":false,"is_disabled":false,"rental_uris":{"android":"levelo://app?vid=05c1bb19-32f3-4303-9a68-57c55bc054c0","ios":"levelo://app?vid=05c1bb19-32f3-4303-9a68-57c55bc054c0"},"vehicle_type_id":"4","last_reported":1690743845,"current_range_meters":400,"station_id":"ce4bh4p2rcd13ifvqe1g","pricing_plan_id":"free"},{"bike_id":"14ac755f-b27e-43ec-8917-ab736a1c15c6","system_id":"levelo_inurba_marseille","lat":43.28856,"lon":5.358371,"is_reserved":false,"is_disabled":false,"rental_uris":{"android":"levelo://app?vid=14ac755f-b27e-43ec-8917-ab736a1c15c6","ios":"levelo://app?vid=14ac755f-b27e-43ec-8917-ab736a1c15c6"},"vehicle_type_id":"4","last_reported":1690743845,"current_range_meters":6000,"station_id":"ce4bhb12rcd13ifvqem0","pricing_plan_id":"free"},{"bike_id":"462e00de-3e60-4e8d-81f5-bce898f532b8","system_id":"levelo_inurba_marseille","lat":43.30936,"lon":5.40145,"is_reserved":false,"is_disabled":false,"rental_uris":{"android":"levelo://app?vid=462e00de-3e60-4e8d-81f5-bce898f532b8","ios":"levelo://app?vid=462e00de-3e60-4e8d-81f5-bce898f532b8"},"vehicle_type_id":"4","last_reported":1690743845,"current_range_meters":10400,"station_id":"ce4bgvp2rcd13ifvqct0","pricing_plan_id":"free"},{"bike_id":"5a7a6c5d-c7eb-422c-8a07-fad184a38874","system_id":"levelo_inurba_marseille","lat":43.286039,"lon":5.370681,"is_reserved":false,"is_disabled":false,"rental_uris":{"android":"levelo://app?vid=5a7a6c5d-c7eb-422c-8a07-fad184a38874","ios":"levelo://app?vid=5a7a6c5d-c7eb-422c-8a07-fad184a38874"},"vehicle_type_id":"4","last_reported":1690743845,"current_range_meters":18400,"station_id":"ce4bht12rcd13ifvqi60","pricing_plan_id":"free"},{"bike_id":"6c3ee9c1-3779-43f0-ba94-789c5ae47597","system_id":"levelo_inurba_marseille","lat":43.2893,"lon":5.38174,"is_reserved":false,"is_disabled":false,"rental_uris":{"android":"levelo://app?vid=6c3ee9c1-3779-43f0-ba94-789c5ae47597","ios":"levelo://app?vid=6c3ee9c1-3779-43f0-ba94-789c5ae47597"},"vehicle_type_id":"4","last_reported":1690743845,"current_range_meters":26400,"station_id":"","pricing_plan_id":"free"},{"bike_id":"b5ff6e5b-ceaa-4404-8785-10b5425540de","system_id":"levelo_inurba_marseille","lat":43.298681,"lon":5.397225,"is_reserved":false,"is_disabled":false,"rental_uris":{"android":"levelo://app?vid=b5ff6e5b-ceaa-4404-8785-10b5425540de","ios":"levelo://app?vid=b5ff6e5b-ceaa-4404-8785-10b5425540de"},"vehicle_type_id":"4","last_reported":1690743845,"current_range_meters":17200,"station_id":"ce4bh0h2rcd13ifvqd50","pricing_plan_id":"free"},{"bike_id":"75199276-b705-4ad7-b6a9-49aeaa84628a","system_id":"levelo_inurba_marseille","lat":43.286593,"lon":5.363346,"is_reserved":false,"is_disabled":false,"rental_uris":{"android":"levelo://app?vid=75199276-b705-4ad7-b6a9-49aeaa84628a","ios":"levelo://app?vid=75199276-b705-4ad7-b6a9-49aeaa84628a"},"vehicle_type_id":"4","last_reported":1690743845,"current_range_meters":31200,"station_id":"ce4bhah2rcd13ifvqej0","pricing_plan_id":"free"},{"bike_id":"c5e122c9-90ef-447f-a6b2-96de72c82a94","system_id":"levelo_inurba_marseille","lat":43.298681,"lon":5.397225,"is_reserved":false,"is_disabled":false,"rental_uris":{"android":"levelo://app?vid=c5e122c9-90ef-447f-a6b2-96de72c82a94","ios":"levelo://app?vid=c5e122c9-90ef-447f-a6b2-96de72c82a94"},"vehicle_type_id":"4","last_reported":1690743845,"current_range_meters":14000,"station_id":"ce4bh0h2rcd13ifvqd50","pricing_plan_id":"free"},{"bike_id":"809b77fb-a4d7-4927-9862-5897bb90843e","system_id":"levelo_inurba_marseille","lat":43.298681,"lon":5.397225,"is_reserved":false,"is_disabled":false,"rental_uris":{"android":"levelo://app?vid=809b77fb-a4d7-4927-9862-5897bb90843e","ios":"levelo://app?vid=809b77fb-a4d7-4927-9862-5897bb90843e"},"vehicle_type_id":"4","last_reported":1690743845,"current_range_meters":29600,"station_id":"ce4bh0h2rcd13ifvqd50","pricing_plan_id":"free"},{"bike_id":"e26db037-8ff4-45a3-b052-0b4a7d3a48b8","system_id":"levelo_inurba_marseille","lat":43.295196,"lon":5.39397,"is_reserved":false,"is_disabled":false,"rental_uris":{"android":"levelo://app?vid=e26db037-8ff4-45a3-b052-0b4a7d3a48b8","ios":"levelo://app?vid=e26db037-8ff4-45a3-b052-0b4a7d3a48b8"},"vehicle_type_id":"4","last_reported":1690743845,"current_range_meters":18400,"station_id":"ce4bh292rcd13ifvqdf0","pricing_plan_id":"free"},{"bike_id":"036b8bf0-113d-42b6-808f-ba5f2ebfb658","system_id":"levelo_inurba_marseille","lat":43.295194,"lon":5.39397,"is_reserved":false,"is_disabled":false,"rental_uris":{"android":"levelo://app?vid=036b8bf0-113d-42b6-808f-ba5f2ebfb658","ios":"levelo://app?vid=036b8bf0-113d-42b6-808f-ba5f2ebfb658"},"vehicle_type_id":"4","last_reported":1690743845,"current_range_meters":25200,"station_id":"ce4bh292rcd13ifvqdf0","pricing_plan_id":"free"},{"bike_id":"d8f254ea-027c-44cd-8eaf-c8dd87c83a75","system_id":"levelo_inurba_marseille","lat":43.295194,"lon":5.39397,"is_reserved":false,"is_disabled":false,"rental_uris":{"android":"levelo://app?vid=d8f254ea-027c-44cd-8eaf-c8dd87c83a75","ios":"levelo://app?vid=d8f254ea-027c-44cd-8eaf-c8dd87c83a75"},"vehicle_type_id":"4","last_reported":1690743845,"current_range_meters":0,"station_id":"ce4bh292rcd13ifvqdf0","pricing_plan_id":"free"},{"bike_id":"d4230da5-316b-42b5-bd3f-a3b2708c695b","system_id":"levelo_inurba_marseille","lat":43.295194,"lon":5.39397,"is_reserved":false,"is_disabled":false,"rental_uris":{"android":"levelo://app?vid=d4230da5-316b-42b5-bd3f-a3b2708c695b","ios":"levelo://app?vid=d4230da5-316b-42b5-bd3f-a3b2708c695b"},"vehicle_type_id":"4","last_reported":1690743845,"current_range_meters":6000,"station_id":"ce4bh292rcd13ifvqdf0","pricing_plan_id":"free"},{"bike_id":"74d84c2b-d285-41ee-a905-581851073b93","system_id":"levelo_inurba_marseille","lat":43.295196,"lon":5.39397,"is_reserved":false,"is_disabled":false,"rental_uris":{"android":"levelo://app?vid=74d84c2b-d285-41ee-a905-581851073b93","ios":"levelo://app?vid=74d84c2b-d285-41ee-a905-581851073b93"},"vehicle_type_id":"4","last_reported":1690743845,"current_range_meters":22800,"station_id":"ce4bh292rcd13ifvqdf0","pricing_plan_id":"free"},{"bike_id":"c2367d11-d8d6-440c-8d1e-ee52e0ad70c3","system_id":"levelo_inurba_marseille","lat":43.28692,"lon":5.37462,"is_reserved":false,"is_disabled":false,"rental_uris":{"android":"levelo://app?vid=c2367d11-d8d6-440c-8d1e-ee52e0ad70c3","ios":"levelo://app?vid=c2367d11-d8d6-440c-8d1e-ee52e0ad70c3"},"vehicle_type_id":"4","last_reported":1690743845,"current_range_meters":5600,"station_id":"","pricing_plan_id":"free"},{"bike_id":"1cdd8cf2-ff7b-43c0-b53c-be2e1cf9d865","system_id":"levelo_inurba_marseille","lat":43.295194,"lon":5.39397,"is_reserved":false,"is_disabled":false,"rental_uris":{"android":"levelo://app?vid=1cdd8cf2-ff7b-43c0-b53c-be2e1cf9d865","ios":"levelo://app?vid=1cdd8cf2-ff7b-43c0-b53c-be2e1cf9d865"},"vehicle_type_id":"4","last_reported":1690743845,"current_range_meters":400,"station_id":"ce4bh292rcd13ifvqdf0","pricing_plan_id":"free"},{"bike_id":"2af4d9d5-7c0a-4f6f-8ba2-f25c31ae2f9a","system_id":"levelo_inurba_marseille","lat":43.29022,"lon":5.38629,"is_reserved":false,"is_disabled":false,"rental_uris":{"android":"levelo://app?vid=2af4d9d5-7c0a-4f6f-8ba2-f25c31ae2f9a","ios":"levelo://app?vid=2af4d9d5-7c0a-4f6f-8ba2-f25c31ae2f9a"},"vehicle_type_id":"4","last_reported":1690743845,"current_range_meters":25200,"station_id":"ce4bh4p2rcd13ifvqe0g","pricing_plan_id":"free"},{"bike_id":"df2f9cb0-f458-4c8b-be17-9cef77640676","system_id":"levelo_inurba_marseille","lat":43.302759,"lon":5.400793,"is_reserved":false,"is_disabled":false,"rental_uris":{"android":"levelo://app?vid=df2f9cb0-f458-4c8b-be17-9cef77640676","ios":"levelo://app?vid=df2f9cb0-f458-4c8b-be17-9cef77640676"},"vehicle_type_id":"4","last_reported":1690743845,"current_range_meters":11600,"station_id":"ce4bgvh2rcd13ifvqcs0","pricing_plan_id":"free"},{"bike_id":"70c81182-88fb-4e7c-ae10-396adf87d149","system_id":"levelo_inurba_marseille","lat":43.290336,"lon":5.386425,"is_reserved":false,"is_disabled":false,"rental_uris":{"android":"levelo://app?vid=70c81182-88fb-4e7c-ae10-396adf87d149","ios":"levelo://app?vid=70c81182-88fb-4e7c-ae10-396adf87d149"},"vehicle_type_id":"4","last_reported":1690743845,"current_range_meters":22400,"station_id":"ce4bh4p2rcd13ifvqe0g","pricing_plan_id":"free"},{"bike_id":"cf104122-606e-49fd-a2cb-31dcf9504bf2","system_id":"levelo_inurba_marseille","lat":43.302759,"lon":5.400793,"is_reserved":false,"is_disabled":false,"rental_uris":{"android":"levelo://app?vid=cf104122-606e-49fd-a2cb-31dcf9504bf2","ios":"levelo://app?vid=cf104122-606e-49fd-a2cb-31dcf9504bf2"},"vehicle_type_id":"4","last_reported":1690743845,"current_range_meters":1200,"station_id":"ce4bgvh2rcd13ifvqcs0","pricing_plan_id":"free"},{"bike_id":"62c9bc2e-792f-469e-bf3b-414c7c4ac006","system_id":"levelo_inurba_marseille","lat":43.286039,"lon":5.370679,"is_reserved":false,"is_disabled":false,"rental_uris":{"android":"levelo://app?vid=62c9bc2e-792f-469e-bf3b-414c7c4ac006","ios":"levelo://app?vid=62c9bc2e-792f-469e-bf3b-414c7c4ac006"},"vehicle_type_id":"4","last_reported":1690743845,"current_range_meters":31200,"station_id":"ce4bht12rcd13ifvqi60","pricing_plan_id":"free"},{"bike_id":"0877f57b-21cd-4600-a7fe-86770957122b","system_id":"levelo_inurba_marseille","lat":43.286039,"lon":5.370679,"is_reserved":false,"is_disabled":false,"rental_uris":{"android":"levelo://app?vid=0877f57b-21cd-4600-a7fe-86770957122b","ios":"levelo://app?vid=0877f57b-21cd-4600-a7fe-86770957122b"},"vehicle_type_id":"4","last_reported":1690743845,"current_range_meters":6800,"station_id":"ce4bht12rcd13ifvqi60","pricing_plan_id":"free"},{"bike_id":"c95b67d8-8032-4a3d-9c0b-fc7f1dbf22e1","system_id":"levelo_inurba_marseille","lat":43.286039,"lon":5.370679,"is_reserved":false,"is_disabled":false,"rental_uris":{"android":"levelo://app?vid=c95b67d8-8032-4a3d-9c0b-fc7f1dbf22e1","ios":"levelo://app?vid=c95b67d8-8032-4a3d-9c0b-fc7f1dbf22e1"},"vehicle_type_id":"4","last_reported":1690743845,"current_range_meters":7200,"station_id":"ce4bht12rcd13ifvqi60","pricing_plan_id":"free"},{"bike_id":"6f64923c-f5de-4894-bed2-f04c020e1af7","system_id":"levelo_inurba_marseille","lat":43.287184,"lon":5.37937,"is_reserved":false,"is_disabled":false,"rental_uris":{"android":"levelo://app?vid=6f64923c-f5de-4894-bed2-f04c020e1af7","ios":"levelo://app?vid=6f64923c-f5de-4894-bed2-f04c020e1af7"},"vehicle_type_id":"4","last_reported":1690743845,"current_range_meters":8800,"station_id":"ce4bh9p2rcd13ifvqec0","pricing_plan_id":"free"},{"bike_id":"c6363034-fc2a-4f41-82f4-1f5220ca0514","system_id":"levelo_inurba_marseille","lat":43.31649,"lon":5.40425,"is_reserved":false,"is_disabled":false,"rental_uris":{"android":"levelo://app?vid=c6363034-fc2a-4f41-82f4-1f5220ca0514","ios":"levelo://app?vid=c6363034-fc2a-4f41-82f4-1f5220ca0514"},"vehicle_type_id":"4","last_reported":1690743845,"current_range_meters":20400,"station_id":"ce4bh012rcd13ifvqd00","pricing_plan_id":"free"},{"bike_id":"d0d63584-54f3-4ef4-95cc-b51c9cdb1c8b","system_id":"levelo_inurba_marseille","lat":43.31648,"lon":5.40437,"is_reserved":false,"is_disabled":false,"rental_uris":{"android":"levelo://app?vid=d0d63584-54f3-4ef4-95cc-b51c9cdb1c8b","ios":"levelo://app?vid=d0d63584-54f3-4ef4-95cc-b51c9cdb1c8b"},"vehicle_type_id":"4","last_reported":1690743845,"current_range_meters":18000,"station_id":"ce4bh012rcd13ifvqd00","pricing_plan_id":"free"},{"bike_id":"8f734c18-23cf-49ba-89fe-30508da6c31e","system_id":"levelo_inurba_marseille","lat":43.31645,"lon":5.40438,"is_reserved":false,"is_disabled":false,"rental_uris":{"android":"levelo://app?vid=8f734c18-23cf-49ba-89fe-30508da6c31e","ios":"levelo://app?vid=8f734c18-23cf-49ba-89fe-30508da6c31e"},"vehicle_type_id":"4","last_reported":1690743845,"current_range_meters":6000,"station_id":"ce4bh012rcd13ifvqd00","pricing_plan_id":"free"},{"bike_id":"c524a31c-a486-45a1-87ab-8346a2f1da65","system_id":"levelo_inurba_marseille","lat":43.316503,"lon":5.404379,"is_reserved":false,"is_disabled":false,"rental_uris":{"android":"levelo://app?vid=c524a31c-a486-45a1-87ab-8346a2f1da65","ios":"levelo://app?vid=c524a31c-a486-45a1-87ab-8346a2f1da65"},"vehicle_type_id":"4","last_reported":1690743845,"current_range_meters":16000,"station_id":"ce4bh012rcd13ifvqd00","pricing_plan_id":"free"},{"bike_id":"023251d4-1386-48e2-80a6-0cfc06549ba5","system_id":"levelo_inurba_marseille","lat":43.31645,"lon":5.40443,"is_reserved":false,"is_disabled":false,"rental_uris":{"android":"levelo://app?vid=023251d4-1386-48e2-80a6-0cfc06549ba5","ios":"levelo://app?vid=023251d4-1386-48e2-80a6-0cfc06549ba5"},"vehicle_type_id":"4","last_reported":1690743845,"current_range_meters":18000,"station_id":"ce4bh012rcd13ifvqd00","pricing_plan_id":"free"},{"bike_id":"99c50597-4800-4e25-bd3e-243b23cee58b","system_id":"levelo_inurba_marseille","lat":43.292,"lon":5.39315,"is_reserved":false,"is_disabled":false,"rental_uris":{"android":"levelo://app?vid=99c50597-4800-4e25-bd3e-243b23cee58b","ios":"levelo://app?vid=99c50597-4800-4e25-bd3e-243b23cee58b"},"vehicle_type_id":"4","last_reported":1690743845,"current_range_meters":0,"station_id":"ce4bh192rcd13ifvqdd0","pricing_plan_id":"free"},{"bike_id":"ae26f21b-c586-4651-8337-13f2191cecc2","system_id":"levelo_inurba_marseille","lat":43.284538,"lon":5.358657,"is_reserved":false,"is_disabled":false,"rental_uris":{"android":"levelo://app?vid=ae26f21b-c586-4651-8337-13f2191cecc2","ios":"levelo://app?vid=ae26f21b-c586-4651-8337-13f2191cecc2"},"vehicle_type_id":"4","last_reported":1690743845,"current_range_meters":19200,"station_id":"ce4bhah2rcd13ifvqei0","pricing_plan_id":"free"},{"bike_id":"f56860e2-f82d-4e5c-9b55-f8ae9d2af462","system_id":"levelo_inurba_marseille","lat":43.294314,"lon":5.397498,"is_reserved":false,"is_disabled":false,"rental_uris":{"android":"levelo://app?vid=f56860e2-f82d-4e5c-9b55-f8ae9d2af462","ios":"levelo://app?vid=f56860e2-f82d-4e5c-9b55-f8ae9d2af462"},"vehicle_type_id":"4","last_reported":1690743845,"current_range_meters":20400,"station_id":"ce4bh3h2rcd13ifvqdo0","pricing_plan_id":"free"},{"bike_id":"dea00b7f-4df9-44a9-8673-21e22c239487","system_id":"levelo_inurba_marseille","lat":43.284534,"lon":5.358662,"is_reserved":false,"is_disabled":false,"rental_uris":{"android":"levelo://app?vid=dea00b7f-4df9-44a9-8673-21e22c239487","ios":"levelo://app?vid=dea00b7f-4df9-44a9-8673-21e22c239487"},"vehicle_type_id":"4","last_reported":1690743845,"current_range_meters":31200,"station_id":"ce4bhah2rcd13ifvqei0","pricing_plan_id":"free"},{"bike_id":"5b112069-dd75-4a1c-a0d8-84fb8f414b25","system_id":"levelo_inurba_marseille","lat":43.28614,"lon":5.35103,"is_reserved":false,"is_disabled":false,"rental_uris":{"android":"levelo://app?vid=5b112069-dd75-4a1c-a0d8-84fb8f414b25","ios":"levelo://app?vid=5b112069-dd75-4a1c-a0d8-84fb8f414b25"},"vehicle_type_id":"4","last_reported":1690743845,"current_range_meters":24400,"station_id":"ce4bhch2rcd13ifvqeug","pricing_plan_id":"free"},{"bike_id":"01b7d93f-e411-42ff-bd03-0bc5d1c372d8","system_id":"levelo_inurba_marseille","lat":43.283998,"lon":5.375062,"is_reserved":false,"is_disabled":false,"rental_uris":{"android":"levelo://app?vid=01b7d93f-e411-42ff-bd03-0bc5d1c372d8","ios":"levelo://app?vid=01b7d93f-e411-42ff-bd03-0bc5d1c372d8"},"vehicle_type_id":"4","last_reported":1690743845,"current_range_meters":0,"station_id":"ce4bh412rcd13ifvqds0","pricing_plan_id":"free"},{"bike_id":"30c0ad1a-a5d8-4a60-b5e6-e89227f106c4","system_id":"levelo_inurba_marseille","lat":43.283998,"lon":5.375062,"is_reserved":false,"is_disabled":false,"rental_uris":{"android":"levelo://app?vid=30c0ad1a-a5d8-4a60-b5e6-e89227f106c4","ios":"levelo://app?vid=30c0ad1a-a5d8-4a60-b5e6-e89227f106c4"},"vehicle_type_id":"4","last_reported":1690743845,"current_range_meters":21200,"station_id":"ce4bh412rcd13ifvqds0","pricing_plan_id":"free"},{"bike_id":"d9e64e89-b46c-48e4-b3ef-bf33315bca12","system_id":"levelo_inurba_marseille","lat":43.283998,"lon":5.375062,"is_reserved":false,"is_disabled":false,"rental_uris":{"android":"levelo://app?vid=d9e64e89-b46c-48e4-b3ef-bf33315bca12","ios":"levelo://app?vid=d9e64e89-b46c-48e4-b3ef-bf33315bca12"},"vehicle_type_id":"4","last_reported":1690743845,"current_range_meters":27200,"station_id":"ce4bh412rcd13ifvqds0","pricing_plan_id":"free"},{"bike_id":"3da7ac56-00be-4893-aaf7-706c1b45600e","system_id":"levelo_inurba_marseille","lat":43.295713,"lon":5.399639,"is_reserved":false,"is_disabled":false,"rental_uris":{"android":"levelo://app?vid=3da7ac56-00be-4893-aaf7-706c1b45600e","ios":"levelo://app?vid=3da7ac56-00be-4893-aaf7-706c1b45600e"},"vehicle_type_id":"4","last_reported":1690743845,"current_range_meters":22400,"station_id":"ce4bh312rcd13ifvqdj0","pricing_plan_id":"free"},{"bike_id":"706cd693-768b-4551-afd5-87f70e826c5c","system_id":"levelo_inurba_marseille","lat":43.283998,"lon":5.375062,"is_reserved":false,"is_disabled":false,"rental_uris":{"android":"levelo://app?vid=706cd693-768b-4551-afd5-87f70e826c5c","ios":"levelo://app?vid=706cd693-768b-4551-afd5-87f70e826c5c"},"vehicle_type_id":"4","last_reported":1690743845,"current_range_meters":20000,"station_id":"ce4bh412rcd13ifvqds0","pricing_plan_id":"free"},{"bike_id":"c1aff3f3-aa24-4ed4-8d9a-2ea37d0a5fa6","system_id":"levelo_inurba_marseille","lat":43.283998,"lon":5.375062,"is_reserved":false,"is_disabled":false,"rental_uris":{"android":"levelo://app?vid=c1aff3f3-aa24-4ed4-8d9a-2ea37d0a5fa6","ios":"levelo://app?vid=c1aff3f3-aa24-4ed4-8d9a-2ea37d0a5fa6"},"vehicle_type_id":"4","last_reported":1690743845,"current_range_meters":23200,"station_id":"ce4bh412rcd13ifvqds0","pricing_plan_id":"free"},{"bike_id":"96705f7b-38e5-43f0-aadd-611ad001df37","system_id":"levelo_inurba_marseille","lat":43.283998,"lon":5.375062,"is_reserved":false,"is_disabled":false,"rental_uris":{"android":"levelo://app?vid=96705f7b-38e5-43f0-aadd-611ad001df37","ios":"levelo://app?vid=96705f7b-38e5-43f0-aadd-611ad001df37"},"vehicle_type_id":"4","last_reported":1690743845,"current_range_meters":12400,"station_id":"ce4bh412rcd13ifvqds0","pricing_plan_id":"free"},{"bike_id":"b2cd87ad-7a1c-4b9a-959b-d016f2806bd6","system_id":"levelo_inurba_marseille","lat":43.283998,"lon":5.375062,"is_reserved":false,"is_disabled":false,"rental_uris":{"android":"levelo://app?vid=b2cd87ad-7a1c-4b9a-959b-d016f2806bd6","ios":"levelo://app?vid=b2cd87ad-7a1c-4b9a-959b-d016f2806bd6"},"vehicle_type_id":"4","last_reported":1690743845,"current_range_meters":14400,"station_id":"ce4bh412rcd13ifvqds0","pricing_plan_id":"free"},{"bike_id":"2018ff56-1aa6-41b7-9480-3c39c96a151d","system_id":"levelo_inurba_marseille","lat":43.295713,"lon":5.399639,"is_reserved":false,"is_disabled":false,"rental_uris":{"android":"levelo://app?vid=2018ff56-1aa6-41b7-9480-3c39c96a151d","ios":"levelo://app?vid=2018ff56-1aa6-41b7-9480-3c39c96a151d"},"vehicle_type_id":"4","last_reported":1690743845,"current_range_meters":9200,"station_id":"ce4bh312rcd13ifvqdj0","pricing_plan_id":"free"},{"bike_id":"84b988b3-a9d7-4c06-824b-4e76a004ea8a","system_id":"levelo_inurba_marseille","lat":43.283998,"lon":5.375062,"is_reserved":false,"is_disabled":false,"rental_uris":{"android":"levelo://app?vid=84b988b3-a9d7-4c06-824b-4e76a004ea8a","ios":"levelo://app?vid=84b988b3-a9d7-4c06-824b-4e76a004ea8a"},"vehicle_type_id":"4","last_reported":1690743845,"current_range_meters":18400,"station_id":"ce4bh412rcd13ifvqds0","pricing_plan_id":"free"},{"bike_id":"1cd10330-8c82-4645-9e31-791aa547d0aa","system_id":"levelo_inurba_marseille","lat":43.33717,"lon":5.391857,"is_reserved":false,"is_disabled":false,"rental_uris":{"android":"levelo://app?vid=1cd10330-8c82-4645-9e31-791aa547d0aa","ios":"levelo://app?vid=1cd10330-8c82-4645-9e31-791aa547d0aa"},"vehicle_type_id":"4","last_reported":1690743845,"current_range_meters":25200,"station_id":"ce4bhr92rcd13ifvqhsg","pricing_plan_id":"free"},{"bike_id":"26bfcad4-2dc6-43bb-9f00-91622fd750a3","system_id":"levelo_inurba_marseille","lat":43.323464,"lon":5.406297,"is_reserved":false,"is_disabled":false,"rental_uris":{"android":"levelo://app?vid=26bfcad4-2dc6-43bb-9f00-91622fd750a3","ios":"levelo://app?vid=26bfcad4-2dc6-43bb-9f00-91622fd750a3"},"vehicle_type_id":"4","last_reported":1690743845,"current_range_meters":31200,"station_id":"ce4bhq92rcd13ifvqhjg","pricing_plan_id":"free"},{"bike_id":"c214d605-66d3-4e2d-8d08-d523874da159","system_id":"levelo_inurba_marseille","lat":43.33725,"lon":5.39183,"is_reserved":false,"is_disabled":false,"rental_uris":{"android":"levelo://app?vid=c214d605-66d3-4e2d-8d08-d523874da159","ios":"levelo://app?vid=c214d605-66d3-4e2d-8d08-d523874da159"},"vehicle_type_id":"4","last_reported":1690743845,"current_range_meters":20000,"station_id":"ce4bhr92rcd13ifvqhsg","pricing_plan_id":"free"},{"bike_id":"014d9948-2b3b-488a-86be-736137fe4ad2","system_id":"levelo_inurba_marseille","lat":43.32338,"lon":5.4062,"is_reserved":false,"is_disabled":false,"rental_uris":{"android":"levelo://app?vid=014d9948-2b3b-488a-86be-736137fe4ad2","ios":"levelo://app?vid=014d9948-2b3b-488a-86be-736137fe4ad2"},"vehicle_type_id":"4","last_reported":1690743845,"current_range_meters":20400,"station_id":"ce4bhq92rcd13ifvqhjg","pricing_plan_id":"free"},{"bike_id":"e78794ab-1147-4e07-9747-4f03804e7014","system_id":"levelo_inurba_marseille","lat":43.33732,"lon":5.39187,"is_reserved":false,"is_disabled":false,"rental_uris":{"android":"levelo://app?vid=e78794ab-1147-4e07-9747-4f03804e7014","ios":"levelo://app?vid=e78794ab-1147-4e07-9747-4f03804e7014"},"vehicle_type_id":"4","last_reported":1690743845,"current_range_meters":24000,"station_id":"ce4bhr92rcd13ifvqhsg","pricing_plan_id":"free"},{"bike_id":"93f32d30-a402-402d-884e-5ab805cf8c97","system_id":"levelo_inurba_marseille","lat":43.284793,"lon":5.384113,"is_reserved":false,"is_disabled":false,"rental_uris":{"android":"levelo://app?vid=93f32d30-a402-402d-884e-5ab805cf8c97","ios":"levelo://app?vid=93f32d30-a402-402d-884e-5ab805cf8c97"},"vehicle_type_id":"4","last_reported":1690743845,"current_range_meters":24000,"station_id":"ce4bh512rcd13ifvqe3g","pricing_plan_id":"free"},{"bike_id":"c72fe1f5-e266-46e7-8c30-ffab64c8e48e","system_id":"levelo_inurba_marseille","lat":43.28478,"lon":5.38423,"is_reserved":false,"is_disabled":false,"rental_uris":{"android":"levelo://app?vid=c72fe1f5-e266-46e7-8c30-ffab64c8e48e","ios":"levelo://app?vid=c72fe1f5-e266-46e7-8c30-ffab64c8e48e"},"vehicle_type_id":"4","last_reported":1690743845,"current_range_meters":16400,"station_id":"ce4bh512rcd13ifvqe3g","pricing_plan_id":"free"},{"bike_id":"b6cb57c9-2ed4-42ba-aab7-8a9a77f807ea","system_id":"levelo_inurba_marseille","lat":43.284787,"lon":5.384116,"is_reserved":false,"is_disabled":false,"rental_uris":{"android":"levelo://app?vid=b6cb57c9-2ed4-42ba-aab7-8a9a77f807ea","ios":"levelo://app?vid=b6cb57c9-2ed4-42ba-aab7-8a9a77f807ea"},"vehicle_type_id":"4","last_reported":1690743845,"current_range_meters":25600,"station_id":"ce4bh512rcd13ifvqe3g","pricing_plan_id":"free"},{"bike_id":"050aeed1-34a7-4b13-b53c-c0b8fc12f031","system_id":"levelo_inurba_marseille","lat":43.288501,"lon":5.393087,"is_reserved":false,"is_disabled":false,"rental_uris":{"android":"levelo://app?vid=050aeed1-34a7-4b13-b53c-c0b8fc12f031","ios":"levelo://app?vid=050aeed1-34a7-4b13-b53c-c0b8fc12f031"},"vehicle_type_id":"4","last_reported":1690743845,"current_range_meters":9200,"station_id":"ce4bh2p2rcd13ifvqdi0","pricing_plan_id":"free"},{"bike_id":"dfc0ff39-8d9f-4ad2-a427-ef9adaee11dc","system_id":"levelo_inurba_marseille","lat":43.288501,"lon":5.393087,"is_reserved":false,"is_disabled":false,"rental_uris":{"android":"levelo://app?vid=dfc0ff39-8d9f-4ad2-a427-ef9adaee11dc","ios":"levelo://app?vid=dfc0ff39-8d9f-4ad2-a427-ef9adaee11dc"},"vehicle_type_id":"4","last_reported":1690743845,"current_range_meters":23200,"station_id":"ce4bh2p2rcd13ifvqdi0","pricing_plan_id":"free"},{"bike_id":"796f2c71-a09b-46ed-9c50-5a4c4155340d","system_id":"levelo_inurba_marseille","lat":43.288497,"lon":5.393089,"is_reserved":false,"is_disabled":false,"rental_uris":{"android":"levelo://app?vid=796f2c71-a09b-46ed-9c50-5a4c4155340d","ios":"levelo://app?vid=796f2c71-a09b-46ed-9c50-5a4c4155340d"},"vehicle_type_id":"4","last_reported":1690743845,"current_range_meters":21600,"station_id":"ce4bh2p2rcd13ifvqdi0","pricing_plan_id":"free"},{"bike_id":"4f14fc10-9244-4a80-adcd-5a2b3dcde3e5","system_id":"levelo_inurba_marseille","lat":43.283494,"lon":5.380945,"is_reserved":false,"is_disabled":false,"rental_uris":{"android":"levelo://app?vid=4f14fc10-9244-4a80-adcd-5a2b3dcde3e5","ios":"levelo://app?vid=4f14fc10-9244-4a80-adcd-5a2b3dcde3e5"},"vehicle_type_id":"4","last_reported":1690743845,"current_range_meters":14400,"station_id":"ce4bh412rcd13ifvqdr0","pricing_plan_id":"free"},{"bike_id":"ec550b79-ab97-4469-9c76-1cd987dbfc1b","system_id":"levelo_inurba_marseille","lat":43.299717,"lon":5.384845,"is_reserved":false,"is_disabled":false,"rental_uris":{"android":"levelo://app?vid=ec550b79-ab97-4469-9c76-1cd987dbfc1b","ios":"levelo://app?vid=ec550b79-ab97-4469-9c76-1cd987dbfc1b"},"vehicle_type_id":"4","last_reported":1690743845,"current_range_meters":25600,"station_id":"ce4bgj92rcd13ifvqbd0","pricing_plan_id":"free"},{"bike_id":"ebff41d1-d5e2-4f30-b6da-3d6e7520f278","system_id":"levelo_inurba_marseille","lat":43.28946,"lon":5.396268,"is_reserved":false,"is_disabled":false,"rental_uris":{"android":"levelo://app?vid=ebff41d1-d5e2-4f30-b6da-3d6e7520f278","ios":"levelo://app?vid=ebff41d1-d5e2-4f30-b6da-3d6e7520f278"},"vehicle_type_id":"4","last_reported":1690743845,"current_range_meters":12800,"station_id":"ce4bh3h2rcd13ifvqdn0","pricing_plan_id":"free"},{"bike_id":"42f9b6cc-2177-499b-9a6b-db28569ab164","system_id":"levelo_inurba_marseille","lat":43.289363,"lon":5.396322,"is_reserved":false,"is_disabled":false,"rental_uris":{"android":"levelo://app?vid=42f9b6cc-2177-499b-9a6b-db28569ab164","ios":"levelo://app?vid=42f9b6cc-2177-499b-9a6b-db28569ab164"},"vehicle_type_id":"4","last_reported":1690743845,"current_range_meters":15600,"station_id":"ce4bh3h2rcd13ifvqdn0","pricing_plan_id":"free"},{"bike_id":"dc761a31-8bf7-4d5d-aebd-a45621651f27","system_id":"levelo_inurba_marseille","lat":43.292724,"lon":5.401131,"is_reserved":false,"is_disabled":false,"rental_uris":{"android":"levelo://app?vid=dc761a31-8bf7-4d5d-aebd-a45621651f27","ios":"levelo://app?vid=dc761a31-8bf7-4d5d-aebd-a45621651f27"},"vehicle_type_id":"4","last_reported":1690743845,"current_range_meters":8800,"station_id":"ce4bh312rcd13ifvqdk0","pricing_plan_id":"free"},{"bike_id":"310116e4-c066-4845-b90e-d028b7280339","system_id":"levelo_inurba_marseille","lat":43.282744,"lon":5.350533,"is_reserved":false,"is_disabled":false,"rental_uris":{"android":"levelo://app?vid=310116e4-c066-4845-b90e-d028b7280339","ios":"levelo://app?vid=310116e4-c066-4845-b90e-d028b7280339"},"vehicle_type_id":"4","last_reported":1690743845,"current_range_meters":31200,"station_id":"ce4bhbp2rcd13ifvqerg","pricing_plan_id":"free"},{"bike_id":"bea183fd-73f7-427f-a31c-7944611242f3","system_id":"levelo_inurba_marseille","lat":43.283502,"lon":5.386471,"is_reserved":false,"is_disabled":false,"rental_uris":{"android":"levelo://app?vid=bea183fd-73f7-427f-a31c-7944611242f3","ios":"levelo://app?vid=bea183fd-73f7-427f-a31c-7944611242f3"},"vehicle_type_id":"4","last_reported":1690743845,"current_range_meters":24400,"station_id":"ce4bh492rcd13ifvqdvg","pricing_plan_id":"free"},{"bike_id":"1015d969-ff6c-4f49-8afb-806259e8cc20","system_id":"levelo_inurba_marseille","lat":43.282754,"lon":5.350519,"is_reserved":false,"is_disabled":false,"rental_uris":{"android":"levelo://app?vid=1015d969-ff6c-4f49-8afb-806259e8cc20","ios":"levelo://app?vid=1015d969-ff6c-4f49-8afb-806259e8cc20"},"vehicle_type_id":"4","last_reported":1690743845,"current_range_meters":19600,"station_id":"ce4bhbp2rcd13ifvqerg","pricing_plan_id":"free"},{"bike_id":"7f90157b-22a3-41aa-86b0-77953696a92a","system_id":"levelo_inurba_marseille","lat":43.282754,"lon":5.350519,"is_reserved":false,"is_disabled":false,"rental_uris":{"android":"levelo://app?vid=7f90157b-22a3-41aa-86b0-77953696a92a","ios":"levelo://app?vid=7f90157b-22a3-41aa-86b0-77953696a92a"},"vehicle_type_id":"4","last_reported":1690743845,"current_range_meters":28800,"station_id":"ce4bhbp2rcd13ifvqerg","pricing_plan_id":"free"},{"bike_id":"a8c24d88-705a-4bf2-a8b4-3b0d309f6402","system_id":"levelo_inurba_marseille","lat":43.32497,"lon":5.40818,"is_reserved":false,"is_disabled":false,"rental_uris":{"android":"levelo://app?vid=a8c24d88-705a-4bf2-a8b4-3b0d309f6402","ios":"levelo://app?vid=a8c24d88-705a-4bf2-a8b4-3b0d309f6402"},"vehicle_type_id":"4","last_reported":1690743845,"current_range_meters":7200,"station_id":"","pricing_plan_id":"free"},{"bike_id":"6d9931d3-9325-48b5-9a8f-55f7e00c0b81","system_id":"levelo_inurba_marseille","lat":43.28039,"lon":5.369297,"is_reserved":false,"is_disabled":false,"rental_uris":{"android":"levelo://app?vid=6d9931d3-9325-48b5-9a8f-55f7e00c0b81","ios":"levelo://app?vid=6d9931d3-9325-48b5-9a8f-55f7e00c0b81"},"vehicle_type_id":"4","last_reported":1690743845,"current_range_meters":4400,"station_id":"ce4bha12rcd13ifvqef0","pricing_plan_id":"free"},{"bike_id":"ad7822dd-d87b-4c6f-a47e-8abf0845023d","system_id":"levelo_inurba_marseille","lat":43.283502,"lon":5.386471,"is_reserved":false,"is_disabled":false,"rental_uris":{"android":"levelo://app?vid=ad7822dd-d87b-4c6f-a47e-8abf0845023d","ios":"levelo://app?vid=ad7822dd-d87b-4c6f-a47e-8abf0845023d"},"vehicle_type_id":"4","last_reported":1690743845,"current_range_meters":19200,"station_id":"ce4bh492rcd13ifvqdvg","pricing_plan_id":"free"},{"bike_id":"2da11330-b1ef-469c-83e0-8863df14ada1","system_id":"levelo_inurba_marseille","lat":43.28114,"lon":5.37832,"is_reserved":false,"is_disabled":false,"rental_uris":{"android":"levelo://app?vid=2da11330-b1ef-469c-83e0-8863df14ada1","ios":"levelo://app?vid=2da11330-b1ef-469c-83e0-8863df14ada1"},"vehicle_type_id":"4","last_reported":1690743845,"current_range_meters":26400,"station_id":"ce4bha12rcd13ifvqee0","pricing_plan_id":"free"},{"bike_id":"b5400175-eeac-4312-932f-a5b39d72ba3e","system_id":"levelo_inurba_marseille","lat":43.290412,"lon":5.399633,"is_reserved":false,"is_disabled":false,"rental_uris":{"android":"levelo://app?vid=b5400175-eeac-4312-932f-a5b39d72ba3e","ios":"levelo://app?vid=b5400175-eeac-4312-932f-a5b39d72ba3e"},"vehicle_type_id":"4","last_reported":1690743845,"current_range_meters":3600,"station_id":"ce4bh392rcd13ifvqdm0","pricing_plan_id":"free"},{"bike_id":"0dc84bcf-4504-4a84-b464-3cce0aa53099","system_id":"levelo_inurba_marseille","lat":43.28115,"lon":5.37841,"is_reserved":false,"is_disabled":false,"rental_uris":{"android":"levelo://app?vid=0dc84bcf-4504-4a84-b464-3cce0aa53099","ios":"levelo://app?vid=0dc84bcf-4504-4a84-b464-3cce0aa53099"},"vehicle_type_id":"4","last_reported":1690743845,"current_range_meters":11200,"station_id":"ce4bha12rcd13ifvqee0","pricing_plan_id":"free"},{"bike_id":"29567aef-feb0-4790-a955-fb1c0c223335","system_id":"levelo_inurba_marseille","lat":43.28105,"lon":5.37829,"is_reserved":false,"is_disabled":false,"rental_uris":{"android":"levelo://app?vid=29567aef-feb0-4790-a955-fb1c0c223335","ios":"levelo://app?vid=29567aef-feb0-4790-a955-fb1c0c223335"},"vehicle_type_id":"4","last_reported":1690743845,"current_range_meters":18800,"station_id":"ce4bha12rcd13ifvqee0","pricing_plan_id":"free"},{"bike_id":"131d519f-30e7-44a6-a4a2-3304efaa1e52","system_id":"levelo_inurba_marseille","lat":43.281044,"lon":5.378308,"is_reserved":false,"is_disabled":false,"rental_uris":{"android":"levelo://app?vid=131d519f-30e7-44a6-a4a2-3304efaa1e52","ios":"levelo://app?vid=131d519f-30e7-44a6-a4a2-3304efaa1e52"},"vehicle_type_id":"4","last_reported":1690743845,"current_range_meters":800,"station_id":"ce4bha12rcd13ifvqee0","pricing_plan_id":"free"},{"bike_id":"2139381c-c8df-43f6-8796-d86663b3f016","system_id":"levelo_inurba_marseille","lat":43.296263,"lon":5.40601,"is_reserved":false,"is_disabled":false,"rental_uris":{"android":"levelo://app?vid=2139381c-c8df-43f6-8796-d86663b3f016","ios":"levelo://app?vid=2139381c-c8df-43f6-8796-d86663b3f016"},"vehicle_type_id":"4","last_reported":1690743845,"current_range_meters":4000,"station_id":"ce4bh0h2rcd13ifvqd60","pricing_plan_id":"free"},{"bike_id":"1ec2e7af-ad45-4e35-b4fe-962d9f6fdad0","system_id":"levelo_inurba_marseille","lat":43.281,"lon":5.378339,"is_reserved":false,"is_disabled":false,"rental_uris":{"android":"levelo://app?vid=1ec2e7af-ad45-4e35-b4fe-962d9f6fdad0","ios":"levelo://app?vid=1ec2e7af-ad45-4e35-b4fe-962d9f6fdad0"},"vehicle_type_id":"4","last_reported":1690743845,"current_range_meters":12800,"station_id":"ce4bha12rcd13ifvqee0","pricing_plan_id":"free"},{"bike_id":"6e7ae75b-5c38-4cfb-8ad2-4f8525131e65","system_id":"levelo_inurba_marseille","lat":43.284462,"lon":5.392121,"is_reserved":false,"is_disabled":false,"rental_uris":{"android":"levelo://app?vid=6e7ae75b-5c38-4cfb-8ad2-4f8525131e65","ios":"levelo://app?vid=6e7ae75b-5c38-4cfb-8ad2-4f8525131e65"},"vehicle_type_id":"4","last_reported":1690743845,"current_range_meters":30000,"station_id":"ce4bhoh2rcd13ifvqh5g","pricing_plan_id":"free"},{"bike_id":"413f7e98-8de5-4070-a4a5-fb4e5a707c47","system_id":"levelo_inurba_marseille","lat":43.284462,"lon":5.392121,"is_reserved":false,"is_disabled":false,"rental_uris":{"android":"levelo://app?vid=413f7e98-8de5-4070-a4a5-fb4e5a707c47","ios":"levelo://app?vid=413f7e98-8de5-4070-a4a5-fb4e5a707c47"},"vehicle_type_id":"4","last_reported":1690743845,"current_range_meters":14400,"station_id":"ce4bhoh2rcd13ifvqh5g","pricing_plan_id":"free"},{"bike_id":"f05f9cee-e9dc-4877-b6c2-883bd5735414","system_id":"levelo_inurba_marseille","lat":43.284462,"lon":5.392121,"is_reserved":false,"is_disabled":false,"rental_uris":{"android":"levelo://app?vid=f05f9cee-e9dc-4877-b6c2-883bd5735414","ios":"levelo://app?vid=f05f9cee-e9dc-4877-b6c2-883bd5735414"},"vehicle_type_id":"4","last_reported":1690743845,"current_range_meters":19600,"station_id":"ce4bhoh2rcd13ifvqh5g","pricing_plan_id":"free"},{"bike_id":"5fc62844-38f1-43ca-9b6d-b74675103304","system_id":"levelo_inurba_marseille","lat":43.32529,"lon":5.41,"is_reserved":false,"is_disabled":false,"rental_uris":{"android":"levelo://app?vid=5fc62844-38f1-43ca-9b6d-b74675103304","ios":"levelo://app?vid=5fc62844-38f1-43ca-9b6d-b74675103304"},"vehicle_type_id":"4","last_reported":1690743845,"current_range_meters":4800,"station_id":"","pricing_plan_id":"free"},{"bike_id":"2c4f1299-601e-4755-a4c0-830c20076443","system_id":"levelo_inurba_marseille","lat":43.284462,"lon":5.392121,"is_reserved":false,"is_disabled":false,"rental_uris":{"android":"levelo://app?vid=2c4f1299-601e-4755-a4c0-830c20076443","ios":"levelo://app?vid=2c4f1299-601e-4755-a4c0-830c20076443"},"vehicle_type_id":"4","last_reported":1690743845,"current_range_meters":20400,"station_id":"ce4bhoh2rcd13ifvqh5g","pricing_plan_id":"free"},{"bike_id":"d03d8388-4975-42d5-b2de-23bbd97f3128","system_id":"levelo_inurba_marseille","lat":43.304188,"lon":5.412904,"is_reserved":false,"is_disabled":false,"rental_uris":{"android":"levelo://app?vid=d03d8388-4975-42d5-b2de-23bbd97f3128","ios":"levelo://app?vid=d03d8388-4975-42d5-b2de-23bbd97f3128"},"vehicle_type_id":"4","last_reported":1690743845,"current_range_meters":4800,"station_id":"ce4bhop2rcd13ifvqh8g","pricing_plan_id":"free"},{"bike_id":"20da83d1-2254-4617-81d1-964ed61ccff4","system_id":"levelo_inurba_marseille","lat":43.304188,"lon":5.412904,"is_reserved":false,"is_disabled":false,"rental_uris":{"android":"levelo://app?vid=20da83d1-2254-4617-81d1-964ed61ccff4","ios":"levelo://app?vid=20da83d1-2254-4617-81d1-964ed61ccff4"},"vehicle_type_id":"4","last_reported":1690743845,"current_range_meters":28000,"station_id":"ce4bhop2rcd13ifvqh8g","pricing_plan_id":"free"},{"bike_id":"7295ee2e-c698-4fe2-b7c6-23085dc12954","system_id":"levelo_inurba_marseille","lat":43.304188,"lon":5.412904,"is_reserved":false,"is_disabled":false,"rental_uris":{"android":"levelo://app?vid=7295ee2e-c698-4fe2-b7c6-23085dc12954","ios":"levelo://app?vid=7295ee2e-c698-4fe2-b7c6-23085dc12954"},"vehicle_type_id":"4","last_reported":1690743845,"current_range_meters":20000,"station_id":"ce4bhop2rcd13ifvqh8g","pricing_plan_id":"free"},{"bike_id":"8f775cc2-222d-42fc-826f-4e1a1c2a8857","system_id":"levelo_inurba_marseille","lat":43.304188,"lon":5.412904,"is_reserved":false,"is_disabled":false,"rental_uris":{"android":"levelo://app?vid=8f775cc2-222d-42fc-826f-4e1a1c2a8857","ios":"levelo://app?vid=8f775cc2-222d-42fc-826f-4e1a1c2a8857"},"vehicle_type_id":"4","last_reported":1690743845,"current_range_meters":30800,"station_id":"ce4bhop2rcd13ifvqh8g","pricing_plan_id":"free"},{"bike_id":"4ee69007-33b1-435a-8958-ca88268097c1","system_id":"levelo_inurba_marseille","lat":43.304188,"lon":5.412904,"is_reserved":false,"is_disabled":false,"rental_uris":{"android":"levelo://app?vid=4ee69007-33b1-435a-8958-ca88268097c1","ios":"levelo://app?vid=4ee69007-33b1-435a-8958-ca88268097c1"},"vehicle_type_id":"4","last_reported":1690743845,"current_range_meters":23600,"station_id":"ce4bhop2rcd13ifvqh8g","pricing_plan_id":"free"},{"bike_id":"51b64500-38d2-44f7-9c34-e23bab07d631","system_id":"levelo_inurba_marseille","lat":43.304188,"lon":5.412904,"is_reserved":false,"is_disabled":false,"rental_uris":{"android":"levelo://app?vid=51b64500-38d2-44f7-9c34-e23bab07d631","ios":"levelo://app?vid=51b64500-38d2-44f7-9c34-e23bab07d631"},"vehicle_type_id":"4","last_reported":1690743845,"current_range_meters":29200,"station_id":"ce4bhop2rcd13ifvqh8g","pricing_plan_id":"free"},{"bike_id":"bcd36e1f-ccac-4e4a-9b47-1ec6c6a096c3","system_id":"levelo_inurba_marseille","lat":43.28068,"lon":5.34777,"is_reserved":false,"is_disabled":false,"rental_uris":{"android":"levelo://app?vid=bcd36e1f-ccac-4e4a-9b47-1ec6c6a096c3","ios":"levelo://app?vid=bcd36e1f-ccac-4e4a-9b47-1ec6c6a096c3"},"vehicle_type_id":"4","last_reported":1690743845,"current_range_meters":12000,"station_id":"","pricing_plan_id":"free"},{"bike_id":"a440b506-e432-47ab-bc8a-0e0ca69d218d","system_id":"levelo_inurba_marseille","lat":43.287154,"lon":5.399979,"is_reserved":false,"is_disabled":false,"rental_uris":{"android":"levelo://app?vid=a440b506-e432-47ab-bc8a-0e0ca69d218d","ios":"levelo://app?vid=a440b506-e432-47ab-bc8a-0e0ca69d218d"},"vehicle_type_id":"4","last_reported":1690743845,"current_range_meters":7200,"station_id":"ce4bho92rcd13ifvqh3g","pricing_plan_id":"free"},{"bike_id":"aafab288-0c5c-4bc1-90fb-ff1367c3f1a4","system_id":"levelo_inurba_marseille","lat":43.287154,"lon":5.399979,"is_reserved":false,"is_disabled":false,"rental_uris":{"android":"levelo://app?vid=aafab288-0c5c-4bc1-90fb-ff1367c3f1a4","ios":"levelo://app?vid=aafab288-0c5c-4bc1-90fb-ff1367c3f1a4"},"vehicle_type_id":"4","last_reported":1690743845,"current_range_meters":10400,"station_id":"ce4bho92rcd13ifvqh3g","pricing_plan_id":"free"},{"bike_id":"da74851f-183f-4ed8-bc32-44e1d656b516","system_id":"levelo_inurba_marseille","lat":43.32095,"lon":5.41512,"is_reserved":false,"is_disabled":false,"rental_uris":{"android":"levelo://app?vid=da74851f-183f-4ed8-bc32-44e1d656b516","ios":"levelo://app?vid=da74851f-183f-4ed8-bc32-44e1d656b516"},"vehicle_type_id":"4","last_reported":1690743845,"current_range_meters":17600,"station_id":"","pricing_plan_id":"free"},{"bike_id":"e9fbe7f4-c376-4a74-9a01-c2dfa71d30c2","system_id":"levelo_inurba_marseille","lat":43.3209,"lon":5.41514,"is_reserved":false,"is_disabled":false,"rental_uris":{"android":"levelo://app?vid=e9fbe7f4-c376-4a74-9a01-c2dfa71d30c2","ios":"levelo://app?vid=e9fbe7f4-c376-4a74-9a01-c2dfa71d30c2"},"vehicle_type_id":"4","last_reported":1690743845,"current_range_meters":14000,"station_id":"","pricing_plan_id":"free"},{"bike_id":"39bfc890-c530-4457-ac62-976f6049a2e0","system_id":"levelo_inurba_marseille","lat":43.299579,"lon":5.413255,"is_reserved":false,"is_disabled":false,"rental_uris":{"android":"levelo://app?vid=39bfc890-c530-4457-ac62-976f6049a2e0","ios":"levelo://app?vid=39bfc890-c530-4457-ac62-976f6049a2e0"},"vehicle_type_id":"4","last_reported":1690743845,"current_range_meters":29600,"station_id":"ce4bhp12rcd13ifvqh9g","pricing_plan_id":"free"},{"bike_id":"cdcd753a-4a9a-455e-a5ca-a773fea8741e","system_id":"levelo_inurba_marseille","lat":43.299577,"lon":5.413277,"is_reserved":false,"is_disabled":false,"rental_uris":{"android":"levelo://app?vid=cdcd753a-4a9a-455e-a5ca-a773fea8741e","ios":"levelo://app?vid=cdcd753a-4a9a-455e-a5ca-a773fea8741e"},"vehicle_type_id":"4","last_reported":1690743845,"current_range_meters":31200,"station_id":"ce4bhp12rcd13ifvqh9g","pricing_plan_id":"free"},{"bike_id":"f98c244a-9348-4646-bb55-fbffddefc91e","system_id":"levelo_inurba_marseille","lat":43.32049,"lon":5.4154,"is_reserved":false,"is_disabled":false,"rental_uris":{"android":"levelo://app?vid=f98c244a-9348-4646-bb55-fbffddefc91e","ios":"levelo://app?vid=f98c244a-9348-4646-bb55-fbffddefc91e"},"vehicle_type_id":"4","last_reported":1690743845,"current_range_meters":4400,"station_id":"ce4bhq92rcd13ifvqhkg","pricing_plan_id":"free"},{"bike_id":"94f9bd9a-8376-4f9a-9803-375b36e777e7","system_id":"levelo_inurba_marseille","lat":43.299579,"lon":5.413255,"is_reserved":false,"is_disabled":false,"rental_uris":{"android":"levelo://app?vid=94f9bd9a-8376-4f9a-9803-375b36e777e7","ios":"levelo://app?vid=94f9bd9a-8376-4f9a-9803-375b36e777e7"},"vehicle_type_id":"4","last_reported":1690743845,"current_range_meters":31200,"station_id":"ce4bhp12rcd13ifvqh9g","pricing_plan_id":"free"},{"bike_id":"5becd9cd-4786-4a3b-bd1d-da5feb1f6587","system_id":"levelo_inurba_marseille","lat":43.320045,"lon":5.415046,"is_reserved":false,"is_disabled":false,"rental_uris":{"android":"levelo://app?vid=5becd9cd-4786-4a3b-bd1d-da5feb1f6587","ios":"levelo://app?vid=5becd9cd-4786-4a3b-bd1d-da5feb1f6587"},"vehicle_type_id":"4","last_reported":1690743845,"current_range_meters":7200,"station_id":"ce4bhq92rcd13ifvqhkg","pricing_plan_id":"free"},{"bike_id":"5c3747dc-84c8-4dbd-a8e4-3d5d5d848bfb","system_id":"levelo_inurba_marseille","lat":43.299577,"lon":5.413277,"is_reserved":false,"is_disabled":false,"rental_uris":{"android":"levelo://app?vid=5c3747dc-84c8-4dbd-a8e4-3d5d5d848bfb","ios":"levelo://app?vid=5c3747dc-84c8-4dbd-a8e4-3d5d5d848bfb"},"vehicle_type_id":"4","last_reported":1690743845,"current_range_meters":30000,"station_id":"ce4bhp12rcd13ifvqh9g","pricing_plan_id":"free"},{"bike_id":"f31cc8da-247b-4278-acb1-74061610ca07","system_id":"levelo_inurba_marseille","lat":43.279742,"lon":5.38744,"is_reserved":false,"is_disabled":false,"rental_uris":{"android":"levelo://app?vid=f31cc8da-247b-4278-acb1-74061610ca07","ios":"levelo://app?vid=f31cc8da-247b-4278-acb1-74061610ca07"},"vehicle_type_id":"4","last_reported":1690743845,"current_range_meters":14000,"station_id":"ce4bhg12rcd13ifvqf80","pricing_plan_id":"free"},{"bike_id":"099c8c2b-fed6-445e-bb82-c6284d248fe6","system_id":"levelo_inurba_marseille","lat":43.320045,"lon":5.415048,"is_reserved":false,"is_disabled":false,"rental_uris":{"android":"levelo://app?vid=099c8c2b-fed6-445e-bb82-c6284d248fe6","ios":"levelo://app?vid=099c8c2b-fed6-445e-bb82-c6284d248fe6"},"vehicle_type_id":"4","last_reported":1690743845,"current_range_meters":31600,"station_id":"ce4bhq92rcd13ifvqhkg","pricing_plan_id":"free"},{"bike_id":"912d4896-116b-45d7-b1fd-55f3960f20e0","system_id":"levelo_inurba_marseille","lat":43.279742,"lon":5.38744,"is_reserved":false,"is_disabled":false,"rental_uris":{"android":"levelo://app?vid=912d4896-116b-45d7-b1fd-55f3960f20e0","ios":"levelo://app?vid=912d4896-116b-45d7-b1fd-55f3960f20e0"},"vehicle_type_id":"4","last_reported":1690743845,"current_range_meters":30400,"station_id":"ce4bhg12rcd13ifvqf80","pricing_plan_id":"free"},{"bike_id":"c327718a-8fe6-4791-a349-aba0f8f94e82","system_id":"levelo_inurba_marseille","lat":43.279742,"lon":5.38744,"is_reserved":false,"is_disabled":false,"rental_uris":{"android":"levelo://app?vid=c327718a-8fe6-4791-a349-aba0f8f94e82","ios":"levelo://app?vid=c327718a-8fe6-4791-a349-aba0f8f94e82"},"vehicle_type_id":"4","last_reported":1690743845,"current_range_meters":29200,"station_id":"ce4bhg12rcd13ifvqf80","pricing_plan_id":"free"},{"bike_id":"e250f9b1-3fff-4030-8f6f-dcd983e425bf","system_id":"levelo_inurba_marseille","lat":43.27624,"lon":5.36099,"is_reserved":false,"is_disabled":false,"rental_uris":{"android":"levelo://app?vid=e250f9b1-3fff-4030-8f6f-dcd983e425bf","ios":"levelo://app?vid=e250f9b1-3fff-4030-8f6f-dcd983e425bf"},"vehicle_type_id":"4","last_reported":1690743845,"current_range_meters":6400,"station_id":"ce4bgj92rcd13ifvqbe0","pricing_plan_id":"free"},{"bike_id":"ab16fa4a-b9cf-40c0-8152-0163959fb243","system_id":"levelo_inurba_marseille","lat":43.276179,"lon":5.361009,"is_reserved":false,"is_disabled":false,"rental_uris":{"android":"levelo://app?vid=ab16fa4a-b9cf-40c0-8152-0163959fb243","ios":"levelo://app?vid=ab16fa4a-b9cf-40c0-8152-0163959fb243"},"vehicle_type_id":"4","last_reported":1690743845,"current_range_meters":0,"station_id":"ce4bgj92rcd13ifvqbe0","pricing_plan_id":"free"},{"bike_id":"58f51ee5-b2ce-47d6-9f90-83c8a1442fa2","system_id":"levelo_inurba_marseille","lat":43.303837,"lon":5.418724,"is_reserved":false,"is_disabled":false,"rental_uris":{"android":"levelo://app?vid=58f51ee5-b2ce-47d6-9f90-83c8a1442fa2","ios":"levelo://app?vid=58f51ee5-b2ce-47d6-9f90-83c8a1442fa2"},"vehicle_type_id":"4","last_reported":1690743845,"current_range_meters":28400,"station_id":"ce4bhop2rcd13ifvqh7g","pricing_plan_id":"free"},{"bike_id":"5f91e56f-584e-4027-a7e4-488a82d81f9b","system_id":"levelo_inurba_marseille","lat":43.278399,"lon":5.392139,"is_reserved":false,"is_disabled":false,"rental_uris":{"android":"levelo://app?vid=5f91e56f-584e-4027-a7e4-488a82d81f9b","ios":"levelo://app?vid=5f91e56f-584e-4027-a7e4-488a82d81f9b"},"vehicle_type_id":"4","last_reported":1690743845,"current_range_meters":31600,"station_id":"ce4bhjp2rcd13ifvqga0","pricing_plan_id":"free"},{"bike_id":"ed0981ec-ee22-4e4a-aa5c-2229a21b442d","system_id":"levelo_inurba_marseille","lat":43.278399,"lon":5.392139,"is_reserved":false,"is_disabled":false,"rental_uris":{"android":"levelo://app?vid=ed0981ec-ee22-4e4a-aa5c-2229a21b442d","ios":"levelo://app?vid=ed0981ec-ee22-4e4a-aa5c-2229a21b442d"},"vehicle_type_id":"4","last_reported":1690743845,"current_range_meters":10800,"station_id":"ce4bhjp2rcd13ifvqga0","pricing_plan_id":"free"},{"bike_id":"13facb60-3981-46fb-aef5-17e34a6cea54","system_id":"levelo_inurba_marseille","lat":43.33612,"lon":5.410321,"is_reserved":false,"is_disabled":false,"rental_uris":{"android":"levelo://app?vid=13facb60-3981-46fb-aef5-17e34a6cea54","ios":"levelo://app?vid=13facb60-3981-46fb-aef5-17e34a6cea54"},"vehicle_type_id":"4","last_reported":1690743845,"current_range_meters":27600,"station_id":"ce4bhqh2rcd13ifvqhmg","pricing_plan_id":"free"},{"bike_id":"2400785f-e467-49b7-8bbd-059046e2e7ee","system_id":"levelo_inurba_marseille","lat":43.275625,"lon":5.384392,"is_reserved":false,"is_disabled":false,"rental_uris":{"android":"levelo://app?vid=2400785f-e467-49b7-8bbd-059046e2e7ee","ios":"levelo://app?vid=2400785f-e467-49b7-8bbd-059046e2e7ee"},"vehicle_type_id":"4","last_reported":1690743845,"current_range_meters":12400,"station_id":"ce4bhh92rcd13ifvqfi0","pricing_plan_id":"free"},{"bike_id":"5000baa7-2a60-49f1-b849-5973b94e74ba","system_id":"levelo_inurba_marseille","lat":43.33612,"lon":5.410321,"is_reserved":false,"is_disabled":false,"rental_uris":{"android":"levelo://app?vid=5000baa7-2a60-49f1-b849-5973b94e74ba","ios":"levelo://app?vid=5000baa7-2a60-49f1-b849-5973b94e74ba"},"vehicle_type_id":"4","last_reported":1690743845,"current_range_meters":10400,"station_id":"ce4bhqh2rcd13ifvqhmg","pricing_plan_id":"free"},{"bike_id":"463c5225-332f-4616-896d-225a7a30ae18","system_id":"levelo_inurba_marseille","lat":43.33612,"lon":5.410321,"is_reserved":false,"is_disabled":false,"rental_uris":{"android":"levelo://app?vid=463c5225-332f-4616-896d-225a7a30ae18","ios":"levelo://app?vid=463c5225-332f-4616-896d-225a7a30ae18"},"vehicle_type_id":"4","last_reported":1690743845,"current_range_meters":22000,"station_id":"ce4bhqh2rcd13ifvqhmg","pricing_plan_id":"free"},{"bike_id":"5ded7c3e-4538-4211-8e7f-85d8322a2d9d","system_id":"levelo_inurba_marseille","lat":43.33612,"lon":5.410321,"is_reserved":false,"is_disabled":false,"rental_uris":{"android":"levelo://app?vid=5ded7c3e-4538-4211-8e7f-85d8322a2d9d","ios":"levelo://app?vid=5ded7c3e-4538-4211-8e7f-85d8322a2d9d"},"vehicle_type_id":"4","last_reported":1690743845,"current_range_meters":31600,"station_id":"ce4bhqh2rcd13ifvqhmg","pricing_plan_id":"free"},{"bike_id":"efc3df2c-b7ba-4ed7-a3ae-80e0121ce069","system_id":"levelo_inurba_marseille","lat":43.336134,"lon":5.410341,"is_reserved":false,"is_disabled":false,"rental_uris":{"android":"levelo://app?vid=efc3df2c-b7ba-4ed7-a3ae-80e0121ce069","ios":"levelo://app?vid=efc3df2c-b7ba-4ed7-a3ae-80e0121ce069"},