{"last_updated":1744045725,"ttl":60,"version":"2.2","data":{"bikes":[{"bike_id":"6e938e1b-fc48-4ca3-aeb7-2c7596607013","system_id":"levelo_inurba_marseille","lat":43.27069,"lon":5.42282,"is_reserved":false,"is_disabled":false,"rental_uris":{"android":"levelo://app?vid=6e938e1b-fc48-4ca3-aeb7-2c7596607013","ios":"levelo://app?vid=6e938e1b-fc48-4ca3-aeb7-2c7596607013"},"vehicle_type_id":"4","last_reported":1744045725,"current_range_meters":2800,"station_id":"ce4bhk92rcd13ifvqgb0","pricing_plan_id":"cebpf4jnsgd1na2vs0mg"},{"bike_id":"f235cce5-5aba-487e-8755-867b6d881072","system_id":"levelo_inurba_marseille","lat":43.29006,"lon":5.35613,"is_reserved":false,"is_disabled":false,"rental_uris":{"android":"levelo://app?vid=f235cce5-5aba-487e-8755-867b6d881072","ios":"levelo://app?vid=f235cce5-5aba-487e-8755-867b6d881072"},"vehicle_type_id":"4","last_reported":1744045725,"current_range_meters":2800,"station_id":"ce4bhb92rcd13ifvqen0","pricing_plan_id":"cebpf4jnsgd1na2vs0mg"},{"bike_id":"c264f436-0a8b-4998-8e41-bc6d0b953c3a","system_id":"levelo_inurba_marseille","lat":43.26782,"lon":5.39419,"is_reserved":false,"is_disabled":false,"rental_uris":{"android":"levelo://app?vid=c264f436-0a8b-4998-8e41-bc6d0b953c3a","ios":"levelo://app?vid=c264f436-0a8b-4998-8e41-bc6d0b953c3a"},"vehicle_type_id":"4","last_reported":1744045725,"current_range_meters":2800,"station_id":"ce4bhh12rcd13ifvqfg0","pricing_plan_id":"cebpf4jnsgd1na2vs0mg"},{"bike_id":"764451f8-e3e9-4aa6-8094-86f557e94d66","system_id":"levelo_inurba_marseille","lat":43.30294,"lon":5.36886,"is_reserved":false,"is_disabled":false,"rental_uris":{"android":"levelo://app?vid=764451f8-e3e9-4aa6-8094-86f557e94d66","ios":"levelo://app?vid=764451f8-e3e9-4aa6-8094-86f557e94d66"},"vehicle_type_id":"4","last_reported":1744045725,"current_range_meters":2800,"station_id":"ce4bgqh2rcd13ifvqc5g","pricing_plan_id":"cebpf4jnsgd1na2vs0mg"},{"bike_id":"eb79d1f9-7c91-4ea2-b5f8-796189743e1a","system_id":"levelo_inurba_marseille","lat":43.34233,"lon":5.38133,"is_reserved":false,"is_disabled":false,"rental_uris":{"android":"levelo://app?vid=eb79d1f9-7c91-4ea2-b5f8-796189743e1a","ios":"levelo://app?vid=eb79d1f9-7c91-4ea2-b5f8-796189743e1a"},"vehicle_type_id":"4","last_reported":1744045725,"current_range_meters":3200,"station_id":"","pricing_plan_id":"cebpf4jnsgd1na2vs0mg"},{"bike_id":"45bdf9eb-73ef-4f84-8ec0-0ff731912aac","system_id":"levelo_inurba_marseille","lat":43.29421,"lon":5.3862,"is_reserved":false,"is_disabled":false,"rental_uris":{"android":"levelo://app?vid=45bdf9eb-73ef-4f84-8ec0-0ff731912aac","ios":"levelo://app?vid=45bdf9eb-73ef-4f84-8ec0-0ff731912aac"},"vehicle_type_id":"4","last_reported":1744045725,"current_range_meters":3200,"station_id":"ce4bh2h2rcd13ifvqdh0","pricing_plan_id":"cebpf4jnsgd1na2vs0mg"},{"bike_id":"46aaf249-f504-46ae-93ce-7245839b78b5","system_id":"levelo_inurba_marseille","lat":43.26209,"lon":5.37923,"is_reserved":false,"is_disabled":true,"rental_uris":{"android":"levelo://app?vid=46aaf249-f504-46ae-93ce-7245839b78b5","ios":"levelo://app?vid=46aaf249-f504-46ae-93ce-7245839b78b5"},"vehicle_type_id":"4","last_reported":1744045725,"current_range_meters":3200,"station_id":"ce4bhjp2rcd13ifvqg90","pricing_plan_id":"cebpf4jnsgd1na2vs0mg"},{"bike_id":"4cdeac82-9212-441f-bf02-fda8306e3776","system_id":"levelo_inurba_marseille","lat":43.32364,"lon":5.38884,"is_reserved":false,"is_disabled":false,"rental_uris":{"android":"levelo://app?vid=4cdeac82-9212-441f-bf02-fda8306e3776","ios":"levelo://app?vid=4cdeac82-9212-441f-bf02-fda8306e3776"},"vehicle_type_id":"4","last_reported":1744045725,"current_range_meters":3200,"station_id":"ce4bhqp2rcd13ifvqhog","pricing_plan_id":"cebpf4jnsgd1na2vs0mg"},{"bike_id":"a94a9e10-b719-47c0-800e-5a51b112ff43","system_id":"levelo_inurba_marseille","lat":43.28425,"lon":5.34981,"is_reserved":false,"is_disabled":false,"rental_uris":{"android":"levelo://app?vid=a94a9e10-b719-47c0-800e-5a51b112ff43","ios":"levelo://app?vid=a94a9e10-b719-47c0-800e-5a51b112ff43"},"vehicle_type_id":"4","last_reported":1744045725,"current_range_meters":3200,"station_id":"ce4bhbh2rcd13ifvqepg","pricing_plan_id":"cebpf4jnsgd1na2vs0mg"},{"bike_id":"1b4bad9c-12d7-4e89-b132-b44a5df44c73","system_id":"levelo_inurba_marseille","lat":43.292908,"lon":5.37463,"is_reserved":false,"is_disabled":true,"rental_uris":{"android":"levelo://app?vid=1b4bad9c-12d7-4e89-b132-b44a5df44c73","ios":"levelo://app?vid=1b4bad9c-12d7-4e89-b132-b44a5df44c73"},"vehicle_type_id":"4","last_reported":1744045725,"current_range_meters":3200,"station_id":"ce4bgi12rcd13ifvqb70","pricing_plan_id":"cebpf4jnsgd1na2vs0mg"},{"bike_id":"d8c3ce65-ef7f-467c-9b6d-ed951518bb53","system_id":"levelo_inurba_marseille","lat":43.29522,"lon":5.37501,"is_reserved":false,"is_disabled":false,"rental_uris":{"android":"levelo://app?vid=d8c3ce65-ef7f-467c-9b6d-ed951518bb53","ios":"levelo://app?vid=d8c3ce65-ef7f-467c-9b6d-ed951518bb53"},"vehicle_type_id":"4","last_reported":1744045725,"current_range_meters":3600,"station_id":"ce4bgkp2rcd13ifvqbmg","pricing_plan_id":"cebpf4jnsgd1na2vs0mg"},{"bike_id":"55a413a3-75ad-43b0-b7c5-e20997f5150a","system_id":"levelo_inurba_marseille","lat":43.28165,"lon":5.42633,"is_reserved":false,"is_disabled":false,"rental_uris":{"android":"levelo://app?vid=55a413a3-75ad-43b0-b7c5-e20997f5150a","ios":"levelo://app?vid=55a413a3-75ad-43b0-b7c5-e20997f5150a"},"vehicle_type_id":"4","last_reported":1744045725,"current_range_meters":3600,"station_id":"ce4bhnh2rcd13ifvqgug","pricing_plan_id":"cebpf4jnsgd1na2vs0mg"},{"bike_id":"9ce1d1e6-2614-4850-9e31-ca2b1234e215","system_id":"levelo_inurba_marseille","lat":43.23177,"lon":5.39992,"is_reserved":false,"is_disabled":false,"rental_uris":{"android":"levelo://app?vid=9ce1d1e6-2614-4850-9e31-ca2b1234e215","ios":"levelo://app?vid=9ce1d1e6-2614-4850-9e31-ca2b1234e215"},"vehicle_type_id":"4","last_reported":1744045725,"current_range_meters":3600,"station_id":"ce4bhn12rcd13ifvqgqg","pricing_plan_id":"cebpf4jnsgd1na2vs0mg"},{"bike_id":"655de01b-7e70-4bf7-b458-37e1d363d717","system_id":"levelo_inurba_marseille","lat":43.2439,"lon":5.37061,"is_reserved":false,"is_disabled":true,"rental_uris":{"android":"levelo://app?vid=655de01b-7e70-4bf7-b458-37e1d363d717","ios":"levelo://app?vid=655de01b-7e70-4bf7-b458-37e1d363d717"},"vehicle_type_id":"4","last_reported":1744045725,"current_range_meters":3600,"station_id":"ce4bhhh2rcd13ifvqfk0","pricing_plan_id":"cebpf4jnsgd1na2vs0mg"},{"bike_id":"d5336e05-c483-42e9-9d22-06117ee9ac14","system_id":"levelo_inurba_marseille","lat":43.28609,"lon":5.35107,"is_reserved":false,"is_disabled":false,"rental_uris":{"android":"levelo://app?vid=d5336e05-c483-42e9-9d22-06117ee9ac14","ios":"levelo://app?vid=d5336e05-c483-42e9-9d22-06117ee9ac14"},"vehicle_type_id":"4","last_reported":1744045725,"current_range_meters":3600,"station_id":"ce4bhch2rcd13ifvqeug","pricing_plan_id":"cebpf4jnsgd1na2vs0mg"},{"bike_id":"e8c2c0e7-e799-456b-b848-1987756806e2","system_id":"levelo_inurba_marseille","lat":43.25093,"lon":5.39514,"is_reserved":false,"is_disabled":false,"rental_uris":{"android":"levelo://app?vid=e8c2c0e7-e799-456b-b848-1987756806e2","ios":"levelo://app?vid=e8c2c0e7-e799-456b-b848-1987756806e2"},"vehicle_type_id":"4","last_reported":1744045725,"current_range_meters":3600,"station_id":"ce4bhm12rcd13ifvqgkg","pricing_plan_id":"cebpf4jnsgd1na2vs0mg"},{"bike_id":"ac4945d1-97e1-4476-b740-e958da03aafb","system_id":"levelo_inurba_marseille","lat":43.29186,"lon":5.35808,"is_reserved":false,"is_disabled":false,"rental_uris":{"android":"levelo://app?vid=ac4945d1-97e1-4476-b740-e958da03aafb","ios":"levelo://app?vid=ac4945d1-97e1-4476-b740-e958da03aafb"},"vehicle_type_id":"4","last_reported":1744045725,"current_range_meters":3600,"station_id":"ce4bhb12rcd13ifvqel0","pricing_plan_id":"cebpf4jnsgd1na2vs0mg"},{"bike_id":"603fa893-aefd-451f-8f9c-760cb9a8e23f","system_id":"levelo_inurba_marseille","lat":43.29244,"lon":5.36844,"is_reserved":false,"is_disabled":false,"rental_uris":{"android":"levelo://app?vid=603fa893-aefd-451f-8f9c-760cb9a8e23f","ios":"levelo://app?vid=603fa893-aefd-451f-8f9c-760cb9a8e23f"},"vehicle_type_id":"4","last_reported":1744045725,"current_range_meters":3600,"station_id":"ce4bhbp2rcd13ifvqesg","pricing_plan_id":"cebpf4jnsgd1na2vs0mg"},{"bike_id":"1977a4e0-06ea-4154-9b08-86dd12105721","system_id":"levelo_inurba_marseille","lat":43.2866,"lon":5.36352,"is_reserved":false,"is_disabled":false,"rental_uris":{"android":"levelo://app?vid=1977a4e0-06ea-4154-9b08-86dd12105721","ios":"levelo://app?vid=1977a4e0-06ea-4154-9b08-86dd12105721"},"vehicle_type_id":"4","last_reported":1744045725,"current_range_meters":4000,"station_id":"ce4bhah2rcd13ifvqej0","pricing_plan_id":"cebpf4jnsgd1na2vs0mg"},{"bike_id":"415e2350-74c2-44fe-a5c5-a0fb8e7ca4fa","system_id":"levelo_inurba_marseille","lat":43.30119,"lon":5.38787,"is_reserved":false,"is_disabled":false,"rental_uris":{"android":"levelo://app?vid=415e2350-74c2-44fe-a5c5-a0fb8e7ca4fa","ios":"levelo://app?vid=415e2350-74c2-44fe-a5c5-a0fb8e7ca4fa"},"vehicle_type_id":"4","last_reported":1744045725,"current_range_meters":4000,"station_id":"ce4bghh2rcd13ifvqb60","pricing_plan_id":"cebpf4jnsgd1na2vs0mg"},{"bike_id":"d8f246d4-63b0-40ac-97f8-ab32d9b8478c","system_id":"levelo_inurba_marseille","lat":43.27377,"lon":5.36243,"is_reserved":false,"is_disabled":false,"rental_uris":{"android":"levelo://app?vid=d8f246d4-63b0-40ac-97f8-ab32d9b8478c","ios":"levelo://app?vid=d8f246d4-63b0-40ac-97f8-ab32d9b8478c"},"vehicle_type_id":"4","last_reported":1744045725,"current_range_meters":4000,"station_id":"ce4bhbh2rcd13ifvqeo0","pricing_plan_id":"cebpf4jnsgd1na2vs0mg"},{"bike_id":"ccf8f615-75cb-4118-b91e-f056445e0f7e","system_id":"levelo_inurba_marseille","lat":43.2952,"lon":5.390342,"is_reserved":false,"is_disabled":false,"rental_uris":{"android":"levelo://app?vid=ccf8f615-75cb-4118-b91e-f056445e0f7e","ios":"levelo://app?vid=ccf8f615-75cb-4118-b91e-f056445e0f7e"},"vehicle_type_id":"4","last_reported":1744045725,"current_range_meters":4000,"station_id":"ce4bh3p2rcd13ifvqdp0","pricing_plan_id":"cebpf4jnsgd1na2vs0mg"},{"bike_id":"26993701-cdec-4ea2-9825-4acded8f04b3","system_id":"levelo_inurba_marseille","lat":43.30331,"lon":5.40433,"is_reserved":false,"is_disabled":false,"rental_uris":{"android":"levelo://app?vid=26993701-cdec-4ea2-9825-4acded8f04b3","ios":"levelo://app?vid=26993701-cdec-4ea2-9825-4acded8f04b3"},"vehicle_type_id":"4","last_reported":1744045725,"current_range_meters":4000,"station_id":"ce4bh012rcd13ifvqd10","pricing_plan_id":"cebpf4jnsgd1na2vs0mg"},{"bike_id":"1b79a272-9354-4c2c-84d7-4ad92790713d","system_id":"levelo_inurba_marseille","lat":43.25584,"lon":5.382365,"is_reserved":false,"is_disabled":false,"rental_uris":{"android":"levelo://app?vid=1b79a272-9354-4c2c-84d7-4ad92790713d","ios":"levelo://app?vid=1b79a272-9354-4c2c-84d7-4ad92790713d"},"vehicle_type_id":"4","last_reported":1744045725,"current_range_meters":4400,"station_id":"ce4bhih2rcd13ifvqfs0","pricing_plan_id":"cebpf4jnsgd1na2vs0mg"},{"bike_id":"16f30e3c-340b-40c0-920b-06505622ef4f","system_id":"levelo_inurba_marseille","lat":43.26498,"lon":5.39545,"is_reserved":false,"is_disabled":false,"rental_uris":{"android":"levelo://app?vid=16f30e3c-340b-40c0-920b-06505622ef4f","ios":"levelo://app?vid=16f30e3c-340b-40c0-920b-06505622ef4f"},"vehicle_type_id":"4","last_reported":1744045725,"current_range_meters":4400,"station_id":"ce4bhi12rcd13ifvqfq0","pricing_plan_id":"cebpf4jnsgd1na2vs0mg"},{"bike_id":"b3eaaffd-5449-48f7-a626-0ca636d0ab66","system_id":"levelo_inurba_marseille","lat":43.278363,"lon":5.406768,"is_reserved":false,"is_disabled":false,"rental_uris":{"android":"levelo://app?vid=b3eaaffd-5449-48f7-a626-0ca636d0ab66","ios":"levelo://app?vid=b3eaaffd-5449-48f7-a626-0ca636d0ab66"},"vehicle_type_id":"4","last_reported":1744045725,"current_range_meters":4400,"station_id":"ce4bhnh2rcd13ifvqgtg","pricing_plan_id":"cebpf4jnsgd1na2vs0mg"},{"bike_id":"975bc536-361c-4d32-a8d9-e2ce5aceb9fd","system_id":"levelo_inurba_marseille","lat":43.29633,"lon":5.40585,"is_reserved":false,"is_disabled":false,"rental_uris":{"android":"levelo://app?vid=975bc536-361c-4d32-a8d9-e2ce5aceb9fd","ios":"levelo://app?vid=975bc536-361c-4d32-a8d9-e2ce5aceb9fd"},"vehicle_type_id":"4","last_reported":1744045725,"current_range_meters":4400,"station_id":"ce4bh0h2rcd13ifvqd60","pricing_plan_id":"cebpf4jnsgd1na2vs0mg"},{"bike_id":"3b2525d7-cdcb-4aa7-a779-9a3b6bb2d37b","system_id":"levelo_inurba_marseille","lat":43.27563,"lon":5.38419,"is_reserved":false,"is_disabled":false,"rental_uris":{"android":"levelo://app?vid=3b2525d7-cdcb-4aa7-a779-9a3b6bb2d37b","ios":"levelo://app?vid=3b2525d7-cdcb-4aa7-a779-9a3b6bb2d37b"},"vehicle_type_id":"4","last_reported":1744045725,"current_range_meters":4400,"station_id":"ce4bhh92rcd13ifvqfi0","pricing_plan_id":"cebpf4jnsgd1na2vs0mg"},{"bike_id":"76fa7e12-bd4b-4070-992a-4b4cb7e8cc90","system_id":"levelo_inurba_marseille","lat":43.269438,"lon":5.389871,"is_reserved":false,"is_disabled":false,"rental_uris":{"android":"levelo://app?vid=76fa7e12-bd4b-4070-992a-4b4cb7e8cc90","ios":"levelo://app?vid=76fa7e12-bd4b-4070-992a-4b4cb7e8cc90"},"vehicle_type_id":"4","last_reported":1744045725,"current_range_meters":4400,"station_id":"ce4bhnp2rcd13ifvqh0g","pricing_plan_id":"cebpf4jnsgd1na2vs0mg"},{"bike_id":"35fc85b3-4156-4a14-844b-da1f5f82374a","system_id":"levelo_inurba_marseille","lat":43.27506,"lon":5.42441,"is_reserved":false,"is_disabled":false,"rental_uris":{"android":"levelo://app?vid=35fc85b3-4156-4a14-844b-da1f5f82374a","ios":"levelo://app?vid=35fc85b3-4156-4a14-844b-da1f5f82374a"},"vehicle_type_id":"4","last_reported":1744045725,"current_range_meters":4400,"station_id":"ce4bhn92rcd13ifvqgrg","pricing_plan_id":"cebpf4jnsgd1na2vs0mg"},{"bike_id":"5260c7a3-92dd-4ba9-9110-3829f262fb51","system_id":"levelo_inurba_marseille","lat":43.3234,"lon":5.38852,"is_reserved":false,"is_disabled":false,"rental_uris":{"android":"levelo://app?vid=5260c7a3-92dd-4ba9-9110-3829f262fb51","ios":"levelo://app?vid=5260c7a3-92dd-4ba9-9110-3829f262fb51"},"vehicle_type_id":"4","last_reported":1744045725,"current_range_meters":4400,"station_id":"ce4bhqp2rcd13ifvqhog","pricing_plan_id":"cebpf4jnsgd1na2vs0mg"},{"bike_id":"7556cb88-383a-49ee-9b73-eb5da59138bd","system_id":"levelo_inurba_marseille","lat":43.29311,"lon":5.37176,"is_reserved":false,"is_disabled":false,"rental_uris":{"android":"levelo://app?vid=7556cb88-383a-49ee-9b73-eb5da59138bd","ios":"levelo://app?vid=7556cb88-383a-49ee-9b73-eb5da59138bd"},"vehicle_type_id":"4","last_reported":1744045725,"current_range_meters":4800,"station_id":"ce4bgh92rcd13ifvqb40","pricing_plan_id":"cebpf4jnsgd1na2vs0mg"},{"bike_id":"8a0fbd10-69d9-49fd-b35e-dee330e2865e","system_id":"levelo_inurba_marseille","lat":43.26958,"lon":5.38637,"is_reserved":false,"is_disabled":false,"rental_uris":{"android":"levelo://app?vid=8a0fbd10-69d9-49fd-b35e-dee330e2865e","ios":"levelo://app?vid=8a0fbd10-69d9-49fd-b35e-dee330e2865e"},"vehicle_type_id":"4","last_reported":1744045725,"current_range_meters":4800,"station_id":"ce4bhh92rcd13ifvqfh0","pricing_plan_id":"cebpf4jnsgd1na2vs0mg"},{"bike_id":"be60e2e9-74d7-44c5-9073-501a380653d4","system_id":"levelo_inurba_marseille","lat":43.2901,"lon":5.35612,"is_reserved":false,"is_disabled":false,"rental_uris":{"android":"levelo://app?vid=be60e2e9-74d7-44c5-9073-501a380653d4","ios":"levelo://app?vid=be60e2e9-74d7-44c5-9073-501a380653d4"},"vehicle_type_id":"4","last_reported":1744045725,"current_range_meters":4800,"station_id":"ce4bhb92rcd13ifvqen0","pricing_plan_id":"cebpf4jnsgd1na2vs0mg"},{"bike_id":"ac670bad-da72-4597-a9bd-e2cb6a482a09","system_id":"levelo_inurba_marseille","lat":43.2839,"lon":5.38632,"is_reserved":false,"is_disabled":false,"rental_uris":{"android":"levelo://app?vid=ac670bad-da72-4597-a9bd-e2cb6a482a09","ios":"levelo://app?vid=ac670bad-da72-4597-a9bd-e2cb6a482a09"},"vehicle_type_id":"4","last_reported":1744045725,"current_range_meters":5600,"station_id":"ce4bh492rcd13ifvqdvg","pricing_plan_id":"cebpf4jnsgd1na2vs0mg"},{"bike_id":"43dae4b5-a23f-4b28-97e6-93280573ec6a","system_id":"levelo_inurba_marseille","lat":43.295929,"lon":5.380927,"is_reserved":false,"is_disabled":true,"rental_uris":{"android":"levelo://app?vid=43dae4b5-a23f-4b28-97e6-93280573ec6a","ios":"levelo://app?vid=43dae4b5-a23f-4b28-97e6-93280573ec6a"},"vehicle_type_id":"4","last_reported":1744045725,"current_range_meters":5600,"station_id":"ce4bgl12rcd13ifvqbo0","pricing_plan_id":"cebpf4jnsgd1na2vs0mg"},{"bike_id":"f5d4db43-3a12-4756-9a95-baab6e0e7313","system_id":"levelo_inurba_marseille","lat":43.2395,"lon":5.36648,"is_reserved":false,"is_disabled":false,"rental_uris":{"android":"levelo://app?vid=f5d4db43-3a12-4756-9a95-baab6e0e7313","ios":"levelo://app?vid=f5d4db43-3a12-4756-9a95-baab6e0e7313"},"vehicle_type_id":"4","last_reported":1744045725,"current_range_meters":5600,"station_id":"ce4bhi12rcd13ifvqfp0","pricing_plan_id":"cebpf4jnsgd1na2vs0mg"},{"bike_id":"35bf0751-925f-4183-8e06-f19cdf022e10","system_id":"levelo_inurba_marseille","lat":43.29006,"lon":5.35614,"is_reserved":false,"is_disabled":false,"rental_uris":{"android":"levelo://app?vid=35bf0751-925f-4183-8e06-f19cdf022e10","ios":"levelo://app?vid=35bf0751-925f-4183-8e06-f19cdf022e10"},"vehicle_type_id":"4","last_reported":1744045725,"current_range_meters":5600,"station_id":"ce4bhb92rcd13ifvqen0","pricing_plan_id":"cebpf4jnsgd1na2vs0mg"},{"bike_id":"6955a8b5-9377-4a74-8821-0610e1957ffd","system_id":"levelo_inurba_marseille","lat":43.30352,"lon":5.41878,"is_reserved":false,"is_disabled":false,"rental_uris":{"android":"levelo://app?vid=6955a8b5-9377-4a74-8821-0610e1957ffd","ios":"levelo://app?vid=6955a8b5-9377-4a74-8821-0610e1957ffd"},"vehicle_type_id":"4","last_reported":1744045725,"current_range_meters":5600,"station_id":"ce4bhop2rcd13ifvqh7g","pricing_plan_id":"cebpf4jnsgd1na2vs0mg"},{"bike_id":"d1a7aa9b-70e7-459a-92d5-06344aaf1060","system_id":"levelo_inurba_marseille","lat":43.26784,"lon":5.39422,"is_reserved":false,"is_disabled":false,"rental_uris":{"android":"levelo://app?vid=d1a7aa9b-70e7-459a-92d5-06344aaf1060","ios":"levelo://app?vid=d1a7aa9b-70e7-459a-92d5-06344aaf1060"},"vehicle_type_id":"4","last_reported":1744045725,"current_range_meters":5600,"station_id":"ce4bhh12rcd13ifvqfg0","pricing_plan_id":"cebpf4jnsgd1na2vs0mg"},{"bike_id":"d0bb21b5-2486-49c5-9b6d-8206852014ed","system_id":"levelo_inurba_marseille","lat":43.29799,"lon":5.40396,"is_reserved":false,"is_disabled":false,"rental_uris":{"android":"levelo://app?vid=d0bb21b5-2486-49c5-9b6d-8206852014ed","ios":"levelo://app?vid=d0bb21b5-2486-49c5-9b6d-8206852014ed"},"vehicle_type_id":"4","last_reported":1744045725,"current_range_meters":4800,"station_id":"ce4bh112rcd13ifvqd90","pricing_plan_id":"cebpf4jnsgd1na2vs0mg"},{"bike_id":"584b254c-4a77-4003-80b5-6f82067734b0","system_id":"levelo_inurba_marseille","lat":43.28935,"lon":5.36643,"is_reserved":false,"is_disabled":false,"rental_uris":{"android":"levelo://app?vid=584b254c-4a77-4003-80b5-6f82067734b0","ios":"levelo://app?vid=584b254c-4a77-4003-80b5-6f82067734b0"},"vehicle_type_id":"4","last_reported":1744045725,"current_range_meters":5600,"station_id":"ce4bhap2rcd13ifvqek0","pricing_plan_id":"cebpf4jnsgd1na2vs0mg"},{"bike_id":"4ff2e62f-518d-40ca-b03f-5ccd9808bb4f","system_id":"levelo_inurba_marseille","lat":43.250983,"lon":5.395313,"is_reserved":false,"is_disabled":false,"rental_uris":{"android":"levelo://app?vid=4ff2e62f-518d-40ca-b03f-5ccd9808bb4f","ios":"levelo://app?vid=4ff2e62f-518d-40ca-b03f-5ccd9808bb4f"},"vehicle_type_id":"4","last_reported":1744045725,"current_range_meters":6000,"station_id":"ce4bhm12rcd13ifvqgkg","pricing_plan_id":"cebpf4jnsgd1na2vs0mg"},{"bike_id":"b324b0d8-4547-42f1-b51d-2fc063dddc02","system_id":"levelo_inurba_marseille","lat":43.29007,"lon":5.35617,"is_reserved":false,"is_disabled":false,"rental_uris":{"android":"levelo://app?vid=b324b0d8-4547-42f1-b51d-2fc063dddc02","ios":"levelo://app?vid=b324b0d8-4547-42f1-b51d-2fc063dddc02"},"vehicle_type_id":"4","last_reported":1744045725,"current_range_meters":6000,"station_id":"ce4bhb92rcd13ifvqen0","pricing_plan_id":"cebpf4jnsgd1na2vs0mg"},{"bike_id":"698828a4-1f26-4faf-ace8-9ccf0f911078","system_id":"levelo_inurba_marseille","lat":43.27812,"lon":5.40704,"is_reserved":false,"is_disabled":false,"rental_uris":{"android":"levelo://app?vid=698828a4-1f26-4faf-ace8-9ccf0f911078","ios":"levelo://app?vid=698828a4-1f26-4faf-ace8-9ccf0f911078"},"vehicle_type_id":"4","last_reported":1744045725,"current_range_meters":6000,"station_id":"ce4bhnh2rcd13ifvqgtg","pricing_plan_id":"cebpf4jnsgd1na2vs0mg"},{"bike_id":"37b2ea07-b3e4-49c7-93ba-525ad08c5a3d","system_id":"levelo_inurba_marseille","lat":43.28073,"lon":5.39661,"is_reserved":false,"is_disabled":false,"rental_uris":{"android":"levelo://app?vid=37b2ea07-b3e4-49c7-93ba-525ad08c5a3d","ios":"levelo://app?vid=37b2ea07-b3e4-49c7-93ba-525ad08c5a3d"},"vehicle_type_id":"4","last_reported":1744045725,"current_range_meters":6000,"station_id":"ce4bho12rcd13ifvqh2g","pricing_plan_id":"cebpf4jnsgd1na2vs0mg"},{"bike_id":"8532b0ab-c4fa-4d8d-b9d6-9e4f99e205c5","system_id":"levelo_inurba_marseille","lat":43.27573,"lon":5.3844,"is_reserved":false,"is_disabled":false,"rental_uris":{"android":"levelo://app?vid=8532b0ab-c4fa-4d8d-b9d6-9e4f99e205c5","ios":"levelo://app?vid=8532b0ab-c4fa-4d8d-b9d6-9e4f99e205c5"},"vehicle_type_id":"4","last_reported":1744045725,"current_range_meters":6400,"station_id":"ce4bhh92rcd13ifvqfi0","pricing_plan_id":"cebpf4jnsgd1na2vs0mg"},{"bike_id":"772aaace-6908-4caf-b365-38937eea141f","system_id":"levelo_inurba_marseille","lat":43.26805,"lon":5.40274,"is_reserved":false,"is_disabled":false,"rental_uris":{"android":"levelo://app?vid=772aaace-6908-4caf-b365-38937eea141f","ios":"levelo://app?vid=772aaace-6908-4caf-b365-38937eea141f"},"vehicle_type_id":"4","last_reported":1744045725,"current_range_meters":6400,"station_id":"ce501612rcd8frsf0b60","pricing_plan_id":"cebpf4jnsgd1na2vs0mg"},{"bike_id":"fead256e-0ec2-4163-b47c-ac36b333a4f8","system_id":"levelo_inurba_marseille","lat":43.29228,"lon":5.36066,"is_reserved":false,"is_disabled":false,"rental_uris":{"android":"levelo://app?vid=fead256e-0ec2-4163-b47c-ac36b333a4f8","ios":"levelo://app?vid=fead256e-0ec2-4163-b47c-ac36b333a4f8"},"vehicle_type_id":"4","last_reported":1744045725,"current_range_meters":6400,"station_id":"ce4bhbh2rcd13ifvqeqg","pricing_plan_id":"cebpf4jnsgd1na2vs0mg"},{"bike_id":"136b6e45-ee21-453e-aa22-e07947db9071","system_id":"levelo_inurba_marseille","lat":43.231552,"lon":5.436964,"is_reserved":false,"is_disabled":true,"rental_uris":{"android":"levelo://app?vid=136b6e45-ee21-453e-aa22-e07947db9071","ios":"levelo://app?vid=136b6e45-ee21-453e-aa22-e07947db9071"},"vehicle_type_id":"4","last_reported":1744045725,"current_range_meters":6400,"station_id":"ce4bhmp2rcd13ifvqgog","pricing_plan_id":"cebpf4jnsgd1na2vs0mg"},{"bike_id":"f7be2fef-f5d2-4b1b-91d9-345d47070f15","system_id":"levelo_inurba_marseille","lat":43.30421,"lon":5.4128,"is_reserved":false,"is_disabled":false,"rental_uris":{"android":"levelo://app?vid=f7be2fef-f5d2-4b1b-91d9-345d47070f15","ios":"levelo://app?vid=f7be2fef-f5d2-4b1b-91d9-345d47070f15"},"vehicle_type_id":"4","last_reported":1744045725,"current_range_meters":6800,"station_id":"ce4bhop2rcd13ifvqh8g","pricing_plan_id":"cebpf4jnsgd1na2vs0mg"},{"bike_id":"00393ee2-317d-4e98-a30d-fd25773ef49f","system_id":"levelo_inurba_marseille","lat":43.35213,"lon":5.35793,"is_reserved":false,"is_disabled":false,"rental_uris":{"android":"levelo://app?vid=00393ee2-317d-4e98-a30d-fd25773ef49f","ios":"levelo://app?vid=00393ee2-317d-4e98-a30d-fd25773ef49f"},"vehicle_type_id":"4","last_reported":1744045725,"current_range_meters":6800,"station_id":"","pricing_plan_id":"cebpf4jnsgd1na2vs0mg"},{"bike_id":"8a658b38-e0d2-43e2-93fb-086f999ced15","system_id":"levelo_inurba_marseille","lat":43.27074,"lon":5.42278,"is_reserved":false,"is_disabled":false,"rental_uris":{"android":"levelo://app?vid=8a658b38-e0d2-43e2-93fb-086f999ced15","ios":"levelo://app?vid=8a658b38-e0d2-43e2-93fb-086f999ced15"},"vehicle_type_id":"4","last_reported":1744045725,"current_range_meters":6800,"station_id":"ce4bhk92rcd13ifvqgb0","pricing_plan_id":"cebpf4jnsgd1na2vs0mg"},{"bike_id":"aba5e844-f429-4fca-8fbd-34616f5265a2","system_id":"levelo_inurba_marseille","lat":43.28188,"lon":5.42629,"is_reserved":false,"is_disabled":false,"rental_uris":{"android":"levelo://app?vid=aba5e844-f429-4fca-8fbd-34616f5265a2","ios":"levelo://app?vid=aba5e844-f429-4fca-8fbd-34616f5265a2"},"vehicle_type_id":"4","last_reported":1744045725,"current_range_meters":6800,"station_id":"ce4bhnh2rcd13ifvqgug","pricing_plan_id":"cebpf4jnsgd1na2vs0mg"},{"bike_id":"7f1f7af9-65ba-4c97-9f3f-d44a07cc2ba4","system_id":"levelo_inurba_marseille","lat":43.26564,"lon":5.39016,"is_reserved":false,"is_disabled":false,"rental_uris":{"android":"levelo://app?vid=7f1f7af9-65ba-4c97-9f3f-d44a07cc2ba4","ios":"levelo://app?vid=7f1f7af9-65ba-4c97-9f3f-d44a07cc2ba4"},"vehicle_type_id":"4","last_reported":1744045725,"current_range_meters":6800,"station_id":"ce4bhe12rcd13ifvqf30","pricing_plan_id":"cebpf4jnsgd1na2vs0mg"},{"bike_id":"22be28e0-e073-412e-8313-c8e64d242c14","system_id":"levelo_inurba_marseille","lat":43.28625,"lon":5.35104,"is_reserved":false,"is_disabled":false,"rental_uris":{"android":"levelo://app?vid=22be28e0-e073-412e-8313-c8e64d242c14","ios":"levelo://app?vid=22be28e0-e073-412e-8313-c8e64d242c14"},"vehicle_type_id":"4","last_reported":1744045725,"current_range_meters":6800,"station_id":"ce4bhch2rcd13ifvqeug","pricing_plan_id":"cebpf4jnsgd1na2vs0mg"},{"bike_id":"f34bf0f8-1746-48e9-b060-60cf5f84241d","system_id":"levelo_inurba_marseille","lat":43.28671,"lon":5.363149,"is_reserved":false,"is_disabled":false,"rental_uris":{"android":"levelo://app?vid=f34bf0f8-1746-48e9-b060-60cf5f84241d","ios":"levelo://app?vid=f34bf0f8-1746-48e9-b060-60cf5f84241d"},"vehicle_type_id":"4","last_reported":1744045725,"current_range_meters":6800,"station_id":"ce4bhap2rcd13ifvqek0","pricing_plan_id":"cebpf4jnsgd1na2vs0mg"},{"bike_id":"641cb0ca-1822-4c9f-b2e2-619304e2a1f9","system_id":"levelo_inurba_marseille","lat":43.31763,"lon":5.39007,"is_reserved":false,"is_disabled":false,"rental_uris":{"android":"levelo://app?vid=641cb0ca-1822-4c9f-b2e2-619304e2a1f9","ios":"levelo://app?vid=641cb0ca-1822-4c9f-b2e2-619304e2a1f9"},"vehicle_type_id":"4","last_reported":1744045725,"current_range_meters":7200,"station_id":"ce4bhqp2rcd13ifvqhng","pricing_plan_id":"cebpf4jnsgd1na2vs0mg"},{"bike_id":"5630904e-dae3-4fec-a5c5-b5d2bbca2873","system_id":"levelo_inurba_marseille","lat":43.28335,"lon":5.38112,"is_reserved":false,"is_disabled":false,"rental_uris":{"android":"levelo://app?vid=5630904e-dae3-4fec-a5c5-b5d2bbca2873","ios":"levelo://app?vid=5630904e-dae3-4fec-a5c5-b5d2bbca2873"},"vehicle_type_id":"4","last_reported":1744045725,"current_range_meters":6800,"station_id":"ce4bh412rcd13ifvqdr0","pricing_plan_id":"cebpf4jnsgd1na2vs0mg"},{"bike_id":"daf6635b-fa2a-4618-b42e-8caa7dab7d02","system_id":"levelo_inurba_marseille","lat":43.29093,"lon":5.38124,"is_reserved":false,"is_disabled":false,"rental_uris":{"android":"levelo://app?vid=daf6635b-fa2a-4618-b42e-8caa7dab7d02","ios":"levelo://app?vid=daf6635b-fa2a-4618-b42e-8caa7dab7d02"},"vehicle_type_id":"4","last_reported":1744045725,"current_range_meters":7200,"station_id":"ce4bh512rcd13ifvqe2g","pricing_plan_id":"cebpf4jnsgd1na2vs0mg"},{"bike_id":"49f65e43-812a-4f14-83ce-c9dcb781e942","system_id":"levelo_inurba_marseille","lat":43.23153,"lon":5.43719,"is_reserved":false,"is_disabled":false,"rental_uris":{"android":"levelo://app?vid=49f65e43-812a-4f14-83ce-c9dcb781e942","ios":"levelo://app?vid=49f65e43-812a-4f14-83ce-c9dcb781e942"},"vehicle_type_id":"4","last_reported":1744045725,"current_range_meters":7200,"station_id":"ce4bhmp2rcd13ifvqgog","pricing_plan_id":"cebpf4jnsgd1na2vs0mg"},{"bike_id":"351b921a-1463-4cf6-859d-ca5bd51a6e76","system_id":"levelo_inurba_marseille","lat":43.317936,"lon":5.368028,"is_reserved":false,"is_disabled":false,"rental_uris":{"android":"levelo://app?vid=351b921a-1463-4cf6-859d-ca5bd51a6e76","ios":"levelo://app?vid=351b921a-1463-4cf6-859d-ca5bd51a6e76"},"vehicle_type_id":"4","last_reported":1744045725,"current_range_meters":7200,"station_id":"","pricing_plan_id":"cebpf4jnsgd1na2vs0mg"},{"bike_id":"50469e6a-13e8-48f9-a078-216827964709","system_id":"levelo_inurba_marseille","lat":43.30651,"lon":5.400919,"is_reserved":false,"is_disabled":false,"rental_uris":{"android":"levelo://app?vid=50469e6a-13e8-48f9-a078-216827964709","ios":"levelo://app?vid=50469e6a-13e8-48f9-a078-216827964709"},"vehicle_type_id":"4","last_reported":1744045725,"current_range_meters":7200,"station_id":"ce4bh112rcd13ifvqda0","pricing_plan_id":"cebpf4jnsgd1na2vs0mg"},{"bike_id":"8254ba78-1a78-43a3-95b9-ad6c2bbb23ae","system_id":"levelo_inurba_marseille","lat":43.29199,"lon":5.35791,"is_reserved":false,"is_disabled":false,"rental_uris":{"android":"levelo://app?vid=8254ba78-1a78-43a3-95b9-ad6c2bbb23ae","ios":"levelo://app?vid=8254ba78-1a78-43a3-95b9-ad6c2bbb23ae"},"vehicle_type_id":"4","last_reported":1744045725,"current_range_meters":7200,"station_id":"ce4bhb12rcd13ifvqel0","pricing_plan_id":"cebpf4jnsgd1na2vs0mg"},{"bike_id":"fc9f28b3-7e2d-411c-a886-69153532e4cc","system_id":"levelo_inurba_marseille","lat":43.28946,"lon":5.36643,"is_reserved":false,"is_disabled":false,"rental_uris":{"android":"levelo://app?vid=fc9f28b3-7e2d-411c-a886-69153532e4cc","ios":"levelo://app?vid=fc9f28b3-7e2d-411c-a886-69153532e4cc"},"vehicle_type_id":"4","last_reported":1744045725,"current_range_meters":7200,"station_id":"ce4bhap2rcd13ifvqek0","pricing_plan_id":"cebpf4jnsgd1na2vs0mg"},{"bike_id":"9ac62e53-a9f0-45e5-8301-ad22e52e3325","system_id":"levelo_inurba_marseille","lat":43.25505,"lon":5.37649,"is_reserved":false,"is_disabled":false,"rental_uris":{"android":"levelo://app?vid=9ac62e53-a9f0-45e5-8301-ad22e52e3325","ios":"levelo://app?vid=9ac62e53-a9f0-45e5-8301-ad22e52e3325"},"vehicle_type_id":"4","last_reported":1744045725,"current_range_meters":8000,"station_id":"ce4bhh12rcd13ifvqff0","pricing_plan_id":"cebpf4jnsgd1na2vs0mg"},{"bike_id":"886d92c4-905e-4f80-a4f8-47ce3fcc933f","system_id":"levelo_inurba_marseille","lat":43.29007,"lon":5.35614,"is_reserved":false,"is_disabled":false,"rental_uris":{"android":"levelo://app?vid=886d92c4-905e-4f80-a4f8-47ce3fcc933f","ios":"levelo://app?vid=886d92c4-905e-4f80-a4f8-47ce3fcc933f"},"vehicle_type_id":"4","last_reported":1744045725,"current_range_meters":8000,"station_id":"ce4bhb92rcd13ifvqen0","pricing_plan_id":"cebpf4jnsgd1na2vs0mg"},{"bike_id":"79ab7e2b-c8a0-4086-a8e4-f12e17aa0560","system_id":"levelo_inurba_marseille","lat":43.30286,"lon":5.37132,"is_reserved":false,"is_disabled":false,"rental_uris":{"android":"levelo://app?vid=79ab7e2b-c8a0-4086-a8e4-f12e17aa0560","ios":"levelo://app?vid=79ab7e2b-c8a0-4086-a8e4-f12e17aa0560"},"vehicle_type_id":"4","last_reported":1744045725,"current_range_meters":8000,"station_id":"","pricing_plan_id":"cebpf4jnsgd1na2vs0mg"},{"bike_id":"c3e6d442-6282-4c88-9f90-93d85aff9e76","system_id":"levelo_inurba_marseille","lat":43.28166,"lon":5.42675,"is_reserved":false,"is_disabled":false,"rental_uris":{"android":"levelo://app?vid=c3e6d442-6282-4c88-9f90-93d85aff9e76","ios":"levelo://app?vid=c3e6d442-6282-4c88-9f90-93d85aff9e76"},"vehicle_type_id":"4","last_reported":1744045725,"current_range_meters":8000,"station_id":"ce4bhnh2rcd13ifvqgug","pricing_plan_id":"cebpf4jnsgd1na2vs0mg"},{"bike_id":"7c49e682-e77e-4b13-b7aa-05698060056c","system_id":"levelo_inurba_marseille","lat":43.28855,"lon":5.35831,"is_reserved":false,"is_disabled":false,"rental_uris":{"android":"levelo://app?vid=7c49e682-e77e-4b13-b7aa-05698060056c","ios":"levelo://app?vid=7c49e682-e77e-4b13-b7aa-05698060056c"},"vehicle_type_id":"4","last_reported":1744045725,"current_range_meters":8000,"station_id":"ce4bhb12rcd13ifvqem0","pricing_plan_id":"cebpf4jnsgd1na2vs0mg"},{"bike_id":"4c39e572-4b05-41f1-8b36-7c1cf45c9c9e","system_id":"levelo_inurba_marseille","lat":43.30754,"lon":5.37714,"is_reserved":false,"is_disabled":false,"rental_uris":{"android":"levelo://app?vid=4c39e572-4b05-41f1-8b36-7c1cf45c9c9e","ios":"levelo://app?vid=4c39e572-4b05-41f1-8b36-7c1cf45c9c9e"},"vehicle_type_id":"4","last_reported":1744045725,"current_range_meters":8000,"station_id":"","pricing_plan_id":"cebpf4jnsgd1na2vs0mg"},{"bike_id":"606675f6-9cae-427a-83c9-8a064752327b","system_id":"levelo_inurba_marseille","lat":43.32332,"lon":5.36669,"is_reserved":false,"is_disabled":false,"rental_uris":{"android":"levelo://app?vid=606675f6-9cae-427a-83c9-8a064752327b","ios":"levelo://app?vid=606675f6-9cae-427a-83c9-8a064752327b"},"vehicle_type_id":"4","last_reported":1744045725,"current_range_meters":8000,"station_id":"ce4bhsh2rcd13ifvqi2g","pricing_plan_id":"cebpf4jnsgd1na2vs0mg"},{"bike_id":"8a38320c-a733-4cf5-8c8e-152497fe8f8f","system_id":"levelo_inurba_marseille","lat":43.28154,"lon":5.42636,"is_reserved":false,"is_disabled":false,"rental_uris":{"android":"levelo://app?vid=8a38320c-a733-4cf5-8c8e-152497fe8f8f","ios":"levelo://app?vid=8a38320c-a733-4cf5-8c8e-152497fe8f8f"},"vehicle_type_id":"4","last_reported":1744045725,"current_range_meters":8400,"station_id":"ce4bhnh2rcd13ifvqgug","pricing_plan_id":"cebpf4jnsgd1na2vs0mg"},{"bike_id":"60a1af44-e1ff-4b4b-aa60-003942616ff8","system_id":"levelo_inurba_marseille","lat":43.28032,"lon":5.36945,"is_reserved":false,"is_disabled":false,"rental_uris":{"android":"levelo://app?vid=60a1af44-e1ff-4b4b-aa60-003942616ff8","ios":"levelo://app?vid=60a1af44-e1ff-4b4b-aa60-003942616ff8"},"vehicle_type_id":"4","last_reported":1744045725,"current_range_meters":8400,"station_id":"ce4bha12rcd13ifvqef0","pricing_plan_id":"cebpf4jnsgd1na2vs0mg"},{"bike_id":"6b770536-e0ee-4074-a4d5-7fac1065bae9","system_id":"levelo_inurba_marseille","lat":43.33721,"lon":5.3919,"is_reserved":false,"is_disabled":false,"rental_uris":{"android":"levelo://app?vid=6b770536-e0ee-4074-a4d5-7fac1065bae9","ios":"levelo://app?vid=6b770536-e0ee-4074-a4d5-7fac1065bae9"},"vehicle_type_id":"4","last_reported":1744045725,"current_range_meters":8400,"station_id":"ce4bhr92rcd13ifvqhsg","pricing_plan_id":"cebpf4jnsgd1na2vs0mg"},{"bike_id":"a959694d-18ce-4d80-917f-23c91ed81065","system_id":"levelo_inurba_marseille","lat":43.29896,"lon":5.43699,"is_reserved":false,"is_disabled":false,"rental_uris":{"android":"levelo://app?vid=a959694d-18ce-4d80-917f-23c91ed81065","ios":"levelo://app?vid=a959694d-18ce-4d80-917f-23c91ed81065"},"vehicle_type_id":"4","last_reported":1744045725,"current_range_meters":8400,"station_id":"ce4bhpp2rcd13ifvqhfg","pricing_plan_id":"cebpf4jnsgd1na2vs0mg"},{"bike_id":"ae266253-c81a-4058-8c3f-fb48879299cd","system_id":"levelo_inurba_marseille","lat":43.29709,"lon":5.377,"is_reserved":false,"is_disabled":false,"rental_uris":{"android":"levelo://app?vid=ae266253-c81a-4058-8c3f-fb48879299cd","ios":"levelo://app?vid=ae266253-c81a-4058-8c3f-fb48879299cd"},"vehicle_type_id":"4","last_reported":1744045725,"current_range_meters":8400,"station_id":"ce4bgkh2rcd13ifvqbl0","pricing_plan_id":"cebpf4jnsgd1na2vs0mg"},{"bike_id":"516d1131-8d22-4c00-9743-8f8296b9be79","system_id":"levelo_inurba_marseille","lat":43.25489,"lon":5.37638,"is_reserved":false,"is_disabled":true,"rental_uris":{"android":"levelo://app?vid=516d1131-8d22-4c00-9743-8f8296b9be79","ios":"levelo://app?vid=516d1131-8d22-4c00-9743-8f8296b9be79"},"vehicle_type_id":"4","last_reported":1744045725,"current_range_meters":8400,"station_id":"ce4bhh12rcd13ifvqff0","pricing_plan_id":"cebpf4jnsgd1na2vs0mg"},{"bike_id":"b38fb745-eb75-4786-94be-84705d0e4ec7","system_id":"levelo_inurba_marseille","lat":43.2737,"lon":5.36241,"is_reserved":false,"is_disabled":false,"rental_uris":{"android":"levelo://app?vid=b38fb745-eb75-4786-94be-84705d0e4ec7","ios":"levelo://app?vid=b38fb745-eb75-4786-94be-84705d0e4ec7"},"vehicle_type_id":"4","last_reported":1744045725,"current_range_meters":8400,"station_id":"ce4bhbh2rcd13ifvqeo0","pricing_plan_id":"cebpf4jnsgd1na2vs0mg"},{"bike_id":"e25994b9-c756-430d-b75f-8f67fc35ecb7","system_id":"levelo_inurba_marseille","lat":43.24665,"lon":5.38172,"is_reserved":false,"is_disabled":false,"rental_uris":{"android":"levelo://app?vid=e25994b9-c756-430d-b75f-8f67fc35ecb7","ios":"levelo://app?vid=e25994b9-c756-430d-b75f-8f67fc35ecb7"},"vehicle_type_id":"4","last_reported":1744045725,"current_range_meters":8400,"station_id":"ce4bhih2rcd13ifvqfr0","pricing_plan_id":"cebpf4jnsgd1na2vs0mg"},{"bike_id":"67bc07ba-5db8-412a-b4b9-1d5a33db5926","system_id":"levelo_inurba_marseille","lat":43.28574,"lon":5.39496,"is_reserved":false,"is_disabled":false,"rental_uris":{"android":"levelo://app?vid=67bc07ba-5db8-412a-b4b9-1d5a33db5926","ios":"levelo://app?vid=67bc07ba-5db8-412a-b4b9-1d5a33db5926"},"vehicle_type_id":"4","last_reported":1744045725,"current_range_meters":8000,"station_id":"ce4bh292rcd13ifvqdg0","pricing_plan_id":"cebpf4jnsgd1na2vs0mg"},{"bike_id":"79537ffb-5232-4549-a0c1-44d0c11f25a2","system_id":"levelo_inurba_marseille","lat":43.31703,"lon":5.437168,"is_reserved":false,"is_disabled":false,"rental_uris":{"android":"levelo://app?vid=79537ffb-5232-4549-a0c1-44d0c11f25a2","ios":"levelo://app?vid=79537ffb-5232-4549-a0c1-44d0c11f25a2"},"vehicle_type_id":"4","last_reported":1744045725,"current_range_meters":8400,"station_id":"ce4bhp92rcd13ifvqhcg","pricing_plan_id":"cebpf4jnsgd1na2vs0mg"},{"bike_id":"909e2664-11bd-4df8-bebf-6eff5570fba4","system_id":"levelo_inurba_marseille","lat":43.29416,"lon":5.38636,"is_reserved":false,"is_disabled":false,"rental_uris":{"android":"levelo://app?vid=909e2664-11bd-4df8-bebf-6eff5570fba4","ios":"levelo://app?vid=909e2664-11bd-4df8-bebf-6eff5570fba4"},"vehicle_type_id":"4","last_reported":1744045725,"current_range_meters":8400,"station_id":"ce4bh2h2rcd13ifvqdh0","pricing_plan_id":"cebpf4jnsgd1na2vs0mg"},{"bike_id":"7cf03240-533e-4c72-986e-1b5c7348cb29","system_id":"levelo_inurba_marseille","lat":43.30531,"lon":5.36539,"is_reserved":false,"is_disabled":false,"rental_uris":{"android":"levelo://app?vid=7cf03240-533e-4c72-986e-1b5c7348cb29","ios":"levelo://app?vid=7cf03240-533e-4c72-986e-1b5c7348cb29"},"vehicle_type_id":"4","last_reported":1744045725,"current_range_meters":8400,"station_id":"ce4bgs12rcd13ifvqcag","pricing_plan_id":"cebpf4jnsgd1na2vs0mg"},{"bike_id":"fb6acf77-1e74-4888-b654-d015099aa74e","system_id":"levelo_inurba_marseille","lat":43.28936,"lon":5.3663,"is_reserved":false,"is_disabled":false,"rental_uris":{"android":"levelo://app?vid=fb6acf77-1e74-4888-b654-d015099aa74e","ios":"levelo://app?vid=fb6acf77-1e74-4888-b654-d015099aa74e"},"vehicle_type_id":"4","last_reported":1744045725,"current_range_meters":8400,"station_id":"ce4bhap2rcd13ifvqek0","pricing_plan_id":"cebpf4jnsgd1na2vs0mg"},{"bike_id":"3a6cf4dd-4a04-48a6-bbfb-6b1ea18759b5","system_id":"levelo_inurba_marseille","lat":43.32379,"lon":5.36599,"is_reserved":false,"is_disabled":false,"rental_uris":{"android":"levelo://app?vid=3a6cf4dd-4a04-48a6-bbfb-6b1ea18759b5","ios":"levelo://app?vid=3a6cf4dd-4a04-48a6-bbfb-6b1ea18759b5"},"vehicle_type_id":"4","last_reported":1744045725,"current_range_meters":8800,"station_id":"ce4bhsh2rcd13ifvqi2g","pricing_plan_id":"cebpf4jnsgd1na2vs0mg"},{"bike_id":"755acd57-59ea-49ed-ad6a-698107bd5c37","system_id":"levelo_inurba_marseille","lat":43.32354,"lon":5.36723,"is_reserved":false,"is_disabled":false,"rental_uris":{"android":"levelo://app?vid=755acd57-59ea-49ed-ad6a-698107bd5c37","ios":"levelo://app?vid=755acd57-59ea-49ed-ad6a-698107bd5c37"},"vehicle_type_id":"4","last_reported":1744045725,"current_range_meters":8800,"station_id":"ce4bhsh2rcd13ifvqi2g","pricing_plan_id":"cebpf4jnsgd1na2vs0mg"},{"bike_id":"84664750-914f-4773-92f0-ec08ad702917","system_id":"levelo_inurba_marseille","lat":43.26972,"lon":5.36624,"is_reserved":false,"is_disabled":false,"rental_uris":{"android":"levelo://app?vid=84664750-914f-4773-92f0-ec08ad702917","ios":"levelo://app?vid=84664750-914f-4773-92f0-ec08ad702917"},"vehicle_type_id":"4","last_reported":1744045725,"current_range_meters":8800,"station_id":"ce4bgvp2rcd13ifvqcu0","pricing_plan_id":"cebpf4jnsgd1na2vs0mg"},{"bike_id":"f3b83e8a-c65f-4f5d-8899-2b84c089f530","system_id":"levelo_inurba_marseille","lat":43.32139,"lon":5.36794,"is_reserved":false,"is_disabled":false,"rental_uris":{"android":"levelo://app?vid=f3b83e8a-c65f-4f5d-8899-2b84c089f530","ios":"levelo://app?vid=f3b83e8a-c65f-4f5d-8899-2b84c089f530"},"vehicle_type_id":"4","last_reported":1744045725,"current_range_meters":8800,"station_id":"ce4bhrh2rcd13ifvqhug","pricing_plan_id":"cebpf4jnsgd1na2vs0mg"},{"bike_id":"73276e73-379c-4215-bfe8-0a4cdf26f8fb","system_id":"levelo_inurba_marseille","lat":43.27379,"lon":5.36255,"is_reserved":false,"is_disabled":true,"rental_uris":{"android":"levelo://app?vid=73276e73-379c-4215-bfe8-0a4cdf26f8fb","ios":"levelo://app?vid=73276e73-379c-4215-bfe8-0a4cdf26f8fb"},"vehicle_type_id":"4","last_reported":1744045725,"current_range_meters":8800,"station_id":"ce4bhbh2rcd13ifvqeo0","pricing_plan_id":"cebpf4jnsgd1na2vs0mg"},{"bike_id":"e223670b-5545-4017-934f-c2adf2f3c08b","system_id":"levelo_inurba_marseille","lat":43.27068,"lon":5.42273,"is_reserved":false,"is_disabled":false,"rental_uris":{"android":"levelo://app?vid=e223670b-5545-4017-934f-c2adf2f3c08b","ios":"levelo://app?vid=e223670b-5545-4017-934f-c2adf2f3c08b"},"vehicle_type_id":"4","last_reported":1744045725,"current_range_meters":8800,"station_id":"ce4bhk92rcd13ifvqgb0","pricing_plan_id":"cebpf4jnsgd1na2vs0mg"},{"bike_id":"21ad2b20-e326-40c8-a3d6-b2092488dc26","system_id":"levelo_inurba_marseille","lat":43.243837,"lon":5.370113,"is_reserved":false,"is_disabled":false,"rental_uris":{"android":"levelo://app?vid=21ad2b20-e326-40c8-a3d6-b2092488dc26","ios":"levelo://app?vid=21ad2b20-e326-40c8-a3d6-b2092488dc26"},"vehicle_type_id":"4","last_reported":1744045725,"current_range_meters":8800,"station_id":"","pricing_plan_id":"cebpf4jnsgd1na2vs0mg"},{"bike_id":"d9fbb89f-816e-46c0-8a3e-3620463955b2","system_id":"levelo_inurba_marseille","lat":43.29268,"lon":5.37622,"is_reserved":false,"is_disabled":false,"rental_uris":{"android":"levelo://app?vid=d9fbb89f-816e-46c0-8a3e-3620463955b2","ios":"levelo://app?vid=d9fbb89f-816e-46c0-8a3e-3620463955b2"},"vehicle_type_id":"4","last_reported":1744045725,"current_range_meters":8800,"station_id":"ce4bgi12rcd13ifvqb80","pricing_plan_id":"cebpf4jnsgd1na2vs0mg"},{"bike_id":"87bda883-ac94-49fc-94c2-3a86e52b4f97","system_id":"levelo_inurba_marseille","lat":43.30735,"lon":5.38353,"is_reserved":false,"is_disabled":false,"rental_uris":{"android":"levelo://app?vid=87bda883-ac94-49fc-94c2-3a86e52b4f97","ios":"levelo://app?vid=87bda883-ac94-49fc-94c2-3a86e52b4f97"},"vehicle_type_id":"4","last_reported":1744045725,"current_range_meters":9200,"station_id":"","pricing_plan_id":"cebpf4jnsgd1na2vs0mg"},{"bike_id":"b1e9bc4a-b10e-4ed7-9329-e73f6b83f613","system_id":"levelo_inurba_marseille","lat":43.31117,"lon":5.37763,"is_reserved":false,"is_disabled":false,"rental_uris":{"android":"levelo://app?vid=b1e9bc4a-b10e-4ed7-9329-e73f6b83f613","ios":"levelo://app?vid=b1e9bc4a-b10e-4ed7-9329-e73f6b83f613"},"vehicle_type_id":"4","last_reported":1744045725,"current_range_meters":9200,"station_id":"ce4bgt92rcd13ifvqcg0","pricing_plan_id":"cebpf4jnsgd1na2vs0mg"},{"bike_id":"71087a5b-02b6-4a46-932a-009561f906a3","system_id":"levelo_inurba_marseille","lat":43.28934,"lon":5.36638,"is_reserved":false,"is_disabled":true,"rental_uris":{"android":"levelo://app?vid=71087a5b-02b6-4a46-932a-009561f906a3","ios":"levelo://app?vid=71087a5b-02b6-4a46-932a-009561f906a3"},"vehicle_type_id":"4","last_reported":1744045725,"current_range_meters":9200,"station_id":"ce4bhap2rcd13ifvqek0","pricing_plan_id":"cebpf4jnsgd1na2vs0mg"},{"bike_id":"d893a78a-9318-483a-996e-9bec91fd98dc","system_id":"levelo_inurba_marseille","lat":43.3171,"lon":5.43691,"is_reserved":false,"is_disabled":false,"rental_uris":{"android":"levelo://app?vid=d893a78a-9318-483a-996e-9bec91fd98dc","ios":"levelo://app?vid=d893a78a-9318-483a-996e-9bec91fd98dc"},"vehicle_type_id":"4","last_reported":1744045725,"current_range_meters":9200,"station_id":"ce4bhp92rcd13ifvqhcg","pricing_plan_id":"cebpf4jnsgd1na2vs0mg"},{"bike_id":"06c29459-1804-4468-a29a-8ce733487662","system_id":"levelo_inurba_marseille","lat":43.28938,"lon":5.36642,"is_reserved":false,"is_disabled":false,"rental_uris":{"android":"levelo://app?vid=06c29459-1804-4468-a29a-8ce733487662","ios":"levelo://app?vid=06c29459-1804-4468-a29a-8ce733487662"},"vehicle_type_id":"4","last_reported":1744045725,"current_range_meters":9200,"station_id":"ce4bhap2rcd13ifvqek0","pricing_plan_id":"cebpf4jnsgd1na2vs0mg"},{"bike_id":"059b5c15-2d1d-4fbb-b9b1-d99c93e38e42","system_id":"levelo_inurba_marseille","lat":43.24077,"lon":5.37759,"is_reserved":false,"is_disabled":false,"rental_uris":{"android":"levelo://app?vid=059b5c15-2d1d-4fbb-b9b1-d99c93e38e42","ios":"levelo://app?vid=059b5c15-2d1d-4fbb-b9b1-d99c93e38e42"},"vehicle_type_id":"4","last_reported":1744045725,"current_range_meters":9200,"station_id":"ce4bhnp2rcd13ifvqgvg","pricing_plan_id":"cebpf4jnsgd1na2vs0mg"},{"bike_id":"14b3f9d4-3533-4279-b094-1355f1281d04","system_id":"levelo_inurba_marseille","lat":43.25583,"lon":5.38235,"is_reserved":false,"is_disabled":false,"rental_uris":{"android":"levelo://app?vid=14b3f9d4-3533-4279-b094-1355f1281d04","ios":"levelo://app?vid=14b3f9d4-3533-4279-b094-1355f1281d04"},"vehicle_type_id":"4","last_reported":1744045725,"current_range_meters":9200,"station_id":"ce4bhih2rcd13ifvqfs0","pricing_plan_id":"cebpf4jnsgd1na2vs0mg"},{"bike_id":"dc373a8f-2fb5-45d6-8f67-bcb08a32e91a","system_id":"levelo_inurba_marseille","lat":43.28856,"lon":5.39317,"is_reserved":false,"is_disabled":true,"rental_uris":{"android":"levelo://app?vid=dc373a8f-2fb5-45d6-8f67-bcb08a32e91a","ios":"levelo://app?vid=dc373a8f-2fb5-45d6-8f67-bcb08a32e91a"},"vehicle_type_id":"4","last_reported":1744045725,"current_range_meters":9200,"station_id":"ce4bh2p2rcd13ifvqdi0","pricing_plan_id":"cebpf4jnsgd1na2vs0mg"},{"bike_id":"08e4998a-1903-4cbe-92e4-a068e610e269","system_id":"levelo_inurba_marseille","lat":43.28609,"lon":5.351115,"is_reserved":false,"is_disabled":false,"rental_uris":{"android":"levelo://app?vid=08e4998a-1903-4cbe-92e4-a068e610e269","ios":"levelo://app?vid=08e4998a-1903-4cbe-92e4-a068e610e269"},"vehicle_type_id":"4","last_reported":1744045725,"current_range_meters":9600,"station_id":"ce4bhch2rcd13ifvqeug","pricing_plan_id":"cebpf4jnsgd1na2vs0mg"},{"bike_id":"4f9035ff-8f54-4f29-9066-ebc9ba8e1dd8","system_id":"levelo_inurba_marseille","lat":43.284056,"lon":5.375171,"is_reserved":false,"is_disabled":false,"rental_uris":{"android":"levelo://app?vid=4f9035ff-8f54-4f29-9066-ebc9ba8e1dd8","ios":"levelo://app?vid=4f9035ff-8f54-4f29-9066-ebc9ba8e1dd8"},"vehicle_type_id":"4","last_reported":1744045725,"current_range_meters":9600,"station_id":"ce4bh412rcd13ifvqds0","pricing_plan_id":"cebpf4jnsgd1na2vs0mg"},{"bike_id":"44834533-8242-46b4-85e3-1dacf568dc94","system_id":"levelo_inurba_marseille","lat":43.26554,"lon":5.37287,"is_reserved":false,"is_disabled":false,"rental_uris":{"android":"levelo://app?vid=44834533-8242-46b4-85e3-1dacf568dc94","ios":"levelo://app?vid=44834533-8242-46b4-85e3-1dacf568dc94"},"vehicle_type_id":"4","last_reported":1744045725,"current_range_meters":9600,"station_id":"ce4bhg12rcd13ifvqf70","pricing_plan_id":"cebpf4jnsgd1na2vs0mg"},{"bike_id":"cc057f14-b1e1-4dee-b107-8741c01c5964","system_id":"levelo_inurba_marseille","lat":43.32098,"lon":5.367878,"is_reserved":false,"is_disabled":true,"rental_uris":{"android":"levelo://app?vid=cc057f14-b1e1-4dee-b107-8741c01c5964","ios":"levelo://app?vid=cc057f14-b1e1-4dee-b107-8741c01c5964"},"vehicle_type_id":"4","last_reported":1744045725,"current_range_meters":9600,"station_id":"ce4bhrh2rcd13ifvqhug","pricing_plan_id":"cebpf4jnsgd1na2vs0mg"},{"bike_id":"8028a63d-f481-46ce-aa71-631fe8cc3298","system_id":"levelo_inurba_marseille","lat":43.29257,"lon":5.384483,"is_reserved":false,"is_disabled":false,"rental_uris":{"android":"levelo://app?vid=8028a63d-f481-46ce-aa71-631fe8cc3298","ios":"levelo://app?vid=8028a63d-f481-46ce-aa71-631fe8cc3298"},"vehicle_type_id":"4","last_reported":1744045725,"current_range_meters":9600,"station_id":"ce4bh692rcd13ifvqea0","pricing_plan_id":"cebpf4jnsgd1na2vs0mg"},{"bike_id":"30c86576-bf86-4020-bbb5-a6920539c23a","system_id":"levelo_inurba_marseille","lat":43.28467,"lon":5.38441,"is_reserved":false,"is_disabled":false,"rental_uris":{"android":"levelo://app?vid=30c86576-bf86-4020-bbb5-a6920539c23a","ios":"levelo://app?vid=30c86576-bf86-4020-bbb5-a6920539c23a"},"vehicle_type_id":"4","last_reported":1744045725,"current_range_meters":10000,"station_id":"ce4bh512rcd13ifvqe3g","pricing_plan_id":"cebpf4jnsgd1na2vs0mg"},{"bike_id":"750bc9c2-8244-4f27-a571-77c62d7d6b92","system_id":"levelo_inurba_marseille","lat":43.31281,"lon":5.37761,"is_reserved":false,"is_disabled":false,"rental_uris":{"android":"levelo://app?vid=750bc9c2-8244-4f27-a571-77c62d7d6b92","ios":"levelo://app?vid=750bc9c2-8244-4f27-a571-77c62d7d6b92"},"vehicle_type_id":"4","last_reported":1744045725,"current_range_meters":10000,"station_id":"","pricing_plan_id":"cebpf4jnsgd1na2vs0mg"},{"bike_id":"16d9c5ca-6f1a-4908-a483-474f5987c00e","system_id":"levelo_inurba_marseille","lat":43.24076,"lon":5.37763,"is_reserved":false,"is_disabled":false,"rental_uris":{"android":"levelo://app?vid=16d9c5ca-6f1a-4908-a483-474f5987c00e","ios":"levelo://app?vid=16d9c5ca-6f1a-4908-a483-474f5987c00e"},"vehicle_type_id":"4","last_reported":1744045725,"current_range_meters":10000,"station_id":"ce4bhnp2rcd13ifvqgvg","pricing_plan_id":"cebpf4jnsgd1na2vs0mg"},{"bike_id":"9389f907-78e2-4c8e-b008-de9739faa63f","system_id":"levelo_inurba_marseille","lat":43.33029,"lon":5.39431,"is_reserved":false,"is_disabled":false,"rental_uris":{"android":"levelo://app?vid=9389f907-78e2-4c8e-b008-de9739faa63f","ios":"levelo://app?vid=9389f907-78e2-4c8e-b008-de9739faa63f"},"vehicle_type_id":"4","last_reported":1744045725,"current_range_meters":10000,"station_id":"","pricing_plan_id":"cebpf4jnsgd1na2vs0mg"},{"bike_id":"89771962-fe60-4144-a8a6-39dd0f7b9fb3","system_id":"levelo_inurba_marseille","lat":43.21193,"lon":5.3509,"is_reserved":false,"is_disabled":false,"rental_uris":{"android":"levelo://app?vid=89771962-fe60-4144-a8a6-39dd0f7b9fb3","ios":"levelo://app?vid=89771962-fe60-4144-a8a6-39dd0f7b9fb3"},"vehicle_type_id":"4","last_reported":1744045725,"current_range_meters":10000,"station_id":"st_cvj6sg6p6f1abm77japg","pricing_plan_id":"cebpf4jnsgd1na2vs0mg"},{"bike_id":"db77aa95-72db-470c-9c43-5322da612de8","system_id":"levelo_inurba_marseille","lat":43.31811,"lon":5.40189,"is_reserved":false,"is_disabled":false,"rental_uris":{"android":"levelo://app?vid=db77aa95-72db-470c-9c43-5322da612de8","ios":"levelo://app?vid=db77aa95-72db-470c-9c43-5322da612de8"},"vehicle_type_id":"4","last_reported":1744045725,"current_range_meters":10000,"station_id":"","pricing_plan_id":"cebpf4jnsgd1na2vs0mg"},{"bike_id":"8b497f79-9857-4c2e-ae6e-95b0d6ccbc52","system_id":"levelo_inurba_marseille","lat":43.32496,"lon":5.36569,"is_reserved":false,"is_disabled":true,"rental_uris":{"android":"levelo://app?vid=8b497f79-9857-4c2e-ae6e-95b0d6ccbc52","ios":"levelo://app?vid=8b497f79-9857-4c2e-ae6e-95b0d6ccbc52"},"vehicle_type_id":"4","last_reported":1744045725,"current_range_meters":10000,"station_id":"ce4bhs12rcd13ifvqhvg","pricing_plan_id":"cebpf4jnsgd1na2vs0mg"},{"bike_id":"1bcb8cc2-eefd-4aae-9234-b993a0e79b3d","system_id":"levelo_inurba_marseille","lat":43.29527,"lon":5.39039,"is_reserved":false,"is_disabled":false,"rental_uris":{"android":"levelo://app?vid=1bcb8cc2-eefd-4aae-9234-b993a0e79b3d","ios":"levelo://app?vid=1bcb8cc2-eefd-4aae-9234-b993a0e79b3d"},"vehicle_type_id":"4","last_reported":1744045725,"current_range_meters":10000,"station_id":"ce4bh3p2rcd13ifvqdp0","pricing_plan_id":"cebpf4jnsgd1na2vs0mg"},{"bike_id":"804b1649-85c4-4b5a-9828-678386b14395","system_id":"levelo_inurba_marseille","lat":43.26056,"lon":5.39394,"is_reserved":false,"is_disabled":false,"rental_uris":{"android":"levelo://app?vid=804b1649-85c4-4b5a-9828-678386b14395","ios":"levelo://app?vid=804b1649-85c4-4b5a-9828-678386b14395"},"vehicle_type_id":"4","last_reported":1744045725,"current_range_meters":10000,"station_id":"ce4bhh92rcd13ifvqfj0","pricing_plan_id":"cebpf4jnsgd1na2vs0mg"},{"bike_id":"30dc0127-293a-4e04-b050-3705f3456b92","system_id":"levelo_inurba_marseille","lat":43.27989,"lon":5.40052,"is_reserved":false,"is_disabled":false,"rental_uris":{"android":"levelo://app?vid=30dc0127-293a-4e04-b050-3705f3456b92","ios":"levelo://app?vid=30dc0127-293a-4e04-b050-3705f3456b92"},"vehicle_type_id":"4","last_reported":1744045725,"current_range_meters":10000,"station_id":"ce4bho92rcd13ifvqh4g","pricing_plan_id":"cebpf4jnsgd1na2vs0mg"},{"bike_id":"4e0de06a-5fb6-425c-864f-446dbfc90cbc","system_id":"levelo_inurba_marseille","lat":43.28465,"lon":5.35889,"is_reserved":false,"is_disabled":false,"rental_uris":{"android":"levelo://app?vid=4e0de06a-5fb6-425c-864f-446dbfc90cbc","ios":"levelo://app?vid=4e0de06a-5fb6-425c-864f-446dbfc90cbc"},"vehicle_type_id":"4","last_reported":1744045725,"current_range_meters":10000,"station_id":"ce4bhah2rcd13ifvqei0","pricing_plan_id":"cebpf4jnsgd1na2vs0mg"},{"bike_id":"3cbad1fb-d71d-4e4f-90fa-c1465f9f9b65","system_id":"levelo_inurba_marseille","lat":43.21197,"lon":5.35074,"is_reserved":false,"is_disabled":false,"rental_uris":{"android":"levelo://app?vid=3cbad1fb-d71d-4e4f-90fa-c1465f9f9b65","ios":"levelo://app?vid=3cbad1fb-d71d-4e4f-90fa-c1465f9f9b65"},"vehicle_type_id":"4","last_reported":1744045725,"current_range_meters":10000,"station_id":"st_cvj6sg6p6f1abm77japg","pricing_plan_id":"cebpf4jnsgd1na2vs0mg"},{"bike_id":"50331bc9-3ff4-45df-bda4-49cc63118a84","system_id":"levelo_inurba_marseille","lat":43.27609,"lon":5.36116,"is_reserved":false,"is_disabled":false,"rental_uris":{"android":"levelo://app?vid=50331bc9-3ff4-45df-bda4-49cc63118a84","ios":"levelo://app?vid=50331bc9-3ff4-45df-bda4-49cc63118a84"},"vehicle_type_id":"4","last_reported":1744045725,"current_range_meters":10800,"station_id":"ce4bgj92rcd13ifvqbe0","pricing_plan_id":"cebpf4jnsgd1na2vs0mg"},{"bike_id":"d9e3bfd6-6b76-4984-a945-a42994f6f2f1","system_id":"levelo_inurba_marseille","lat":43.292786,"lon":5.3686,"is_reserved":false,"is_disabled":false,"rental_uris":{"android":"levelo://app?vid=d9e3bfd6-6b76-4984-a945-a42994f6f2f1","ios":"levelo://app?vid=d9e3bfd6-6b76-4984-a945-a42994f6f2f1"},"vehicle_type_id":"4","last_reported":1744045725,"current_range_meters":10800,"station_id":"ce4bghh2rcd13ifvqb60","pricing_plan_id":"cebpf4jnsgd1na2vs0mg"},{"bike_id":"c7472fcf-3319-4eba-9737-dc47033010bd","system_id":"levelo_inurba_marseille","lat":43.27985,"lon":5.41659,"is_reserved":false,"is_disabled":false,"rental_uris":{"android":"levelo://app?vid=c7472fcf-3319-4eba-9737-dc47033010bd","ios":"levelo://app?vid=c7472fcf-3319-4eba-9737-dc47033010bd"},"vehicle_type_id":"4","last_reported":1744045725,"current_range_meters":10000,"station_id":"ce4bho12rcd13ifvqh1g","pricing_plan_id":"cebpf4jnsgd1na2vs0mg"},{"bike_id":"7b3646e0-cbf2-40de-92a8-c829ec618775","system_id":"levelo_inurba_marseille","lat":43.32005,"lon":5.38176,"is_reserved":false,"is_disabled":true,"rental_uris":{"android":"levelo://app?vid=7b3646e0-cbf2-40de-92a8-c829ec618775","ios":"levelo://app?vid=7b3646e0-cbf2-40de-92a8-c829ec618775"},"vehicle_type_id":"4","last_reported":1744045725,"current_range_meters":10800,"station_id":"ce4bhr12rcd13ifvqhpg","pricing_plan_id":"cebpf4jnsgd1na2vs0mg"},{"bike_id":"f290cbef-b061-4eee-8aef-28a0c36742dd","system_id":"levelo_inurba_marseille","lat":43.28851,"lon":5.39338,"is_reserved":false,"is_disabled":false,"rental_uris":{"android":"levelo://app?vid=f290cbef-b061-4eee-8aef-28a0c36742dd","ios":"levelo://app?vid=f290cbef-b061-4eee-8aef-28a0c36742dd"},"vehicle_type_id":"4","last_reported":1744045725,"current_range_meters":10800,"station_id":"ce4bh2p2rcd13ifvqdi0","pricing_plan_id":"cebpf4jnsgd1na2vs0mg"},{"bike_id":"f0bd6b0c-4dc3-44f5-bee6-36d0cc55a003","system_id":"levelo_inurba_marseille","lat":43.286161,"lon":5.351129,"is_reserved":false,"is_disabled":false,"rental_uris":{"android":"levelo://app?vid=f0bd6b0c-4dc3-44f5-bee6-36d0cc55a003","ios":"levelo://app?vid=f0bd6b0c-4dc3-44f5-bee6-36d0cc55a003"},"vehicle_type_id":"4","last_reported":1744045725,"current_range_meters":10800,"station_id":"ce4bgh92rcd13ifvqb40","pricing_plan_id":"cebpf4jnsgd1na2vs0mg"},{"bike_id":"4e63bc7f-b907-45ea-bc67-f61c9be2b9d6","system_id":"levelo_inurba_marseille","lat":43.30024,"lon":5.38453,"is_reserved":false,"is_disabled":true,"rental_uris":{"android":"levelo://app?vid=4e63bc7f-b907-45ea-bc67-f61c9be2b9d6","ios":"levelo://app?vid=4e63bc7f-b907-45ea-bc67-f61c9be2b9d6"},"vehicle_type_id":"4","last_reported":1744045725,"current_range_meters":10800,"station_id":"ce4bgj92rcd13ifvqbd0","pricing_plan_id":"cebpf4jnsgd1na2vs0mg"},{"bike_id":"ca2d0a23-3bfa-4495-b8ac-1d052543e81f","system_id":"levelo_inurba_marseille","lat":43.2841,"lon":5.37518,"is_reserved":false,"is_disabled":false,"rental_uris":{"android":"levelo://app?vid=ca2d0a23-3bfa-4495-b8ac-1d052543e81f","ios":"levelo://app?vid=ca2d0a23-3bfa-4495-b8ac-1d052543e81f"},"vehicle_type_id":"4","last_reported":1744045725,"current_range_meters":10800,"station_id":"ce4bh412rcd13ifvqds0","pricing_plan_id":"cebpf4jnsgd1na2vs0mg"},{"bike_id":"e53b9e9b-ac51-4f70-ad60-ed3149b8c178","system_id":"levelo_inurba_marseille","lat":43.31329,"lon":5.37344,"is_reserved":false,"is_disabled":false,"rental_uris":{"android":"levelo://app?vid=e53b9e9b-ac51-4f70-ad60-ed3149b8c178","ios":"levelo://app?vid=e53b9e9b-ac51-4f70-ad60-ed3149b8c178"},"vehicle_type_id":"4","last_reported":1744045725,"current_range_meters":11200,"station_id":"","pricing_plan_id":"cebpf4jnsgd1na2vs0mg"},{"bike_id":"1e01d50e-cead-45bb-a3a4-7e0d04b7b063","system_id":"levelo_inurba_marseille","lat":43.29035,"lon":5.38659,"is_reserved":false,"is_disabled":true,"rental_uris":{"android":"levelo://app?vid=1e01d50e-cead-45bb-a3a4-7e0d04b7b063","ios":"levelo://app?vid=1e01d50e-cead-45bb-a3a4-7e0d04b7b063"},"vehicle_type_id":"4","last_reported":1744045725,"current_range_meters":11200,"station_id":"ce4bh4p2rcd13ifvqe0g","pricing_plan_id":"cebpf4jnsgd1na2vs0mg"},{"bike_id":"19224d95-e048-4cbb-8884-43e0e6b3db9b","system_id":"levelo_inurba_marseille","lat":43.29918,"lon":5.39769,"is_reserved":false,"is_disabled":true,"rental_uris":{"android":"levelo://app?vid=19224d95-e048-4cbb-8884-43e0e6b3db9b","ios":"levelo://app?vid=19224d95-e048-4cbb-8884-43e0e6b3db9b"},"vehicle_type_id":"4","last_reported":1744045725,"current_range_meters":11200,"station_id":"ce4bh0h2rcd13ifvqd50","pricing_plan_id":"cebpf4jnsgd1na2vs0mg"},{"bike_id":"7e1b6a3d-58ec-44af-a745-ef3d905a50bb","system_id":"levelo_inurba_marseille","lat":43.2622,"lon":5.37898,"is_reserved":false,"is_disabled":false,"rental_uris":{"android":"levelo://app?vid=7e1b6a3d-58ec-44af-a745-ef3d905a50bb","ios":"levelo://app?vid=7e1b6a3d-58ec-44af-a745-ef3d905a50bb"},"vehicle_type_id":"4","last_reported":1744045725,"current_range_meters":11600,"station_id":"ce4bhjp2rcd13ifvqg90","pricing_plan_id":"cebpf4jnsgd1na2vs0mg"},{"bike_id":"847cff54-9149-4fb3-8217-2338a6e302d9","system_id":"levelo_inurba_marseille","lat":43.2886,"lon":5.35849,"is_reserved":false,"is_disabled":false,"rental_uris":{"android":"levelo://app?vid=847cff54-9149-4fb3-8217-2338a6e302d9","ios":"levelo://app?vid=847cff54-9149-4fb3-8217-2338a6e302d9"},"vehicle_type_id":"4","last_reported":1744045725,"current_range_meters":11600,"station_id":"ce4bhb12rcd13ifvqem0","pricing_plan_id":"cebpf4jnsgd1na2vs0mg"},{"bike_id":"765462d2-79b3-4073-94dc-b5d9652ca0be","system_id":"levelo_inurba_marseille","lat":43.31758,"lon":5.39015,"is_reserved":false,"is_disabled":false,"rental_uris":{"android":"levelo://app?vid=765462d2-79b3-4073-94dc-b5d9652ca0be","ios":"levelo://app?vid=765462d2-79b3-4073-94dc-b5d9652ca0be"},"vehicle_type_id":"4","last_reported":1744045725,"current_range_meters":11600,"station_id":"ce4bhqp2rcd13ifvqhng","pricing_plan_id":"cebpf4jnsgd1na2vs0mg"},{"bike_id":"760b85de-5509-453b-8eec-362280e5b3cd","system_id":"levelo_inurba_marseille","lat":43.27065,"lon":5.42296,"is_reserved":false,"is_disabled":false,"rental_uris":{"android":"levelo://app?vid=760b85de-5509-453b-8eec-362280e5b3cd","ios":"levelo://app?vid=760b85de-5509-453b-8eec-362280e5b3cd"},"vehicle_type_id":"4","last_reported":1744045725,"current_range_meters":11600,"station_id":"ce4bhk92rcd13ifvqgb0","pricing_plan_id":"cebpf4jnsgd1na2vs0mg"},{"bike_id":"6382b020-9b82-4293-9394-513363579650","system_id":"levelo_inurba_marseille","lat":43.2827,"lon":5.35071,"is_reserved":false,"is_disabled":false,"rental_uris":{"android":"levelo://app?vid=6382b020-9b82-4293-9394-513363579650","ios":"levelo://app?vid=6382b020-9b82-4293-9394-513363579650"},"vehicle_type_id":"4","last_reported":1744045725,"current_range_meters":11600,"station_id":"ce4bhbp2rcd13ifvqerg","pricing_plan_id":"cebpf4jnsgd1na2vs0mg"},{"bike_id":"2e9000dc-6400-4918-a994-dd60039ca96d","system_id":"levelo_inurba_marseille","lat":43.31995,"lon":5.38148,"is_reserved":false,"is_disabled":true,"rental_uris":{"android":"levelo://app?vid=2e9000dc-6400-4918-a994-dd60039ca96d","ios":"levelo://app?vid=2e9000dc-6400-4918-a994-dd60039ca96d"},"vehicle_type_id":"4","last_reported":1744045725,"current_range_meters":11600,"station_id":"ce4bhr12rcd13ifvqhpg","pricing_plan_id":"cebpf4jnsgd1na2vs0mg"},{"bike_id":"66783d6d-f4a4-4ee4-8754-7071fbcbb047","system_id":"levelo_inurba_marseille","lat":43.29537,"lon":5.39026,"is_reserved":false,"is_disabled":false,"rental_uris":{"android":"levelo://app?vid=66783d6d-f4a4-4ee4-8754-7071fbcbb047","ios":"levelo://app?vid=66783d6d-f4a4-4ee4-8754-7071fbcbb047"},"vehicle_type_id":"4","last_reported":1744045725,"current_range_meters":12000,"station_id":"","pricing_plan_id":"cebpf4jnsgd1na2vs0mg"},{"bike_id":"e8cf66b1-7f5e-410c-a00e-e35cd97700d5","system_id":"levelo_inurba_marseille","lat":43.289269,"lon":5.383894,"is_reserved":false,"is_disabled":false,"rental_uris":{"android":"levelo://app?vid=e8cf66b1-7f5e-410c-a00e-e35cd97700d5","ios":"levelo://app?vid=e8cf66b1-7f5e-410c-a00e-e35cd97700d5"},"vehicle_type_id":"4","last_reported":1744045725,"current_range_meters":12000,"station_id":"ce4bh612rcd13ifvqe6g","pricing_plan_id":"cebpf4jnsgd1na2vs0mg"},{"bike_id":"cc04bd1a-08e4-4179-96af-ec251ae135b2","system_id":"levelo_inurba_marseille","lat":43.29865,"lon":5.40317,"is_reserved":false,"is_disabled":false,"rental_uris":{"android":"levelo://app?vid=cc04bd1a-08e4-4179-96af-ec251ae135b2","ios":"levelo://app?vid=cc04bd1a-08e4-4179-96af-ec251ae135b2"},"vehicle_type_id":"4","last_reported":1744045725,"current_range_meters":12000,"station_id":"","pricing_plan_id":"cebpf4jnsgd1na2vs0mg"},{"bike_id":"257d1c02-5396-419e-a612-6a8a1704493e","system_id":"levelo_inurba_marseille","lat":43.29071,"lon":5.37564,"is_reserved":false,"is_disabled":true,"rental_uris":{"android":"levelo://app?vid=257d1c02-5396-419e-a612-6a8a1704493e","ios":"levelo://app?vid=257d1c02-5396-419e-a612-6a8a1704493e"},"vehicle_type_id":"4","last_reported":1744045725,"current_range_meters":12000,"station_id":"ce4bh692rcd13ifvqe90","pricing_plan_id":"cebpf4jnsgd1na2vs0mg"},{"bike_id":"f39be6f5-2f69-4c37-b021-559d20b299a4","system_id":"levelo_inurba_marseille","lat":43.30011,"lon":5.37669,"is_reserved":false,"is_disabled":false,"rental_uris":{"android":"levelo://app?vid=f39be6f5-2f69-4c37-b021-559d20b299a4","ios":"levelo://app?vid=f39be6f5-2f69-4c37-b021-559d20b299a4"},"vehicle_type_id":"4","last_reported":1744045725,"current_range_meters":12000,"station_id":"","pricing_plan_id":"cebpf4jnsgd1na2vs0mg"},{"bike_id":"c042ef58-0b45-4f52-be4b-cb70bdda5923","system_id":"levelo_inurba_marseille","lat":43.27994,"lon":5.40017,"is_reserved":false,"is_disabled":false,"rental_uris":{"android":"levelo://app?vid=c042ef58-0b45-4f52-be4b-cb70bdda5923","ios":"levelo://app?vid=c042ef58-0b45-4f52-be4b-cb70bdda5923"},"vehicle_type_id":"4","last_reported":1744045725,"current_range_meters":12000,"station_id":"ce4bho92rcd13ifvqh4g","pricing_plan_id":"cebpf4jnsgd1na2vs0mg"},{"bike_id":"99aa0829-07fb-4946-b402-abfdd459bbd1","system_id":"levelo_inurba_marseille","lat":43.29262,"lon":5.409045,"is_reserved":false,"is_disabled":false,"rental_uris":{"android":"levelo://app?vid=99aa0829-07fb-4946-b402-abfdd459bbd1","ios":"levelo://app?vid=99aa0829-07fb-4946-b402-abfdd459bbd1"},"vehicle_type_id":"4","last_reported":1744045725,"current_range_meters":12000,"station_id":"ce4bh192rcd13ifvqdc0","pricing_plan_id":"cebpf4jnsgd1na2vs0mg"},{"bike_id":"880d58f9-a9ff-4e9f-8ac4-28cc5352ee48","system_id":"levelo_inurba_marseille","lat":43.284076,"lon":5.38588,"is_reserved":false,"is_disabled":false,"rental_uris":{"android":"levelo://app?vid=880d58f9-a9ff-4e9f-8ac4-28cc5352ee48","ios":"levelo://app?vid=880d58f9-a9ff-4e9f-8ac4-28cc5352ee48"},"vehicle_type_id":"4","last_reported":1744045725,"current_range_meters":12000,"station_id":"ce4bh8p2rcd13ifvqeb0","pricing_plan_id":"cebpf4jnsgd1na2vs0mg"},{"bike_id":"447cacd2-d2bd-4bad-bdbb-56cf0559d47c","system_id":"levelo_inurba_marseille","lat":43.31726,"lon":5.37779,"is_reserved":false,"is_disabled":false,"rental_uris":{"android":"levelo://app?vid=447cacd2-d2bd-4bad-bdbb-56cf0559d47c","ios":"levelo://app?vid=447cacd2-d2bd-4bad-bdbb-56cf0559d47c"},"vehicle_type_id":"4","last_reported":1744045725,"current_range_meters":12000,"station_id":"ce4bgth2rcd13ifvqch0","pricing_plan_id":"cebpf4jnsgd1na2vs0mg"},{"bike_id":"3f3f4fd5-a405-4364-b114-6d3d993e5aa2","system_id":"levelo_inurba_marseille","lat":43.30554,"lon":5.36541,"is_reserved":false,"is_disabled":false,"rental_uris":{"android":"levelo://app?vid=3f3f4fd5-a405-4364-b114-6d3d993e5aa2","ios":"levelo://app?vid=3f3f4fd5-a405-4364-b114-6d3d993e5aa2"},"vehicle_type_id":"4","last_reported":1744045725,"current_range_meters":12400,"station_id":"ce4bgs12rcd13ifvqcag","pricing_plan_id":"cebpf4jnsgd1na2vs0mg"},{"bike_id":"87846fea-2a7d-4ecf-84f6-c1a120ac8997","system_id":"levelo_inurba_marseille","lat":43.29421,"lon":5.38664,"is_reserved":false,"is_disabled":false,"rental_uris":{"android":"levelo://app?vid=87846fea-2a7d-4ecf-84f6-c1a120ac8997","ios":"levelo://app?vid=87846fea-2a7d-4ecf-84f6-c1a120ac8997"},"vehicle_type_id":"4","last_reported":1744045725,"current_range_meters":14800,"station_id":"ce4bh2h2rcd13ifvqdh0","pricing_plan_id":"cebpf4jnsgd1na2vs0mg"},{"bike_id":"3fea1621-6903-48c9-a31e-7ce45d2e24bf","system_id":"levelo_inurba_marseille","lat":43.24653,"lon":5.38905,"is_reserved":false,"is_disabled":false,"rental_uris":{"android":"levelo://app?vid=3fea1621-6903-48c9-a31e-7ce45d2e24bf","ios":"levelo://app?vid=3fea1621-6903-48c9-a31e-7ce45d2e24bf"},"vehicle_type_id":"4","last_reported":1744045725,"current_range_meters":12400,"station_id":"ce4bhg12rcd13ifvqf60","pricing_plan_id":"cebpf4jnsgd1na2vs0mg"},{"bike_id":"c7169289-4b15-4cde-946e-e60f8877f72d","system_id":"levelo_inurba_marseille","lat":43.28622,"lon":5.35102,"is_reserved":false,"is_disabled":false,"rental_uris":{"android":"levelo://app?vid=c7169289-4b15-4cde-946e-e60f8877f72d","ios":"levelo://app?vid=c7169289-4b15-4cde-946e-e60f8877f72d"},"vehicle_type_id":"4","last_reported":1744045725,"current_range_meters":12400,"station_id":"ce4bhch2rcd13ifvqeug","pricing_plan_id":"cebpf4jnsgd1na2vs0mg"},{"bike_id":"b5d1eb16-deae-40c6-99d1-977394507e2e","system_id":"levelo_inurba_marseille","lat":43.297006,"lon":5.376933,"is_reserved":false,"is_disabled":false,"rental_uris":{"android":"levelo://app?vid=b5d1eb16-deae-40c6-99d1-977394507e2e","ios":"levelo://app?vid=b5d1eb16-deae-40c6-99d1-977394507e2e"},"vehicle_type_id":"4","last_reported":1744045725,"current_range_meters":12400,"station_id":"ce4bhr12rcd13ifvqhqg","pricing_plan_id":"cebpf4jnsgd1na2vs0mg"},{"bike_id":"5f5128e0-effe-47d1-b119-5162d2d4d7c0","system_id":"levelo_inurba_marseille","lat":43.25817,"lon":5.39445,"is_reserved":false,"is_disabled":false,"rental_uris":{"android":"levelo://app?vid=5f5128e0-effe-47d1-b119-5162d2d4d7c0","ios":"levelo://app?vid=5f5128e0-effe-47d1-b119-5162d2d4d7c0"},"vehicle_type_id":"4","last_reported":1744045725,"current_range_meters":12400,"station_id":"ce4bhip2rcd13ifvqft0","pricing_plan_id":"cebpf4jnsgd1na2vs0mg"},{"bike_id":"dc13e99a-13f7-4cfa-8f17-76a64c08e10d","system_id":"levelo_inurba_marseille","lat":43.28713,"lon":5.37396,"is_reserved":false,"is_disabled":false,"rental_uris":{"android":"levelo://app?vid=dc13e99a-13f7-4cfa-8f17-76a64c08e10d","ios":"levelo://app?vid=dc13e99a-13f7-4cfa-8f17-76a64c08e10d"},"vehicle_type_id":"4","last_reported":1744045725,"current_range_meters":12400,"station_id":"ce4bh3p2rcd13ifvqdq0","pricing_plan_id":"cebpf4jnsgd1na2vs0mg"},{"bike_id":"fe4ae2c0-f1a3-4dd2-8615-97c2ca059b9c","system_id":"levelo_inurba_marseille","lat":43.29529,"lon":5.37509,"is_reserved":false,"is_disabled":false,"rental_uris":{"android":"levelo://app?vid=fe4ae2c0-f1a3-4dd2-8615-97c2ca059b9c","ios":"levelo://app?vid=fe4ae2c0-f1a3-4dd2-8615-97c2ca059b9c"},"vehicle_type_id":"4","last_reported":1744045725,"current_range_meters":12400,"station_id":"ce4bgkp2rcd13ifvqbmg","pricing_plan_id":"cebpf4jnsgd1na2vs0mg"},{"bike_id":"6c1d93a4-799f-4360-ae22-75d4736d2fbe","system_id":"levelo_inurba_marseille","lat":43.29402,"lon":5.38644,"is_reserved":false,"is_disabled":false,"rental_uris":{"android":"levelo://app?vid=6c1d93a4-799f-4360-ae22-75d4736d2fbe","ios":"levelo://app?vid=6c1d93a4-799f-4360-ae22-75d4736d2fbe"},"vehicle_type_id":"4","last_reported":1744045725,"current_range_meters":12800,"station_id":"ce4bh2h2rcd13ifvqdh0","pricing_plan_id":"cebpf4jnsgd1na2vs0mg"},{"bike_id":"82f28cf6-556c-431d-a12b-bd3ce5fc2f28","system_id":"levelo_inurba_marseille","lat":43.27508,"lon":5.37759,"is_reserved":false,"is_disabled":false,"rental_uris":{"android":"levelo://app?vid=82f28cf6-556c-431d-a12b-bd3ce5fc2f28","ios":"levelo://app?vid=82f28cf6-556c-431d-a12b-bd3ce5fc2f28"},"vehicle_type_id":"4","last_reported":1744045725,"current_range_meters":12800,"station_id":"","pricing_plan_id":"cebpf4jnsgd1na2vs0mg"},{"bike_id":"3576b946-70b3-456f-a60a-d98e227f015c","system_id":"levelo_inurba_marseille","lat":43.30109,"lon":5.38233,"is_reserved":false,"is_disabled":false,"rental_uris":{"android":"levelo://app?vid=3576b946-70b3-456f-a60a-d98e227f015c","ios":"levelo://app?vid=3576b946-70b3-456f-a60a-d98e227f015c"},"vehicle_type_id":"4","last_reported":1744045725,"current_range_meters":12800,"station_id":"ce4bgup2rcd13ifvqcn0","pricing_plan_id":"cebpf4jnsgd1na2vs0mg"},{"bike_id":"0865f3eb-f035-48fd-b3c5-0001581a2f98","system_id":"levelo_inurba_marseille","lat":43.29796,"lon":5.38096,"is_reserved":false,"is_disabled":false,"rental_uris":{"android":"levelo://app?vid=0865f3eb-f035-48fd-b3c5-0001581a2f98","ios":"levelo://app?vid=0865f3eb-f035-48fd-b3c5-0001581a2f98"},"vehicle_type_id":"4","last_reported":1744045725,"current_range_meters":12800,"station_id":"ce4bgip2rcd13ifvqbb0","pricing_plan_id":"cebpf4jnsgd1na2vs0mg"},{"bike_id":"cac6efcd-4ffe-4727-bab9-8f15c732e5fc","system_id":"levelo_inurba_marseille","lat":43.292847,"lon":5.401275,"is_reserved":false,"is_disabled":false,"rental_uris":{"android":"levelo://app?vid=cac6efcd-4ffe-4727-bab9-8f15c732e5fc","ios":"levelo://app?vid=cac6efcd-4ffe-4727-bab9-8f15c732e5fc"},"vehicle_type_id":"4","last_reported":1744045725,"current_range_meters":12800,"station_id":"ce4bgv12rcd13ifvqcp0","pricing_plan_id":"cebpf4jnsgd1na2vs0mg"},{"bike_id":"a6c2b2df-d2a4-4525-881b-16258228367e","system_id":"levelo_inurba_marseille","lat":43.29533,"lon":5.38549,"is_reserved":false,"is_disabled":false,"rental_uris":{"android":"levelo://app?vid=a6c2b2df-d2a4-4525-881b-16258228367e","ios":"levelo://app?vid=a6c2b2df-d2a4-4525-881b-16258228367e"},"vehicle_type_id":"4","last_reported":1744045725,"current_range_meters":12800,"station_id":"ce4bgih2rcd13ifvqba0","pricing_plan_id":"cebpf4jnsgd1na2vs0mg"},{"bike_id":"68c99db9-d69a-4b6f-819a-cb221713e1d1","system_id":"levelo_inurba_marseille","lat":43.29708,"lon":5.37706,"is_reserved":false,"is_disabled":false,"rental_uris":{"android":"levelo://app?vid=68c99db9-d69a-4b6f-819a-cb221713e1d1","ios":"levelo://app?vid=68c99db9-d69a-4b6f-819a-cb221713e1d1"},"vehicle_type_id":"4","last_reported":1744045725,"current_range_meters":12800,"station_id":"ce4bgkh2rcd13ifvqbl0","pricing_plan_id":"cebpf4jnsgd1na2vs0mg"},{"bike_id":"f17ce36f-e80a-4732-89e2-7a7dfab19d87","system_id":"levelo_inurba_marseille","lat":43.29927,"lon":5.43731,"is_reserved":false,"is_disabled":false,"rental_uris":{"android":"levelo://app?vid=f17ce36f-e80a-4732-89e2-7a7dfab19d87","ios":"levelo://app?vid=f17ce36f-e80a-4732-89e2-7a7dfab19d87"},"vehicle_type_id":"4","last_reported":1744045725,"current_range_meters":13600,"station_id":"ce4bhpp2rcd13ifvqhfg","pricing_plan_id":"cebpf4jnsgd1na2vs0mg"},{"bike_id":"12dff1a8-b355-4369-b443-51ceae7dcd04","system_id":"levelo_inurba_marseille","lat":43.290403,"lon":5.399782,"is_reserved":false,"is_disabled":false,"rental_uris":{"android":"levelo://app?vid=12dff1a8-b355-4369-b443-51ceae7dcd04","ios":"levelo://app?vid=12dff1a8-b355-4369-b443-51ceae7dcd04"},"vehicle_type_id":"4","last_reported":1744045725,"current_range_meters":13600,"station_id":"ce4bh392rcd13ifvqdm0","pricing_plan_id":"cebpf4jnsgd1na2vs0mg"},{"bike_id":"4b9dfe05-0e60-423c-af4b-3ef6e8cad4ce","system_id":"levelo_inurba_marseille","lat":43.2513,"lon":5.40338,"is_reserved":false,"is_disabled":true,"rental_uris":{"android":"levelo://app?vid=4b9dfe05-0e60-423c-af4b-3ef6e8cad4ce","ios":"levelo://app?vid=4b9dfe05-0e60-423c-af4b-3ef6e8cad4ce"},"vehicle_type_id":"4","last_reported":1744045725,"current_range_meters":13600,"station_id":"ce4bhlh2rcd13ifvqgig","pricing_plan_id":"cebpf4jnsgd1na2vs0mg"},{"bike_id":"2ee468a5-6dc4-4c9b-af6e-05b60c02c775","system_id":"levelo_inurba_marseille","lat":43.26488,"lon":5.39546,"is_reserved":false,"is_disabled":false,"rental_uris":{"android":"levelo://app?vid=2ee468a5-6dc4-4c9b-af6e-05b60c02c775","ios":"levelo://app?vid=2ee468a5-6dc4-4c9b-af6e-05b60c02c775"},"vehicle_type_id":"4","last_reported":1744045725,"current_range_meters":13600,"station_id":"ce4bhi12rcd13ifvqfq0","pricing_plan_id":"cebpf4jnsgd1na2vs0mg"},{"bike_id":"57a20044-8482-4461-9a83-389bfb2991a7","system_id":"levelo_inurba_marseille","lat":43.28423,"lon":5.34983,"is_reserved":false,"is_disabled":false,"rental_uris":{"android":"levelo://app?vid=57a20044-8482-4461-9a83-389bfb2991a7","ios":"levelo://app?vid=57a20044-8482-4461-9a83-389bfb2991a7"},"vehicle_type_id":"4","last_reported":1744045725,"current_range_meters":13600,"station_id":"ce4bhbh2rcd13ifvqepg","pricing_plan_id":"cebpf4jnsgd1na2vs0mg"},{"bike_id":"ea7c4563-3a64-4725-bee3-88cf7807dae0","system_id":"levelo_inurba_marseille","lat":43.24796,"lon":5.37462,"is_reserved":false,"is_disabled":false,"rental_uris":{"android":"levelo://app?vid=ea7c4563-3a64-4725-bee3-88cf7807dae0","ios":"levelo://app?vid=ea7c4563-3a64-4725-bee3-88cf7807dae0"},"vehicle_type_id":"4","last_reported":1744045725,"current_range_meters":14000,"station_id":"ce4bhgh2rcd13ifvqfb0","pricing_plan_id":"cebpf4jnsgd1na2vs0mg"},{"bike_id":"ec7d3251-d53b-4874-b96d-6dae899b6aa1","system_id":"levelo_inurba_marseille","lat":43.27188,"lon":5.39203,"is_reserved":false,"is_disabled":true,"rental_uris":{"android":"levelo://app?vid=ec7d3251-d53b-4874-b96d-6dae899b6aa1","ios":"levelo://app?vid=ec7d3251-d53b-4874-b96d-6dae899b6aa1"},"vehicle_type_id":"4","last_reported":1744045725,"current_range_meters":14000,"station_id":"ce4bhhp2rcd13ifvqfm0","pricing_plan_id":"cebpf4jnsgd1na2vs0mg"},{"bike_id":"036fe0b5-dc46-493d-9e4f-acdb04deb236","system_id":"levelo_inurba_marseille","lat":43.275165,"lon":5.389679,"is_reserved":false,"is_disabled":false,"rental_uris":{"android":"levelo://app?vid=036fe0b5-dc46-493d-9e4f-acdb04deb236","ios":"levelo://app?vid=036fe0b5-dc46-493d-9e4f-acdb04deb236"},"vehicle_type_id":"4","last_reported":1744045725,"current_range_meters":13600,"station_id":"ce4bh612rcd13ifvqe6g","pricing_plan_id":"cebpf4jnsgd1na2vs0mg"},{"bike_id":"35bb17db-e1b1-4332-afc2-a9b1c306abbd","system_id":"levelo_inurba_marseille","lat":43.248062,"lon":5.374599,"is_reserved":false,"is_disabled":false,"rental_uris":{"android":"levelo://app?vid=35bb17db-e1b1-4332-afc2-a9b1c306abbd","ios":"levelo://app?vid=35bb17db-e1b1-4332-afc2-a9b1c306abbd"},"vehicle_type_id":"4","last_reported":1744045725,"current_range_meters":14000,"station_id":"ce4bhgh2rcd13ifvqfb0","pricing_plan_id":"cebpf4jnsgd1na2vs0mg"},{"bike_id":"1937109a-b46e-4d9c-a95e-6b7d4259f764","system_id":"levelo_inurba_marseille","lat":43.28839,"lon":5.35856,"is_reserved":false,"is_disabled":false,"rental_uris":{"android":"levelo://app?vid=1937109a-b46e-4d9c-a95e-6b7d4259f764","ios":"levelo://app?vid=1937109a-b46e-4d9c-a95e-6b7d4259f764"},"vehicle_type_id":"4","last_reported":1744045725,"current_range_meters":14000,"station_id":"ce4bhb12rcd13ifvqem0","pricing_plan_id":"cebpf4jnsgd1na2vs0mg"},{"bike_id":"21f4ac1b-c0ab-495b-b504-38edc155057d","system_id":"levelo_inurba_marseille","lat":43.27906,"lon":5.38007,"is_reserved":false,"is_disabled":false,"rental_uris":{"android":"levelo://app?vid=21f4ac1b-c0ab-495b-b504-38edc155057d","ios":"levelo://app?vid=21f4ac1b-c0ab-495b-b504-38edc155057d"},"vehicle_type_id":"4","last_reported":1744045725,"current_range_meters":14000,"station_id":"ce4bhf92rcd13ifvqf50","pricing_plan_id":"cebpf4jnsgd1na2vs0mg"},{"bike_id":"352f31e6-3423-474f-9560-a96b7489bc6f","system_id":"levelo_inurba_marseille","lat":43.28349,"lon":5.38102,"is_reserved":false,"is_disabled":false,"rental_uris":{"android":"levelo://app?vid=352f31e6-3423-474f-9560-a96b7489bc6f","ios":"levelo://app?vid=352f31e6-3423-474f-9560-a96b7489bc6f"},"vehicle_type_id":"4","last_reported":1744045725,"current_range_meters":14000,"station_id":"ce4bh412rcd13ifvqdr0","pricing_plan_id":"cebpf4jnsgd1na2vs0mg"},{"bike_id":"ff0e3fb4-a820-4596-9716-33225e50e3fc","system_id":"levelo_inurba_marseille","lat":43.2978,"lon":5.39358,"is_reserved":false,"is_disabled":false,"rental_uris":{"android":"levelo://app?vid=ff0e3fb4-a820-4596-9716-33225e50e3fc","ios":"levelo://app?vid=ff0e3fb4-a820-4596-9716-33225e50e3fc"},"vehicle_type_id":"4","last_reported":1744045725,"current_range_meters":14000,"station_id":"chh1huq6cuj3fo74tm60","pricing_plan_id":"cebpf4jnsgd1na2vs0mg"},{"bike_id":"fb9f6b16-b64d-4eb9-b329-0548a57bc9c5","system_id":"levelo_inurba_marseille","lat":43.30092,"lon":5.39093,"is_reserved":false,"is_disabled":false,"rental_uris":{"android":"levelo://app?vid=fb9f6b16-b64d-4eb9-b329-0548a57bc9c5","ios":"levelo://app?vid=fb9f6b16-b64d-4eb9-b329-0548a57bc9c5"},"vehicle_type_id":"4","last_reported":1744045725,"current_range_meters":14400,"station_id":"ce4bh192rcd13ifvqdb0","pricing_plan_id":"cebpf4jnsgd1na2vs0mg"},{"bike_id":"a05dbf7d-7bcf-4be6-ae71-e0d35d6cb053","system_id":"levelo_inurba_marseille","lat":43.29007,"lon":5.35617,"is_reserved":false,"is_disabled":false,"rental_uris":{"android":"levelo://app?vid=a05dbf7d-7bcf-4be6-ae71-e0d35d6cb053","ios":"levelo://app?vid=a05dbf7d-7bcf-4be6-ae71-e0d35d6cb053"},"vehicle_type_id":"4","last_reported":1744045725,"current_range_meters":14400,"station_id":"ce4bhb92rcd13ifvqen0","pricing_plan_id":"cebpf4jnsgd1na2vs0mg"},{"bike_id":"cfe3b9af-2d98-4d7e-be79-838704710863","system_id":"levelo_inurba_marseille","lat":43.28153,"lon":5.42644,"is_reserved":false,"is_disabled":false,"rental_uris":{"android":"levelo://app?vid=cfe3b9af-2d98-4d7e-be79-838704710863","ios":"levelo://app?vid=cfe3b9af-2d98-4d7e-be79-838704710863"},"vehicle_type_id":"4","last_reported":1744045725,"current_range_meters":14400,"station_id":"ce4bhnh2rcd13ifvqgug","pricing_plan_id":"cebpf4jnsgd1na2vs0mg"},{"bike_id":"c93603ea-c638-4fa1-adc9-23d0bee8e92b","system_id":"levelo_inurba_marseille","lat":43.27618,"lon":5.36106,"is_reserved":false,"is_disabled":false,"rental_uris":{"android":"levelo://app?vid=c93603ea-c638-4fa1-adc9-23d0bee8e92b","ios":"levelo://app?vid=c93603ea-c638-4fa1-adc9-23d0bee8e92b"},"vehicle_type_id":"4","last_reported":1744045725,"current_range_meters":14400,"station_id":"ce4bgj92rcd13ifvqbe0","pricing_plan_id":"cebpf4jnsgd1na2vs0mg"},{"bike_id":"fc6f1787-ef17-4714-be86-e34cfef9ef76","system_id":"levelo_inurba_marseille","lat":43.27072,"lon":5.42266,"is_reserved":false,"is_disabled":false,"rental_uris":{"android":"levelo://app?vid=fc6f1787-ef17-4714-be86-e34cfef9ef76","ios":"levelo://app?vid=fc6f1787-ef17-4714-be86-e34cfef9ef76"},"vehicle_type_id":"4","last_reported":1744045725,"current_range_meters":14800,"station_id":"ce4bhk92rcd13ifvqgb0","pricing_plan_id":"cebpf4jnsgd1na2vs0mg"},{"bike_id":"3cef8c83-1294-4611-bfca-9f21ae1010d8","system_id":"levelo_inurba_marseille","lat":43.27995,"lon":5.40016,"is_reserved":false,"is_disabled":false,"rental_uris":{"android":"levelo://app?vid=3cef8c83-1294-4611-bfca-9f21ae1010d8","ios":"levelo://app?vid=3cef8c83-1294-4611-bfca-9f21ae1010d8"},"vehicle_type_id":"4","last_reported":1744045725,"current_range_meters":14800,"station_id":"ce4bho92rcd13ifvqh4g","pricing_plan_id":"cebpf4jnsgd1na2vs0mg"},{"bike_id":"dbcb5ad4-3d9c-4222-a540-5eef50fd150a","system_id":"levelo_inurba_marseille","lat":43.28724,"lon":5.3741,"is_reserved":false,"is_disabled":false,"rental_uris":{"android":"levelo://app?vid=dbcb5ad4-3d9c-4222-a540-5eef50fd150a","ios":"levelo://app?vid=dbcb5ad4-3d9c-4222-a540-5eef50fd150a"},"vehicle_type_id":"4","last_reported":1744045725,"current_range_meters":14800,"station_id":"ce4bh3p2rcd13ifvqdq0","pricing_plan_id":"cebpf4jnsgd1na2vs0mg"},{"bike_id":"18128bc1-8c91-4d76-b844-05e83aba8976","system_id":"levelo_inurba_marseille","lat":43.33024,"lon":5.39038,"is_reserved":false,"is_disabled":false,"rental_uris":{"android":"levelo://app?vid=18128bc1-8c91-4d76-b844-05e83aba8976","ios":"levelo://app?vid=18128bc1-8c91-4d76-b844-05e83aba8976"},"vehicle_type_id":"4","last_reported":1744045725,"current_range_meters":15200,"station_id":"ce4bhr92rcd13ifvqhrg","pricing_plan_id":"cebpf4jnsgd1na2vs0mg"},{"bike_id":"f304709b-885a-4a7e-ae53-7370b0a536ac","system_id":"levelo_inurba_marseille","lat":43.24383,"lon":5.37062,"is_reserved":false,"is_disabled":false,"rental_uris":{"android":"levelo://app?vid=f304709b-885a-4a7e-ae53-7370b0a536ac","ios":"levelo://app?vid=f304709b-885a-4a7e-ae53-7370b0a536ac"},"vehicle_type_id":"4","last_reported":1744045725,"current_range_meters":14800,"station_id":"ce4bhhh2rcd13ifvqfk0","pricing_plan_id":"cebpf4jnsgd1na2vs0mg"},{"bike_id":"fc133c76-b9c3-4d1c-8e0e-9122c7e98429","system_id":"levelo_inurba_marseille","lat":43.29009,"lon":5.35613,"is_reserved":false,"is_disabled":false,"rental_uris":{"android":"levelo://app?vid=fc133c76-b9c3-4d1c-8e0e-9122c7e98429","ios":"levelo://app?vid=fc133c76-b9c3-4d1c-8e0e-9122c7e98429"},"vehicle_type_id":"4","last_reported":1744045725,"current_range_meters":15200,"station_id":"ce4bhb92rcd13ifvqen0","pricing_plan_id":"cebpf4jnsgd1na2vs0mg"},{"bike_id":"0aa02c49-cbb3-4907-a588-f754056f3ba8","system_id":"levelo_inurba_marseille","lat":43.30798,"lon":5.38226,"is_reserved":false,"is_disabled":true,"rental_uris":{"android":"levelo://app?vid=0aa02c49-cbb3-4907-a588-f754056f3ba8","ios":"levelo://app?vid=0aa02c49-cbb3-4907-a588-f754056f3ba8"},"vehicle_type_id":"4","last_reported":1744045725,"current_range_meters":15200,"station_id":"ce4bgt12rcd13ifvqce0","pricing_plan_id":"cebpf4jnsgd1na2vs0mg"},{"bike_id":"639fba09-bd17-4582-ad13-1b6d70177ea7","system_id":"levelo_inurba_marseille","lat":43.299658,"lon":5.384793,"is_reserved":false,"is_disabled":false,"rental_uris":{"android":"levelo://app?vid=639fba09-bd17-4582-ad13-1b6d70177ea7","ios":"levelo://app?vid=639fba09-bd17-4582-ad13-1b6d70177ea7"},"vehicle_type_id":"4","last_reported":1744045725,"current_range_meters":15200,"station_id":"ce4bh092rcd13ifvqd20","pricing_plan_id":"cebpf4jnsgd1na2vs0mg"},{"bike_id":"946baf1e-32d4-447b-bba4-e0e18512f4a4","system_id":"levelo_inurba_marseille","lat":43.292,"lon":5.39315,"is_reserved":false,"is_disabled":false,"rental_uris":{"android":"levelo://app?vid=946baf1e-32d4-447b-bba4-e0e18512f4a4","ios":"levelo://app?vid=946baf1e-32d4-447b-bba4-e0e18512f4a4"},"vehicle_type_id":"4","last_reported":1744045725,"current_range_meters":16000,"station_id":"ce4bh192rcd13ifvqdd0","pricing_plan_id":"cebpf4jnsgd1na2vs0mg"},{"bike_id":"93e3fd92-d65f-4f36-ba40-a3e5476ebc87","system_id":"levelo_inurba_marseille","lat":43.30668,"lon":5.36605,"is_reserved":false,"is_disabled":false,"rental_uris":{"android":"levelo://app?vid=93e3fd92-d65f-4f36-ba40-a3e5476ebc87","ios":"levelo://app?vid=93e3fd92-d65f-4f36-ba40-a3e5476ebc87"},"vehicle_type_id":"4","last_reported":1744045725,"current_range_meters":16000,"station_id":"","pricing_plan_id":"cebpf4jnsgd1na2vs0mg"},{"bike_id":"4b5a7bee-dc3e-4f8e-851a-9d87e11b5675","system_id":"levelo_inurba_marseille","lat":43.2873,"lon":5.36077,"is_reserved":false,"is_disabled":false,"rental_uris":{"android":"levelo://app?vid=4b5a7bee-dc3e-4f8e-851a-9d87e11b5675","ios":"levelo://app?vid=4b5a7bee-dc3e-4f8e-851a-9d87e11b5675"},"vehicle_type_id":"4","last_reported":1744045725,"current_range_meters":16000,"station_id":"cki0cbj6b192h4jlfktg","pricing_plan_id":"cebpf4jnsgd1na2vs0mg"},{"bike_id":"7b0e67e8-7295-4735-8082-fe5ca4e0f27a","system_id":"levelo_inurba_marseille","lat":43.24178,"lon":5.39732,"is_reserved":false,"is_disabled":false,"rental_uris":{"android":"levelo://app?vid=7b0e67e8-7295-4735-8082-fe5ca4e0f27a","ios":"levelo://app?vid=7b0e67e8-7295-4735-8082-fe5ca4e0f27a"},"vehicle_type_id":"4","last_reported":1744045725,"current_range_meters":16000,"station_id":"ce4bhn12rcd13ifvqgpg","pricing_plan_id":"cebpf4jnsgd1na2vs0mg"},{"bike_id":"99db3bb1-bec8-4e0c-84cf-01a2327643af","system_id":"levelo_inurba_marseille","lat":43.30801,"lon":5.43524,"is_reserved":false,"is_disabled":false,"rental_uris":{"android":"levelo://app?vid=99db3bb1-bec8-4e0c-84cf-01a2327643af","ios":"levelo://app?vid=99db3bb1-bec8-4e0c-84cf-01a2327643af"},"vehicle_type_id":"4","last_reported":1744045725,"current_range_meters":16000,"station_id":"ce4bhph2rcd13ifvqheg","pricing_plan_id":"cebpf4jnsgd1na2vs0mg"},{"bike_id":"2efdb8d9-feb4-47bf-83f1-fd55829c14cb","system_id":"levelo_inurba_marseille","lat":43.29195,"lon":5.39312,"is_reserved":false,"is_disabled":false,"rental_uris":{"android":"levelo://app?vid=2efdb8d9-feb4-47bf-83f1-fd55829c14cb","ios":"levelo://app?vid=2efdb8d9-feb4-47bf-83f1-fd55829c14cb"},"vehicle_type_id":"4","last_reported":1744045725,"current_range_meters":16000,"station_id":"ce4bh192rcd13ifvqdd0","pricing_plan_id":"cebpf4jnsgd1na2vs0mg"},{"bike_id":"61cd41de-07c4-4597-a74e-0c712a9e4d87","system_id":"levelo_inurba_marseille","lat":43.22931,"lon":5.3538,"is_reserved":false,"is_disabled":true,"rental_uris":{"android":"levelo://app?vid=61cd41de-07c4-4597-a74e-0c712a9e4d87","ios":"levelo://app?vid=61cd41de-07c4-4597-a74e-0c712a9e4d87"},"vehicle_type_id":"4","last_reported":1744045725,"current_range_meters":16000,"station_id":"cpo3532slgdg3j2ikp40","pricing_plan_id":"cebpf4jnsgd1na2vs0mg"},{"bike_id":"e7019883-2401-40c6-abea-295070e2dc5b","system_id":"levelo_inurba_marseille","lat":43.31723,"lon":5.42397,"is_reserved":false,"is_disabled":false,"rental_uris":{"android":"levelo://app?vid=e7019883-2401-40c6-abea-295070e2dc5b","ios":"levelo://app?vid=e7019883-2401-40c6-abea-295070e2dc5b"},"vehicle_type_id":"4","last_reported":1744045725,"current_range_meters":16000,"station_id":"ce4bhp92rcd13ifvqhbg","pricing_plan_id":"cebpf4jnsgd1na2vs0mg"},{"bike_id":"68d1cc33-0218-451e-8e10-d32225c21263","system_id":"levelo_inurba_marseille","lat":43.23082,"lon":5.43615,"is_reserved":false,"is_disabled":true,"rental_uris":{"android":"levelo://app?vid=68d1cc33-0218-451e-8e10-d32225c21263","ios":"levelo://app?vid=68d1cc33-0218-451e-8e10-d32225c21263"},"vehicle_type_id":"4","last_reported":1744045725,"current_range_meters":16000,"station_id":"ce4bhmp2rcd13ifvqgog","pricing_plan_id":"cebpf4jnsgd1na2vs0mg"},{"bike_id":"b033a680-f3bd-4b08-acce-ca4882c9e7ca","system_id":"levelo_inurba_marseille","lat":43.29623,"lon":5.40608,"is_reserved":false,"is_disabled":false,"rental_uris":{"android":"levelo://app?vid=b033a680-f3bd-4b08-acce-ca4882c9e7ca","ios":"levelo://app?vid=b033a680-f3bd-4b08-acce-ca4882c9e7ca"},"vehicle_type_id":"4","last_reported":1744045725,"current_range_meters":16000,"station_id":"ce4bh0h2rcd13ifvqd60","pricing_plan_id":"cebpf4jnsgd1na2vs0mg"},{"bike_id":"a2b55975-55e4-4a3f-8af7-2c27ff45ed68","system_id":"levelo_inurba_marseille","lat":43.28161,"lon":5.42642,"is_reserved":false,"is_disabled":true,"rental_uris":{"android":"levelo://app?vid=a2b55975-55e4-4a3f-8af7-2c27ff45ed68","ios":"levelo://app?vid=a2b55975-55e4-4a3f-8af7-2c27ff45ed68"},"vehicle_type_id":"4","last_reported":1744045725,"current_range_meters":16400,"station_id":"ce4bhnh2rcd13ifvqgug","pricing_plan_id":"cebpf4jnsgd1na2vs0mg"},{"bike_id":"d4912712-bf8f-407d-98ad-04b0b21f3bc0","system_id":"levelo_inurba_marseille","lat":43.25495,"lon":5.37672,"is_reserved":false,"is_disabled":false,"rental_uris":{"android":"levelo://app?vid=d4912712-bf8f-407d-98ad-04b0b21f3bc0","ios":"levelo://app?vid=d4912712-bf8f-407d-98ad-04b0b21f3bc0"},"vehicle_type_id":"4","last_reported":1744045725,"current_range_meters":16400,"station_id":"ce4bhh12rcd13ifvqff0","pricing_plan_id":"cebpf4jnsgd1na2vs0mg"},{"bike_id":"158df057-ca83-4895-ad1d-881f1e1b56e6","system_id":"levelo_inurba_marseille","lat":43.27207,"lon":5.39189,"is_reserved":false,"is_disabled":true,"rental_uris":{"android":"levelo://app?vid=158df057-ca83-4895-ad1d-881f1e1b56e6","ios":"levelo://app?vid=158df057-ca83-4895-ad1d-881f1e1b56e6"},"vehicle_type_id":"4","last_reported":1744045725,"current_range_meters":16400,"station_id":"ce4bhhp2rcd13ifvqfm0","pricing_plan_id":"cebpf4jnsgd1na2vs0mg"},{"bike_id":"2f3ef1da-8993-49b4-a8fe-41ade7b05ba4","system_id":"levelo_inurba_marseille","lat":43.310682,"lon":5.382437,"is_reserved":false,"is_disabled":false,"rental_uris":{"android":"levelo://app?vid=2f3ef1da-8993-49b4-a8fe-41ade7b05ba4","ios":"levelo://app?vid=2f3ef1da-8993-49b4-a8fe-41ade7b05ba4"},"vehicle_type_id":"4","last_reported":1744045725,"current_range_meters":16400,"station_id":"ce4bguh2rcd13ifvqckg","pricing_plan_id":"cebpf4jnsgd1na2vs0mg"},{"bike_id":"56364b62-3ced-46f4-8fb1-f2e8c4241d93","system_id":"levelo_inurba_marseille","lat":43.29258,"lon":5.37624,"is_reserved":false,"is_disabled":false,"rental_uris":{"android":"levelo://app?vid=56364b62-3ced-46f4-8fb1-f2e8c4241d93","ios":"levelo://app?vid=56364b62-3ced-46f4-8fb1-f2e8c4241d93"},"vehicle_type_id":"4","last_reported":1744045725,"current_range_meters":16400,"station_id":"ce4bgi12rcd13ifvqb80","pricing_plan_id":"cebpf4jnsgd1na2vs0mg"},{"bike_id":"e0c712a4-8c41-4e69-a875-50251525a0f6","system_id":"levelo_inurba_marseille","lat":43.27945,"lon":5.40869,"is_reserved":false,"is_disabled":false,"rental_uris":{"android":"levelo://app?vid=e0c712a4-8c41-4e69-a875-50251525a0f6","ios":"levelo://app?vid=e0c712a4-8c41-4e69-a875-50251525a0f6"},"vehicle_type_id":"4","last_reported":1744045725,"current_range_meters":16400,"station_id":"","pricing_plan_id":"cebpf4jnsgd1na2vs0mg"},{"bike_id":"8d36f268-69d4-413e-a830-d0f121ad6c84","system_id":"levelo_inurba_marseille","lat":43.25088,"lon":5.39523,"is_reserved":false,"is_disabled":false,"rental_uris":{"android":"levelo://app?vid=8d36f268-69d4-413e-a830-d0f121ad6c84","ios":"levelo://app?vid=8d36f268-69d4-413e-a830-d0f121ad6c84"},"vehicle_type_id":"4","last_reported":1744045725,"current_range_meters":16800,"station_id":"ce4bhm12rcd13ifvqgkg","pricing_plan_id":"cebpf4jnsgd1na2vs0mg"},{"bike_id":"aa12325b-ccc5-42e3-ad22-e3c88a48c847","system_id":"levelo_inurba_marseille","lat":43.297943,"lon":5.404055,"is_reserved":false,"is_disabled":false,"rental_uris":{"android":"levelo://app?vid=aa12325b-ccc5-42e3-ad22-e3c88a48c847","ios":"levelo://app?vid=aa12325b-ccc5-42e3-ad22-e3c88a48c847"},"vehicle_type_id":"4","last_reported":1744045725,"current_range_meters":16800,"station_id":"ce4bh112rcd13ifvqd90","pricing_plan_id":"cebpf4jnsgd1na2vs0mg"},{"bike_id":"8aa55b63-1f31-4ae0-8c0b-c438c6a26579","system_id":"levelo_inurba_marseille","lat":43.29196,"lon":5.39325,"is_reserved":false,"is_disabled":false,"rental_uris":{"android":"levelo://app?vid=8aa55b63-1f31-4ae0-8c0b-c438c6a26579","ios":"levelo://app?vid=8aa55b63-1f31-4ae0-8c0b-c438c6a26579"},"vehicle_type_id":"4","last_reported":1744045725,"current_range_meters":16800,"station_id":"ce4bh192rcd13ifvqdd0","pricing_plan_id":"cebpf4jnsgd1na2vs0mg"},{"bike_id":"edda56ac-4088-4f62-8597-be798f788cc0","system_id":"levelo_inurba_marseille","lat":43.25493,"lon":5.37646,"is_reserved":false,"is_disabled":false,"rental_uris":{"android":"levelo://app?vid=edda56ac-4088-4f62-8597-be798f788cc0","ios":"levelo://app?vid=edda56ac-4088-4f62-8597-be798f788cc0"},"vehicle_type_id":"4","last_reported":1744045725,"current_range_meters":16800,"station_id":"ce4bhh12rcd13ifvqff0","pricing_plan_id":"cebpf4jnsgd1na2vs0mg"},{"bike_id":"17e8eaac-1d12-4474-9074-3e9d1730a705","system_id":"levelo_inurba_marseille","lat":43.29225,"lon":5.36078,"is_reserved":false,"is_disabled":false,"rental_uris":{"android":"levelo://app?vid=17e8eaac-1d12-4474-9074-3e9d1730a705","ios":"levelo://app?vid=17e8eaac-1d12-4474-9074-3e9d1730a705"},"vehicle_type_id":"4","last_reported":1744045725,"current_range_meters":16800,"station_id":"ce4bhbh2rcd13ifvqeqg","pricing_plan_id":"cebpf4jnsgd1na2vs0mg"},{"bike_id":"402d7c63-343c-46b9-8c96-e7a86058c072","system_id":"levelo_inurba_marseille","lat":43.29415,"lon":5.38626,"is_reserved":false,"is_disabled":false,"rental_uris":{"android":"levelo://app?vid=402d7c63-343c-46b9-8c96-e7a86058c072","ios":"levelo://app?vid=402d7c63-343c-46b9-8c96-e7a86058c072"},"vehicle_type_id":"4","last_reported":1744045725,"current_range_meters":16800,"station_id":"ce4bh2h2rcd13ifvqdh0","pricing_plan_id":"cebpf4jnsgd1na2vs0mg"},{"bike_id":"e774b63b-c53b-482d-96d4-1c0ed6cec780","system_id":"levelo_inurba_marseille","lat":43.30143,"lon":5.38078,"is_reserved":false,"is_disabled":false,"rental_uris":{"android":"levelo://app?vid=e774b63b-c53b-482d-96d4-1c0ed6cec780","ios":"levelo://app?vid=e774b63b-c53b-482d-96d4-1c0ed6cec780"},"vehicle_type_id":"4","last_reported":1744045725,"current_range_meters":16800,"station_id":"ce4bgl12rcd13ifvqbo0","pricing_plan_id":"cebpf4jnsgd1na2vs0mg"},{"bike_id":"5cee95b8-8bb1-423d-8a7a-7d54a25da81b","system_id":"levelo_inurba_marseille","lat":43.288593,"lon":5.358402,"is_reserved":false,"is_disabled":false,"rental_uris":{"android":"levelo://app?vid=5cee95b8-8bb1-423d-8a7a-7d54a25da81b","ios":"levelo://app?vid=5cee95b8-8bb1-423d-8a7a-7d54a25da81b"},"vehicle_type_id":"4","last_reported":1744045725,"current_range_meters":16800,"station_id":"ce4bhb12rcd13ifvqem0","pricing_plan_id":"cebpf4jnsgd1na2vs0mg"},{"bike_id":"45d83681-f2eb-4a39-a20c-4022ba893ea0","system_id":"levelo_inurba_marseille","lat":43.339197,"lon":5.392194,"is_reserved":false,"is_disabled":false,"rental_uris":{"android":"levelo://app?vid=45d83681-f2eb-4a39-a20c-4022ba893ea0","ios":"levelo://app?vid=45d83681-f2eb-4a39-a20c-4022ba893ea0"},"vehicle_type_id":"4","last_reported":1744045725,"current_range_meters":16800,"station_id":"","pricing_plan_id":"cebpf4jnsgd1na2vs0mg"},{"bike_id":"92b7ed43-544e-48a7-9211-49c5372e8440","system_id":"levelo_inurba_marseille","lat":43.28946,"lon":5.36638,"is_reserved":false,"is_disabled":false,"rental_uris":{"android":"levelo://app?vid=92b7ed43-544e-48a7-9211-49c5372e8440","ios":"levelo://app?vid=92b7ed43-544e-48a7-9211-49c5372e8440"},"vehicle_type_id":"4","last_reported":1744045725,"current_range_meters":17200,"station_id":"ce4bhap2rcd13ifvqek0","pricing_plan_id":"cebpf4jnsgd1na2vs0mg"},{"bike_id":"1b6d55e6-6993-4ce9-a085-fb435b7dba7b","system_id":"levelo_inurba_marseille","lat":43.262144,"lon":5.37441,"is_reserved":false,"is_disabled":false,"rental_uris":{"android":"levelo://app?vid=1b6d55e6-6993-4ce9-a085-fb435b7dba7b","ios":"levelo://app?vid=1b6d55e6-6993-4ce9-a085-fb435b7dba7b"},"vehicle_type_id":"4","last_reported":1744045725,"current_range_meters":17200,"station_id":"ce4bhgp2rcd13ifvqfc0","pricing_plan_id":"cebpf4jnsgd1na2vs0mg"},{"bike_id":"1ca7d0c4-b7aa-4350-ad9f-4e24c2ba029a","system_id":"levelo_inurba_marseille","lat":43.30371,"lon":5.42539,"is_reserved":false,"is_disabled":true,"rental_uris":{"android":"levelo://app?vid=1ca7d0c4-b7aa-4350-ad9f-4e24c2ba029a","ios":"levelo://app?vid=1ca7d0c4-b7aa-4350-ad9f-4e24c2ba029a"},"vehicle_type_id":"4","last_reported":1744045725,"current_range_meters":17200,"station_id":"","pricing_plan_id":"cebpf4jnsgd1na2vs0mg"},{"bike_id":"1ebefc1a-2ede-4af5-b881-6ce85d5339fd","system_id":"levelo_inurba_marseille","lat":43.30648,"lon":5.40098,"is_reserved":false,"is_disabled":false,"rental_uris":{"android":"levelo://app?vid=1ebefc1a-2ede-4af5-b881-6ce85d5339fd","ios":"levelo://app?vid=1ebefc1a-2ede-4af5-b881-6ce85d5339fd"},"vehicle_type_id":"4","last_reported":1744045725,"current_range_meters":16800,"station_id":"ce4bh112rcd13ifvqda0","pricing_plan_id":"cebpf4jnsgd1na2vs0mg"},{"bike_id":"8e83a831-ae8d-448d-8441-07dbaaced62d","system_id":"levelo_inurba_marseille","lat":43.25581,"lon":5.38243,"is_reserved":false,"is_disabled":false,"rental_uris":{"android":"levelo://app?vid=8e83a831-ae8d-448d-8441-07dbaaced62d","ios":"levelo://app?vid=8e83a831-ae8d-448d-8441-07dbaaced62d"},"vehicle_type_id":"4","last_reported":1744045725,"current_range_meters":17200,"station_id":"ce4bhih2rcd13ifvqfs0","pricing_plan_id":"cebpf4jnsgd1na2vs0mg"},{"bike_id":"967171ab-c9ee-48ff-b2d5-e81f6542c8c2","system_id":"levelo_inurba_marseille","lat":43.32335,"lon":5.40611,"is_reserved":false,"is_disabled":false,"rental_uris":{"android":"levelo://app?vid=967171ab-c9ee-48ff-b2d5-e81f6542c8c2","ios":"levelo://app?vid=967171ab-c9ee-48ff-b2d5-e81f6542c8c2"},"vehicle_type_id":"4","last_reported":1744045725,"current_range_meters":17200,"station_id":"ce4bhq92rcd13ifvqhjg","pricing_plan_id":"cebpf4jnsgd1na2vs0mg"},{"bike_id":"8218bc83-5b88-4e47-8aa1-3174f1b7bbca","system_id":"levelo_inurba_marseille","lat":43.29197,"lon":5.35812,"is_reserved":false,"is_disabled":false,"rental_uris":{"android":"levelo://app?vid=8218bc83-5b88-4e47-8aa1-3174f1b7bbca","ios":"levelo://app?vid=8218bc83-5b88-4e47-8aa1-3174f1b7bbca"},"vehicle_type_id":"4","last_reported":1744045725,"current_range_meters":17200,"station_id":"ce4bhb12rcd13ifvqel0","pricing_plan_id":"cebpf4jnsgd1na2vs0mg"},{"bike_id":"fa0a739e-9d6d-4041-a7b2-679dda14221e","system_id":"levelo_inurba_marseille","lat":43.29534,"lon":5.38551,"is_reserved":false,"is_disabled":false,"rental_uris":{"android":"levelo://app?vid=fa0a739e-9d6d-4041-a7b2-679dda14221e","ios":"levelo://app?vid=fa0a739e-9d6d-4041-a7b2-679dda14221e"},"vehicle_type_id":"4","last_reported":1744045725,"current_range_meters":17200,"station_id":"ce4bgih2rcd13ifvqba0","pricing_plan_id":"cebpf4jnsgd1na2vs0mg"},{"bike_id":"b88658d3-ca66-45ab-b8ee-507b22cb0286","system_id":"levelo_inurba_marseille","lat":43.31255,"lon":5.36858,"is_reserved":false,"is_disabled":false,"rental_uris":{"android":"levelo://app?vid=b88658d3-ca66-45ab-b8ee-507b22cb0286","ios":"levelo://app?vid=b88658d3-ca66-45ab-b8ee-507b22cb0286"},"vehicle_type_id":"4","last_reported":1744045725,"current_range_meters":17200,"station_id":"ce4bgl92rcd13ifvqbq0","pricing_plan_id":"cebpf4jnsgd1na2vs0mg"},{"bike_id":"6b013238-0fd1-42d5-9fd3-866583ce9509","system_id":"levelo_inurba_marseille","lat":43.287269,"lon":5.360757,"is_reserved":false,"is_disabled":false,"rental_uris":{"android":"levelo://app?vid=6b013238-0fd1-42d5-9fd3-866583ce9509","ios":"levelo://app?vid=6b013238-0fd1-42d5-9fd3-866583ce9509"},"vehicle_type_id":"4","last_reported":1744045725,"current_range_meters":17200,"station_id":"cki0cbj6b192h4jlfktg","pricing_plan_id":"cebpf4jnsgd1na2vs0mg"},{"bike_id":"01b7378b-2eb9-4de2-9d50-fb3034d8e0d7","system_id":"levelo_inurba_marseille","lat":43.303293,"lon":5.404483,"is_reserved":false,"is_disabled":false,"rental_uris":{"android":"levelo://app?vid=01b7378b-2eb9-4de2-9d50-fb3034d8e0d7","ios":"levelo://app?vid=01b7378b-2eb9-4de2-9d50-fb3034d8e0d7"},