{"last_updated":1758416115,"ttl":60,"version":"2.2","data":{"bikes":[{"bike_id":"e942f984-8fe7-48d1-8f04-3806656b9996","system_id":"levelo_inurba_marseille","lat":43.33644,"lon":5.37909,"is_reserved":false,"is_disabled":false,"rental_uris":{"android":"levelo://app?vid=e942f984-8fe7-48d1-8f04-3806656b9996","ios":"levelo://app?vid=e942f984-8fe7-48d1-8f04-3806656b9996"},"vehicle_type_id":"4","last_reported":1758416115,"current_range_meters":2800,"station_id":"","pricing_plan_id":"cebpf4jnsgd1na2vs0mg"},{"bike_id":"f72993fa-0144-4fc4-9909-0eb89d3079e2","system_id":"levelo_inurba_marseille","lat":43.28352,"lon":5.38113,"is_reserved":false,"is_disabled":false,"rental_uris":{"android":"levelo://app?vid=f72993fa-0144-4fc4-9909-0eb89d3079e2","ios":"levelo://app?vid=f72993fa-0144-4fc4-9909-0eb89d3079e2"},"vehicle_type_id":"4","last_reported":1758416115,"current_range_meters":2800,"station_id":"ce4bh412rcd13ifvqdr0","pricing_plan_id":"cebpf4jnsgd1na2vs0mg"},{"bike_id":"bf4a70a9-11a1-40f0-9ac4-fe19c24770ca","system_id":"levelo_inurba_marseille","lat":43.30058,"lon":5.375871,"is_reserved":false,"is_disabled":false,"rental_uris":{"android":"levelo://app?vid=bf4a70a9-11a1-40f0-9ac4-fe19c24770ca","ios":"levelo://app?vid=bf4a70a9-11a1-40f0-9ac4-fe19c24770ca"},"vehicle_type_id":"4","last_reported":1758416115,"current_range_meters":2800,"station_id":"","pricing_plan_id":"cebpf4jnsgd1na2vs0mg"},{"bike_id":"2f0c84be-e020-4960-9408-7685a02d0829","system_id":"levelo_inurba_marseille","lat":43.21757,"lon":5.34596,"is_reserved":false,"is_disabled":true,"rental_uris":{"android":"levelo://app?vid=2f0c84be-e020-4960-9408-7685a02d0829","ios":"levelo://app?vid=2f0c84be-e020-4960-9408-7685a02d0829"},"vehicle_type_id":"4","last_reported":1758416115,"current_range_meters":3200,"station_id":"st_cvj6r9ubvosntc0bgbag","pricing_plan_id":"cebpf4jnsgd1na2vs0mg"},{"bike_id":"42d2ad08-46a4-4894-bf41-5d134f26112e","system_id":"levelo_inurba_marseille","lat":43.32338,"lon":5.4062,"is_reserved":false,"is_disabled":false,"rental_uris":{"android":"levelo://app?vid=42d2ad08-46a4-4894-bf41-5d134f26112e","ios":"levelo://app?vid=42d2ad08-46a4-4894-bf41-5d134f26112e"},"vehicle_type_id":"4","last_reported":1758416115,"current_range_meters":3200,"station_id":"ce4bhq92rcd13ifvqhjg","pricing_plan_id":"cebpf4jnsgd1na2vs0mg"},{"bike_id":"87cce16d-f73c-41c4-95e6-9db326e1d925","system_id":"levelo_inurba_marseille","lat":43.28942,"lon":5.36395,"is_reserved":false,"is_disabled":false,"rental_uris":{"android":"levelo://app?vid=87cce16d-f73c-41c4-95e6-9db326e1d925","ios":"levelo://app?vid=87cce16d-f73c-41c4-95e6-9db326e1d925"},"vehicle_type_id":"4","last_reported":1758416115,"current_range_meters":3200,"station_id":"ce4bhc92rcd13ifvqetg","pricing_plan_id":"cebpf4jnsgd1na2vs0mg"},{"bike_id":"d3c54b06-f18f-486d-a5d9-4a911b8663e3","system_id":"levelo_inurba_marseille","lat":43.2797,"lon":5.41045,"is_reserved":false,"is_disabled":false,"rental_uris":{"android":"levelo://app?vid=d3c54b06-f18f-486d-a5d9-4a911b8663e3","ios":"levelo://app?vid=d3c54b06-f18f-486d-a5d9-4a911b8663e3"},"vehicle_type_id":"4","last_reported":1758416115,"current_range_meters":3200,"station_id":"ce4bhnp2rcd13ifvqh0g","pricing_plan_id":"cebpf4jnsgd1na2vs0mg"},{"bike_id":"450431b5-8fcb-4adb-8b3f-bef61eaf2559","system_id":"levelo_inurba_marseille","lat":43.31712,"lon":5.40432,"is_reserved":false,"is_disabled":false,"rental_uris":{"android":"levelo://app?vid=450431b5-8fcb-4adb-8b3f-bef61eaf2559","ios":"levelo://app?vid=450431b5-8fcb-4adb-8b3f-bef61eaf2559"},"vehicle_type_id":"4","last_reported":1758416115,"current_range_meters":3200,"station_id":"ce4bh012rcd13ifvqd00","pricing_plan_id":"cebpf4jnsgd1na2vs0mg"},{"bike_id":"4a067b05-4f7f-4e78-885a-719a3fb412b3","system_id":"levelo_inurba_marseille","lat":43.29876,"lon":5.39725,"is_reserved":false,"is_disabled":false,"rental_uris":{"android":"levelo://app?vid=4a067b05-4f7f-4e78-885a-719a3fb412b3","ios":"levelo://app?vid=4a067b05-4f7f-4e78-885a-719a3fb412b3"},"vehicle_type_id":"4","last_reported":1758416115,"current_range_meters":3600,"station_id":"ce4bh0h2rcd13ifvqd50","pricing_plan_id":"cebpf4jnsgd1na2vs0mg"},{"bike_id":"991a8aea-9381-41eb-8503-6bf66cbd3d27","system_id":"levelo_inurba_marseille","lat":43.28381,"lon":5.38637,"is_reserved":false,"is_disabled":false,"rental_uris":{"android":"levelo://app?vid=991a8aea-9381-41eb-8503-6bf66cbd3d27","ios":"levelo://app?vid=991a8aea-9381-41eb-8503-6bf66cbd3d27"},"vehicle_type_id":"4","last_reported":1758416115,"current_range_meters":3600,"station_id":"ce4bh492rcd13ifvqdvg","pricing_plan_id":"cebpf4jnsgd1na2vs0mg"},{"bike_id":"cad97885-b582-49b2-8b83-0a6c3d079fc6","system_id":"levelo_inurba_marseille","lat":43.297018,"lon":5.365873,"is_reserved":false,"is_disabled":false,"rental_uris":{"android":"levelo://app?vid=cad97885-b582-49b2-8b83-0a6c3d079fc6","ios":"levelo://app?vid=cad97885-b582-49b2-8b83-0a6c3d079fc6"},"vehicle_type_id":"4","last_reported":1758416115,"current_range_meters":3600,"station_id":"ce4bgn12rcd13ifvqbt0","pricing_plan_id":"cebpf4jnsgd1na2vs0mg"},{"bike_id":"90010aba-f5e4-4e5d-8823-acd8e56ec713","system_id":"levelo_inurba_marseille","lat":43.31164,"lon":5.38702,"is_reserved":false,"is_disabled":false,"rental_uris":{"android":"levelo://app?vid=90010aba-f5e4-4e5d-8823-acd8e56ec713","ios":"levelo://app?vid=90010aba-f5e4-4e5d-8823-acd8e56ec713"},"vehicle_type_id":"4","last_reported":1758416115,"current_range_meters":3600,"station_id":"ce4bgv12rcd13ifvqcp0","pricing_plan_id":"cebpf4jnsgd1na2vs0mg"},{"bike_id":"dd54508b-cebc-429e-947d-94cace74c022","system_id":"levelo_inurba_marseille","lat":43.23957,"lon":5.36614,"is_reserved":false,"is_disabled":true,"rental_uris":{"android":"levelo://app?vid=dd54508b-cebc-429e-947d-94cace74c022","ios":"levelo://app?vid=dd54508b-cebc-429e-947d-94cace74c022"},"vehicle_type_id":"4","last_reported":1758416115,"current_range_meters":3600,"station_id":"ce4bhi12rcd13ifvqfp0","pricing_plan_id":"cebpf4jnsgd1na2vs0mg"},{"bike_id":"7455ab18-939d-4b07-a4bf-5ce01d24b654","system_id":"levelo_inurba_marseille","lat":43.2523,"lon":5.4247,"is_reserved":false,"is_disabled":false,"rental_uris":{"android":"levelo://app?vid=7455ab18-939d-4b07-a4bf-5ce01d24b654","ios":"levelo://app?vid=7455ab18-939d-4b07-a4bf-5ce01d24b654"},"vehicle_type_id":"4","last_reported":1758416115,"current_range_meters":4000,"station_id":"","pricing_plan_id":"cebpf4jnsgd1na2vs0mg"},{"bike_id":"3b8bc6dd-8b55-445e-9d64-0c039f90dbb0","system_id":"levelo_inurba_marseille","lat":43.28846,"lon":5.39331,"is_reserved":false,"is_disabled":false,"rental_uris":{"android":"levelo://app?vid=3b8bc6dd-8b55-445e-9d64-0c039f90dbb0","ios":"levelo://app?vid=3b8bc6dd-8b55-445e-9d64-0c039f90dbb0"},"vehicle_type_id":"4","last_reported":1758416115,"current_range_meters":4000,"station_id":"ce4bh2p2rcd13ifvqdi0","pricing_plan_id":"cebpf4jnsgd1na2vs0mg"},{"bike_id":"0a9f8014-5026-4f92-b1d0-fba025dab529","system_id":"levelo_inurba_marseille","lat":43.26223,"lon":5.40446,"is_reserved":false,"is_disabled":false,"rental_uris":{"android":"levelo://app?vid=0a9f8014-5026-4f92-b1d0-fba025dab529","ios":"levelo://app?vid=0a9f8014-5026-4f92-b1d0-fba025dab529"},"vehicle_type_id":"4","last_reported":1758416115,"current_range_meters":4000,"station_id":"ce4bhmh2rcd13ifvqgmg","pricing_plan_id":"cebpf4jnsgd1na2vs0mg"},{"bike_id":"4a42c3a7-350b-4a49-9c56-c4b3d7531c94","system_id":"levelo_inurba_marseille","lat":43.305533,"lon":5.366949,"is_reserved":false,"is_disabled":false,"rental_uris":{"android":"levelo://app?vid=4a42c3a7-350b-4a49-9c56-c4b3d7531c94","ios":"levelo://app?vid=4a42c3a7-350b-4a49-9c56-c4b3d7531c94"},"vehicle_type_id":"4","last_reported":1758416115,"current_range_meters":4000,"station_id":"ce4bgrp2rcd13ifvqc9g","pricing_plan_id":"cebpf4jnsgd1na2vs0mg"},{"bike_id":"a839ad44-e005-45b8-a739-b2e28337e6c7","system_id":"levelo_inurba_marseille","lat":43.29895,"lon":5.39725,"is_reserved":false,"is_disabled":true,"rental_uris":{"android":"levelo://app?vid=a839ad44-e005-45b8-a739-b2e28337e6c7","ios":"levelo://app?vid=a839ad44-e005-45b8-a739-b2e28337e6c7"},"vehicle_type_id":"4","last_reported":1758416115,"current_range_meters":4000,"station_id":"ce4bh0h2rcd13ifvqd50","pricing_plan_id":"cebpf4jnsgd1na2vs0mg"},{"bike_id":"8333e2ea-e99a-4608-9635-e5eeab7c4c68","system_id":"levelo_inurba_marseille","lat":43.28225,"lon":5.39063,"is_reserved":false,"is_disabled":false,"rental_uris":{"android":"levelo://app?vid=8333e2ea-e99a-4608-9635-e5eeab7c4c68","ios":"levelo://app?vid=8333e2ea-e99a-4608-9635-e5eeab7c4c68"},"vehicle_type_id":"4","last_reported":1758416115,"current_range_meters":4400,"station_id":"ce4bhn92rcd13ifvqgsg","pricing_plan_id":"cebpf4jnsgd1na2vs0mg"},{"bike_id":"cfd06fa5-a691-4caf-894b-96f207c1dbb3","system_id":"levelo_inurba_marseille","lat":43.28165,"lon":5.42649,"is_reserved":false,"is_disabled":false,"rental_uris":{"android":"levelo://app?vid=cfd06fa5-a691-4caf-894b-96f207c1dbb3","ios":"levelo://app?vid=cfd06fa5-a691-4caf-894b-96f207c1dbb3"},"vehicle_type_id":"4","last_reported":1758416115,"current_range_meters":4400,"station_id":"ce4bhnh2rcd13ifvqgug","pricing_plan_id":"cebpf4jnsgd1na2vs0mg"},{"bike_id":"1099a874-2b91-469f-bfc8-d090756c7664","system_id":"levelo_inurba_marseille","lat":43.25333,"lon":5.42178,"is_reserved":false,"is_disabled":false,"rental_uris":{"android":"levelo://app?vid=1099a874-2b91-469f-bfc8-d090756c7664","ios":"levelo://app?vid=1099a874-2b91-469f-bfc8-d090756c7664"},"vehicle_type_id":"4","last_reported":1758416115,"current_range_meters":4400,"station_id":"st_d2m65c5bi1j21697t3ng","pricing_plan_id":"cebpf4jnsgd1na2vs0mg"},{"bike_id":"252acae5-90de-40d4-8ede-b6d5d4e5713c","system_id":"levelo_inurba_marseille","lat":43.27842,"lon":5.39199,"is_reserved":false,"is_disabled":false,"rental_uris":{"android":"levelo://app?vid=252acae5-90de-40d4-8ede-b6d5d4e5713c","ios":"levelo://app?vid=252acae5-90de-40d4-8ede-b6d5d4e5713c"},"vehicle_type_id":"4","last_reported":1758416115,"current_range_meters":4400,"station_id":"ce4bhjp2rcd13ifvqga0","pricing_plan_id":"cebpf4jnsgd1na2vs0mg"},{"bike_id":"843e4ea1-f22a-4a43-98ca-56987ee2a3f7","system_id":"levelo_inurba_marseille","lat":43.28179,"lon":5.42628,"is_reserved":false,"is_disabled":false,"rental_uris":{"android":"levelo://app?vid=843e4ea1-f22a-4a43-98ca-56987ee2a3f7","ios":"levelo://app?vid=843e4ea1-f22a-4a43-98ca-56987ee2a3f7"},"vehicle_type_id":"4","last_reported":1758416115,"current_range_meters":4400,"station_id":"ce4bhnh2rcd13ifvqgug","pricing_plan_id":"cebpf4jnsgd1na2vs0mg"},{"bike_id":"b17e38f3-81f1-4cf4-9569-5360fb62d802","system_id":"levelo_inurba_marseille","lat":43.30806,"lon":5.38154,"is_reserved":false,"is_disabled":false,"rental_uris":{"android":"levelo://app?vid=b17e38f3-81f1-4cf4-9569-5360fb62d802","ios":"levelo://app?vid=b17e38f3-81f1-4cf4-9569-5360fb62d802"},"vehicle_type_id":"4","last_reported":1758416115,"current_range_meters":4800,"station_id":"ce4bgt12rcd13ifvqce0","pricing_plan_id":"cebpf4jnsgd1na2vs0mg"},{"bike_id":"b50b3f20-48e3-4a43-9851-a7f905d9f977","system_id":"levelo_inurba_marseille","lat":43.2885,"lon":5.35863,"is_reserved":false,"is_disabled":false,"rental_uris":{"android":"levelo://app?vid=b50b3f20-48e3-4a43-9851-a7f905d9f977","ios":"levelo://app?vid=b50b3f20-48e3-4a43-9851-a7f905d9f977"},"vehicle_type_id":"4","last_reported":1758416115,"current_range_meters":4800,"station_id":"ce4bhb12rcd13ifvqem0","pricing_plan_id":"cebpf4jnsgd1na2vs0mg"},{"bike_id":"04ac4072-76af-404d-8a72-a8ffe8ae8fcc","system_id":"levelo_inurba_marseille","lat":43.32578,"lon":5.39188,"is_reserved":false,"is_disabled":true,"rental_uris":{"android":"levelo://app?vid=04ac4072-76af-404d-8a72-a8ffe8ae8fcc","ios":"levelo://app?vid=04ac4072-76af-404d-8a72-a8ffe8ae8fcc"},"vehicle_type_id":"4","last_reported":1758416115,"current_range_meters":4800,"station_id":"","pricing_plan_id":"cebpf4jnsgd1na2vs0mg"},{"bike_id":"fcde3ebe-4749-4d94-a8c9-b5036eaa4efe","system_id":"levelo_inurba_marseille","lat":43.28865,"lon":5.4253,"is_reserved":false,"is_disabled":false,"rental_uris":{"android":"levelo://app?vid=fcde3ebe-4749-4d94-a8c9-b5036eaa4efe","ios":"levelo://app?vid=fcde3ebe-4749-4d94-a8c9-b5036eaa4efe"},"vehicle_type_id":"4","last_reported":1758416115,"current_range_meters":4800,"station_id":"","pricing_plan_id":"cebpf4jnsgd1na2vs0mg"},{"bike_id":"bb6db8d3-97a4-4e3c-8177-f028a7d3343c","system_id":"levelo_inurba_marseille","lat":43.28166,"lon":5.42661,"is_reserved":false,"is_disabled":false,"rental_uris":{"android":"levelo://app?vid=bb6db8d3-97a4-4e3c-8177-f028a7d3343c","ios":"levelo://app?vid=bb6db8d3-97a4-4e3c-8177-f028a7d3343c"},"vehicle_type_id":"4","last_reported":1758416115,"current_range_meters":4800,"station_id":"ce4bhnh2rcd13ifvqgug","pricing_plan_id":"cebpf4jnsgd1na2vs0mg"},{"bike_id":"c9075a35-d30b-45cb-a6c8-51c65f36ab33","system_id":"levelo_inurba_marseille","lat":43.29788,"lon":5.38108,"is_reserved":false,"is_disabled":false,"rental_uris":{"android":"levelo://app?vid=c9075a35-d30b-45cb-a6c8-51c65f36ab33","ios":"levelo://app?vid=c9075a35-d30b-45cb-a6c8-51c65f36ab33"},"vehicle_type_id":"4","last_reported":1758416115,"current_range_meters":4800,"station_id":"ce4bgip2rcd13ifvqbb0","pricing_plan_id":"cebpf4jnsgd1na2vs0mg"},{"bike_id":"f0969ae7-74cf-48fc-b409-90270e7557a5","system_id":"levelo_inurba_marseille","lat":43.3031,"lon":5.39216,"is_reserved":false,"is_disabled":false,"rental_uris":{"android":"levelo://app?vid=f0969ae7-74cf-48fc-b409-90270e7557a5","ios":"levelo://app?vid=f0969ae7-74cf-48fc-b409-90270e7557a5"},"vehicle_type_id":"4","last_reported":1758416115,"current_range_meters":4800,"station_id":"ce4bgkh2rcd13ifvqbk0","pricing_plan_id":"cebpf4jnsgd1na2vs0mg"},{"bike_id":"aae94305-14de-4d77-aed3-cf696de9e3eb","system_id":"levelo_inurba_marseille","lat":43.30323,"lon":5.40441,"is_reserved":false,"is_disabled":false,"rental_uris":{"android":"levelo://app?vid=aae94305-14de-4d77-aed3-cf696de9e3eb","ios":"levelo://app?vid=aae94305-14de-4d77-aed3-cf696de9e3eb"},"vehicle_type_id":"4","last_reported":1758416115,"current_range_meters":4800,"station_id":"ce4bh012rcd13ifvqd10","pricing_plan_id":"cebpf4jnsgd1na2vs0mg"},{"bike_id":"f7dc1dca-56b8-4baa-8d6f-3340c0e08aab","system_id":"levelo_inurba_marseille","lat":43.313684,"lon":5.38511,"is_reserved":false,"is_disabled":false,"rental_uris":{"android":"levelo://app?vid=f7dc1dca-56b8-4baa-8d6f-3340c0e08aab","ios":"levelo://app?vid=f7dc1dca-56b8-4baa-8d6f-3340c0e08aab"},"vehicle_type_id":"4","last_reported":1758416115,"current_range_meters":5600,"station_id":"ce4bgt92rcd13ifvqcf0","pricing_plan_id":"cebpf4jnsgd1na2vs0mg"},{"bike_id":"6dc49f8f-31b8-485c-b489-e3fd253e6676","system_id":"levelo_inurba_marseille","lat":43.32682,"lon":5.40994,"is_reserved":false,"is_disabled":true,"rental_uris":{"android":"levelo://app?vid=6dc49f8f-31b8-485c-b489-e3fd253e6676","ios":"levelo://app?vid=6dc49f8f-31b8-485c-b489-e3fd253e6676"},"vehicle_type_id":"4","last_reported":1758416115,"current_range_meters":5600,"station_id":"ce4bhpp2rcd13ifvqhgg","pricing_plan_id":"cebpf4jnsgd1na2vs0mg"},{"bike_id":"3be3cba1-9d15-44a5-8106-2e40a75ecd9c","system_id":"levelo_inurba_marseille","lat":43.30939,"lon":5.40144,"is_reserved":false,"is_disabled":false,"rental_uris":{"android":"levelo://app?vid=3be3cba1-9d15-44a5-8106-2e40a75ecd9c","ios":"levelo://app?vid=3be3cba1-9d15-44a5-8106-2e40a75ecd9c"},"vehicle_type_id":"4","last_reported":1758416115,"current_range_meters":6000,"station_id":"ce4bgvp2rcd13ifvqct0","pricing_plan_id":"cebpf4jnsgd1na2vs0mg"},{"bike_id":"bf56b3f9-1f58-4c43-a376-7d5880956ccb","system_id":"levelo_inurba_marseille","lat":43.28405,"lon":5.37529,"is_reserved":false,"is_disabled":false,"rental_uris":{"android":"levelo://app?vid=bf56b3f9-1f58-4c43-a376-7d5880956ccb","ios":"levelo://app?vid=bf56b3f9-1f58-4c43-a376-7d5880956ccb"},"vehicle_type_id":"4","last_reported":1758416115,"current_range_meters":6000,"station_id":"ce4bh412rcd13ifvqds0","pricing_plan_id":"cebpf4jnsgd1na2vs0mg"},{"bike_id":"933c82a5-e287-4018-948b-ff3e6f77e238","system_id":"levelo_inurba_marseille","lat":43.3169,"lon":5.40477,"is_reserved":false,"is_disabled":false,"rental_uris":{"android":"levelo://app?vid=933c82a5-e287-4018-948b-ff3e6f77e238","ios":"levelo://app?vid=933c82a5-e287-4018-948b-ff3e6f77e238"},"vehicle_type_id":"4","last_reported":1758416115,"current_range_meters":6000,"station_id":"ce4bh012rcd13ifvqd00","pricing_plan_id":"cebpf4jnsgd1na2vs0mg"},{"bike_id":"913b549e-f807-431e-ba19-f71610c1ce40","system_id":"levelo_inurba_marseille","lat":43.28673,"lon":5.38657,"is_reserved":false,"is_disabled":false,"rental_uris":{"android":"levelo://app?vid=913b549e-f807-431e-ba19-f71610c1ce40","ios":"levelo://app?vid=913b549e-f807-431e-ba19-f71610c1ce40"},"vehicle_type_id":"4","last_reported":1758416115,"current_range_meters":6400,"station_id":"ce4bh492rcd13ifvqdug","pricing_plan_id":"cebpf4jnsgd1na2vs0mg"},{"bike_id":"3c9735e9-fd7e-4079-8199-725760347837","system_id":"levelo_inurba_marseille","lat":43.211924,"lon":5.350743,"is_reserved":false,"is_disabled":false,"rental_uris":{"android":"levelo://app?vid=3c9735e9-fd7e-4079-8199-725760347837","ios":"levelo://app?vid=3c9735e9-fd7e-4079-8199-725760347837"},"vehicle_type_id":"4","last_reported":1758416115,"current_range_meters":6400,"station_id":"st_cvj6sg6p6f1abm77japg","pricing_plan_id":"cebpf4jnsgd1na2vs0mg"},{"bike_id":"e1065c32-ac19-477b-812a-39f964d50769","system_id":"levelo_inurba_marseille","lat":43.23204,"lon":5.35547,"is_reserved":false,"is_disabled":true,"rental_uris":{"android":"levelo://app?vid=e1065c32-ac19-477b-812a-39f964d50769","ios":"levelo://app?vid=e1065c32-ac19-477b-812a-39f964d50769"},"vehicle_type_id":"4","last_reported":1758416115,"current_range_meters":6400,"station_id":"ce4bhu92rcd13ifvqi70","pricing_plan_id":"cebpf4jnsgd1na2vs0mg"},{"bike_id":"90e8324f-ab5a-4b51-81a5-e116e7955ae7","system_id":"levelo_inurba_marseille","lat":43.26593,"lon":5.37294,"is_reserved":false,"is_disabled":true,"rental_uris":{"android":"levelo://app?vid=90e8324f-ab5a-4b51-81a5-e116e7955ae7","ios":"levelo://app?vid=90e8324f-ab5a-4b51-81a5-e116e7955ae7"},"vehicle_type_id":"4","last_reported":1758416115,"current_range_meters":6400,"station_id":"ce4bhg12rcd13ifvqf70","pricing_plan_id":"cebpf4jnsgd1na2vs0mg"},{"bike_id":"e24ee6a7-4f11-44fd-8298-cdaf24581d21","system_id":"levelo_inurba_marseille","lat":43.24069,"lon":5.37759,"is_reserved":false,"is_disabled":false,"rental_uris":{"android":"levelo://app?vid=e24ee6a7-4f11-44fd-8298-cdaf24581d21","ios":"levelo://app?vid=e24ee6a7-4f11-44fd-8298-cdaf24581d21"},"vehicle_type_id":"4","last_reported":1758416115,"current_range_meters":6400,"station_id":"ce4bhnp2rcd13ifvqgvg","pricing_plan_id":"cebpf4jnsgd1na2vs0mg"},{"bike_id":"78a18b56-84dc-49f2-a9b1-5bbfde6eda3e","system_id":"levelo_inurba_marseille","lat":43.2998,"lon":5.38496,"is_reserved":false,"is_disabled":true,"rental_uris":{"android":"levelo://app?vid=78a18b56-84dc-49f2-a9b1-5bbfde6eda3e","ios":"levelo://app?vid=78a18b56-84dc-49f2-a9b1-5bbfde6eda3e"},"vehicle_type_id":"4","last_reported":1758416115,"current_range_meters":6400,"station_id":"ce4bgj92rcd13ifvqbd0","pricing_plan_id":"cebpf4jnsgd1na2vs0mg"},{"bike_id":"434619cd-8bc4-4ade-bfc4-062879abd7cd","system_id":"levelo_inurba_marseille","lat":43.27984,"lon":5.41646,"is_reserved":false,"is_disabled":false,"rental_uris":{"android":"levelo://app?vid=434619cd-8bc4-4ade-bfc4-062879abd7cd","ios":"levelo://app?vid=434619cd-8bc4-4ade-bfc4-062879abd7cd"},"vehicle_type_id":"4","last_reported":1758416115,"current_range_meters":6400,"station_id":"ce4bho12rcd13ifvqh1g","pricing_plan_id":"cebpf4jnsgd1na2vs0mg"},{"bike_id":"5bb42022-0e19-48bc-a5b4-218bb1d7482e","system_id":"levelo_inurba_marseille","lat":43.31255,"lon":5.37744,"is_reserved":false,"is_disabled":false,"rental_uris":{"android":"levelo://app?vid=5bb42022-0e19-48bc-a5b4-218bb1d7482e","ios":"levelo://app?vid=5bb42022-0e19-48bc-a5b4-218bb1d7482e"},"vehicle_type_id":"4","last_reported":1758416115,"current_range_meters":6400,"station_id":"","pricing_plan_id":"cebpf4jnsgd1na2vs0mg"},{"bike_id":"7f14281a-20c7-49b7-8fcc-cd77742b3738","system_id":"levelo_inurba_marseille","lat":43.28377,"lon":5.38644,"is_reserved":false,"is_disabled":false,"rental_uris":{"android":"levelo://app?vid=7f14281a-20c7-49b7-8fcc-cd77742b3738","ios":"levelo://app?vid=7f14281a-20c7-49b7-8fcc-cd77742b3738"},"vehicle_type_id":"4","last_reported":1758416115,"current_range_meters":6400,"station_id":"ce4bh492rcd13ifvqdvg","pricing_plan_id":"cebpf4jnsgd1na2vs0mg"},{"bike_id":"0960e3dd-c358-4474-bd10-8223758e1f6b","system_id":"levelo_inurba_marseille","lat":43.296996,"lon":5.376855,"is_reserved":false,"is_disabled":false,"rental_uris":{"android":"levelo://app?vid=0960e3dd-c358-4474-bd10-8223758e1f6b","ios":"levelo://app?vid=0960e3dd-c358-4474-bd10-8223758e1f6b"},"vehicle_type_id":"4","last_reported":1758416115,"current_range_meters":6400,"station_id":"","pricing_plan_id":"cebpf4jnsgd1na2vs0mg"},{"bike_id":"a0ce8ed9-70db-46be-8839-9a333663ae03","system_id":"levelo_inurba_marseille","lat":43.30295,"lon":5.39215,"is_reserved":false,"is_disabled":false,"rental_uris":{"android":"levelo://app?vid=a0ce8ed9-70db-46be-8839-9a333663ae03","ios":"levelo://app?vid=a0ce8ed9-70db-46be-8839-9a333663ae03"},"vehicle_type_id":"4","last_reported":1758416115,"current_range_meters":6800,"station_id":"ce4bgkh2rcd13ifvqbk0","pricing_plan_id":"cebpf4jnsgd1na2vs0mg"},{"bike_id":"ab5b9659-77bc-417b-8f8b-7002662fbf28","system_id":"levelo_inurba_marseille","lat":43.29332,"lon":5.41167,"is_reserved":false,"is_disabled":false,"rental_uris":{"android":"levelo://app?vid=ab5b9659-77bc-417b-8f8b-7002662fbf28","ios":"levelo://app?vid=ab5b9659-77bc-417b-8f8b-7002662fbf28"},"vehicle_type_id":"4","last_reported":1758416115,"current_range_meters":6800,"station_id":"","pricing_plan_id":"cebpf4jnsgd1na2vs0mg"},{"bike_id":"1dbc6ff6-de1e-44f5-9332-c8820f81075d","system_id":"levelo_inurba_marseille","lat":43.21188,"lon":5.35084,"is_reserved":false,"is_disabled":true,"rental_uris":{"android":"levelo://app?vid=1dbc6ff6-de1e-44f5-9332-c8820f81075d","ios":"levelo://app?vid=1dbc6ff6-de1e-44f5-9332-c8820f81075d"},"vehicle_type_id":"4","last_reported":1758416115,"current_range_meters":7200,"station_id":"st_cvj6sg6p6f1abm77japg","pricing_plan_id":"cebpf4jnsgd1na2vs0mg"},{"bike_id":"bf6fa26d-adc0-45ff-b931-523a4c439668","system_id":"levelo_inurba_marseille","lat":43.31888,"lon":5.40739,"is_reserved":false,"is_disabled":false,"rental_uris":{"android":"levelo://app?vid=bf6fa26d-adc0-45ff-b931-523a4c439668","ios":"levelo://app?vid=bf6fa26d-adc0-45ff-b931-523a4c439668"},"vehicle_type_id":"4","last_reported":1758416115,"current_range_meters":6800,"station_id":"ce4bhq12rcd13ifvqhig","pricing_plan_id":"cebpf4jnsgd1na2vs0mg"},{"bike_id":"c99baabd-a659-4707-ba94-29a5a2cc472c","system_id":"levelo_inurba_marseille","lat":43.28701,"lon":5.39999,"is_reserved":false,"is_disabled":false,"rental_uris":{"android":"levelo://app?vid=c99baabd-a659-4707-ba94-29a5a2cc472c","ios":"levelo://app?vid=c99baabd-a659-4707-ba94-29a5a2cc472c"},"vehicle_type_id":"4","last_reported":1758416115,"current_range_meters":8000,"station_id":"ce4bho92rcd13ifvqh3g","pricing_plan_id":"cebpf4jnsgd1na2vs0mg"},{"bike_id":"3082f593-a5a6-48f9-afa8-383813f7af0b","system_id":"levelo_inurba_marseille","lat":43.2174,"lon":5.34609,"is_reserved":false,"is_disabled":true,"rental_uris":{"android":"levelo://app?vid=3082f593-a5a6-48f9-afa8-383813f7af0b","ios":"levelo://app?vid=3082f593-a5a6-48f9-afa8-383813f7af0b"},"vehicle_type_id":"4","last_reported":1758416115,"current_range_meters":7200,"station_id":"st_cvj6r9ubvosntc0bgbag","pricing_plan_id":"cebpf4jnsgd1na2vs0mg"},{"bike_id":"378477c6-6aad-4766-98f5-567e84496f31","system_id":"levelo_inurba_marseille","lat":43.23191,"lon":5.39986,"is_reserved":false,"is_disabled":false,"rental_uris":{"android":"levelo://app?vid=378477c6-6aad-4766-98f5-567e84496f31","ios":"levelo://app?vid=378477c6-6aad-4766-98f5-567e84496f31"},"vehicle_type_id":"4","last_reported":1758416115,"current_range_meters":7200,"station_id":"ce4bhn12rcd13ifvqgqg","pricing_plan_id":"cebpf4jnsgd1na2vs0mg"},{"bike_id":"7142ea1d-5721-4bdd-aeaa-1aed118d8f91","system_id":"levelo_inurba_marseille","lat":43.30139,"lon":5.39881,"is_reserved":false,"is_disabled":false,"rental_uris":{"android":"levelo://app?vid=7142ea1d-5721-4bdd-aeaa-1aed118d8f91","ios":"levelo://app?vid=7142ea1d-5721-4bdd-aeaa-1aed118d8f91"},"vehicle_type_id":"4","last_reported":1758416115,"current_range_meters":7200,"station_id":"ce4bh0h2rcd13ifvqd40","pricing_plan_id":"cebpf4jnsgd1na2vs0mg"},{"bike_id":"c627b34a-8e81-4438-af3b-4fd0aab1c160","system_id":"levelo_inurba_marseille","lat":43.29661,"lon":5.360116,"is_reserved":false,"is_disabled":false,"rental_uris":{"android":"levelo://app?vid=c627b34a-8e81-4438-af3b-4fd0aab1c160","ios":"levelo://app?vid=c627b34a-8e81-4438-af3b-4fd0aab1c160"},"vehicle_type_id":"4","last_reported":1758416115,"current_range_meters":7200,"station_id":"","pricing_plan_id":"cebpf4jnsgd1na2vs0mg"},{"bike_id":"d899b497-d1e7-45e9-ab8c-fb30b9f22395","system_id":"levelo_inurba_marseille","lat":43.31345,"lon":5.38504,"is_reserved":false,"is_disabled":false,"rental_uris":{"android":"levelo://app?vid=d899b497-d1e7-45e9-ab8c-fb30b9f22395","ios":"levelo://app?vid=d899b497-d1e7-45e9-ab8c-fb30b9f22395"},"vehicle_type_id":"4","last_reported":1758416115,"current_range_meters":7200,"station_id":"ce4bgt92rcd13ifvqcf0","pricing_plan_id":"cebpf4jnsgd1na2vs0mg"},{"bike_id":"7dd65b1b-fb7b-4087-9803-34d477de11ae","system_id":"levelo_inurba_marseille","lat":43.21186,"lon":5.35062,"is_reserved":false,"is_disabled":false,"rental_uris":{"android":"levelo://app?vid=7dd65b1b-fb7b-4087-9803-34d477de11ae","ios":"levelo://app?vid=7dd65b1b-fb7b-4087-9803-34d477de11ae"},"vehicle_type_id":"4","last_reported":1758416115,"current_range_meters":8000,"station_id":"st_cvj6sg6p6f1abm77japg","pricing_plan_id":"cebpf4jnsgd1na2vs0mg"},{"bike_id":"ab7a8fdd-ad48-4fd5-abfd-ecb2615d4d39","system_id":"levelo_inurba_marseille","lat":43.32354,"lon":5.40631,"is_reserved":false,"is_disabled":false,"rental_uris":{"android":"levelo://app?vid=ab7a8fdd-ad48-4fd5-abfd-ecb2615d4d39","ios":"levelo://app?vid=ab7a8fdd-ad48-4fd5-abfd-ecb2615d4d39"},"vehicle_type_id":"4","last_reported":1758416115,"current_range_meters":8000,"station_id":"ce4bhq92rcd13ifvqhjg","pricing_plan_id":"cebpf4jnsgd1na2vs0mg"},{"bike_id":"b8c50051-7681-4761-a7fc-92b6b65d5a1e","system_id":"levelo_inurba_marseille","lat":43.25874,"lon":5.39897,"is_reserved":false,"is_disabled":false,"rental_uris":{"android":"levelo://app?vid=b8c50051-7681-4761-a7fc-92b6b65d5a1e","ios":"levelo://app?vid=b8c50051-7681-4761-a7fc-92b6b65d5a1e"},"vehicle_type_id":"4","last_reported":1758416115,"current_range_meters":7200,"station_id":"ce4bhl92rcd13ifvqghg","pricing_plan_id":"cebpf4jnsgd1na2vs0mg"},{"bike_id":"53264fdb-d3ce-412c-9b54-11908fde133c","system_id":"levelo_inurba_marseille","lat":43.258734,"lon":5.399207,"is_reserved":false,"is_disabled":true,"rental_uris":{"android":"levelo://app?vid=53264fdb-d3ce-412c-9b54-11908fde133c","ios":"levelo://app?vid=53264fdb-d3ce-412c-9b54-11908fde133c"},"vehicle_type_id":"4","last_reported":1758416115,"current_range_meters":8000,"station_id":"ce4bhl92rcd13ifvqghg","pricing_plan_id":"cebpf4jnsgd1na2vs0mg"},{"bike_id":"29c8734e-9e3a-4f2e-b576-69946ce05acc","system_id":"levelo_inurba_marseille","lat":43.310872,"lon":5.383627,"is_reserved":false,"is_disabled":false,"rental_uris":{"android":"levelo://app?vid=29c8734e-9e3a-4f2e-b576-69946ce05acc","ios":"levelo://app?vid=29c8734e-9e3a-4f2e-b576-69946ce05acc"},"vehicle_type_id":"4","last_reported":1758416115,"current_range_meters":8000,"station_id":"ce4bgv92rcd13ifvqcr0","pricing_plan_id":"cebpf4jnsgd1na2vs0mg"},{"bike_id":"fef4f526-738c-4bdf-9109-073dfefdd587","system_id":"levelo_inurba_marseille","lat":43.24045,"lon":5.3778,"is_reserved":false,"is_disabled":false,"rental_uris":{"android":"levelo://app?vid=fef4f526-738c-4bdf-9109-073dfefdd587","ios":"levelo://app?vid=fef4f526-738c-4bdf-9109-073dfefdd587"},"vehicle_type_id":"4","last_reported":1758416115,"current_range_meters":8000,"station_id":"ce4bhnp2rcd13ifvqgvg","pricing_plan_id":"cebpf4jnsgd1na2vs0mg"},{"bike_id":"b5c86a29-5a7b-4df7-86da-7e288561c551","system_id":"levelo_inurba_marseille","lat":43.29032,"lon":5.39958,"is_reserved":false,"is_disabled":false,"rental_uris":{"android":"levelo://app?vid=b5c86a29-5a7b-4df7-86da-7e288561c551","ios":"levelo://app?vid=b5c86a29-5a7b-4df7-86da-7e288561c551"},"vehicle_type_id":"4","last_reported":1758416115,"current_range_meters":8000,"station_id":"ce4bh392rcd13ifvqdm0","pricing_plan_id":"cebpf4jnsgd1na2vs0mg"},{"bike_id":"10bfb305-f08d-41b2-a5b0-7ba02a5eee29","system_id":"levelo_inurba_marseille","lat":43.27176,"lon":5.40997,"is_reserved":false,"is_disabled":false,"rental_uris":{"android":"levelo://app?vid=10bfb305-f08d-41b2-a5b0-7ba02a5eee29","ios":"levelo://app?vid=10bfb305-f08d-41b2-a5b0-7ba02a5eee29"},"vehicle_type_id":"4","last_reported":1758416115,"current_range_meters":8000,"station_id":"ce4bhl12rcd13ifvqgf0","pricing_plan_id":"cebpf4jnsgd1na2vs0mg"},{"bike_id":"12ed6c49-784d-4e90-9587-47eae4f126ab","system_id":"levelo_inurba_marseille","lat":43.21744,"lon":5.34604,"is_reserved":false,"is_disabled":true,"rental_uris":{"android":"levelo://app?vid=12ed6c49-784d-4e90-9587-47eae4f126ab","ios":"levelo://app?vid=12ed6c49-784d-4e90-9587-47eae4f126ab"},"vehicle_type_id":"4","last_reported":1758416115,"current_range_meters":8000,"station_id":"st_cvj6r9ubvosntc0bgbag","pricing_plan_id":"cebpf4jnsgd1na2vs0mg"},{"bike_id":"5a622093-c168-421d-adb4-a2950d0099e6","system_id":"levelo_inurba_marseille","lat":43.28094,"lon":5.39612,"is_reserved":false,"is_disabled":false,"rental_uris":{"android":"levelo://app?vid=5a622093-c168-421d-adb4-a2950d0099e6","ios":"levelo://app?vid=5a622093-c168-421d-adb4-a2950d0099e6"},"vehicle_type_id":"4","last_reported":1758416115,"current_range_meters":8400,"station_id":"ce4bho12rcd13ifvqh2g","pricing_plan_id":"cebpf4jnsgd1na2vs0mg"},{"bike_id":"fcb3f6af-c7d4-4ccc-be82-7f951e8865a2","system_id":"levelo_inurba_marseille","lat":43.21206,"lon":5.35049,"is_reserved":false,"is_disabled":false,"rental_uris":{"android":"levelo://app?vid=fcb3f6af-c7d4-4ccc-be82-7f951e8865a2","ios":"levelo://app?vid=fcb3f6af-c7d4-4ccc-be82-7f951e8865a2"},"vehicle_type_id":"4","last_reported":1758416115,"current_range_meters":8400,"station_id":"st_cvj6sg6p6f1abm77japg","pricing_plan_id":"cebpf4jnsgd1na2vs0mg"},{"bike_id":"58c6781c-1181-4ce1-b5d2-c279f083a5d9","system_id":"levelo_inurba_marseille","lat":43.30318,"lon":5.36894,"is_reserved":false,"is_disabled":false,"rental_uris":{"android":"levelo://app?vid=58c6781c-1181-4ce1-b5d2-c279f083a5d9","ios":"levelo://app?vid=58c6781c-1181-4ce1-b5d2-c279f083a5d9"},"vehicle_type_id":"4","last_reported":1758416115,"current_range_meters":8400,"station_id":"ce4bgqh2rcd13ifvqc5g","pricing_plan_id":"cebpf4jnsgd1na2vs0mg"},{"bike_id":"424ed69f-a806-4284-a87d-28316fda6e79","system_id":"levelo_inurba_marseille","lat":43.28164,"lon":5.42637,"is_reserved":false,"is_disabled":false,"rental_uris":{"android":"levelo://app?vid=424ed69f-a806-4284-a87d-28316fda6e79","ios":"levelo://app?vid=424ed69f-a806-4284-a87d-28316fda6e79"},"vehicle_type_id":"4","last_reported":1758416115,"current_range_meters":8400,"station_id":"ce4bhnh2rcd13ifvqgug","pricing_plan_id":"cebpf4jnsgd1na2vs0mg"},{"bike_id":"aef4fc58-2ae1-4ee0-a5d1-88290ee70a83","system_id":"levelo_inurba_marseille","lat":43.28687,"lon":5.40001,"is_reserved":false,"is_disabled":false,"rental_uris":{"android":"levelo://app?vid=aef4fc58-2ae1-4ee0-a5d1-88290ee70a83","ios":"levelo://app?vid=aef4fc58-2ae1-4ee0-a5d1-88290ee70a83"},"vehicle_type_id":"4","last_reported":1758416115,"current_range_meters":8400,"station_id":"ce4bho92rcd13ifvqh3g","pricing_plan_id":"cebpf4jnsgd1na2vs0mg"},{"bike_id":"8ebe3b3d-5723-4fa2-84d0-2bf3a80529f4","system_id":"levelo_inurba_marseille","lat":43.30602,"lon":5.37229,"is_reserved":false,"is_disabled":false,"rental_uris":{"android":"levelo://app?vid=8ebe3b3d-5723-4fa2-84d0-2bf3a80529f4","ios":"levelo://app?vid=8ebe3b3d-5723-4fa2-84d0-2bf3a80529f4"},"vehicle_type_id":"4","last_reported":1758416115,"current_range_meters":8400,"station_id":"ce4bgqh2rcd13ifvqc4g","pricing_plan_id":"cebpf4jnsgd1na2vs0mg"},{"bike_id":"37e1f6b1-cf86-4107-9a0b-9e12910128e5","system_id":"levelo_inurba_marseille","lat":43.30202,"lon":5.36639,"is_reserved":false,"is_disabled":true,"rental_uris":{"android":"levelo://app?vid=37e1f6b1-cf86-4107-9a0b-9e12910128e5","ios":"levelo://app?vid=37e1f6b1-cf86-4107-9a0b-9e12910128e5"},"vehicle_type_id":"4","last_reported":1758416115,"current_range_meters":8400,"station_id":"ce4bgrh2rcd13ifvqc8g","pricing_plan_id":"cebpf4jnsgd1na2vs0mg"},{"bike_id":"e9727ed7-ce6b-4637-9a41-d3e7ac1c9b78","system_id":"levelo_inurba_marseille","lat":43.28109,"lon":5.37865,"is_reserved":false,"is_disabled":false,"rental_uris":{"android":"levelo://app?vid=e9727ed7-ce6b-4637-9a41-d3e7ac1c9b78","ios":"levelo://app?vid=e9727ed7-ce6b-4637-9a41-d3e7ac1c9b78"},"vehicle_type_id":"4","last_reported":1758416115,"current_range_meters":8400,"station_id":"ce4bha12rcd13ifvqee0","pricing_plan_id":"cebpf4jnsgd1na2vs0mg"},{"bike_id":"dd539623-fc82-4cf4-be88-b71bea2ed7c1","system_id":"levelo_inurba_marseille","lat":43.27824,"lon":5.3921,"is_reserved":false,"is_disabled":false,"rental_uris":{"android":"levelo://app?vid=dd539623-fc82-4cf4-be88-b71bea2ed7c1","ios":"levelo://app?vid=dd539623-fc82-4cf4-be88-b71bea2ed7c1"},"vehicle_type_id":"4","last_reported":1758416115,"current_range_meters":8400,"station_id":"ce4bhjp2rcd13ifvqga0","pricing_plan_id":"cebpf4jnsgd1na2vs0mg"},{"bike_id":"575f379b-682e-45a6-a90b-e2da032a9ae0","system_id":"levelo_inurba_marseille","lat":43.21203,"lon":5.35061,"is_reserved":false,"is_disabled":false,"rental_uris":{"android":"levelo://app?vid=575f379b-682e-45a6-a90b-e2da032a9ae0","ios":"levelo://app?vid=575f379b-682e-45a6-a90b-e2da032a9ae0"},"vehicle_type_id":"4","last_reported":1758416115,"current_range_meters":8400,"station_id":"st_cvj6sg6p6f1abm77japg","pricing_plan_id":"cebpf4jnsgd1na2vs0mg"},{"bike_id":"6dc399d9-e82c-48dc-8e9b-3bc49b28ea21","system_id":"levelo_inurba_marseille","lat":43.3236,"lon":5.36719,"is_reserved":false,"is_disabled":false,"rental_uris":{"android":"levelo://app?vid=6dc399d9-e82c-48dc-8e9b-3bc49b28ea21","ios":"levelo://app?vid=6dc399d9-e82c-48dc-8e9b-3bc49b28ea21"},"vehicle_type_id":"4","last_reported":1758416115,"current_range_meters":8800,"station_id":"ce4bhsh2rcd13ifvqi2g","pricing_plan_id":"cebpf4jnsgd1na2vs0mg"},{"bike_id":"0064b370-873b-4c46-b3c5-971e521f7c7c","system_id":"levelo_inurba_marseille","lat":43.292906,"lon":5.374648,"is_reserved":false,"is_disabled":false,"rental_uris":{"android":"levelo://app?vid=0064b370-873b-4c46-b3c5-971e521f7c7c","ios":"levelo://app?vid=0064b370-873b-4c46-b3c5-971e521f7c7c"},"vehicle_type_id":"4","last_reported":1758416115,"current_range_meters":8800,"station_id":"","pricing_plan_id":"cebpf4jnsgd1na2vs0mg"},{"bike_id":"1ec2c9ee-599c-41dd-952b-4550e21655ba","system_id":"levelo_inurba_marseille","lat":43.31491,"lon":5.37304,"is_reserved":false,"is_disabled":false,"rental_uris":{"android":"levelo://app?vid=1ec2c9ee-599c-41dd-952b-4550e21655ba","ios":"levelo://app?vid=1ec2c9ee-599c-41dd-952b-4550e21655ba"},"vehicle_type_id":"4","last_reported":1758416115,"current_range_meters":8800,"station_id":"ce4bgt12rcd13ifvqcd0","pricing_plan_id":"cebpf4jnsgd1na2vs0mg"},{"bike_id":"e6f59a7f-e88f-4d65-bed3-135ed8be6983","system_id":"levelo_inurba_marseille","lat":43.32551,"lon":5.39103,"is_reserved":false,"is_disabled":true,"rental_uris":{"android":"levelo://app?vid=e6f59a7f-e88f-4d65-bed3-135ed8be6983","ios":"levelo://app?vid=e6f59a7f-e88f-4d65-bed3-135ed8be6983"},"vehicle_type_id":"4","last_reported":1758416115,"current_range_meters":8800,"station_id":"","pricing_plan_id":"cebpf4jnsgd1na2vs0mg"},{"bike_id":"617dca4b-4508-4d52-9e62-d583d919ac44","system_id":"levelo_inurba_marseille","lat":43.2975,"lon":5.37091,"is_reserved":false,"is_disabled":false,"rental_uris":{"android":"levelo://app?vid=617dca4b-4508-4d52-9e62-d583d919ac44","ios":"levelo://app?vid=617dca4b-4508-4d52-9e62-d583d919ac44"},"vehicle_type_id":"4","last_reported":1758416115,"current_range_meters":8800,"station_id":"ce4bgop2rcd13ifvqc1g","pricing_plan_id":"cebpf4jnsgd1na2vs0mg"},{"bike_id":"8ef3ec29-aa6e-4da6-a0b6-7b8011f6af66","system_id":"levelo_inurba_marseille","lat":43.30599,"lon":5.37186,"is_reserved":false,"is_disabled":false,"rental_uris":{"android":"levelo://app?vid=8ef3ec29-aa6e-4da6-a0b6-7b8011f6af66","ios":"levelo://app?vid=8ef3ec29-aa6e-4da6-a0b6-7b8011f6af66"},"vehicle_type_id":"4","last_reported":1758416115,"current_range_meters":8800,"station_id":"ce4bgqh2rcd13ifvqc4g","pricing_plan_id":"cebpf4jnsgd1na2vs0mg"},{"bike_id":"0319c100-5c9c-49b7-9f2a-421506d58186","system_id":"levelo_inurba_marseille","lat":43.32921,"lon":5.39052,"is_reserved":false,"is_disabled":true,"rental_uris":{"android":"levelo://app?vid=0319c100-5c9c-49b7-9f2a-421506d58186","ios":"levelo://app?vid=0319c100-5c9c-49b7-9f2a-421506d58186"},"vehicle_type_id":"4","last_reported":1758416115,"current_range_meters":8800,"station_id":"","pricing_plan_id":"cebpf4jnsgd1na2vs0mg"},{"bike_id":"342a202f-6e17-4424-8e62-b7d34fe97f1b","system_id":"levelo_inurba_marseille","lat":43.28704,"lon":5.39975,"is_reserved":false,"is_disabled":false,"rental_uris":{"android":"levelo://app?vid=342a202f-6e17-4424-8e62-b7d34fe97f1b","ios":"levelo://app?vid=342a202f-6e17-4424-8e62-b7d34fe97f1b"},"vehicle_type_id":"4","last_reported":1758416115,"current_range_meters":8800,"station_id":"ce4bho92rcd13ifvqh3g","pricing_plan_id":"cebpf4jnsgd1na2vs0mg"},{"bike_id":"fb995bc5-3894-4487-abcd-e5b9a8d3d3a0","system_id":"levelo_inurba_marseille","lat":43.24276,"lon":5.40264,"is_reserved":false,"is_disabled":false,"rental_uris":{"android":"levelo://app?vid=fb995bc5-3894-4487-abcd-e5b9a8d3d3a0","ios":"levelo://app?vid=fb995bc5-3894-4487-abcd-e5b9a8d3d3a0"},"vehicle_type_id":"4","last_reported":1758416115,"current_range_meters":9200,"station_id":"","pricing_plan_id":"cebpf4jnsgd1na2vs0mg"},{"bike_id":"5b84af94-a4d6-4b46-a63f-085ff5681f73","system_id":"levelo_inurba_marseille","lat":43.211921,"lon":5.350683,"is_reserved":false,"is_disabled":false,"rental_uris":{"android":"levelo://app?vid=5b84af94-a4d6-4b46-a63f-085ff5681f73","ios":"levelo://app?vid=5b84af94-a4d6-4b46-a63f-085ff5681f73"},"vehicle_type_id":"4","last_reported":1758416115,"current_range_meters":9200,"station_id":"st_cvj6sg6p6f1abm77japg","pricing_plan_id":"cebpf4jnsgd1na2vs0mg"},{"bike_id":"2f4ba3c4-d560-4d54-af01-9eafbd4f5950","system_id":"levelo_inurba_marseille","lat":43.24414,"lon":5.3702,"is_reserved":false,"is_disabled":true,"rental_uris":{"android":"levelo://app?vid=2f4ba3c4-d560-4d54-af01-9eafbd4f5950","ios":"levelo://app?vid=2f4ba3c4-d560-4d54-af01-9eafbd4f5950"},"vehicle_type_id":"4","last_reported":1758416115,"current_range_meters":9200,"station_id":"","pricing_plan_id":"cebpf4jnsgd1na2vs0mg"},{"bike_id":"833f0207-c19f-49b7-8769-8fae176a6b55","system_id":"levelo_inurba_marseille","lat":43.30784,"lon":5.37649,"is_reserved":false,"is_disabled":false,"rental_uris":{"android":"levelo://app?vid=833f0207-c19f-49b7-8769-8fae176a6b55","ios":"levelo://app?vid=833f0207-c19f-49b7-8769-8fae176a6b55"},"vehicle_type_id":"4","last_reported":1758416115,"current_range_meters":9200,"station_id":"ce4bgv92rcd13ifvqcq0","pricing_plan_id":"cebpf4jnsgd1na2vs0mg"},{"bike_id":"680846c6-2a73-4c7e-a4d3-d8928067490d","system_id":"levelo_inurba_marseille","lat":43.28574,"lon":5.39509,"is_reserved":false,"is_disabled":false,"rental_uris":{"android":"levelo://app?vid=680846c6-2a73-4c7e-a4d3-d8928067490d","ios":"levelo://app?vid=680846c6-2a73-4c7e-a4d3-d8928067490d"},"vehicle_type_id":"4","last_reported":1758416115,"current_range_meters":9600,"station_id":"ce4bh292rcd13ifvqdg0","pricing_plan_id":"cebpf4jnsgd1na2vs0mg"},{"bike_id":"9a7c3514-913e-4aab-a1ab-c6b5b42e80b4","system_id":"levelo_inurba_marseille","lat":43.29874,"lon":5.39731,"is_reserved":false,"is_disabled":false,"rental_uris":{"android":"levelo://app?vid=9a7c3514-913e-4aab-a1ab-c6b5b42e80b4","ios":"levelo://app?vid=9a7c3514-913e-4aab-a1ab-c6b5b42e80b4"},"vehicle_type_id":"4","last_reported":1758416115,"current_range_meters":9600,"station_id":"ce4bh0h2rcd13ifvqd50","pricing_plan_id":"cebpf4jnsgd1na2vs0mg"},{"bike_id":"5f1d9b2d-b3b8-417f-ad1f-7b1890b73985","system_id":"levelo_inurba_marseille","lat":43.29893,"lon":5.39739,"is_reserved":false,"is_disabled":false,"rental_uris":{"android":"levelo://app?vid=5f1d9b2d-b3b8-417f-ad1f-7b1890b73985","ios":"levelo://app?vid=5f1d9b2d-b3b8-417f-ad1f-7b1890b73985"},"vehicle_type_id":"4","last_reported":1758416115,"current_range_meters":9600,"station_id":"ce4bh0h2rcd13ifvqd50","pricing_plan_id":"cebpf4jnsgd1na2vs0mg"},{"bike_id":"de6a5ba2-3067-4cf6-9968-ac85470c4303","system_id":"levelo_inurba_marseille","lat":43.29879,"lon":5.39731,"is_reserved":false,"is_disabled":false,"rental_uris":{"android":"levelo://app?vid=de6a5ba2-3067-4cf6-9968-ac85470c4303","ios":"levelo://app?vid=de6a5ba2-3067-4cf6-9968-ac85470c4303"},"vehicle_type_id":"4","last_reported":1758416115,"current_range_meters":9600,"station_id":"ce4bh0h2rcd13ifvqd50","pricing_plan_id":"cebpf4jnsgd1na2vs0mg"},{"bike_id":"83e60ad1-3b2a-4f4c-9159-acc63ad0d1e4","system_id":"levelo_inurba_marseille","lat":43.31067,"lon":5.38352,"is_reserved":false,"is_disabled":false,"rental_uris":{"android":"levelo://app?vid=83e60ad1-3b2a-4f4c-9159-acc63ad0d1e4","ios":"levelo://app?vid=83e60ad1-3b2a-4f4c-9159-acc63ad0d1e4"},"vehicle_type_id":"4","last_reported":1758416115,"current_range_meters":9600,"station_id":"ce4bgv92rcd13ifvqcr0","pricing_plan_id":"cebpf4jnsgd1na2vs0mg"},{"bike_id":"c4706891-6ce1-4440-91ff-a3ecf2ff007e","system_id":"levelo_inurba_marseille","lat":43.26374,"lon":5.40075,"is_reserved":false,"is_disabled":false,"rental_uris":{"android":"levelo://app?vid=c4706891-6ce1-4440-91ff-a3ecf2ff007e","ios":"levelo://app?vid=c4706891-6ce1-4440-91ff-a3ecf2ff007e"},"vehicle_type_id":"4","last_reported":1758416115,"current_range_meters":9600,"station_id":"","pricing_plan_id":"cebpf4jnsgd1na2vs0mg"},{"bike_id":"98e8af00-4b83-49fb-a286-0d2396c92bd0","system_id":"levelo_inurba_marseille","lat":43.30912,"lon":5.36839,"is_reserved":false,"is_disabled":true,"rental_uris":{"android":"levelo://app?vid=98e8af00-4b83-49fb-a286-0d2396c92bd0","ios":"levelo://app?vid=98e8af00-4b83-49fb-a286-0d2396c92bd0"},"vehicle_type_id":"4","last_reported":1758416115,"current_range_meters":9600,"station_id":"ce4bgn92rcd13ifvqbvg","pricing_plan_id":"cebpf4jnsgd1na2vs0mg"},{"bike_id":"010458a0-a16e-4981-9836-0d81d702798a","system_id":"levelo_inurba_marseille","lat":43.27933,"lon":5.38724,"is_reserved":false,"is_disabled":false,"rental_uris":{"android":"levelo://app?vid=010458a0-a16e-4981-9836-0d81d702798a","ios":"levelo://app?vid=010458a0-a16e-4981-9836-0d81d702798a"},"vehicle_type_id":"4","last_reported":1758416115,"current_range_meters":9600,"station_id":"ce4bhg12rcd13ifvqf80","pricing_plan_id":"cebpf4jnsgd1na2vs0mg"},{"bike_id":"41d41162-c451-4e5f-8bcf-1c9a70c5510c","system_id":"levelo_inurba_marseille","lat":43.29583,"lon":5.37717,"is_reserved":false,"is_disabled":true,"rental_uris":{"android":"levelo://app?vid=41d41162-c451-4e5f-8bcf-1c9a70c5510c","ios":"levelo://app?vid=41d41162-c451-4e5f-8bcf-1c9a70c5510c"},"vehicle_type_id":"4","last_reported":1758416115,"current_range_meters":9600,"station_id":"","pricing_plan_id":"cebpf4jnsgd1na2vs0mg"},{"bike_id":"ce19734b-c251-4eaf-bf57-c69e821a93dd","system_id":"levelo_inurba_marseille","lat":43.28951,"lon":5.4654,"is_reserved":false,"is_disabled":false,"rental_uris":{"android":"levelo://app?vid=ce19734b-c251-4eaf-bf57-c69e821a93dd","ios":"levelo://app?vid=ce19734b-c251-4eaf-bf57-c69e821a93dd"},"vehicle_type_id":"4","last_reported":1758416115,"current_range_meters":9600,"station_id":"","pricing_plan_id":"cebpf4jnsgd1na2vs0mg"},{"bike_id":"2c3e6b97-cac2-42d0-a444-0058f0086241","system_id":"levelo_inurba_marseille","lat":43.21779,"lon":5.34612,"is_reserved":false,"is_disabled":false,"rental_uris":{"android":"levelo://app?vid=2c3e6b97-cac2-42d0-a444-0058f0086241","ios":"levelo://app?vid=2c3e6b97-cac2-42d0-a444-0058f0086241"},"vehicle_type_id":"4","last_reported":1758416115,"current_range_meters":10000,"station_id":"st_cvj6r9ubvosntc0bgbag","pricing_plan_id":"cebpf4jnsgd1na2vs0mg"},{"bike_id":"3116075e-fa9b-423b-beef-aeee538d6e30","system_id":"levelo_inurba_marseille","lat":43.21749,"lon":5.34602,"is_reserved":false,"is_disabled":true,"rental_uris":{"android":"levelo://app?vid=3116075e-fa9b-423b-beef-aeee538d6e30","ios":"levelo://app?vid=3116075e-fa9b-423b-beef-aeee538d6e30"},"vehicle_type_id":"4","last_reported":1758416115,"current_range_meters":10000,"station_id":"st_cvj6r9ubvosntc0bgbag","pricing_plan_id":"cebpf4jnsgd1na2vs0mg"},{"bike_id":"6aaeecc2-4358-473a-8df2-2552b4059b36","system_id":"levelo_inurba_marseille","lat":43.28665,"lon":5.36349,"is_reserved":false,"is_disabled":false,"rental_uris":{"android":"levelo://app?vid=6aaeecc2-4358-473a-8df2-2552b4059b36","ios":"levelo://app?vid=6aaeecc2-4358-473a-8df2-2552b4059b36"},"vehicle_type_id":"4","last_reported":1758416115,"current_range_meters":10000,"station_id":"ce4bhah2rcd13ifvqej0","pricing_plan_id":"cebpf4jnsgd1na2vs0mg"},{"bike_id":"b766d582-d4f0-4f9a-9867-0ae0b8177870","system_id":"levelo_inurba_marseille","lat":43.21202,"lon":5.35079,"is_reserved":false,"is_disabled":false,"rental_uris":{"android":"levelo://app?vid=b766d582-d4f0-4f9a-9867-0ae0b8177870","ios":"levelo://app?vid=b766d582-d4f0-4f9a-9867-0ae0b8177870"},"vehicle_type_id":"4","last_reported":1758416115,"current_range_meters":10000,"station_id":"st_cvj6sg6p6f1abm77japg","pricing_plan_id":"cebpf4jnsgd1na2vs0mg"},{"bike_id":"cb272545-e17b-4f37-acdb-6b5f9b57fb62","system_id":"levelo_inurba_marseille","lat":43.294191,"lon":5.397926,"is_reserved":false,"is_disabled":false,"rental_uris":{"android":"levelo://app?vid=cb272545-e17b-4f37-acdb-6b5f9b57fb62","ios":"levelo://app?vid=cb272545-e17b-4f37-acdb-6b5f9b57fb62"},"vehicle_type_id":"4","last_reported":1758416115,"current_range_meters":10000,"station_id":"ce4bh0h2rcd13ifvqd50","pricing_plan_id":"cebpf4jnsgd1na2vs0mg"},{"bike_id":"83774ab6-916a-4512-bbb6-fffff61e684e","system_id":"levelo_inurba_marseille","lat":43.29037,"lon":5.40002,"is_reserved":false,"is_disabled":false,"rental_uris":{"android":"levelo://app?vid=83774ab6-916a-4512-bbb6-fffff61e684e","ios":"levelo://app?vid=83774ab6-916a-4512-bbb6-fffff61e684e"},"vehicle_type_id":"4","last_reported":1758416115,"current_range_meters":10000,"station_id":"ce4bh392rcd13ifvqdm0","pricing_plan_id":"cebpf4jnsgd1na2vs0mg"},{"bike_id":"f8fd0178-d9ad-45fa-adc0-5ea22eef1f51","system_id":"levelo_inurba_marseille","lat":43.25114,"lon":5.40325,"is_reserved":false,"is_disabled":false,"rental_uris":{"android":"levelo://app?vid=f8fd0178-d9ad-45fa-adc0-5ea22eef1f51","ios":"levelo://app?vid=f8fd0178-d9ad-45fa-adc0-5ea22eef1f51"},"vehicle_type_id":"4","last_reported":1758416115,"current_range_meters":10000,"station_id":"ce4bhlh2rcd13ifvqgig","pricing_plan_id":"cebpf4jnsgd1na2vs0mg"},{"bike_id":"9adec78f-4ce1-4961-83d4-96661034cd9c","system_id":"levelo_inurba_marseille","lat":43.24084,"lon":5.41334,"is_reserved":false,"is_disabled":false,"rental_uris":{"android":"levelo://app?vid=9adec78f-4ce1-4961-83d4-96661034cd9c","ios":"levelo://app?vid=9adec78f-4ce1-4961-83d4-96661034cd9c"},"vehicle_type_id":"4","last_reported":1758416115,"current_range_meters":10000,"station_id":"","pricing_plan_id":"cebpf4jnsgd1na2vs0mg"},{"bike_id":"62360c41-94a2-4a1e-aa32-14467d45bc7e","system_id":"levelo_inurba_marseille","lat":43.30532,"lon":5.38424,"is_reserved":false,"is_disabled":false,"rental_uris":{"android":"levelo://app?vid=62360c41-94a2-4a1e-aa32-14467d45bc7e","ios":"levelo://app?vid=62360c41-94a2-4a1e-aa32-14467d45bc7e"},"vehicle_type_id":"4","last_reported":1758416115,"current_range_meters":10000,"station_id":"ce4bgg92rcd13ifvqb30","pricing_plan_id":"cebpf4jnsgd1na2vs0mg"},{"bike_id":"576f2039-00ac-4f2c-a68d-0faa97f37880","system_id":"levelo_inurba_marseille","lat":43.33178,"lon":5.39239,"is_reserved":false,"is_disabled":true,"rental_uris":{"android":"levelo://app?vid=576f2039-00ac-4f2c-a68d-0faa97f37880","ios":"levelo://app?vid=576f2039-00ac-4f2c-a68d-0faa97f37880"},"vehicle_type_id":"4","last_reported":1758416115,"current_range_meters":10800,"station_id":"","pricing_plan_id":"cebpf4jnsgd1na2vs0mg"},{"bike_id":"0ab92e09-6d84-4475-9e4f-24ff9cd07fd8","system_id":"levelo_inurba_marseille","lat":43.29583,"lon":5.39968,"is_reserved":false,"is_disabled":false,"rental_uris":{"android":"levelo://app?vid=0ab92e09-6d84-4475-9e4f-24ff9cd07fd8","ios":"levelo://app?vid=0ab92e09-6d84-4475-9e4f-24ff9cd07fd8"},"vehicle_type_id":"4","last_reported":1758416115,"current_range_meters":10800,"station_id":"ce4bh312rcd13ifvqdj0","pricing_plan_id":"cebpf4jnsgd1na2vs0mg"},{"bike_id":"e0350e70-2592-4f30-a29f-913a6972d66c","system_id":"levelo_inurba_marseille","lat":43.26235,"lon":5.40442,"is_reserved":false,"is_disabled":false,"rental_uris":{"android":"levelo://app?vid=e0350e70-2592-4f30-a29f-913a6972d66c","ios":"levelo://app?vid=e0350e70-2592-4f30-a29f-913a6972d66c"},"vehicle_type_id":"4","last_reported":1758416115,"current_range_meters":10800,"station_id":"ce4bhmh2rcd13ifvqgmg","pricing_plan_id":"cebpf4jnsgd1na2vs0mg"},{"bike_id":"0f7caa9f-1d1a-40d7-9b4a-2f8720e63681","system_id":"levelo_inurba_marseille","lat":43.308536,"lon":5.375231,"is_reserved":false,"is_disabled":false,"rental_uris":{"android":"levelo://app?vid=0f7caa9f-1d1a-40d7-9b4a-2f8720e63681","ios":"levelo://app?vid=0f7caa9f-1d1a-40d7-9b4a-2f8720e63681"},"vehicle_type_id":"4","last_reported":1758416115,"current_range_meters":11200,"station_id":"","pricing_plan_id":"cebpf4jnsgd1na2vs0mg"},{"bike_id":"8a4f6a43-d390-4a4b-85f5-1f2622d3c74c","system_id":"levelo_inurba_marseille","lat":43.303286,"lon":5.404368,"is_reserved":false,"is_disabled":false,"rental_uris":{"android":"levelo://app?vid=8a4f6a43-d390-4a4b-85f5-1f2622d3c74c","ios":"levelo://app?vid=8a4f6a43-d390-4a4b-85f5-1f2622d3c74c"},"vehicle_type_id":"4","last_reported":1758416115,"current_range_meters":11200,"station_id":"ce4bh012rcd13ifvqd10","pricing_plan_id":"cebpf4jnsgd1na2vs0mg"},{"bike_id":"07b24574-b684-4101-b819-b2da023512df","system_id":"levelo_inurba_marseille","lat":43.27423,"lon":5.39419,"is_reserved":false,"is_disabled":false,"rental_uris":{"android":"levelo://app?vid=07b24574-b684-4101-b819-b2da023512df","ios":"levelo://app?vid=07b24574-b684-4101-b819-b2da023512df"},"vehicle_type_id":"4","last_reported":1758416115,"current_range_meters":11200,"station_id":"ce4bhdp2rcd13ifvqf20","pricing_plan_id":"cebpf4jnsgd1na2vs0mg"},{"bike_id":"fc3a9302-cd4d-42bd-99df-a26d7e173220","system_id":"levelo_inurba_marseille","lat":43.29614,"lon":5.40594,"is_reserved":false,"is_disabled":false,"rental_uris":{"android":"levelo://app?vid=fc3a9302-cd4d-42bd-99df-a26d7e173220","ios":"levelo://app?vid=fc3a9302-cd4d-42bd-99df-a26d7e173220"},"vehicle_type_id":"4","last_reported":1758416115,"current_range_meters":11200,"station_id":"ce4bh0h2rcd13ifvqd60","pricing_plan_id":"cebpf4jnsgd1na2vs0mg"},{"bike_id":"a973a66e-acee-4dfa-8c7b-9e61cb6f7fa3","system_id":"levelo_inurba_marseille","lat":43.2956,"lon":5.39975,"is_reserved":false,"is_disabled":false,"rental_uris":{"android":"levelo://app?vid=a973a66e-acee-4dfa-8c7b-9e61cb6f7fa3","ios":"levelo://app?vid=a973a66e-acee-4dfa-8c7b-9e61cb6f7fa3"},"vehicle_type_id":"4","last_reported":1758416115,"current_range_meters":11200,"station_id":"ce4bh312rcd13ifvqdj0","pricing_plan_id":"cebpf4jnsgd1na2vs0mg"},{"bike_id":"c1843d42-9f15-4235-8c7f-0c60147cb155","system_id":"levelo_inurba_marseille","lat":43.21207,"lon":5.35064,"is_reserved":false,"is_disabled":false,"rental_uris":{"android":"levelo://app?vid=c1843d42-9f15-4235-8c7f-0c60147cb155","ios":"levelo://app?vid=c1843d42-9f15-4235-8c7f-0c60147cb155"},"vehicle_type_id":"4","last_reported":1758416115,"current_range_meters":11200,"station_id":"st_cvj6sg6p6f1abm77japg","pricing_plan_id":"cebpf4jnsgd1na2vs0mg"},{"bike_id":"be1d288a-4bd5-4641-8f1b-5e507a7feddc","system_id":"levelo_inurba_marseille","lat":43.24173,"lon":5.39717,"is_reserved":false,"is_disabled":false,"rental_uris":{"android":"levelo://app?vid=be1d288a-4bd5-4641-8f1b-5e507a7feddc","ios":"levelo://app?vid=be1d288a-4bd5-4641-8f1b-5e507a7feddc"},"vehicle_type_id":"4","last_reported":1758416115,"current_range_meters":11200,"station_id":"ce4bhn12rcd13ifvqgpg","pricing_plan_id":"cebpf4jnsgd1na2vs0mg"},{"bike_id":"213f818a-2fc2-423a-8734-2921a1895f7c","system_id":"levelo_inurba_marseille","lat":43.21202,"lon":5.35044,"is_reserved":false,"is_disabled":false,"rental_uris":{"android":"levelo://app?vid=213f818a-2fc2-423a-8734-2921a1895f7c","ios":"levelo://app?vid=213f818a-2fc2-423a-8734-2921a1895f7c"},"vehicle_type_id":"4","last_reported":1758416115,"current_range_meters":11600,"station_id":"st_cvj6sg6p6f1abm77japg","pricing_plan_id":"cebpf4jnsgd1na2vs0mg"},{"bike_id":"9637c146-59d7-436a-a4f3-e8022fe36949","system_id":"levelo_inurba_marseille","lat":43.211974,"lon":5.350738,"is_reserved":false,"is_disabled":false,"rental_uris":{"android":"levelo://app?vid=9637c146-59d7-436a-a4f3-e8022fe36949","ios":"levelo://app?vid=9637c146-59d7-436a-a4f3-e8022fe36949"},"vehicle_type_id":"4","last_reported":1758416115,"current_range_meters":11600,"station_id":"st_cvj6sg6p6f1abm77japg","pricing_plan_id":"cebpf4jnsgd1na2vs0mg"},{"bike_id":"55d1bc08-fd54-4a82-afc7-2adcaa7b1c4e","system_id":"levelo_inurba_marseille","lat":43.3006,"lon":5.3771,"is_reserved":false,"is_disabled":false,"rental_uris":{"android":"levelo://app?vid=55d1bc08-fd54-4a82-afc7-2adcaa7b1c4e","ios":"levelo://app?vid=55d1bc08-fd54-4a82-afc7-2adcaa7b1c4e"},"vehicle_type_id":"4","last_reported":1758416115,"current_range_meters":11600,"station_id":"","pricing_plan_id":"cebpf4jnsgd1na2vs0mg"},{"bike_id":"438ead59-de14-4fa0-a61d-03a70a4122ae","system_id":"levelo_inurba_marseille","lat":43.972789,"lon":4.891371,"is_reserved":false,"is_disabled":true,"rental_uris":{"android":"levelo://app?vid=438ead59-de14-4fa0-a61d-03a70a4122ae","ios":"levelo://app?vid=438ead59-de14-4fa0-a61d-03a70a4122ae"},"vehicle_type_id":"4","last_reported":1758416115,"current_range_meters":11600,"station_id":"","pricing_plan_id":"cebpf4jnsgd1na2vs0mg"},{"bike_id":"03d20523-b6e4-4e4b-a186-def3807322d9","system_id":"levelo_inurba_marseille","lat":43.23148,"lon":5.43724,"is_reserved":false,"is_disabled":false,"rental_uris":{"android":"levelo://app?vid=03d20523-b6e4-4e4b-a186-def3807322d9","ios":"levelo://app?vid=03d20523-b6e4-4e4b-a186-def3807322d9"},"vehicle_type_id":"4","last_reported":1758416115,"current_range_meters":11600,"station_id":"ce4bhmp2rcd13ifvqgog","pricing_plan_id":"cebpf4jnsgd1na2vs0mg"},{"bike_id":"37e51d46-edb7-4c38-9eba-29cdb1b1e477","system_id":"levelo_inurba_marseille","lat":43.26583,"lon":5.40313,"is_reserved":false,"is_disabled":false,"rental_uris":{"android":"levelo://app?vid=37e51d46-edb7-4c38-9eba-29cdb1b1e477","ios":"levelo://app?vid=37e51d46-edb7-4c38-9eba-29cdb1b1e477"},"vehicle_type_id":"4","last_reported":1758416115,"current_range_meters":12000,"station_id":"ce4bhmp2rcd13ifvqgng","pricing_plan_id":"cebpf4jnsgd1na2vs0mg"},{"bike_id":"d701ffb6-d985-42e1-8545-ee350fa0185e","system_id":"levelo_inurba_marseille","lat":43.28607,"lon":5.37072,"is_reserved":false,"is_disabled":true,"rental_uris":{"android":"levelo://app?vid=d701ffb6-d985-42e1-8545-ee350fa0185e","ios":"levelo://app?vid=d701ffb6-d985-42e1-8545-ee350fa0185e"},"vehicle_type_id":"4","last_reported":1758416115,"current_range_meters":12000,"station_id":"ce4bht12rcd13ifvqi60","pricing_plan_id":"cebpf4jnsgd1na2vs0mg"},{"bike_id":"1111df1a-8447-47b9-b45a-1a8e75c94295","system_id":"levelo_inurba_marseille","lat":43.31227,"lon":5.36864,"is_reserved":false,"is_disabled":false,"rental_uris":{"android":"levelo://app?vid=1111df1a-8447-47b9-b45a-1a8e75c94295","ios":"levelo://app?vid=1111df1a-8447-47b9-b45a-1a8e75c94295"},"vehicle_type_id":"4","last_reported":1758416115,"current_range_meters":11600,"station_id":"ce4bgl92rcd13ifvqbq0","pricing_plan_id":"cebpf4jnsgd1na2vs0mg"},{"bike_id":"ae5ccd80-2896-4733-9148-6522e9bbfe0c","system_id":"levelo_inurba_marseille","lat":43.22577,"lon":5.41625,"is_reserved":false,"is_disabled":true,"rental_uris":{"android":"levelo://app?vid=ae5ccd80-2896-4733-9148-6522e9bbfe0c","ios":"levelo://app?vid=ae5ccd80-2896-4733-9148-6522e9bbfe0c"},"vehicle_type_id":"4","last_reported":1758416115,"current_range_meters":12000,"station_id":"st_d2o4gvlbi1j2169b742g","pricing_plan_id":"cebpf4jnsgd1na2vs0mg"},{"bike_id":"f562ef08-1d0e-4025-a085-e1e53fc2cfc1","system_id":"levelo_inurba_marseille","lat":43.26929,"lon":5.38913,"is_reserved":false,"is_disabled":false,"rental_uris":{"android":"levelo://app?vid=f562ef08-1d0e-4025-a085-e1e53fc2cfc1","ios":"levelo://app?vid=f562ef08-1d0e-4025-a085-e1e53fc2cfc1"},"vehicle_type_id":"4","last_reported":1758416115,"current_range_meters":12000,"station_id":"ce4bhhh2rcd13ifvqfl0","pricing_plan_id":"cebpf4jnsgd1na2vs0mg"},{"bike_id":"b28536fb-1a1f-4c02-92d1-a68528fce61d","system_id":"levelo_inurba_marseille","lat":43.29299,"lon":5.37173,"is_reserved":false,"is_disabled":true,"rental_uris":{"android":"levelo://app?vid=b28536fb-1a1f-4c02-92d1-a68528fce61d","ios":"levelo://app?vid=b28536fb-1a1f-4c02-92d1-a68528fce61d"},"vehicle_type_id":"4","last_reported":1758416115,"current_range_meters":12000,"station_id":"ce4bgh92rcd13ifvqb40","pricing_plan_id":"cebpf4jnsgd1na2vs0mg"},{"bike_id":"97893650-9a0c-47e4-baee-ec60bbc1b06d","system_id":"levelo_inurba_marseille","lat":43.25704,"lon":5.41113,"is_reserved":false,"is_disabled":true,"rental_uris":{"android":"levelo://app?vid=97893650-9a0c-47e4-baee-ec60bbc1b06d","ios":"levelo://app?vid=97893650-9a0c-47e4-baee-ec60bbc1b06d"},"vehicle_type_id":"4","last_reported":1758416115,"current_range_meters":12000,"station_id":"ce4bhkp2rcd13ifvqgd0","pricing_plan_id":"cebpf4jnsgd1na2vs0mg"},{"bike_id":"04473c01-3817-413d-a70a-f93c9dab79e2","system_id":"levelo_inurba_marseille","lat":43.28211,"lon":5.39049,"is_reserved":false,"is_disabled":false,"rental_uris":{"android":"levelo://app?vid=04473c01-3817-413d-a70a-f93c9dab79e2","ios":"levelo://app?vid=04473c01-3817-413d-a70a-f93c9dab79e2"},"vehicle_type_id":"4","last_reported":1758416115,"current_range_meters":12000,"station_id":"ce4bhn92rcd13ifvqgsg","pricing_plan_id":"cebpf4jnsgd1na2vs0mg"},{"bike_id":"8e6747cf-b8c6-4cd7-bba9-81728939e96e","system_id":"levelo_inurba_marseille","lat":43.27822,"lon":5.40707,"is_reserved":false,"is_disabled":true,"rental_uris":{"android":"levelo://app?vid=8e6747cf-b8c6-4cd7-bba9-81728939e96e","ios":"levelo://app?vid=8e6747cf-b8c6-4cd7-bba9-81728939e96e"},"vehicle_type_id":"4","last_reported":1758416115,"current_range_meters":12000,"station_id":"ce4bhnh2rcd13ifvqgtg","pricing_plan_id":"cebpf4jnsgd1na2vs0mg"},{"bike_id":"a33a7d2b-3a19-4e17-8886-71256af367d3","system_id":"levelo_inurba_marseille","lat":43.28166,"lon":5.42666,"is_reserved":false,"is_disabled":true,"rental_uris":{"android":"levelo://app?vid=a33a7d2b-3a19-4e17-8886-71256af367d3","ios":"levelo://app?vid=a33a7d2b-3a19-4e17-8886-71256af367d3"},"vehicle_type_id":"4","last_reported":1758416115,"current_range_meters":12000,"station_id":"ce4bhnh2rcd13ifvqgug","pricing_plan_id":"cebpf4jnsgd1na2vs0mg"},{"bike_id":"305f2d5a-b2ea-4e09-8dff-5e22ceeccfe3","system_id":"levelo_inurba_marseille","lat":43.24068,"lon":5.37765,"is_reserved":false,"is_disabled":false,"rental_uris":{"android":"levelo://app?vid=305f2d5a-b2ea-4e09-8dff-5e22ceeccfe3","ios":"levelo://app?vid=305f2d5a-b2ea-4e09-8dff-5e22ceeccfe3"},"vehicle_type_id":"4","last_reported":1758416115,"current_range_meters":12000,"station_id":"ce4bhnp2rcd13ifvqgvg","pricing_plan_id":"cebpf4jnsgd1na2vs0mg"},{"bike_id":"2d82061a-a240-43d1-93a6-ab71cf777b3c","system_id":"levelo_inurba_marseille","lat":43.21211,"lon":5.35029,"is_reserved":false,"is_disabled":false,"rental_uris":{"android":"levelo://app?vid=2d82061a-a240-43d1-93a6-ab71cf777b3c","ios":"levelo://app?vid=2d82061a-a240-43d1-93a6-ab71cf777b3c"},"vehicle_type_id":"4","last_reported":1758416115,"current_range_meters":12000,"station_id":"","pricing_plan_id":"cebpf4jnsgd1na2vs0mg"},{"bike_id":"04be3ca2-5b59-45f1-85ca-59dc70428177","system_id":"levelo_inurba_marseille","lat":43.27659,"lon":5.38894,"is_reserved":false,"is_disabled":false,"rental_uris":{"android":"levelo://app?vid=04be3ca2-5b59-45f1-85ca-59dc70428177","ios":"levelo://app?vid=04be3ca2-5b59-45f1-85ca-59dc70428177"},"vehicle_type_id":"4","last_reported":1758416115,"current_range_meters":12000,"station_id":"ce4bhi12rcd13ifvqfo0","pricing_plan_id":"cebpf4jnsgd1na2vs0mg"},{"bike_id":"534ff5b4-9e83-493b-9063-104ef0af4212","system_id":"levelo_inurba_marseille","lat":43.27997,"lon":5.41658,"is_reserved":false,"is_disabled":true,"rental_uris":{"android":"levelo://app?vid=534ff5b4-9e83-493b-9063-104ef0af4212","ios":"levelo://app?vid=534ff5b4-9e83-493b-9063-104ef0af4212"},"vehicle_type_id":"4","last_reported":1758416115,"current_range_meters":12000,"station_id":"ce4bho12rcd13ifvqh1g","pricing_plan_id":"cebpf4jnsgd1na2vs0mg"},{"bike_id":"2015c1f2-c286-408a-b930-50d865ce0bb9","system_id":"levelo_inurba_marseille","lat":43.21195,"lon":5.35069,"is_reserved":false,"is_disabled":false,"rental_uris":{"android":"levelo://app?vid=2015c1f2-c286-408a-b930-50d865ce0bb9","ios":"levelo://app?vid=2015c1f2-c286-408a-b930-50d865ce0bb9"},"vehicle_type_id":"4","last_reported":1758416115,"current_range_meters":12000,"station_id":"st_cvj6sg6p6f1abm77japg","pricing_plan_id":"cebpf4jnsgd1na2vs0mg"},{"bike_id":"77414249-1f78-4b2e-aa29-789893ea1742","system_id":"levelo_inurba_marseille","lat":43.28161,"lon":5.42641,"is_reserved":false,"is_disabled":true,"rental_uris":{"android":"levelo://app?vid=77414249-1f78-4b2e-aa29-789893ea1742","ios":"levelo://app?vid=77414249-1f78-4b2e-aa29-789893ea1742"},"vehicle_type_id":"4","last_reported":1758416115,"current_range_meters":12400,"station_id":"ce4bhnh2rcd13ifvqgug","pricing_plan_id":"cebpf4jnsgd1na2vs0mg"},{"bike_id":"0dc3e816-c8c6-41f8-8144-bb26d31dc560","system_id":"levelo_inurba_marseille","lat":43.30255,"lon":5.40048,"is_reserved":false,"is_disabled":false,"rental_uris":{"android":"levelo://app?vid=0dc3e816-c8c6-41f8-8144-bb26d31dc560","ios":"levelo://app?vid=0dc3e816-c8c6-41f8-8144-bb26d31dc560"},"vehicle_type_id":"4","last_reported":1758416115,"current_range_meters":12400,"station_id":"ce4bgvh2rcd13ifvqcs0","pricing_plan_id":"cebpf4jnsgd1na2vs0mg"},{"bike_id":"8f90c6e9-c2a0-414b-a280-ed01b517d1e8","system_id":"levelo_inurba_marseille","lat":43.2118,"lon":5.35077,"is_reserved":false,"is_disabled":false,"rental_uris":{"android":"levelo://app?vid=8f90c6e9-c2a0-414b-a280-ed01b517d1e8","ios":"levelo://app?vid=8f90c6e9-c2a0-414b-a280-ed01b517d1e8"},"vehicle_type_id":"4","last_reported":1758416115,"current_range_meters":12400,"station_id":"st_cvj6sg6p6f1abm77japg","pricing_plan_id":"cebpf4jnsgd1na2vs0mg"},{"bike_id":"a83c5204-f13e-4dd6-9725-8b9b84a46b03","system_id":"levelo_inurba_marseille","lat":43.301427,"lon":5.374164,"is_reserved":false,"is_disabled":false,"rental_uris":{"android":"levelo://app?vid=a83c5204-f13e-4dd6-9725-8b9b84a46b03","ios":"levelo://app?vid=a83c5204-f13e-4dd6-9725-8b9b84a46b03"},"vehicle_type_id":"4","last_reported":1758416115,"current_range_meters":12400,"station_id":"ce4bgs92rcd13ifvqcc0","pricing_plan_id":"cebpf4jnsgd1na2vs0mg"},{"bike_id":"527cbfc9-ea8a-4822-bda0-e7e0d824b792","system_id":"levelo_inurba_marseille","lat":43.24683,"lon":5.38118,"is_reserved":false,"is_disabled":false,"rental_uris":{"android":"levelo://app?vid=527cbfc9-ea8a-4822-bda0-e7e0d824b792","ios":"levelo://app?vid=527cbfc9-ea8a-4822-bda0-e7e0d824b792"},"vehicle_type_id":"4","last_reported":1758416115,"current_range_meters":12400,"station_id":"ce4bhih2rcd13ifvqfr0","pricing_plan_id":"cebpf4jnsgd1na2vs0mg"},{"bike_id":"f9f31484-a498-486d-bc4c-930411a04cda","system_id":"levelo_inurba_marseille","lat":43.307448,"lon":5.382531,"is_reserved":false,"is_disabled":false,"rental_uris":{"android":"levelo://app?vid=f9f31484-a498-486d-bc4c-930411a04cda","ios":"levelo://app?vid=f9f31484-a498-486d-bc4c-930411a04cda"},"vehicle_type_id":"4","last_reported":1758416115,"current_range_meters":12400,"station_id":"ce4bhnp2rcd13ifvqgvg","pricing_plan_id":"cebpf4jnsgd1na2vs0mg"},{"bike_id":"0318f863-63b4-4244-83cb-60d052735719","system_id":"levelo_inurba_marseille","lat":43.31759,"lon":5.390133,"is_reserved":false,"is_disabled":false,"rental_uris":{"android":"levelo://app?vid=0318f863-63b4-4244-83cb-60d052735719","ios":"levelo://app?vid=0318f863-63b4-4244-83cb-60d052735719"},"vehicle_type_id":"4","last_reported":1758416115,"current_range_meters":12400,"station_id":"ce4bhqp2rcd13ifvqhng","pricing_plan_id":"cebpf4jnsgd1na2vs0mg"},{"bike_id":"a07a513e-e5a9-4481-8592-d991379bc662","system_id":"levelo_inurba_marseille","lat":43.337536,"lon":5.374536,"is_reserved":false,"is_disabled":false,"rental_uris":{"android":"levelo://app?vid=a07a513e-e5a9-4481-8592-d991379bc662","ios":"levelo://app?vid=a07a513e-e5a9-4481-8592-d991379bc662"},"vehicle_type_id":"4","last_reported":1758416115,"current_range_meters":12400,"station_id":"","pricing_plan_id":"cebpf4jnsgd1na2vs0mg"},{"bike_id":"68adab37-f5ad-4072-b58a-fe6c68285ca6","system_id":"levelo_inurba_marseille","lat":43.30622,"lon":5.37664,"is_reserved":false,"is_disabled":false,"rental_uris":{"android":"levelo://app?vid=68adab37-f5ad-4072-b58a-fe6c68285ca6","ios":"levelo://app?vid=68adab37-f5ad-4072-b58a-fe6c68285ca6"},"vehicle_type_id":"4","last_reported":1758416115,"current_range_meters":12800,"station_id":"","pricing_plan_id":"cebpf4jnsgd1na2vs0mg"},{"bike_id":"a2102b8c-b983-4410-9ad4-d6231edcc8e2","system_id":"levelo_inurba_marseille","lat":43.2963,"lon":5.40621,"is_reserved":false,"is_disabled":false,"rental_uris":{"android":"levelo://app?vid=a2102b8c-b983-4410-9ad4-d6231edcc8e2","ios":"levelo://app?vid=a2102b8c-b983-4410-9ad4-d6231edcc8e2"},"vehicle_type_id":"4","last_reported":1758416115,"current_range_meters":12800,"station_id":"ce4bh0h2rcd13ifvqd60","pricing_plan_id":"cebpf4jnsgd1na2vs0mg"},{"bike_id":"756431a8-6a91-4b40-a8df-bac3189e0971","system_id":"levelo_inurba_marseille","lat":43.30439,"lon":5.38885,"is_reserved":false,"is_disabled":false,"rental_uris":{"android":"levelo://app?vid=756431a8-6a91-4b40-a8df-bac3189e0971","ios":"levelo://app?vid=756431a8-6a91-4b40-a8df-bac3189e0971"},"vehicle_type_id":"4","last_reported":1758416115,"current_range_meters":12400,"station_id":"ce4bgk12rcd13ifvqbi0","pricing_plan_id":"cebpf4jnsgd1na2vs0mg"},{"bike_id":"223b7bd3-4e58-43fc-b261-f699c49e7071","system_id":"levelo_inurba_marseille","lat":43.29634,"lon":5.40602,"is_reserved":false,"is_disabled":false,"rental_uris":{"android":"levelo://app?vid=223b7bd3-4e58-43fc-b261-f699c49e7071","ios":"levelo://app?vid=223b7bd3-4e58-43fc-b261-f699c49e7071"},"vehicle_type_id":"4","last_reported":1758416115,"current_range_meters":12800,"station_id":"ce4bh0h2rcd13ifvqd60","pricing_plan_id":"cebpf4jnsgd1na2vs0mg"},{"bike_id":"08055d8b-db13-4299-8c3b-1c36e377430b","system_id":"levelo_inurba_marseille","lat":43.2789,"lon":5.39598,"is_reserved":false,"is_disabled":false,"rental_uris":{"android":"levelo://app?vid=08055d8b-db13-4299-8c3b-1c36e377430b","ios":"levelo://app?vid=08055d8b-db13-4299-8c3b-1c36e377430b"},"vehicle_type_id":"4","last_reported":1758416115,"current_range_meters":12800,"station_id":"ce4bhf92rcd13ifvqf40","pricing_plan_id":"cebpf4jnsgd1na2vs0mg"},{"bike_id":"40da998d-5b7b-4e1e-8082-499c93817e59","system_id":"levelo_inurba_marseille","lat":43.3053,"lon":5.38415,"is_reserved":false,"is_disabled":false,"rental_uris":{"android":"levelo://app?vid=40da998d-5b7b-4e1e-8082-499c93817e59","ios":"levelo://app?vid=40da998d-5b7b-4e1e-8082-499c93817e59"},"vehicle_type_id":"4","last_reported":1758416115,"current_range_meters":12800,"station_id":"ce4bgg92rcd13ifvqb30","pricing_plan_id":"cebpf4jnsgd1na2vs0mg"},{"bike_id":"16dc04c4-527f-4ff4-a401-a389234e7dea","system_id":"levelo_inurba_marseille","lat":43.3081,"lon":5.38152,"is_reserved":false,"is_disabled":false,"rental_uris":{"android":"levelo://app?vid=16dc04c4-527f-4ff4-a401-a389234e7dea","ios":"levelo://app?vid=16dc04c4-527f-4ff4-a401-a389234e7dea"},"vehicle_type_id":"4","last_reported":1758416115,"current_range_meters":12800,"station_id":"ce4bgt12rcd13ifvqce0","pricing_plan_id":"cebpf4jnsgd1na2vs0mg"},{"bike_id":"8b88c7d5-bd4c-4194-b68f-1706753fa852","system_id":"levelo_inurba_marseille","lat":43.29585,"lon":5.3996,"is_reserved":false,"is_disabled":false,"rental_uris":{"android":"levelo://app?vid=8b88c7d5-bd4c-4194-b68f-1706753fa852","ios":"levelo://app?vid=8b88c7d5-bd4c-4194-b68f-1706753fa852"},"vehicle_type_id":"4","last_reported":1758416115,"current_range_meters":12800,"station_id":"ce4bh312rcd13ifvqdj0","pricing_plan_id":"cebpf4jnsgd1na2vs0mg"},{"bike_id":"1c2ec2b3-5fa4-4dad-b085-89cc349ccb29","system_id":"levelo_inurba_marseille","lat":43.31703,"lon":5.42455,"is_reserved":false,"is_disabled":false,"rental_uris":{"android":"levelo://app?vid=1c2ec2b3-5fa4-4dad-b085-89cc349ccb29","ios":"levelo://app?vid=1c2ec2b3-5fa4-4dad-b085-89cc349ccb29"},"vehicle_type_id":"4","last_reported":1758416115,"current_range_meters":13600,"station_id":"","pricing_plan_id":"cebpf4jnsgd1na2vs0mg"},{"bike_id":"5319fae8-be79-4d87-b5d0-b333eba32d6a","system_id":"levelo_inurba_marseille","lat":43.21209,"lon":5.35055,"is_reserved":false,"is_disabled":false,"rental_uris":{"android":"levelo://app?vid=5319fae8-be79-4d87-b5d0-b333eba32d6a","ios":"levelo://app?vid=5319fae8-be79-4d87-b5d0-b333eba32d6a"},"vehicle_type_id":"4","last_reported":1758416115,"current_range_meters":13600,"station_id":"st_cvj6sg6p6f1abm77japg","pricing_plan_id":"cebpf4jnsgd1na2vs0mg"},{"bike_id":"f6d09edb-46c8-43ac-bc24-11a7161d11b8","system_id":"levelo_inurba_marseille","lat":43.31764,"lon":5.39005,"is_reserved":false,"is_disabled":false,"rental_uris":{"android":"levelo://app?vid=f6d09edb-46c8-43ac-bc24-11a7161d11b8","ios":"levelo://app?vid=f6d09edb-46c8-43ac-bc24-11a7161d11b8"},"vehicle_type_id":"4","last_reported":1758416115,"current_range_meters":13600,"station_id":"ce4bhqp2rcd13ifvqhng","pricing_plan_id":"cebpf4jnsgd1na2vs0mg"},{"bike_id":"28e12325-1bac-4433-9100-6c834d569a46","system_id":"levelo_inurba_marseille","lat":43.31507,"lon":5.37227,"is_reserved":false,"is_disabled":false,"rental_uris":{"android":"levelo://app?vid=28e12325-1bac-4433-9100-6c834d569a46","ios":"levelo://app?vid=28e12325-1bac-4433-9100-6c834d569a46"},"vehicle_type_id":"4","last_reported":1758416115,"current_range_meters":14000,"station_id":"ce4bgt12rcd13ifvqcd0","pricing_plan_id":"cebpf4jnsgd1na2vs0mg"},{"bike_id":"b3fe673d-5eb2-48b9-b30d-5bb54294d7e6","system_id":"levelo_inurba_marseille","lat":43.32286,"lon":5.3828,"is_reserved":false,"is_disabled":false,"rental_uris":{"android":"levelo://app?vid=b3fe673d-5eb2-48b9-b30d-5bb54294d7e6","ios":"levelo://app?vid=b3fe673d-5eb2-48b9-b30d-5bb54294d7e6"},"vehicle_type_id":"4","last_reported":1758416115,"current_range_meters":14000,"station_id":"ce4bhr12rcd13ifvqhqg","pricing_plan_id":"cebpf4jnsgd1na2vs0mg"},{"bike_id":"5d633773-c86d-4663-ae55-dfb6f9eda023","system_id":"levelo_inurba_marseille","lat":43.2593,"lon":5.40879,"is_reserved":false,"is_disabled":false,"rental_uris":{"android":"levelo://app?vid=5d633773-c86d-4663-ae55-dfb6f9eda023","ios":"levelo://app?vid=5d633773-c86d-4663-ae55-dfb6f9eda023"},"vehicle_type_id":"4","last_reported":1758416115,"current_range_meters":14000,"station_id":"","pricing_plan_id":"cebpf4jnsgd1na2vs0mg"},{"bike_id":"e86cce24-0f21-4e0d-a094-2ca607577906","system_id":"levelo_inurba_marseille","lat":43.30138,"lon":5.38789,"is_reserved":false,"is_disabled":true,"rental_uris":{"android":"levelo://app?vid=e86cce24-0f21-4e0d-a094-2ca607577906","ios":"levelo://app?vid=e86cce24-0f21-4e0d-a094-2ca607577906"},"vehicle_type_id":"4","last_reported":1758416115,"current_range_meters":14000,"station_id":"ce4bghh2rcd13ifvqb60","pricing_plan_id":"cebpf4jnsgd1na2vs0mg"},{"bike_id":"96ae9776-f373-4750-8939-6ad47e9c9436","system_id":"levelo_inurba_marseille","lat":43.28372,"lon":5.3863,"is_reserved":false,"is_disabled":false,"rental_uris":{"android":"levelo://app?vid=96ae9776-f373-4750-8939-6ad47e9c9436","ios":"levelo://app?vid=96ae9776-f373-4750-8939-6ad47e9c9436"},"vehicle_type_id":"4","last_reported":1758416115,"current_range_meters":14000,"station_id":"ce4bh492rcd13ifvqdvg","pricing_plan_id":"cebpf4jnsgd1na2vs0mg"},{"bike_id":"b4f4777e-542d-405b-814e-dc691700f4b6","system_id":"levelo_inurba_marseille","lat":43.27306,"lon":5.41594,"is_reserved":false,"is_disabled":false,"rental_uris":{"android":"levelo://app?vid=b4f4777e-542d-405b-814e-dc691700f4b6","ios":"levelo://app?vid=b4f4777e-542d-405b-814e-dc691700f4b6"},"vehicle_type_id":"4","last_reported":1758416115,"current_range_meters":14000,"station_id":"ce4bh312rcd13ifvqdj0","pricing_plan_id":"cebpf4jnsgd1na2vs0mg"},{"bike_id":"43d57fd4-047e-4ac8-97e5-ec9b96239472","system_id":"levelo_inurba_marseille","lat":43.331229,"lon":5.397584,"is_reserved":false,"is_disabled":false,"rental_uris":{"android":"levelo://app?vid=43d57fd4-047e-4ac8-97e5-ec9b96239472","ios":"levelo://app?vid=43d57fd4-047e-4ac8-97e5-ec9b96239472"},"vehicle_type_id":"4","last_reported":1758416115,"current_range_meters":14000,"station_id":"","pricing_plan_id":"cebpf4jnsgd1na2vs0mg"},{"bike_id":"d801b961-8b0f-429d-9d3e-817010448aec","system_id":"levelo_inurba_marseille","lat":43.337632,"lon":5.374376,"is_reserved":false,"is_disabled":false,"rental_uris":{"android":"levelo://app?vid=d801b961-8b0f-429d-9d3e-817010448aec","ios":"levelo://app?vid=d801b961-8b0f-429d-9d3e-817010448aec"},"vehicle_type_id":"4","last_reported":1758416115,"current_range_meters":14400,"station_id":"","pricing_plan_id":"cebpf4jnsgd1na2vs0mg"},{"bike_id":"9b5045ca-5efd-46ea-88d9-0d92c9d98956","system_id":"levelo_inurba_marseille","lat":43.29276,"lon":5.40127,"is_reserved":false,"is_disabled":false,"rental_uris":{"android":"levelo://app?vid=9b5045ca-5efd-46ea-88d9-0d92c9d98956","ios":"levelo://app?vid=9b5045ca-5efd-46ea-88d9-0d92c9d98956"},"vehicle_type_id":"4","last_reported":1758416115,"current_range_meters":14000,"station_id":"ce4bh312rcd13ifvqdk0","pricing_plan_id":"cebpf4jnsgd1na2vs0mg"},{"bike_id":"eaa4b818-5f73-43c6-b1a3-2bd219aca400","system_id":"levelo_inurba_marseille","lat":43.25333,"lon":5.42172,"is_reserved":false,"is_disabled":false,"rental_uris":{"android":"levelo://app?vid=eaa4b818-5f73-43c6-b1a3-2bd219aca400","ios":"levelo://app?vid=eaa4b818-5f73-43c6-b1a3-2bd219aca400"},"vehicle_type_id":"4","last_reported":1758416115,"current_range_meters":14400,"station_id":"st_d2m65c5bi1j21697t3ng","pricing_plan_id":"cebpf4jnsgd1na2vs0mg"},{"bike_id":"118b6d7e-3328-44e2-ae13-d04071b8c00f","system_id":"levelo_inurba_marseille","lat":43.21222,"lon":5.35058,"is_reserved":false,"is_disabled":false,"rental_uris":{"android":"levelo://app?vid=118b6d7e-3328-44e2-ae13-d04071b8c00f","ios":"levelo://app?vid=118b6d7e-3328-44e2-ae13-d04071b8c00f"},"vehicle_type_id":"4","last_reported":1758416115,"current_range_meters":14800,"station_id":"","pricing_plan_id":"cebpf4jnsgd1na2vs0mg"},{"bike_id":"7c7b8504-bc2f-4dbd-b6d3-366e97b21d2d","system_id":"levelo_inurba_marseille","lat":43.24805,"lon":5.37455,"is_reserved":false,"is_disabled":false,"rental_uris":{"android":"levelo://app?vid=7c7b8504-bc2f-4dbd-b6d3-366e97b21d2d","ios":"levelo://app?vid=7c7b8504-bc2f-4dbd-b6d3-366e97b21d2d"},"vehicle_type_id":"4","last_reported":1758416115,"current_range_meters":14800,"station_id":"ce4bhgh2rcd13ifvqfb0","pricing_plan_id":"cebpf4jnsgd1na2vs0mg"},{"bike_id":"aa202986-5333-440e-b56b-032d13dc556e","system_id":"levelo_inurba_marseille","lat":43.28856,"lon":5.39332,"is_reserved":false,"is_disabled":false,"rental_uris":{"android":"levelo://app?vid=aa202986-5333-440e-b56b-032d13dc556e","ios":"levelo://app?vid=aa202986-5333-440e-b56b-032d13dc556e"},"vehicle_type_id":"4","last_reported":1758416115,"current_range_meters":14800,"station_id":"ce4bh2p2rcd13ifvqdi0","pricing_plan_id":"cebpf4jnsgd1na2vs0mg"},{"bike_id":"d98ab950-1ed1-4c16-be5c-a8089f36e1f3","system_id":"levelo_inurba_marseille","lat":43.29435,"lon":5.39751,"is_reserved":false,"is_disabled":false,"rental_uris":{"android":"levelo://app?vid=d98ab950-1ed1-4c16-be5c-a8089f36e1f3","ios":"levelo://app?vid=d98ab950-1ed1-4c16-be5c-a8089f36e1f3"},"vehicle_type_id":"4","last_reported":1758416115,"current_range_meters":14800,"station_id":"ce4bh3h2rcd13ifvqdo0","pricing_plan_id":"cebpf4jnsgd1na2vs0mg"},{"bike_id":"394bbc81-dc66-4519-a76d-fc81a65cacf7","system_id":"levelo_inurba_marseille","lat":43.21211,"lon":5.35053,"is_reserved":false,"is_disabled":false,"rental_uris":{"android":"levelo://app?vid=394bbc81-dc66-4519-a76d-fc81a65cacf7","ios":"levelo://app?vid=394bbc81-dc66-4519-a76d-fc81a65cacf7"},"vehicle_type_id":"4","last_reported":1758416115,"current_range_meters":14800,"station_id":"st_cvj6sg6p6f1abm77japg","pricing_plan_id":"cebpf4jnsgd1na2vs0mg"},{"bike_id":"868da5c0-e3f6-4e9d-ae5c-80060e30d5de","system_id":"levelo_inurba_marseille","lat":43.25718,"lon":5.41114,"is_reserved":false,"is_disabled":false,"rental_uris":{"android":"levelo://app?vid=868da5c0-e3f6-4e9d-ae5c-80060e30d5de","ios":"levelo://app?vid=868da5c0-e3f6-4e9d-ae5c-80060e30d5de"},"vehicle_type_id":"4","last_reported":1758416115,"current_range_meters":14800,"station_id":"ce4bhkp2rcd13ifvqgd0","pricing_plan_id":"cebpf4jnsgd1na2vs0mg"},{"bike_id":"15609c4e-f589-422c-9a62-c8d2d4eb92fd","system_id":"levelo_inurba_marseille","lat":43.3301,"lon":5.38107,"is_reserved":false,"is_disabled":false,"rental_uris":{"android":"levelo://app?vid=15609c4e-f589-422c-9a62-c8d2d4eb92fd","ios":"levelo://app?vid=15609c4e-f589-422c-9a62-c8d2d4eb92fd"},"vehicle_type_id":"4","last_reported":1758416115,"current_range_meters":15200,"station_id":"","pricing_plan_id":"cebpf4jnsgd1na2vs0mg"},{"bike_id":"e86857f8-f405-4657-b145-ec58ed187087","system_id":"levelo_inurba_marseille","lat":43.31484,"lon":5.3881,"is_reserved":false,"is_disabled":false,"rental_uris":{"android":"levelo://app?vid=e86857f8-f405-4657-b145-ec58ed187087","ios":"levelo://app?vid=e86857f8-f405-4657-b145-ec58ed187087"},"vehicle_type_id":"4","last_reported":1758416115,"current_range_meters":15200,"station_id":"ce4bgt92rcd13ifvqcf0","pricing_plan_id":"cebpf4jnsgd1na2vs0mg"},{"bike_id":"2f7dca49-ea5d-40b5-90f9-f64ec5e56002","system_id":"levelo_inurba_marseille","lat":43.30168,"lon":5.37402,"is_reserved":false,"is_disabled":false,"rental_uris":{"android":"levelo://app?vid=2f7dca49-ea5d-40b5-90f9-f64ec5e56002","ios":"levelo://app?vid=2f7dca49-ea5d-40b5-90f9-f64ec5e56002"},"vehicle_type_id":"4","last_reported":1758416115,"current_range_meters":15200,"station_id":"ce4bgs92rcd13ifvqcc0","pricing_plan_id":"cebpf4jnsgd1na2vs0mg"},{"bike_id":"ad3b9a79-2fea-4743-a6da-194a3004707a","system_id":"levelo_inurba_marseille","lat":43.29376,"lon":5.37863,"is_reserved":false,"is_disabled":true,"rental_uris":{"android":"levelo://app?vid=ad3b9a79-2fea-4743-a6da-194a3004707a","ios":"levelo://app?vid=ad3b9a79-2fea-4743-a6da-194a3004707a"},"vehicle_type_id":"4","last_reported":1758416115,"current_range_meters":15200,"station_id":"ce4bgjh2rcd13ifvqbf0","pricing_plan_id":"cebpf4jnsgd1na2vs0mg"},{"bike_id":"eeec87e5-cf5d-42d3-ae1b-87fab4ed87be","system_id":"levelo_inurba_marseille","lat":43.31689,"lon":5.40479,"is_reserved":false,"is_disabled":false,"rental_uris":{"android":"levelo://app?vid=eeec87e5-cf5d-42d3-ae1b-87fab4ed87be","ios":"levelo://app?vid=eeec87e5-cf5d-42d3-ae1b-87fab4ed87be"},"vehicle_type_id":"4","last_reported":1758416115,"current_range_meters":15200,"station_id":"ce4bh012rcd13ifvqd00","pricing_plan_id":"cebpf4jnsgd1na2vs0mg"},{"bike_id":"473d6824-ada7-4877-8248-9f5084cb3cf2","system_id":"levelo_inurba_marseille","lat":43.2873,"lon":5.36067,"is_reserved":false,"is_disabled":false,"rental_uris":{"android":"levelo://app?vid=473d6824-ada7-4877-8248-9f5084cb3cf2","ios":"levelo://app?vid=473d6824-ada7-4877-8248-9f5084cb3cf2"},"vehicle_type_id":"4","last_reported":1758416115,"current_range_meters":15200,"station_id":"cki0cbj6b192h4jlfktg","pricing_plan_id":"cebpf4jnsgd1na2vs0mg"},{"bike_id":"5012c91b-a53c-4c5f-901c-26f9fc9d8566","system_id":"levelo_inurba_marseille","lat":43.31111,"lon":5.37806,"is_reserved":false,"is_disabled":false,"rental_uris":{"android":"levelo://app?vid=5012c91b-a53c-4c5f-901c-26f9fc9d8566","ios":"levelo://app?vid=5012c91b-a53c-4c5f-901c-26f9fc9d8566"},"vehicle_type_id":"4","last_reported":1758416115,"current_range_meters":16000,"station_id":"ce4bgt92rcd13ifvqcg0","pricing_plan_id":"cebpf4jnsgd1na2vs0mg"},{"bike_id":"7ce5fdda-700e-46b9-9bf0-f4b67d248c7b","system_id":"levelo_inurba_marseille","lat":43.28868,"lon":5.3933,"is_reserved":false,"is_disabled":false,"rental_uris":{"android":"levelo://app?vid=7ce5fdda-700e-46b9-9bf0-f4b67d248c7b","ios":"levelo://app?vid=7ce5fdda-700e-46b9-9bf0-f4b67d248c7b"},"vehicle_type_id":"4","last_reported":1758416115,"current_range_meters":16000,"station_id":"ce4bh2p2rcd13ifvqdi0","pricing_plan_id":"cebpf4jnsgd1na2vs0mg"},{"bike_id":"8aa5b788-3d94-452f-8a0e-8476ae6daeaa","system_id":"levelo_inurba_marseille","lat":43.29599,"lon":5.39989,"is_reserved":false,"is_disabled":false,"rental_uris":{"android":"levelo://app?vid=8aa5b788-3d94-452f-8a0e-8476ae6daeaa","ios":"levelo://app?vid=8aa5b788-3d94-452f-8a0e-8476ae6daeaa"},"vehicle_type_id":"4","last_reported":1758416115,"current_range_meters":16000,"station_id":"ce4bh312rcd13ifvqdj0","pricing_plan_id":"cebpf4jnsgd1na2vs0mg"},{"bike_id":"a5c5b295-b9cc-4e3e-beac-b7a58fa974a0","system_id":"levelo_inurba_marseille","lat":43.308003,"lon":5.381477,"is_reserved":false,"is_disabled":false,"rental_uris":{"android":"levelo://app?vid=a5c5b295-b9cc-4e3e-beac-b7a58fa974a0","ios":"levelo://app?vid=a5c5b295-b9cc-4e3e-beac-b7a58fa974a0"},"vehicle_type_id":"4","last_reported":1758416115,"current_range_meters":16000,"station_id":"ce4bgt12rcd13ifvqce0","pricing_plan_id":"cebpf4jnsgd1na2vs0mg"},{"bike_id":"52bbd47b-4667-4240-bad8-b00941193486","system_id":"levelo_inurba_marseille","lat":43.30329,"lon":5.40444,"is_reserved":false,"is_disabled":false,"rental_uris":{"android":"levelo://app?vid=52bbd47b-4667-4240-bad8-b00941193486","ios":"levelo://app?vid=52bbd47b-4667-4240-bad8-b00941193486"},"vehicle_type_id":"4","last_reported":1758416115,"current_range_meters":16000,"station_id":"ce4bh012rcd13ifvqd10","pricing_plan_id":"cebpf4jnsgd1na2vs0mg"},{"bike_id":"1100ecff-39eb-4b78-ba5e-a7252e2a0149","system_id":"levelo_inurba_marseille","lat":43.2989,"lon":5.39731,"is_reserved":false,"is_disabled":false,"rental_uris":{"android":"levelo://app?vid=1100ecff-39eb-4b78-ba5e-a7252e2a0149","ios":"levelo://app?vid=1100ecff-39eb-4b78-ba5e-a7252e2a0149"},"vehicle_type_id":"4","last_reported":1758416115,"current_range_meters":16000,"station_id":"ce4bh0h2rcd13ifvqd50","pricing_plan_id":"cebpf4jnsgd1na2vs0mg"},{"bike_id":"14ab75aa-9981-4348-8134-6f7226aff1c1","system_id":"levelo_inurba_marseille","lat":43.311772,"lon":5.387101,"is_reserved":false,"is_disabled":false,"rental_uris":{"android":"levelo://app?vid=14ab75aa-9981-4348-8134-6f7226aff1c1","ios":"levelo://app?vid=14ab75aa-9981-4348-8134-6f7226aff1c1"},"vehicle_type_id":"4","last_reported":1758416115,"current_range_meters":16000,"station_id":"ce4bgv12rcd13ifvqcp0","pricing_plan_id":"cebpf4jnsgd1na2vs0mg"},{"bike_id":"363d99e5-837c-43c8-abcc-c80ef2e2786a","system_id":"levelo_inurba_marseille","lat":43.211963,"lon":5.350777,"is_reserved":false,"is_disabled":false,"rental_uris":{"android":"levelo://app?vid=363d99e5-837c-43c8-abcc-c80ef2e2786a","ios":"levelo://app?vid=363d99e5-837c-43c8-abcc-c80ef2e2786a"},"vehicle_type_id":"4","last_reported":1758416115,"current_range_meters":16000,"station_id":"st_cvj6sg6p6f1abm77japg","pricing_plan_id":"cebpf4jnsgd1na2vs0mg"},{"bike_id":"8dadab2b-264e-4a48-8d67-2f57455b3e76","system_id":"levelo_inurba_marseille","lat":43.28948,"lon":5.37878,"is_reserved":false,"is_disabled":false,"rental_uris":{"android":"levelo://app?vid=8dadab2b-264e-4a48-8d67-2f57455b3e76","ios":"levelo://app?vid=8dadab2b-264e-4a48-8d67-2f57455b3e76"},"vehicle_type_id":"4","last_reported":1758416115,"current_range_meters":16000,"station_id":"ce4bh9p2rcd13ifvqed0","pricing_plan_id":"cebpf4jnsgd1na2vs0mg"},{"bike_id":"d2667e4e-8f97-413d-81b1-13a394c6285f","system_id":"levelo_inurba_marseille","lat":43.21764,"lon":5.34602,"is_reserved":false,"is_disabled":true,"rental_uris":{"android":"levelo://app?vid=d2667e4e-8f97-413d-81b1-13a394c6285f","ios":"levelo://app?vid=d2667e4e-8f97-413d-81b1-13a394c6285f"},"vehicle_type_id":"4","last_reported":1758416115,"current_range_meters":16000,"station_id":"st_cvj6r9ubvosntc0bgbag","pricing_plan_id":"cebpf4jnsgd1na2vs0mg"},{"bike_id":"73853280-6792-4bc1-9d5a-9bef8bee9679","system_id":"levelo_inurba_marseille","lat":43.30612,"lon":5.37243,"is_reserved":false,"is_disabled":false,"rental_uris":{"android":"levelo://app?vid=73853280-6792-4bc1-9d5a-9bef8bee9679","ios":"levelo://app?vid=73853280-6792-4bc1-9d5a-9bef8bee9679"},"vehicle_type_id":"4","last_reported":1758416115,"current_range_meters":16000,"station_id":"ce4bgqh2rcd13ifvqc4g","pricing_plan_id":"cebpf4jnsgd1na2vs0mg"},{"bike_id":"2371c2b3-85fd-4f10-b55f-e21574d364be","system_id":"levelo_inurba_marseille","lat":43.306448,"lon":5.400777,"is_reserved":false,"is_disabled":false,"rental_uris":{"android":"levelo://app?vid=2371c2b3-85fd-4f10-b55f-e21574d364be","ios":"levelo://app?vid=2371c2b3-85fd-4f10-b55f-e21574d364be"},"vehicle_type_id":"4","last_reported":1758416115,"current_range_meters":15200,"station_id":"ce4bh112rcd13ifvqda0","pricing_plan_id":"cebpf4jnsgd1na2vs0mg"},{"bike_id":"76bbf107-7ec5-4826-b296-ab629ecd14ab","system_id":"levelo_inurba_marseille","lat":43.29849,"lon":5.42088,"is_reserved":false,"is_disabled":false,"rental_uris":{"android":"levelo://app?vid=76bbf107-7ec5-4826-b296-ab629ecd14ab","ios":"levelo://app?vid=76bbf107-7ec5-4826-b296-ab629ecd14ab"},"vehicle_type_id":"4","last_reported":1758416115,"current_range_meters":16000,"station_id":"","pricing_plan_id":"cebpf4jnsgd1na2vs0mg"},{"bike_id":"aaf6f317-6d40-4cf9-abdb-2776478eaf09","system_id":"levelo_inurba_marseille","lat":43.278345,"lon":5.392124,"is_reserved":false,"is_disabled":false,"rental_uris":{"android":"levelo://app?vid=aaf6f317-6d40-4cf9-abdb-2776478eaf09","ios":"levelo://app?vid=aaf6f317-6d40-4cf9-abdb-2776478eaf09"},"vehicle_type_id":"4","last_reported":1758416115,"current_range_meters":16400,"station_id":"ce4bhjp2rcd13ifvqga0","pricing_plan_id":"cebpf4jnsgd1na2vs0mg"},{"bike_id":"a8e72e83-9768-4b0b-81f6-cec0c80a86eb","system_id":"levelo_inurba_marseille","lat":43.30771,"lon":5.37658,"is_reserved":false,"is_disabled":false,"rental_uris":{"android":"levelo://app?vid=a8e72e83-9768-4b0b-81f6-cec0c80a86eb","ios":"levelo://app?vid=a8e72e83-9768-4b0b-81f6-cec0c80a86eb"},"vehicle_type_id":"4","last_reported":1758416115,"current_range_meters":16400,"station_id":"ce4bgv92rcd13ifvqcq0","pricing_plan_id":"cebpf4jnsgd1na2vs0mg"},{"bike_id":"79740e6c-24b4-4958-a572-2fe5b2392dfc","system_id":"levelo_inurba_marseille","lat":43.28936,"lon":5.39627,"is_reserved":false,"is_disabled":false,"rental_uris":{"android":"levelo://app?vid=79740e6c-24b4-4958-a572-2fe5b2392dfc","ios":"levelo://app?vid=79740e6c-24b4-4958-a572-2fe5b2392dfc"},"vehicle_type_id":"4","last_reported":1758416115,"current_range_meters":16400,"station_id":"ce4bh3h2rcd13ifvqdn0","pricing_plan_id":"cebpf4jnsgd1na2vs0mg"},{"bike_id":"b8653ddb-0520-4531-9b45-6cfc33c8f53d","system_id":"levelo_inurba_marseille","lat":43.29176,"lon":5.3935,"is_reserved":false,"is_disabled":false,"rental_uris":{"android":"levelo://app?vid=b8653ddb-0520-4531-9b45-6cfc33c8f53d","ios":"levelo://app?vid=b8653ddb-0520-4531-9b45-6cfc33c8f53d"},"vehicle_type_id":"4","last_reported":1758416115,"current_range_meters":16400,"station_id":"","pricing_plan_id":"cebpf4jnsgd1na2vs0mg"},{"bike_id":"75cdae86-aa3c-46f9-92bf-f3662c1063cf","system_id":"levelo_inurba_marseille","lat":43.33732,"lon":5.39145,"is_reserved":false,"is_disabled":false,"rental_uris":{"android":"levelo://app?vid=75cdae86-aa3c-46f9-92bf-f3662c1063cf","ios":"levelo://app?vid=75cdae86-aa3c-46f9-92bf-f3662c1063cf"},"vehicle_type_id":"4","last_reported":1758416115,"current_range_meters":16400,"station_id":"ce4bhr92rcd13ifvqhsg","pricing_plan_id":"cebpf4jnsgd1na2vs0mg"},{"bike_id":"2fd48440-3a07-479e-abf6-739745bcf86a","system_id":"levelo_inurba_marseille","lat":43.279252,"lon":5.395695,"is_reserved":false,"is_disabled":false,"rental_uris":{"android":"levelo://app?vid=2fd48440-3a07-479e-abf6-739745bcf86a","ios":"levelo://app?vid=2fd48440-3a07-479e-abf6-739745bcf86a"},"vehicle_type_id":"4","last_reported":1758416115,"current_range_meters":16400,"station_id":"ce4bhf92rcd13ifvqf40","pricing_plan_id":"cebpf4jnsgd1na2vs0mg"},{"bike_id":"6d0ef348-fd86-4c26-9096-d229d04ea986","system_id":"levelo_inurba_marseille","lat":43.27906,"lon":5.40543,"is_reserved":false,"is_disabled":true,"rental_uris":{"android":"levelo://app?vid=6d0ef348-fd86-4c26-9096-d229d04ea986","ios":"levelo://app?vid=6d0ef348-fd86-4c26-9096-d229d04ea986"},"vehicle_type_id":"4","last_reported":1758416115,"current_range_meters":16400,"station_id":"","pricing_plan_id":"cebpf4jnsgd1na2vs0mg"},{"bike_id":"1d1dc5f6-3a53-4982-bcb6-c4f93b2323b4","system_id":"levelo_inurba_marseille","lat":43.26937,"lon":5.40254,"is_reserved":false,"is_disabled":false,"rental_uris":{"android":"levelo://app?vid=1d1dc5f6-3a53-4982-bcb6-c4f93b2323b4","ios":"levelo://app?vid=1d1dc5f6-3a53-4982-bcb6-c4f93b2323b4"},"vehicle_type_id":"4","last_reported":1758416115,"current_range_meters":16800,"station_id":"cjm6bp8fraef2m0cb0m0","pricing_plan_id":"cebpf4jnsgd1na2vs0mg"},{"bike_id":"1be0e12d-c982-4197-8e20-7fc42fd9f189","system_id":"levelo_inurba_marseille","lat":43.31335,"lon":5.39698,"is_reserved":false,"is_disabled":false,"rental_uris":{"android":"levelo://app?vid=1be0e12d-c982-4197-8e20-7fc42fd9f189","ios":"levelo://app?vid=1be0e12d-c982-4197-8e20-7fc42fd9f189"},"vehicle_type_id":"4","last_reported":1758416115,"current_range_meters":16800,"station_id":"ce4bgvp2rcd13ifvqcu0","pricing_plan_id":"cebpf4jnsgd1na2vs0mg"},{"bike_id":"a6c138d2-1a19-4ae6-bb9c-5e1b0cdabccf","system_id":"levelo_inurba_marseille","lat":43.304284,"lon":5.397479,"is_reserved":false,"is_disabled":false,"rental_uris":{"android":"levelo://app?vid=a6c138d2-1a19-4ae6-bb9c-5e1b0cdabccf","ios":"levelo://app?vid=a6c138d2-1a19-4ae6-bb9c-5e1b0cdabccf"},"vehicle_type_id":"4","last_reported":1758416115,"current_range_meters":16800,"station_id":"ce4bh092rcd13ifvqd20","pricing_plan_id":"cebpf4jnsgd1na2vs0mg"},{"bike_id":"9176512c-2cc1-4df2-a8e0-6be514fbcdbf","system_id":"levelo_inurba_marseille","lat":43.33748,"lon":5.37465,"is_reserved":false,"is_disabled":false,"rental_uris":{"android":"levelo://app?vid=9176512c-2cc1-4df2-a8e0-6be514fbcdbf","ios":"levelo://app?vid=9176512c-2cc1-4df2-a8e0-6be514fbcdbf"},"vehicle_type_id":"4","last_reported":1758416115,"current_range_meters":16800,"station_id":"","pricing_plan_id":"cebpf4jnsgd1na2vs0mg"},{"bike_id":"8256c3c5-29e1-4d6d-816d-98492f1b2555","system_id":"levelo_inurba_marseille","lat":43.27501,"lon":5.42461,"is_reserved":false,"is_disabled":false,"rental_uris":{"android":"levelo://app?vid=8256c3c5-29e1-4d6d-816d-98492f1b2555","ios":"levelo://app?vid=8256c3c5-29e1-4d6d-816d-98492f1b2555"},"vehicle_type_id":"4","last_reported":1758416115,"current_range_meters":16800,"station_id":"ce4bhn92rcd13ifvqgrg","pricing_plan_id":"cebpf4jnsgd1na2vs0mg"},{"bike_id":"144844b5-ed18-4402-a94e-2a591ce2060d","system_id":"levelo_inurba_marseille","lat":43.29633,"lon":5.40596,"is_reserved":false,"is_disabled":false,"rental_uris":{"android":"levelo://app?vid=144844b5-ed18-4402-a94e-2a591ce2060d","ios":"levelo://app?vid=144844b5-ed18-4402-a94e-2a591ce2060d"},"vehicle_type_id":"4","last_reported":1758416115,"current_range_meters":16800,"station_id":"ce4bh0h2rcd13ifvqd60","pricing_plan_id":"cebpf4jnsgd1na2vs0mg"},{"bike_id":"1f41fd1e-481b-4ece-9473-0c8205774c6a","system_id":"levelo_inurba_marseille","lat":43.302041,"lon":5.394666,"is_reserved":false,"is_disabled":false,"rental_uris":{"android":"levelo://app?vid=1f41fd1e-481b-4ece-9473-0c8205774c6a","ios":"levelo://app?vid=1f41fd1e-481b-4ece-9473-0c8205774c6a"},"vehicle_type_id":"4","last_reported":1758416115,"current_range_meters":16800,"station_id":"ce4bh0p2rcd13ifvqd70","pricing_plan_id":"cebpf4jnsgd1na2vs0mg"},{"bike_id":"4e4fc69a-c63f-4a1b-a3b0-f2658cf42660","system_id":"levelo_inurba_marseille","lat":43.28937,"lon":5.36643,"is_reserved":false,"is_disabled":false,"rental_uris":{"android":"levelo://app?vid=4e4fc69a-c63f-4a1b-a3b0-f2658cf42660","ios":"levelo://app?vid=4e4fc69a-c63f-4a1b-a3b0-f2658cf42660"},"vehicle_type_id":"4","last_reported":1758416115,"current_range_meters":16800,"station_id":"ce4bhap2rcd13ifvqek0","pricing_plan_id":"cebpf4jnsgd1na2vs0mg"},{"bike_id":"42c1e3b5-cd4f-44be-97c7-686a42288c4e","system_id":"levelo_inurba_marseille","lat":43.25118,"lon":5.40317,"is_reserved":false,"is_disabled":false,"rental_uris":{"android":"levelo://app?vid=42c1e3b5-cd4f-44be-97c7-686a42288c4e","ios":"levelo://app?vid=42c1e3b5-cd4f-44be-97c7-686a42288c4e"},"vehicle_type_id":"4","last_reported":1758416115,"current_range_meters":17600,"station_id":"ce4bhlh2rcd13ifvqgig","pricing_plan_id":"cebpf4jnsgd1na2vs0mg"},{"bike_id":"831c242d-c4b7-4153-bce5-fe29d0c2ebd6","system_id":"levelo_inurba_marseille","lat":43.30646,"lon":5.40088,"is_reserved":false,"is_disabled":false,"rental_uris":{"android":"levelo://app?vid=831c242d-c4b7-4153-bce5-fe29d0c2ebd6","ios":"levelo://app?vid=831c242d-c4b7-4153-bce5-fe29d0c2ebd6"},"vehicle_type_id":"4","last_reported":1758416115,"current_range_meters":16800,"station_id":"ce4bh112rcd13ifvqda0","pricing_plan_id":"cebpf4jnsgd1na2vs0mg"},{"bike_id":"7391a95b-b97f-4660-99f8-3b5379473595","system_id":"levelo_inurba_marseille","lat":43.31172,"lon":5.38713,"is_reserved":false,"is_disabled":false,"rental_uris":{"android":"levelo://app?vid=7391a95b-b97f-4660-99f8-3b5379473595","ios":"levelo://app?vid=7391a95b-b97f-4660-99f8-3b5379473595"},"vehicle_type_id":"4","last_reported":1758416115,"current_range_meters":16800,"station_id":"ce4bgv12rcd13ifvqcp0","pricing_plan_id":"cebpf4jnsgd1na2vs0mg"},{"bike_id":"8472537e-1c56-4ad0-9319-fc4172d3678d","system_id":"levelo_inurba_marseille","lat":43.28274,"lon":5.35076,"is_reserved":false,"is_disabled":false,"rental_uris":{"android":"levelo://app?vid=8472537e-1c56-4ad0-9319-fc4172d3678d","ios":"levelo://app?vid=8472537e-1c56-4ad0-9319-fc4172d3678d"},"vehicle_type_id":"4","last_reported":1758416115,"current_range_meters":16800,"station_id":"ce4bhbp2rcd13ifvqerg","pricing_plan_id":"cebpf4jnsgd1na2vs0mg"},{"bike_id":"e87d6980-e9e3-437e-8b60-62ab4717f899","system_id":"levelo_inurba_marseille","lat":43.30909,"lon":5.39648,"is_reserved":false,"is_disabled":false,"rental_uris":{"android":"levelo://app?vid=e87d6980-e9e3-437e-8b60-62ab4717f899","ios":"levelo://app?vid=e87d6980-e9e3-437e-8b60-62ab4717f899"},"vehicle_type_id":"4","last_reported":1758416115,"current_range_meters":16800,"station_id":"ce4bh012rcd13ifvqcv0","pricing_plan_id":"cebpf4jnsgd1na2vs0mg"},{"bike_id":"4458ae60-615c-493d-85a6-ff9da04ecc4a","system_id":"levelo_inurba_marseille","lat":43.25111,"lon":5.40319,"is_reserved":false,"is_disabled":false,"rental_uris":{"android":"levelo://app?vid=4458ae60-615c-493d-85a6-ff9da04ecc4a","ios":"levelo://app?vid=4458ae60-615c-493d-85a6-ff9da04ecc4a"},"vehicle_type_id":"4","last_reported":1758416115,"current_range_meters":17200,"station_id":"ce4bhlh2rcd13ifvqgig","pricing_plan_id":"cebpf4jnsgd1na2vs0mg"},{"bike_id":"a14e4aba-8ea8-4fd8-a01d-0001201db749","system_id":"levelo_inurba_marseille","lat":43.28702,"lon":5.39982,"is_reserved":false,"is_disabled":false,"rental_uris":{"android":"levelo://app?vid=a14e4aba-8ea8-4fd8-a01d-0001201db749","ios":"levelo://app?vid=a14e4aba-8ea8-4fd8-a01d-0001201db749"},"vehicle_type_id":"4","last_reported":1758416115,"current_range_meters":17200,"station_id":"ce4bho92rcd13ifvqh3g","pricing_plan_id":"cebpf4jnsgd1na2vs0mg"},{"bike_id":"176a31c4-a17c-44ec-bbf6-50f8985ee1fc","system_id":"levelo_inurba_marseille","lat":43.25341,"lon":5.42159,"is_reserved":false,"is_disabled":false,"rental_uris":{"android":"levelo://app?vid=176a31c4-a17c-44ec-bbf6-50f8985ee1fc","ios":"levelo://app?vid=176a31c4-a17c-44ec-bbf6-50f8985ee1fc"},"vehicle_type_id":"4","last_reported":1758416115,"current_range_meters":17200,"station_id":"st_d2m65c5bi1j21697t3ng","pricing_plan_id":"cebpf4jnsgd1na2vs0mg"},{"bike_id":"f581ccb4-ae4a-44ef-9aee-8da2f62ff531","system_id":"levelo_inurba_marseille","lat":43.31244,"lon":5.36824,"is_reserved":false,"is_disabled":false,"rental_uris":{"android":"levelo://app?vid=f581ccb4-ae4a-44ef-9aee-8da2f62ff531","ios":"levelo://app?vid=f581ccb4-ae4a-44ef-9aee-8da2f62ff531"},"vehicle_type_id":"4","last_reported":1758416115,"current_range_meters":17200,"station_id":"ce4bgl92rcd13ifvqbq0","pricing_plan_id":"cebpf4jnsgd1na2vs0mg"},{"bike_id":"162483fb-058a-43f7-a272-15e63e78b5bc","system_id":"levelo_inurba_marseille","lat":43.21774,"lon":5.34611,"is_reserved":false,"is_disabled":true,"rental_uris":{"android":"levelo://app?vid=162483fb-058a-43f7-a272-15e63e78b5bc","ios":"levelo://app?vid=162483fb-058a-43f7-a272-15e63e78b5bc"},"vehicle_type_id":"4","last_reported":1758416115,"current_range_meters":17200,"station_id":"st_cvj6r9ubvosntc0bgbag","pricing_plan_id":"cebpf4jnsgd1na2vs0mg"},{"bike_id":"97e78d58-9da6-4d2e-a8a7-97799dd1fee2","system_id":"levelo_inurba_marseille","lat":43.29886,"lon":5.39741,"is_reserved":false,"is_disabled":false,"rental_uris":{"android":"levelo://app?vid=97e78d58-9da6-4d2e-a8a7-97799dd1fee2","ios":"levelo://app?vid=97e78d58-9da6-4d2e-a8a7-97799dd1fee2"},"vehicle_type_id":"4","last_reported":1758416115,"current_range_meters":17200,"station_id":"ce4bh0h2rcd13ifvqd50","pricing_plan_id":"cebpf4jnsgd1na2vs0mg"},{"bike_id":"f3805ac9-2ab6-41f8-b374-0887d951860e","system_id":"levelo_inurba_marseille","lat":43.21753,"lon":5.34604,"is_reserved":false,"is_disabled":true,"rental_uris":{"android":"levelo://app?vid=f3805ac9-2ab6-41f8-b374-0887d951860e","ios":"levelo://app?vid=f3805ac9-2ab6-41f8-b374-0887d951860e"},"vehicle_type_id":"4","last_reported":1758416115,"current_range_meters":17200,"station_id":"st_cvj6r9ubvosntc0bgbag","pricing_plan_id":"cebpf4jnsgd1na2vs0mg"},{"bike_id":"a329363e-972b-428b-836e-51e3b2893c70","system_id":"levelo_inurba_marseille","lat":43.21218,"lon":5.35077,"is_reserved":false,"is_disabled":false,"rental_uris":{"android":"levelo://app?vid=a329363e-972b-428b-836e-51e3b2893c70","ios":"levelo://app?vid=a329363e-972b-428b-836e-51e3b2893c70"},"vehicle_type_id":"4","last_reported":1758416115,"current_range_meters":17200,"station_id":"st_cvj6sg6p6f1abm77japg","pricing_plan_id":"cebpf4jnsgd1na2vs0mg"},{"bike_id":"a3a4206e-9698-40c4-99a7-c2a694b15382","system_id":"levelo_inurba_marseille","lat":43.25945,"lon":5.40923,"is_reserved":false,"is_disabled":false,"rental_uris":{"android":"levelo://app?vid=a3a4206e-9698-40c4-99a7-c2a694b15382","ios":"levelo://app?vid=a3a4206e-9698-40c4-99a7-c2a694b15382"},"vehicle_type_id":"4","last_reported":1758416115,"current_range_meters":17200,"station_id":"ce4bhm92rcd13ifvqglg","pricing_plan_id":"cebpf4jnsgd1na2vs0mg"},{"bike_id":"a8a56f6a-e200-4c08-a984-317cae1616a2","system_id":"levelo_inurba_marseille","lat":43.30328,"lon":5.40432,"is_reserved":false,"is_disabled":false,"rental_uris":{"android":"levelo://app?vid=a8a56f6a-e200-4c08-a984-317cae1616a2","ios":"levelo://app?vid=a8a56f6a-e200-4c08-a984-317cae1616a2"},"vehicle_type_id":"4","last_reported":1758416115,"current_range_meters":17200,"station_id":"ce4bh012rcd13ifvqd10","pricing_plan_id":"cebpf4jnsgd1na2vs0mg"},