{"last_updated":1731514271,"ttl":60,"version":"2.2","data":{"bikes":[{"bike_id":"55b04875-7318-4f13-95a9-e5447c755b3c","system_id":"levelo_inurba_marseille","lat":43.26487,"lon":5.39555,"is_reserved":false,"is_disabled":false,"rental_uris":{"android":"levelo://app?vid=55b04875-7318-4f13-95a9-e5447c755b3c","ios":"levelo://app?vid=55b04875-7318-4f13-95a9-e5447c755b3c"},"vehicle_type_id":"4","last_reported":1731514271,"current_range_meters":37600,"station_id":"ce4bhi12rcd13ifvqfq0","pricing_plan_id":"cebpf4jnsgd1na2vs0mg"},{"bike_id":"10798d81-6297-494a-a774-ebf40d0e6f5e","system_id":"levelo_inurba_marseille","lat":43.30546,"lon":5.36708,"is_reserved":false,"is_disabled":false,"rental_uris":{"android":"levelo://app?vid=10798d81-6297-494a-a774-ebf40d0e6f5e","ios":"levelo://app?vid=10798d81-6297-494a-a774-ebf40d0e6f5e"},"vehicle_type_id":"4","last_reported":1731514271,"current_range_meters":38800,"station_id":"ce4bgrp2rcd13ifvqc9g","pricing_plan_id":"cebpf4jnsgd1na2vs0mg"},{"bike_id":"a8b5795a-f92a-4c99-951c-d3c4edb74e83","system_id":"levelo_inurba_marseille","lat":43.28455,"lon":5.35894,"is_reserved":false,"is_disabled":false,"rental_uris":{"android":"levelo://app?vid=a8b5795a-f92a-4c99-951c-d3c4edb74e83","ios":"levelo://app?vid=a8b5795a-f92a-4c99-951c-d3c4edb74e83"},"vehicle_type_id":"4","last_reported":1731514271,"current_range_meters":38400,"station_id":"ce4bhah2rcd13ifvqei0","pricing_plan_id":"cebpf4jnsgd1na2vs0mg"},{"bike_id":"ffc978ae-090c-40b3-8a9b-c7be13af4125","system_id":"levelo_inurba_marseille","lat":43.25503,"lon":5.37656,"is_reserved":false,"is_disabled":false,"rental_uris":{"android":"levelo://app?vid=ffc978ae-090c-40b3-8a9b-c7be13af4125","ios":"levelo://app?vid=ffc978ae-090c-40b3-8a9b-c7be13af4125"},"vehicle_type_id":"4","last_reported":1731514271,"current_range_meters":8400,"station_id":"ce4bhh12rcd13ifvqff0","pricing_plan_id":"cebpf4jnsgd1na2vs0mg"},{"bike_id":"cf07e6a2-944b-46f0-8606-e616c4cf7e18","system_id":"levelo_inurba_marseille","lat":43.27211,"lon":5.39189,"is_reserved":false,"is_disabled":false,"rental_uris":{"android":"levelo://app?vid=cf07e6a2-944b-46f0-8606-e616c4cf7e18","ios":"levelo://app?vid=cf07e6a2-944b-46f0-8606-e616c4cf7e18"},"vehicle_type_id":"4","last_reported":1731514271,"current_range_meters":20800,"station_id":"ce4bhhp2rcd13ifvqfm0","pricing_plan_id":"cebpf4jnsgd1na2vs0mg"},{"bike_id":"bedf6820-0ebf-4806-bb8d-ea17f6472a3c","system_id":"levelo_inurba_marseille","lat":43.31753,"lon":5.39023,"is_reserved":false,"is_disabled":false,"rental_uris":{"android":"levelo://app?vid=bedf6820-0ebf-4806-bb8d-ea17f6472a3c","ios":"levelo://app?vid=bedf6820-0ebf-4806-bb8d-ea17f6472a3c"},"vehicle_type_id":"4","last_reported":1731514271,"current_range_meters":39200,"station_id":"ce4bhqp2rcd13ifvqhng","pricing_plan_id":"cebpf4jnsgd1na2vs0mg"},{"bike_id":"ef956137-c15a-40f5-9620-3bc3f9e6b276","system_id":"levelo_inurba_marseille","lat":43.30138,"lon":5.38789,"is_reserved":false,"is_disabled":false,"rental_uris":{"android":"levelo://app?vid=ef956137-c15a-40f5-9620-3bc3f9e6b276","ios":"levelo://app?vid=ef956137-c15a-40f5-9620-3bc3f9e6b276"},"vehicle_type_id":"4","last_reported":1731514271,"current_range_meters":38400,"station_id":"ce4bghh2rcd13ifvqb60","pricing_plan_id":"cebpf4jnsgd1na2vs0mg"},{"bike_id":"088a3263-5d69-4cb5-b3d1-8ff94f70ae58","system_id":"levelo_inurba_marseille","lat":43.27996,"lon":5.4003,"is_reserved":false,"is_disabled":false,"rental_uris":{"android":"levelo://app?vid=088a3263-5d69-4cb5-b3d1-8ff94f70ae58","ios":"levelo://app?vid=088a3263-5d69-4cb5-b3d1-8ff94f70ae58"},"vehicle_type_id":"4","last_reported":1731514271,"current_range_meters":11200,"station_id":"ce4bho92rcd13ifvqh4g","pricing_plan_id":"cebpf4jnsgd1na2vs0mg"},{"bike_id":"bd2eb3fe-9d55-40f6-883a-a9efbcbed0ae","system_id":"levelo_inurba_marseille","lat":43.26804,"lon":5.4028,"is_reserved":false,"is_disabled":false,"rental_uris":{"android":"levelo://app?vid=bd2eb3fe-9d55-40f6-883a-a9efbcbed0ae","ios":"levelo://app?vid=bd2eb3fe-9d55-40f6-883a-a9efbcbed0ae"},"vehicle_type_id":"4","last_reported":1731514271,"current_range_meters":19600,"station_id":"ce501612rcd8frsf0b60","pricing_plan_id":"cebpf4jnsgd1na2vs0mg"},{"bike_id":"4dcf22e6-a3a5-4fd7-b7ec-2c480fc2bda6","system_id":"levelo_inurba_marseille","lat":43.28464,"lon":5.35902,"is_reserved":false,"is_disabled":false,"rental_uris":{"android":"levelo://app?vid=4dcf22e6-a3a5-4fd7-b7ec-2c480fc2bda6","ios":"levelo://app?vid=4dcf22e6-a3a5-4fd7-b7ec-2c480fc2bda6"},"vehicle_type_id":"4","last_reported":1731514271,"current_range_meters":12000,"station_id":"ce4bhah2rcd13ifvqei0","pricing_plan_id":"cebpf4jnsgd1na2vs0mg"},{"bike_id":"ef678a22-5597-415e-8629-0d443d735e1c","system_id":"levelo_inurba_marseille","lat":43.30604,"lon":5.3722,"is_reserved":false,"is_disabled":false,"rental_uris":{"android":"levelo://app?vid=ef678a22-5597-415e-8629-0d443d735e1c","ios":"levelo://app?vid=ef678a22-5597-415e-8629-0d443d735e1c"},"vehicle_type_id":"4","last_reported":1731514271,"current_range_meters":32400,"station_id":"ce4bgqh2rcd13ifvqc4g","pricing_plan_id":"cebpf4jnsgd1na2vs0mg"},{"bike_id":"0b942ed8-fbd0-47eb-aca2-23553ed1cd02","system_id":"levelo_inurba_marseille","lat":43.26796,"lon":5.40256,"is_reserved":false,"is_disabled":false,"rental_uris":{"android":"levelo://app?vid=0b942ed8-fbd0-47eb-aca2-23553ed1cd02","ios":"levelo://app?vid=0b942ed8-fbd0-47eb-aca2-23553ed1cd02"},"vehicle_type_id":"4","last_reported":1731514271,"current_range_meters":19200,"station_id":"ce501612rcd8frsf0b60","pricing_plan_id":"cebpf4jnsgd1na2vs0mg"},{"bike_id":"2b77ea48-f154-494b-bb35-96db3c70a022","system_id":"levelo_inurba_marseille","lat":43.29306,"lon":5.37469,"is_reserved":false,"is_disabled":false,"rental_uris":{"android":"levelo://app?vid=2b77ea48-f154-494b-bb35-96db3c70a022","ios":"levelo://app?vid=2b77ea48-f154-494b-bb35-96db3c70a022"},"vehicle_type_id":"4","last_reported":1731514271,"current_range_meters":26000,"station_id":"ce4bgi12rcd13ifvqb70","pricing_plan_id":"cebpf4jnsgd1na2vs0mg"},{"bike_id":"e79d1699-f291-458a-8a12-8175f359f7c7","system_id":"levelo_inurba_marseille","lat":43.307892,"lon":5.396299,"is_reserved":false,"is_disabled":false,"rental_uris":{"android":"levelo://app?vid=e79d1699-f291-458a-8a12-8175f359f7c7","ios":"levelo://app?vid=e79d1699-f291-458a-8a12-8175f359f7c7"},"vehicle_type_id":"4","last_reported":1731514271,"current_range_meters":33200,"station_id":"ce4bh012rcd13ifvqcv0","pricing_plan_id":"cebpf4jnsgd1na2vs0mg"},{"bike_id":"6c6efd01-2baa-4fc1-bbe8-248b6fd676ad","system_id":"levelo_inurba_marseille","lat":43.29992,"lon":5.37182,"is_reserved":false,"is_disabled":false,"rental_uris":{"android":"levelo://app?vid=6c6efd01-2baa-4fc1-bbe8-248b6fd676ad","ios":"levelo://app?vid=6c6efd01-2baa-4fc1-bbe8-248b6fd676ad"},"vehicle_type_id":"4","last_reported":1731514271,"current_range_meters":36800,"station_id":"ce4bgr92rcd13ifvqc7g","pricing_plan_id":"cebpf4jnsgd1na2vs0mg"},{"bike_id":"4a74f469-1d99-48ee-a8ca-9199898c00a4","system_id":"levelo_inurba_marseille","lat":43.23197,"lon":5.35553,"is_reserved":false,"is_disabled":false,"rental_uris":{"android":"levelo://app?vid=4a74f469-1d99-48ee-a8ca-9199898c00a4","ios":"levelo://app?vid=4a74f469-1d99-48ee-a8ca-9199898c00a4"},"vehicle_type_id":"4","last_reported":1731514271,"current_range_meters":26000,"station_id":"ce4bhu92rcd13ifvqi70","pricing_plan_id":"cebpf4jnsgd1na2vs0mg"},{"bike_id":"77849bd5-5bfe-4445-8191-82da714d15fa","system_id":"levelo_inurba_marseille","lat":43.27808,"lon":5.4072,"is_reserved":false,"is_disabled":false,"rental_uris":{"android":"levelo://app?vid=77849bd5-5bfe-4445-8191-82da714d15fa","ios":"levelo://app?vid=77849bd5-5bfe-4445-8191-82da714d15fa"},"vehicle_type_id":"4","last_reported":1731514271,"current_range_meters":36800,"station_id":"ce4bhnh2rcd13ifvqgtg","pricing_plan_id":"cebpf4jnsgd1na2vs0mg"},{"bike_id":"545ea6d4-3761-4239-87b8-d2da201effaf","system_id":"levelo_inurba_marseille","lat":43.25118,"lon":5.40321,"is_reserved":false,"is_disabled":false,"rental_uris":{"android":"levelo://app?vid=545ea6d4-3761-4239-87b8-d2da201effaf","ios":"levelo://app?vid=545ea6d4-3761-4239-87b8-d2da201effaf"},"vehicle_type_id":"4","last_reported":1731514271,"current_range_meters":6800,"station_id":"ce4bhlh2rcd13ifvqgig","pricing_plan_id":"cebpf4jnsgd1na2vs0mg"},{"bike_id":"baeed238-b5b4-482c-9e5c-2accf4da025a","system_id":"levelo_inurba_marseille","lat":43.28034,"lon":5.36944,"is_reserved":false,"is_disabled":false,"rental_uris":{"android":"levelo://app?vid=baeed238-b5b4-482c-9e5c-2accf4da025a","ios":"levelo://app?vid=baeed238-b5b4-482c-9e5c-2accf4da025a"},"vehicle_type_id":"4","last_reported":1731514271,"current_range_meters":28800,"station_id":"ce4bha12rcd13ifvqef0","pricing_plan_id":"cebpf4jnsgd1na2vs0mg"},{"bike_id":"1755aeac-91f1-4520-a5c8-29c98aeadaea","system_id":"levelo_inurba_marseille","lat":43.24655,"lon":5.38902,"is_reserved":false,"is_disabled":false,"rental_uris":{"android":"levelo://app?vid=1755aeac-91f1-4520-a5c8-29c98aeadaea","ios":"levelo://app?vid=1755aeac-91f1-4520-a5c8-29c98aeadaea"},"vehicle_type_id":"4","last_reported":1731514271,"current_range_meters":9200,"station_id":"ce4bhg12rcd13ifvqf60","pricing_plan_id":"cebpf4jnsgd1na2vs0mg"},{"bike_id":"90765127-8f90-4316-b40d-1069c63739bb","system_id":"levelo_inurba_marseille","lat":43.262145,"lon":5.37461,"is_reserved":false,"is_disabled":false,"rental_uris":{"android":"levelo://app?vid=90765127-8f90-4316-b40d-1069c63739bb","ios":"levelo://app?vid=90765127-8f90-4316-b40d-1069c63739bb"},"vehicle_type_id":"4","last_reported":1731514271,"current_range_meters":39200,"station_id":"ce4bhgp2rcd13ifvqfc0","pricing_plan_id":"cebpf4jnsgd1na2vs0mg"},{"bike_id":"55b3f41a-3b42-4a13-bfd3-3abed6f521e2","system_id":"levelo_inurba_marseille","lat":43.30071,"lon":5.38768,"is_reserved":false,"is_disabled":false,"rental_uris":{"android":"levelo://app?vid=55b3f41a-3b42-4a13-bfd3-3abed6f521e2","ios":"levelo://app?vid=55b3f41a-3b42-4a13-bfd3-3abed6f521e2"},"vehicle_type_id":"4","last_reported":1731514271,"current_range_meters":6000,"station_id":"","pricing_plan_id":"cebpf4jnsgd1na2vs0mg"},{"bike_id":"1bca99a6-2817-48e1-a281-33255188a21f","system_id":"levelo_inurba_marseille","lat":43.29979,"lon":5.37191,"is_reserved":false,"is_disabled":false,"rental_uris":{"android":"levelo://app?vid=1bca99a6-2817-48e1-a281-33255188a21f","ios":"levelo://app?vid=1bca99a6-2817-48e1-a281-33255188a21f"},"vehicle_type_id":"4","last_reported":1731514271,"current_range_meters":30400,"station_id":"ce4bgr92rcd13ifvqc7g","pricing_plan_id":"cebpf4jnsgd1na2vs0mg"},{"bike_id":"517d21f1-4f61-41fa-8fdb-330ac05d065b","system_id":"levelo_inurba_marseille","lat":43.28335,"lon":5.38108,"is_reserved":false,"is_disabled":false,"rental_uris":{"android":"levelo://app?vid=517d21f1-4f61-41fa-8fdb-330ac05d065b","ios":"levelo://app?vid=517d21f1-4f61-41fa-8fdb-330ac05d065b"},"vehicle_type_id":"4","last_reported":1731514271,"current_range_meters":30400,"station_id":"ce4bh412rcd13ifvqdr0","pricing_plan_id":"cebpf4jnsgd1na2vs0mg"},{"bike_id":"14c6a3a6-7f30-4785-a879-90ca958a90df","system_id":"levelo_inurba_marseille","lat":43.27427,"lon":5.39422,"is_reserved":false,"is_disabled":false,"rental_uris":{"android":"levelo://app?vid=14c6a3a6-7f30-4785-a879-90ca958a90df","ios":"levelo://app?vid=14c6a3a6-7f30-4785-a879-90ca958a90df"},"vehicle_type_id":"4","last_reported":1731514271,"current_range_meters":30400,"station_id":"ce4bhdp2rcd13ifvqf20","pricing_plan_id":"cebpf4jnsgd1na2vs0mg"},{"bike_id":"de348927-662a-4769-898c-447cb0635750","system_id":"levelo_inurba_marseille","lat":43.29805,"lon":5.38104,"is_reserved":false,"is_disabled":false,"rental_uris":{"android":"levelo://app?vid=de348927-662a-4769-898c-447cb0635750","ios":"levelo://app?vid=de348927-662a-4769-898c-447cb0635750"},"vehicle_type_id":"4","last_reported":1731514271,"current_range_meters":39200,"station_id":"ce4bgip2rcd13ifvqbb0","pricing_plan_id":"cebpf4jnsgd1na2vs0mg"},{"bike_id":"c41181fc-82e7-41cf-b2ee-ae28de2ddd9c","system_id":"levelo_inurba_marseille","lat":43.29528,"lon":5.3854,"is_reserved":false,"is_disabled":false,"rental_uris":{"android":"levelo://app?vid=c41181fc-82e7-41cf-b2ee-ae28de2ddd9c","ios":"levelo://app?vid=c41181fc-82e7-41cf-b2ee-ae28de2ddd9c"},"vehicle_type_id":"4","last_reported":1731514271,"current_range_meters":38000,"station_id":"ce4bgih2rcd13ifvqba0","pricing_plan_id":"cebpf4jnsgd1na2vs0mg"},{"bike_id":"6912aabe-d361-4736-a861-090467399b55","system_id":"levelo_inurba_marseille","lat":43.28,"lon":5.40023,"is_reserved":false,"is_disabled":false,"rental_uris":{"android":"levelo://app?vid=6912aabe-d361-4736-a861-090467399b55","ios":"levelo://app?vid=6912aabe-d361-4736-a861-090467399b55"},"vehicle_type_id":"4","last_reported":1731514271,"current_range_meters":27200,"station_id":"ce4bho92rcd13ifvqh4g","pricing_plan_id":"cebpf4jnsgd1na2vs0mg"},{"bike_id":"cb733c83-e890-4719-a2df-2570c7179add","system_id":"levelo_inurba_marseille","lat":43.24179,"lon":5.3973,"is_reserved":false,"is_disabled":false,"rental_uris":{"android":"levelo://app?vid=cb733c83-e890-4719-a2df-2570c7179add","ios":"levelo://app?vid=cb733c83-e890-4719-a2df-2570c7179add"},"vehicle_type_id":"4","last_reported":1731514271,"current_range_meters":2800,"station_id":"ce4bhn12rcd13ifvqgpg","pricing_plan_id":"cebpf4jnsgd1na2vs0mg"},{"bike_id":"ceaf1c85-1d4c-4daa-b4b7-bbb91b330960","system_id":"levelo_inurba_marseille","lat":43.28654,"lon":5.36364,"is_reserved":false,"is_disabled":false,"rental_uris":{"android":"levelo://app?vid=ceaf1c85-1d4c-4daa-b4b7-bbb91b330960","ios":"levelo://app?vid=ceaf1c85-1d4c-4daa-b4b7-bbb91b330960"},"vehicle_type_id":"4","last_reported":1731514271,"current_range_meters":9600,"station_id":"ce4bhah2rcd13ifvqej0","pricing_plan_id":"cebpf4jnsgd1na2vs0mg"},{"bike_id":"7d7c161f-e5e3-4ce9-b742-5b96f0044808","system_id":"levelo_inurba_marseille","lat":43.30601,"lon":5.3722,"is_reserved":false,"is_disabled":false,"rental_uris":{"android":"levelo://app?vid=7d7c161f-e5e3-4ce9-b742-5b96f0044808","ios":"levelo://app?vid=7d7c161f-e5e3-4ce9-b742-5b96f0044808"},"vehicle_type_id":"4","last_reported":1731514271,"current_range_meters":25200,"station_id":"ce4bgqh2rcd13ifvqc4g","pricing_plan_id":"cebpf4jnsgd1na2vs0mg"},{"bike_id":"8e270c71-7479-4765-b391-980840d65495","system_id":"levelo_inurba_marseille","lat":43.25085,"lon":5.39527,"is_reserved":false,"is_disabled":false,"rental_uris":{"android":"levelo://app?vid=8e270c71-7479-4765-b391-980840d65495","ios":"levelo://app?vid=8e270c71-7479-4765-b391-980840d65495"},"vehicle_type_id":"4","last_reported":1731514271,"current_range_meters":10000,"station_id":"ce4bhm12rcd13ifvqgkg","pricing_plan_id":"cebpf4jnsgd1na2vs0mg"},{"bike_id":"1e6b0d74-2320-4328-9814-a960848b6f38","system_id":"levelo_inurba_marseille","lat":43.3013,"lon":5.38783,"is_reserved":false,"is_disabled":false,"rental_uris":{"android":"levelo://app?vid=1e6b0d74-2320-4328-9814-a960848b6f38","ios":"levelo://app?vid=1e6b0d74-2320-4328-9814-a960848b6f38"},"vehicle_type_id":"4","last_reported":1731514271,"current_range_meters":14400,"station_id":"ce4bghh2rcd13ifvqb60","pricing_plan_id":"cebpf4jnsgd1na2vs0mg"},{"bike_id":"7051e13e-9b9b-474c-be45-b72d88c65d07","system_id":"levelo_inurba_marseille","lat":43.2931,"lon":5.37179,"is_reserved":false,"is_disabled":false,"rental_uris":{"android":"levelo://app?vid=7051e13e-9b9b-474c-be45-b72d88c65d07","ios":"levelo://app?vid=7051e13e-9b9b-474c-be45-b72d88c65d07"},"vehicle_type_id":"4","last_reported":1731514271,"current_range_meters":39200,"station_id":"ce4bgh92rcd13ifvqb40","pricing_plan_id":"cebpf4jnsgd1na2vs0mg"},{"bike_id":"0635f80e-9cb3-42bb-8fe3-9abb16cfff5d","system_id":"levelo_inurba_marseille","lat":43.27068,"lon":5.42284,"is_reserved":false,"is_disabled":false,"rental_uris":{"android":"levelo://app?vid=0635f80e-9cb3-42bb-8fe3-9abb16cfff5d","ios":"levelo://app?vid=0635f80e-9cb3-42bb-8fe3-9abb16cfff5d"},"vehicle_type_id":"4","last_reported":1731514271,"current_range_meters":11200,"station_id":"ce4bhk92rcd13ifvqgb0","pricing_plan_id":"cebpf4jnsgd1na2vs0mg"},{"bike_id":"c20d09fb-f23c-4a1a-9f7e-1f3d5e0601d8","system_id":"levelo_inurba_marseille","lat":43.261807,"lon":5.374531,"is_reserved":false,"is_disabled":false,"rental_uris":{"android":"levelo://app?vid=c20d09fb-f23c-4a1a-9f7e-1f3d5e0601d8","ios":"levelo://app?vid=c20d09fb-f23c-4a1a-9f7e-1f3d5e0601d8"},"vehicle_type_id":"4","last_reported":1731514271,"current_range_meters":38800,"station_id":"ce4bhgp2rcd13ifvqfc0","pricing_plan_id":"cebpf4jnsgd1na2vs0mg"},{"bike_id":"d99bff46-e3e0-4c25-9719-3fa3dd9a1a6e","system_id":"levelo_inurba_marseille","lat":43.31427,"lon":5.37423,"is_reserved":false,"is_disabled":false,"rental_uris":{"android":"levelo://app?vid=d99bff46-e3e0-4c25-9719-3fa3dd9a1a6e","ios":"levelo://app?vid=d99bff46-e3e0-4c25-9719-3fa3dd9a1a6e"},"vehicle_type_id":"4","last_reported":1731514271,"current_range_meters":22400,"station_id":"","pricing_plan_id":"cebpf4jnsgd1na2vs0mg"},{"bike_id":"e9bb8950-76de-4c9d-9aff-35253f090ff2","system_id":"levelo_inurba_marseille","lat":43.28113,"lon":5.37831,"is_reserved":false,"is_disabled":false,"rental_uris":{"android":"levelo://app?vid=e9bb8950-76de-4c9d-9aff-35253f090ff2","ios":"levelo://app?vid=e9bb8950-76de-4c9d-9aff-35253f090ff2"},"vehicle_type_id":"4","last_reported":1731514271,"current_range_meters":35600,"station_id":"ce4bha12rcd13ifvqee0","pricing_plan_id":"cebpf4jnsgd1na2vs0mg"},{"bike_id":"05ea8ed2-5d24-4f00-92cf-ca7cd17d6f1c","system_id":"levelo_inurba_marseille","lat":43.26555,"lon":5.37294,"is_reserved":false,"is_disabled":false,"rental_uris":{"android":"levelo://app?vid=05ea8ed2-5d24-4f00-92cf-ca7cd17d6f1c","ios":"levelo://app?vid=05ea8ed2-5d24-4f00-92cf-ca7cd17d6f1c"},"vehicle_type_id":"4","last_reported":1731514271,"current_range_meters":36400,"station_id":"ce4bhg12rcd13ifvqf70","pricing_plan_id":"cebpf4jnsgd1na2vs0mg"},{"bike_id":"8cbce59c-0105-4bc7-ba39-4beb12f05924","system_id":"levelo_inurba_marseille","lat":43.31175,"lon":5.38719,"is_reserved":false,"is_disabled":false,"rental_uris":{"android":"levelo://app?vid=8cbce59c-0105-4bc7-ba39-4beb12f05924","ios":"levelo://app?vid=8cbce59c-0105-4bc7-ba39-4beb12f05924"},"vehicle_type_id":"4","last_reported":1731514271,"current_range_meters":6800,"station_id":"ce4bgv12rcd13ifvqcp0","pricing_plan_id":"cebpf4jnsgd1na2vs0mg"},{"bike_id":"8e034435-97e6-4f6e-b61d-930d5226d990","system_id":"levelo_inurba_marseille","lat":43.33718,"lon":5.39199,"is_reserved":false,"is_disabled":false,"rental_uris":{"android":"levelo://app?vid=8e034435-97e6-4f6e-b61d-930d5226d990","ios":"levelo://app?vid=8e034435-97e6-4f6e-b61d-930d5226d990"},"vehicle_type_id":"4","last_reported":1731514271,"current_range_meters":6800,"station_id":"ce4bhr92rcd13ifvqhsg","pricing_plan_id":"cebpf4jnsgd1na2vs0mg"},{"bike_id":"b9108b75-8b20-45d7-b710-a006bfaa1619","system_id":"levelo_inurba_marseille","lat":43.25502,"lon":5.37656,"is_reserved":false,"is_disabled":false,"rental_uris":{"android":"levelo://app?vid=b9108b75-8b20-45d7-b710-a006bfaa1619","ios":"levelo://app?vid=b9108b75-8b20-45d7-b710-a006bfaa1619"},"vehicle_type_id":"4","last_reported":1731514271,"current_range_meters":16800,"station_id":"ce4bhh12rcd13ifvqff0","pricing_plan_id":"cebpf4jnsgd1na2vs0mg"},{"bike_id":"4b9657ee-4b3d-4ec0-9a79-7bfde01913fc","system_id":"levelo_inurba_marseille","lat":43.28666,"lon":5.38655,"is_reserved":false,"is_disabled":false,"rental_uris":{"android":"levelo://app?vid=4b9657ee-4b3d-4ec0-9a79-7bfde01913fc","ios":"levelo://app?vid=4b9657ee-4b3d-4ec0-9a79-7bfde01913fc"},"vehicle_type_id":"4","last_reported":1731514271,"current_range_meters":38800,"station_id":"ce4bh492rcd13ifvqdug","pricing_plan_id":"cebpf4jnsgd1na2vs0mg"},{"bike_id":"7c240009-8c2b-4097-b148-cc3511e71a66","system_id":"levelo_inurba_marseille","lat":43.33023,"lon":5.39038,"is_reserved":false,"is_disabled":false,"rental_uris":{"android":"levelo://app?vid=7c240009-8c2b-4097-b148-cc3511e71a66","ios":"levelo://app?vid=7c240009-8c2b-4097-b148-cc3511e71a66"},"vehicle_type_id":"4","last_reported":1731514271,"current_range_meters":30400,"station_id":"ce4bhr92rcd13ifvqhrg","pricing_plan_id":"cebpf4jnsgd1na2vs0mg"},{"bike_id":"7db349e8-ad42-4134-bddb-be5dc2fe4958","system_id":"levelo_inurba_marseille","lat":43.29957,"lon":5.41318,"is_reserved":false,"is_disabled":false,"rental_uris":{"android":"levelo://app?vid=7db349e8-ad42-4134-bddb-be5dc2fe4958","ios":"levelo://app?vid=7db349e8-ad42-4134-bddb-be5dc2fe4958"},"vehicle_type_id":"4","last_reported":1731514271,"current_range_meters":10800,"station_id":"ce4bhp12rcd13ifvqh9g","pricing_plan_id":"cebpf4jnsgd1na2vs0mg"},{"bike_id":"01b2055c-4ba7-4d65-9a5b-304649e067a0","system_id":"levelo_inurba_marseille","lat":43.30531,"lon":5.36528,"is_reserved":false,"is_disabled":false,"rental_uris":{"android":"levelo://app?vid=01b2055c-4ba7-4d65-9a5b-304649e067a0","ios":"levelo://app?vid=01b2055c-4ba7-4d65-9a5b-304649e067a0"},"vehicle_type_id":"4","last_reported":1731514271,"current_range_meters":10800,"station_id":"ce4bgs12rcd13ifvqcag","pricing_plan_id":"cebpf4jnsgd1na2vs0mg"},{"bike_id":"34dca594-f806-47ff-8190-536ac8e4692c","system_id":"levelo_inurba_marseille","lat":43.29047,"lon":5.39956,"is_reserved":false,"is_disabled":false,"rental_uris":{"android":"levelo://app?vid=34dca594-f806-47ff-8190-536ac8e4692c","ios":"levelo://app?vid=34dca594-f806-47ff-8190-536ac8e4692c"},"vehicle_type_id":"4","last_reported":1731514271,"current_range_meters":33600,"station_id":"ce4bh392rcd13ifvqdm0","pricing_plan_id":"cebpf4jnsgd1na2vs0mg"},{"bike_id":"df9a2573-72e4-4b64-841a-b0f66609698a","system_id":"levelo_inurba_marseille","lat":43.29938,"lon":5.36564,"is_reserved":false,"is_disabled":false,"rental_uris":{"android":"levelo://app?vid=df9a2573-72e4-4b64-841a-b0f66609698a","ios":"levelo://app?vid=df9a2573-72e4-4b64-841a-b0f66609698a"},"vehicle_type_id":"4","last_reported":1731514271,"current_range_meters":6800,"station_id":"ce4bgm92rcd13ifvqbr0","pricing_plan_id":"cebpf4jnsgd1na2vs0mg"},{"bike_id":"b83d5a8a-b0a5-42e7-98a3-9c12a5510a4e","system_id":"levelo_inurba_marseille","lat":43.2867,"lon":5.36359,"is_reserved":false,"is_disabled":false,"rental_uris":{"android":"levelo://app?vid=b83d5a8a-b0a5-42e7-98a3-9c12a5510a4e","ios":"levelo://app?vid=b83d5a8a-b0a5-42e7-98a3-9c12a5510a4e"},"vehicle_type_id":"4","last_reported":1731514271,"current_range_meters":39200,"station_id":"ce4bhah2rcd13ifvqej0","pricing_plan_id":"cebpf4jnsgd1na2vs0mg"},{"bike_id":"fcc965f8-3650-48b5-8aab-e2eb2d4cdf29","system_id":"levelo_inurba_marseille","lat":43.29412,"lon":5.38626,"is_reserved":false,"is_disabled":false,"rental_uris":{"android":"levelo://app?vid=fcc965f8-3650-48b5-8aab-e2eb2d4cdf29","ios":"levelo://app?vid=fcc965f8-3650-48b5-8aab-e2eb2d4cdf29"},"vehicle_type_id":"4","last_reported":1731514271,"current_range_meters":9200,"station_id":"ce4bh2h2rcd13ifvqdh0","pricing_plan_id":"cebpf4jnsgd1na2vs0mg"},{"bike_id":"8963f262-bdcb-43f5-9e37-237198779ba8","system_id":"levelo_inurba_marseille","lat":43.33773,"lon":5.37442,"is_reserved":false,"is_disabled":false,"rental_uris":{"android":"levelo://app?vid=8963f262-bdcb-43f5-9e37-237198779ba8","ios":"levelo://app?vid=8963f262-bdcb-43f5-9e37-237198779ba8"},"vehicle_type_id":"4","last_reported":1731514271,"current_range_meters":37600,"station_id":"","pricing_plan_id":"cebpf4jnsgd1na2vs0mg"},{"bike_id":"9e206ec4-3bc2-4292-bb12-90ccf987d885","system_id":"levelo_inurba_marseille","lat":43.337444,"lon":5.374475,"is_reserved":false,"is_disabled":false,"rental_uris":{"android":"levelo://app?vid=9e206ec4-3bc2-4292-bb12-90ccf987d885","ios":"levelo://app?vid=9e206ec4-3bc2-4292-bb12-90ccf987d885"},"vehicle_type_id":"4","last_reported":1731514271,"current_range_meters":36800,"station_id":"","pricing_plan_id":"cebpf4jnsgd1na2vs0mg"},{"bike_id":"398b47b3-a042-4cec-b1dd-254773a78263","system_id":"levelo_inurba_marseille","lat":43.27402,"lon":5.389516,"is_reserved":false,"is_disabled":false,"rental_uris":{"android":"levelo://app?vid=398b47b3-a042-4cec-b1dd-254773a78263","ios":"levelo://app?vid=398b47b3-a042-4cec-b1dd-254773a78263"},"vehicle_type_id":"4","last_reported":1731514271,"current_range_meters":8800,"station_id":"","pricing_plan_id":"cebpf4jnsgd1na2vs0mg"},{"bike_id":"45f574f4-3b3a-4f67-bc11-43fe8c0da209","system_id":"levelo_inurba_marseille","lat":43.32006,"lon":5.38163,"is_reserved":false,"is_disabled":false,"rental_uris":{"android":"levelo://app?vid=45f574f4-3b3a-4f67-bc11-43fe8c0da209","ios":"levelo://app?vid=45f574f4-3b3a-4f67-bc11-43fe8c0da209"},"vehicle_type_id":"4","last_reported":1731514271,"current_range_meters":20400,"station_id":"ce4bhr12rcd13ifvqhpg","pricing_plan_id":"cebpf4jnsgd1na2vs0mg"},{"bike_id":"272c5778-38a2-4423-a35f-85d664cc086a","system_id":"levelo_inurba_marseille","lat":43.29261,"lon":5.38444,"is_reserved":false,"is_disabled":false,"rental_uris":{"android":"levelo://app?vid=272c5778-38a2-4423-a35f-85d664cc086a","ios":"levelo://app?vid=272c5778-38a2-4423-a35f-85d664cc086a"},"vehicle_type_id":"4","last_reported":1731514271,"current_range_meters":2800,"station_id":"ce4bh692rcd13ifvqea0","pricing_plan_id":"cebpf4jnsgd1na2vs0mg"},{"bike_id":"92e3ad17-17c9-4714-a148-ef9436ad6113","system_id":"levelo_inurba_marseille","lat":43.22933,"lon":5.35383,"is_reserved":false,"is_disabled":false,"rental_uris":{"android":"levelo://app?vid=92e3ad17-17c9-4714-a148-ef9436ad6113","ios":"levelo://app?vid=92e3ad17-17c9-4714-a148-ef9436ad6113"},"vehicle_type_id":"4","last_reported":1731514271,"current_range_meters":39200,"station_id":"cpo3532slgdg3j2ikp40","pricing_plan_id":"cebpf4jnsgd1na2vs0mg"},{"bike_id":"043ef42f-4b1c-4de6-9390-f8460554acc5","system_id":"levelo_inurba_marseille","lat":43.30779,"lon":5.37662,"is_reserved":false,"is_disabled":false,"rental_uris":{"android":"levelo://app?vid=043ef42f-4b1c-4de6-9390-f8460554acc5","ios":"levelo://app?vid=043ef42f-4b1c-4de6-9390-f8460554acc5"},"vehicle_type_id":"4","last_reported":1731514271,"current_range_meters":32000,"station_id":"ce4bgv92rcd13ifvqcq0","pricing_plan_id":"cebpf4jnsgd1na2vs0mg"},{"bike_id":"beb7b9bd-a544-4d0c-b0ee-a6204f3f5108","system_id":"levelo_inurba_marseille","lat":43.291962,"lon":5.385193,"is_reserved":false,"is_disabled":false,"rental_uris":{"android":"levelo://app?vid=beb7b9bd-a544-4d0c-b0ee-a6204f3f5108","ios":"levelo://app?vid=beb7b9bd-a544-4d0c-b0ee-a6204f3f5108"},"vehicle_type_id":"4","last_reported":1731514271,"current_range_meters":28400,"station_id":"","pricing_plan_id":"cebpf4jnsgd1na2vs0mg"},{"bike_id":"82f309e6-c4ae-421f-89cb-1d64a8e0ef10","system_id":"levelo_inurba_marseille","lat":43.337444,"lon":5.374475,"is_reserved":false,"is_disabled":false,"rental_uris":{"android":"levelo://app?vid=82f309e6-c4ae-421f-89cb-1d64a8e0ef10","ios":"levelo://app?vid=82f309e6-c4ae-421f-89cb-1d64a8e0ef10"},"vehicle_type_id":"4","last_reported":1731514271,"current_range_meters":36400,"station_id":"","pricing_plan_id":"cebpf4jnsgd1na2vs0mg"},{"bike_id":"d2423466-98bc-4d3a-a5fc-c0d33f6c410d","system_id":"levelo_inurba_marseille","lat":43.337444,"lon":5.374475,"is_reserved":false,"is_disabled":false,"rental_uris":{"android":"levelo://app?vid=d2423466-98bc-4d3a-a5fc-c0d33f6c410d","ios":"levelo://app?vid=d2423466-98bc-4d3a-a5fc-c0d33f6c410d"},"vehicle_type_id":"4","last_reported":1731514271,"current_range_meters":36400,"station_id":"","pricing_plan_id":"cebpf4jnsgd1na2vs0mg"},{"bike_id":"6e4ab7d2-c1df-4ea4-bb4b-2f5c43ed5717","system_id":"levelo_inurba_marseille","lat":43.33768,"lon":5.37439,"is_reserved":false,"is_disabled":false,"rental_uris":{"android":"levelo://app?vid=6e4ab7d2-c1df-4ea4-bb4b-2f5c43ed5717","ios":"levelo://app?vid=6e4ab7d2-c1df-4ea4-bb4b-2f5c43ed5717"},"vehicle_type_id":"4","last_reported":1731514271,"current_range_meters":36400,"station_id":"","pricing_plan_id":"cebpf4jnsgd1na2vs0mg"},{"bike_id":"14597de1-ae4d-43fb-b9af-fd49765a0510","system_id":"levelo_inurba_marseille","lat":43.29058,"lon":5.37171,"is_reserved":false,"is_disabled":false,"rental_uris":{"android":"levelo://app?vid=14597de1-ae4d-43fb-b9af-fd49765a0510","ios":"levelo://app?vid=14597de1-ae4d-43fb-b9af-fd49765a0510"},"vehicle_type_id":"4","last_reported":1731514271,"current_range_meters":27200,"station_id":"ce4bh5p2rcd13ifvqe4g","pricing_plan_id":"cebpf4jnsgd1na2vs0mg"},{"bike_id":"b1f50a4e-bf80-417b-be95-adf7b4bc4b3b","system_id":"levelo_inurba_marseille","lat":43.30389,"lon":5.37005,"is_reserved":false,"is_disabled":false,"rental_uris":{"android":"levelo://app?vid=b1f50a4e-bf80-417b-be95-adf7b4bc4b3b","ios":"levelo://app?vid=b1f50a4e-bf80-417b-be95-adf7b4bc4b3b"},"vehicle_type_id":"4","last_reported":1731514271,"current_range_meters":35600,"station_id":"","pricing_plan_id":"cebpf4jnsgd1na2vs0mg"},{"bike_id":"9722550f-1a69-4d6e-8160-2610e45f09a4","system_id":"levelo_inurba_marseille","lat":43.28037,"lon":5.36945,"is_reserved":false,"is_disabled":false,"rental_uris":{"android":"levelo://app?vid=9722550f-1a69-4d6e-8160-2610e45f09a4","ios":"levelo://app?vid=9722550f-1a69-4d6e-8160-2610e45f09a4"},"vehicle_type_id":"4","last_reported":1731514271,"current_range_meters":36800,"station_id":"ce4bha12rcd13ifvqef0","pricing_plan_id":"cebpf4jnsgd1na2vs0mg"},{"bike_id":"42744b5d-4b77-4c92-808c-ebf462138a5f","system_id":"levelo_inurba_marseille","lat":43.31332,"lon":5.39695,"is_reserved":false,"is_disabled":false,"rental_uris":{"android":"levelo://app?vid=42744b5d-4b77-4c92-808c-ebf462138a5f","ios":"levelo://app?vid=42744b5d-4b77-4c92-808c-ebf462138a5f"},"vehicle_type_id":"4","last_reported":1731514271,"current_range_meters":27200,"station_id":"ce4bgvp2rcd13ifvqcu0","pricing_plan_id":"cebpf4jnsgd1na2vs0mg"},{"bike_id":"c9d041c0-acec-4cf4-bba2-e01a92441368","system_id":"levelo_inurba_marseille","lat":43.337444,"lon":5.374475,"is_reserved":false,"is_disabled":false,"rental_uris":{"android":"levelo://app?vid=c9d041c0-acec-4cf4-bba2-e01a92441368","ios":"levelo://app?vid=c9d041c0-acec-4cf4-bba2-e01a92441368"},"vehicle_type_id":"4","last_reported":1731514271,"current_range_meters":35200,"station_id":"","pricing_plan_id":"cebpf4jnsgd1na2vs0mg"},{"bike_id":"5fc3aff0-54d6-4c05-9449-2758af5f6874","system_id":"levelo_inurba_marseille","lat":43.29585,"lon":5.36763,"is_reserved":false,"is_disabled":false,"rental_uris":{"android":"levelo://app?vid=5fc3aff0-54d6-4c05-9449-2758af5f6874","ios":"levelo://app?vid=5fc3aff0-54d6-4c05-9449-2758af5f6874"},"vehicle_type_id":"4","last_reported":1731514271,"current_range_meters":38400,"station_id":"ce4bgph2rcd13ifvqc2g","pricing_plan_id":"cebpf4jnsgd1na2vs0mg"},{"bike_id":"f8e83858-8d03-4657-bfa8-19869d846898","system_id":"levelo_inurba_marseille","lat":43.28663,"lon":5.36361,"is_reserved":false,"is_disabled":false,"rental_uris":{"android":"levelo://app?vid=f8e83858-8d03-4657-bfa8-19869d846898","ios":"levelo://app?vid=f8e83858-8d03-4657-bfa8-19869d846898"},"vehicle_type_id":"4","last_reported":1731514271,"current_range_meters":28800,"station_id":"ce4bhah2rcd13ifvqej0","pricing_plan_id":"cebpf4jnsgd1na2vs0mg"},{"bike_id":"79a056aa-985e-449f-a2d4-c8b262e89a27","system_id":"levelo_inurba_marseille","lat":43.23967,"lon":5.36642,"is_reserved":false,"is_disabled":false,"rental_uris":{"android":"levelo://app?vid=79a056aa-985e-449f-a2d4-c8b262e89a27","ios":"levelo://app?vid=79a056aa-985e-449f-a2d4-c8b262e89a27"},"vehicle_type_id":"4","last_reported":1731514271,"current_range_meters":10000,"station_id":"ce4bhi12rcd13ifvqfp0","pricing_plan_id":"cebpf4jnsgd1na2vs0mg"},{"bike_id":"a791334d-58fa-411c-9fb5-147ec965d768","system_id":"levelo_inurba_marseille","lat":43.29993,"lon":5.37188,"is_reserved":false,"is_disabled":false,"rental_uris":{"android":"levelo://app?vid=a791334d-58fa-411c-9fb5-147ec965d768","ios":"levelo://app?vid=a791334d-58fa-411c-9fb5-147ec965d768"},"vehicle_type_id":"4","last_reported":1731514271,"current_range_meters":38800,"station_id":"ce4bgr92rcd13ifvqc7g","pricing_plan_id":"cebpf4jnsgd1na2vs0mg"},{"bike_id":"1bd0acf6-e0a0-4488-bc1f-adccec902c41","system_id":"levelo_inurba_marseille","lat":43.25092,"lon":5.39527,"is_reserved":false,"is_disabled":false,"rental_uris":{"android":"levelo://app?vid=1bd0acf6-e0a0-4488-bc1f-adccec902c41","ios":"levelo://app?vid=1bd0acf6-e0a0-4488-bc1f-adccec902c41"},"vehicle_type_id":"4","last_reported":1731514271,"current_range_meters":10800,"station_id":"ce4bhm12rcd13ifvqgkg","pricing_plan_id":"cebpf4jnsgd1na2vs0mg"},{"bike_id":"aeb91f93-ee7f-4f25-82af-1125a28c67ba","system_id":"levelo_inurba_marseille","lat":43.28361,"lon":5.38647,"is_reserved":false,"is_disabled":false,"rental_uris":{"android":"levelo://app?vid=aeb91f93-ee7f-4f25-82af-1125a28c67ba","ios":"levelo://app?vid=aeb91f93-ee7f-4f25-82af-1125a28c67ba"},"vehicle_type_id":"4","last_reported":1731514271,"current_range_meters":26800,"station_id":"ce4bh492rcd13ifvqdvg","pricing_plan_id":"cebpf4jnsgd1na2vs0mg"},{"bike_id":"a04e813f-fd48-470e-a518-fde9dbdec1a6","system_id":"levelo_inurba_marseille","lat":43.27179,"lon":5.41001,"is_reserved":false,"is_disabled":false,"rental_uris":{"android":"levelo://app?vid=a04e813f-fd48-470e-a518-fde9dbdec1a6","ios":"levelo://app?vid=a04e813f-fd48-470e-a518-fde9dbdec1a6"},"vehicle_type_id":"4","last_reported":1731514271,"current_range_meters":36400,"station_id":"ce4bhl12rcd13ifvqgf0","pricing_plan_id":"cebpf4jnsgd1na2vs0mg"},{"bike_id":"b978470e-9a55-400c-ab7e-35a5d26deb82","system_id":"levelo_inurba_marseille","lat":43.27372,"lon":5.36261,"is_reserved":false,"is_disabled":false,"rental_uris":{"android":"levelo://app?vid=b978470e-9a55-400c-ab7e-35a5d26deb82","ios":"levelo://app?vid=b978470e-9a55-400c-ab7e-35a5d26deb82"},"vehicle_type_id":"4","last_reported":1731514271,"current_range_meters":11200,"station_id":"ce4bhbh2rcd13ifvqeo0","pricing_plan_id":"cebpf4jnsgd1na2vs0mg"},{"bike_id":"73e40a06-7e97-43ad-a3a0-83f886664f2e","system_id":"levelo_inurba_marseille","lat":43.309499,"lon":5.390286,"is_reserved":false,"is_disabled":false,"rental_uris":{"android":"levelo://app?vid=73e40a06-7e97-43ad-a3a0-83f886664f2e","ios":"levelo://app?vid=73e40a06-7e97-43ad-a3a0-83f886664f2e"},"vehicle_type_id":"4","last_reported":1731514271,"current_range_meters":19600,"station_id":"ce4bguh2rcd13ifvqckg","pricing_plan_id":"cebpf4jnsgd1na2vs0mg"},{"bike_id":"5bc8a2cc-e5b1-4065-a734-e2ab36656fe9","system_id":"levelo_inurba_marseille","lat":43.2991,"lon":5.37472,"is_reserved":false,"is_disabled":false,"rental_uris":{"android":"levelo://app?vid=5bc8a2cc-e5b1-4065-a734-e2ab36656fe9","ios":"levelo://app?vid=5bc8a2cc-e5b1-4065-a734-e2ab36656fe9"},"vehicle_type_id":"4","last_reported":1731514271,"current_range_meters":26800,"station_id":"ce4bgjh2rcd13ifvqbg0","pricing_plan_id":"cebpf4jnsgd1na2vs0mg"},{"bike_id":"47fdd3bf-4cb5-4eed-812e-3770c79fd243","system_id":"levelo_inurba_marseille","lat":43.32112,"lon":5.36776,"is_reserved":false,"is_disabled":false,"rental_uris":{"android":"levelo://app?vid=47fdd3bf-4cb5-4eed-812e-3770c79fd243","ios":"levelo://app?vid=47fdd3bf-4cb5-4eed-812e-3770c79fd243"},"vehicle_type_id":"4","last_reported":1731514271,"current_range_meters":12400,"station_id":"ce4bhrh2rcd13ifvqhug","pricing_plan_id":"cebpf4jnsgd1na2vs0mg"},{"bike_id":"6f7f6c7b-b366-4d4f-b725-a659cfeaf5f3","system_id":"levelo_inurba_marseille","lat":43.31328,"lon":5.39688,"is_reserved":false,"is_disabled":false,"rental_uris":{"android":"levelo://app?vid=6f7f6c7b-b366-4d4f-b725-a659cfeaf5f3","ios":"levelo://app?vid=6f7f6c7b-b366-4d4f-b725-a659cfeaf5f3"},"vehicle_type_id":"4","last_reported":1731514271,"current_range_meters":38800,"station_id":"ce4bgvp2rcd13ifvqcu0","pricing_plan_id":"cebpf4jnsgd1na2vs0mg"},{"bike_id":"68f5de20-238b-41c3-a6c0-54ac841a57ea","system_id":"levelo_inurba_marseille","lat":43.32097,"lon":5.36786,"is_reserved":false,"is_disabled":false,"rental_uris":{"android":"levelo://app?vid=68f5de20-238b-41c3-a6c0-54ac841a57ea","ios":"levelo://app?vid=68f5de20-238b-41c3-a6c0-54ac841a57ea"},"vehicle_type_id":"4","last_reported":1731514271,"current_range_meters":38800,"station_id":"ce4bhrh2rcd13ifvqhug","pricing_plan_id":"cebpf4jnsgd1na2vs0mg"},{"bike_id":"5671db65-19d6-4099-8367-e6dfc10d98b8","system_id":"levelo_inurba_marseille","lat":43.31337,"lon":5.39693,"is_reserved":false,"is_disabled":false,"rental_uris":{"android":"levelo://app?vid=5671db65-19d6-4099-8367-e6dfc10d98b8","ios":"levelo://app?vid=5671db65-19d6-4099-8367-e6dfc10d98b8"},"vehicle_type_id":"4","last_reported":1731514271,"current_range_meters":19600,"station_id":"ce4bgvp2rcd13ifvqcu0","pricing_plan_id":"cebpf4jnsgd1na2vs0mg"},{"bike_id":"2112b1c0-8521-449c-aa2a-db7c82b3ed7a","system_id":"levelo_inurba_marseille","lat":43.33025,"lon":5.39052,"is_reserved":false,"is_disabled":false,"rental_uris":{"android":"levelo://app?vid=2112b1c0-8521-449c-aa2a-db7c82b3ed7a","ios":"levelo://app?vid=2112b1c0-8521-449c-aa2a-db7c82b3ed7a"},"vehicle_type_id":"4","last_reported":1731514271,"current_range_meters":39200,"station_id":"ce4bhr92rcd13ifvqhrg","pricing_plan_id":"cebpf4jnsgd1na2vs0mg"},{"bike_id":"037e2451-638a-4abf-a655-d88387df895f","system_id":"levelo_inurba_marseille","lat":43.295914,"lon":5.367379,"is_reserved":false,"is_disabled":false,"rental_uris":{"android":"levelo://app?vid=037e2451-638a-4abf-a655-d88387df895f","ios":"levelo://app?vid=037e2451-638a-4abf-a655-d88387df895f"},"vehicle_type_id":"4","last_reported":1731514271,"current_range_meters":16800,"station_id":"ce4bgph2rcd13ifvqc2g","pricing_plan_id":"cebpf4jnsgd1na2vs0mg"},{"bike_id":"5b41e762-1614-46f6-92e6-bba5e7d3cb79","system_id":"levelo_inurba_marseille","lat":43.28455,"lon":5.35891,"is_reserved":false,"is_disabled":false,"rental_uris":{"android":"levelo://app?vid=5b41e762-1614-46f6-92e6-bba5e7d3cb79","ios":"levelo://app?vid=5b41e762-1614-46f6-92e6-bba5e7d3cb79"},"vehicle_type_id":"4","last_reported":1731514271,"current_range_meters":13600,"station_id":"ce4bhah2rcd13ifvqei0","pricing_plan_id":"cebpf4jnsgd1na2vs0mg"},{"bike_id":"70e78c93-084e-4ab7-a814-465f1ec8a7f0","system_id":"levelo_inurba_marseille","lat":43.23153,"lon":5.43708,"is_reserved":false,"is_disabled":false,"rental_uris":{"android":"levelo://app?vid=70e78c93-084e-4ab7-a814-465f1ec8a7f0","ios":"levelo://app?vid=70e78c93-084e-4ab7-a814-465f1ec8a7f0"},"vehicle_type_id":"4","last_reported":1731514271,"current_range_meters":33600,"station_id":"ce4bhmp2rcd13ifvqgog","pricing_plan_id":"cebpf4jnsgd1na2vs0mg"},{"bike_id":"248ed894-0f1e-4cc9-aa84-0d23b0eb4f9f","system_id":"levelo_inurba_marseille","lat":43.24178,"lon":5.39729,"is_reserved":false,"is_disabled":false,"rental_uris":{"android":"levelo://app?vid=248ed894-0f1e-4cc9-aa84-0d23b0eb4f9f","ios":"levelo://app?vid=248ed894-0f1e-4cc9-aa84-0d23b0eb4f9f"},"vehicle_type_id":"4","last_reported":1731514271,"current_range_meters":25600,"station_id":"ce4bhn12rcd13ifvqgpg","pricing_plan_id":"cebpf4jnsgd1na2vs0mg"},{"bike_id":"969059a2-103c-4b05-b568-23e1e4745ee8","system_id":"levelo_inurba_marseille","lat":43.26206,"lon":5.3745,"is_reserved":false,"is_disabled":false,"rental_uris":{"android":"levelo://app?vid=969059a2-103c-4b05-b568-23e1e4745ee8","ios":"levelo://app?vid=969059a2-103c-4b05-b568-23e1e4745ee8"},"vehicle_type_id":"4","last_reported":1731514271,"current_range_meters":12800,"station_id":"ce4bhgp2rcd13ifvqfc0","pricing_plan_id":"cebpf4jnsgd1na2vs0mg"},{"bike_id":"b9ac3b1b-51f5-4f2f-b688-65b0db8b3f6f","system_id":"levelo_inurba_marseille","lat":43.264369,"lon":5.374088,"is_reserved":false,"is_disabled":false,"rental_uris":{"android":"levelo://app?vid=b9ac3b1b-51f5-4f2f-b688-65b0db8b3f6f","ios":"levelo://app?vid=b9ac3b1b-51f5-4f2f-b688-65b0db8b3f6f"},"vehicle_type_id":"4","last_reported":1731514271,"current_range_meters":38800,"station_id":"ce4bhg12rcd13ifvqf70","pricing_plan_id":"cebpf4jnsgd1na2vs0mg"},{"bike_id":"7c9b8995-ac96-4708-b4eb-b4b17631b9d8","system_id":"levelo_inurba_marseille","lat":43.337444,"lon":5.374475,"is_reserved":false,"is_disabled":false,"rental_uris":{"android":"levelo://app?vid=7c9b8995-ac96-4708-b4eb-b4b17631b9d8","ios":"levelo://app?vid=7c9b8995-ac96-4708-b4eb-b4b17631b9d8"},"vehicle_type_id":"4","last_reported":1731514271,"current_range_meters":36800,"station_id":"","pricing_plan_id":"cebpf4jnsgd1na2vs0mg"},{"bike_id":"e1774f4d-584b-4c3e-80b3-9d51e0f6c5e2","system_id":"levelo_inurba_marseille","lat":43.29557,"lon":5.42296,"is_reserved":false,"is_disabled":false,"rental_uris":{"android":"levelo://app?vid=e1774f4d-584b-4c3e-80b3-9d51e0f6c5e2","ios":"levelo://app?vid=e1774f4d-584b-4c3e-80b3-9d51e0f6c5e2"},"vehicle_type_id":"4","last_reported":1731514271,"current_range_meters":30000,"station_id":"ce4bhph2rcd13ifvqhdg","pricing_plan_id":"cebpf4jnsgd1na2vs0mg"},{"bike_id":"ca6ae3ab-52e5-401e-bb95-45ea7014278b","system_id":"levelo_inurba_marseille","lat":43.30177,"lon":5.36974,"is_reserved":false,"is_disabled":false,"rental_uris":{"android":"levelo://app?vid=ca6ae3ab-52e5-401e-bb95-45ea7014278b","ios":"levelo://app?vid=ca6ae3ab-52e5-401e-bb95-45ea7014278b"},"vehicle_type_id":"4","last_reported":1731514271,"current_range_meters":6000,"station_id":"ce4bgup2rcd13ifvqcn0","pricing_plan_id":"cebpf4jnsgd1na2vs0mg"},{"bike_id":"bb1a429f-4226-4db4-84c6-dfdb9f4123a5","system_id":"levelo_inurba_marseille","lat":43.30889,"lon":5.39646,"is_reserved":false,"is_disabled":false,"rental_uris":{"android":"levelo://app?vid=bb1a429f-4226-4db4-84c6-dfdb9f4123a5","ios":"levelo://app?vid=bb1a429f-4226-4db4-84c6-dfdb9f4123a5"},"vehicle_type_id":"4","last_reported":1731514271,"current_range_meters":38400,"station_id":"ce4bh012rcd13ifvqcv0","pricing_plan_id":"cebpf4jnsgd1na2vs0mg"},{"bike_id":"6383c64f-3a43-4768-844a-f1a043d69fbe","system_id":"levelo_inurba_marseille","lat":43.290432,"lon":5.375429,"is_reserved":false,"is_disabled":false,"rental_uris":{"android":"levelo://app?vid=6383c64f-3a43-4768-844a-f1a043d69fbe","ios":"levelo://app?vid=6383c64f-3a43-4768-844a-f1a043d69fbe"},"vehicle_type_id":"4","last_reported":1731514271,"current_range_meters":2000,"station_id":"ce4bh692rcd13ifvqe90","pricing_plan_id":"cebpf4jnsgd1na2vs0mg"},{"bike_id":"7f54565b-bbcd-4529-9842-e551b281e311","system_id":"levelo_inurba_marseille","lat":43.29845,"lon":5.3629,"is_reserved":false,"is_disabled":false,"rental_uris":{"android":"levelo://app?vid=7f54565b-bbcd-4529-9842-e551b281e311","ios":"levelo://app?vid=7f54565b-bbcd-4529-9842-e551b281e311"},"vehicle_type_id":"4","last_reported":1731514271,"current_range_meters":37600,"station_id":"ce4bgpp2rcd13ifvqc3g","pricing_plan_id":"cebpf4jnsgd1na2vs0mg"},{"bike_id":"046893b8-bd12-41a2-8606-fbdab340a2d6","system_id":"levelo_inurba_marseille","lat":43.26941,"lon":5.40257,"is_reserved":false,"is_disabled":false,"rental_uris":{"android":"levelo://app?vid=046893b8-bd12-41a2-8606-fbdab340a2d6","ios":"levelo://app?vid=046893b8-bd12-41a2-8606-fbdab340a2d6"},"vehicle_type_id":"4","last_reported":1731514271,"current_range_meters":28400,"station_id":"cjm6bp8fraef2m0cb0m0","pricing_plan_id":"cebpf4jnsgd1na2vs0mg"},{"bike_id":"ef9dca20-df5f-46f5-9f92-1a12dc644190","system_id":"levelo_inurba_marseille","lat":43.2781,"lon":5.40717,"is_reserved":false,"is_disabled":false,"rental_uris":{"android":"levelo://app?vid=ef9dca20-df5f-46f5-9f92-1a12dc644190","ios":"levelo://app?vid=ef9dca20-df5f-46f5-9f92-1a12dc644190"},"vehicle_type_id":"4","last_reported":1731514271,"current_range_meters":29600,"station_id":"ce4bhnh2rcd13ifvqgtg","pricing_plan_id":"cebpf4jnsgd1na2vs0mg"},{"bike_id":"0dff06b9-7b88-4c2e-8388-2fd0b34170ec","system_id":"levelo_inurba_marseille","lat":43.299755,"lon":5.371825,"is_reserved":false,"is_disabled":false,"rental_uris":{"android":"levelo://app?vid=0dff06b9-7b88-4c2e-8388-2fd0b34170ec","ios":"levelo://app?vid=0dff06b9-7b88-4c2e-8388-2fd0b34170ec"},"vehicle_type_id":"4","last_reported":1731514271,"current_range_meters":38000,"station_id":"ce4bgr92rcd13ifvqc7g","pricing_plan_id":"cebpf4jnsgd1na2vs0mg"},{"bike_id":"19aeb94d-515e-474b-82c6-9db592ac4050","system_id":"levelo_inurba_marseille","lat":43.28972,"lon":5.39743,"is_reserved":false,"is_disabled":false,"rental_uris":{"android":"levelo://app?vid=19aeb94d-515e-474b-82c6-9db592ac4050","ios":"levelo://app?vid=19aeb94d-515e-474b-82c6-9db592ac4050"},"vehicle_type_id":"4","last_reported":1731514271,"current_range_meters":11600,"station_id":"","pricing_plan_id":"cebpf4jnsgd1na2vs0mg"},{"bike_id":"fb61633f-c5fc-483c-98b6-0c42b3beb420","system_id":"levelo_inurba_marseille","lat":43.3248,"lon":5.36567,"is_reserved":false,"is_disabled":false,"rental_uris":{"android":"levelo://app?vid=fb61633f-c5fc-483c-98b6-0c42b3beb420","ios":"levelo://app?vid=fb61633f-c5fc-483c-98b6-0c42b3beb420"},"vehicle_type_id":"4","last_reported":1731514271,"current_range_meters":12800,"station_id":"ce4bhs12rcd13ifvqhvg","pricing_plan_id":"cebpf4jnsgd1na2vs0mg"},{"bike_id":"c3434a8d-8528-4849-8062-d5c3bb7b629e","system_id":"levelo_inurba_marseille","lat":43.28927,"lon":5.384,"is_reserved":false,"is_disabled":false,"rental_uris":{"android":"levelo://app?vid=c3434a8d-8528-4849-8062-d5c3bb7b629e","ios":"levelo://app?vid=c3434a8d-8528-4849-8062-d5c3bb7b629e"},"vehicle_type_id":"4","last_reported":1731514271,"current_range_meters":8800,"station_id":"ce4bh612rcd13ifvqe6g","pricing_plan_id":"cebpf4jnsgd1na2vs0mg"},{"bike_id":"b465f267-338d-4aa9-93d5-b732743f1533","system_id":"levelo_inurba_marseille","lat":43.29781,"lon":5.37107,"is_reserved":false,"is_disabled":false,"rental_uris":{"android":"levelo://app?vid=b465f267-338d-4aa9-93d5-b732743f1533","ios":"levelo://app?vid=b465f267-338d-4aa9-93d5-b732743f1533"},"vehicle_type_id":"4","last_reported":1731514271,"current_range_meters":38400,"station_id":"ce4bgop2rcd13ifvqc1g","pricing_plan_id":"cebpf4jnsgd1na2vs0mg"},{"bike_id":"cc458a34-29b4-4780-a17e-fc52f1edeadb","system_id":"levelo_inurba_marseille","lat":43.326621,"lon":5.409945,"is_reserved":false,"is_disabled":false,"rental_uris":{"android":"levelo://app?vid=cc458a34-29b4-4780-a17e-fc52f1edeadb","ios":"levelo://app?vid=cc458a34-29b4-4780-a17e-fc52f1edeadb"},"vehicle_type_id":"4","last_reported":1731514271,"current_range_meters":10800,"station_id":"ce4bhpp2rcd13ifvqhgg","pricing_plan_id":"cebpf4jnsgd1na2vs0mg"},{"bike_id":"cdd1e938-268f-43bc-941a-cb490deca6e1","system_id":"levelo_inurba_marseille","lat":43.29197,"lon":5.35814,"is_reserved":false,"is_disabled":false,"rental_uris":{"android":"levelo://app?vid=cdd1e938-268f-43bc-941a-cb490deca6e1","ios":"levelo://app?vid=cdd1e938-268f-43bc-941a-cb490deca6e1"},"vehicle_type_id":"4","last_reported":1731514271,"current_range_meters":36800,"station_id":"ce4bhb12rcd13ifvqel0","pricing_plan_id":"cebpf4jnsgd1na2vs0mg"},{"bike_id":"459a5777-57d4-4613-900e-258d8697c41c","system_id":"levelo_inurba_marseille","lat":43.28459,"lon":5.35899,"is_reserved":false,"is_disabled":false,"rental_uris":{"android":"levelo://app?vid=459a5777-57d4-4613-900e-258d8697c41c","ios":"levelo://app?vid=459a5777-57d4-4613-900e-258d8697c41c"},"vehicle_type_id":"4","last_reported":1731514271,"current_range_meters":39200,"station_id":"ce4bhah2rcd13ifvqei0","pricing_plan_id":"cebpf4jnsgd1na2vs0mg"},{"bike_id":"de4f0c86-704e-4c22-8c5a-51f6e3e4bdee","system_id":"levelo_inurba_marseille","lat":43.2508,"lon":5.39516,"is_reserved":false,"is_disabled":false,"rental_uris":{"android":"levelo://app?vid=de4f0c86-704e-4c22-8c5a-51f6e3e4bdee","ios":"levelo://app?vid=de4f0c86-704e-4c22-8c5a-51f6e3e4bdee"},"vehicle_type_id":"4","last_reported":1731514271,"current_range_meters":30000,"station_id":"ce4bhm12rcd13ifvqgkg","pricing_plan_id":"cebpf4jnsgd1na2vs0mg"},{"bike_id":"33b7ef42-f320-4e85-a7ae-4156f4716051","system_id":"levelo_inurba_marseille","lat":43.29848,"lon":5.36285,"is_reserved":false,"is_disabled":false,"rental_uris":{"android":"levelo://app?vid=33b7ef42-f320-4e85-a7ae-4156f4716051","ios":"levelo://app?vid=33b7ef42-f320-4e85-a7ae-4156f4716051"},"vehicle_type_id":"4","last_reported":1731514271,"current_range_meters":38000,"station_id":"ce4bgpp2rcd13ifvqc3g","pricing_plan_id":"cebpf4jnsgd1na2vs0mg"},{"bike_id":"7891995d-7c39-4fa5-ab0a-02ee601a522d","system_id":"levelo_inurba_marseille","lat":43.32285,"lon":5.38265,"is_reserved":false,"is_disabled":false,"rental_uris":{"android":"levelo://app?vid=7891995d-7c39-4fa5-ab0a-02ee601a522d","ios":"levelo://app?vid=7891995d-7c39-4fa5-ab0a-02ee601a522d"},"vehicle_type_id":"4","last_reported":1731514271,"current_range_meters":39200,"station_id":"ce4bhr12rcd13ifvqhqg","pricing_plan_id":"cebpf4jnsgd1na2vs0mg"},{"bike_id":"4e4ba510-aa53-4b0a-869b-88e849d97a2d","system_id":"levelo_inurba_marseille","lat":43.23195,"lon":5.35557,"is_reserved":false,"is_disabled":false,"rental_uris":{"android":"levelo://app?vid=4e4ba510-aa53-4b0a-869b-88e849d97a2d","ios":"levelo://app?vid=4e4ba510-aa53-4b0a-869b-88e849d97a2d"},"vehicle_type_id":"4","last_reported":1731514271,"current_range_meters":27600,"station_id":"ce4bhu92rcd13ifvqi70","pricing_plan_id":"cebpf4jnsgd1na2vs0mg"},{"bike_id":"76c71c02-3076-4592-8af6-d03331f3b4fd","system_id":"levelo_inurba_marseille","lat":43.303,"lon":5.36908,"is_reserved":false,"is_disabled":false,"rental_uris":{"android":"levelo://app?vid=76c71c02-3076-4592-8af6-d03331f3b4fd","ios":"levelo://app?vid=76c71c02-3076-4592-8af6-d03331f3b4fd"},"vehicle_type_id":"4","last_reported":1731514271,"current_range_meters":22000,"station_id":"ce4bgqh2rcd13ifvqc5g","pricing_plan_id":"cebpf4jnsgd1na2vs0mg"},{"bike_id":"1c898f09-c927-4e95-ba4b-3c00914ecdec","system_id":"levelo_inurba_marseille","lat":43.28448,"lon":5.39195,"is_reserved":false,"is_disabled":false,"rental_uris":{"android":"levelo://app?vid=1c898f09-c927-4e95-ba4b-3c00914ecdec","ios":"levelo://app?vid=1c898f09-c927-4e95-ba4b-3c00914ecdec"},"vehicle_type_id":"4","last_reported":1731514271,"current_range_meters":14000,"station_id":"ce4bhoh2rcd13ifvqh5g","pricing_plan_id":"cebpf4jnsgd1na2vs0mg"},{"bike_id":"e3f42fe4-d58f-4a0f-9ec2-f49f2f5972f7","system_id":"levelo_inurba_marseille","lat":43.2781,"lon":5.40724,"is_reserved":false,"is_disabled":false,"rental_uris":{"android":"levelo://app?vid=e3f42fe4-d58f-4a0f-9ec2-f49f2f5972f7","ios":"levelo://app?vid=e3f42fe4-d58f-4a0f-9ec2-f49f2f5972f7"},"vehicle_type_id":"4","last_reported":1731514271,"current_range_meters":23200,"station_id":"ce4bhnh2rcd13ifvqgtg","pricing_plan_id":"cebpf4jnsgd1na2vs0mg"},{"bike_id":"1311c692-6e9d-4afb-b7b0-20686564fe7a","system_id":"levelo_inurba_marseille","lat":43.337444,"lon":5.374475,"is_reserved":false,"is_disabled":false,"rental_uris":{"android":"levelo://app?vid=1311c692-6e9d-4afb-b7b0-20686564fe7a","ios":"levelo://app?vid=1311c692-6e9d-4afb-b7b0-20686564fe7a"},"vehicle_type_id":"4","last_reported":1731514271,"current_range_meters":36400,"station_id":"","pricing_plan_id":"cebpf4jnsgd1na2vs0mg"},{"bike_id":"51ea3c98-b4dd-41a2-90cf-2bb055425795","system_id":"levelo_inurba_marseille","lat":43.24807,"lon":5.37462,"is_reserved":false,"is_disabled":false,"rental_uris":{"android":"levelo://app?vid=51ea3c98-b4dd-41a2-90cf-2bb055425795","ios":"levelo://app?vid=51ea3c98-b4dd-41a2-90cf-2bb055425795"},"vehicle_type_id":"4","last_reported":1731514271,"current_range_meters":21600,"station_id":"ce4bhgh2rcd13ifvqfb0","pricing_plan_id":"cebpf4jnsgd1na2vs0mg"},{"bike_id":"9facfa83-f61b-4612-9f08-211770340807","system_id":"levelo_inurba_marseille","lat":43.28037,"lon":5.3694,"is_reserved":false,"is_disabled":false,"rental_uris":{"android":"levelo://app?vid=9facfa83-f61b-4612-9f08-211770340807","ios":"levelo://app?vid=9facfa83-f61b-4612-9f08-211770340807"},"vehicle_type_id":"4","last_reported":1731514271,"current_range_meters":11200,"station_id":"ce4bha12rcd13ifvqef0","pricing_plan_id":"cebpf4jnsgd1na2vs0mg"},{"bike_id":"082e9e38-ed1e-4cc1-a3df-a88469374fe0","system_id":"levelo_inurba_marseille","lat":43.31227,"lon":5.36861,"is_reserved":false,"is_disabled":false,"rental_uris":{"android":"levelo://app?vid=082e9e38-ed1e-4cc1-a3df-a88469374fe0","ios":"levelo://app?vid=082e9e38-ed1e-4cc1-a3df-a88469374fe0"},"vehicle_type_id":"4","last_reported":1731514271,"current_range_meters":23200,"station_id":"ce4bgl92rcd13ifvqbq0","pricing_plan_id":"cebpf4jnsgd1na2vs0mg"},{"bike_id":"33bff7f0-2c26-4b1c-9a91-28a29aa6e443","system_id":"levelo_inurba_marseille","lat":43.2756,"lon":5.38408,"is_reserved":false,"is_disabled":false,"rental_uris":{"android":"levelo://app?vid=33bff7f0-2c26-4b1c-9a91-28a29aa6e443","ios":"levelo://app?vid=33bff7f0-2c26-4b1c-9a91-28a29aa6e443"},"vehicle_type_id":"4","last_reported":1731514271,"current_range_meters":2800,"station_id":"ce4bhh92rcd13ifvqfi0","pricing_plan_id":"cebpf4jnsgd1na2vs0mg"},{"bike_id":"090468f2-dc8a-4823-862e-ab44a767742d","system_id":"levelo_inurba_marseille","lat":43.31758,"lon":5.39018,"is_reserved":false,"is_disabled":false,"rental_uris":{"android":"levelo://app?vid=090468f2-dc8a-4823-862e-ab44a767742d","ios":"levelo://app?vid=090468f2-dc8a-4823-862e-ab44a767742d"},"vehicle_type_id":"4","last_reported":1731514271,"current_range_meters":38000,"station_id":"ce4bhqp2rcd13ifvqhng","pricing_plan_id":"cebpf4jnsgd1na2vs0mg"},{"bike_id":"824aa58f-57cc-49d3-b625-099c257bc04e","system_id":"levelo_inurba_marseille","lat":43.2418,"lon":5.39727,"is_reserved":false,"is_disabled":false,"rental_uris":{"android":"levelo://app?vid=824aa58f-57cc-49d3-b625-099c257bc04e","ios":"levelo://app?vid=824aa58f-57cc-49d3-b625-099c257bc04e"},"vehicle_type_id":"4","last_reported":1731514271,"current_range_meters":38400,"station_id":"ce4bhn12rcd13ifvqgpg","pricing_plan_id":"cebpf4jnsgd1na2vs0mg"},{"bike_id":"1016a47e-d58f-492d-8d67-4aaf95fa4796","system_id":"levelo_inurba_marseille","lat":43.30876,"lon":5.3964,"is_reserved":false,"is_disabled":false,"rental_uris":{"android":"levelo://app?vid=1016a47e-d58f-492d-8d67-4aaf95fa4796","ios":"levelo://app?vid=1016a47e-d58f-492d-8d67-4aaf95fa4796"},"vehicle_type_id":"4","last_reported":1731514271,"current_range_meters":27200,"station_id":"ce4bh012rcd13ifvqcv0","pricing_plan_id":"cebpf4jnsgd1na2vs0mg"},{"bike_id":"cf8b6259-7cbb-4a71-8201-bf93f16c8b55","system_id":"levelo_inurba_marseille","lat":43.27999,"lon":5.40023,"is_reserved":false,"is_disabled":false,"rental_uris":{"android":"levelo://app?vid=cf8b6259-7cbb-4a71-8201-bf93f16c8b55","ios":"levelo://app?vid=cf8b6259-7cbb-4a71-8201-bf93f16c8b55"},"vehicle_type_id":"4","last_reported":1731514271,"current_range_meters":8000,"station_id":"ce4bho92rcd13ifvqh4g","pricing_plan_id":"cebpf4jnsgd1na2vs0mg"},{"bike_id":"7703b8bf-27f1-447f-b777-dcd3f30d9f31","system_id":"levelo_inurba_marseille","lat":43.29533,"lon":5.38555,"is_reserved":false,"is_disabled":false,"rental_uris":{"android":"levelo://app?vid=7703b8bf-27f1-447f-b777-dcd3f30d9f31","ios":"levelo://app?vid=7703b8bf-27f1-447f-b777-dcd3f30d9f31"},"vehicle_type_id":"4","last_reported":1731514271,"current_range_meters":6800,"station_id":"ce4bgih2rcd13ifvqba0","pricing_plan_id":"cebpf4jnsgd1na2vs0mg"},{"bike_id":"3298d759-d231-4dbb-9509-b79fa66e9838","system_id":"levelo_inurba_marseille","lat":43.30522,"lon":5.38085,"is_reserved":false,"is_disabled":false,"rental_uris":{"android":"levelo://app?vid=3298d759-d231-4dbb-9509-b79fa66e9838","ios":"levelo://app?vid=3298d759-d231-4dbb-9509-b79fa66e9838"},"vehicle_type_id":"4","last_reported":1731514271,"current_range_meters":10000,"station_id":"","pricing_plan_id":"cebpf4jnsgd1na2vs0mg"},{"bike_id":"b9b9ca99-abc1-4d74-b34d-2422c7c3d10f","system_id":"levelo_inurba_marseille","lat":43.32359,"lon":5.36764,"is_reserved":false,"is_disabled":false,"rental_uris":{"android":"levelo://app?vid=b9b9ca99-abc1-4d74-b34d-2422c7c3d10f","ios":"levelo://app?vid=b9b9ca99-abc1-4d74-b34d-2422c7c3d10f"},"vehicle_type_id":"4","last_reported":1731514271,"current_range_meters":31200,"station_id":"ce4bhsh2rcd13ifvqi2g","pricing_plan_id":"cebpf4jnsgd1na2vs0mg"},{"bike_id":"426bad9f-7281-405c-a1dc-fe3fbffc3e52","system_id":"levelo_inurba_marseille","lat":43.29427,"lon":5.38623,"is_reserved":false,"is_disabled":false,"rental_uris":{"android":"levelo://app?vid=426bad9f-7281-405c-a1dc-fe3fbffc3e52","ios":"levelo://app?vid=426bad9f-7281-405c-a1dc-fe3fbffc3e52"},"vehicle_type_id":"4","last_reported":1731514271,"current_range_meters":16400,"station_id":"ce4bh2h2rcd13ifvqdh0","pricing_plan_id":"cebpf4jnsgd1na2vs0mg"},{"bike_id":"1b6aedf9-aa79-4e62-b4b6-0d4304a12219","system_id":"levelo_inurba_marseille","lat":43.31226,"lon":5.36856,"is_reserved":false,"is_disabled":false,"rental_uris":{"android":"levelo://app?vid=1b6aedf9-aa79-4e62-b4b6-0d4304a12219","ios":"levelo://app?vid=1b6aedf9-aa79-4e62-b4b6-0d4304a12219"},"vehicle_type_id":"4","last_reported":1731514271,"current_range_meters":16400,"station_id":"ce4bgl92rcd13ifvqbq0","pricing_plan_id":"cebpf4jnsgd1na2vs0mg"},{"bike_id":"08a35e8f-a679-4426-9c6d-2c279acf3128","system_id":"levelo_inurba_marseille","lat":43.28157,"lon":5.42643,"is_reserved":false,"is_disabled":false,"rental_uris":{"android":"levelo://app?vid=08a35e8f-a679-4426-9c6d-2c279acf3128","ios":"levelo://app?vid=08a35e8f-a679-4426-9c6d-2c279acf3128"},"vehicle_type_id":"4","last_reported":1731514271,"current_range_meters":27600,"station_id":"ce4bhnh2rcd13ifvqgug","pricing_plan_id":"cebpf4jnsgd1na2vs0mg"},{"bike_id":"7c305197-0e0e-45d7-babc-8f3a57784fe7","system_id":"levelo_inurba_marseille","lat":43.30879,"lon":5.39659,"is_reserved":false,"is_disabled":false,"rental_uris":{"android":"levelo://app?vid=7c305197-0e0e-45d7-babc-8f3a57784fe7","ios":"levelo://app?vid=7c305197-0e0e-45d7-babc-8f3a57784fe7"},"vehicle_type_id":"4","last_reported":1731514271,"current_range_meters":25200,"station_id":"ce4bh012rcd13ifvqcv0","pricing_plan_id":"cebpf4jnsgd1na2vs0mg"},{"bike_id":"21809597-df4b-4bb7-ac3d-1537178d4615","system_id":"levelo_inurba_marseille","lat":43.25868,"lon":5.39898,"is_reserved":false,"is_disabled":false,"rental_uris":{"android":"levelo://app?vid=21809597-df4b-4bb7-ac3d-1537178d4615","ios":"levelo://app?vid=21809597-df4b-4bb7-ac3d-1537178d4615"},"vehicle_type_id":"4","last_reported":1731514271,"current_range_meters":26800,"station_id":"ce4bhl92rcd13ifvqghg","pricing_plan_id":"cebpf4jnsgd1na2vs0mg"},{"bike_id":"3da22c96-18a6-4d3a-a579-0c04984c3537","system_id":"levelo_inurba_marseille","lat":43.26215,"lon":5.37445,"is_reserved":false,"is_disabled":false,"rental_uris":{"android":"levelo://app?vid=3da22c96-18a6-4d3a-a579-0c04984c3537","ios":"levelo://app?vid=3da22c96-18a6-4d3a-a579-0c04984c3537"},"vehicle_type_id":"4","last_reported":1731514271,"current_range_meters":20400,"station_id":"ce4bhgp2rcd13ifvqfc0","pricing_plan_id":"cebpf4jnsgd1na2vs0mg"},{"bike_id":"b3ea8930-b854-4b60-965d-72726bf02580","system_id":"levelo_inurba_marseille","lat":43.27946,"lon":5.41051,"is_reserved":false,"is_disabled":false,"rental_uris":{"android":"levelo://app?vid=b3ea8930-b854-4b60-965d-72726bf02580","ios":"levelo://app?vid=b3ea8930-b854-4b60-965d-72726bf02580"},"vehicle_type_id":"4","last_reported":1731514271,"current_range_meters":14800,"station_id":"ce4bhnp2rcd13ifvqh0g","pricing_plan_id":"cebpf4jnsgd1na2vs0mg"},{"bike_id":"864565da-4b2e-4d0f-8b32-77c02fabc35d","system_id":"levelo_inurba_marseille","lat":43.28619,"lon":5.35113,"is_reserved":false,"is_disabled":false,"rental_uris":{"android":"levelo://app?vid=864565da-4b2e-4d0f-8b32-77c02fabc35d","ios":"levelo://app?vid=864565da-4b2e-4d0f-8b32-77c02fabc35d"},"vehicle_type_id":"4","last_reported":1731514271,"current_range_meters":7200,"station_id":"ce4bhch2rcd13ifvqeug","pricing_plan_id":"cebpf4jnsgd1na2vs0mg"},{"bike_id":"f3b23997-90fa-433a-b5ee-46726b99bfaf","system_id":"levelo_inurba_marseille","lat":43.315,"lon":5.3731,"is_reserved":false,"is_disabled":false,"rental_uris":{"android":"levelo://app?vid=f3b23997-90fa-433a-b5ee-46726b99bfaf","ios":"levelo://app?vid=f3b23997-90fa-433a-b5ee-46726b99bfaf"},"vehicle_type_id":"4","last_reported":1731514271,"current_range_meters":2800,"station_id":"ce4bgt12rcd13ifvqcd0","pricing_plan_id":"cebpf4jnsgd1na2vs0mg"},{"bike_id":"0ac7d74c-42ce-4f64-891e-3f6ce3667802","system_id":"levelo_inurba_marseille","lat":43.26811,"lon":5.40273,"is_reserved":false,"is_disabled":false,"rental_uris":{"android":"levelo://app?vid=0ac7d74c-42ce-4f64-891e-3f6ce3667802","ios":"levelo://app?vid=0ac7d74c-42ce-4f64-891e-3f6ce3667802"},"vehicle_type_id":"4","last_reported":1731514271,"current_range_meters":30400,"station_id":"ce501612rcd8frsf0b60","pricing_plan_id":"cebpf4jnsgd1na2vs0mg"},{"bike_id":"f4d8166f-f4e3-4a2d-b9dd-76615fe6c7b8","system_id":"levelo_inurba_marseille","lat":43.29926,"lon":5.37457,"is_reserved":false,"is_disabled":false,"rental_uris":{"android":"levelo://app?vid=f4d8166f-f4e3-4a2d-b9dd-76615fe6c7b8","ios":"levelo://app?vid=f4d8166f-f4e3-4a2d-b9dd-76615fe6c7b8"},"vehicle_type_id":"4","last_reported":1731514271,"current_range_meters":33200,"station_id":"ce4bgjh2rcd13ifvqbg0","pricing_plan_id":"cebpf4jnsgd1na2vs0mg"},{"bike_id":"5d1f4316-b04e-4ffe-949b-df676969a7da","system_id":"levelo_inurba_marseille","lat":43.27376,"lon":5.3626,"is_reserved":false,"is_disabled":false,"rental_uris":{"android":"levelo://app?vid=5d1f4316-b04e-4ffe-949b-df676969a7da","ios":"levelo://app?vid=5d1f4316-b04e-4ffe-949b-df676969a7da"},"vehicle_type_id":"4","last_reported":1731514271,"current_range_meters":39200,"station_id":"ce4bhbh2rcd13ifvqeo0","pricing_plan_id":"cebpf4jnsgd1na2vs0mg"},{"bike_id":"b448c76e-6a85-4e4e-8af8-7d9249501502","system_id":"levelo_inurba_marseille","lat":43.337444,"lon":5.374475,"is_reserved":false,"is_disabled":false,"rental_uris":{"android":"levelo://app?vid=b448c76e-6a85-4e4e-8af8-7d9249501502","ios":"levelo://app?vid=b448c76e-6a85-4e4e-8af8-7d9249501502"},"vehicle_type_id":"4","last_reported":1731514271,"current_range_meters":36800,"station_id":"","pricing_plan_id":"cebpf4jnsgd1na2vs0mg"},{"bike_id":"cf070e18-4d64-4f7f-8c50-d30d5ca42889","system_id":"levelo_inurba_marseille","lat":43.27182,"lon":5.40997,"is_reserved":false,"is_disabled":false,"rental_uris":{"android":"levelo://app?vid=cf070e18-4d64-4f7f-8c50-d30d5ca42889","ios":"levelo://app?vid=cf070e18-4d64-4f7f-8c50-d30d5ca42889"},"vehicle_type_id":"4","last_reported":1731514271,"current_range_meters":24000,"station_id":"ce4bhl12rcd13ifvqgf0","pricing_plan_id":"cebpf4jnsgd1na2vs0mg"},{"bike_id":"bd242193-93e0-478c-97b8-f1cd0d1bbc8c","system_id":"levelo_inurba_marseille","lat":43.33023,"lon":5.39043,"is_reserved":false,"is_disabled":false,"rental_uris":{"android":"levelo://app?vid=bd242193-93e0-478c-97b8-f1cd0d1bbc8c","ios":"levelo://app?vid=bd242193-93e0-478c-97b8-f1cd0d1bbc8c"},"vehicle_type_id":"4","last_reported":1731514271,"current_range_meters":18800,"station_id":"ce4bhr92rcd13ifvqhrg","pricing_plan_id":"cebpf4jnsgd1na2vs0mg"},{"bike_id":"e65140dd-5510-43c1-8c34-4ff5d09041d5","system_id":"levelo_inurba_marseille","lat":43.26206,"lon":5.37455,"is_reserved":false,"is_disabled":false,"rental_uris":{"android":"levelo://app?vid=e65140dd-5510-43c1-8c34-4ff5d09041d5","ios":"levelo://app?vid=e65140dd-5510-43c1-8c34-4ff5d09041d5"},"vehicle_type_id":"4","last_reported":1731514271,"current_range_meters":39200,"station_id":"ce4bhgp2rcd13ifvqfc0","pricing_plan_id":"cebpf4jnsgd1na2vs0mg"},{"bike_id":"dd71a3f1-81d2-493d-ae7d-c35e7416e4af","system_id":"levelo_inurba_marseille","lat":43.33025,"lon":5.39037,"is_reserved":false,"is_disabled":false,"rental_uris":{"android":"levelo://app?vid=dd71a3f1-81d2-493d-ae7d-c35e7416e4af","ios":"levelo://app?vid=dd71a3f1-81d2-493d-ae7d-c35e7416e4af"},"vehicle_type_id":"4","last_reported":1731514271,"current_range_meters":30400,"station_id":"ce4bhr92rcd13ifvqhrg","pricing_plan_id":"cebpf4jnsgd1na2vs0mg"},{"bike_id":"5882dbc6-28b4-4983-8788-c827c0f00311","system_id":"levelo_inurba_marseille","lat":43.30603,"lon":5.37229,"is_reserved":false,"is_disabled":false,"rental_uris":{"android":"levelo://app?vid=5882dbc6-28b4-4983-8788-c827c0f00311","ios":"levelo://app?vid=5882dbc6-28b4-4983-8788-c827c0f00311"},"vehicle_type_id":"4","last_reported":1731514271,"current_range_meters":24800,"station_id":"ce4bgqh2rcd13ifvqc4g","pricing_plan_id":"cebpf4jnsgd1na2vs0mg"},{"bike_id":"7f4fc540-b8eb-4d12-80b4-543b2821b014","system_id":"levelo_inurba_marseille","lat":43.2621,"lon":5.37451,"is_reserved":false,"is_disabled":false,"rental_uris":{"android":"levelo://app?vid=7f4fc540-b8eb-4d12-80b4-543b2821b014","ios":"levelo://app?vid=7f4fc540-b8eb-4d12-80b4-543b2821b014"},"vehicle_type_id":"4","last_reported":1731514271,"current_range_meters":19600,"station_id":"ce4bhgp2rcd13ifvqfc0","pricing_plan_id":"cebpf4jnsgd1na2vs0mg"},{"bike_id":"1803c034-9352-4696-961b-7267aa1baff1","system_id":"levelo_inurba_marseille","lat":43.260193,"lon":5.375543,"is_reserved":false,"is_disabled":false,"rental_uris":{"android":"levelo://app?vid=1803c034-9352-4696-961b-7267aa1baff1","ios":"levelo://app?vid=1803c034-9352-4696-961b-7267aa1baff1"},"vehicle_type_id":"4","last_reported":1731514271,"current_range_meters":38000,"station_id":"ce4bhgh2rcd13ifvqfa0","pricing_plan_id":"cebpf4jnsgd1na2vs0mg"},{"bike_id":"efb7d5c8-7c0d-4ff0-972f-aecee91f49d3","system_id":"levelo_inurba_marseille","lat":43.26965,"lon":5.38639,"is_reserved":false,"is_disabled":false,"rental_uris":{"android":"levelo://app?vid=efb7d5c8-7c0d-4ff0-972f-aecee91f49d3","ios":"levelo://app?vid=efb7d5c8-7c0d-4ff0-972f-aecee91f49d3"},"vehicle_type_id":"4","last_reported":1731514271,"current_range_meters":16800,"station_id":"ce4bhh92rcd13ifvqfh0","pricing_plan_id":"cebpf4jnsgd1na2vs0mg"},{"bike_id":"4018447b-2886-4c23-942b-201819b3bc28","system_id":"levelo_inurba_marseille","lat":43.337444,"lon":5.374475,"is_reserved":false,"is_disabled":false,"rental_uris":{"android":"levelo://app?vid=4018447b-2886-4c23-942b-201819b3bc28","ios":"levelo://app?vid=4018447b-2886-4c23-942b-201819b3bc28"},"vehicle_type_id":"4","last_reported":1731514271,"current_range_meters":36800,"station_id":"","pricing_plan_id":"cebpf4jnsgd1na2vs0mg"},{"bike_id":"82177570-77c8-45db-bec7-ab2b10dc4402","system_id":"levelo_inurba_marseille","lat":43.25078,"lon":5.39514,"is_reserved":false,"is_disabled":false,"rental_uris":{"android":"levelo://app?vid=82177570-77c8-45db-bec7-ab2b10dc4402","ios":"levelo://app?vid=82177570-77c8-45db-bec7-ab2b10dc4402"},"vehicle_type_id":"4","last_reported":1731514271,"current_range_meters":28400,"station_id":"ce4bhm12rcd13ifvqgkg","pricing_plan_id":"cebpf4jnsgd1na2vs0mg"},{"bike_id":"21aa6eb1-eec9-4b77-ad43-8ad60063d069","system_id":"levelo_inurba_marseille","lat":43.28928,"lon":5.36404,"is_reserved":false,"is_disabled":false,"rental_uris":{"android":"levelo://app?vid=21aa6eb1-eec9-4b77-ad43-8ad60063d069","ios":"levelo://app?vid=21aa6eb1-eec9-4b77-ad43-8ad60063d069"},"vehicle_type_id":"4","last_reported":1731514271,"current_range_meters":9600,"station_id":"ce4bhc92rcd13ifvqetg","pricing_plan_id":"cebpf4jnsgd1na2vs0mg"},{"bike_id":"b755ce42-f586-4a41-a1a4-3ec702137aa6","system_id":"levelo_inurba_marseille","lat":43.33607,"lon":5.41032,"is_reserved":false,"is_disabled":false,"rental_uris":{"android":"levelo://app?vid=b755ce42-f586-4a41-a1a4-3ec702137aa6","ios":"levelo://app?vid=b755ce42-f586-4a41-a1a4-3ec702137aa6"},"vehicle_type_id":"4","last_reported":1731514271,"current_range_meters":3600,"station_id":"ce4bhqh2rcd13ifvqhmg","pricing_plan_id":"cebpf4jnsgd1na2vs0mg"},{"bike_id":"69b02fdd-f0e5-44a7-9b8c-007018621578","system_id":"levelo_inurba_marseille","lat":43.23957,"lon":5.36626,"is_reserved":false,"is_disabled":false,"rental_uris":{"android":"levelo://app?vid=69b02fdd-f0e5-44a7-9b8c-007018621578","ios":"levelo://app?vid=69b02fdd-f0e5-44a7-9b8c-007018621578"},"vehicle_type_id":"4","last_reported":1731514271,"current_range_meters":38000,"station_id":"ce4bhi12rcd13ifvqfp0","pricing_plan_id":"cebpf4jnsgd1na2vs0mg"},{"bike_id":"c11bd46c-4147-429d-8389-ab2a3cc2a11c","system_id":"levelo_inurba_marseille","lat":43.28039,"lon":5.36948,"is_reserved":false,"is_disabled":false,"rental_uris":{"android":"levelo://app?vid=c11bd46c-4147-429d-8389-ab2a3cc2a11c","ios":"levelo://app?vid=c11bd46c-4147-429d-8389-ab2a3cc2a11c"},"vehicle_type_id":"4","last_reported":1731514271,"current_range_meters":35200,"station_id":"ce4bha12rcd13ifvqef0","pricing_plan_id":"cebpf4jnsgd1na2vs0mg"},{"bike_id":"8ff3daf9-97e9-480f-95f9-4d1d61792a54","system_id":"levelo_inurba_marseille","lat":43.33758,"lon":5.37471,"is_reserved":false,"is_disabled":false,"rental_uris":{"android":"levelo://app?vid=8ff3daf9-97e9-480f-95f9-4d1d61792a54","ios":"levelo://app?vid=8ff3daf9-97e9-480f-95f9-4d1d61792a54"},"vehicle_type_id":"4","last_reported":1731514271,"current_range_meters":34800,"station_id":"","pricing_plan_id":"cebpf4jnsgd1na2vs0mg"},{"bike_id":"8b19c451-65bf-4563-9a8f-cab09f529a27","system_id":"levelo_inurba_marseille","lat":43.31173,"lon":5.38728,"is_reserved":false,"is_disabled":false,"rental_uris":{"android":"levelo://app?vid=8b19c451-65bf-4563-9a8f-cab09f529a27","ios":"levelo://app?vid=8b19c451-65bf-4563-9a8f-cab09f529a27"},"vehicle_type_id":"4","last_reported":1731514271,"current_range_meters":20000,"station_id":"ce4bgv12rcd13ifvqcp0","pricing_plan_id":"cebpf4jnsgd1na2vs0mg"},{"bike_id":"6c7da84a-5296-4fc6-bd10-633e10079423","system_id":"levelo_inurba_marseille","lat":43.30439,"lon":5.38888,"is_reserved":false,"is_disabled":false,"rental_uris":{"android":"levelo://app?vid=6c7da84a-5296-4fc6-bd10-633e10079423","ios":"levelo://app?vid=6c7da84a-5296-4fc6-bd10-633e10079423"},"vehicle_type_id":"4","last_reported":1731514271,"current_range_meters":4000,"station_id":"ce4bgk12rcd13ifvqbi0","pricing_plan_id":"cebpf4jnsgd1na2vs0mg"},{"bike_id":"d6af81b5-dcae-499b-a027-3adba40104d1","system_id":"levelo_inurba_marseille","lat":43.28664,"lon":5.38679,"is_reserved":false,"is_disabled":false,"rental_uris":{"android":"levelo://app?vid=d6af81b5-dcae-499b-a027-3adba40104d1","ios":"levelo://app?vid=d6af81b5-dcae-499b-a027-3adba40104d1"},"vehicle_type_id":"4","last_reported":1731514271,"current_range_meters":32400,"station_id":"ce4bh492rcd13ifvqdug","pricing_plan_id":"cebpf4jnsgd1na2vs0mg"},{"bike_id":"07f082ae-6c7f-47f5-9611-ab43388346d9","system_id":"levelo_inurba_marseille","lat":43.25576,"lon":5.38232,"is_reserved":false,"is_disabled":false,"rental_uris":{"android":"levelo://app?vid=07f082ae-6c7f-47f5-9611-ab43388346d9","ios":"levelo://app?vid=07f082ae-6c7f-47f5-9611-ab43388346d9"},"vehicle_type_id":"4","last_reported":1731514271,"current_range_meters":33600,"station_id":"ce4bhih2rcd13ifvqfs0","pricing_plan_id":"cebpf4jnsgd1na2vs0mg"},{"bike_id":"ad2ed63e-9146-4a9d-a1ef-3c122587a3b2","system_id":"levelo_inurba_marseille","lat":43.29024,"lon":5.38127,"is_reserved":false,"is_disabled":false,"rental_uris":{"android":"levelo://app?vid=ad2ed63e-9146-4a9d-a1ef-3c122587a3b2","ios":"levelo://app?vid=ad2ed63e-9146-4a9d-a1ef-3c122587a3b2"},"vehicle_type_id":"4","last_reported":1731514271,"current_range_meters":24400,"station_id":"ce4bh4p2rcd13ifvqe1g","pricing_plan_id":"cebpf4jnsgd1na2vs0mg"},{"bike_id":"0c166e9a-9e0b-4aa5-9ef7-c637b31a01d9","system_id":"levelo_inurba_marseille","lat":43.27062,"lon":5.42269,"is_reserved":false,"is_disabled":false,"rental_uris":{"android":"levelo://app?vid=0c166e9a-9e0b-4aa5-9ef7-c637b31a01d9","ios":"levelo://app?vid=0c166e9a-9e0b-4aa5-9ef7-c637b31a01d9"},"vehicle_type_id":"4","last_reported":1731514271,"current_range_meters":14000,"station_id":"ce4bhk92rcd13ifvqgb0","pricing_plan_id":"cebpf4jnsgd1na2vs0mg"},{"bike_id":"d09a69b4-a6cd-4352-9b70-237c7ec2c287","system_id":"levelo_inurba_marseille","lat":43.2968,"lon":5.37705,"is_reserved":false,"is_disabled":false,"rental_uris":{"android":"levelo://app?vid=d09a69b4-a6cd-4352-9b70-237c7ec2c287","ios":"levelo://app?vid=d09a69b4-a6cd-4352-9b70-237c7ec2c287"},"vehicle_type_id":"4","last_reported":1731514271,"current_range_meters":25600,"station_id":"ce4bgkh2rcd13ifvqbl0","pricing_plan_id":"cebpf4jnsgd1na2vs0mg"},{"bike_id":"f425f41c-7f1a-4aae-bab9-38fd45f8061b","system_id":"levelo_inurba_marseille","lat":43.26563,"lon":5.3901,"is_reserved":false,"is_disabled":false,"rental_uris":{"android":"levelo://app?vid=f425f41c-7f1a-4aae-bab9-38fd45f8061b","ios":"levelo://app?vid=f425f41c-7f1a-4aae-bab9-38fd45f8061b"},"vehicle_type_id":"4","last_reported":1731514271,"current_range_meters":28000,"station_id":"ce4bhe12rcd13ifvqf30","pricing_plan_id":"cebpf4jnsgd1na2vs0mg"},{"bike_id":"4fa1ef33-2c06-4315-9a6f-52711487a5db","system_id":"levelo_inurba_marseille","lat":43.31755,"lon":5.39016,"is_reserved":false,"is_disabled":false,"rental_uris":{"android":"levelo://app?vid=4fa1ef33-2c06-4315-9a6f-52711487a5db","ios":"levelo://app?vid=4fa1ef33-2c06-4315-9a6f-52711487a5db"},"vehicle_type_id":"4","last_reported":1731514271,"current_range_meters":30400,"station_id":"ce4bhqp2rcd13ifvqhng","pricing_plan_id":"cebpf4jnsgd1na2vs0mg"},{"bike_id":"fbfd43fa-7a0f-4bfa-956a-443d1bed6613","system_id":"levelo_inurba_marseille","lat":43.26063,"lon":5.39401,"is_reserved":false,"is_disabled":false,"rental_uris":{"android":"levelo://app?vid=fbfd43fa-7a0f-4bfa-956a-443d1bed6613","ios":"levelo://app?vid=fbfd43fa-7a0f-4bfa-956a-443d1bed6613"},"vehicle_type_id":"4","last_reported":1731514271,"current_range_meters":36800,"station_id":"ce4bhh92rcd13ifvqfj0","pricing_plan_id":"cebpf4jnsgd1na2vs0mg"},{"bike_id":"4a2c3c0b-593c-424f-b42d-f955fb1696a8","system_id":"levelo_inurba_marseille","lat":43.29278,"lon":5.36853,"is_reserved":false,"is_disabled":false,"rental_uris":{"android":"levelo://app?vid=4a2c3c0b-593c-424f-b42d-f955fb1696a8","ios":"levelo://app?vid=4a2c3c0b-593c-424f-b42d-f955fb1696a8"},"vehicle_type_id":"4","last_reported":1731514271,"current_range_meters":36400,"station_id":"ce4bhbp2rcd13ifvqesg","pricing_plan_id":"cebpf4jnsgd1na2vs0mg"},{"bike_id":"6277ad66-fef2-4974-8d33-a9129f5c4127","system_id":"levelo_inurba_marseille","lat":43.33023,"lon":5.39046,"is_reserved":false,"is_disabled":false,"rental_uris":{"android":"levelo://app?vid=6277ad66-fef2-4974-8d33-a9129f5c4127","ios":"levelo://app?vid=6277ad66-fef2-4974-8d33-a9129f5c4127"},"vehicle_type_id":"4","last_reported":1731514271,"current_range_meters":37600,"station_id":"ce4bhr92rcd13ifvqhrg","pricing_plan_id":"cebpf4jnsgd1na2vs0mg"},{"bike_id":"e036a783-0b22-4ca9-8271-748458d71e33","system_id":"levelo_inurba_marseille","lat":43.29348,"lon":5.37591,"is_reserved":false,"is_disabled":false,"rental_uris":{"android":"levelo://app?vid=e036a783-0b22-4ca9-8271-748458d71e33","ios":"levelo://app?vid=e036a783-0b22-4ca9-8271-748458d71e33"},"vehicle_type_id":"4","last_reported":1731514271,"current_range_meters":33200,"station_id":"","pricing_plan_id":"cebpf4jnsgd1na2vs0mg"},{"bike_id":"e7f2be2a-8e74-4e0e-a31e-f215dc211e12","system_id":"levelo_inurba_marseille","lat":43.29854,"lon":5.36285,"is_reserved":false,"is_disabled":false,"rental_uris":{"android":"levelo://app?vid=e7f2be2a-8e74-4e0e-a31e-f215dc211e12","ios":"levelo://app?vid=e7f2be2a-8e74-4e0e-a31e-f215dc211e12"},"vehicle_type_id":"4","last_reported":1731514271,"current_range_meters":28000,"station_id":"ce4bgpp2rcd13ifvqc3g","pricing_plan_id":"cebpf4jnsgd1na2vs0mg"},{"bike_id":"e6878984-a1dd-4992-8913-0fc51d54781e","system_id":"levelo_inurba_marseille","lat":43.30544,"lon":5.3726,"is_reserved":false,"is_disabled":false,"rental_uris":{"android":"levelo://app?vid=e6878984-a1dd-4992-8913-0fc51d54781e","ios":"levelo://app?vid=e6878984-a1dd-4992-8913-0fc51d54781e"},"vehicle_type_id":"4","last_reported":1731514271,"current_range_meters":26800,"station_id":"","pricing_plan_id":"cebpf4jnsgd1na2vs0mg"},{"bike_id":"a7e9865b-c259-49f3-ad42-c770159f46ec","system_id":"levelo_inurba_marseille","lat":43.33785,"lon":5.37431,"is_reserved":false,"is_disabled":false,"rental_uris":{"android":"levelo://app?vid=a7e9865b-c259-49f3-ad42-c770159f46ec","ios":"levelo://app?vid=a7e9865b-c259-49f3-ad42-c770159f46ec"},"vehicle_type_id":"4","last_reported":1731514271,"current_range_meters":36800,"station_id":"","pricing_plan_id":"cebpf4jnsgd1na2vs0mg"},{"bike_id":"f1b21435-c7db-450d-8143-89d17381cb57","system_id":"levelo_inurba_marseille","lat":43.29279,"lon":5.4012,"is_reserved":false,"is_disabled":false,"rental_uris":{"android":"levelo://app?vid=f1b21435-c7db-450d-8143-89d17381cb57","ios":"levelo://app?vid=f1b21435-c7db-450d-8143-89d17381cb57"},"vehicle_type_id":"4","last_reported":1731514271,"current_range_meters":7200,"station_id":"ce4bh312rcd13ifvqdk0","pricing_plan_id":"cebpf4jnsgd1na2vs0mg"},{"bike_id":"ec3aef63-b4f9-43f1-8e27-e1d2ec254255","system_id":"levelo_inurba_marseille","lat":43.31332,"lon":5.39707,"is_reserved":false,"is_disabled":false,"rental_uris":{"android":"levelo://app?vid=ec3aef63-b4f9-43f1-8e27-e1d2ec254255","ios":"levelo://app?vid=ec3aef63-b4f9-43f1-8e27-e1d2ec254255"},"vehicle_type_id":"4","last_reported":1731514271,"current_range_meters":30400,"station_id":"ce4bgvp2rcd13ifvqcu0","pricing_plan_id":"cebpf4jnsgd1na2vs0mg"},{"bike_id":"712adf69-0779-4570-90d8-f7723b163ce3","system_id":"levelo_inurba_marseille","lat":43.28466,"lon":5.35891,"is_reserved":false,"is_disabled":false,"rental_uris":{"android":"levelo://app?vid=712adf69-0779-4570-90d8-f7723b163ce3","ios":"levelo://app?vid=712adf69-0779-4570-90d8-f7723b163ce3"},"vehicle_type_id":"4","last_reported":1731514271,"current_range_meters":6800,"station_id":"ce4bhah2rcd13ifvqei0","pricing_plan_id":"cebpf4jnsgd1na2vs0mg"},{"bike_id":"338e27ed-0678-4677-8e8c-dd5a8a8bdc0f","system_id":"levelo_inurba_marseille","lat":43.30777,"lon":5.37654,"is_reserved":false,"is_disabled":false,"rental_uris":{"android":"levelo://app?vid=338e27ed-0678-4677-8e8c-dd5a8a8bdc0f","ios":"levelo://app?vid=338e27ed-0678-4677-8e8c-dd5a8a8bdc0f"},"vehicle_type_id":"4","last_reported":1731514271,"current_range_meters":32400,"station_id":"ce4bgv92rcd13ifvqcq0","pricing_plan_id":"cebpf4jnsgd1na2vs0mg"},{"bike_id":"5330f6db-3f6a-4cea-a96b-80b79626ee20","system_id":"levelo_inurba_marseille","lat":43.31751,"lon":5.39033,"is_reserved":false,"is_disabled":false,"rental_uris":{"android":"levelo://app?vid=5330f6db-3f6a-4cea-a96b-80b79626ee20","ios":"levelo://app?vid=5330f6db-3f6a-4cea-a96b-80b79626ee20"},"vehicle_type_id":"4","last_reported":1731514271,"current_range_meters":6800,"station_id":"ce4bhqp2rcd13ifvqhng","pricing_plan_id":"cebpf4jnsgd1na2vs0mg"},{"bike_id":"69f1cd1b-2118-4b22-a0bf-3ad164219ccc","system_id":"levelo_inurba_marseille","lat":43.2893,"lon":5.38409,"is_reserved":false,"is_disabled":false,"rental_uris":{"android":"levelo://app?vid=69f1cd1b-2118-4b22-a0bf-3ad164219ccc","ios":"levelo://app?vid=69f1cd1b-2118-4b22-a0bf-3ad164219ccc"},"vehicle_type_id":"4","last_reported":1731514271,"current_range_meters":20400,"station_id":"ce4bh612rcd13ifvqe6g","pricing_plan_id":"cebpf4jnsgd1na2vs0mg"},{"bike_id":"77f884f7-2b2a-438f-ac9b-9a4583903823","system_id":"levelo_inurba_marseille","lat":43.27208,"lon":5.39188,"is_reserved":false,"is_disabled":false,"rental_uris":{"android":"levelo://app?vid=77f884f7-2b2a-438f-ac9b-9a4583903823","ios":"levelo://app?vid=77f884f7-2b2a-438f-ac9b-9a4583903823"},"vehicle_type_id":"4","last_reported":1731514271,"current_range_meters":24400,"station_id":"ce4bhhp2rcd13ifvqfm0","pricing_plan_id":"cebpf4jnsgd1na2vs0mg"},{"bike_id":"5f05c39c-5d69-4e24-a8ed-824ed2580e7c","system_id":"levelo_inurba_marseille","lat":43.295837,"lon":5.383213,"is_reserved":false,"is_disabled":false,"rental_uris":{"android":"levelo://app?vid=5f05c39c-5d69-4e24-a8ed-824ed2580e7c","ios":"levelo://app?vid=5f05c39c-5d69-4e24-a8ed-824ed2580e7c"},"vehicle_type_id":"4","last_reported":1731514271,"current_range_meters":24800,"station_id":"ce4bgs12rcd13ifvqcag","pricing_plan_id":"cebpf4jnsgd1na2vs0mg"},{"bike_id":"1951df2f-7d0b-47d6-b2cc-ca664e7763f3","system_id":"levelo_inurba_marseille","lat":43.29685,"lon":5.37293,"is_reserved":false,"is_disabled":false,"rental_uris":{"android":"levelo://app?vid=1951df2f-7d0b-47d6-b2cc-ca664e7763f3","ios":"levelo://app?vid=1951df2f-7d0b-47d6-b2cc-ca664e7763f3"},"vehicle_type_id":"4","last_reported":1731514271,"current_range_meters":32000,"station_id":"ce4bgk12rcd13ifvqbj0","pricing_plan_id":"cebpf4jnsgd1na2vs0mg"},{"bike_id":"76c20890-bc75-427e-889f-ff42b586a0d2","system_id":"levelo_inurba_marseille","lat":43.29539,"lon":5.38549,"is_reserved":false,"is_disabled":false,"rental_uris":{"android":"levelo://app?vid=76c20890-bc75-427e-889f-ff42b586a0d2","ios":"levelo://app?vid=76c20890-bc75-427e-889f-ff42b586a0d2"},"vehicle_type_id":"4","last_reported":1731514271,"current_range_meters":38800,"station_id":"ce4bgih2rcd13ifvqba0","pricing_plan_id":"cebpf4jnsgd1na2vs0mg"},{"bike_id":"114544ec-4219-41f8-9b11-ca6080a045f5","system_id":"levelo_inurba_marseille","lat":43.31121,"lon":5.37785,"is_reserved":false,"is_disabled":false,"rental_uris":{"android":"levelo://app?vid=114544ec-4219-41f8-9b11-ca6080a045f5","ios":"levelo://app?vid=114544ec-4219-41f8-9b11-ca6080a045f5"},"vehicle_type_id":"4","last_reported":1731514271,"current_range_meters":36400,"station_id":"ce4bgt92rcd13ifvqcg0","pricing_plan_id":"cebpf4jnsgd1na2vs0mg"},{"bike_id":"673fa940-a015-4058-96f6-0e9b98a97b88","system_id":"levelo_inurba_marseille","lat":43.26563,"lon":5.38984,"is_reserved":false,"is_disabled":false,"rental_uris":{"android":"levelo://app?vid=673fa940-a015-4058-96f6-0e9b98a97b88","ios":"levelo://app?vid=673fa940-a015-4058-96f6-0e9b98a97b88"},"vehicle_type_id":"4","last_reported":1731514271,"current_range_meters":16800,"station_id":"ce4bhe12rcd13ifvqf30","pricing_plan_id":"cebpf4jnsgd1na2vs0mg"},{"bike_id":"68f4b5fd-66ad-4436-9242-c8ad38e517cc","system_id":"levelo_inurba_marseille","lat":43.337444,"lon":5.374475,"is_reserved":false,"is_disabled":false,"rental_uris":{"android":"levelo://app?vid=68f4b5fd-66ad-4436-9242-c8ad38e517cc","ios":"levelo://app?vid=68f4b5fd-66ad-4436-9242-c8ad38e517cc"},"vehicle_type_id":"4","last_reported":1731514271,"current_range_meters":20400,"station_id":"","pricing_plan_id":"cebpf4jnsgd1na2vs0mg"},{"bike_id":"a50ae7be-1a9f-477e-9137-a5af5b7becd7","system_id":"levelo_inurba_marseille","lat":43.337444,"lon":5.374475,"is_reserved":false,"is_disabled":false,"rental_uris":{"android":"levelo://app?vid=a50ae7be-1a9f-477e-9137-a5af5b7becd7","ios":"levelo://app?vid=a50ae7be-1a9f-477e-9137-a5af5b7becd7"},"vehicle_type_id":"4","last_reported":1731514271,"current_range_meters":32000,"station_id":"","pricing_plan_id":"cebpf4jnsgd1na2vs0mg"},{"bike_id":"0b578470-d9dc-40e1-965d-886c14a5cd39","system_id":"levelo_inurba_marseille","lat":43.30885,"lon":5.39666,"is_reserved":false,"is_disabled":false,"rental_uris":{"android":"levelo://app?vid=0b578470-d9dc-40e1-965d-886c14a5cd39","ios":"levelo://app?vid=0b578470-d9dc-40e1-965d-886c14a5cd39"},"vehicle_type_id":"4","last_reported":1731514271,"current_range_meters":10800,"station_id":"ce4bh012rcd13ifvqcv0","pricing_plan_id":"cebpf4jnsgd1na2vs0mg"},{"bike_id":"bf16cb91-a319-4365-a31d-f9e0dbfbf2c4","system_id":"levelo_inurba_marseille","lat":43.28447,"lon":5.35897,"is_reserved":false,"is_disabled":false,"rental_uris":{"android":"levelo://app?vid=bf16cb91-a319-4365-a31d-f9e0dbfbf2c4","ios":"levelo://app?vid=bf16cb91-a319-4365-a31d-f9e0dbfbf2c4"},"vehicle_type_id":"4","last_reported":1731514271,"current_range_meters":29600,"station_id":"ce4bhah2rcd13ifvqei0","pricing_plan_id":"cebpf4jnsgd1na2vs0mg"},{"bike_id":"c64ae82b-9a80-4c51-a4d3-e8c84a7edb1f","system_id":"levelo_inurba_marseille","lat":43.24177,"lon":5.39737,"is_reserved":false,"is_disabled":false,"rental_uris":{"android":"levelo://app?vid=c64ae82b-9a80-4c51-a4d3-e8c84a7edb1f","ios":"levelo://app?vid=c64ae82b-9a80-4c51-a4d3-e8c84a7edb1f"},"vehicle_type_id":"4","last_reported":1731514271,"current_range_meters":34800,"station_id":"ce4bhn12rcd13ifvqgpg","pricing_plan_id":"cebpf4jnsgd1na2vs0mg"},{"bike_id":"6b695f44-c587-42f6-9053-f54fd254f937","system_id":"levelo_inurba_marseille","lat":43.26552,"lon":5.37286,"is_reserved":false,"is_disabled":false,"rental_uris":{"android":"levelo://app?vid=6b695f44-c587-42f6-9053-f54fd254f937","ios":"levelo://app?vid=6b695f44-c587-42f6-9053-f54fd254f937"},"vehicle_type_id":"4","last_reported":1731514271,"current_range_meters":38000,"station_id":"ce4bhg12rcd13ifvqf70","pricing_plan_id":"cebpf4jnsgd1na2vs0mg"},{"bike_id":"5ead8bbf-c50b-4fa3-8d53-fff9e9740c62","system_id":"levelo_inurba_marseille","lat":43.25577,"lon":5.38225,"is_reserved":false,"is_disabled":false,"rental_uris":{"android":"levelo://app?vid=5ead8bbf-c50b-4fa3-8d53-fff9e9740c62","ios":"levelo://app?vid=5ead8bbf-c50b-4fa3-8d53-fff9e9740c62"},"vehicle_type_id":"4","last_reported":1731514271,"current_range_meters":28800,"station_id":"ce4bhih2rcd13ifvqfs0","pricing_plan_id":"cebpf4jnsgd1na2vs0mg"},{"bike_id":"8eefd6de-0647-4eee-96b8-25a89090239d","system_id":"levelo_inurba_marseille","lat":43.273,"lon":5.36288,"is_reserved":false,"is_disabled":false,"rental_uris":{"android":"levelo://app?vid=8eefd6de-0647-4eee-96b8-25a89090239d","ios":"levelo://app?vid=8eefd6de-0647-4eee-96b8-25a89090239d"},"vehicle_type_id":"4","last_reported":1731514271,"current_range_meters":3200,"station_id":"ce4bhbh2rcd13ifvqeo0","pricing_plan_id":"cebpf4jnsgd1na2vs0mg"},{"bike_id":"5d510236-8f99-4eca-8d95-53b53acf3803","system_id":"levelo_inurba_marseille","lat":43.2979,"lon":5.3935,"is_reserved":false,"is_disabled":false,"rental_uris":{"android":"levelo://app?vid=5d510236-8f99-4eca-8d95-53b53acf3803","ios":"levelo://app?vid=5d510236-8f99-4eca-8d95-53b53acf3803"},"vehicle_type_id":"4","last_reported":1731514271,"current_range_meters":38000,"station_id":"chh1huq6cuj3fo74tm60","pricing_plan_id":"cebpf4jnsgd1na2vs0mg"},{"bike_id":"01c41ed2-cea1-4aad-9f83-045b95a85809","system_id":"levelo_inurba_marseille","lat":43.27813,"lon":5.40717,"is_reserved":false,"is_disabled":false,"rental_uris":{"android":"levelo://app?vid=01c41ed2-cea1-4aad-9f83-045b95a85809","ios":"levelo://app?vid=01c41ed2-cea1-4aad-9f83-045b95a85809"},"vehicle_type_id":"4","last_reported":1731514271,"current_range_meters":36800,"station_id":"ce4bhnh2rcd13ifvqgtg","pricing_plan_id":"cebpf4jnsgd1na2vs0mg"},{"bike_id":"97a68d8f-5c47-48e4-b5ee-80e98f552c6b","system_id":"levelo_inurba_marseille","lat":43.2621,"lon":5.37446,"is_reserved":false,"is_disabled":false,"rental_uris":{"android":"levelo://app?vid=97a68d8f-5c47-48e4-b5ee-80e98f552c6b","ios":"levelo://app?vid=97a68d8f-5c47-48e4-b5ee-80e98f552c6b"},"vehicle_type_id":"4","last_reported":1731514271,"current_range_meters":38800,"station_id":"ce4bhgp2rcd13ifvqfc0","pricing_plan_id":"cebpf4jnsgd1na2vs0mg"},{"bike_id":"2b2d99db-a674-4156-8a8f-872638241ed5","system_id":"levelo_inurba_marseille","lat":43.2396,"lon":5.36623,"is_reserved":false,"is_disabled":false,"rental_uris":{"android":"levelo://app?vid=2b2d99db-a674-4156-8a8f-872638241ed5","ios":"levelo://app?vid=2b2d99db-a674-4156-8a8f-872638241ed5"},"vehicle_type_id":"4","last_reported":1731514271,"current_range_meters":36000,"station_id":"ce4bhi12rcd13ifvqfp0","pricing_plan_id":"cebpf4jnsgd1na2vs0mg"},{"bike_id":"4ac99366-ea26-4050-83fa-5d5c63d269d4","system_id":"levelo_inurba_marseille","lat":43.28989,"lon":5.37838,"is_reserved":false,"is_disabled":false,"rental_uris":{"android":"levelo://app?vid=4ac99366-ea26-4050-83fa-5d5c63d269d4","ios":"levelo://app?vid=4ac99366-ea26-4050-83fa-5d5c63d269d4"},"vehicle_type_id":"4","last_reported":1731514271,"current_range_meters":26800,"station_id":"ce4bh9p2rcd13ifvqed0","pricing_plan_id":"cebpf4jnsgd1na2vs0mg"},{"bike_id":"c5f05f98-481e-40bb-89ff-1dc9820b5dff","system_id":"levelo_inurba_marseille","lat":43.2978,"lon":5.37114,"is_reserved":false,"is_disabled":false,"rental_uris":{"android":"levelo://app?vid=c5f05f98-481e-40bb-89ff-1dc9820b5dff","ios":"levelo://app?vid=c5f05f98-481e-40bb-89ff-1dc9820b5dff"},"vehicle_type_id":"4","last_reported":1731514271,"current_range_meters":38800,"station_id":"ce4bgop2rcd13ifvqc1g","pricing_plan_id":"cebpf4jnsgd1na2vs0mg"},{"bike_id":"ab4fe723-65a8-47f3-96f0-b51b04af6711","system_id":"levelo_inurba_marseille","lat":43.27992,"lon":5.40014,"is_reserved":false,"is_disabled":false,"rental_uris":{"android":"levelo://app?vid=ab4fe723-65a8-47f3-96f0-b51b04af6711","ios":"levelo://app?vid=ab4fe723-65a8-47f3-96f0-b51b04af6711"},"vehicle_type_id":"4","last_reported":1731514271,"current_range_meters":35600,"station_id":"ce4bho92rcd13ifvqh4g","pricing_plan_id":"cebpf4jnsgd1na2vs0mg"},{"bike_id":"7666456b-f3a9-40c6-8497-663aa13b96db","system_id":"levelo_inurba_marseille","lat":43.27624,"lon":5.36117,"is_reserved":false,"is_disabled":false,"rental_uris":{"android":"levelo://app?vid=7666456b-f3a9-40c6-8497-663aa13b96db","ios":"levelo://app?vid=7666456b-f3a9-40c6-8497-663aa13b96db"},"vehicle_type_id":"4","last_reported":1731514271,"current_range_meters":28800,"station_id":"ce4bgj92rcd13ifvqbe0","pricing_plan_id":"cebpf4jnsgd1na2vs0mg"},{"bike_id":"b1fcc9de-c55c-4d94-a866-bfafcf7d878f","system_id":"levelo_inurba_marseille","lat":43.30542,"lon":5.36536,"is_reserved":false,"is_disabled":false,"rental_uris":{"android":"levelo://app?vid=b1fcc9de-c55c-4d94-a866-bfafcf7d878f","ios":"levelo://app?vid=b1fcc9de-c55c-4d94-a866-bfafcf7d878f"},"vehicle_type_id":"4","last_reported":1731514271,"current_range_meters":38800,"station_id":"ce4bgs12rcd13ifvqcag","pricing_plan_id":"cebpf4jnsgd1na2vs0mg"},{"bike_id":"8b120f85-ae6f-4d05-8346-3084a1650cc7","system_id":"levelo_inurba_marseille","lat":43.26792,"lon":5.39416,"is_reserved":false,"is_disabled":false,"rental_uris":{"android":"levelo://app?vid=8b120f85-ae6f-4d05-8346-3084a1650cc7","ios":"levelo://app?vid=8b120f85-ae6f-4d05-8346-3084a1650cc7"},"vehicle_type_id":"4","last_reported":1731514271,"current_range_meters":34800,"station_id":"ce4bhh12rcd13ifvqfg0","pricing_plan_id":"cebpf4jnsgd1na2vs0mg"},{"bike_id":"0f92bd0d-a71f-4dd1-a19b-e55fd3d0f3d6","system_id":"levelo_inurba_marseille","lat":43.33023,"lon":5.39037,"is_reserved":false,"is_disabled":false,"rental_uris":{"android":"levelo://app?vid=0f92bd0d-a71f-4dd1-a19b-e55fd3d0f3d6","ios":"levelo://app?vid=0f92bd0d-a71f-4dd1-a19b-e55fd3d0f3d6"},"vehicle_type_id":"4","last_reported":1731514271,"current_range_meters":39200,"station_id":"ce4bhr92rcd13ifvqhrg","pricing_plan_id":"cebpf4jnsgd1na2vs0mg"},{"bike_id":"3a6652aa-a631-491c-b099-d7d2f7a5311b","system_id":"levelo_inurba_marseille","lat":43.31974,"lon":5.38146,"is_reserved":false,"is_disabled":false,"rental_uris":{"android":"levelo://app?vid=3a6652aa-a631-491c-b099-d7d2f7a5311b","ios":"levelo://app?vid=3a6652aa-a631-491c-b099-d7d2f7a5311b"},"vehicle_type_id":"4","last_reported":1731514271,"current_range_meters":35200,"station_id":"ce4bhr12rcd13ifvqhpg","pricing_plan_id":"cebpf4jnsgd1na2vs0mg"},{"bike_id":"4a7a6ae1-4190-46a7-9c62-be00a8887a2d","system_id":"levelo_inurba_marseille","lat":43.30095,"lon":5.39101,"is_reserved":false,"is_disabled":false,"rental_uris":{"android":"levelo://app?vid=4a7a6ae1-4190-46a7-9c62-be00a8887a2d","ios":"levelo://app?vid=4a7a6ae1-4190-46a7-9c62-be00a8887a2d"},"vehicle_type_id":"4","last_reported":1731514271,"current_range_meters":39200,"station_id":"ce4bh192rcd13ifvqdb0","pricing_plan_id":"cebpf4jnsgd1na2vs0mg"},{"bike_id":"0ab37372-7f27-4355-b493-8b72d72e74ff","system_id":"levelo_inurba_marseille","lat":43.30534,"lon":5.38433,"is_reserved":false,"is_disabled":false,"rental_uris":{"android":"levelo://app?vid=0ab37372-7f27-4355-b493-8b72d72e74ff","ios":"levelo://app?vid=0ab37372-7f27-4355-b493-8b72d72e74ff"},"vehicle_type_id":"4","last_reported":1731514271,"current_range_meters":14000,"station_id":"ce4bgg92rcd13ifvqb30","pricing_plan_id":"cebpf4jnsgd1na2vs0mg"},{"bike_id":"c45f01e8-ce01-48f0-95b3-2f966d96e3f1","system_id":"levelo_inurba_marseille","lat":43.29541,"lon":5.38543,"is_reserved":false,"is_disabled":false,"rental_uris":{"android":"levelo://app?vid=c45f01e8-ce01-48f0-95b3-2f966d96e3f1","ios":"levelo://app?vid=c45f01e8-ce01-48f0-95b3-2f966d96e3f1"},"vehicle_type_id":"4","last_reported":1731514271,"current_range_meters":38800,"station_id":"ce4bgih2rcd13ifvqba0","pricing_plan_id":"cebpf4jnsgd1na2vs0mg"},{"bike_id":"835f1e38-d0fa-4cb4-814f-3bae97301e99","system_id":"levelo_inurba_marseille","lat":43.31122,"lon":5.37777,"is_reserved":false,"is_disabled":false,"rental_uris":{"android":"levelo://app?vid=835f1e38-d0fa-4cb4-814f-3bae97301e99","ios":"levelo://app?vid=835f1e38-d0fa-4cb4-814f-3bae97301e99"},"vehicle_type_id":"4","last_reported":1731514271,"current_range_meters":18800,"station_id":"ce4bgt92rcd13ifvqcg0","pricing_plan_id":"cebpf4jnsgd1na2vs0mg"},{"bike_id":"66b6c934-11e2-486c-9dff-5745e4c8a146","system_id":"levelo_inurba_marseille","lat":43.25502,"lon":5.37653,"is_reserved":false,"is_disabled":false,"rental_uris":{"android":"levelo://app?vid=66b6c934-11e2-486c-9dff-5745e4c8a146","ios":"levelo://app?vid=66b6c934-11e2-486c-9dff-5745e4c8a146"},"vehicle_type_id":"4","last_reported":1731514271,"current_range_meters":32000,"station_id":"ce4bhh12rcd13ifvqff0","pricing_plan_id":"cebpf4jnsgd1na2vs0mg"},{"bike_id":"3ce1a3bd-5c73-467d-8b1f-dbf7d6bc1517","system_id":"levelo_inurba_marseille","lat":43.3149,"lon":5.37316,"is_reserved":false,"is_disabled":false,"rental_uris":{"android":"levelo://app?vid=3ce1a3bd-5c73-467d-8b1f-dbf7d6bc1517","ios":"levelo://app?vid=3ce1a3bd-5c73-467d-8b1f-dbf7d6bc1517"},"vehicle_type_id":"4","last_reported":1731514271,"current_range_meters":4800,"station_id":"ce4bgt12rcd13ifvqcd0","pricing_plan_id":"cebpf4jnsgd1na2vs0mg"},{"bike_id":"3c2ea73a-6749-49f4-808a-f55304df925a","system_id":"levelo_inurba_marseille","lat":43.28406,"lon":5.37518,"is_reserved":false,"is_disabled":false,"rental_uris":{"android":"levelo://app?vid=3c2ea73a-6749-49f4-808a-f55304df925a","ios":"levelo://app?vid=3c2ea73a-6749-49f4-808a-f55304df925a"},"vehicle_type_id":"4","last_reported":1731514271,"current_range_meters":28800,"station_id":"ce4bh412rcd13ifvqds0","pricing_plan_id":"cebpf4jnsgd1na2vs0mg"},{"bike_id":"b8f54bf8-9a68-49bc-8ff7-07eb6cf6801b","system_id":"levelo_inurba_marseille","lat":43.24177,"lon":5.39735,"is_reserved":false,"is_disabled":false,"rental_uris":{"android":"levelo://app?vid=b8f54bf8-9a68-49bc-8ff7-07eb6cf6801b","ios":"levelo://app?vid=b8f54bf8-9a68-49bc-8ff7-07eb6cf6801b"},"vehicle_type_id":"4","last_reported":1731514271,"current_range_meters":21600,"station_id":"ce4bhn12rcd13ifvqgpg","pricing_plan_id":"cebpf4jnsgd1na2vs0mg"},{"bike_id":"c84c86d8-7058-4753-956a-3d2dbdbcb6e3","system_id":"levelo_inurba_marseille","lat":43.23151,"lon":5.43714,"is_reserved":false,"is_disabled":false,"rental_uris":{"android":"levelo://app?vid=c84c86d8-7058-4753-956a-3d2dbdbcb6e3","ios":"levelo://app?vid=c84c86d8-7058-4753-956a-3d2dbdbcb6e3"},"vehicle_type_id":"4","last_reported":1731514271,"current_range_meters":20800,"station_id":"ce4bhmp2rcd13ifvqgog","pricing_plan_id":"cebpf4jnsgd1na2vs0mg"},{"bike_id":"2634c0a1-3863-460d-b5b8-75dee43d4096","system_id":"levelo_inurba_marseille","lat":43.28938,"lon":5.36644,"is_reserved":false,"is_disabled":false,"rental_uris":{"android":"levelo://app?vid=2634c0a1-3863-460d-b5b8-75dee43d4096","ios":"levelo://app?vid=2634c0a1-3863-460d-b5b8-75dee43d4096"},"vehicle_type_id":"4","last_reported":1731514271,"current_range_meters":16000,"station_id":"ce4bhap2rcd13ifvqek0","pricing_plan_id":"cebpf4jnsgd1na2vs0mg"},{"bike_id":"e2932b67-08de-4d49-8122-468094ddeee5","system_id":"levelo_inurba_marseille","lat":43.24181,"lon":5.39728,"is_reserved":false,"is_disabled":false,"rental_uris":{"android":"levelo://app?vid=e2932b67-08de-4d49-8122-468094ddeee5","ios":"levelo://app?vid=e2932b67-08de-4d49-8122-468094ddeee5"},"vehicle_type_id":"4","last_reported":1731514271,"current_range_meters":31200,"station_id":"ce4bhn12rcd13ifvqgpg","pricing_plan_id":"cebpf4jnsgd1na2vs0mg"},{"bike_id":"baa0df7c-72a2-4de6-a82b-bebad25853fc","system_id":"levelo_inurba_marseille","lat":43.26957,"lon":5.3864,"is_reserved":false,"is_disabled":false,"rental_uris":{"android":"levelo://app?vid=baa0df7c-72a2-4de6-a82b-bebad25853fc","ios":"levelo://app?vid=baa0df7c-72a2-4de6-a82b-bebad25853fc"},"vehicle_type_id":"4","last_reported":1731514271,"current_range_meters":10000,"station_id":"ce4bhh92rcd13ifvqfh0","pricing_plan_id":"cebpf4jnsgd1na2vs0mg"},{"bike_id":"7c6bd3c6-5015-4eeb-9fdf-591841486bad","system_id":"levelo_inurba_marseille","lat":43.29905,"lon":5.374716,"is_reserved":false,"is_disabled":false,"rental_uris":{"android":"levelo://app?vid=7c6bd3c6-5015-4eeb-9fdf-591841486bad","ios":"levelo://app?vid=7c6bd3c6-5015-4eeb-9fdf-591841486bad"},"vehicle_type_id":"4","last_reported":1731514271,"current_range_meters":14000,"station_id":"ce4bgjh2rcd13ifvqbg0","pricing_plan_id":"cebpf4jnsgd1na2vs0mg"},{"bike_id":"97ca0fc8-d13c-4076-92bb-df266bee07c2","system_id":"levelo_inurba_marseille","lat":43.31721,"lon":5.42392,"is_reserved":false,"is_disabled":false,"rental_uris":{"android":"levelo://app?vid=97ca0fc8-d13c-4076-92bb-df266bee07c2","ios":"levelo://app?vid=97ca0fc8-d13c-4076-92bb-df266bee07c2"},"vehicle_type_id":"4","last_reported":1731514271,"current_range_meters":38000,"station_id":"ce4bhp92rcd13ifvqhbg","pricing_plan_id":"cebpf4jnsgd1na2vs0mg"},{"bike_id":"746296c1-1add-41dd-a53c-91c82c54c6cb","system_id":"levelo_inurba_marseille","lat":43.23201,"lon":5.35548,"is_reserved":false,"is_disabled":false,"rental_uris":{"android":"levelo://app?vid=746296c1-1add-41dd-a53c-91c82c54c6cb","ios":"levelo://app?vid=746296c1-1add-41dd-a53c-91c82c54c6cb"},"vehicle_type_id":"4","last_reported":1731514271,"current_range_meters":38800,"station_id":"ce4bhu92rcd13ifvqi70","pricing_plan_id":"cebpf4jnsgd1na2vs0mg"},{"bike_id":"6fbd40cb-6cae-493e-8ab5-f69f27534260","system_id":"levelo_inurba_marseille","lat":43.28474,"lon":5.35908,"is_reserved":false,"is_disabled":false,"rental_uris":{"android":"levelo://app?vid=6fbd40cb-6cae-493e-8ab5-f69f27534260","ios":"levelo://app?vid=6fbd40cb-6cae-493e-8ab5-f69f27534260"},"vehicle_type_id":"4","last_reported":1731514271,"current_range_meters":30000,"station_id":"ce4bhah2rcd13ifvqei0","pricing_plan_id":"cebpf4jnsgd1na2vs0mg"},{"bike_id":"2463dac8-3f00-435b-91dc-50bbdddb69d2","system_id":"levelo_inurba_marseille","lat":43.26547,"lon":5.3729,"is_reserved":false,"is_disabled":false,"rental_uris":{"android":"levelo://app?vid=2463dac8-3f00-435b-91dc-50bbdddb69d2","ios":"levelo://app?vid=2463dac8-3f00-435b-91dc-50bbdddb69d2"},"vehicle_type_id":"4","last_reported":1731514271,"current_range_meters":26800,"station_id":"ce4bhg12rcd13ifvqf70","pricing_plan_id":"cebpf4jnsgd1na2vs0mg"},{"bike_id":"a3142cc4-665e-4a01-bf87-d00f06f851ef","system_id":"levelo_inurba_marseille","lat":43.30275,"lon":5.39241,"is_reserved":false,"is_disabled":false,"rental_uris":{"android":"levelo://app?vid=a3142cc4-665e-4a01-bf87-d00f06f851ef","ios":"levelo://app?vid=a3142cc4-665e-4a01-bf87-d00f06f851ef"},"vehicle_type_id":"4","last_reported":1731514271,"current_range_meters":25200,"station_id":"ce4bgkh2rcd13ifvqbk0","pricing_plan_id":"cebpf4jnsgd1na2vs0mg"},{"bike_id":"1d9043d1-43f5-4c7c-8644-29c9c6434d2c","system_id":"levelo_inurba_marseille","lat":43.33018,"lon":5.39063,"is_reserved":false,"is_disabled":false,"rental_uris":{"android":"levelo://app?vid=1d9043d1-43f5-4c7c-8644-29c9c6434d2c","ios":"levelo://app?vid=1d9043d1-43f5-4c7c-8644-29c9c6434d2c"},"vehicle_type_id":"4","last_reported":1731514271,"current_range_meters":38800,"station_id":"ce4bhr92rcd13ifvqhrg","pricing_plan_id":"cebpf4jnsgd1na2vs0mg"},{"bike_id":"ed8ad4ae-0c8c-4326-84e8-8347422a952d","system_id":"levelo_inurba_marseille","lat":43.26801,"lon":5.40272,"is_reserved":false,"is_disabled":false,"rental_uris":{"android":"levelo://app?vid=ed8ad4ae-0c8c-4326-84e8-8347422a952d","ios":"levelo://app?vid=ed8ad4ae-0c8c-4326-84e8-8347422a952d"},"vehicle_type_id":"4","last_reported":1731514271,"current_range_meters":34000,"station_id":"ce501612rcd8frsf0b60","pricing_plan_id":"cebpf4jnsgd1na2vs0mg"},{"bike_id":"76d57b49-1957-4e08-8f8d-e6eba11c4c93","system_id":"levelo_inurba_marseille","lat":43.28037,"lon":5.36949,"is_reserved":false,"is_disabled":false,"rental_uris":{"android":"levelo://app?vid=76d57b49-1957-4e08-8f8d-e6eba11c4c93","ios":"levelo://app?vid=76d57b49-1957-4e08-8f8d-e6eba11c4c93"},"vehicle_type_id":"4","last_reported":1731514271,"current_range_meters":11600,"station_id":"ce4bha12rcd13ifvqef0","pricing_plan_id":"cebpf4jnsgd1na2vs0mg"},{"bike_id":"00bc4545-8f6c-4966-b890-b6c9062a1b39","system_id":"levelo_inurba_marseille","lat":43.337444,"lon":5.374475,"is_reserved":false,"is_disabled":false,"rental_uris":{"android":"levelo://app?vid=00bc4545-8f6c-4966-b890-b6c9062a1b39","ios":"levelo://app?vid=00bc4545-8f6c-4966-b890-b6c9062a1b39"},