{"last_updated":1734347320,"ttl":60,"version":"2.2","data":{"bikes":[{"bike_id":"6cb06d5b-b9ac-4325-ba0a-17357eb9ec74","system_id":"levelo_inurba_marseille","lat":43.28267,"lon":5.35058,"is_reserved":false,"is_disabled":true,"rental_uris":{"android":"levelo://app?vid=6cb06d5b-b9ac-4325-ba0a-17357eb9ec74","ios":"levelo://app?vid=6cb06d5b-b9ac-4325-ba0a-17357eb9ec74"},"vehicle_type_id":"4","last_reported":1734347320,"current_range_meters":0,"station_id":"ce4bhbp2rcd13ifvqerg","pricing_plan_id":"cebpf4jnsgd1na2vs0mg"},{"bike_id":"61d772b3-e172-4f5d-8778-5fb43be913c2","system_id":"levelo_inurba_marseille","lat":43.27069,"lon":5.4228,"is_reserved":false,"is_disabled":false,"rental_uris":{"android":"levelo://app?vid=61d772b3-e172-4f5d-8778-5fb43be913c2","ios":"levelo://app?vid=61d772b3-e172-4f5d-8778-5fb43be913c2"},"vehicle_type_id":"4","last_reported":1734347320,"current_range_meters":37600,"station_id":"ce4bhk92rcd13ifvqgb0","pricing_plan_id":"cebpf4jnsgd1na2vs0mg"},{"bike_id":"a631c317-ab92-4a5a-b82f-97562232ca34","system_id":"levelo_inurba_marseille","lat":43.3031,"lon":5.36907,"is_reserved":false,"is_disabled":false,"rental_uris":{"android":"levelo://app?vid=a631c317-ab92-4a5a-b82f-97562232ca34","ios":"levelo://app?vid=a631c317-ab92-4a5a-b82f-97562232ca34"},"vehicle_type_id":"4","last_reported":1734347320,"current_range_meters":32400,"station_id":"ce4bgqh2rcd13ifvqc5g","pricing_plan_id":"cebpf4jnsgd1na2vs0mg"},{"bike_id":"6b6f81c7-d9fa-4a2b-ace0-a3d3bae6341c","system_id":"levelo_inurba_marseille","lat":43.30169,"lon":5.36628,"is_reserved":false,"is_disabled":false,"rental_uris":{"android":"levelo://app?vid=6b6f81c7-d9fa-4a2b-ace0-a3d3bae6341c","ios":"levelo://app?vid=6b6f81c7-d9fa-4a2b-ace0-a3d3bae6341c"},"vehicle_type_id":"4","last_reported":1734347320,"current_range_meters":10800,"station_id":"ce4bgrh2rcd13ifvqc8g","pricing_plan_id":"cebpf4jnsgd1na2vs0mg"},{"bike_id":"49735576-98af-4537-b127-26ad7906beaf","system_id":"levelo_inurba_marseille","lat":43.26053,"lon":5.39393,"is_reserved":false,"is_disabled":false,"rental_uris":{"android":"levelo://app?vid=49735576-98af-4537-b127-26ad7906beaf","ios":"levelo://app?vid=49735576-98af-4537-b127-26ad7906beaf"},"vehicle_type_id":"4","last_reported":1734347320,"current_range_meters":26000,"station_id":"ce4bhh92rcd13ifvqfj0","pricing_plan_id":"cebpf4jnsgd1na2vs0mg"},{"bike_id":"ca3df5e0-67be-47b8-805d-29b9eedafd76","system_id":"levelo_inurba_marseille","lat":43.301293,"lon":5.387846,"is_reserved":false,"is_disabled":false,"rental_uris":{"android":"levelo://app?vid=ca3df5e0-67be-47b8-805d-29b9eedafd76","ios":"levelo://app?vid=ca3df5e0-67be-47b8-805d-29b9eedafd76"},"vehicle_type_id":"4","last_reported":1734347320,"current_range_meters":10000,"station_id":"ce4bghh2rcd13ifvqb60","pricing_plan_id":"cebpf4jnsgd1na2vs0mg"},{"bike_id":"c502f606-0c13-49c8-b42f-08ae57c6da28","system_id":"levelo_inurba_marseille","lat":43.24075,"lon":5.37756,"is_reserved":false,"is_disabled":false,"rental_uris":{"android":"levelo://app?vid=c502f606-0c13-49c8-b42f-08ae57c6da28","ios":"levelo://app?vid=c502f606-0c13-49c8-b42f-08ae57c6da28"},"vehicle_type_id":"4","last_reported":1734347320,"current_range_meters":39200,"station_id":"ce4bhnp2rcd13ifvqgvg","pricing_plan_id":"cebpf4jnsgd1na2vs0mg"},{"bike_id":"056b5aaf-2ec2-45c7-9526-1328fc2f1b4f","system_id":"levelo_inurba_marseille","lat":43.29548,"lon":5.42296,"is_reserved":false,"is_disabled":false,"rental_uris":{"android":"levelo://app?vid=056b5aaf-2ec2-45c7-9526-1328fc2f1b4f","ios":"levelo://app?vid=056b5aaf-2ec2-45c7-9526-1328fc2f1b4f"},"vehicle_type_id":"4","last_reported":1734347320,"current_range_meters":10800,"station_id":"ce4bhph2rcd13ifvqhdg","pricing_plan_id":"cebpf4jnsgd1na2vs0mg"},{"bike_id":"2a2dfee7-e8bd-4670-b2f4-34d6ff663d8b","system_id":"levelo_inurba_marseille","lat":43.28513,"lon":5.38041,"is_reserved":false,"is_disabled":true,"rental_uris":{"android":"levelo://app?vid=2a2dfee7-e8bd-4670-b2f4-34d6ff663d8b","ios":"levelo://app?vid=2a2dfee7-e8bd-4670-b2f4-34d6ff663d8b"},"vehicle_type_id":"4","last_reported":1734347320,"current_range_meters":25200,"station_id":"","pricing_plan_id":"cebpf4jnsgd1na2vs0mg"},{"bike_id":"bbe1d0cd-b9c5-4e0f-9fc9-a00b7199199d","system_id":"levelo_inurba_marseille","lat":43.29567,"lon":5.37514,"is_reserved":false,"is_disabled":false,"rental_uris":{"android":"levelo://app?vid=bbe1d0cd-b9c5-4e0f-9fc9-a00b7199199d","ios":"levelo://app?vid=bbe1d0cd-b9c5-4e0f-9fc9-a00b7199199d"},"vehicle_type_id":"4","last_reported":1734347320,"current_range_meters":38000,"station_id":"ce4bgh92rcd13ifvqb50","pricing_plan_id":"cebpf4jnsgd1na2vs0mg"},{"bike_id":"68318da2-404d-4277-bcad-71c1cc0f38c8","system_id":"levelo_inurba_marseille","lat":43.27202,"lon":5.39191,"is_reserved":false,"is_disabled":false,"rental_uris":{"android":"levelo://app?vid=68318da2-404d-4277-bcad-71c1cc0f38c8","ios":"levelo://app?vid=68318da2-404d-4277-bcad-71c1cc0f38c8"},"vehicle_type_id":"4","last_reported":1734347320,"current_range_meters":16800,"station_id":"ce4bhhp2rcd13ifvqfm0","pricing_plan_id":"cebpf4jnsgd1na2vs0mg"},{"bike_id":"c8df81c4-c005-46f0-96a4-0d7a47738bee","system_id":"levelo_inurba_marseille","lat":43.25935,"lon":5.40901,"is_reserved":false,"is_disabled":false,"rental_uris":{"android":"levelo://app?vid=c8df81c4-c005-46f0-96a4-0d7a47738bee","ios":"levelo://app?vid=c8df81c4-c005-46f0-96a4-0d7a47738bee"},"vehicle_type_id":"4","last_reported":1734347320,"current_range_meters":38800,"station_id":"ce4bhm92rcd13ifvqglg","pricing_plan_id":"cebpf4jnsgd1na2vs0mg"},{"bike_id":"2aabb9e3-ae45-4b17-b10d-af50e235d80a","system_id":"levelo_inurba_marseille","lat":43.26784,"lon":5.39927,"is_reserved":false,"is_disabled":true,"rental_uris":{"android":"levelo://app?vid=2aabb9e3-ae45-4b17-b10d-af50e235d80a","ios":"levelo://app?vid=2aabb9e3-ae45-4b17-b10d-af50e235d80a"},"vehicle_type_id":"4","last_reported":1734347320,"current_range_meters":0,"station_id":"","pricing_plan_id":"cebpf4jnsgd1na2vs0mg"},{"bike_id":"fa2e65c9-0662-4573-af76-4403fbb12936","system_id":"levelo_inurba_marseille","lat":43.28495,"lon":5.35056,"is_reserved":false,"is_disabled":false,"rental_uris":{"android":"levelo://app?vid=fa2e65c9-0662-4573-af76-4403fbb12936","ios":"levelo://app?vid=fa2e65c9-0662-4573-af76-4403fbb12936"},"vehicle_type_id":"4","last_reported":1734347320,"current_range_meters":33600,"station_id":"","pricing_plan_id":"cebpf4jnsgd1na2vs0mg"},{"bike_id":"8773c63b-0ad9-4a41-ad1b-d9e8a66e2ef0","system_id":"levelo_inurba_marseille","lat":43.28479,"lon":5.38548,"is_reserved":false,"is_disabled":false,"rental_uris":{"android":"levelo://app?vid=8773c63b-0ad9-4a41-ad1b-d9e8a66e2ef0","ios":"levelo://app?vid=8773c63b-0ad9-4a41-ad1b-d9e8a66e2ef0"},"vehicle_type_id":"4","last_reported":1734347320,"current_range_meters":37600,"station_id":"ce4bh8p2rcd13ifvqeb0","pricing_plan_id":"cebpf4jnsgd1na2vs0mg"},{"bike_id":"7bec5294-99b2-4c08-a2d1-86eb07092a91","system_id":"levelo_inurba_marseille","lat":43.25384,"lon":5.40199,"is_reserved":false,"is_disabled":false,"rental_uris":{"android":"levelo://app?vid=7bec5294-99b2-4c08-a2d1-86eb07092a91","ios":"levelo://app?vid=7bec5294-99b2-4c08-a2d1-86eb07092a91"},"vehicle_type_id":"4","last_reported":1734347320,"current_range_meters":28800,"station_id":"","pricing_plan_id":"cebpf4jnsgd1na2vs0mg"},{"bike_id":"ced43f3c-6e50-4c3f-8bc5-857811cbd14e","system_id":"levelo_inurba_marseille","lat":43.28671,"lon":5.38675,"is_reserved":false,"is_disabled":false,"rental_uris":{"android":"levelo://app?vid=ced43f3c-6e50-4c3f-8bc5-857811cbd14e","ios":"levelo://app?vid=ced43f3c-6e50-4c3f-8bc5-857811cbd14e"},"vehicle_type_id":"4","last_reported":1734347320,"current_range_meters":22800,"station_id":"ce4bh492rcd13ifvqdug","pricing_plan_id":"cebpf4jnsgd1na2vs0mg"},{"bike_id":"7a40c7c1-8a20-4e16-b3cc-eed59d07be05","system_id":"levelo_inurba_marseille","lat":43.29908,"lon":5.38139,"is_reserved":false,"is_disabled":true,"rental_uris":{"android":"levelo://app?vid=7a40c7c1-8a20-4e16-b3cc-eed59d07be05","ios":"levelo://app?vid=7a40c7c1-8a20-4e16-b3cc-eed59d07be05"},"vehicle_type_id":"4","last_reported":1734347320,"current_range_meters":6800,"station_id":"ce4bgj12rcd13ifvqbc0","pricing_plan_id":"cebpf4jnsgd1na2vs0mg"},{"bike_id":"cad7719d-6bdb-48ae-8920-e62428891cbb","system_id":"levelo_inurba_marseille","lat":43.2803,"lon":5.44121,"is_reserved":false,"is_disabled":true,"rental_uris":{"android":"levelo://app?vid=cad7719d-6bdb-48ae-8920-e62428891cbb","ios":"levelo://app?vid=cad7719d-6bdb-48ae-8920-e62428891cbb"},"vehicle_type_id":"4","last_reported":1734347320,"current_range_meters":0,"station_id":"","pricing_plan_id":"cebpf4jnsgd1na2vs0mg"},{"bike_id":"8b266861-ab5e-46e4-8cc3-061a8bc3872d","system_id":"levelo_inurba_marseille","lat":43.24664,"lon":5.3816,"is_reserved":false,"is_disabled":false,"rental_uris":{"android":"levelo://app?vid=8b266861-ab5e-46e4-8cc3-061a8bc3872d","ios":"levelo://app?vid=8b266861-ab5e-46e4-8cc3-061a8bc3872d"},"vehicle_type_id":"4","last_reported":1734347320,"current_range_meters":26800,"station_id":"ce4bhih2rcd13ifvqfr0","pricing_plan_id":"cebpf4jnsgd1na2vs0mg"},{"bike_id":"8c661a81-aa0f-4e45-ab1f-653e920751fb","system_id":"levelo_inurba_marseille","lat":43.309,"lon":5.36856,"is_reserved":false,"is_disabled":false,"rental_uris":{"android":"levelo://app?vid=8c661a81-aa0f-4e45-ab1f-653e920751fb","ios":"levelo://app?vid=8c661a81-aa0f-4e45-ab1f-653e920751fb"},"vehicle_type_id":"4","last_reported":1734347320,"current_range_meters":23200,"station_id":"ce4bgn92rcd13ifvqbvg","pricing_plan_id":"cebpf4jnsgd1na2vs0mg"},{"bike_id":"5c2f34ef-47e8-431f-820a-a8cb58b437a3","system_id":"levelo_inurba_marseille","lat":43.31331,"lon":5.36729,"is_reserved":false,"is_disabled":false,"rental_uris":{"android":"levelo://app?vid=5c2f34ef-47e8-431f-820a-a8cb58b437a3","ios":"levelo://app?vid=5c2f34ef-47e8-431f-820a-a8cb58b437a3"},"vehicle_type_id":"4","last_reported":1734347320,"current_range_meters":38800,"station_id":"ce4bgr92rcd13ifvqc6g","pricing_plan_id":"cebpf4jnsgd1na2vs0mg"},{"bike_id":"c3fe200c-b5c2-41a4-bb54-aeb1bd77beb0","system_id":"levelo_inurba_marseille","lat":43.28147,"lon":5.42675,"is_reserved":false,"is_disabled":false,"rental_uris":{"android":"levelo://app?vid=c3fe200c-b5c2-41a4-bb54-aeb1bd77beb0","ios":"levelo://app?vid=c3fe200c-b5c2-41a4-bb54-aeb1bd77beb0"},"vehicle_type_id":"4","last_reported":1734347320,"current_range_meters":38400,"station_id":"ce4bhnh2rcd13ifvqgug","pricing_plan_id":"cebpf4jnsgd1na2vs0mg"},{"bike_id":"215c011f-dabf-4b06-a7fd-2279d6590f33","system_id":"levelo_inurba_marseille","lat":43.2656,"lon":5.37286,"is_reserved":false,"is_disabled":true,"rental_uris":{"android":"levelo://app?vid=215c011f-dabf-4b06-a7fd-2279d6590f33","ios":"levelo://app?vid=215c011f-dabf-4b06-a7fd-2279d6590f33"},"vehicle_type_id":"4","last_reported":1734347320,"current_range_meters":36800,"station_id":"ce4bhg12rcd13ifvqf70","pricing_plan_id":"cebpf4jnsgd1na2vs0mg"},{"bike_id":"4deb15ef-079e-44d5-9289-1d9084b509a7","system_id":"levelo_inurba_marseille","lat":43.31312,"lon":5.36949,"is_reserved":false,"is_disabled":false,"rental_uris":{"android":"levelo://app?vid=4deb15ef-079e-44d5-9289-1d9084b509a7","ios":"levelo://app?vid=4deb15ef-079e-44d5-9289-1d9084b509a7"},"vehicle_type_id":"4","last_reported":1734347320,"current_range_meters":37600,"station_id":"","pricing_plan_id":"cebpf4jnsgd1na2vs0mg"},{"bike_id":"d5c89c1f-3bad-4af2-9449-e04c277a4696","system_id":"levelo_inurba_marseille","lat":43.29957,"lon":5.41322,"is_reserved":false,"is_disabled":true,"rental_uris":{"android":"levelo://app?vid=d5c89c1f-3bad-4af2-9449-e04c277a4696","ios":"levelo://app?vid=d5c89c1f-3bad-4af2-9449-e04c277a4696"},"vehicle_type_id":"4","last_reported":1734347320,"current_range_meters":35200,"station_id":"ce4bhp12rcd13ifvqh9g","pricing_plan_id":"cebpf4jnsgd1na2vs0mg"},{"bike_id":"7375be9c-7b03-4ee6-b6c9-51205081fc00","system_id":"levelo_inurba_marseille","lat":43.32537,"lon":5.41436,"is_reserved":false,"is_disabled":true,"rental_uris":{"android":"levelo://app?vid=7375be9c-7b03-4ee6-b6c9-51205081fc00","ios":"levelo://app?vid=7375be9c-7b03-4ee6-b6c9-51205081fc00"},"vehicle_type_id":"4","last_reported":1734347320,"current_range_meters":37600,"station_id":"ce4bhq12rcd13ifvqhhg","pricing_plan_id":"cebpf4jnsgd1na2vs0mg"},{"bike_id":"00470025-0594-4fc8-bb13-03b023b393ad","system_id":"levelo_inurba_marseille","lat":43.23059,"lon":5.35495,"is_reserved":false,"is_disabled":false,"rental_uris":{"android":"levelo://app?vid=00470025-0594-4fc8-bb13-03b023b393ad","ios":"levelo://app?vid=00470025-0594-4fc8-bb13-03b023b393ad"},"vehicle_type_id":"4","last_reported":1734347320,"current_range_meters":28000,"station_id":"cpo3342slgdg3j2ifvpg","pricing_plan_id":"cebpf4jnsgd1na2vs0mg"},{"bike_id":"645234d5-1ba6-47d0-a264-332279a70988","system_id":"levelo_inurba_marseille","lat":43.3134,"lon":5.36728,"is_reserved":false,"is_disabled":false,"rental_uris":{"android":"levelo://app?vid=645234d5-1ba6-47d0-a264-332279a70988","ios":"levelo://app?vid=645234d5-1ba6-47d0-a264-332279a70988"},"vehicle_type_id":"4","last_reported":1734347320,"current_range_meters":15200,"station_id":"ce4bgr92rcd13ifvqc6g","pricing_plan_id":"cebpf4jnsgd1na2vs0mg"},{"bike_id":"5016a272-cc15-437e-9ef7-2b9aad970202","system_id":"levelo_inurba_marseille","lat":43.297825,"lon":5.370598,"is_reserved":false,"is_disabled":false,"rental_uris":{"android":"levelo://app?vid=5016a272-cc15-437e-9ef7-2b9aad970202","ios":"levelo://app?vid=5016a272-cc15-437e-9ef7-2b9aad970202"},"vehicle_type_id":"4","last_reported":1734347320,"current_range_meters":16400,"station_id":"ce4bgop2rcd13ifvqc1g","pricing_plan_id":"cebpf4jnsgd1na2vs0mg"},{"bike_id":"e209b4cc-b597-4646-9ecd-9f5a1bd9a464","system_id":"levelo_inurba_marseille","lat":43.33776,"lon":5.42101,"is_reserved":false,"is_disabled":true,"rental_uris":{"android":"levelo://app?vid=e209b4cc-b597-4646-9ecd-9f5a1bd9a464","ios":"levelo://app?vid=e209b4cc-b597-4646-9ecd-9f5a1bd9a464"},"vehicle_type_id":"4","last_reported":1734347320,"current_range_meters":1200,"station_id":"","pricing_plan_id":"cebpf4jnsgd1na2vs0mg"},{"bike_id":"4e6893f5-c39d-4bb6-9ca6-b033833b978a","system_id":"levelo_inurba_marseille","lat":43.25105,"lon":5.40317,"is_reserved":false,"is_disabled":false,"rental_uris":{"android":"levelo://app?vid=4e6893f5-c39d-4bb6-9ca6-b033833b978a","ios":"levelo://app?vid=4e6893f5-c39d-4bb6-9ca6-b033833b978a"},"vehicle_type_id":"4","last_reported":1734347320,"current_range_meters":38800,"station_id":"ce4bhlh2rcd13ifvqgig","pricing_plan_id":"cebpf4jnsgd1na2vs0mg"},{"bike_id":"f271e6f1-9e87-4ff2-8855-274f91669dab","system_id":"levelo_inurba_marseille","lat":43.28923,"lon":5.38407,"is_reserved":false,"is_disabled":false,"rental_uris":{"android":"levelo://app?vid=f271e6f1-9e87-4ff2-8855-274f91669dab","ios":"levelo://app?vid=f271e6f1-9e87-4ff2-8855-274f91669dab"},"vehicle_type_id":"4","last_reported":1734347320,"current_range_meters":32000,"station_id":"ce4bh612rcd13ifvqe6g","pricing_plan_id":"cebpf4jnsgd1na2vs0mg"},{"bike_id":"319a3701-b684-4758-bf5d-fed38e475d1c","system_id":"levelo_inurba_marseille","lat":43.25085,"lon":5.39501,"is_reserved":false,"is_disabled":true,"rental_uris":{"android":"levelo://app?vid=319a3701-b684-4758-bf5d-fed38e475d1c","ios":"levelo://app?vid=319a3701-b684-4758-bf5d-fed38e475d1c"},"vehicle_type_id":"4","last_reported":1734347320,"current_range_meters":34000,"station_id":"ce4bhm12rcd13ifvqgkg","pricing_plan_id":"cebpf4jnsgd1na2vs0mg"},{"bike_id":"cd072780-7096-4569-89c5-7bdf6f0de2f2","system_id":"levelo_inurba_marseille","lat":43.28681,"lon":5.38689,"is_reserved":false,"is_disabled":false,"rental_uris":{"android":"levelo://app?vid=cd072780-7096-4569-89c5-7bdf6f0de2f2","ios":"levelo://app?vid=cd072780-7096-4569-89c5-7bdf6f0de2f2"},"vehicle_type_id":"4","last_reported":1734347320,"current_range_meters":6400,"station_id":"ce4bh492rcd13ifvqdug","pricing_plan_id":"cebpf4jnsgd1na2vs0mg"},{"bike_id":"5d329fdb-96bf-4042-956d-e5b65ec359d1","system_id":"levelo_inurba_marseille","lat":43.2923,"lon":5.36074,"is_reserved":false,"is_disabled":false,"rental_uris":{"android":"levelo://app?vid=5d329fdb-96bf-4042-956d-e5b65ec359d1","ios":"levelo://app?vid=5d329fdb-96bf-4042-956d-e5b65ec359d1"},"vehicle_type_id":"4","last_reported":1734347320,"current_range_meters":5600,"station_id":"ce4bhbh2rcd13ifvqeqg","pricing_plan_id":"cebpf4jnsgd1na2vs0mg"},{"bike_id":"2fdb6d83-7b91-4a69-a3f1-c83eb6dfaaa5","system_id":"levelo_inurba_marseille","lat":43.31325,"lon":5.39698,"is_reserved":false,"is_disabled":false,"rental_uris":{"android":"levelo://app?vid=2fdb6d83-7b91-4a69-a3f1-c83eb6dfaaa5","ios":"levelo://app?vid=2fdb6d83-7b91-4a69-a3f1-c83eb6dfaaa5"},"vehicle_type_id":"4","last_reported":1734347320,"current_range_meters":37600,"station_id":"ce4bh0p2rcd13ifvqd70","pricing_plan_id":"cebpf4jnsgd1na2vs0mg"},{"bike_id":"5f7fa8d8-7e1c-479c-909f-32a13591845b","system_id":"levelo_inurba_marseille","lat":43.26557,"lon":5.37285,"is_reserved":false,"is_disabled":false,"rental_uris":{"android":"levelo://app?vid=5f7fa8d8-7e1c-479c-909f-32a13591845b","ios":"levelo://app?vid=5f7fa8d8-7e1c-479c-909f-32a13591845b"},"vehicle_type_id":"4","last_reported":1734347320,"current_range_meters":24800,"station_id":"ce4bhg12rcd13ifvqf70","pricing_plan_id":"cebpf4jnsgd1na2vs0mg"},{"bike_id":"0dc9c57d-cee6-427b-8f00-d9d81f8f836e","system_id":"levelo_inurba_marseille","lat":43.2318,"lon":5.39988,"is_reserved":false,"is_disabled":false,"rental_uris":{"android":"levelo://app?vid=0dc9c57d-cee6-427b-8f00-d9d81f8f836e","ios":"levelo://app?vid=0dc9c57d-cee6-427b-8f00-d9d81f8f836e"},"vehicle_type_id":"4","last_reported":1734347320,"current_range_meters":25200,"station_id":"ce4bhn12rcd13ifvqgqg","pricing_plan_id":"cebpf4jnsgd1na2vs0mg"},{"bike_id":"e3ce1f04-3f88-431a-ab9f-947d6e2f270c","system_id":"levelo_inurba_marseille","lat":43.33719,"lon":5.39174,"is_reserved":false,"is_disabled":false,"rental_uris":{"android":"levelo://app?vid=e3ce1f04-3f88-431a-ab9f-947d6e2f270c","ios":"levelo://app?vid=e3ce1f04-3f88-431a-ab9f-947d6e2f270c"},"vehicle_type_id":"4","last_reported":1734347320,"current_range_meters":38800,"station_id":"ce4bhr92rcd13ifvqhsg","pricing_plan_id":"cebpf4jnsgd1na2vs0mg"},{"bike_id":"e4445775-7d48-4b97-a7d4-cc20c4ccd0d8","system_id":"levelo_inurba_marseille","lat":43.31207,"lon":5.36857,"is_reserved":false,"is_disabled":false,"rental_uris":{"android":"levelo://app?vid=e4445775-7d48-4b97-a7d4-cc20c4ccd0d8","ios":"levelo://app?vid=e4445775-7d48-4b97-a7d4-cc20c4ccd0d8"},"vehicle_type_id":"4","last_reported":1734347320,"current_range_meters":36800,"station_id":"ce4bgl92rcd13ifvqbq0","pricing_plan_id":"cebpf4jnsgd1na2vs0mg"},{"bike_id":"2adab595-4e2e-4547-9e46-0c7b2b06e182","system_id":"levelo_inurba_marseille","lat":43.337444,"lon":5.374475,"is_reserved":false,"is_disabled":false,"rental_uris":{"android":"levelo://app?vid=2adab595-4e2e-4547-9e46-0c7b2b06e182","ios":"levelo://app?vid=2adab595-4e2e-4547-9e46-0c7b2b06e182"},"vehicle_type_id":"4","last_reported":1734347320,"current_range_meters":12000,"station_id":"","pricing_plan_id":"cebpf4jnsgd1na2vs0mg"},{"bike_id":"4f369c5c-822c-4d58-a07d-344dfd260c31","system_id":"levelo_inurba_marseille","lat":43.23141,"lon":5.43722,"is_reserved":false,"is_disabled":false,"rental_uris":{"android":"levelo://app?vid=4f369c5c-822c-4d58-a07d-344dfd260c31","ios":"levelo://app?vid=4f369c5c-822c-4d58-a07d-344dfd260c31"},"vehicle_type_id":"4","last_reported":1734347320,"current_range_meters":16800,"station_id":"ce4bhmp2rcd13ifvqgog","pricing_plan_id":"cebpf4jnsgd1na2vs0mg"},{"bike_id":"e638f806-6dc7-40f3-ba4e-4f249b00ca01","system_id":"levelo_inurba_marseille","lat":43.27061,"lon":5.40254,"is_reserved":false,"is_disabled":true,"rental_uris":{"android":"levelo://app?vid=e638f806-6dc7-40f3-ba4e-4f249b00ca01","ios":"levelo://app?vid=e638f806-6dc7-40f3-ba4e-4f249b00ca01"},"vehicle_type_id":"4","last_reported":1734347320,"current_range_meters":0,"station_id":"ce4bhk92rcd13ifvqgc0","pricing_plan_id":"cebpf4jnsgd1na2vs0mg"},{"bike_id":"56738774-e89c-48c5-9670-a7ae1a80d7d3","system_id":"levelo_inurba_marseille","lat":43.27017,"lon":5.39142,"is_reserved":false,"is_disabled":true,"rental_uris":{"android":"levelo://app?vid=56738774-e89c-48c5-9670-a7ae1a80d7d3","ios":"levelo://app?vid=56738774-e89c-48c5-9670-a7ae1a80d7d3"},"vehicle_type_id":"4","last_reported":1734347320,"current_range_meters":0,"station_id":"","pricing_plan_id":"cebpf4jnsgd1na2vs0mg"},{"bike_id":"c864a9f0-28fd-4918-9cdf-7db93b288094","system_id":"levelo_inurba_marseille","lat":43.32468,"lon":5.36573,"is_reserved":false,"is_disabled":false,"rental_uris":{"android":"levelo://app?vid=c864a9f0-28fd-4918-9cdf-7db93b288094","ios":"levelo://app?vid=c864a9f0-28fd-4918-9cdf-7db93b288094"},"vehicle_type_id":"4","last_reported":1734347320,"current_range_meters":16800,"station_id":"ce4bhs12rcd13ifvqhvg","pricing_plan_id":"cebpf4jnsgd1na2vs0mg"},{"bike_id":"142f7e33-dd37-42e4-a17a-6ed3e5d58da8","system_id":"levelo_inurba_marseille","lat":43.29896,"lon":5.43661,"is_reserved":false,"is_disabled":false,"rental_uris":{"android":"levelo://app?vid=142f7e33-dd37-42e4-a17a-6ed3e5d58da8","ios":"levelo://app?vid=142f7e33-dd37-42e4-a17a-6ed3e5d58da8"},"vehicle_type_id":"4","last_reported":1734347320,"current_range_meters":3600,"station_id":"ce4bhpp2rcd13ifvqhfg","pricing_plan_id":"cebpf4jnsgd1na2vs0mg"},{"bike_id":"0fe28242-b120-4fc7-8300-39b9e5e17968","system_id":"levelo_inurba_marseille","lat":43.25108,"lon":5.40324,"is_reserved":false,"is_disabled":false,"rental_uris":{"android":"levelo://app?vid=0fe28242-b120-4fc7-8300-39b9e5e17968","ios":"levelo://app?vid=0fe28242-b120-4fc7-8300-39b9e5e17968"},"vehicle_type_id":"4","last_reported":1734347320,"current_range_meters":38800,"station_id":"ce4bhlh2rcd13ifvqgig","pricing_plan_id":"cebpf4jnsgd1na2vs0mg"},{"bike_id":"699ad19d-1780-4c00-9754-eb0737b27b7c","system_id":"levelo_inurba_marseille","lat":43.29556,"lon":5.42295,"is_reserved":false,"is_disabled":false,"rental_uris":{"android":"levelo://app?vid=699ad19d-1780-4c00-9754-eb0737b27b7c","ios":"levelo://app?vid=699ad19d-1780-4c00-9754-eb0737b27b7c"},"vehicle_type_id":"4","last_reported":1734347320,"current_range_meters":30800,"station_id":"ce4bhph2rcd13ifvqhdg","pricing_plan_id":"cebpf4jnsgd1na2vs0mg"},{"bike_id":"0c271482-6617-4b52-9dd1-130fe52f39ad","system_id":"levelo_inurba_marseille","lat":43.306026,"lon":5.372285,"is_reserved":false,"is_disabled":false,"rental_uris":{"android":"levelo://app?vid=0c271482-6617-4b52-9dd1-130fe52f39ad","ios":"levelo://app?vid=0c271482-6617-4b52-9dd1-130fe52f39ad"},"vehicle_type_id":"4","last_reported":1734347320,"current_range_meters":37600,"station_id":"ce4bgqh2rcd13ifvqc4g","pricing_plan_id":"cebpf4jnsgd1na2vs0mg"},{"bike_id":"d22e8691-6ee4-4638-8bf5-82b67a2e4044","system_id":"levelo_inurba_marseille","lat":43.281,"lon":5.3784,"is_reserved":false,"is_disabled":false,"rental_uris":{"android":"levelo://app?vid=d22e8691-6ee4-4638-8bf5-82b67a2e4044","ios":"levelo://app?vid=d22e8691-6ee4-4638-8bf5-82b67a2e4044"},"vehicle_type_id":"4","last_reported":1734347320,"current_range_meters":24400,"station_id":"ce4bha12rcd13ifvqee0","pricing_plan_id":"cebpf4jnsgd1na2vs0mg"},{"bike_id":"05546136-2d33-493f-9d29-deff3b9602b7","system_id":"levelo_inurba_marseille","lat":43.30939,"lon":5.39067,"is_reserved":false,"is_disabled":false,"rental_uris":{"android":"levelo://app?vid=05546136-2d33-493f-9d29-deff3b9602b7","ios":"levelo://app?vid=05546136-2d33-493f-9d29-deff3b9602b7"},"vehicle_type_id":"4","last_reported":1734347320,"current_range_meters":32800,"station_id":"ce4bgup2rcd13ifvqco0","pricing_plan_id":"cebpf4jnsgd1na2vs0mg"},{"bike_id":"5be78cc2-d386-42ea-a601-8ec47460ad21","system_id":"levelo_inurba_marseille","lat":43.24085,"lon":5.37747,"is_reserved":false,"is_disabled":false,"rental_uris":{"android":"levelo://app?vid=5be78cc2-d386-42ea-a601-8ec47460ad21","ios":"levelo://app?vid=5be78cc2-d386-42ea-a601-8ec47460ad21"},"vehicle_type_id":"4","last_reported":1734347320,"current_range_meters":32800,"station_id":"ce4bhnp2rcd13ifvqgvg","pricing_plan_id":"cebpf4jnsgd1na2vs0mg"},{"bike_id":"8872e771-87f7-4daf-9c2b-2bfd7197e847","system_id":"levelo_inurba_marseille","lat":43.27066,"lon":5.42268,"is_reserved":false,"is_disabled":false,"rental_uris":{"android":"levelo://app?vid=8872e771-87f7-4daf-9c2b-2bfd7197e847","ios":"levelo://app?vid=8872e771-87f7-4daf-9c2b-2bfd7197e847"},"vehicle_type_id":"4","last_reported":1734347320,"current_range_meters":18800,"station_id":"ce4bhk92rcd13ifvqgb0","pricing_plan_id":"cebpf4jnsgd1na2vs0mg"},{"bike_id":"5b5b83e9-376d-40a4-a65a-140e1eeefc05","system_id":"levelo_inurba_marseille","lat":43.245377,"lon":5.395377,"is_reserved":false,"is_disabled":false,"rental_uris":{"android":"levelo://app?vid=5b5b83e9-376d-40a4-a65a-140e1eeefc05","ios":"levelo://app?vid=5b5b83e9-376d-40a4-a65a-140e1eeefc05"},"vehicle_type_id":"4","last_reported":1734347320,"current_range_meters":38800,"station_id":"ce4bhlp2rcd13ifvqgjg","pricing_plan_id":"cebpf4jnsgd1na2vs0mg"},{"bike_id":"e9b36da7-c433-4e83-94a1-2ca2c02e8e59","system_id":"levelo_inurba_marseille","lat":43.25823,"lon":5.39435,"is_reserved":false,"is_disabled":true,"rental_uris":{"android":"levelo://app?vid=e9b36da7-c433-4e83-94a1-2ca2c02e8e59","ios":"levelo://app?vid=e9b36da7-c433-4e83-94a1-2ca2c02e8e59"},"vehicle_type_id":"4","last_reported":1734347320,"current_range_meters":38800,"station_id":"ce4bhip2rcd13ifvqft0","pricing_plan_id":"cebpf4jnsgd1na2vs0mg"},{"bike_id":"75236ece-8ad3-4b8f-a5ce-45decf00a4cd","system_id":"levelo_inurba_marseille","lat":43.29299,"lon":5.37455,"is_reserved":false,"is_disabled":false,"rental_uris":{"android":"levelo://app?vid=75236ece-8ad3-4b8f-a5ce-45decf00a4cd","ios":"levelo://app?vid=75236ece-8ad3-4b8f-a5ce-45decf00a4cd"},"vehicle_type_id":"4","last_reported":1734347320,"current_range_meters":38800,"station_id":"ce4bgi12rcd13ifvqb70","pricing_plan_id":"cebpf4jnsgd1na2vs0mg"},{"bike_id":"2ba8ded4-7e9f-4406-9ea8-e61387e76c85","system_id":"levelo_inurba_marseille","lat":43.30091,"lon":5.39816,"is_reserved":false,"is_disabled":true,"rental_uris":{"android":"levelo://app?vid=2ba8ded4-7e9f-4406-9ea8-e61387e76c85","ios":"levelo://app?vid=2ba8ded4-7e9f-4406-9ea8-e61387e76c85"},"vehicle_type_id":"4","last_reported":1734347320,"current_range_meters":0,"station_id":"","pricing_plan_id":"cebpf4jnsgd1na2vs0mg"},{"bike_id":"12d99581-7920-4043-b7c2-ca258313e6f3","system_id":"levelo_inurba_marseille","lat":43.33615,"lon":5.41045,"is_reserved":false,"is_disabled":false,"rental_uris":{"android":"levelo://app?vid=12d99581-7920-4043-b7c2-ca258313e6f3","ios":"levelo://app?vid=12d99581-7920-4043-b7c2-ca258313e6f3"},"vehicle_type_id":"4","last_reported":1734347320,"current_range_meters":32000,"station_id":"ce4bhqh2rcd13ifvqhmg","pricing_plan_id":"cebpf4jnsgd1na2vs0mg"},{"bike_id":"e819ae6a-d2ca-4fed-a607-5b91827a0819","system_id":"levelo_inurba_marseille","lat":43.23207,"lon":5.35569,"is_reserved":false,"is_disabled":false,"rental_uris":{"android":"levelo://app?vid=e819ae6a-d2ca-4fed-a607-5b91827a0819","ios":"levelo://app?vid=e819ae6a-d2ca-4fed-a607-5b91827a0819"},"vehicle_type_id":"4","last_reported":1734347320,"current_range_meters":26800,"station_id":"ce4bhu92rcd13ifvqi70","pricing_plan_id":"cebpf4jnsgd1na2vs0mg"},{"bike_id":"73935aa5-a236-453c-a80b-ee1fe0755e77","system_id":"levelo_inurba_marseille","lat":43.27202,"lon":5.39187,"is_reserved":false,"is_disabled":false,"rental_uris":{"android":"levelo://app?vid=73935aa5-a236-453c-a80b-ee1fe0755e77","ios":"levelo://app?vid=73935aa5-a236-453c-a80b-ee1fe0755e77"},"vehicle_type_id":"4","last_reported":1734347320,"current_range_meters":38800,"station_id":"ce4bhhp2rcd13ifvqfm0","pricing_plan_id":"cebpf4jnsgd1na2vs0mg"},{"bike_id":"4b46e3fe-3ae9-4fa6-a8e3-b90622f0b682","system_id":"levelo_inurba_marseille","lat":43.29358,"lon":5.37825,"is_reserved":false,"is_disabled":false,"rental_uris":{"android":"levelo://app?vid=4b46e3fe-3ae9-4fa6-a8e3-b90622f0b682","ios":"levelo://app?vid=4b46e3fe-3ae9-4fa6-a8e3-b90622f0b682"},"vehicle_type_id":"4","last_reported":1734347320,"current_range_meters":20000,"station_id":"ce4bgjh2rcd13ifvqbf0","pricing_plan_id":"cebpf4jnsgd1na2vs0mg"},{"bike_id":"e3a3d1f3-38e8-42e4-b2ca-ad023db34801","system_id":"levelo_inurba_marseille","lat":43.30209,"lon":5.39462,"is_reserved":false,"is_disabled":true,"rental_uris":{"android":"levelo://app?vid=e3a3d1f3-38e8-42e4-b2ca-ad023db34801","ios":"levelo://app?vid=e3a3d1f3-38e8-42e4-b2ca-ad023db34801"},"vehicle_type_id":"4","last_reported":1734347320,"current_range_meters":38400,"station_id":"ce4bh0p2rcd13ifvqd70","pricing_plan_id":"cebpf4jnsgd1na2vs0mg"},{"bike_id":"9f2df41e-ff3f-43e8-a2d7-014b68a85aca","system_id":"levelo_inurba_marseille","lat":43.24074,"lon":5.37762,"is_reserved":false,"is_disabled":false,"rental_uris":{"android":"levelo://app?vid=9f2df41e-ff3f-43e8-a2d7-014b68a85aca","ios":"levelo://app?vid=9f2df41e-ff3f-43e8-a2d7-014b68a85aca"},"vehicle_type_id":"4","last_reported":1734347320,"current_range_meters":30400,"station_id":"ce4bhnp2rcd13ifvqgvg","pricing_plan_id":"cebpf4jnsgd1na2vs0mg"},{"bike_id":"b8c39754-924c-473e-87c7-117056890afc","system_id":"levelo_inurba_marseille","lat":43.30098,"lon":5.39078,"is_reserved":false,"is_disabled":false,"rental_uris":{"android":"levelo://app?vid=b8c39754-924c-473e-87c7-117056890afc","ios":"levelo://app?vid=b8c39754-924c-473e-87c7-117056890afc"},"vehicle_type_id":"4","last_reported":1734347320,"current_range_meters":37600,"station_id":"ce4bh192rcd13ifvqdb0","pricing_plan_id":"cebpf4jnsgd1na2vs0mg"},{"bike_id":"03a52baf-aaea-4609-8ba5-e5263b64a03f","system_id":"levelo_inurba_marseille","lat":43.33775,"lon":5.37437,"is_reserved":false,"is_disabled":false,"rental_uris":{"android":"levelo://app?vid=03a52baf-aaea-4609-8ba5-e5263b64a03f","ios":"levelo://app?vid=03a52baf-aaea-4609-8ba5-e5263b64a03f"},"vehicle_type_id":"4","last_reported":1734347320,"current_range_meters":36800,"station_id":"","pricing_plan_id":"cebpf4jnsgd1na2vs0mg"},{"bike_id":"2e81eb7c-32b2-4fe9-8614-25e7f416360e","system_id":"levelo_inurba_marseille","lat":43.27939,"lon":5.41049,"is_reserved":false,"is_disabled":false,"rental_uris":{"android":"levelo://app?vid=2e81eb7c-32b2-4fe9-8614-25e7f416360e","ios":"levelo://app?vid=2e81eb7c-32b2-4fe9-8614-25e7f416360e"},"vehicle_type_id":"4","last_reported":1734347320,"current_range_meters":36400,"station_id":"ce4bhnp2rcd13ifvqh0g","pricing_plan_id":"cebpf4jnsgd1na2vs0mg"},{"bike_id":"ae0bdd7b-187c-409c-b2b3-37aac32d4db3","system_id":"levelo_inurba_marseille","lat":43.32359,"lon":5.3676,"is_reserved":false,"is_disabled":false,"rental_uris":{"android":"levelo://app?vid=ae0bdd7b-187c-409c-b2b3-37aac32d4db3","ios":"levelo://app?vid=ae0bdd7b-187c-409c-b2b3-37aac32d4db3"},"vehicle_type_id":"4","last_reported":1734347320,"current_range_meters":30800,"station_id":"ce4bhsh2rcd13ifvqi2g","pricing_plan_id":"cebpf4jnsgd1na2vs0mg"},{"bike_id":"bed5f0c5-f312-444f-96b2-ad51276fcb5d","system_id":"levelo_inurba_marseille","lat":43.2971,"lon":5.37726,"is_reserved":false,"is_disabled":false,"rental_uris":{"android":"levelo://app?vid=bed5f0c5-f312-444f-96b2-ad51276fcb5d","ios":"levelo://app?vid=bed5f0c5-f312-444f-96b2-ad51276fcb5d"},"vehicle_type_id":"4","last_reported":1734347320,"current_range_meters":38800,"station_id":"ce4bgkh2rcd13ifvqbl0","pricing_plan_id":"cebpf4jnsgd1na2vs0mg"},{"bike_id":"e53787e4-0089-4043-be7d-f90e45a59497","system_id":"levelo_inurba_marseille","lat":43.29285,"lon":5.37454,"is_reserved":false,"is_disabled":false,"rental_uris":{"android":"levelo://app?vid=e53787e4-0089-4043-be7d-f90e45a59497","ios":"levelo://app?vid=e53787e4-0089-4043-be7d-f90e45a59497"},"vehicle_type_id":"4","last_reported":1734347320,"current_range_meters":36800,"station_id":"ce4bgi12rcd13ifvqb70","pricing_plan_id":"cebpf4jnsgd1na2vs0mg"},{"bike_id":"9ad311dd-c450-4f09-933a-ef53d4559dc3","system_id":"levelo_inurba_marseille","lat":43.26978,"lon":5.39876,"is_reserved":false,"is_disabled":false,"rental_uris":{"android":"levelo://app?vid=9ad311dd-c450-4f09-933a-ef53d4559dc3","ios":"levelo://app?vid=9ad311dd-c450-4f09-933a-ef53d4559dc3"},"vehicle_type_id":"4","last_reported":1734347320,"current_range_meters":17200,"station_id":"","pricing_plan_id":"cebpf4jnsgd1na2vs0mg"},{"bike_id":"6e6ba8bf-8922-4181-85d4-fe19efd3efa4","system_id":"levelo_inurba_marseille","lat":43.304633,"lon":5.379156,"is_reserved":false,"is_disabled":true,"rental_uris":{"android":"levelo://app?vid=6e6ba8bf-8922-4181-85d4-fe19efd3efa4","ios":"levelo://app?vid=6e6ba8bf-8922-4181-85d4-fe19efd3efa4"},"vehicle_type_id":"4","last_reported":1734347320,"current_range_meters":22800,"station_id":"ce4bgup2rcd13ifvqcn0","pricing_plan_id":"cebpf4jnsgd1na2vs0mg"},{"bike_id":"7fe8f9af-b4e9-41ec-a2ee-82c703b11f86","system_id":"levelo_inurba_marseille","lat":43.34138,"lon":5.40906,"is_reserved":false,"is_disabled":false,"rental_uris":{"android":"levelo://app?vid=7fe8f9af-b4e9-41ec-a2ee-82c703b11f86","ios":"levelo://app?vid=7fe8f9af-b4e9-41ec-a2ee-82c703b11f86"},"vehicle_type_id":"4","last_reported":1734347320,"current_range_meters":38800,"station_id":"ce4bhqh2rcd13ifvqhlg","pricing_plan_id":"cebpf4jnsgd1na2vs0mg"},{"bike_id":"85978ffe-321a-4a3d-91b0-31fc0dc9708a","system_id":"levelo_inurba_marseille","lat":43.30501,"lon":5.39745,"is_reserved":false,"is_disabled":false,"rental_uris":{"android":"levelo://app?vid=85978ffe-321a-4a3d-91b0-31fc0dc9708a","ios":"levelo://app?vid=85978ffe-321a-4a3d-91b0-31fc0dc9708a"},"vehicle_type_id":"4","last_reported":1734347320,"current_range_meters":36800,"station_id":"ce4bh092rcd13ifvqd20","pricing_plan_id":"cebpf4jnsgd1na2vs0mg"},{"bike_id":"131dac97-7bcf-4e01-a2a2-130488990973","system_id":"levelo_inurba_marseille","lat":43.25012,"lon":5.38953,"is_reserved":false,"is_disabled":false,"rental_uris":{"android":"levelo://app?vid=131dac97-7bcf-4e01-a2a2-130488990973","ios":"levelo://app?vid=131dac97-7bcf-4e01-a2a2-130488990973"},"vehicle_type_id":"4","last_reported":1734347320,"current_range_meters":36800,"station_id":"ce4bhgp2rcd13ifvqfd0","pricing_plan_id":"cebpf4jnsgd1na2vs0mg"},{"bike_id":"af67ac53-ba21-4ff0-8334-95679e9ff2cc","system_id":"levelo_inurba_marseille","lat":43.278805,"lon":5.388003,"is_reserved":false,"is_disabled":true,"rental_uris":{"android":"levelo://app?vid=af67ac53-ba21-4ff0-8334-95679e9ff2cc","ios":"levelo://app?vid=af67ac53-ba21-4ff0-8334-95679e9ff2cc"},"vehicle_type_id":"4","last_reported":1734347320,"current_range_meters":0,"station_id":"","pricing_plan_id":"cebpf4jnsgd1na2vs0mg"},{"bike_id":"ac12fb4e-3874-4ff3-bf0b-39ed8484910e","system_id":"levelo_inurba_marseille","lat":43.26487,"lon":5.39547,"is_reserved":false,"is_disabled":true,"rental_uris":{"android":"levelo://app?vid=ac12fb4e-3874-4ff3-bf0b-39ed8484910e","ios":"levelo://app?vid=ac12fb4e-3874-4ff3-bf0b-39ed8484910e"},"vehicle_type_id":"4","last_reported":1734347320,"current_range_meters":38800,"station_id":"ce4bhi12rcd13ifvqfq0","pricing_plan_id":"cebpf4jnsgd1na2vs0mg"},{"bike_id":"78adf787-e371-4204-b571-f4e0ee80dedd","system_id":"levelo_inurba_marseille","lat":43.24662,"lon":5.38166,"is_reserved":false,"is_disabled":false,"rental_uris":{"android":"levelo://app?vid=78adf787-e371-4204-b571-f4e0ee80dedd","ios":"levelo://app?vid=78adf787-e371-4204-b571-f4e0ee80dedd"},"vehicle_type_id":"4","last_reported":1734347320,"current_range_meters":36400,"station_id":"ce4bhih2rcd13ifvqfr0","pricing_plan_id":"cebpf4jnsgd1na2vs0mg"},{"bike_id":"c69ff6d7-f81b-4bd0-994f-52b9dca18c0a","system_id":"levelo_inurba_marseille","lat":43.30715,"lon":5.36831,"is_reserved":false,"is_disabled":false,"rental_uris":{"android":"levelo://app?vid=c69ff6d7-f81b-4bd0-994f-52b9dca18c0a","ios":"levelo://app?vid=c69ff6d7-f81b-4bd0-994f-52b9dca18c0a"},"vehicle_type_id":"4","last_reported":1734347320,"current_range_meters":23200,"station_id":"","pricing_plan_id":"cebpf4jnsgd1na2vs0mg"},{"bike_id":"2ee47aba-edd0-4d53-a17e-e6f65b10c35f","system_id":"levelo_inurba_marseille","lat":43.30127,"lon":5.39094,"is_reserved":false,"is_disabled":true,"rental_uris":{"android":"levelo://app?vid=2ee47aba-edd0-4d53-a17e-e6f65b10c35f","ios":"levelo://app?vid=2ee47aba-edd0-4d53-a17e-e6f65b10c35f"},"vehicle_type_id":"4","last_reported":1734347320,"current_range_meters":15200,"station_id":"ce4bh192rcd13ifvqdb0","pricing_plan_id":"cebpf4jnsgd1na2vs0mg"},{"bike_id":"fdcf3e72-9519-4b52-9443-19847a7ac390","system_id":"levelo_inurba_marseille","lat":43.27982,"lon":5.38712,"is_reserved":false,"is_disabled":false,"rental_uris":{"android":"levelo://app?vid=fdcf3e72-9519-4b52-9443-19847a7ac390","ios":"levelo://app?vid=fdcf3e72-9519-4b52-9443-19847a7ac390"},"vehicle_type_id":"4","last_reported":1734347320,"current_range_meters":21600,"station_id":"ce4bhg12rcd13ifvqf80","pricing_plan_id":"cebpf4jnsgd1na2vs0mg"},{"bike_id":"21b06e3b-9c04-47e1-a6ff-72b23357579c","system_id":"levelo_inurba_marseille","lat":43.28366,"lon":5.38635,"is_reserved":false,"is_disabled":false,"rental_uris":{"android":"levelo://app?vid=21b06e3b-9c04-47e1-a6ff-72b23357579c","ios":"levelo://app?vid=21b06e3b-9c04-47e1-a6ff-72b23357579c"},"vehicle_type_id":"4","last_reported":1734347320,"current_range_meters":9600,"station_id":"ce4bh492rcd13ifvqdvg","pricing_plan_id":"cebpf4jnsgd1na2vs0mg"},{"bike_id":"b9b3604f-8c05-4f36-b45c-ad47a9085f1f","system_id":"levelo_inurba_marseille","lat":43.27068,"lon":5.42272,"is_reserved":false,"is_disabled":false,"rental_uris":{"android":"levelo://app?vid=b9b3604f-8c05-4f36-b45c-ad47a9085f1f","ios":"levelo://app?vid=b9b3604f-8c05-4f36-b45c-ad47a9085f1f"},"vehicle_type_id":"4","last_reported":1734347320,"current_range_meters":31200,"station_id":"ce4bhk92rcd13ifvqgb0","pricing_plan_id":"cebpf4jnsgd1na2vs0mg"},{"bike_id":"ad9e0e56-b232-4761-8766-3140462fc53b","system_id":"levelo_inurba_marseille","lat":43.26544,"lon":5.37322,"is_reserved":false,"is_disabled":true,"rental_uris":{"android":"levelo://app?vid=ad9e0e56-b232-4761-8766-3140462fc53b","ios":"levelo://app?vid=ad9e0e56-b232-4761-8766-3140462fc53b"},"vehicle_type_id":"4","last_reported":1734347320,"current_range_meters":23200,"station_id":"ce4bhg12rcd13ifvqf70","pricing_plan_id":"cebpf4jnsgd1na2vs0mg"},{"bike_id":"1d7034d3-38aa-4743-8f5d-2da4802e206b","system_id":"levelo_inurba_marseille","lat":43.28726,"lon":5.38285,"is_reserved":false,"is_disabled":true,"rental_uris":{"android":"levelo://app?vid=1d7034d3-38aa-4743-8f5d-2da4802e206b","ios":"levelo://app?vid=1d7034d3-38aa-4743-8f5d-2da4802e206b"},"vehicle_type_id":"4","last_reported":1734347320,"current_range_meters":0,"station_id":"","pricing_plan_id":"cebpf4jnsgd1na2vs0mg"},{"bike_id":"656d8740-9b85-4a93-86ce-9d32a0e761f7","system_id":"levelo_inurba_marseille","lat":43.3107,"lon":5.3835,"is_reserved":false,"is_disabled":true,"rental_uris":{"android":"levelo://app?vid=656d8740-9b85-4a93-86ce-9d32a0e761f7","ios":"levelo://app?vid=656d8740-9b85-4a93-86ce-9d32a0e761f7"},"vehicle_type_id":"4","last_reported":1734347320,"current_range_meters":0,"station_id":"ce4bgv92rcd13ifvqcr0","pricing_plan_id":"cebpf4jnsgd1na2vs0mg"},{"bike_id":"30b09c14-5db6-4bdd-8ec0-8d8fd355bef3","system_id":"levelo_inurba_marseille","lat":43.29886,"lon":5.39774,"is_reserved":false,"is_disabled":true,"rental_uris":{"android":"levelo://app?vid=30b09c14-5db6-4bdd-8ec0-8d8fd355bef3","ios":"levelo://app?vid=30b09c14-5db6-4bdd-8ec0-8d8fd355bef3"},"vehicle_type_id":"4","last_reported":1734347320,"current_range_meters":36800,"station_id":"ce4bh0h2rcd13ifvqd50","pricing_plan_id":"cebpf4jnsgd1na2vs0mg"},{"bike_id":"f08c808c-af08-40b8-81c3-97739c995b77","system_id":"levelo_inurba_marseille","lat":43.30122,"lon":5.39881,"is_reserved":false,"is_disabled":true,"rental_uris":{"android":"levelo://app?vid=f08c808c-af08-40b8-81c3-97739c995b77","ios":"levelo://app?vid=f08c808c-af08-40b8-81c3-97739c995b77"},"vehicle_type_id":"4","last_reported":1734347320,"current_range_meters":6800,"station_id":"ce4bh0h2rcd13ifvqd40","pricing_plan_id":"cebpf4jnsgd1na2vs0mg"},{"bike_id":"86970bbe-b814-43c9-89a2-85f507f309fa","system_id":"levelo_inurba_marseille","lat":43.30525,"lon":5.38437,"is_reserved":false,"is_disabled":true,"rental_uris":{"android":"levelo://app?vid=86970bbe-b814-43c9-89a2-85f507f309fa","ios":"levelo://app?vid=86970bbe-b814-43c9-89a2-85f507f309fa"},"vehicle_type_id":"4","last_reported":1734347320,"current_range_meters":0,"station_id":"ce4bgg92rcd13ifvqb30","pricing_plan_id":"cebpf4jnsgd1na2vs0mg"},{"bike_id":"9be44f59-e401-40ca-8d62-34ce82c5ce70","system_id":"levelo_inurba_marseille","lat":43.31243,"lon":5.36867,"is_reserved":false,"is_disabled":false,"rental_uris":{"android":"levelo://app?vid=9be44f59-e401-40ca-8d62-34ce82c5ce70","ios":"levelo://app?vid=9be44f59-e401-40ca-8d62-34ce82c5ce70"},"vehicle_type_id":"4","last_reported":1734347320,"current_range_meters":38800,"station_id":"ce4bgl92rcd13ifvqbq0","pricing_plan_id":"cebpf4jnsgd1na2vs0mg"},{"bike_id":"48892d5c-bcea-44a0-9585-34a0ba1ae815","system_id":"levelo_inurba_marseille","lat":43.3032,"lon":5.40438,"is_reserved":false,"is_disabled":false,"rental_uris":{"android":"levelo://app?vid=48892d5c-bcea-44a0-9585-34a0ba1ae815","ios":"levelo://app?vid=48892d5c-bcea-44a0-9585-34a0ba1ae815"},"vehicle_type_id":"4","last_reported":1734347320,"current_range_meters":38800,"station_id":"ce4bh012rcd13ifvqd10","pricing_plan_id":"cebpf4jnsgd1na2vs0mg"},{"bike_id":"43a2fa1d-314c-4a4d-b7c9-aa2f198eb73b","system_id":"levelo_inurba_marseille","lat":43.30138,"lon":5.38798,"is_reserved":false,"is_disabled":true,"rental_uris":{"android":"levelo://app?vid=43a2fa1d-314c-4a4d-b7c9-aa2f198eb73b","ios":"levelo://app?vid=43a2fa1d-314c-4a4d-b7c9-aa2f198eb73b"},"vehicle_type_id":"4","last_reported":1734347320,"current_range_meters":27200,"station_id":"ce4bghh2rcd13ifvqb60","pricing_plan_id":"cebpf4jnsgd1na2vs0mg"},{"bike_id":"130c077d-8d94-4e81-b3f6-101bbb02bd64","system_id":"levelo_inurba_marseille","lat":43.3302,"lon":5.39049,"is_reserved":false,"is_disabled":false,"rental_uris":{"android":"levelo://app?vid=130c077d-8d94-4e81-b3f6-101bbb02bd64","ios":"levelo://app?vid=130c077d-8d94-4e81-b3f6-101bbb02bd64"},"vehicle_type_id":"4","last_reported":1734347320,"current_range_meters":22000,"station_id":"ce4bhr92rcd13ifvqhrg","pricing_plan_id":"cebpf4jnsgd1na2vs0mg"},{"bike_id":"a8c6e79d-f768-4642-8a00-7634f79b21a6","system_id":"levelo_inurba_marseille","lat":43.27498,"lon":5.4247,"is_reserved":false,"is_disabled":false,"rental_uris":{"android":"levelo://app?vid=a8c6e79d-f768-4642-8a00-7634f79b21a6","ios":"levelo://app?vid=a8c6e79d-f768-4642-8a00-7634f79b21a6"},"vehicle_type_id":"4","last_reported":1734347320,"current_range_meters":18800,"station_id":"ce4bhn92rcd13ifvqgrg","pricing_plan_id":"cebpf4jnsgd1na2vs0mg"},{"bike_id":"08cee0db-94b4-4298-bfcb-8531f0ed5faf","system_id":"levelo_inurba_marseille","lat":43.27978,"lon":5.38762,"is_reserved":false,"is_disabled":false,"rental_uris":{"android":"levelo://app?vid=08cee0db-94b4-4298-bfcb-8531f0ed5faf","ios":"levelo://app?vid=08cee0db-94b4-4298-bfcb-8531f0ed5faf"},"vehicle_type_id":"4","last_reported":1734347320,"current_range_meters":22800,"station_id":"ce4bhg12rcd13ifvqf80","pricing_plan_id":"cebpf4jnsgd1na2vs0mg"},{"bike_id":"9bdff9fe-459e-4251-8535-35c27adeb82a","system_id":"levelo_inurba_marseille","lat":43.25,"lon":5.38923,"is_reserved":false,"is_disabled":false,"rental_uris":{"android":"levelo://app?vid=9bdff9fe-459e-4251-8535-35c27adeb82a","ios":"levelo://app?vid=9bdff9fe-459e-4251-8535-35c27adeb82a"},"vehicle_type_id":"4","last_reported":1734347320,"current_range_meters":34000,"station_id":"ce4bhgp2rcd13ifvqfd0","pricing_plan_id":"cebpf4jnsgd1na2vs0mg"},{"bike_id":"70c673d5-6066-4faf-b215-c0e7165e8d28","system_id":"levelo_inurba_marseille","lat":43.26067,"lon":5.39407,"is_reserved":false,"is_disabled":false,"rental_uris":{"android":"levelo://app?vid=70c673d5-6066-4faf-b215-c0e7165e8d28","ios":"levelo://app?vid=70c673d5-6066-4faf-b215-c0e7165e8d28"},"vehicle_type_id":"4","last_reported":1734347320,"current_range_meters":37600,"station_id":"ce4bhh92rcd13ifvqfj0","pricing_plan_id":"cebpf4jnsgd1na2vs0mg"},{"bike_id":"018e4d71-c3b2-4077-a5d6-f307e14c4f05","system_id":"levelo_inurba_marseille","lat":43.28674,"lon":5.38679,"is_reserved":false,"is_disabled":false,"rental_uris":{"android":"levelo://app?vid=018e4d71-c3b2-4077-a5d6-f307e14c4f05","ios":"levelo://app?vid=018e4d71-c3b2-4077-a5d6-f307e14c4f05"},"vehicle_type_id":"4","last_reported":1734347320,"current_range_meters":29600,"station_id":"ce4bh492rcd13ifvqdug","pricing_plan_id":"cebpf4jnsgd1na2vs0mg"},{"bike_id":"0810675e-0ec1-421a-b95a-82de5ccce9b2","system_id":"levelo_inurba_marseille","lat":43.24167,"lon":5.39719,"is_reserved":false,"is_disabled":true,"rental_uris":{"android":"levelo://app?vid=0810675e-0ec1-421a-b95a-82de5ccce9b2","ios":"levelo://app?vid=0810675e-0ec1-421a-b95a-82de5ccce9b2"},"vehicle_type_id":"4","last_reported":1734347320,"current_range_meters":18000,"station_id":"ce4bhn12rcd13ifvqgpg","pricing_plan_id":"cebpf4jnsgd1na2vs0mg"},{"bike_id":"658b701e-1546-4ee7-a5a3-c849cfed5179","system_id":"levelo_inurba_marseille","lat":43.29606,"lon":5.37724,"is_reserved":false,"is_disabled":true,"rental_uris":{"android":"levelo://app?vid=658b701e-1546-4ee7-a5a3-c849cfed5179","ios":"levelo://app?vid=658b701e-1546-4ee7-a5a3-c849cfed5179"},"vehicle_type_id":"4","last_reported":1734347320,"current_range_meters":0,"station_id":"ce4bgi92rcd13ifvqb90","pricing_plan_id":"cebpf4jnsgd1na2vs0mg"},{"bike_id":"5fec738a-5749-4534-831a-eb2b3c8ba3c9","system_id":"levelo_inurba_marseille","lat":43.30152,"lon":5.38088,"is_reserved":false,"is_disabled":false,"rental_uris":{"android":"levelo://app?vid=5fec738a-5749-4534-831a-eb2b3c8ba3c9","ios":"levelo://app?vid=5fec738a-5749-4534-831a-eb2b3c8ba3c9"},"vehicle_type_id":"4","last_reported":1734347320,"current_range_meters":18800,"station_id":"ce4bgjp2rcd13ifvqbh0","pricing_plan_id":"cebpf4jnsgd1na2vs0mg"},{"bike_id":"8fa3ae7a-07bb-4edf-85d8-8193196c3393","system_id":"levelo_inurba_marseille","lat":43.32286,"lon":5.38274,"is_reserved":false,"is_disabled":false,"rental_uris":{"android":"levelo://app?vid=8fa3ae7a-07bb-4edf-85d8-8193196c3393","ios":"levelo://app?vid=8fa3ae7a-07bb-4edf-85d8-8193196c3393"},"vehicle_type_id":"4","last_reported":1734347320,"current_range_meters":39200,"station_id":"ce4bhr12rcd13ifvqhqg","pricing_plan_id":"cebpf4jnsgd1na2vs0mg"},{"bike_id":"709ae5e7-27da-4515-b734-b99b0b9de3b7","system_id":"levelo_inurba_marseille","lat":43.30412,"lon":5.4129,"is_reserved":false,"is_disabled":false,"rental_uris":{"android":"levelo://app?vid=709ae5e7-27da-4515-b734-b99b0b9de3b7","ios":"levelo://app?vid=709ae5e7-27da-4515-b734-b99b0b9de3b7"},"vehicle_type_id":"4","last_reported":1734347320,"current_range_meters":11200,"station_id":"ce4bhop2rcd13ifvqh8g","pricing_plan_id":"cebpf4jnsgd1na2vs0mg"},{"bike_id":"278ba4f8-bf9b-4e9d-9dad-7b375b681a04","system_id":"levelo_inurba_marseille","lat":43.30599,"lon":5.37229,"is_reserved":false,"is_disabled":false,"rental_uris":{"android":"levelo://app?vid=278ba4f8-bf9b-4e9d-9dad-7b375b681a04","ios":"levelo://app?vid=278ba4f8-bf9b-4e9d-9dad-7b375b681a04"},"vehicle_type_id":"4","last_reported":1734347320,"current_range_meters":35200,"station_id":"ce4bgqh2rcd13ifvqc4g","pricing_plan_id":"cebpf4jnsgd1na2vs0mg"},{"bike_id":"c9169d90-4952-4442-b216-225cffd88fbb","system_id":"levelo_inurba_marseille","lat":43.28709,"lon":5.39997,"is_reserved":false,"is_disabled":true,"rental_uris":{"android":"levelo://app?vid=c9169d90-4952-4442-b216-225cffd88fbb","ios":"levelo://app?vid=c9169d90-4952-4442-b216-225cffd88fbb"},"vehicle_type_id":"4","last_reported":1734347320,"current_range_meters":0,"station_id":"ce4bho92rcd13ifvqh3g","pricing_plan_id":"cebpf4jnsgd1na2vs0mg"},{"bike_id":"458c56c8-42dd-4540-9e14-c3527b1b6c85","system_id":"levelo_inurba_marseille","lat":43.2595,"lon":5.40896,"is_reserved":false,"is_disabled":false,"rental_uris":{"android":"levelo://app?vid=458c56c8-42dd-4540-9e14-c3527b1b6c85","ios":"levelo://app?vid=458c56c8-42dd-4540-9e14-c3527b1b6c85"},"vehicle_type_id":"4","last_reported":1734347320,"current_range_meters":10000,"station_id":"ce4bhm92rcd13ifvqglg","pricing_plan_id":"cebpf4jnsgd1na2vs0mg"},{"bike_id":"8b135e9e-ffef-4366-9100-fd182f024a7e","system_id":"levelo_inurba_marseille","lat":43.28154,"lon":5.42647,"is_reserved":false,"is_disabled":true,"rental_uris":{"android":"levelo://app?vid=8b135e9e-ffef-4366-9100-fd182f024a7e","ios":"levelo://app?vid=8b135e9e-ffef-4366-9100-fd182f024a7e"},"vehicle_type_id":"4","last_reported":1734347320,"current_range_meters":400,"station_id":"ce4bhnh2rcd13ifvqgug","pricing_plan_id":"cebpf4jnsgd1na2vs0mg"},{"bike_id":"7325f9df-ce46-4b5a-9a0a-a735d7d5a10d","system_id":"levelo_inurba_marseille","lat":43.29158,"lon":5.37178,"is_reserved":false,"is_disabled":false,"rental_uris":{"android":"levelo://app?vid=7325f9df-ce46-4b5a-9a0a-a735d7d5a10d","ios":"levelo://app?vid=7325f9df-ce46-4b5a-9a0a-a735d7d5a10d"},"vehicle_type_id":"4","last_reported":1734347320,"current_range_meters":38800,"station_id":"ce4bha92rcd13ifvqeh0","pricing_plan_id":"cebpf4jnsgd1na2vs0mg"},{"bike_id":"7d35df4d-a41d-4d79-9172-874940c49eb2","system_id":"levelo_inurba_marseille","lat":43.27947,"lon":5.38712,"is_reserved":false,"is_disabled":false,"rental_uris":{"android":"levelo://app?vid=7d35df4d-a41d-4d79-9172-874940c49eb2","ios":"levelo://app?vid=7d35df4d-a41d-4d79-9172-874940c49eb2"},"vehicle_type_id":"4","last_reported":1734347320,"current_range_meters":24800,"station_id":"ce4bhg12rcd13ifvqf80","pricing_plan_id":"cebpf4jnsgd1na2vs0mg"},{"bike_id":"8954c8f3-4d0a-4b60-8212-e05ab59e405e","system_id":"levelo_inurba_marseille","lat":43.25102,"lon":5.40341,"is_reserved":false,"is_disabled":false,"rental_uris":{"android":"levelo://app?vid=8954c8f3-4d0a-4b60-8212-e05ab59e405e","ios":"levelo://app?vid=8954c8f3-4d0a-4b60-8212-e05ab59e405e"},"vehicle_type_id":"4","last_reported":1734347320,"current_range_meters":24000,"station_id":"ce4bhlh2rcd13ifvqgig","pricing_plan_id":"cebpf4jnsgd1na2vs0mg"},{"bike_id":"097c5e0a-50b7-4b75-9ed2-1499a9353ffa","system_id":"levelo_inurba_marseille","lat":43.27493,"lon":5.42451,"is_reserved":false,"is_disabled":false,"rental_uris":{"android":"levelo://app?vid=097c5e0a-50b7-4b75-9ed2-1499a9353ffa","ios":"levelo://app?vid=097c5e0a-50b7-4b75-9ed2-1499a9353ffa"},"vehicle_type_id":"4","last_reported":1734347320,"current_range_meters":19600,"station_id":"ce4bhn92rcd13ifvqgrg","pricing_plan_id":"cebpf4jnsgd1na2vs0mg"},{"bike_id":"22b68899-8b56-4d5b-a525-250826f94187","system_id":"levelo_inurba_marseille","lat":43.30546,"lon":5.3671,"is_reserved":false,"is_disabled":true,"rental_uris":{"android":"levelo://app?vid=22b68899-8b56-4d5b-a525-250826f94187","ios":"levelo://app?vid=22b68899-8b56-4d5b-a525-250826f94187"},"vehicle_type_id":"4","last_reported":1734347320,"current_range_meters":38800,"station_id":"ce4bgrp2rcd13ifvqc9g","pricing_plan_id":"cebpf4jnsgd1na2vs0mg"},{"bike_id":"d2e412ce-b890-4afc-b073-94a1ab7a6a06","system_id":"levelo_inurba_marseille","lat":43.29322,"lon":5.37463,"is_reserved":false,"is_disabled":false,"rental_uris":{"android":"levelo://app?vid=d2e412ce-b890-4afc-b073-94a1ab7a6a06","ios":"levelo://app?vid=d2e412ce-b890-4afc-b073-94a1ab7a6a06"},"vehicle_type_id":"4","last_reported":1734347320,"current_range_meters":30400,"station_id":"ce4bgi12rcd13ifvqb70","pricing_plan_id":"cebpf4jnsgd1na2vs0mg"},{"bike_id":"83e5b1f9-e512-4755-8dfd-f85222a054ac","system_id":"levelo_inurba_marseille","lat":43.2682,"lon":5.3963,"is_reserved":false,"is_disabled":false,"rental_uris":{"android":"levelo://app?vid=83e5b1f9-e512-4755-8dfd-f85222a054ac","ios":"levelo://app?vid=83e5b1f9-e512-4755-8dfd-f85222a054ac"},"vehicle_type_id":"4","last_reported":1734347320,"current_range_meters":11200,"station_id":"","pricing_plan_id":"cebpf4jnsgd1na2vs0mg"},{"bike_id":"483537f0-0a97-4bc9-b6b9-3700316f5817","system_id":"levelo_inurba_marseille","lat":43.29537,"lon":5.38549,"is_reserved":false,"is_disabled":true,"rental_uris":{"android":"levelo://app?vid=483537f0-0a97-4bc9-b6b9-3700316f5817","ios":"levelo://app?vid=483537f0-0a97-4bc9-b6b9-3700316f5817"},"vehicle_type_id":"4","last_reported":1734347320,"current_range_meters":3600,"station_id":"ce4bgih2rcd13ifvqba0","pricing_plan_id":"cebpf4jnsgd1na2vs0mg"},{"bike_id":"2c0e2aa3-705b-4229-bef5-3966825c1c4c","system_id":"levelo_inurba_marseille","lat":43.28486,"lon":5.38557,"is_reserved":false,"is_disabled":false,"rental_uris":{"android":"levelo://app?vid=2c0e2aa3-705b-4229-bef5-3966825c1c4c","ios":"levelo://app?vid=2c0e2aa3-705b-4229-bef5-3966825c1c4c"},"vehicle_type_id":"4","last_reported":1734347320,"current_range_meters":31200,"station_id":"ce4bh8p2rcd13ifvqeb0","pricing_plan_id":"cebpf4jnsgd1na2vs0mg"},{"bike_id":"1f9f2344-774c-4681-a39f-5ccd15c769b1","system_id":"levelo_inurba_marseille","lat":43.28615,"lon":5.35099,"is_reserved":false,"is_disabled":true,"rental_uris":{"android":"levelo://app?vid=1f9f2344-774c-4681-a39f-5ccd15c769b1","ios":"levelo://app?vid=1f9f2344-774c-4681-a39f-5ccd15c769b1"},"vehicle_type_id":"4","last_reported":1734347320,"current_range_meters":27200,"station_id":"ce4bhch2rcd13ifvqeug","pricing_plan_id":"cebpf4jnsgd1na2vs0mg"},{"bike_id":"a1e87f39-a169-437c-996c-14d84743b37e","system_id":"levelo_inurba_marseille","lat":43.23067,"lon":5.35514,"is_reserved":false,"is_disabled":false,"rental_uris":{"android":"levelo://app?vid=a1e87f39-a169-437c-996c-14d84743b37e","ios":"levelo://app?vid=a1e87f39-a169-437c-996c-14d84743b37e"},"vehicle_type_id":"4","last_reported":1734347320,"current_range_meters":36800,"station_id":"cpo3342slgdg3j2ifvpg","pricing_plan_id":"cebpf4jnsgd1na2vs0mg"},{"bike_id":"1bf441ad-d9c2-4800-bd23-968cca2082fe","system_id":"levelo_inurba_marseille","lat":43.29562,"lon":5.37509,"is_reserved":false,"is_disabled":false,"rental_uris":{"android":"levelo://app?vid=1bf441ad-d9c2-4800-bd23-968cca2082fe","ios":"levelo://app?vid=1bf441ad-d9c2-4800-bd23-968cca2082fe"},"vehicle_type_id":"4","last_reported":1734347320,"current_range_meters":28800,"station_id":"ce4bgh92rcd13ifvqb50","pricing_plan_id":"cebpf4jnsgd1na2vs0mg"},{"bike_id":"a4201bad-2952-479e-bfa8-345091f5dd8e","system_id":"levelo_inurba_marseille","lat":43.2465,"lon":5.388936,"is_reserved":false,"is_disabled":false,"rental_uris":{"android":"levelo://app?vid=a4201bad-2952-479e-bfa8-345091f5dd8e","ios":"levelo://app?vid=a4201bad-2952-479e-bfa8-345091f5dd8e"},"vehicle_type_id":"4","last_reported":1734347320,"current_range_meters":18800,"station_id":"ce4bhg12rcd13ifvqf60","pricing_plan_id":"cebpf4jnsgd1na2vs0mg"},{"bike_id":"a34223f5-c6be-48ba-acdb-c689c88a699e","system_id":"levelo_inurba_marseille","lat":43.2619,"lon":5.3745,"is_reserved":false,"is_disabled":true,"rental_uris":{"android":"levelo://app?vid=a34223f5-c6be-48ba-acdb-c689c88a699e","ios":"levelo://app?vid=a34223f5-c6be-48ba-acdb-c689c88a699e"},"vehicle_type_id":"4","last_reported":1734347320,"current_range_meters":9200,"station_id":"ce4bhgp2rcd13ifvqfc0","pricing_plan_id":"cebpf4jnsgd1na2vs0mg"},{"bike_id":"f7924401-ff1f-44d3-9851-f0e4c26c4ba7","system_id":"levelo_inurba_marseille","lat":43.2721,"lon":5.39183,"is_reserved":false,"is_disabled":false,"rental_uris":{"android":"levelo://app?vid=f7924401-ff1f-44d3-9851-f0e4c26c4ba7","ios":"levelo://app?vid=f7924401-ff1f-44d3-9851-f0e4c26c4ba7"},"vehicle_type_id":"4","last_reported":1734347320,"current_range_meters":38000,"station_id":"ce4bhhp2rcd13ifvqfm0","pricing_plan_id":"cebpf4jnsgd1na2vs0mg"},{"bike_id":"c76de74b-f745-43b4-b5cf-f1c3c6c2de11","system_id":"levelo_inurba_marseille","lat":43.24666,"lon":5.38162,"is_reserved":false,"is_disabled":true,"rental_uris":{"android":"levelo://app?vid=c76de74b-f745-43b4-b5cf-f1c3c6c2de11","ios":"levelo://app?vid=c76de74b-f745-43b4-b5cf-f1c3c6c2de11"},"vehicle_type_id":"4","last_reported":1734347320,"current_range_meters":9600,"station_id":"ce4bhih2rcd13ifvqfr0","pricing_plan_id":"cebpf4jnsgd1na2vs0mg"},{"bike_id":"90fdbe4f-cb5a-407c-9503-1ec303e90772","system_id":"levelo_inurba_marseille","lat":43.30144,"lon":5.38805,"is_reserved":false,"is_disabled":true,"rental_uris":{"android":"levelo://app?vid=90fdbe4f-cb5a-407c-9503-1ec303e90772","ios":"levelo://app?vid=90fdbe4f-cb5a-407c-9503-1ec303e90772"},"vehicle_type_id":"4","last_reported":1734347320,"current_range_meters":20800,"station_id":"ce4bghh2rcd13ifvqb60","pricing_plan_id":"cebpf4jnsgd1na2vs0mg"},{"bike_id":"421d54ef-cf00-4e20-b26a-b14d7e71225c","system_id":"levelo_inurba_marseille","lat":43.28479,"lon":5.38424,"is_reserved":false,"is_disabled":false,"rental_uris":{"android":"levelo://app?vid=421d54ef-cf00-4e20-b26a-b14d7e71225c","ios":"levelo://app?vid=421d54ef-cf00-4e20-b26a-b14d7e71225c"},"vehicle_type_id":"4","last_reported":1734347320,"current_range_meters":30400,"station_id":"ce4bh512rcd13ifvqe3g","pricing_plan_id":"cebpf4jnsgd1na2vs0mg"},{"bike_id":"d4e5d77a-27d1-4c8d-8280-dbf389e80711","system_id":"levelo_inurba_marseille","lat":43.30297,"lon":5.36889,"is_reserved":false,"is_disabled":false,"rental_uris":{"android":"levelo://app?vid=d4e5d77a-27d1-4c8d-8280-dbf389e80711","ios":"levelo://app?vid=d4e5d77a-27d1-4c8d-8280-dbf389e80711"},"vehicle_type_id":"4","last_reported":1734347320,"current_range_meters":38800,"station_id":"ce4bgqh2rcd13ifvqc5g","pricing_plan_id":"cebpf4jnsgd1na2vs0mg"},{"bike_id":"e76f2873-e6fb-47c1-a122-e676819dd4bf","system_id":"levelo_inurba_marseille","lat":43.24167,"lon":5.39731,"is_reserved":false,"is_disabled":false,"rental_uris":{"android":"levelo://app?vid=e76f2873-e6fb-47c1-a122-e676819dd4bf","ios":"levelo://app?vid=e76f2873-e6fb-47c1-a122-e676819dd4bf"},"vehicle_type_id":"4","last_reported":1734347320,"current_range_meters":18800,"station_id":"ce4bhn12rcd13ifvqgpg","pricing_plan_id":"cebpf4jnsgd1na2vs0mg"},{"bike_id":"ddbb3a7c-2665-4ce3-9848-3cccae19d989","system_id":"levelo_inurba_marseille","lat":43.2767,"lon":5.38928,"is_reserved":false,"is_disabled":true,"rental_uris":{"android":"levelo://app?vid=ddbb3a7c-2665-4ce3-9848-3cccae19d989","ios":"levelo://app?vid=ddbb3a7c-2665-4ce3-9848-3cccae19d989"},"vehicle_type_id":"4","last_reported":1734347320,"current_range_meters":36000,"station_id":"ce4bhi12rcd13ifvqfo0","pricing_plan_id":"cebpf4jnsgd1na2vs0mg"},{"bike_id":"bde54dc7-9395-46d6-bc6e-42ecf2cbe5bd","system_id":"levelo_inurba_marseille","lat":43.30465,"lon":5.379,"is_reserved":false,"is_disabled":true,"rental_uris":{"android":"levelo://app?vid=bde54dc7-9395-46d6-bc6e-42ecf2cbe5bd","ios":"levelo://app?vid=bde54dc7-9395-46d6-bc6e-42ecf2cbe5bd"},"vehicle_type_id":"4","last_reported":1734347320,"current_range_meters":0,"station_id":"ce4bgup2rcd13ifvqcn0","pricing_plan_id":"cebpf4jnsgd1na2vs0mg"},{"bike_id":"4e3eebec-f009-4887-809b-5f30495d5092","system_id":"levelo_inurba_marseille","lat":43.28694,"lon":5.37406,"is_reserved":false,"is_disabled":true,"rental_uris":{"android":"levelo://app?vid=4e3eebec-f009-4887-809b-5f30495d5092","ios":"levelo://app?vid=4e3eebec-f009-4887-809b-5f30495d5092"},"vehicle_type_id":"4","last_reported":1734347320,"current_range_meters":12400,"station_id":"ce4bh3p2rcd13ifvqdq0","pricing_plan_id":"cebpf4jnsgd1na2vs0mg"},{"bike_id":"b5091e45-09e1-4ff4-8c41-6505f52caa85","system_id":"levelo_inurba_marseille","lat":43.25099,"lon":5.40334,"is_reserved":false,"is_disabled":false,"rental_uris":{"android":"levelo://app?vid=b5091e45-09e1-4ff4-8c41-6505f52caa85","ios":"levelo://app?vid=b5091e45-09e1-4ff4-8c41-6505f52caa85"},"vehicle_type_id":"4","last_reported":1734347320,"current_range_meters":38800,"station_id":"ce4bhlh2rcd13ifvqgig","pricing_plan_id":"cebpf4jnsgd1na2vs0mg"},{"bike_id":"5cb2253b-15ad-4ce2-af15-ca4a67df4526","system_id":"levelo_inurba_marseille","lat":43.31442,"lon":5.37023,"is_reserved":false,"is_disabled":false,"rental_uris":{"android":"levelo://app?vid=5cb2253b-15ad-4ce2-af15-ca4a67df4526","ios":"levelo://app?vid=5cb2253b-15ad-4ce2-af15-ca4a67df4526"},"vehicle_type_id":"4","last_reported":1734347320,"current_range_meters":16800,"station_id":"","pricing_plan_id":"cebpf4jnsgd1na2vs0mg"},{"bike_id":"8e15ce21-a9ab-4183-8d7a-fc30c4b5f23c","system_id":"levelo_inurba_marseille","lat":43.27619,"lon":5.36108,"is_reserved":false,"is_disabled":false,"rental_uris":{"android":"levelo://app?vid=8e15ce21-a9ab-4183-8d7a-fc30c4b5f23c","ios":"levelo://app?vid=8e15ce21-a9ab-4183-8d7a-fc30c4b5f23c"},"vehicle_type_id":"4","last_reported":1734347320,"current_range_meters":24000,"station_id":"ce4bgj92rcd13ifvqbe0","pricing_plan_id":"cebpf4jnsgd1na2vs0mg"},{"bike_id":"a29baab6-4ed2-4678-b43d-ca5672f5cd12","system_id":"levelo_inurba_marseille","lat":43.25577,"lon":5.38236,"is_reserved":false,"is_disabled":false,"rental_uris":{"android":"levelo://app?vid=a29baab6-4ed2-4678-b43d-ca5672f5cd12","ios":"levelo://app?vid=a29baab6-4ed2-4678-b43d-ca5672f5cd12"},"vehicle_type_id":"4","last_reported":1734347320,"current_range_meters":14000,"station_id":"ce4bhih2rcd13ifvqfs0","pricing_plan_id":"cebpf4jnsgd1na2vs0mg"},{"bike_id":"247258e1-f9a0-4677-8aa0-2d2088a0fef9","system_id":"levelo_inurba_marseille","lat":43.29543,"lon":5.38553,"is_reserved":false,"is_disabled":true,"rental_uris":{"android":"levelo://app?vid=247258e1-f9a0-4677-8aa0-2d2088a0fef9","ios":"levelo://app?vid=247258e1-f9a0-4677-8aa0-2d2088a0fef9"},"vehicle_type_id":"4","last_reported":1734347320,"current_range_meters":33600,"station_id":"ce4bgih2rcd13ifvqba0","pricing_plan_id":"cebpf4jnsgd1na2vs0mg"},{"bike_id":"17280317-2cbf-4f96-af2a-0d70aac1b05e","system_id":"levelo_inurba_marseille","lat":43.27972,"lon":5.38727,"is_reserved":false,"is_disabled":false,"rental_uris":{"android":"levelo://app?vid=17280317-2cbf-4f96-af2a-0d70aac1b05e","ios":"levelo://app?vid=17280317-2cbf-4f96-af2a-0d70aac1b05e"},"vehicle_type_id":"4","last_reported":1734347320,"current_range_meters":26800,"station_id":"ce4bhg12rcd13ifvqf80","pricing_plan_id":"cebpf4jnsgd1na2vs0mg"},{"bike_id":"60e686f6-cac0-45e2-be21-108f7ad078d8","system_id":"levelo_inurba_marseille","lat":43.2707,"lon":5.42276,"is_reserved":false,"is_disabled":false,"rental_uris":{"android":"levelo://app?vid=60e686f6-cac0-45e2-be21-108f7ad078d8","ios":"levelo://app?vid=60e686f6-cac0-45e2-be21-108f7ad078d8"},"vehicle_type_id":"4","last_reported":1734347320,"current_range_meters":37600,"station_id":"ce4bhk92rcd13ifvqgb0","pricing_plan_id":"cebpf4jnsgd1na2vs0mg"},{"bike_id":"0df249be-7d40-48ad-8915-752593b717dd","system_id":"levelo_inurba_marseille","lat":43.23189,"lon":5.35581,"is_reserved":false,"is_disabled":false,"rental_uris":{"android":"levelo://app?vid=0df249be-7d40-48ad-8915-752593b717dd","ios":"levelo://app?vid=0df249be-7d40-48ad-8915-752593b717dd"},"vehicle_type_id":"4","last_reported":1734347320,"current_range_meters":25200,"station_id":"ce4bhu92rcd13ifvqi70","pricing_plan_id":"cebpf4jnsgd1na2vs0mg"},{"bike_id":"989664e1-2615-4d65-9c6b-db676949f101","system_id":"levelo_inurba_marseille","lat":43.2815,"lon":5.4265,"is_reserved":false,"is_disabled":false,"rental_uris":{"android":"levelo://app?vid=989664e1-2615-4d65-9c6b-db676949f101","ios":"levelo://app?vid=989664e1-2615-4d65-9c6b-db676949f101"},"vehicle_type_id":"4","last_reported":1734347320,"current_range_meters":7200,"station_id":"ce4bhnh2rcd13ifvqgug","pricing_plan_id":"cebpf4jnsgd1na2vs0mg"},{"bike_id":"4a1bc0db-6a2c-4623-8864-d2d18510681f","system_id":"levelo_inurba_marseille","lat":43.23194,"lon":5.35558,"is_reserved":false,"is_disabled":false,"rental_uris":{"android":"levelo://app?vid=4a1bc0db-6a2c-4623-8864-d2d18510681f","ios":"levelo://app?vid=4a1bc0db-6a2c-4623-8864-d2d18510681f"},"vehicle_type_id":"4","last_reported":1734347320,"current_range_meters":12000,"station_id":"ce4bhu92rcd13ifvqi70","pricing_plan_id":"cebpf4jnsgd1na2vs0mg"},{"bike_id":"d4be59f7-09fc-45ee-b056-7acd3d9ca65e","system_id":"levelo_inurba_marseille","lat":43.2656,"lon":5.39012,"is_reserved":false,"is_disabled":false,"rental_uris":{"android":"levelo://app?vid=d4be59f7-09fc-45ee-b056-7acd3d9ca65e","ios":"levelo://app?vid=d4be59f7-09fc-45ee-b056-7acd3d9ca65e"},"vehicle_type_id":"4","last_reported":1734347320,"current_range_meters":18000,"station_id":"ce4bhe12rcd13ifvqf30","pricing_plan_id":"cebpf4jnsgd1na2vs0mg"},{"bike_id":"230e9a8a-c8f7-40a1-b317-d4afa1935b21","system_id":"levelo_inurba_marseille","lat":43.31718,"lon":5.40484,"is_reserved":false,"is_disabled":true,"rental_uris":{"android":"levelo://app?vid=230e9a8a-c8f7-40a1-b317-d4afa1935b21","ios":"levelo://app?vid=230e9a8a-c8f7-40a1-b317-d4afa1935b21"},"vehicle_type_id":"4","last_reported":1734347320,"current_range_meters":37600,"station_id":"ce4bh012rcd13ifvqd00","pricing_plan_id":"cebpf4jnsgd1na2vs0mg"},{"bike_id":"680bc8ce-2061-4d43-9cf7-a70eeccaf369","system_id":"levelo_inurba_marseille","lat":43.31332,"lon":5.36795,"is_reserved":false,"is_disabled":true,"rental_uris":{"android":"levelo://app?vid=680bc8ce-2061-4d43-9cf7-a70eeccaf369","ios":"levelo://app?vid=680bc8ce-2061-4d43-9cf7-a70eeccaf369"},"vehicle_type_id":"4","last_reported":1734347320,"current_range_meters":37600,"station_id":"ce4bgr92rcd13ifvqc6g","pricing_plan_id":"cebpf4jnsgd1na2vs0mg"},{"bike_id":"683a9ad3-de61-4837-8bfa-fd2fa377113b","system_id":"levelo_inurba_marseille","lat":43.30513,"lon":5.36709,"is_reserved":false,"is_disabled":true,"rental_uris":{"android":"levelo://app?vid=683a9ad3-de61-4837-8bfa-fd2fa377113b","ios":"levelo://app?vid=683a9ad3-de61-4837-8bfa-fd2fa377113b"},"vehicle_type_id":"4","last_reported":1734347320,"current_range_meters":38800,"station_id":"ce4bgrp2rcd13ifvqc9g","pricing_plan_id":"cebpf4jnsgd1na2vs0mg"},{"bike_id":"c212ed0b-ec17-4951-8b14-b8ca3fa17c31","system_id":"levelo_inurba_marseille","lat":43.275,"lon":5.42471,"is_reserved":false,"is_disabled":false,"rental_uris":{"android":"levelo://app?vid=c212ed0b-ec17-4951-8b14-b8ca3fa17c31","ios":"levelo://app?vid=c212ed0b-ec17-4951-8b14-b8ca3fa17c31"},"vehicle_type_id":"4","last_reported":1734347320,"current_range_meters":37600,"station_id":"ce4bhn92rcd13ifvqgrg","pricing_plan_id":"cebpf4jnsgd1na2vs0mg"},{"bike_id":"8a60ab24-229f-48d4-92bf-215dc518f70f","system_id":"levelo_inurba_marseille","lat":43.23148,"lon":5.43713,"is_reserved":false,"is_disabled":false,"rental_uris":{"android":"levelo://app?vid=8a60ab24-229f-48d4-92bf-215dc518f70f","ios":"levelo://app?vid=8a60ab24-229f-48d4-92bf-215dc518f70f"},"vehicle_type_id":"4","last_reported":1734347320,"current_range_meters":38800,"station_id":"ce4bhmp2rcd13ifvqgog","pricing_plan_id":"cebpf4jnsgd1na2vs0mg"},{"bike_id":"a170ba40-17b7-4bf6-90f8-c07a5cf55709","system_id":"levelo_inurba_marseille","lat":43.24648,"lon":5.38893,"is_reserved":false,"is_disabled":false,"rental_uris":{"android":"levelo://app?vid=a170ba40-17b7-4bf6-90f8-c07a5cf55709","ios":"levelo://app?vid=a170ba40-17b7-4bf6-90f8-c07a5cf55709"},"vehicle_type_id":"4","last_reported":1734347320,"current_range_meters":35200,"station_id":"ce4bhg12rcd13ifvqf60","pricing_plan_id":"cebpf4jnsgd1na2vs0mg"},{"bike_id":"06eb94fd-69b5-42bb-9a93-3989c149a585","system_id":"levelo_inurba_marseille","lat":43.29458,"lon":5.3624,"is_reserved":false,"is_disabled":false,"rental_uris":{"android":"levelo://app?vid=06eb94fd-69b5-42bb-9a93-3989c149a585","ios":"levelo://app?vid=06eb94fd-69b5-42bb-9a93-3989c149a585"},"vehicle_type_id":"4","last_reported":1734347320,"current_range_meters":5600,"station_id":"","pricing_plan_id":"cebpf4jnsgd1na2vs0mg"},{"bike_id":"6da25cb0-ca05-4510-91ba-8296b03014f9","system_id":"levelo_inurba_marseille","lat":43.26185,"lon":5.37455,"is_reserved":false,"is_disabled":true,"rental_uris":{"android":"levelo://app?vid=6da25cb0-ca05-4510-91ba-8296b03014f9","ios":"levelo://app?vid=6da25cb0-ca05-4510-91ba-8296b03014f9"},"vehicle_type_id":"4","last_reported":1734347320,"current_range_meters":20000,"station_id":"ce4bhgp2rcd13ifvqfc0","pricing_plan_id":"cebpf4jnsgd1na2vs0mg"},{"bike_id":"d9977418-8393-49f5-a40b-c871898e58ed","system_id":"levelo_inurba_marseille","lat":43.32481,"lon":5.36565,"is_reserved":false,"is_disabled":false,"rental_uris":{"android":"levelo://app?vid=d9977418-8393-49f5-a40b-c871898e58ed","ios":"levelo://app?vid=d9977418-8393-49f5-a40b-c871898e58ed"},"vehicle_type_id":"4","last_reported":1734347320,"current_range_meters":20000,"station_id":"ce4bhs12rcd13ifvqhvg","pricing_plan_id":"cebpf4jnsgd1na2vs0mg"},{"bike_id":"73dfa7e4-d49f-4d8e-863c-b046f358e6ae","system_id":"levelo_inurba_marseille","lat":43.32336,"lon":5.40622,"is_reserved":false,"is_disabled":false,"rental_uris":{"android":"levelo://app?vid=73dfa7e4-d49f-4d8e-863c-b046f358e6ae","ios":"levelo://app?vid=73dfa7e4-d49f-4d8e-863c-b046f358e6ae"},"vehicle_type_id":"4","last_reported":1734347320,"current_range_meters":16000,"station_id":"ce4bhq92rcd13ifvqhjg","pricing_plan_id":"cebpf4jnsgd1na2vs0mg"},{"bike_id":"52b75037-4055-40e7-83eb-284b932ae4d5","system_id":"levelo_inurba_marseille","lat":43.26932,"lon":5.38916,"is_reserved":false,"is_disabled":false,"rental_uris":{"android":"levelo://app?vid=52b75037-4055-40e7-83eb-284b932ae4d5","ios":"levelo://app?vid=52b75037-4055-40e7-83eb-284b932ae4d5"},"vehicle_type_id":"4","last_reported":1734347320,"current_range_meters":24400,"station_id":"ce4bhhh2rcd13ifvqfl0","pricing_plan_id":"cebpf4jnsgd1na2vs0mg"},{"bike_id":"5651d11a-7d58-4316-8f39-f27a4006a3e9","system_id":"levelo_inurba_marseille","lat":43.23152,"lon":5.43717,"is_reserved":false,"is_disabled":false,"rental_uris":{"android":"levelo://app?vid=5651d11a-7d58-4316-8f39-f27a4006a3e9","ios":"levelo://app?vid=5651d11a-7d58-4316-8f39-f27a4006a3e9"},"vehicle_type_id":"4","last_reported":1734347320,"current_range_meters":34000,"station_id":"ce4bhmp2rcd13ifvqgog","pricing_plan_id":"cebpf4jnsgd1na2vs0mg"},{"bike_id":"42d7dc01-aab6-4095-9bf5-37b1d785bbc4","system_id":"levelo_inurba_marseille","lat":43.29105,"lon":5.3819,"is_reserved":false,"is_disabled":false,"rental_uris":{"android":"levelo://app?vid=42d7dc01-aab6-4095-9bf5-37b1d785bbc4","ios":"levelo://app?vid=42d7dc01-aab6-4095-9bf5-37b1d785bbc4"},"vehicle_type_id":"4","last_reported":1734347320,"current_range_meters":37600,"station_id":"ce4bh512rcd13ifvqe2g","pricing_plan_id":"cebpf4jnsgd1na2vs0mg"},{"bike_id":"c0d6a234-928d-47ee-b103-1d91f354d353","system_id":"levelo_inurba_marseille","lat":43.30608,"lon":5.37218,"is_reserved":false,"is_disabled":false,"rental_uris":{"android":"levelo://app?vid=c0d6a234-928d-47ee-b103-1d91f354d353","ios":"levelo://app?vid=c0d6a234-928d-47ee-b103-1d91f354d353"},"vehicle_type_id":"4","last_reported":1734347320,"current_range_meters":29600,"station_id":"ce4bgqh2rcd13ifvqc4g","pricing_plan_id":"cebpf4jnsgd1na2vs0mg"},{"bike_id":"dfac3074-0f88-413c-a849-e409d9cf59b0","system_id":"levelo_inurba_marseille","lat":43.26043,"lon":5.39417,"is_reserved":false,"is_disabled":false,"rental_uris":{"android":"levelo://app?vid=dfac3074-0f88-413c-a849-e409d9cf59b0","ios":"levelo://app?vid=dfac3074-0f88-413c-a849-e409d9cf59b0"},"vehicle_type_id":"4","last_reported":1734347320,"current_range_meters":38000,"station_id":"ce4bhh92rcd13ifvqfj0","pricing_plan_id":"cebpf4jnsgd1na2vs0mg"},{"bike_id":"cb2d26b2-cb4c-44d8-a14d-e6c8ff3a4052","system_id":"levelo_inurba_marseille","lat":43.30596,"lon":5.37223,"is_reserved":false,"is_disabled":false,"rental_uris":{"android":"levelo://app?vid=cb2d26b2-cb4c-44d8-a14d-e6c8ff3a4052","ios":"levelo://app?vid=cb2d26b2-cb4c-44d8-a14d-e6c8ff3a4052"},"vehicle_type_id":"4","last_reported":1734347320,"current_range_meters":38000,"station_id":"ce4bgqh2rcd13ifvqc4g","pricing_plan_id":"cebpf4jnsgd1na2vs0mg"},{"bike_id":"b7ebc1ca-e5a4-48bb-8246-2ef6a8164e56","system_id":"levelo_inurba_marseille","lat":43.29611,"lon":5.37724,"is_reserved":false,"is_disabled":false,"rental_uris":{"android":"levelo://app?vid=b7ebc1ca-e5a4-48bb-8246-2ef6a8164e56","ios":"levelo://app?vid=b7ebc1ca-e5a4-48bb-8246-2ef6a8164e56"},"vehicle_type_id":"4","last_reported":1734347320,"current_range_meters":33200,"station_id":"ce4bgi92rcd13ifvqb90","pricing_plan_id":"cebpf4jnsgd1na2vs0mg"},{"bike_id":"52d0fa06-64d1-499e-bba9-979a7af8f51a","system_id":"levelo_inurba_marseille","lat":43.24685,"lon":5.38168,"is_reserved":false,"is_disabled":false,"rental_uris":{"android":"levelo://app?vid=52d0fa06-64d1-499e-bba9-979a7af8f51a","ios":"levelo://app?vid=52d0fa06-64d1-499e-bba9-979a7af8f51a"},"vehicle_type_id":"4","last_reported":1734347320,"current_range_meters":20800,"station_id":"ce4bhih2rcd13ifvqfr0","pricing_plan_id":"cebpf4jnsgd1na2vs0mg"},{"bike_id":"c58821f9-7843-4f2b-8e11-dffb0b46d8fe","system_id":"levelo_inurba_marseille","lat":43.29803,"lon":5.37116,"is_reserved":false,"is_disabled":false,"rental_uris":{"android":"levelo://app?vid=c58821f9-7843-4f2b-8e11-dffb0b46d8fe","ios":"levelo://app?vid=c58821f9-7843-4f2b-8e11-dffb0b46d8fe"},"vehicle_type_id":"4","last_reported":1734347320,"current_range_meters":28400,"station_id":"ce4bgop2rcd13ifvqc1g","pricing_plan_id":"cebpf4jnsgd1na2vs0mg"},{"bike_id":"119666ee-7528-4e52-89f1-c99509e02f6e","system_id":"levelo_inurba_marseille","lat":43.30528,"lon":5.36532,"is_reserved":false,"is_disabled":false,"rental_uris":{"android":"levelo://app?vid=119666ee-7528-4e52-89f1-c99509e02f6e","ios":"levelo://app?vid=119666ee-7528-4e52-89f1-c99509e02f6e"},"vehicle_type_id":"4","last_reported":1734347320,"current_range_meters":36800,"station_id":"ce4bgs12rcd13ifvqcag","pricing_plan_id":"cebpf4jnsgd1na2vs0mg"},{"bike_id":"0d253baf-5864-4b49-8429-1468e72a0132","system_id":"levelo_inurba_marseille","lat":43.24931,"lon":5.39689,"is_reserved":false,"is_disabled":false,"rental_uris":{"android":"levelo://app?vid=0d253baf-5864-4b49-8429-1468e72a0132","ios":"levelo://app?vid=0d253baf-5864-4b49-8429-1468e72a0132"},"vehicle_type_id":"4","last_reported":1734347320,"current_range_meters":26000,"station_id":"ce4bha12rcd13ifvqee0","pricing_plan_id":"cebpf4jnsgd1na2vs0mg"},{"bike_id":"50200c2d-a7cd-4ece-9414-df5bb2a9eda0","system_id":"levelo_inurba_marseille","lat":43.30482,"lon":5.37867,"is_reserved":false,"is_disabled":false,"rental_uris":{"android":"levelo://app?vid=50200c2d-a7cd-4ece-9414-df5bb2a9eda0","ios":"levelo://app?vid=50200c2d-a7cd-4ece-9414-df5bb2a9eda0"},"vehicle_type_id":"4","last_reported":1734347320,"current_range_meters":3600,"station_id":"ce4bgup2rcd13ifvqcn0","pricing_plan_id":"cebpf4jnsgd1na2vs0mg"},{"bike_id":"63eaffe0-9361-4ff6-ab19-8007100ee7ae","system_id":"levelo_inurba_marseille","lat":43.24153,"lon":5.3971,"is_reserved":false,"is_disabled":false,"rental_uris":{"android":"levelo://app?vid=63eaffe0-9361-4ff6-ab19-8007100ee7ae","ios":"levelo://app?vid=63eaffe0-9361-4ff6-ab19-8007100ee7ae"},"vehicle_type_id":"4","last_reported":1734347320,"current_range_meters":34000,"station_id":"ce4bhn12rcd13ifvqgpg","pricing_plan_id":"cebpf4jnsgd1na2vs0mg"},{"bike_id":"604f4c53-7126-4c38-a496-1deeabae457e","system_id":"levelo_inurba_marseille","lat":43.24081,"lon":5.37716,"is_reserved":false,"is_disabled":false,"rental_uris":{"android":"levelo://app?vid=604f4c53-7126-4c38-a496-1deeabae457e","ios":"levelo://app?vid=604f4c53-7126-4c38-a496-1deeabae457e"},"vehicle_type_id":"4","last_reported":1734347320,"current_range_meters":34800,"station_id":"ce4bhnp2rcd13ifvqgvg","pricing_plan_id":"cebpf4jnsgd1na2vs0mg"},{"bike_id":"b9dd575c-8c45-40f6-991f-d0d5880a2504","system_id":"levelo_inurba_marseille","lat":43.25875,"lon":5.3993,"is_reserved":false,"is_disabled":false,"rental_uris":{"android":"levelo://app?vid=b9dd575c-8c45-40f6-991f-d0d5880a2504","ios":"levelo://app?vid=b9dd575c-8c45-40f6-991f-d0d5880a2504"},"vehicle_type_id":"4","last_reported":1734347320,"current_range_meters":36800,"station_id":"ce4bhl92rcd13ifvqghg","pricing_plan_id":"cebpf4jnsgd1na2vs0mg"},{"bike_id":"f212dc32-408b-4f31-937a-b00904fac5be","system_id":"levelo_inurba_marseille","lat":43.3045,"lon":5.39789,"is_reserved":false,"is_disabled":false,"rental_uris":{"android":"levelo://app?vid=f212dc32-408b-4f31-937a-b00904fac5be","ios":"levelo://app?vid=f212dc32-408b-4f31-937a-b00904fac5be"},"vehicle_type_id":"4","last_reported":1734347320,"current_range_meters":25600,"station_id":"ce4bh092rcd13ifvqd20","pricing_plan_id":"cebpf4jnsgd1na2vs0mg"},{"bike_id":"30c62ece-5a4a-4349-99ae-f8461ab419e9","system_id":"levelo_inurba_marseille","lat":43.31988,"lon":5.38169,"is_reserved":false,"is_disabled":true,"rental_uris":{"android":"levelo://app?vid=30c62ece-5a4a-4349-99ae-f8461ab419e9","ios":"levelo://app?vid=30c62ece-5a4a-4349-99ae-f8461ab419e9"},"vehicle_type_id":"4","last_reported":1734347320,"current_range_meters":0,"station_id":"ce4bhr12rcd13ifvqhpg","pricing_plan_id":"cebpf4jnsgd1na2vs0mg"},{"bike_id":"3650d84c-d2fd-4728-abeb-b9accdfa7210","system_id":"levelo_inurba_marseille","lat":43.30232,"lon":5.40064,"is_reserved":false,"is_disabled":true,"rental_uris":{"android":"levelo://app?vid=3650d84c-d2fd-4728-abeb-b9accdfa7210","ios":"levelo://app?vid=3650d84c-d2fd-4728-abeb-b9accdfa7210"},"vehicle_type_id":"4","last_reported":1734347320,"current_range_meters":16400,"station_id":"ce4bgvh2rcd13ifvqcs0","pricing_plan_id":"cebpf4jnsgd1na2vs0mg"},{"bike_id":"c02d8a0e-b2f8-4690-8fad-50ac6971f07a","system_id":"levelo_inurba_marseille","lat":43.28723,"lon":5.39993,"is_reserved":false,"is_disabled":false,"rental_uris":{"android":"levelo://app?vid=c02d8a0e-b2f8-4690-8fad-50ac6971f07a","ios":"levelo://app?vid=c02d8a0e-b2f8-4690-8fad-50ac6971f07a"},"vehicle_type_id":"4","last_reported":1734347320,"current_range_meters":21600,"station_id":"ce4bho92rcd13ifvqh3g","pricing_plan_id":"cebpf4jnsgd1na2vs0mg"},{"bike_id":"6dc4c5ae-fd9e-43a0-b25f-5e07e380f762","system_id":"levelo_inurba_marseille","lat":43.31108,"lon":5.37814,"is_reserved":false,"is_disabled":false,"rental_uris":{"android":"levelo://app?vid=6dc4c5ae-fd9e-43a0-b25f-5e07e380f762","ios":"levelo://app?vid=6dc4c5ae-fd9e-43a0-b25f-5e07e380f762"},"vehicle_type_id":"4","last_reported":1734347320,"current_range_meters":30000,"station_id":"","pricing_plan_id":"cebpf4jnsgd1na2vs0mg"},{"bike_id":"ef28401f-e67d-41ae-b295-6b11bd121dd1","system_id":"levelo_inurba_marseille","lat":43.26685,"lon":5.38263,"is_reserved":false,"is_disabled":false,"rental_uris":{"android":"levelo://app?vid=ef28401f-e67d-41ae-b295-6b11bd121dd1","ios":"levelo://app?vid=ef28401f-e67d-41ae-b295-6b11bd121dd1"},"vehicle_type_id":"4","last_reported":1734347320,"current_range_meters":38800,"station_id":"ce4bhg92rcd13ifvqf90","pricing_plan_id":"cebpf4jnsgd1na2vs0mg"},{"bike_id":"76805181-b86b-42c5-9eb1-0613fe81a89e","system_id":"levelo_inurba_marseille","lat":43.23188,"lon":5.35557,"is_reserved":false,"is_disabled":false,"rental_uris":{"android":"levelo://app?vid=76805181-b86b-42c5-9eb1-0613fe81a89e","ios":"levelo://app?vid=76805181-b86b-42c5-9eb1-0613fe81a89e"},"vehicle_type_id":"4","last_reported":1734347320,"current_range_meters":36800,"station_id":"ce4bhu92rcd13ifvqi70","pricing_plan_id":"cebpf4jnsgd1na2vs0mg"},{"bike_id":"0173de07-b9ca-4d90-8466-c9e9062f1a7d","system_id":"levelo_inurba_marseille","lat":43.2974,"lon":5.37688,"is_reserved":false,"is_disabled":false,"rental_uris":{"android":"levelo://app?vid=0173de07-b9ca-4d90-8466-c9e9062f1a7d","ios":"levelo://app?vid=0173de07-b9ca-4d90-8466-c9e9062f1a7d"},"vehicle_type_id":"4","last_reported":1734347320,"current_range_meters":30000,"station_id":"ce4bgkh2rcd13ifvqbl0","pricing_plan_id":"cebpf4jnsgd1na2vs0mg"},{"bike_id":"ced90bff-ac9a-41e2-8a9f-5b8797c009eb","system_id":"levelo_inurba_marseille","lat":43.26583,"lon":5.38503,"is_reserved":false,"is_disabled":false,"rental_uris":{"android":"levelo://app?vid=ced90bff-ac9a-41e2-8a9f-5b8797c009eb","ios":"levelo://app?vid=ced90bff-ac9a-41e2-8a9f-5b8797c009eb"},"vehicle_type_id":"4","last_reported":1734347320,"current_range_meters":4800,"station_id":"ce4bhg92rcd13ifvqf90","pricing_plan_id":"cebpf4jnsgd1na2vs0mg"},{"bike_id":"b5894606-ee4a-42ad-9afa-ecac95860177","system_id":"levelo_inurba_marseille","lat":43.28268,"lon":5.3506,"is_reserved":false,"is_disabled":false,"rental_uris":{"android":"levelo://app?vid=b5894606-ee4a-42ad-9afa-ecac95860177","ios":"levelo://app?vid=b5894606-ee4a-42ad-9afa-ecac95860177"},"vehicle_type_id":"4","last_reported":1734347320,"current_range_meters":26000,"station_id":"ce4bhbp2rcd13ifvqerg","pricing_plan_id":"cebpf4jnsgd1na2vs0mg"},{"bike_id":"f3523180-cf09-4b58-805c-e3c6875d06de","system_id":"levelo_inurba_marseille","lat":43.24067,"lon":5.37772,"is_reserved":false,"is_disabled":false,"rental_uris":{"android":"levelo://app?vid=f3523180-cf09-4b58-805c-e3c6875d06de","ios":"levelo://app?vid=f3523180-cf09-4b58-805c-e3c6875d06de"},"vehicle_type_id":"4","last_reported":1734347320,"current_range_meters":38800,"station_id":"ce4bhnp2rcd13ifvqgvg","pricing_plan_id":"cebpf4jnsgd1na2vs0mg"},{"bike_id":"6cb5f94f-eade-4b7c-b995-84c805be74f9","system_id":"levelo_inurba_marseille","lat":43.33753,"lon":5.37425,"is_reserved":false,"is_disabled":false,"rental_uris":{"android":"levelo://app?vid=6cb5f94f-eade-4b7c-b995-84c805be74f9","ios":"levelo://app?vid=6cb5f94f-eade-4b7c-b995-84c805be74f9"},"vehicle_type_id":"4","last_reported":1734347320,"current_range_meters":21600,"station_id":"","pricing_plan_id":"cebpf4jnsgd1na2vs0mg"},{"bike_id":"2c89e534-8c80-40d9-90e4-64e982149bee","system_id":"levelo_inurba_marseille","lat":43.262,"lon":5.3793,"is_reserved":false,"is_disabled":false,"rental_uris":{"android":"levelo://app?vid=2c89e534-8c80-40d9-90e4-64e982149bee","ios":"levelo://app?vid=2c89e534-8c80-40d9-90e4-64e982149bee"},"vehicle_type_id":"4","last_reported":1734347320,"current_range_meters":29600,"station_id":"ce4bhjp2rcd13ifvqg90","pricing_plan_id":"cebpf4jnsgd1na2vs0mg"},{"bike_id":"25dcbd86-9328-4fc2-9ec4-ed691c623b1b","system_id":"levelo_inurba_marseille","lat":43.30538,"lon":5.36525,"is_reserved":false,"is_disabled":false,"rental_uris":{"android":"levelo://app?vid=25dcbd86-9328-4fc2-9ec4-ed691c623b1b","ios":"levelo://app?vid=25dcbd86-9328-4fc2-9ec4-ed691c623b1b"},"vehicle_type_id":"4","last_reported":1734347320,"current_range_meters":22800,"station_id":"ce4bgs12rcd13ifvqcag","pricing_plan_id":"cebpf4jnsgd1na2vs0mg"},{"bike_id":"6ba31082-36ee-4234-990e-b3e6f48d9bb9","system_id":"levelo_inurba_marseille","lat":43.27206,"lon":5.39182,"is_reserved":false,"is_disabled":false,"rental_uris":{"android":"levelo://app?vid=6ba31082-36ee-4234-990e-b3e6f48d9bb9","ios":"levelo://app?vid=6ba31082-36ee-4234-990e-b3e6f48d9bb9"},"vehicle_type_id":"4","last_reported":1734347320,"current_range_meters":35600,"station_id":"ce4bhhp2rcd13ifvqfm0","pricing_plan_id":"cebpf4jnsgd1na2vs0mg"},{"bike_id":"3541095f-5006-48c0-851c-9ab7d8f6b0e2","system_id":"levelo_inurba_marseille","lat":43.31754,"lon":5.39019,"is_reserved":false,"is_disabled":false,"rental_uris":{"android":"levelo://app?vid=3541095f-5006-48c0-851c-9ab7d8f6b0e2","ios":"levelo://app?vid=3541095f-5006-48c0-851c-9ab7d8f6b0e2"},"vehicle_type_id":"4","last_reported":1734347320,"current_range_meters":38800,"station_id":"ce4bhqp2rcd13ifvqhng","pricing_plan_id":"cebpf4jnsgd1na2vs0mg"},{"bike_id":"e745fdbf-e140-414d-a61c-5f2b675942a9","system_id":"levelo_inurba_marseille","lat":43.24659,"lon":5.38173,"is_reserved":false,"is_disabled":false,"rental_uris":{"android":"levelo://app?vid=e745fdbf-e140-414d-a61c-5f2b675942a9","ios":"levelo://app?vid=e745fdbf-e140-414d-a61c-5f2b675942a9"},"vehicle_type_id":"4","last_reported":1734347320,"current_range_meters":9600,"station_id":"ce4bhih2rcd13ifvqfr0","pricing_plan_id":"cebpf4jnsgd1na2vs0mg"},{"bike_id":"283ec910-2b59-4ffd-bbff-9867d116f826","system_id":"levelo_inurba_marseille","lat":43.337444,"lon":5.374475,"is_reserved":false,"is_disabled":true,"rental_uris":{"android":"levelo://app?vid=283ec910-2b59-4ffd-bbff-9867d116f826","ios":"levelo://app?vid=283ec910-2b59-4ffd-bbff-9867d116f826"},"vehicle_type_id":"4","last_reported":1734347320,"current_range_meters":0,"station_id":"","pricing_plan_id":"cebpf4jnsgd1na2vs0mg"},{"bike_id":"ebc8d6a8-c5ca-4ba4-88a4-b588ba4331af","system_id":"levelo_inurba_marseille","lat":43.26687,"lon":5.38269,"is_reserved":false,"is_disabled":false,"rental_uris":{"android":"levelo://app?vid=ebc8d6a8-c5ca-4ba4-88a4-b588ba4331af","ios":"levelo://app?vid=ebc8d6a8-c5ca-4ba4-88a4-b588ba4331af"},"vehicle_type_id":"4","last_reported":1734347320,"current_range_meters":24000,"station_id":"ce4bhg92rcd13ifvqf90","pricing_plan_id":"cebpf4jnsgd1na2vs0mg"},{"bike_id":"ad857147-75ea-4fa8-8a24-2a5b1b443a29","system_id":"levelo_inurba_marseille","lat":43.29199,"lon":5.39338,"is_reserved":false,"is_disabled":true,"rental_uris":{"android":"levelo://app?vid=ad857147-75ea-4fa8-8a24-2a5b1b443a29","ios":"levelo://app?vid=ad857147-75ea-4fa8-8a24-2a5b1b443a29"},"vehicle_type_id":"4","last_reported":1734347320,"current_range_meters":12800,"station_id":"ce4bh192rcd13ifvqdd0","pricing_plan_id":"cebpf4jnsgd1na2vs0mg"},{"bike_id":"bbffd889-750b-4762-ae94-78458d50ea91","system_id":"levelo_inurba_marseille","lat":43.33717,"lon":5.39187,"is_reserved":false,"is_disabled":false,"rental_uris":{"android":"levelo://app?vid=bbffd889-750b-4762-ae94-78458d50ea91","ios":"levelo://app?vid=bbffd889-750b-4762-ae94-78458d50ea91"},"vehicle_type_id":"4","last_reported":1734347320,"current_range_meters":38800,"station_id":"ce4bhr92rcd13ifvqhsg","pricing_plan_id":"cebpf4jnsgd1na2vs0mg"},{"bike_id":"92a252da-96a7-4296-aff4-49056999b9b5","system_id":"levelo_inurba_marseille","lat":43.30528,"lon":5.36704,"is_reserved":false,"is_disabled":false,"rental_uris":{"android":"levelo://app?vid=92a252da-96a7-4296-aff4-49056999b9b5","ios":"levelo://app?vid=92a252da-96a7-4296-aff4-49056999b9b5"},"vehicle_type_id":"4","last_reported":1734347320,"current_range_meters":18800,"station_id":"ce4bgrp2rcd13ifvqc9g","pricing_plan_id":"cebpf4jnsgd1na2vs0mg"},{"bike_id":"d27448c5-97c5-43db-b4ca-6e9efcde6100","system_id":"levelo_inurba_marseille","lat":43.24649,"lon":5.38895,"is_reserved":false,"is_disabled":false,"rental_uris":{"android":"levelo://app?vid=d27448c5-97c5-43db-b4ca-6e9efcde6100","ios":"levelo://app?vid=d27448c5-97c5-43db-b4ca-6e9efcde6100"},"vehicle_type_id":"4","last_reported":1734347320,"current_range_meters":22400,"station_id":"ce4bhg12rcd13ifvqf60","pricing_plan_id":"cebpf4jnsgd1na2vs0mg"},{"bike_id":"44d4e17a-b666-46b4-a605-b9806c360661","system_id":"levelo_inurba_marseille","lat":43.26959,"lon":5.38616,"is_reserved":false,"is_disabled":false,"rental_uris":{"android":"levelo://app?vid=44d4e17a-b666-46b4-a605-b9806c360661","ios":"levelo://app?vid=44d4e17a-b666-46b4-a605-b9806c360661"},"vehicle_type_id":"4","last_reported":1734347320,"current_range_meters":18000,"station_id":"ce4bhh92rcd13ifvqfh0","pricing_plan_id":"cebpf4jnsgd1na2vs0mg"},{"bike_id":"aa21e77a-662e-45cc-88fe-b9ed9859ba6e","system_id":"levelo_inurba_marseille","lat":43.28358,"lon":5.38631,"is_reserved":false,"is_disabled":true,"rental_uris":{"android":"levelo://app?vid=aa21e77a-662e-45cc-88fe-b9ed9859ba6e","ios":"levelo://app?vid=aa21e77a-662e-45cc-88fe-b9ed9859ba6e"},"vehicle_type_id":"4","last_reported":1734347320,"current_range_meters":37600,"station_id":"ce4bh492rcd13ifvqdvg","pricing_plan_id":"cebpf4jnsgd1na2vs0mg"},{"bike_id":"285c6471-6f32-4595-88da-356f689cb7ed","system_id":"levelo_inurba_marseille","lat":43.29022,"lon":5.38631,"is_reserved":false,"is_disabled":true,"rental_uris":{"android":"levelo://app?vid=285c6471-6f32-4595-88da-356f689cb7ed","ios":"levelo://app?vid=285c6471-6f32-4595-88da-356f689cb7ed"},"vehicle_type_id":"4","last_reported":1734347320,"current_range_meters":38000,"station_id":"ce4bh4p2rcd13ifvqe0g","pricing_plan_id":"cebpf4jnsgd1na2vs0mg"},{"bike_id":"ec166c4d-2d91-4049-8ddf-93d8bdd9e169","system_id":"levelo_inurba_marseille","lat":43.26938,"lon":5.3863,"is_reserved":false,"is_disabled":true,"rental_uris":{"android":"levelo://app?vid=ec166c4d-2d91-4049-8ddf-93d8bdd9e169","ios":"levelo://app?vid=ec166c4d-2d91-4049-8ddf-93d8bdd9e169"},"vehicle_type_id":"4","last_reported":1734347320,"current_range_meters":0,"station_id":"ce4bhh92rcd13ifvqfh0","pricing_plan_id":"cebpf4jnsgd1na2vs0mg"},{"bike_id":"a3bb11a1-d7e0-4d14-8ad3-98e5c9d44230","system_id":"levelo_inurba_marseille","lat":43.27205,"lon":5.39184,"is_reserved":false,"is_disabled":false,"rental_uris":{"android":"levelo://app?vid=a3bb11a1-d7e0-4d14-8ad3-98e5c9d44230","ios":"levelo://app?vid=a3bb11a1-d7e0-4d14-8ad3-98e5c9d44230"},"vehicle_type_id":"4","last_reported":1734347320,"current_range_meters":16000,"station_id":"ce4bhhp2rcd13ifvqfm0","pricing_plan_id":"cebpf4jnsgd1na2vs0mg"},{"bike_id":"72bfd722-da0b-4af9-8f49-6e9f26e010cc","system_id":"levelo_inurba_marseille","lat":43.25001,"lon":5.38929,"is_reserved":false,"is_disabled":false,"rental_uris":{"android":"levelo://app?vid=72bfd722-da0b-4af9-8f49-6e9f26e010cc","ios":"levelo://app?vid=72bfd722-da0b-4af9-8f49-6e9f26e010cc"},"vehicle_type_id":"4","last_reported":1734347320,"current_range_meters":23200,"station_id":"ce4bhgp2rcd13ifvqfd0","pricing_plan_id":"cebpf4jnsgd1na2vs0mg"},{"bike_id":"64d599a0-e542-4563-ae87-4a9ff44fcddd","system_id":"levelo_inurba_marseille","lat":43.24649,"lon":5.389,"is_reserved":false,"is_disabled":false,"rental_uris":{"android":"levelo://app?vid=64d599a0-e542-4563-ae87-4a9ff44fcddd","ios":"levelo://app?vid=64d599a0-e542-4563-ae87-4a9ff44fcddd"},"vehicle_type_id":"4","last_reported":1734347320,"current_range_meters":19600,"station_id":"ce4bhg12rcd13ifvqf60","pricing_plan_id":"cebpf4jnsgd1na2vs0mg"},{"bike_id":"9d7d7a71-2b6e-4820-a767-f36d03238556","system_id":"levelo_inurba_marseille","lat":43.33607,"lon":5.40953,"is_reserved":false,"is_disabled":false,"rental_uris":{"android":"levelo://app?vid=9d7d7a71-2b6e-4820-a767-f36d03238556","ios":"levelo://app?vid=9d7d7a71-2b6e-4820-a767-f36d03238556"},"vehicle_type_id":"4","last_reported":1734347320,"current_range_meters":38800,"station_id":"ce4bhqh2rcd13ifvqhmg","pricing_plan_id":"cebpf4jnsgd1na2vs0mg"},{"bike_id":"80daab7d-985d-42d0-9d3e-c8289e6cb057","system_id":"levelo_inurba_marseille","lat":43.2797,"lon":5.38759,"is_reserved":false,"is_disabled":false,"rental_uris":{"android":"levelo://app?vid=80daab7d-985d-42d0-9d3e-c8289e6cb057","ios":"levelo://app?vid=80daab7d-985d-42d0-9d3e-c8289e6cb057"},"vehicle_type_id":"4","last_reported":1734347320,"current_range_meters":28000,"station_id":"ce4bhg12rcd13ifvqf80","pricing_plan_id":"cebpf4jnsgd1na2vs0mg"},{"bike_id":"74e80a21-c471-4a17-bf5c-e35576de7d34","system_id":"levelo_inurba_marseille","lat":43.2397,"lon":5.36626,"is_reserved":false,"is_disabled":false,"rental_uris":{"android":"levelo://app?vid=74e80a21-c471-4a17-bf5c-e35576de7d34","ios":"levelo://app?vid=74e80a21-c471-4a17-bf5c-e35576de7d34"},"vehicle_type_id":"4","last_reported":1734347320,"current_range_meters":32000,"station_id":"ce4bhi12rcd13ifvqfp0","pricing_plan_id":"cebpf4jnsgd1na2vs0mg"},{"bike_id":"b103cdff-3824-4aad-bc10-26ceb128587a","system_id":"levelo_inurba_marseille","lat":43.32464,"lon":5.36565,"is_reserved":false,"is_disabled":false,"rental_uris":{"android":"levelo://app?vid=b103cdff-3824-4aad-bc10-26ceb128587a","ios":"levelo://app?vid=b103cdff-3824-4aad-bc10-26ceb128587a"},"vehicle_type_id":"4","last_reported":1734347320,"current_range_meters":30400,"station_id":"ce4bhs12rcd13ifvqhvg","pricing_plan_id":"cebpf4jnsgd1na2vs0mg"},{"bike_id":"90d989c0-fbae-4c2a-81b5-66e190656714","system_id":"levelo_inurba_marseille","lat":43.29227,"lon":5.3608,"is_reserved":false,"is_disabled":false,"rental_uris":{"android":"levelo://app?vid=90d989c0-fbae-4c2a-81b5-66e190656714","ios":"levelo://app?vid=90d989c0-fbae-4c2a-81b5-66e190656714"},"vehicle_type_id":"4","last_reported":1734347320,"current_range_meters":25200,"station_id":"ce4bhbh2rcd13ifvqeqg","pricing_plan_id":"cebpf4jnsgd1na2vs0mg"},{"bike_id":"628d28c7-0d11-4591-b5b9-3892136d0314","system_id":"levelo_inurba_marseille","lat":43.3095,"lon":5.39043,"is_reserved":false,"is_disabled":false,"rental_uris":{"android":"levelo://app?vid=628d28c7-0d11-4591-b5b9-3892136d0314","ios":"levelo://app?vid=628d28c7-0d11-4591-b5b9-3892136d0314"},"vehicle_type_id":"4","last_reported":1734347320,"current_range_meters":38000,"station_id":"ce4bgup2rcd13ifvqco0","pricing_plan_id":"cebpf4jnsgd1na2vs0mg"},{"bike_id":"aa07b8da-1e61-4a97-957f-50a051beda47","system_id":"levelo_inurba_marseille","lat":43.29302,"lon":5.37456,"is_reserved":false,"is_disabled":false,"rental_uris":{"android":"levelo://app?vid=aa07b8da-1e61-4a97-957f-50a051beda47","ios":"levelo://app?vid=aa07b8da-1e61-4a97-957f-50a051beda47"},"vehicle_type_id":"4","last_reported":1734347320,"current_range_meters":35600,"station_id":"ce4bgi12rcd13ifvqb70","pricing_plan_id":"cebpf4jnsgd1na2vs0mg"},{"bike_id":"38dbcc3c-bbfc-4d42-9d85-e6a8227728c5","system_id":"levelo_inurba_marseille","lat":43.337444,"lon":5.374475,"is_reserved":false,"is_disabled":false,"rental_uris":{"android":"levelo://app?vid=38dbcc3c-bbfc-4d42-9d85-e6a8227728c5","ios":"levelo://app?vid=38dbcc3c-bbfc-4d42-9d85-e6a8227728c5"},"vehicle_type_id":"4","last_reported":1734347320,"current_range_meters":25200,"station_id":"","pricing_plan_id":"cebpf4jnsgd1na2vs0mg"},{"bike_id":"85badd7d-0c70-4033-a7d7-e06bf65183ae","system_id":"levelo_inurba_marseille","lat":43.27966,"lon":5.38741,"is_reserved":false,"is_disabled":false,"rental_uris":{"android":"levelo://app?vid=85badd7d-0c70-4033-a7d7-e06bf65183ae","ios":"levelo://app?vid=85badd7d-0c70-4033-a7d7-e06bf65183ae"},"vehicle_type_id":"4","last_reported":1734347320,"current_range_meters":39200,"station_id":"ce4bhg12rcd13ifvqf80","pricing_plan_id":"cebpf4jnsgd1na2vs0mg"},{"bike_id":"1f8340fc-7e59-4259-a037-e998f1c8aac1","system_id":"levelo_inurba_marseille","lat":43.26939,"lon":5.38924,"is_reserved":false,"is_disabled":false,"rental_uris":{"android":"levelo://app?vid=1f8340fc-7e59-4259-a037-e998f1c8aac1","ios":"levelo://app?vid=1f8340fc-7e59-4259-a037-e998f1c8aac1"},"vehicle_type_id":"4","last_reported":1734347320,"current_range_meters":17600,"station_id":"ce4bhhh2rcd13ifvqfl0","pricing_plan_id":"cebpf4jnsgd1na2vs0mg"},{"bike_id":"7c39de29-6711-4f1f-b831-7db02f3083b4","system_id":"levelo_inurba_marseille","lat":43.28146,"lon":5.4265,"is_reserved":false,"is_disabled":false,"rental_uris":{"android":"levelo://app?vid=7c39de29-6711-4f1f-b831-7db02f3083b4","ios":"levelo://app?vid=7c39de29-6711-4f1f-b831-7db02f3083b4"},"vehicle_type_id":"4","last_reported":1734347320,"current_range_meters":16800,"station_id":"ce4bhnh2rcd13ifvqgug","pricing_plan_id":"cebpf4jnsgd1na2vs0mg"},{"bike_id":"0c27185e-b83a-43d2-89b8-697f1a569215","system_id":"levelo_inurba_marseille","lat":43.33609,"lon":5.41036,"is_reserved":false,"is_disabled":false,"rental_uris":{"android":"levelo://app?vid=0c27185e-b83a-43d2-89b8-697f1a569215","ios":"levelo://app?vid=0c27185e-b83a-43d2-89b8-697f1a569215"},"vehicle_type_id":"4","last_reported":1734347320,"current_range_meters":30000,"station_id":"ce4bhqh2rcd13ifvqhmg","pricing_plan_id":"cebpf4jnsgd1na2vs0mg"},{"bike_id":"e500e021-5cd7-4fa8-b172-c2276c26aaf4","system_id":"levelo_inurba_marseille","lat":43.29669,"lon":5.37289,"is_reserved":false,"is_disabled":false,"rental_uris":{"android":"levelo://app?vid=e500e021-5cd7-4fa8-b172-c2276c26aaf4","ios":"levelo://app?vid=e500e021-5cd7-4fa8-b172-c2276c26aaf4"},"vehicle_type_id":"4","last_reported":1734347320,"current_range_meters":35200,"station_id":"ce4bgk12rcd13ifvqbj0","pricing_plan_id":"cebpf4jnsgd1na2vs0mg"},{"bike_id":"bb3b068a-3841-45aa-a3ff-96022166fe96","system_id":"levelo_inurba_marseille","lat":43.28104,"lon":5.3772,"is_reserved":false,"is_disabled":false,"rental_uris":{"android":"levelo://app?vid=bb3b068a-3841-45aa-a3ff-96022166fe96","ios":"levelo://app?vid=bb3b068a-3841-45aa-a3ff-96022166fe96"},"vehicle_type_id":"4","last_reported":1734347320,"current_range_meters":27600,"station_id":"","pricing_plan_id":"cebpf4jnsgd1na2vs0mg"},{"bike_id":"0a162d1d-6fc8-4065-8327-a8ef918c4e33","system_id":"levelo_inurba_marseille","lat":43.29385,"lon":5.37858,"is_reserved":false,"is_disabled":false,"rental_uris":{"android":"levelo://app?vid=0a162d1d-6fc8-4065-8327-a8ef918c4e33","ios":"levelo://app?vid=0a162d1d-6fc8-4065-8327-a8ef918c4e33"},"vehicle_type_id":"4","last_reported":1734347320,"current_range_meters":36800,"station_id":"ce4bgjh2rcd13ifvqbf0","pricing_plan_id":"cebpf4jnsgd1na2vs0mg"},{"bike_id":"81685271-3813-4f1e-8c7c-b357a218fa38","system_id":"levelo_inurba_marseille","lat":43.28432,"lon":5.3849,"is_reserved":false,"is_disabled":false,"rental_uris":{"android":"levelo://app?vid=81685271-3813-4f1e-8c7c-b357a218fa38","ios":"levelo://app?vid=81685271-3813-4f1e-8c7c-b357a218fa38"},"vehicle_type_id":"4","last_reported":1734347320,"current_range_meters":10800,"station_id":"","pricing_plan_id":"cebpf4jnsgd1na2vs0mg"},{"bike_id":"6690d3cf-0f3a-4bfd-ad96-93d5fe6eb6e5","system_id":"levelo_inurba_marseille","lat":43.29005,"lon":5.35616,"is_reserved":false,"is_disabled":false,"rental_uris":{"android":"levelo://app?vid=6690d3cf-0f3a-4bfd-ad96-93d5fe6eb6e5","ios":"levelo://app?vid=6690d3cf-0f3a-4bfd-ad96-93d5fe6eb6e5"},"vehicle_type_id":"4","last_reported":1734347320,"current_range_meters":17200,"station_id":"ce4bhb92rcd13ifvqen0","pricing_plan_id":"cebpf4jnsgd1na2vs0mg"},{"bike_id":"253743f7-9aa5-4b03-8f64-a36cd1608afe","system_id":"levelo_inurba_marseille","lat":43.25931,"lon":5.40912,"is_reserved":false,"is_disabled":false,"rental_uris":{"android":"levelo://app?vid=253743f7-9aa5-4b03-8f64-a36cd1608afe","ios":"levelo://app?vid=253743f7-9aa5-4b03-8f64-a36cd1608afe"},"vehicle_type_id":"4","last_reported":1734347320,"current_range_meters":28000,"station_id":"ce4bhm92rcd13ifvqglg","pricing_plan_id":"cebpf4jnsgd1na2vs0mg"},{"bike_id":"731eeca2-72b0-4560-999d-6d53609e3ffd","system_id":"levelo_inurba_marseille","lat":43.28972,"lon":5.37835,"is_reserved":false,"is_disabled":false,"rental_uris":{"android":"levelo://app?vid=731eeca2-72b0-4560-999d-6d53609e3ffd","ios":"levelo://app?vid=731eeca2-72b0-4560-999d-6d53609e3ffd"},"vehicle_type_id":"4","last_reported":1734347320,"current_range_meters":8400,"station_id":"ce4bh9p2rcd13ifvqed0","pricing_plan_id":"cebpf4jnsgd1na2vs0mg"},{"bike_id":"d02e6728-48d3-404a-bcea-57c729fac63a","system_id":"levelo_inurba_marseille","lat":43.29571,"lon":5.37503,"is_reserved":false,"is_disabled":false,"rental_uris":{"android":"levelo://app?vid=d02e6728-48d3-404a-bcea-57c729fac63a","ios":"levelo://app?vid=d02e6728-48d3-404a-bcea-57c729fac63a"},"vehicle_type_id":"4","last_reported":1734347320,"current_range_meters":22000,"station_id":"ce4bgh92rcd13ifvqb50","pricing_plan_id":"cebpf4jnsgd1na2vs0mg"},{"bike_id":"0b2e241d-9ea2-48e9-bbd9-f84b5c193ddb","system_id":"levelo_inurba_marseille","lat":43.25711,"lon":5.41113,"is_reserved":false,"is_disabled":false,"rental_uris":{"android":"levelo://app?vid=0b2e241d-9ea2-48e9-bbd9-f84b5c193ddb","ios":"levelo://app?vid=0b2e241d-9ea2-48e9-bbd9-f84b5c193ddb"},"vehicle_type_id":"4","last_reported":1734347320,"current_range_meters":38800,"station_id":"ce4bhkp2rcd13ifvqgd0","pricing_plan_id":"cebpf4jnsgd1na2vs0mg"},{"bike_id":"c06d0ab6-faf6-4bd6-9ca7-c52e2ebf5f83","system_id":"levelo_inurba_marseille","lat":43.2901,"lon":5.35611,"is_reserved":false,"is_disabled":false,"rental_uris":{"android":"levelo://app?vid=c06d0ab6-faf6-4bd6-9ca7-c52e2ebf5f83","ios":"levelo://app?vid=c06d0ab6-faf6-4bd6-9ca7-c52e2ebf5f83"},"vehicle_type_id":"4","last_reported":1734347320,"current_range_meters":35600,"station_id":"ce4bhb92rcd13ifvqen0","pricing_plan_id":"cebpf4jnsgd1na2vs0mg"},{"bike_id":"ca3bf6a0-806c-4046-b219-bbea4c2ba646","system_id":"levelo_inurba_marseille","lat":43.23192,"lon":5.35543,"is_reserved":false,"is_disabled":false,"rental_uris":{"android":"levelo://app?vid=ca3bf6a0-806c-4046-b219-bbea4c2ba646","ios":"levelo://app?vid=ca3bf6a0-806c-4046-b219-bbea4c2ba646"},"vehicle_type_id":"4","last_reported":1734347320,"current_range_meters":39200,"station_id":"ce4bhu92rcd13ifvqi70","pricing_plan_id":"cebpf4jnsgd1na2vs0mg"},{"bike_id":"46b2fdec-0870-4ae2-84dc-b1f57512351e","system_id":"levelo_inurba_marseille","lat":43.337444,"lon":5.374475,"is_reserved":false,"is_disabled":true,"rental_uris":{"android":"levelo://app?vid=46b2fdec-0870-4ae2-84dc-b1f57512351e","ios":"levelo://app?vid=46b2fdec-0870-4ae2-84dc-b1f57512351e"},"vehicle_type_id":"4","last_reported":1734347320,"current_range_meters":0,"station_id":"","pricing_plan_id":"cebpf4jnsgd1na2vs0mg"},