{"last_updated":1741263524,"ttl":60,"version":"2.2","data":{"bikes":[{"bike_id":"23a74ba7-944b-47c5-899c-c5932fd50b50","system_id":"levelo_inurba_marseille","lat":43.292999,"lon":5.369114,"is_reserved":false,"is_disabled":true,"rental_uris":{"android":"levelo://app?vid=23a74ba7-944b-47c5-899c-c5932fd50b50","ios":"levelo://app?vid=23a74ba7-944b-47c5-899c-c5932fd50b50"},"vehicle_type_id":"4","last_reported":1741263525,"current_range_meters":0,"station_id":"","pricing_plan_id":"cebpf4jnsgd1na2vs0mg"},{"bike_id":"824749fb-c7cc-49ac-9e95-1f214964bc22","system_id":"levelo_inurba_marseille","lat":43.27453,"lon":5.36096,"is_reserved":false,"is_disabled":true,"rental_uris":{"android":"levelo://app?vid=824749fb-c7cc-49ac-9e95-1f214964bc22","ios":"levelo://app?vid=824749fb-c7cc-49ac-9e95-1f214964bc22"},"vehicle_type_id":"4","last_reported":1741263525,"current_range_meters":0,"station_id":"","pricing_plan_id":"cebpf4jnsgd1na2vs0mg"},{"bike_id":"e7ec1ac1-2323-47bd-a2b5-7cd3afb282cf","system_id":"levelo_inurba_marseille","lat":43.26927,"lon":5.36656,"is_reserved":false,"is_disabled":true,"rental_uris":{"android":"levelo://app?vid=e7ec1ac1-2323-47bd-a2b5-7cd3afb282cf","ios":"levelo://app?vid=e7ec1ac1-2323-47bd-a2b5-7cd3afb282cf"},"vehicle_type_id":"4","last_reported":1741263525,"current_range_meters":0,"station_id":"","pricing_plan_id":"cebpf4jnsgd1na2vs0mg"},{"bike_id":"5704e366-5abb-42fc-86da-c43ab43a4299","system_id":"levelo_inurba_marseille","lat":43.30157,"lon":5.38112,"is_reserved":false,"is_disabled":true,"rental_uris":{"android":"levelo://app?vid=5704e366-5abb-42fc-86da-c43ab43a4299","ios":"levelo://app?vid=5704e366-5abb-42fc-86da-c43ab43a4299"},"vehicle_type_id":"4","last_reported":1741263525,"current_range_meters":0,"station_id":"ce4bgjp2rcd13ifvqbh0","pricing_plan_id":"cebpf4jnsgd1na2vs0mg"},{"bike_id":"05ff902f-365f-4bea-bd86-47a41a1aafc9","system_id":"levelo_inurba_marseille","lat":43.28415,"lon":5.3751,"is_reserved":false,"is_disabled":true,"rental_uris":{"android":"levelo://app?vid=05ff902f-365f-4bea-bd86-47a41a1aafc9","ios":"levelo://app?vid=05ff902f-365f-4bea-bd86-47a41a1aafc9"},"vehicle_type_id":"4","last_reported":1741263525,"current_range_meters":0,"station_id":"ce4bh412rcd13ifvqds0","pricing_plan_id":"cebpf4jnsgd1na2vs0mg"},{"bike_id":"027371d0-220b-40f9-95d9-8ee65dc82076","system_id":"levelo_inurba_marseille","lat":43.28366,"lon":5.3865,"is_reserved":false,"is_disabled":true,"rental_uris":{"android":"levelo://app?vid=027371d0-220b-40f9-95d9-8ee65dc82076","ios":"levelo://app?vid=027371d0-220b-40f9-95d9-8ee65dc82076"},"vehicle_type_id":"4","last_reported":1741263525,"current_range_meters":0,"station_id":"ce4bh492rcd13ifvqdvg","pricing_plan_id":"cebpf4jnsgd1na2vs0mg"},{"bike_id":"a0fec549-b833-4298-b79b-902df5ddb633","system_id":"levelo_inurba_marseille","lat":43.26558,"lon":5.3729,"is_reserved":false,"is_disabled":true,"rental_uris":{"android":"levelo://app?vid=a0fec549-b833-4298-b79b-902df5ddb633","ios":"levelo://app?vid=a0fec549-b833-4298-b79b-902df5ddb633"},"vehicle_type_id":"4","last_reported":1741263525,"current_range_meters":0,"station_id":"ce4bhg12rcd13ifvqf70","pricing_plan_id":"cebpf4jnsgd1na2vs0mg"},{"bike_id":"d9ebd0af-0dfe-478f-b15f-3da235f63e17","system_id":"levelo_inurba_marseille","lat":43.27201,"lon":5.39189,"is_reserved":false,"is_disabled":true,"rental_uris":{"android":"levelo://app?vid=d9ebd0af-0dfe-478f-b15f-3da235f63e17","ios":"levelo://app?vid=d9ebd0af-0dfe-478f-b15f-3da235f63e17"},"vehicle_type_id":"4","last_reported":1741263525,"current_range_meters":0,"station_id":"ce4bhhp2rcd13ifvqfm0","pricing_plan_id":"cebpf4jnsgd1na2vs0mg"},{"bike_id":"46c6053f-815a-48df-be71-7809dbc0e2ab","system_id":"levelo_inurba_marseille","lat":43.25101,"lon":5.39506,"is_reserved":false,"is_disabled":true,"rental_uris":{"android":"levelo://app?vid=46c6053f-815a-48df-be71-7809dbc0e2ab","ios":"levelo://app?vid=46c6053f-815a-48df-be71-7809dbc0e2ab"},"vehicle_type_id":"4","last_reported":1741263525,"current_range_meters":0,"station_id":"ce4bhm12rcd13ifvqgkg","pricing_plan_id":"cebpf4jnsgd1na2vs0mg"},{"bike_id":"7eaed769-bbd5-42a9-931c-b50cbb52cc6f","system_id":"levelo_inurba_marseille","lat":43.278133,"lon":5.407133,"is_reserved":false,"is_disabled":true,"rental_uris":{"android":"levelo://app?vid=7eaed769-bbd5-42a9-931c-b50cbb52cc6f","ios":"levelo://app?vid=7eaed769-bbd5-42a9-931c-b50cbb52cc6f"},"vehicle_type_id":"4","last_reported":1741263525,"current_range_meters":400,"station_id":"ce4bhnh2rcd13ifvqgtg","pricing_plan_id":"cebpf4jnsgd1na2vs0mg"},{"bike_id":"cbd1c312-8c38-4419-b728-4b79e046d2b5","system_id":"levelo_inurba_marseille","lat":43.24079,"lon":5.37789,"is_reserved":false,"is_disabled":true,"rental_uris":{"android":"levelo://app?vid=cbd1c312-8c38-4419-b728-4b79e046d2b5","ios":"levelo://app?vid=cbd1c312-8c38-4419-b728-4b79e046d2b5"},"vehicle_type_id":"4","last_reported":1741263525,"current_range_meters":400,"station_id":"ce4bhnp2rcd13ifvqgvg","pricing_plan_id":"cebpf4jnsgd1na2vs0mg"},{"bike_id":"7c580198-d848-4468-9383-10d8c5eb9073","system_id":"levelo_inurba_marseille","lat":43.29614,"lon":5.37719,"is_reserved":false,"is_disabled":true,"rental_uris":{"android":"levelo://app?vid=7c580198-d848-4468-9383-10d8c5eb9073","ios":"levelo://app?vid=7c580198-d848-4468-9383-10d8c5eb9073"},"vehicle_type_id":"4","last_reported":1741263525,"current_range_meters":1200,"station_id":"ce4bgi92rcd13ifvqb90","pricing_plan_id":"cebpf4jnsgd1na2vs0mg"},{"bike_id":"8fe93df6-2fe6-41ee-aeb3-48d22ff05290","system_id":"levelo_inurba_marseille","lat":43.33951,"lon":5.37312,"is_reserved":false,"is_disabled":true,"rental_uris":{"android":"levelo://app?vid=8fe93df6-2fe6-41ee-aeb3-48d22ff05290","ios":"levelo://app?vid=8fe93df6-2fe6-41ee-aeb3-48d22ff05290"},"vehicle_type_id":"4","last_reported":1741263525,"current_range_meters":1600,"station_id":"","pricing_plan_id":"cebpf4jnsgd1na2vs0mg"},{"bike_id":"ee1d2ad1-36ca-49dd-a328-f2a9a9994ecb","system_id":"levelo_inurba_marseille","lat":43.31062,"lon":5.38127,"is_reserved":false,"is_disabled":true,"rental_uris":{"android":"levelo://app?vid=ee1d2ad1-36ca-49dd-a328-f2a9a9994ecb","ios":"levelo://app?vid=ee1d2ad1-36ca-49dd-a328-f2a9a9994ecb"},"vehicle_type_id":"4","last_reported":1741263525,"current_range_meters":2000,"station_id":"","pricing_plan_id":"cebpf4jnsgd1na2vs0mg"},{"bike_id":"0e1a3d02-10ed-4a77-9b61-c34b6a6b3855","system_id":"levelo_inurba_marseille","lat":43.29933,"lon":5.36547,"is_reserved":false,"is_disabled":true,"rental_uris":{"android":"levelo://app?vid=0e1a3d02-10ed-4a77-9b61-c34b6a6b3855","ios":"levelo://app?vid=0e1a3d02-10ed-4a77-9b61-c34b6a6b3855"},"vehicle_type_id":"4","last_reported":1741263525,"current_range_meters":2000,"station_id":"ce4bgm92rcd13ifvqbr0","pricing_plan_id":"cebpf4jnsgd1na2vs0mg"},{"bike_id":"949c7525-6c99-4873-99e4-3cc4741ac7cd","system_id":"levelo_inurba_marseille","lat":43.30497,"lon":5.3801,"is_reserved":false,"is_disabled":true,"rental_uris":{"android":"levelo://app?vid=949c7525-6c99-4873-99e4-3cc4741ac7cd","ios":"levelo://app?vid=949c7525-6c99-4873-99e4-3cc4741ac7cd"},"vehicle_type_id":"4","last_reported":1741263525,"current_range_meters":2000,"station_id":"ce4bgup2rcd13ifvqcn0","pricing_plan_id":"cebpf4jnsgd1na2vs0mg"},{"bike_id":"baabebe3-2d05-4801-83af-e8fe49cb8de6","system_id":"levelo_inurba_marseille","lat":43.31171,"lon":5.38713,"is_reserved":false,"is_disabled":true,"rental_uris":{"android":"levelo://app?vid=baabebe3-2d05-4801-83af-e8fe49cb8de6","ios":"levelo://app?vid=baabebe3-2d05-4801-83af-e8fe49cb8de6"},"vehicle_type_id":"4","last_reported":1741263525,"current_range_meters":2000,"station_id":"ce4bgv12rcd13ifvqcp0","pricing_plan_id":"cebpf4jnsgd1na2vs0mg"},{"bike_id":"9bc05f9c-77cc-4e1a-b282-102ed5e536ea","system_id":"levelo_inurba_marseille","lat":43.29043,"lon":5.39962,"is_reserved":false,"is_disabled":true,"rental_uris":{"android":"levelo://app?vid=9bc05f9c-77cc-4e1a-b282-102ed5e536ea","ios":"levelo://app?vid=9bc05f9c-77cc-4e1a-b282-102ed5e536ea"},"vehicle_type_id":"4","last_reported":1741263525,"current_range_meters":2000,"station_id":"ce4bh392rcd13ifvqdm0","pricing_plan_id":"cebpf4jnsgd1na2vs0mg"},{"bike_id":"2e50fc93-d412-4358-b859-1ef785a4d18a","system_id":"levelo_inurba_marseille","lat":43.29002,"lon":5.35603,"is_reserved":false,"is_disabled":false,"rental_uris":{"android":"levelo://app?vid=2e50fc93-d412-4358-b859-1ef785a4d18a","ios":"levelo://app?vid=2e50fc93-d412-4358-b859-1ef785a4d18a"},"vehicle_type_id":"4","last_reported":1741263525,"current_range_meters":2800,"station_id":"ce4bhb92rcd13ifvqen0","pricing_plan_id":"cebpf4jnsgd1na2vs0mg"},{"bike_id":"6d5c19bb-bfbf-43be-b5e9-ed3f4497cd4b","system_id":"levelo_inurba_marseille","lat":43.26556,"lon":5.37292,"is_reserved":false,"is_disabled":false,"rental_uris":{"android":"levelo://app?vid=6d5c19bb-bfbf-43be-b5e9-ed3f4497cd4b","ios":"levelo://app?vid=6d5c19bb-bfbf-43be-b5e9-ed3f4497cd4b"},"vehicle_type_id":"4","last_reported":1741263525,"current_range_meters":2800,"station_id":"ce4bhg12rcd13ifvqf70","pricing_plan_id":"cebpf4jnsgd1na2vs0mg"},{"bike_id":"ee249383-1d30-4331-bbc0-10579563c324","system_id":"levelo_inurba_marseille","lat":43.26212,"lon":5.37442,"is_reserved":false,"is_disabled":false,"rental_uris":{"android":"levelo://app?vid=ee249383-1d30-4331-bbc0-10579563c324","ios":"levelo://app?vid=ee249383-1d30-4331-bbc0-10579563c324"},"vehicle_type_id":"4","last_reported":1741263525,"current_range_meters":2800,"station_id":"ce4bhgp2rcd13ifvqfc0","pricing_plan_id":"cebpf4jnsgd1na2vs0mg"},{"bike_id":"8922fede-acd6-4c12-931e-04ace08e5651","system_id":"levelo_inurba_marseille","lat":43.26956,"lon":5.38633,"is_reserved":false,"is_disabled":false,"rental_uris":{"android":"levelo://app?vid=8922fede-acd6-4c12-931e-04ace08e5651","ios":"levelo://app?vid=8922fede-acd6-4c12-931e-04ace08e5651"},"vehicle_type_id":"4","last_reported":1741263525,"current_range_meters":2800,"station_id":"ce4bhh92rcd13ifvqfh0","pricing_plan_id":"cebpf4jnsgd1na2vs0mg"},{"bike_id":"4e9556c5-3112-4ff6-bab5-0a3625e8cba8","system_id":"levelo_inurba_marseille","lat":43.27178,"lon":5.40995,"is_reserved":false,"is_disabled":false,"rental_uris":{"android":"levelo://app?vid=4e9556c5-3112-4ff6-bab5-0a3625e8cba8","ios":"levelo://app?vid=4e9556c5-3112-4ff6-bab5-0a3625e8cba8"},"vehicle_type_id":"4","last_reported":1741263525,"current_range_meters":2800,"station_id":"ce4bhl12rcd13ifvqgf0","pricing_plan_id":"cebpf4jnsgd1na2vs0mg"},{"bike_id":"a0573c5f-87c3-4eb2-a3a0-c5b57721d5ba","system_id":"levelo_inurba_marseille","lat":43.30146,"lon":5.38082,"is_reserved":false,"is_disabled":false,"rental_uris":{"android":"levelo://app?vid=a0573c5f-87c3-4eb2-a3a0-c5b57721d5ba","ios":"levelo://app?vid=a0573c5f-87c3-4eb2-a3a0-c5b57721d5ba"},"vehicle_type_id":"4","last_reported":1741263525,"current_range_meters":3200,"station_id":"ce4bgjp2rcd13ifvqbh0","pricing_plan_id":"cebpf4jnsgd1na2vs0mg"},{"bike_id":"f33f3235-a628-4b4f-83e3-42fb590b6c83","system_id":"levelo_inurba_marseille","lat":43.240753,"lon":5.377675,"is_reserved":false,"is_disabled":false,"rental_uris":{"android":"levelo://app?vid=f33f3235-a628-4b4f-83e3-42fb590b6c83","ios":"levelo://app?vid=f33f3235-a628-4b4f-83e3-42fb590b6c83"},"vehicle_type_id":"4","last_reported":1741263525,"current_range_meters":3200,"station_id":"ce4bhgp2rcd13ifvqfd0","pricing_plan_id":"cebpf4jnsgd1na2vs0mg"},{"bike_id":"0d527e6d-8b2b-4b16-89ce-73f83b98e791","system_id":"levelo_inurba_marseille","lat":43.29591,"lon":5.36744,"is_reserved":false,"is_disabled":false,"rental_uris":{"android":"levelo://app?vid=0d527e6d-8b2b-4b16-89ce-73f83b98e791","ios":"levelo://app?vid=0d527e6d-8b2b-4b16-89ce-73f83b98e791"},"vehicle_type_id":"4","last_reported":1741263525,"current_range_meters":3600,"station_id":"ce4bgph2rcd13ifvqc2g","pricing_plan_id":"cebpf4jnsgd1na2vs0mg"},{"bike_id":"ad8db6b3-2c07-47ff-a3a6-3eb7c7f05bb8","system_id":"levelo_inurba_marseille","lat":43.28732,"lon":5.37949,"is_reserved":false,"is_disabled":false,"rental_uris":{"android":"levelo://app?vid=ad8db6b3-2c07-47ff-a3a6-3eb7c7f05bb8","ios":"levelo://app?vid=ad8db6b3-2c07-47ff-a3a6-3eb7c7f05bb8"},"vehicle_type_id":"4","last_reported":1741263525,"current_range_meters":3600,"station_id":"ce4bh9p2rcd13ifvqec0","pricing_plan_id":"cebpf4jnsgd1na2vs0mg"},{"bike_id":"4dc2ce7d-3364-431f-b4d5-28e142c2011d","system_id":"levelo_inurba_marseille","lat":43.27823,"lon":5.40715,"is_reserved":false,"is_disabled":false,"rental_uris":{"android":"levelo://app?vid=4dc2ce7d-3364-431f-b4d5-28e142c2011d","ios":"levelo://app?vid=4dc2ce7d-3364-431f-b4d5-28e142c2011d"},"vehicle_type_id":"4","last_reported":1741263525,"current_range_meters":3600,"station_id":"ce4bhnh2rcd13ifvqgtg","pricing_plan_id":"cebpf4jnsgd1na2vs0mg"},{"bike_id":"f6662bde-1632-4b0f-a966-f86b33b7c3b9","system_id":"levelo_inurba_marseille","lat":43.33746,"lon":5.3748,"is_reserved":false,"is_disabled":false,"rental_uris":{"android":"levelo://app?vid=f6662bde-1632-4b0f-a966-f86b33b7c3b9","ios":"levelo://app?vid=f6662bde-1632-4b0f-a966-f86b33b7c3b9"},"vehicle_type_id":"4","last_reported":1741263525,"current_range_meters":4000,"station_id":"","pricing_plan_id":"cebpf4jnsgd1na2vs0mg"},{"bike_id":"567b9058-68ac-470c-9e72-9e7498065a79","system_id":"levelo_inurba_marseille","lat":43.29779,"lon":5.37099,"is_reserved":false,"is_disabled":false,"rental_uris":{"android":"levelo://app?vid=567b9058-68ac-470c-9e72-9e7498065a79","ios":"levelo://app?vid=567b9058-68ac-470c-9e72-9e7498065a79"},"vehicle_type_id":"4","last_reported":1741263525,"current_range_meters":4000,"station_id":"ce4bgop2rcd13ifvqc1g","pricing_plan_id":"cebpf4jnsgd1na2vs0mg"},{"bike_id":"e90613c1-bb56-4fc8-bf4c-4f9b80a05107","system_id":"levelo_inurba_marseille","lat":43.2808,"lon":5.39657,"is_reserved":false,"is_disabled":false,"rental_uris":{"android":"levelo://app?vid=e90613c1-bb56-4fc8-bf4c-4f9b80a05107","ios":"levelo://app?vid=e90613c1-bb56-4fc8-bf4c-4f9b80a05107"},"vehicle_type_id":"4","last_reported":1741263525,"current_range_meters":4000,"station_id":"ce4bho12rcd13ifvqh2g","pricing_plan_id":"cebpf4jnsgd1na2vs0mg"},{"bike_id":"b7e8283c-adb7-4077-a051-5e40fa10aa82","system_id":"levelo_inurba_marseille","lat":43.30891,"lon":5.37185,"is_reserved":false,"is_disabled":false,"rental_uris":{"android":"levelo://app?vid=b7e8283c-adb7-4077-a051-5e40fa10aa82","ios":"levelo://app?vid=b7e8283c-adb7-4077-a051-5e40fa10aa82"},"vehicle_type_id":"4","last_reported":1741263525,"current_range_meters":4400,"station_id":"ce4bguh2rcd13ifvqckg","pricing_plan_id":"cebpf4jnsgd1na2vs0mg"},{"bike_id":"8b0ff8c2-1e4f-485b-b3bd-f1cdd8b5c4ae","system_id":"levelo_inurba_marseille","lat":43.24546,"lon":5.39521,"is_reserved":false,"is_disabled":false,"rental_uris":{"android":"levelo://app?vid=8b0ff8c2-1e4f-485b-b3bd-f1cdd8b5c4ae","ios":"levelo://app?vid=8b0ff8c2-1e4f-485b-b3bd-f1cdd8b5c4ae"},"vehicle_type_id":"4","last_reported":1741263525,"current_range_meters":4400,"station_id":"ce4bhlp2rcd13ifvqgjg","pricing_plan_id":"cebpf4jnsgd1na2vs0mg"},{"bike_id":"a7119c20-3b5a-4ca3-92a1-1d05274b3b79","system_id":"levelo_inurba_marseille","lat":43.29024,"lon":5.38123,"is_reserved":false,"is_disabled":false,"rental_uris":{"android":"levelo://app?vid=a7119c20-3b5a-4ca3-92a1-1d05274b3b79","ios":"levelo://app?vid=a7119c20-3b5a-4ca3-92a1-1d05274b3b79"},"vehicle_type_id":"4","last_reported":1741263525,"current_range_meters":4800,"station_id":"ce4bh4p2rcd13ifvqe1g","pricing_plan_id":"cebpf4jnsgd1na2vs0mg"},{"bike_id":"28382da8-4b5f-47a5-bb15-eb28126d61fe","system_id":"levelo_inurba_marseille","lat":43.27424,"lon":5.39417,"is_reserved":false,"is_disabled":false,"rental_uris":{"android":"levelo://app?vid=28382da8-4b5f-47a5-bb15-eb28126d61fe","ios":"levelo://app?vid=28382da8-4b5f-47a5-bb15-eb28126d61fe"},"vehicle_type_id":"4","last_reported":1741263525,"current_range_meters":4800,"station_id":"ce4bhdp2rcd13ifvqf20","pricing_plan_id":"cebpf4jnsgd1na2vs0mg"},{"bike_id":"bc28d2af-5623-42ae-bdef-43ec4e1bde8c","system_id":"levelo_inurba_marseille","lat":43.3053,"lon":5.36533,"is_reserved":false,"is_disabled":false,"rental_uris":{"android":"levelo://app?vid=bc28d2af-5623-42ae-bdef-43ec4e1bde8c","ios":"levelo://app?vid=bc28d2af-5623-42ae-bdef-43ec4e1bde8c"},"vehicle_type_id":"4","last_reported":1741263525,"current_range_meters":5600,"station_id":"ce4bgs12rcd13ifvqcag","pricing_plan_id":"cebpf4jnsgd1na2vs0mg"},{"bike_id":"18f7e75b-8ebf-44ba-9482-ca40982e5a28","system_id":"levelo_inurba_marseille","lat":43.30887,"lon":5.37189,"is_reserved":false,"is_disabled":false,"rental_uris":{"android":"levelo://app?vid=18f7e75b-8ebf-44ba-9482-ca40982e5a28","ios":"levelo://app?vid=18f7e75b-8ebf-44ba-9482-ca40982e5a28"},"vehicle_type_id":"4","last_reported":1741263525,"current_range_meters":5600,"station_id":"ce4bguh2rcd13ifvqckg","pricing_plan_id":"cebpf4jnsgd1na2vs0mg"},{"bike_id":"16b8371a-aeaa-4e34-9d99-296cd7fa89a3","system_id":"levelo_inurba_marseille","lat":43.30463,"lon":5.37913,"is_reserved":false,"is_disabled":false,"rental_uris":{"android":"levelo://app?vid=16b8371a-aeaa-4e34-9d99-296cd7fa89a3","ios":"levelo://app?vid=16b8371a-aeaa-4e34-9d99-296cd7fa89a3"},"vehicle_type_id":"4","last_reported":1741263525,"current_range_meters":5600,"station_id":"ce4bgup2rcd13ifvqcn0","pricing_plan_id":"cebpf4jnsgd1na2vs0mg"},{"bike_id":"f498184e-a601-4eab-ab59-e63c007a4219","system_id":"levelo_inurba_marseille","lat":43.26678,"lon":5.38263,"is_reserved":false,"is_disabled":false,"rental_uris":{"android":"levelo://app?vid=f498184e-a601-4eab-ab59-e63c007a4219","ios":"levelo://app?vid=f498184e-a601-4eab-ab59-e63c007a4219"},"vehicle_type_id":"4","last_reported":1741263525,"current_range_meters":5600,"station_id":"ce4bhg92rcd13ifvqf90","pricing_plan_id":"cebpf4jnsgd1na2vs0mg"},{"bike_id":"6ea067ad-0927-492e-ad44-171812dd1748","system_id":"levelo_inurba_marseille","lat":43.26228,"lon":5.40461,"is_reserved":false,"is_disabled":false,"rental_uris":{"android":"levelo://app?vid=6ea067ad-0927-492e-ad44-171812dd1748","ios":"levelo://app?vid=6ea067ad-0927-492e-ad44-171812dd1748"},"vehicle_type_id":"4","last_reported":1741263525,"current_range_meters":5600,"station_id":"ce4bhmh2rcd13ifvqgmg","pricing_plan_id":"cebpf4jnsgd1na2vs0mg"},{"bike_id":"86a1dcff-0dd3-4fbe-8b1c-5c02e1dfc407","system_id":"levelo_inurba_marseille","lat":43.29904,"lon":5.38147,"is_reserved":false,"is_disabled":false,"rental_uris":{"android":"levelo://app?vid=86a1dcff-0dd3-4fbe-8b1c-5c02e1dfc407","ios":"levelo://app?vid=86a1dcff-0dd3-4fbe-8b1c-5c02e1dfc407"},"vehicle_type_id":"4","last_reported":1741263525,"current_range_meters":6000,"station_id":"ce4bgj12rcd13ifvqbc0","pricing_plan_id":"cebpf4jnsgd1na2vs0mg"},{"bike_id":"9cf4424a-d652-4e52-8386-b9160d81072b","system_id":"levelo_inurba_marseille","lat":43.30297,"lon":5.36896,"is_reserved":false,"is_disabled":false,"rental_uris":{"android":"levelo://app?vid=9cf4424a-d652-4e52-8386-b9160d81072b","ios":"levelo://app?vid=9cf4424a-d652-4e52-8386-b9160d81072b"},"vehicle_type_id":"4","last_reported":1741263525,"current_range_meters":6000,"station_id":"ce4bgqh2rcd13ifvqc5g","pricing_plan_id":"cebpf4jnsgd1na2vs0mg"},{"bike_id":"6604f2dd-3b7a-479b-aa26-92d505818703","system_id":"levelo_inurba_marseille","lat":43.275701,"lon":5.384415,"is_reserved":false,"is_disabled":false,"rental_uris":{"android":"levelo://app?vid=6604f2dd-3b7a-479b-aa26-92d505818703","ios":"levelo://app?vid=6604f2dd-3b7a-479b-aa26-92d505818703"},"vehicle_type_id":"4","last_reported":1741263525,"current_range_meters":6000,"station_id":"ce4bh392rcd13ifvqdm0","pricing_plan_id":"cebpf4jnsgd1na2vs0mg"},{"bike_id":"fd778e17-4470-46a4-b219-9e15131e6041","system_id":"levelo_inurba_marseille","lat":43.2846,"lon":5.35888,"is_reserved":false,"is_disabled":false,"rental_uris":{"android":"levelo://app?vid=fd778e17-4470-46a4-b219-9e15131e6041","ios":"levelo://app?vid=fd778e17-4470-46a4-b219-9e15131e6041"},"vehicle_type_id":"4","last_reported":1741263525,"current_range_meters":6000,"station_id":"ce4bhah2rcd13ifvqei0","pricing_plan_id":"cebpf4jnsgd1na2vs0mg"},{"bike_id":"9993451f-799b-406b-a3da-253f53ed57ce","system_id":"levelo_inurba_marseille","lat":43.24653,"lon":5.38895,"is_reserved":false,"is_disabled":false,"rental_uris":{"android":"levelo://app?vid=9993451f-799b-406b-a3da-253f53ed57ce","ios":"levelo://app?vid=9993451f-799b-406b-a3da-253f53ed57ce"},"vehicle_type_id":"4","last_reported":1741263525,"current_range_meters":6000,"station_id":"ce4bhg12rcd13ifvqf60","pricing_plan_id":"cebpf4jnsgd1na2vs0mg"},{"bike_id":"7872a017-bcf6-4f1b-8b30-7922da2f3220","system_id":"levelo_inurba_marseille","lat":43.26559,"lon":5.3728,"is_reserved":false,"is_disabled":false,"rental_uris":{"android":"levelo://app?vid=7872a017-bcf6-4f1b-8b30-7922da2f3220","ios":"levelo://app?vid=7872a017-bcf6-4f1b-8b30-7922da2f3220"},"vehicle_type_id":"4","last_reported":1741263525,"current_range_meters":6000,"station_id":"ce4bhg12rcd13ifvqf70","pricing_plan_id":"cebpf4jnsgd1na2vs0mg"},{"bike_id":"6737e83a-4f10-4ad9-8432-0dc51e92066e","system_id":"levelo_inurba_marseille","lat":43.26056,"lon":5.39395,"is_reserved":false,"is_disabled":false,"rental_uris":{"android":"levelo://app?vid=6737e83a-4f10-4ad9-8432-0dc51e92066e","ios":"levelo://app?vid=6737e83a-4f10-4ad9-8432-0dc51e92066e"},"vehicle_type_id":"4","last_reported":1741263525,"current_range_meters":6000,"station_id":"ce4bhh92rcd13ifvqfj0","pricing_plan_id":"cebpf4jnsgd1na2vs0mg"},{"bike_id":"8f5fab38-6ebb-4ece-9439-5a8f4d759662","system_id":"levelo_inurba_marseille","lat":43.26063,"lon":5.39385,"is_reserved":false,"is_disabled":false,"rental_uris":{"android":"levelo://app?vid=8f5fab38-6ebb-4ece-9439-5a8f4d759662","ios":"levelo://app?vid=8f5fab38-6ebb-4ece-9439-5a8f4d759662"},"vehicle_type_id":"4","last_reported":1741263525,"current_range_meters":6000,"station_id":"ce4bhh92rcd13ifvqfj0","pricing_plan_id":"cebpf4jnsgd1na2vs0mg"},{"bike_id":"3439a580-4b13-4596-bc3a-9d40342307f1","system_id":"levelo_inurba_marseille","lat":43.32102,"lon":5.36771,"is_reserved":false,"is_disabled":false,"rental_uris":{"android":"levelo://app?vid=3439a580-4b13-4596-bc3a-9d40342307f1","ios":"levelo://app?vid=3439a580-4b13-4596-bc3a-9d40342307f1"},"vehicle_type_id":"4","last_reported":1741263525,"current_range_meters":6000,"station_id":"ce4bhrh2rcd13ifvqhug","pricing_plan_id":"cebpf4jnsgd1na2vs0mg"},{"bike_id":"4ffbde8a-41dc-4f53-95be-d85324e7130e","system_id":"levelo_inurba_marseille","lat":43.28348,"lon":5.38101,"is_reserved":false,"is_disabled":false,"rental_uris":{"android":"levelo://app?vid=4ffbde8a-41dc-4f53-95be-d85324e7130e","ios":"levelo://app?vid=4ffbde8a-41dc-4f53-95be-d85324e7130e"},"vehicle_type_id":"4","last_reported":1741263525,"current_range_meters":6400,"station_id":"ce4bh412rcd13ifvqdr0","pricing_plan_id":"cebpf4jnsgd1na2vs0mg"},{"bike_id":"180feed1-2a2d-4fa5-858d-85328e409b5e","system_id":"levelo_inurba_marseille","lat":43.26554,"lon":5.37283,"is_reserved":false,"is_disabled":false,"rental_uris":{"android":"levelo://app?vid=180feed1-2a2d-4fa5-858d-85328e409b5e","ios":"levelo://app?vid=180feed1-2a2d-4fa5-858d-85328e409b5e"},"vehicle_type_id":"4","last_reported":1741263525,"current_range_meters":6400,"station_id":"ce4bhg12rcd13ifvqf70","pricing_plan_id":"cebpf4jnsgd1na2vs0mg"},{"bike_id":"cef07ff0-ab80-4dd6-90ba-ce15a9e6bbf0","system_id":"levelo_inurba_marseille","lat":43.26697,"lon":5.3827,"is_reserved":false,"is_disabled":false,"rental_uris":{"android":"levelo://app?vid=cef07ff0-ab80-4dd6-90ba-ce15a9e6bbf0","ios":"levelo://app?vid=cef07ff0-ab80-4dd6-90ba-ce15a9e6bbf0"},"vehicle_type_id":"4","last_reported":1741263525,"current_range_meters":6400,"station_id":"ce4bhg92rcd13ifvqf90","pricing_plan_id":"cebpf4jnsgd1na2vs0mg"},{"bike_id":"1c0978b7-e0b0-4c04-8863-236630968acd","system_id":"levelo_inurba_marseille","lat":43.25938,"lon":5.4088,"is_reserved":false,"is_disabled":false,"rental_uris":{"android":"levelo://app?vid=1c0978b7-e0b0-4c04-8863-236630968acd","ios":"levelo://app?vid=1c0978b7-e0b0-4c04-8863-236630968acd"},"vehicle_type_id":"4","last_reported":1741263525,"current_range_meters":6400,"station_id":"ce4bhm92rcd13ifvqglg","pricing_plan_id":"cebpf4jnsgd1na2vs0mg"},{"bike_id":"2842f455-85a7-4819-90e9-b1689c3ff050","system_id":"levelo_inurba_marseille","lat":43.29193,"lon":5.3932,"is_reserved":false,"is_disabled":false,"rental_uris":{"android":"levelo://app?vid=2842f455-85a7-4819-90e9-b1689c3ff050","ios":"levelo://app?vid=2842f455-85a7-4819-90e9-b1689c3ff050"},"vehicle_type_id":"4","last_reported":1741263525,"current_range_meters":6800,"station_id":"ce4bh192rcd13ifvqdd0","pricing_plan_id":"cebpf4jnsgd1na2vs0mg"},{"bike_id":"6ca7c200-3288-48a4-85fd-1b80608abd19","system_id":"levelo_inurba_marseille","lat":43.29033,"lon":5.38645,"is_reserved":false,"is_disabled":false,"rental_uris":{"android":"levelo://app?vid=6ca7c200-3288-48a4-85fd-1b80608abd19","ios":"levelo://app?vid=6ca7c200-3288-48a4-85fd-1b80608abd19"},"vehicle_type_id":"4","last_reported":1741263525,"current_range_meters":6800,"station_id":"ce4bh4p2rcd13ifvqe0g","pricing_plan_id":"cebpf4jnsgd1na2vs0mg"},{"bike_id":"e9993293-cb22-4b58-9104-8ef93003d618","system_id":"levelo_inurba_marseille","lat":43.26687,"lon":5.38274,"is_reserved":false,"is_disabled":false,"rental_uris":{"android":"levelo://app?vid=e9993293-cb22-4b58-9104-8ef93003d618","ios":"levelo://app?vid=e9993293-cb22-4b58-9104-8ef93003d618"},"vehicle_type_id":"4","last_reported":1741263525,"current_range_meters":6800,"station_id":"ce4bhg92rcd13ifvqf90","pricing_plan_id":"cebpf4jnsgd1na2vs0mg"},{"bike_id":"e59fccdd-f60b-4fcf-8101-4a747bffb1c1","system_id":"levelo_inurba_marseille","lat":43.24409,"lon":5.37073,"is_reserved":false,"is_disabled":false,"rental_uris":{"android":"levelo://app?vid=e59fccdd-f60b-4fcf-8101-4a747bffb1c1","ios":"levelo://app?vid=e59fccdd-f60b-4fcf-8101-4a747bffb1c1"},"vehicle_type_id":"4","last_reported":1741263525,"current_range_meters":6800,"station_id":"ce4bhhh2rcd13ifvqfk0","pricing_plan_id":"cebpf4jnsgd1na2vs0mg"},{"bike_id":"a508c450-2471-4823-b989-5917711248cb","system_id":"levelo_inurba_marseille","lat":43.27054,"lon":5.40293,"is_reserved":false,"is_disabled":false,"rental_uris":{"android":"levelo://app?vid=a508c450-2471-4823-b989-5917711248cb","ios":"levelo://app?vid=a508c450-2471-4823-b989-5917711248cb"},"vehicle_type_id":"4","last_reported":1741263525,"current_range_meters":6800,"station_id":"ce4bhk92rcd13ifvqgc0","pricing_plan_id":"cebpf4jnsgd1na2vs0mg"},{"bike_id":"e2569765-caec-41d2-8998-7ba6a3e3d231","system_id":"levelo_inurba_marseille","lat":43.30459,"lon":5.37902,"is_reserved":false,"is_disabled":false,"rental_uris":{"android":"levelo://app?vid=e2569765-caec-41d2-8998-7ba6a3e3d231","ios":"levelo://app?vid=e2569765-caec-41d2-8998-7ba6a3e3d231"},"vehicle_type_id":"4","last_reported":1741263525,"current_range_meters":7200,"station_id":"ce4bgup2rcd13ifvqcn0","pricing_plan_id":"cebpf4jnsgd1na2vs0mg"},{"bike_id":"50889442-ecf2-46e2-8e4a-e34a59688303","system_id":"levelo_inurba_marseille","lat":43.30458,"lon":5.37901,"is_reserved":false,"is_disabled":false,"rental_uris":{"android":"levelo://app?vid=50889442-ecf2-46e2-8e4a-e34a59688303","ios":"levelo://app?vid=50889442-ecf2-46e2-8e4a-e34a59688303"},"vehicle_type_id":"4","last_reported":1741263525,"current_range_meters":7200,"station_id":"ce4bgup2rcd13ifvqcn0","pricing_plan_id":"cebpf4jnsgd1na2vs0mg"},{"bike_id":"35a712eb-9cf9-4857-82b6-203be50d696f","system_id":"levelo_inurba_marseille","lat":43.30422,"lon":5.3975,"is_reserved":false,"is_disabled":false,"rental_uris":{"android":"levelo://app?vid=35a712eb-9cf9-4857-82b6-203be50d696f","ios":"levelo://app?vid=35a712eb-9cf9-4857-82b6-203be50d696f"},"vehicle_type_id":"4","last_reported":1741263525,"current_range_meters":7200,"station_id":"ce4bh092rcd13ifvqd20","pricing_plan_id":"cebpf4jnsgd1na2vs0mg"},{"bike_id":"7a9136d8-ff26-492a-bfc3-14d6b4036cce","system_id":"levelo_inurba_marseille","lat":43.27174,"lon":5.40981,"is_reserved":false,"is_disabled":false,"rental_uris":{"android":"levelo://app?vid=7a9136d8-ff26-492a-bfc3-14d6b4036cce","ios":"levelo://app?vid=7a9136d8-ff26-492a-bfc3-14d6b4036cce"},"vehicle_type_id":"4","last_reported":1741263525,"current_range_meters":7200,"station_id":"ce4bhl12rcd13ifvqgf0","pricing_plan_id":"cebpf4jnsgd1na2vs0mg"},{"bike_id":"41009a11-f407-4721-9738-3126316056fb","system_id":"levelo_inurba_marseille","lat":43.28701,"lon":5.39966,"is_reserved":false,"is_disabled":false,"rental_uris":{"android":"levelo://app?vid=41009a11-f407-4721-9738-3126316056fb","ios":"levelo://app?vid=41009a11-f407-4721-9738-3126316056fb"},"vehicle_type_id":"4","last_reported":1741263525,"current_range_meters":7200,"station_id":"ce4bho92rcd13ifvqh3g","pricing_plan_id":"cebpf4jnsgd1na2vs0mg"},{"bike_id":"660eacbe-6c20-4bc4-9faf-66c089a93f75","system_id":"levelo_inurba_marseille","lat":43.30421,"lon":5.41296,"is_reserved":false,"is_disabled":false,"rental_uris":{"android":"levelo://app?vid=660eacbe-6c20-4bc4-9faf-66c089a93f75","ios":"levelo://app?vid=660eacbe-6c20-4bc4-9faf-66c089a93f75"},"vehicle_type_id":"4","last_reported":1741263525,"current_range_meters":7200,"station_id":"ce4bhop2rcd13ifvqh8g","pricing_plan_id":"cebpf4jnsgd1na2vs0mg"},{"bike_id":"5f1f0d42-4c40-401d-a0fa-316540dad072","system_id":"levelo_inurba_marseille","lat":43.2988,"lon":5.39737,"is_reserved":false,"is_disabled":false,"rental_uris":{"android":"levelo://app?vid=5f1f0d42-4c40-401d-a0fa-316540dad072","ios":"levelo://app?vid=5f1f0d42-4c40-401d-a0fa-316540dad072"},"vehicle_type_id":"4","last_reported":1741263525,"current_range_meters":8000,"station_id":"ce4bh0h2rcd13ifvqd50","pricing_plan_id":"cebpf4jnsgd1na2vs0mg"},{"bike_id":"36a158c5-f198-4610-b052-499e58f6c9b0","system_id":"levelo_inurba_marseille","lat":43.29258,"lon":5.38447,"is_reserved":false,"is_disabled":false,"rental_uris":{"android":"levelo://app?vid=36a158c5-f198-4610-b052-499e58f6c9b0","ios":"levelo://app?vid=36a158c5-f198-4610-b052-499e58f6c9b0"},"vehicle_type_id":"4","last_reported":1741263525,"current_range_meters":8000,"station_id":"ce4bh692rcd13ifvqea0","pricing_plan_id":"cebpf4jnsgd1na2vs0mg"},{"bike_id":"4aac5def-5e30-434d-8cfc-f028745f8060","system_id":"levelo_inurba_marseille","lat":43.27811,"lon":5.40713,"is_reserved":false,"is_disabled":false,"rental_uris":{"android":"levelo://app?vid=4aac5def-5e30-434d-8cfc-f028745f8060","ios":"levelo://app?vid=4aac5def-5e30-434d-8cfc-f028745f8060"},"vehicle_type_id":"4","last_reported":1741263525,"current_range_meters":8000,"station_id":"ce4bhnh2rcd13ifvqgtg","pricing_plan_id":"cebpf4jnsgd1na2vs0mg"},{"bike_id":"14ec57cb-179b-4206-812f-fe514bf8347a","system_id":"levelo_inurba_marseille","lat":43.3123,"lon":5.36848,"is_reserved":false,"is_disabled":false,"rental_uris":{"android":"levelo://app?vid=14ec57cb-179b-4206-812f-fe514bf8347a","ios":"levelo://app?vid=14ec57cb-179b-4206-812f-fe514bf8347a"},"vehicle_type_id":"4","last_reported":1741263525,"current_range_meters":8400,"station_id":"ce4bgl92rcd13ifvqbq0","pricing_plan_id":"cebpf4jnsgd1na2vs0mg"},{"bike_id":"531c4f2f-c25c-48a7-8282-54a9fd5ffedb","system_id":"levelo_inurba_marseille","lat":43.29855,"lon":5.36288,"is_reserved":false,"is_disabled":false,"rental_uris":{"android":"levelo://app?vid=531c4f2f-c25c-48a7-8282-54a9fd5ffedb","ios":"levelo://app?vid=531c4f2f-c25c-48a7-8282-54a9fd5ffedb"},"vehicle_type_id":"4","last_reported":1741263525,"current_range_meters":8400,"station_id":"ce4bgpp2rcd13ifvqc3g","pricing_plan_id":"cebpf4jnsgd1na2vs0mg"},{"bike_id":"8fe86694-0b48-4da9-bc41-3c6c40b7a0b8","system_id":"levelo_inurba_marseille","lat":43.29277,"lon":5.40116,"is_reserved":false,"is_disabled":false,"rental_uris":{"android":"levelo://app?vid=8fe86694-0b48-4da9-bc41-3c6c40b7a0b8","ios":"levelo://app?vid=8fe86694-0b48-4da9-bc41-3c6c40b7a0b8"},"vehicle_type_id":"4","last_reported":1741263525,"current_range_meters":8400,"station_id":"ce4bh312rcd13ifvqdk0","pricing_plan_id":"cebpf4jnsgd1na2vs0mg"},{"bike_id":"c9a72daa-8029-482e-bec6-404683715f9f","system_id":"levelo_inurba_marseille","lat":43.28602,"lon":5.35138,"is_reserved":false,"is_disabled":false,"rental_uris":{"android":"levelo://app?vid=c9a72daa-8029-482e-bec6-404683715f9f","ios":"levelo://app?vid=c9a72daa-8029-482e-bec6-404683715f9f"},"vehicle_type_id":"4","last_reported":1741263525,"current_range_meters":8400,"station_id":"ce4bhch2rcd13ifvqeug","pricing_plan_id":"cebpf4jnsgd1na2vs0mg"},{"bike_id":"6cce3e8a-29c0-43e3-a624-bac5637dfa48","system_id":"levelo_inurba_marseille","lat":43.24073,"lon":5.37757,"is_reserved":false,"is_disabled":false,"rental_uris":{"android":"levelo://app?vid=6cce3e8a-29c0-43e3-a624-bac5637dfa48","ios":"levelo://app?vid=6cce3e8a-29c0-43e3-a624-bac5637dfa48"},"vehicle_type_id":"4","last_reported":1741263525,"current_range_meters":8400,"station_id":"ce4bhnp2rcd13ifvqgvg","pricing_plan_id":"cebpf4jnsgd1na2vs0mg"},{"bike_id":"87cc2b62-b442-4215-a043-611256d11643","system_id":"levelo_inurba_marseille","lat":43.31089,"lon":5.4243,"is_reserved":false,"is_disabled":false,"rental_uris":{"android":"levelo://app?vid=87cc2b62-b442-4215-a043-611256d11643","ios":"levelo://app?vid=87cc2b62-b442-4215-a043-611256d11643"},"vehicle_type_id":"4","last_reported":1741263525,"current_range_meters":8400,"station_id":"ce4bhp92rcd13ifvqhag","pricing_plan_id":"cebpf4jnsgd1na2vs0mg"},{"bike_id":"ab466b65-6d85-4654-a871-f6bd7c96dbda","system_id":"levelo_inurba_marseille","lat":43.30137,"lon":5.38778,"is_reserved":false,"is_disabled":false,"rental_uris":{"android":"levelo://app?vid=ab466b65-6d85-4654-a871-f6bd7c96dbda","ios":"levelo://app?vid=ab466b65-6d85-4654-a871-f6bd7c96dbda"},"vehicle_type_id":"4","last_reported":1741263525,"current_range_meters":8800,"station_id":"ce4bghh2rcd13ifvqb60","pricing_plan_id":"cebpf4jnsgd1na2vs0mg"},{"bike_id":"a8ef096b-11aa-4e63-89f0-aabc9a9c086b","system_id":"levelo_inurba_marseille","lat":43.29918,"lon":5.37479,"is_reserved":false,"is_disabled":false,"rental_uris":{"android":"levelo://app?vid=a8ef096b-11aa-4e63-89f0-aabc9a9c086b","ios":"levelo://app?vid=a8ef096b-11aa-4e63-89f0-aabc9a9c086b"},"vehicle_type_id":"4","last_reported":1741263525,"current_range_meters":8800,"station_id":"ce4bgjh2rcd13ifvqbg0","pricing_plan_id":"cebpf4jnsgd1na2vs0mg"},{"bike_id":"fe3947e8-6450-40a9-afcc-485bd04ab6ff","system_id":"levelo_inurba_marseille","lat":43.30276,"lon":5.37704,"is_reserved":false,"is_disabled":false,"rental_uris":{"android":"levelo://app?vid=fe3947e8-6450-40a9-afcc-485bd04ab6ff","ios":"levelo://app?vid=fe3947e8-6450-40a9-afcc-485bd04ab6ff"},"vehicle_type_id":"4","last_reported":1741263525,"current_range_meters":8800,"station_id":"ce4bguh2rcd13ifvqcj0","pricing_plan_id":"cebpf4jnsgd1na2vs0mg"},{"bike_id":"ef7c261b-be67-4a32-ba5e-14c5af3a1ecf","system_id":"levelo_inurba_marseille","lat":43.294128,"lon":5.386201,"is_reserved":false,"is_disabled":false,"rental_uris":{"android":"levelo://app?vid=ef7c261b-be67-4a32-ba5e-14c5af3a1ecf","ios":"levelo://app?vid=ef7c261b-be67-4a32-ba5e-14c5af3a1ecf"},"vehicle_type_id":"4","last_reported":1741263525,"current_range_meters":8800,"station_id":"ce4bh0h2rcd13ifvqd50","pricing_plan_id":"cebpf4jnsgd1na2vs0mg"},{"bike_id":"f9354a4c-391d-4b54-8832-f5ba0c4c05cf","system_id":"levelo_inurba_marseille","lat":43.28458,"lon":5.35892,"is_reserved":false,"is_disabled":false,"rental_uris":{"android":"levelo://app?vid=f9354a4c-391d-4b54-8832-f5ba0c4c05cf","ios":"levelo://app?vid=f9354a4c-391d-4b54-8832-f5ba0c4c05cf"},"vehicle_type_id":"4","last_reported":1741263525,"current_range_meters":8800,"station_id":"ce4bhah2rcd13ifvqei0","pricing_plan_id":"cebpf4jnsgd1na2vs0mg"},{"bike_id":"ac5edf20-7073-4c82-ac7d-6938212dd5e2","system_id":"levelo_inurba_marseille","lat":43.29197,"lon":5.35795,"is_reserved":false,"is_disabled":false,"rental_uris":{"android":"levelo://app?vid=ac5edf20-7073-4c82-ac7d-6938212dd5e2","ios":"levelo://app?vid=ac5edf20-7073-4c82-ac7d-6938212dd5e2"},"vehicle_type_id":"4","last_reported":1741263525,"current_range_meters":8800,"station_id":"ce4bhb12rcd13ifvqel0","pricing_plan_id":"cebpf4jnsgd1na2vs0mg"},{"bike_id":"4745ff99-6e02-48bd-bb85-324b653b0068","system_id":"levelo_inurba_marseille","lat":43.2621,"lon":5.37441,"is_reserved":false,"is_disabled":false,"rental_uris":{"android":"levelo://app?vid=4745ff99-6e02-48bd-bb85-324b653b0068","ios":"levelo://app?vid=4745ff99-6e02-48bd-bb85-324b653b0068"},"vehicle_type_id":"4","last_reported":1741263525,"current_range_meters":8800,"station_id":"ce4bhgp2rcd13ifvqfc0","pricing_plan_id":"cebpf4jnsgd1na2vs0mg"},{"bike_id":"9ed60a22-42b3-4e9d-bf75-676adf1f82a5","system_id":"levelo_inurba_marseille","lat":43.24079,"lon":5.37753,"is_reserved":false,"is_disabled":false,"rental_uris":{"android":"levelo://app?vid=9ed60a22-42b3-4e9d-bf75-676adf1f82a5","ios":"levelo://app?vid=9ed60a22-42b3-4e9d-bf75-676adf1f82a5"},"vehicle_type_id":"4","last_reported":1741263525,"current_range_meters":8800,"station_id":"ce4bhnp2rcd13ifvqgvg","pricing_plan_id":"cebpf4jnsgd1na2vs0mg"},{"bike_id":"86723d49-325c-4da0-97b3-2b48647b3a72","system_id":"levelo_inurba_marseille","lat":43.29954,"lon":5.41304,"is_reserved":false,"is_disabled":false,"rental_uris":{"android":"levelo://app?vid=86723d49-325c-4da0-97b3-2b48647b3a72","ios":"levelo://app?vid=86723d49-325c-4da0-97b3-2b48647b3a72"},"vehicle_type_id":"4","last_reported":1741263525,"current_range_meters":8800,"station_id":"ce4bhp12rcd13ifvqh9g","pricing_plan_id":"cebpf4jnsgd1na2vs0mg"},{"bike_id":"fdde8103-1f2a-4455-bcfa-e1d74ecb0194","system_id":"levelo_inurba_marseille","lat":43.278105,"lon":5.407085,"is_reserved":false,"is_disabled":false,"rental_uris":{"android":"levelo://app?vid=fdde8103-1f2a-4455-bcfa-e1d74ecb0194","ios":"levelo://app?vid=fdde8103-1f2a-4455-bcfa-e1d74ecb0194"},"vehicle_type_id":"4","last_reported":1741263525,"current_range_meters":9200,"station_id":"ce4bhnh2rcd13ifvqgtg","pricing_plan_id":"cebpf4jnsgd1na2vs0mg"},{"bike_id":"7be10eac-e616-4904-8cdc-c543b04d589f","system_id":"levelo_inurba_marseille","lat":43.24178,"lon":5.36398,"is_reserved":false,"is_disabled":false,"rental_uris":{"android":"levelo://app?vid=7be10eac-e616-4904-8cdc-c543b04d589f","ios":"levelo://app?vid=7be10eac-e616-4904-8cdc-c543b04d589f"},"vehicle_type_id":"4","last_reported":1741263525,"current_range_meters":9200,"station_id":"cpo36qri1sfpv3e86is0","pricing_plan_id":"cebpf4jnsgd1na2vs0mg"},{"bike_id":"48dc980c-606d-485d-abfb-87c1406649b7","system_id":"levelo_inurba_marseille","lat":43.30136,"lon":5.37422,"is_reserved":false,"is_disabled":false,"rental_uris":{"android":"levelo://app?vid=48dc980c-606d-485d-abfb-87c1406649b7","ios":"levelo://app?vid=48dc980c-606d-485d-abfb-87c1406649b7"},"vehicle_type_id":"4","last_reported":1741263525,"current_range_meters":9600,"station_id":"ce4bgs92rcd13ifvqcc0","pricing_plan_id":"cebpf4jnsgd1na2vs0mg"},{"bike_id":"e0c0bec3-454a-410d-a60f-3aed516ec149","system_id":"levelo_inurba_marseille","lat":43.232,"lon":5.35549,"is_reserved":false,"is_disabled":false,"rental_uris":{"android":"levelo://app?vid=e0c0bec3-454a-410d-a60f-3aed516ec149","ios":"levelo://app?vid=e0c0bec3-454a-410d-a60f-3aed516ec149"},"vehicle_type_id":"4","last_reported":1741263525,"current_range_meters":9600,"station_id":"ce4bhu92rcd13ifvqi70","pricing_plan_id":"cebpf4jnsgd1na2vs0mg"},{"bike_id":"64b11715-3168-4728-a7f0-1a0087b7924a","system_id":"levelo_inurba_marseille","lat":43.30134,"lon":5.38781,"is_reserved":false,"is_disabled":false,"rental_uris":{"android":"levelo://app?vid=64b11715-3168-4728-a7f0-1a0087b7924a","ios":"levelo://app?vid=64b11715-3168-4728-a7f0-1a0087b7924a"},"vehicle_type_id":"4","last_reported":1741263525,"current_range_meters":10000,"station_id":"ce4bghh2rcd13ifvqb60","pricing_plan_id":"cebpf4jnsgd1na2vs0mg"},{"bike_id":"c73740cd-c6d7-4fd4-9ef4-71dcda844117","system_id":"levelo_inurba_marseille","lat":43.31264,"lon":5.36895,"is_reserved":false,"is_disabled":false,"rental_uris":{"android":"levelo://app?vid=c73740cd-c6d7-4fd4-9ef4-71dcda844117","ios":"levelo://app?vid=c73740cd-c6d7-4fd4-9ef4-71dcda844117"},"vehicle_type_id":"4","last_reported":1741263525,"current_range_meters":10000,"station_id":"ce4bgl92rcd13ifvqbq0","pricing_plan_id":"cebpf4jnsgd1na2vs0mg"},{"bike_id":"a2fbdcf6-77a1-4841-8fec-76308a413998","system_id":"levelo_inurba_marseille","lat":43.28352,"lon":5.38097,"is_reserved":false,"is_disabled":false,"rental_uris":{"android":"levelo://app?vid=a2fbdcf6-77a1-4841-8fec-76308a413998","ios":"levelo://app?vid=a2fbdcf6-77a1-4841-8fec-76308a413998"},"vehicle_type_id":"4","last_reported":1741263525,"current_range_meters":10000,"station_id":"ce4bh412rcd13ifvqdr0","pricing_plan_id":"cebpf4jnsgd1na2vs0mg"},{"bike_id":"12dc18f6-3070-4c2f-97de-94cc94625f11","system_id":"levelo_inurba_marseille","lat":43.2669,"lon":5.38275,"is_reserved":false,"is_disabled":false,"rental_uris":{"android":"levelo://app?vid=12dc18f6-3070-4c2f-97de-94cc94625f11","ios":"levelo://app?vid=12dc18f6-3070-4c2f-97de-94cc94625f11"},"vehicle_type_id":"4","last_reported":1741263525,"current_range_meters":10000,"station_id":"ce4bhg92rcd13ifvqf90","pricing_plan_id":"cebpf4jnsgd1na2vs0mg"},{"bike_id":"d042490b-89be-4965-8498-025836790f65","system_id":"levelo_inurba_marseille","lat":43.25912,"lon":5.40855,"is_reserved":false,"is_disabled":false,"rental_uris":{"android":"levelo://app?vid=d042490b-89be-4965-8498-025836790f65","ios":"levelo://app?vid=d042490b-89be-4965-8498-025836790f65"},"vehicle_type_id":"4","last_reported":1741263525,"current_range_meters":10000,"station_id":"ce4bhm92rcd13ifvqglg","pricing_plan_id":"cebpf4jnsgd1na2vs0mg"},{"bike_id":"9208d63c-369f-4c4e-a7fc-9ad972621275","system_id":"levelo_inurba_marseille","lat":43.25926,"lon":5.40896,"is_reserved":false,"is_disabled":false,"rental_uris":{"android":"levelo://app?vid=9208d63c-369f-4c4e-a7fc-9ad972621275","ios":"levelo://app?vid=9208d63c-369f-4c4e-a7fc-9ad972621275"},"vehicle_type_id":"4","last_reported":1741263525,"current_range_meters":10000,"station_id":"ce4bhm92rcd13ifvqglg","pricing_plan_id":"cebpf4jnsgd1na2vs0mg"},{"bike_id":"7f1905bf-da4d-4f13-af14-c5d46804e585","system_id":"levelo_inurba_marseille","lat":43.23187,"lon":5.3555,"is_reserved":false,"is_disabled":false,"rental_uris":{"android":"levelo://app?vid=7f1905bf-da4d-4f13-af14-c5d46804e585","ios":"levelo://app?vid=7f1905bf-da4d-4f13-af14-c5d46804e585"},"vehicle_type_id":"4","last_reported":1741263525,"current_range_meters":10000,"station_id":"ce4bhu92rcd13ifvqi70","pricing_plan_id":"cebpf4jnsgd1na2vs0mg"},{"bike_id":"a98b9375-ec16-482d-8e59-36960a15c89b","system_id":"levelo_inurba_marseille","lat":43.26026,"lon":5.41741,"is_reserved":false,"is_disabled":false,"rental_uris":{"android":"levelo://app?vid=a98b9375-ec16-482d-8e59-36960a15c89b","ios":"levelo://app?vid=a98b9375-ec16-482d-8e59-36960a15c89b"},"vehicle_type_id":"4","last_reported":1741263525,"current_range_meters":10800,"station_id":"","pricing_plan_id":"cebpf4jnsgd1na2vs0mg"},{"bike_id":"c738f12d-e3a3-49a2-90a6-56758e105a91","system_id":"levelo_inurba_marseille","lat":43.29872,"lon":5.39731,"is_reserved":false,"is_disabled":false,"rental_uris":{"android":"levelo://app?vid=c738f12d-e3a3-49a2-90a6-56758e105a91","ios":"levelo://app?vid=c738f12d-e3a3-49a2-90a6-56758e105a91"},"vehicle_type_id":"4","last_reported":1741263525,"current_range_meters":10800,"station_id":"ce4bh0h2rcd13ifvqd50","pricing_plan_id":"cebpf4jnsgd1na2vs0mg"},{"bike_id":"765c4830-1044-43e7-b868-0fad0b40fd91","system_id":"levelo_inurba_marseille","lat":43.30598,"lon":5.39354,"is_reserved":false,"is_disabled":false,"rental_uris":{"android":"levelo://app?vid=765c4830-1044-43e7-b868-0fad0b40fd91","ios":"levelo://app?vid=765c4830-1044-43e7-b868-0fad0b40fd91"},"vehicle_type_id":"4","last_reported":1741263525,"current_range_meters":10800,"station_id":"ce4bh0p2rcd13ifvqd80","pricing_plan_id":"cebpf4jnsgd1na2vs0mg"},{"bike_id":"180f641a-294f-45bc-84c1-3537e0df9c53","system_id":"levelo_inurba_marseille","lat":43.28944,"lon":5.36407,"is_reserved":false,"is_disabled":false,"rental_uris":{"android":"levelo://app?vid=180f641a-294f-45bc-84c1-3537e0df9c53","ios":"levelo://app?vid=180f641a-294f-45bc-84c1-3537e0df9c53"},"vehicle_type_id":"4","last_reported":1741263525,"current_range_meters":10800,"station_id":"ce4bhc92rcd13ifvqetg","pricing_plan_id":"cebpf4jnsgd1na2vs0mg"},{"bike_id":"63815b6e-f9bf-4ae0-9cc4-53a2a981b401","system_id":"levelo_inurba_marseille","lat":43.26814,"lon":5.40259,"is_reserved":false,"is_disabled":false,"rental_uris":{"android":"levelo://app?vid=63815b6e-f9bf-4ae0-9cc4-53a2a981b401","ios":"levelo://app?vid=63815b6e-f9bf-4ae0-9cc4-53a2a981b401"},"vehicle_type_id":"4","last_reported":1741263525,"current_range_meters":10800,"station_id":"ce501612rcd8frsf0b60","pricing_plan_id":"cebpf4jnsgd1na2vs0mg"},{"bike_id":"4b494c34-91a4-4833-8163-e2901a7f1b21","system_id":"levelo_inurba_marseille","lat":43.23064,"lon":5.35493,"is_reserved":false,"is_disabled":false,"rental_uris":{"android":"levelo://app?vid=4b494c34-91a4-4833-8163-e2901a7f1b21","ios":"levelo://app?vid=4b494c34-91a4-4833-8163-e2901a7f1b21"},"vehicle_type_id":"4","last_reported":1741263525,"current_range_meters":10800,"station_id":"cpo3342slgdg3j2ifvpg","pricing_plan_id":"cebpf4jnsgd1na2vs0mg"},{"bike_id":"0fcbae41-e8e1-459b-82d9-fba0778b0a8e","system_id":"levelo_inurba_marseille","lat":43.29916,"lon":5.37472,"is_reserved":false,"is_disabled":false,"rental_uris":{"android":"levelo://app?vid=0fcbae41-e8e1-459b-82d9-fba0778b0a8e","ios":"levelo://app?vid=0fcbae41-e8e1-459b-82d9-fba0778b0a8e"},"vehicle_type_id":"4","last_reported":1741263525,"current_range_meters":11200,"station_id":"ce4bgjh2rcd13ifvqbg0","pricing_plan_id":"cebpf4jnsgd1na2vs0mg"},{"bike_id":"8a54855e-208e-43ea-81f5-e668dc9855b3","system_id":"levelo_inurba_marseille","lat":43.30593,"lon":5.39357,"is_reserved":false,"is_disabled":false,"rental_uris":{"android":"levelo://app?vid=8a54855e-208e-43ea-81f5-e668dc9855b3","ios":"levelo://app?vid=8a54855e-208e-43ea-81f5-e668dc9855b3"},"vehicle_type_id":"4","last_reported":1741263525,"current_range_meters":11200,"station_id":"ce4bh0p2rcd13ifvqd80","pricing_plan_id":"cebpf4jnsgd1na2vs0mg"},{"bike_id":"3c56fc5d-72e7-450e-b1f5-678a392195a8","system_id":"levelo_inurba_marseille","lat":43.26786,"lon":5.39416,"is_reserved":false,"is_disabled":false,"rental_uris":{"android":"levelo://app?vid=3c56fc5d-72e7-450e-b1f5-678a392195a8","ios":"levelo://app?vid=3c56fc5d-72e7-450e-b1f5-678a392195a8"},"vehicle_type_id":"4","last_reported":1741263525,"current_range_meters":11200,"station_id":"ce4bhh12rcd13ifvqfg0","pricing_plan_id":"cebpf4jnsgd1na2vs0mg"},{"bike_id":"9a34ab41-8851-4891-81c5-2d8be79eea49","system_id":"levelo_inurba_marseille","lat":43.31709,"lon":5.37787,"is_reserved":false,"is_disabled":false,"rental_uris":{"android":"levelo://app?vid=9a34ab41-8851-4891-81c5-2d8be79eea49","ios":"levelo://app?vid=9a34ab41-8851-4891-81c5-2d8be79eea49"},"vehicle_type_id":"4","last_reported":1741263525,"current_range_meters":11600,"station_id":"ce4bgth2rcd13ifvqch0","pricing_plan_id":"cebpf4jnsgd1na2vs0mg"},{"bike_id":"3503b4af-2db6-47c1-876e-f82db3bfc75b","system_id":"levelo_inurba_marseille","lat":43.30599,"lon":5.39362,"is_reserved":false,"is_disabled":false,"rental_uris":{"android":"levelo://app?vid=3503b4af-2db6-47c1-876e-f82db3bfc75b","ios":"levelo://app?vid=3503b4af-2db6-47c1-876e-f82db3bfc75b"},"vehicle_type_id":"4","last_reported":1741263525,"current_range_meters":11600,"station_id":"ce4bh0p2rcd13ifvqd80","pricing_plan_id":"cebpf4jnsgd1na2vs0mg"},{"bike_id":"d1d029e7-bcdb-4420-b746-4e705c539d58","system_id":"levelo_inurba_marseille","lat":43.29283,"lon":5.40121,"is_reserved":false,"is_disabled":false,"rental_uris":{"android":"levelo://app?vid=d1d029e7-bcdb-4420-b746-4e705c539d58","ios":"levelo://app?vid=d1d029e7-bcdb-4420-b746-4e705c539d58"},"vehicle_type_id":"4","last_reported":1741263525,"current_range_meters":11600,"station_id":"ce4bh312rcd13ifvqdk0","pricing_plan_id":"cebpf4jnsgd1na2vs0mg"},{"bike_id":"42d9e620-b281-4cb9-8a16-42c2483c8306","system_id":"levelo_inurba_marseille","lat":43.28727,"lon":5.37928,"is_reserved":false,"is_disabled":false,"rental_uris":{"android":"levelo://app?vid=42d9e620-b281-4cb9-8a16-42c2483c8306","ios":"levelo://app?vid=42d9e620-b281-4cb9-8a16-42c2483c8306"},"vehicle_type_id":"4","last_reported":1741263525,"current_range_meters":11600,"station_id":"ce4bh9p2rcd13ifvqec0","pricing_plan_id":"cebpf4jnsgd1na2vs0mg"},{"bike_id":"0b78a1c6-e131-4e72-bb89-0edc713420c0","system_id":"levelo_inurba_marseille","lat":43.2862,"lon":5.351,"is_reserved":false,"is_disabled":false,"rental_uris":{"android":"levelo://app?vid=0b78a1c6-e131-4e72-bb89-0edc713420c0","ios":"levelo://app?vid=0b78a1c6-e131-4e72-bb89-0edc713420c0"},"vehicle_type_id":"4","last_reported":1741263525,"current_range_meters":11600,"station_id":"ce4bhch2rcd13ifvqeug","pricing_plan_id":"cebpf4jnsgd1na2vs0mg"},{"bike_id":"74ef305b-8c9c-452f-bc4a-15f57e847ae0","system_id":"levelo_inurba_marseille","lat":43.25698,"lon":5.41113,"is_reserved":false,"is_disabled":false,"rental_uris":{"android":"levelo://app?vid=74ef305b-8c9c-452f-bc4a-15f57e847ae0","ios":"levelo://app?vid=74ef305b-8c9c-452f-bc4a-15f57e847ae0"},"vehicle_type_id":"4","last_reported":1741263525,"current_range_meters":11600,"station_id":"ce4bhkp2rcd13ifvqgd0","pricing_plan_id":"cebpf4jnsgd1na2vs0mg"},{"bike_id":"100936cd-7ffa-448c-93cf-3a5f1181e449","system_id":"levelo_inurba_marseille","lat":43.30152,"lon":5.38094,"is_reserved":false,"is_disabled":false,"rental_uris":{"android":"levelo://app?vid=100936cd-7ffa-448c-93cf-3a5f1181e449","ios":"levelo://app?vid=100936cd-7ffa-448c-93cf-3a5f1181e449"},"vehicle_type_id":"4","last_reported":1741263525,"current_range_meters":12000,"station_id":"ce4bgjp2rcd13ifvqbh0","pricing_plan_id":"cebpf4jnsgd1na2vs0mg"},{"bike_id":"1cab5911-320e-47c6-846a-0ed39f9b5007","system_id":"levelo_inurba_marseille","lat":43.30602,"lon":5.37227,"is_reserved":false,"is_disabled":false,"rental_uris":{"android":"levelo://app?vid=1cab5911-320e-47c6-846a-0ed39f9b5007","ios":"levelo://app?vid=1cab5911-320e-47c6-846a-0ed39f9b5007"},"vehicle_type_id":"4","last_reported":1741263525,"current_range_meters":12000,"station_id":"ce4bgqh2rcd13ifvqc4g","pricing_plan_id":"cebpf4jnsgd1na2vs0mg"},{"bike_id":"fb17b47e-3c41-4002-8ae3-c72bd0a49aa8","system_id":"levelo_inurba_marseille","lat":43.3047,"lon":5.37902,"is_reserved":false,"is_disabled":false,"rental_uris":{"android":"levelo://app?vid=fb17b47e-3c41-4002-8ae3-c72bd0a49aa8","ios":"levelo://app?vid=fb17b47e-3c41-4002-8ae3-c72bd0a49aa8"},"vehicle_type_id":"4","last_reported":1741263525,"current_range_meters":12000,"station_id":"ce4bgup2rcd13ifvqcn0","pricing_plan_id":"cebpf4jnsgd1na2vs0mg"},{"bike_id":"3693a45f-635c-40aa-837c-78193efa5497","system_id":"levelo_inurba_marseille","lat":43.29636,"lon":5.40595,"is_reserved":false,"is_disabled":false,"rental_uris":{"android":"levelo://app?vid=3693a45f-635c-40aa-837c-78193efa5497","ios":"levelo://app?vid=3693a45f-635c-40aa-837c-78193efa5497"},"vehicle_type_id":"4","last_reported":1741263525,"current_range_meters":12000,"station_id":"ce4bh0h2rcd13ifvqd60","pricing_plan_id":"cebpf4jnsgd1na2vs0mg"},{"bike_id":"7b62ddfa-571e-4020-8f0b-b30d65f47137","system_id":"levelo_inurba_marseille","lat":43.29257,"lon":5.38439,"is_reserved":false,"is_disabled":false,"rental_uris":{"android":"levelo://app?vid=7b62ddfa-571e-4020-8f0b-b30d65f47137","ios":"levelo://app?vid=7b62ddfa-571e-4020-8f0b-b30d65f47137"},"vehicle_type_id":"4","last_reported":1741263525,"current_range_meters":12000,"station_id":"ce4bh692rcd13ifvqea0","pricing_plan_id":"cebpf4jnsgd1na2vs0mg"},{"bike_id":"7afe2208-4ef8-4289-97ed-ed009246dbd8","system_id":"levelo_inurba_marseille","lat":43.28489,"lon":5.38532,"is_reserved":false,"is_disabled":false,"rental_uris":{"android":"levelo://app?vid=7afe2208-4ef8-4289-97ed-ed009246dbd8","ios":"levelo://app?vid=7afe2208-4ef8-4289-97ed-ed009246dbd8"},"vehicle_type_id":"4","last_reported":1741263525,"current_range_meters":12000,"station_id":"ce4bh8p2rcd13ifvqeb0","pricing_plan_id":"cebpf4jnsgd1na2vs0mg"},{"bike_id":"d4ee418a-5787-4891-b6e4-8b68d7f86935","system_id":"levelo_inurba_marseille","lat":43.26928,"lon":5.38921,"is_reserved":false,"is_disabled":false,"rental_uris":{"android":"levelo://app?vid=d4ee418a-5787-4891-b6e4-8b68d7f86935","ios":"levelo://app?vid=d4ee418a-5787-4891-b6e4-8b68d7f86935"},"vehicle_type_id":"4","last_reported":1741263525,"current_range_meters":12000,"station_id":"ce4bhhh2rcd13ifvqfl0","pricing_plan_id":"cebpf4jnsgd1na2vs0mg"},{"bike_id":"f927a9c8-5d84-472f-b8fd-88f2fc3bc3e6","system_id":"levelo_inurba_marseille","lat":43.299,"lon":5.43646,"is_reserved":false,"is_disabled":false,"rental_uris":{"android":"levelo://app?vid=f927a9c8-5d84-472f-b8fd-88f2fc3bc3e6","ios":"levelo://app?vid=f927a9c8-5d84-472f-b8fd-88f2fc3bc3e6"},"vehicle_type_id":"4","last_reported":1741263525,"current_range_meters":12000,"station_id":"ce4bhpp2rcd13ifvqhfg","pricing_plan_id":"cebpf4jnsgd1na2vs0mg"},{"bike_id":"76ccea9c-0963-4678-bd6c-2ee15628fca7","system_id":"levelo_inurba_marseille","lat":43.30563,"lon":5.36682,"is_reserved":false,"is_disabled":false,"rental_uris":{"android":"levelo://app?vid=76ccea9c-0963-4678-bd6c-2ee15628fca7","ios":"levelo://app?vid=76ccea9c-0963-4678-bd6c-2ee15628fca7"},"vehicle_type_id":"4","last_reported":1741263525,"current_range_meters":12400,"station_id":"ce4bgrp2rcd13ifvqc9g","pricing_plan_id":"cebpf4jnsgd1na2vs0mg"},{"bike_id":"e9ea0b14-f81c-40e0-9aad-18b138d7f8c8","system_id":"levelo_inurba_marseille","lat":43.30133,"lon":5.3741,"is_reserved":false,"is_disabled":false,"rental_uris":{"android":"levelo://app?vid=e9ea0b14-f81c-40e0-9aad-18b138d7f8c8","ios":"levelo://app?vid=e9ea0b14-f81c-40e0-9aad-18b138d7f8c8"},"vehicle_type_id":"4","last_reported":1741263525,"current_range_meters":12400,"station_id":"ce4bgs92rcd13ifvqcc0","pricing_plan_id":"cebpf4jnsgd1na2vs0mg"},{"bike_id":"64e62cd7-6360-4df6-ac6e-27f63035d0d2","system_id":"levelo_inurba_marseille","lat":43.29063,"lon":5.37147,"is_reserved":false,"is_disabled":false,"rental_uris":{"android":"levelo://app?vid=64e62cd7-6360-4df6-ac6e-27f63035d0d2","ios":"levelo://app?vid=64e62cd7-6360-4df6-ac6e-27f63035d0d2"},"vehicle_type_id":"4","last_reported":1741263525,"current_range_meters":12400,"station_id":"ce4bh5p2rcd13ifvqe4g","pricing_plan_id":"cebpf4jnsgd1na2vs0mg"},{"bike_id":"7e7fd081-3d48-4431-844a-08253d85c786","system_id":"levelo_inurba_marseille","lat":43.25724,"lon":5.41108,"is_reserved":false,"is_disabled":false,"rental_uris":{"android":"levelo://app?vid=7e7fd081-3d48-4431-844a-08253d85c786","ios":"levelo://app?vid=7e7fd081-3d48-4431-844a-08253d85c786"},"vehicle_type_id":"4","last_reported":1741263525,"current_range_meters":12400,"station_id":"ce4bhkp2rcd13ifvqgd0","pricing_plan_id":"cebpf4jnsgd1na2vs0mg"},{"bike_id":"7d90bab6-8eaa-45bf-b411-a730181c17b7","system_id":"levelo_inurba_marseille","lat":43.2315,"lon":5.43727,"is_reserved":false,"is_disabled":false,"rental_uris":{"android":"levelo://app?vid=7d90bab6-8eaa-45bf-b411-a730181c17b7","ios":"levelo://app?vid=7d90bab6-8eaa-45bf-b411-a730181c17b7"},"vehicle_type_id":"4","last_reported":1741263525,"current_range_meters":12800,"station_id":"ce4bhmp2rcd13ifvqgog","pricing_plan_id":"cebpf4jnsgd1na2vs0mg"},{"bike_id":"1fc243be-bea2-4a16-8d12-2a02b5aa2ca1","system_id":"levelo_inurba_marseille","lat":43.30296,"lon":5.39215,"is_reserved":false,"is_disabled":false,"rental_uris":{"android":"levelo://app?vid=1fc243be-bea2-4a16-8d12-2a02b5aa2ca1","ios":"levelo://app?vid=1fc243be-bea2-4a16-8d12-2a02b5aa2ca1"},"vehicle_type_id":"4","last_reported":1741263525,"current_range_meters":13600,"station_id":"ce4bgkh2rcd13ifvqbk0","pricing_plan_id":"cebpf4jnsgd1na2vs0mg"},{"bike_id":"5e52bdf0-ccb2-4e8e-ab97-d68d4edb3097","system_id":"levelo_inurba_marseille","lat":43.26556,"lon":5.37283,"is_reserved":false,"is_disabled":false,"rental_uris":{"android":"levelo://app?vid=5e52bdf0-ccb2-4e8e-ab97-d68d4edb3097","ios":"levelo://app?vid=5e52bdf0-ccb2-4e8e-ab97-d68d4edb3097"},"vehicle_type_id":"4","last_reported":1741263525,"current_range_meters":13600,"station_id":"ce4bhg12rcd13ifvqf70","pricing_plan_id":"cebpf4jnsgd1na2vs0mg"},{"bike_id":"a679de37-cfa6-48a9-a23f-faa92e7c7221","system_id":"levelo_inurba_marseille","lat":43.27572,"lon":5.3842,"is_reserved":false,"is_disabled":false,"rental_uris":{"android":"levelo://app?vid=a679de37-cfa6-48a9-a23f-faa92e7c7221","ios":"levelo://app?vid=a679de37-cfa6-48a9-a23f-faa92e7c7221"},"vehicle_type_id":"4","last_reported":1741263525,"current_range_meters":13600,"station_id":"ce4bhh92rcd13ifvqfi0","pricing_plan_id":"cebpf4jnsgd1na2vs0mg"},{"bike_id":"ff07e600-78e5-4934-a970-5ca3d0f97cc6","system_id":"levelo_inurba_marseille","lat":43.23143,"lon":5.45929,"is_reserved":false,"is_disabled":false,"rental_uris":{"android":"levelo://app?vid=ff07e600-78e5-4934-a970-5ca3d0f97cc6","ios":"levelo://app?vid=ff07e600-78e5-4934-a970-5ca3d0f97cc6"},"vehicle_type_id":"4","last_reported":1741263525,"current_range_meters":13600,"station_id":"ce4bhmp2rcd13ifvqgog","pricing_plan_id":"cebpf4jnsgd1na2vs0mg"},{"bike_id":"0fd15513-1c3e-443d-8fc1-867495994c6c","system_id":"levelo_inurba_marseille","lat":43.29959,"lon":5.41307,"is_reserved":false,"is_disabled":false,"rental_uris":{"android":"levelo://app?vid=0fd15513-1c3e-443d-8fc1-867495994c6c","ios":"levelo://app?vid=0fd15513-1c3e-443d-8fc1-867495994c6c"},"vehicle_type_id":"4","last_reported":1741263525,"current_range_meters":13600,"station_id":"ce4bhp12rcd13ifvqh9g","pricing_plan_id":"cebpf4jnsgd1na2vs0mg"},{"bike_id":"e8a6738b-4571-49ad-83e1-c01f24f727d5","system_id":"levelo_inurba_marseille","lat":43.28271,"lon":5.35061,"is_reserved":false,"is_disabled":false,"rental_uris":{"android":"levelo://app?vid=e8a6738b-4571-49ad-83e1-c01f24f727d5","ios":"levelo://app?vid=e8a6738b-4571-49ad-83e1-c01f24f727d5"},"vehicle_type_id":"4","last_reported":1741263525,"current_range_meters":14000,"station_id":"ce4bhbp2rcd13ifvqerg","pricing_plan_id":"cebpf4jnsgd1na2vs0mg"},{"bike_id":"405e1412-4655-4207-ad90-c60963c146ed","system_id":"levelo_inurba_marseille","lat":43.27568,"lon":5.38413,"is_reserved":false,"is_disabled":false,"rental_uris":{"android":"levelo://app?vid=405e1412-4655-4207-ad90-c60963c146ed","ios":"levelo://app?vid=405e1412-4655-4207-ad90-c60963c146ed"},"vehicle_type_id":"4","last_reported":1741263525,"current_range_meters":14000,"station_id":"ce4bhh92rcd13ifvqfi0","pricing_plan_id":"cebpf4jnsgd1na2vs0mg"},{"bike_id":"b3a680ff-1a78-477c-8b2a-0da532ff5b23","system_id":"levelo_inurba_marseille","lat":43.24072,"lon":5.37763,"is_reserved":false,"is_disabled":false,"rental_uris":{"android":"levelo://app?vid=b3a680ff-1a78-477c-8b2a-0da532ff5b23","ios":"levelo://app?vid=b3a680ff-1a78-477c-8b2a-0da532ff5b23"},"vehicle_type_id":"4","last_reported":1741263525,"current_range_meters":14000,"station_id":"ce4bhnp2rcd13ifvqgvg","pricing_plan_id":"cebpf4jnsgd1na2vs0mg"},{"bike_id":"f4984ce5-1426-49cc-aa3e-713626120602","system_id":"levelo_inurba_marseille","lat":43.29547,"lon":5.42279,"is_reserved":false,"is_disabled":false,"rental_uris":{"android":"levelo://app?vid=f4984ce5-1426-49cc-aa3e-713626120602","ios":"levelo://app?vid=f4984ce5-1426-49cc-aa3e-713626120602"},"vehicle_type_id":"4","last_reported":1741263525,"current_range_meters":14000,"station_id":"ce4bhph2rcd13ifvqhdg","pricing_plan_id":"cebpf4jnsgd1na2vs0mg"},{"bike_id":"1b43afde-23b4-4725-a92f-e263ef425a26","system_id":"levelo_inurba_marseille","lat":43.30926,"lon":5.40137,"is_reserved":false,"is_disabled":false,"rental_uris":{"android":"levelo://app?vid=1b43afde-23b4-4725-a92f-e263ef425a26","ios":"levelo://app?vid=1b43afde-23b4-4725-a92f-e263ef425a26"},"vehicle_type_id":"4","last_reported":1741263525,"current_range_meters":14400,"station_id":"ce4bgvp2rcd13ifvqct0","pricing_plan_id":"cebpf4jnsgd1na2vs0mg"},{"bike_id":"4f010ebc-b518-4755-8362-bd39d3f72f51","system_id":"levelo_inurba_marseille","lat":43.23149,"lon":5.43713,"is_reserved":false,"is_disabled":false,"rental_uris":{"android":"levelo://app?vid=4f010ebc-b518-4755-8362-bd39d3f72f51","ios":"levelo://app?vid=4f010ebc-b518-4755-8362-bd39d3f72f51"},"vehicle_type_id":"4","last_reported":1741263525,"current_range_meters":14400,"station_id":"ce4bhmp2rcd13ifvqgog","pricing_plan_id":"cebpf4jnsgd1na2vs0mg"},{"bike_id":"42799173-f7c7-4b35-acfb-0b8fc5282cea","system_id":"levelo_inurba_marseille","lat":43.27825,"lon":5.4071,"is_reserved":false,"is_disabled":false,"rental_uris":{"android":"levelo://app?vid=42799173-f7c7-4b35-acfb-0b8fc5282cea","ios":"levelo://app?vid=42799173-f7c7-4b35-acfb-0b8fc5282cea"},"vehicle_type_id":"4","last_reported":1741263525,"current_range_meters":14400,"station_id":"ce4bhnh2rcd13ifvqgtg","pricing_plan_id":"cebpf4jnsgd1na2vs0mg"},{"bike_id":"30e24ce8-9878-4637-bd36-8f283d306f8b","system_id":"levelo_inurba_marseille","lat":43.28068,"lon":5.39651,"is_reserved":false,"is_disabled":false,"rental_uris":{"android":"levelo://app?vid=30e24ce8-9878-4637-bd36-8f283d306f8b","ios":"levelo://app?vid=30e24ce8-9878-4637-bd36-8f283d306f8b"},"vehicle_type_id":"4","last_reported":1741263525,"current_range_meters":14400,"station_id":"ce4bho12rcd13ifvqh2g","pricing_plan_id":"cebpf4jnsgd1na2vs0mg"},{"bike_id":"9f0f0224-b72b-4ee3-a38d-b5ba80204629","system_id":"levelo_inurba_marseille","lat":43.23202,"lon":5.35557,"is_reserved":false,"is_disabled":false,"rental_uris":{"android":"levelo://app?vid=9f0f0224-b72b-4ee3-a38d-b5ba80204629","ios":"levelo://app?vid=9f0f0224-b72b-4ee3-a38d-b5ba80204629"},"vehicle_type_id":"4","last_reported":1741263525,"current_range_meters":14400,"station_id":"ce4bhu92rcd13ifvqi70","pricing_plan_id":"cebpf4jnsgd1na2vs0mg"},{"bike_id":"c16ccb51-1ff7-4b93-8e4d-d5c1c6809677","system_id":"levelo_inurba_marseille","lat":43.30414,"lon":5.41281,"is_reserved":false,"is_disabled":false,"rental_uris":{"android":"levelo://app?vid=c16ccb51-1ff7-4b93-8e4d-d5c1c6809677","ios":"levelo://app?vid=c16ccb51-1ff7-4b93-8e4d-d5c1c6809677"},"vehicle_type_id":"4","last_reported":1741263525,"current_range_meters":14800,"station_id":"ce4bhop2rcd13ifvqh8g","pricing_plan_id":"cebpf4jnsgd1na2vs0mg"},{"bike_id":"c4afb286-08d7-4be7-bcdf-4e625046e836","system_id":"levelo_inurba_marseille","lat":43.32366,"lon":5.38888,"is_reserved":false,"is_disabled":false,"rental_uris":{"android":"levelo://app?vid=c4afb286-08d7-4be7-bcdf-4e625046e836","ios":"levelo://app?vid=c4afb286-08d7-4be7-bcdf-4e625046e836"},"vehicle_type_id":"4","last_reported":1741263525,"current_range_meters":14800,"station_id":"ce4bhqp2rcd13ifvqhog","pricing_plan_id":"cebpf4jnsgd1na2vs0mg"},{"bike_id":"e4795c93-9c07-48c7-a7e6-96dfdc63695d","system_id":"levelo_inurba_marseille","lat":43.308656,"lon":5.389038,"is_reserved":false,"is_disabled":false,"rental_uris":{"android":"levelo://app?vid=e4795c93-9c07-48c7-a7e6-96dfdc63695d","ios":"levelo://app?vid=e4795c93-9c07-48c7-a7e6-96dfdc63695d"},"vehicle_type_id":"4","last_reported":1741263525,"current_range_meters":15200,"station_id":"ce4bgqh2rcd13ifvqc4g","pricing_plan_id":"cebpf4jnsgd1na2vs0mg"},{"bike_id":"fd8e1c4b-9588-4ac4-ae47-aea306dc5aff","system_id":"levelo_inurba_marseille","lat":43.29224,"lon":5.36062,"is_reserved":false,"is_disabled":false,"rental_uris":{"android":"levelo://app?vid=fd8e1c4b-9588-4ac4-ae47-aea306dc5aff","ios":"levelo://app?vid=fd8e1c4b-9588-4ac4-ae47-aea306dc5aff"},"vehicle_type_id":"4","last_reported":1741263525,"current_range_meters":15200,"station_id":"ce4bhbh2rcd13ifvqeqg","pricing_plan_id":"cebpf4jnsgd1na2vs0mg"},{"bike_id":"47df52c5-e35f-48fb-baca-7d1e015990f8","system_id":"levelo_inurba_marseille","lat":43.23136,"lon":5.43717,"is_reserved":false,"is_disabled":false,"rental_uris":{"android":"levelo://app?vid=47df52c5-e35f-48fb-baca-7d1e015990f8","ios":"levelo://app?vid=47df52c5-e35f-48fb-baca-7d1e015990f8"},"vehicle_type_id":"4","last_reported":1741263525,"current_range_meters":15200,"station_id":"ce4bhmp2rcd13ifvqgog","pricing_plan_id":"cebpf4jnsgd1na2vs0mg"},{"bike_id":"ce51e43d-08e5-4352-a6bd-d7aa7e8463bf","system_id":"levelo_inurba_marseille","lat":43.32479,"lon":5.36575,"is_reserved":false,"is_disabled":false,"rental_uris":{"android":"levelo://app?vid=ce51e43d-08e5-4352-a6bd-d7aa7e8463bf","ios":"levelo://app?vid=ce51e43d-08e5-4352-a6bd-d7aa7e8463bf"},"vehicle_type_id":"4","last_reported":1741263525,"current_range_meters":15200,"station_id":"ce4bhs12rcd13ifvqhvg","pricing_plan_id":"cebpf4jnsgd1na2vs0mg"},{"bike_id":"b2866a7a-21f3-4a62-9ce4-9cb6884028a5","system_id":"levelo_inurba_marseille","lat":43.29888,"lon":5.38148,"is_reserved":false,"is_disabled":false,"rental_uris":{"android":"levelo://app?vid=b2866a7a-21f3-4a62-9ce4-9cb6884028a5","ios":"levelo://app?vid=b2866a7a-21f3-4a62-9ce4-9cb6884028a5"},"vehicle_type_id":"4","last_reported":1741263525,"current_range_meters":16000,"station_id":"ce4bgj12rcd13ifvqbc0","pricing_plan_id":"cebpf4jnsgd1na2vs0mg"},{"bike_id":"50c0582c-c29a-4761-8f14-e4c3c5fe5292","system_id":"levelo_inurba_marseille","lat":43.28943,"lon":5.36636,"is_reserved":false,"is_disabled":false,"rental_uris":{"android":"levelo://app?vid=50c0582c-c29a-4761-8f14-e4c3c5fe5292","ios":"levelo://app?vid=50c0582c-c29a-4761-8f14-e4c3c5fe5292"},"vehicle_type_id":"4","last_reported":1741263525,"current_range_meters":16000,"station_id":"ce4bhap2rcd13ifvqek0","pricing_plan_id":"cebpf4jnsgd1na2vs0mg"},{"bike_id":"396b3c83-63a7-4e9f-81bd-e5810b939dad","system_id":"levelo_inurba_marseille","lat":43.28619,"lon":5.35101,"is_reserved":false,"is_disabled":false,"rental_uris":{"android":"levelo://app?vid=396b3c83-63a7-4e9f-81bd-e5810b939dad","ios":"levelo://app?vid=396b3c83-63a7-4e9f-81bd-e5810b939dad"},"vehicle_type_id":"4","last_reported":1741263525,"current_range_meters":16000,"station_id":"ce4bhch2rcd13ifvqeug","pricing_plan_id":"cebpf4jnsgd1na2vs0mg"},{"bike_id":"70c5d7c7-4e1c-4a19-91da-a6d9a038b4a3","system_id":"levelo_inurba_marseille","lat":43.26956,"lon":5.38634,"is_reserved":false,"is_disabled":false,"rental_uris":{"android":"levelo://app?vid=70c5d7c7-4e1c-4a19-91da-a6d9a038b4a3","ios":"levelo://app?vid=70c5d7c7-4e1c-4a19-91da-a6d9a038b4a3"},"vehicle_type_id":"4","last_reported":1741263525,"current_range_meters":16000,"station_id":"ce4bhh92rcd13ifvqfh0","pricing_plan_id":"cebpf4jnsgd1na2vs0mg"},{"bike_id":"afccc7fe-ab61-4fa8-958b-4da08d6c619f","system_id":"levelo_inurba_marseille","lat":43.305133,"lon":5.367307,"is_reserved":false,"is_disabled":false,"rental_uris":{"android":"levelo://app?vid=afccc7fe-ab61-4fa8-958b-4da08d6c619f","ios":"levelo://app?vid=afccc7fe-ab61-4fa8-958b-4da08d6c619f"},"vehicle_type_id":"4","last_reported":1741263525,"current_range_meters":16400,"station_id":"ce4bgrp2rcd13ifvqc9g","pricing_plan_id":"cebpf4jnsgd1na2vs0mg"},{"bike_id":"d5d98f3a-bdbd-4628-981b-21e461a49989","system_id":"levelo_inurba_marseille","lat":43.29421,"lon":5.38618,"is_reserved":false,"is_disabled":false,"rental_uris":{"android":"levelo://app?vid=d5d98f3a-bdbd-4628-981b-21e461a49989","ios":"levelo://app?vid=d5d98f3a-bdbd-4628-981b-21e461a49989"},"vehicle_type_id":"4","last_reported":1741263525,"current_range_meters":16400,"station_id":"ce4bh2h2rcd13ifvqdh0","pricing_plan_id":"cebpf4jnsgd1na2vs0mg"},{"bike_id":"97ee82e2-cf15-4a31-b5f8-a5b527fa6d26","system_id":"levelo_inurba_marseille","lat":43.29038,"lon":5.37534,"is_reserved":false,"is_disabled":false,"rental_uris":{"android":"levelo://app?vid=97ee82e2-cf15-4a31-b5f8-a5b527fa6d26","ios":"levelo://app?vid=97ee82e2-cf15-4a31-b5f8-a5b527fa6d26"},"vehicle_type_id":"4","last_reported":1741263525,"current_range_meters":16400,"station_id":"ce4bh692rcd13ifvqe90","pricing_plan_id":"cebpf4jnsgd1na2vs0mg"},{"bike_id":"acb01695-3aa8-47e2-8873-ad6047fd837f","system_id":"levelo_inurba_marseille","lat":43.26557,"lon":5.37282,"is_reserved":false,"is_disabled":false,"rental_uris":{"android":"levelo://app?vid=acb01695-3aa8-47e2-8873-ad6047fd837f","ios":"levelo://app?vid=acb01695-3aa8-47e2-8873-ad6047fd837f"},"vehicle_type_id":"4","last_reported":1741263525,"current_range_meters":16400,"station_id":"ce4bhg12rcd13ifvqf70","pricing_plan_id":"cebpf4jnsgd1na2vs0mg"},{"bike_id":"82dc1250-3133-44ae-ab67-1eae2b3ebd4d","system_id":"levelo_inurba_marseille","lat":43.32486,"lon":5.36574,"is_reserved":false,"is_disabled":false,"rental_uris":{"android":"levelo://app?vid=82dc1250-3133-44ae-ab67-1eae2b3ebd4d","ios":"levelo://app?vid=82dc1250-3133-44ae-ab67-1eae2b3ebd4d"},"vehicle_type_id":"4","last_reported":1741263525,"current_range_meters":16400,"station_id":"ce4bhs12rcd13ifvqhvg","pricing_plan_id":"cebpf4jnsgd1na2vs0mg"},{"bike_id":"05576b64-d7c4-4a51-82a8-4b4beee6aff3","system_id":"levelo_inurba_marseille","lat":43.25701,"lon":5.418,"is_reserved":false,"is_disabled":false,"rental_uris":{"android":"levelo://app?vid=05576b64-d7c4-4a51-82a8-4b4beee6aff3","ios":"levelo://app?vid=05576b64-d7c4-4a51-82a8-4b4beee6aff3"},"vehicle_type_id":"4","last_reported":1741263525,"current_range_meters":16800,"station_id":"","pricing_plan_id":"cebpf4jnsgd1na2vs0mg"},{"bike_id":"11e06683-8fbf-4e8d-be1a-c9322e803342","system_id":"levelo_inurba_marseille","lat":43.23142,"lon":5.43697,"is_reserved":false,"is_disabled":false,"rental_uris":{"android":"levelo://app?vid=11e06683-8fbf-4e8d-be1a-c9322e803342","ios":"levelo://app?vid=11e06683-8fbf-4e8d-be1a-c9322e803342"},"vehicle_type_id":"4","last_reported":1741263525,"current_range_meters":16800,"station_id":"ce4bhmp2rcd13ifvqgog","pricing_plan_id":"cebpf4jnsgd1na2vs0mg"},{"bike_id":"d0a9e0b6-7460-48af-b167-fa241d6b44c3","system_id":"levelo_inurba_marseille","lat":43.32105,"lon":5.36776,"is_reserved":false,"is_disabled":false,"rental_uris":{"android":"levelo://app?vid=d0a9e0b6-7460-48af-b167-fa241d6b44c3","ios":"levelo://app?vid=d0a9e0b6-7460-48af-b167-fa241d6b44c3"},"vehicle_type_id":"4","last_reported":1741263525,"current_range_meters":16800,"station_id":"ce4bhrh2rcd13ifvqhug","pricing_plan_id":"cebpf4jnsgd1na2vs0mg"},{"bike_id":"b792edb6-9c8d-4040-973f-1250cd23e492","system_id":"levelo_inurba_marseille","lat":43.26803,"lon":5.40268,"is_reserved":false,"is_disabled":false,"rental_uris":{"android":"levelo://app?vid=b792edb6-9c8d-4040-973f-1250cd23e492","ios":"levelo://app?vid=b792edb6-9c8d-4040-973f-1250cd23e492"},"vehicle_type_id":"4","last_reported":1741263525,"current_range_meters":16800,"station_id":"ce501612rcd8frsf0b60","pricing_plan_id":"cebpf4jnsgd1na2vs0mg"},{"bike_id":"54833c0a-a9a7-4c42-873b-474bce89055b","system_id":"levelo_inurba_marseille","lat":43.23055,"lon":5.35495,"is_reserved":false,"is_disabled":false,"rental_uris":{"android":"levelo://app?vid=54833c0a-a9a7-4c42-873b-474bce89055b","ios":"levelo://app?vid=54833c0a-a9a7-4c42-873b-474bce89055b"},"vehicle_type_id":"4","last_reported":1741263525,"current_range_meters":16800,"station_id":"cpo3342slgdg3j2ifvpg","pricing_plan_id":"cebpf4jnsgd1na2vs0mg"},{"bike_id":"e0c8e248-c34f-4d98-8acc-9b35025c7bbc","system_id":"levelo_inurba_marseille","lat":43.28973,"lon":5.37838,"is_reserved":false,"is_disabled":false,"rental_uris":{"android":"levelo://app?vid=e0c8e248-c34f-4d98-8acc-9b35025c7bbc","ios":"levelo://app?vid=e0c8e248-c34f-4d98-8acc-9b35025c7bbc"},"vehicle_type_id":"4","last_reported":1741263525,"current_range_meters":17200,"station_id":"ce4bh9p2rcd13ifvqed0","pricing_plan_id":"cebpf4jnsgd1na2vs0mg"},{"bike_id":"4027819d-10b8-4aa8-923b-c5dab2e5cf2c","system_id":"levelo_inurba_marseille","lat":43.26228,"lon":5.37457,"is_reserved":false,"is_disabled":false,"rental_uris":{"android":"levelo://app?vid=4027819d-10b8-4aa8-923b-c5dab2e5cf2c","ios":"levelo://app?vid=4027819d-10b8-4aa8-923b-c5dab2e5cf2c"},"vehicle_type_id":"4","last_reported":1741263525,"current_range_meters":17200,"station_id":"ce4bhgp2rcd13ifvqfc0","pricing_plan_id":"cebpf4jnsgd1na2vs0mg"},{"bike_id":"32dce61d-a53f-4aa2-a74d-84fcc0d094e5","system_id":"levelo_inurba_marseille","lat":43.27314,"lon":5.39065,"is_reserved":false,"is_disabled":false,"rental_uris":{"android":"levelo://app?vid=32dce61d-a53f-4aa2-a74d-84fcc0d094e5","ios":"levelo://app?vid=32dce61d-a53f-4aa2-a74d-84fcc0d094e5"},"vehicle_type_id":"4","last_reported":1741263525,"current_range_meters":17200,"station_id":"ce4bhgp2rcd13ifvqfe0","pricing_plan_id":"cebpf4jnsgd1na2vs0mg"},{"bike_id":"d83a1a8c-8dfa-4175-aeef-e011bc2b2e0e","system_id":"levelo_inurba_marseille","lat":43.30467,"lon":5.37903,"is_reserved":false,"is_disabled":false,"rental_uris":{"android":"levelo://app?vid=d83a1a8c-8dfa-4175-aeef-e011bc2b2e0e","ios":"levelo://app?vid=d83a1a8c-8dfa-4175-aeef-e011bc2b2e0e"},"vehicle_type_id":"4","last_reported":1741263525,"current_range_meters":17600,"station_id":"ce4bgup2rcd13ifvqcn0","pricing_plan_id":"cebpf4jnsgd1na2vs0mg"},{"bike_id":"ecb7271b-4db8-45aa-b402-e70fd06b624a","system_id":"levelo_inurba_marseille","lat":43.296,"lon":5.37729,"is_reserved":false,"is_disabled":false,"rental_uris":{"android":"levelo://app?vid=ecb7271b-4db8-45aa-b402-e70fd06b624a","ios":"levelo://app?vid=ecb7271b-4db8-45aa-b402-e70fd06b624a"},"vehicle_type_id":"4","last_reported":1741263525,"current_range_meters":17600,"station_id":"ce4bh3p2rcd13ifvqdp0","pricing_plan_id":"cebpf4jnsgd1na2vs0mg"},{"bike_id":"66aa6175-fa65-4af9-a3c5-73744db91f19","system_id":"levelo_inurba_marseille","lat":43.28461,"lon":5.35891,"is_reserved":false,"is_disabled":false,"rental_uris":{"android":"levelo://app?vid=66aa6175-fa65-4af9-a3c5-73744db91f19","ios":"levelo://app?vid=66aa6175-fa65-4af9-a3c5-73744db91f19"},"vehicle_type_id":"4","last_reported":1741263525,"current_range_meters":17600,"station_id":"ce4bhah2rcd13ifvqei0","pricing_plan_id":"cebpf4jnsgd1na2vs0mg"},{"bike_id":"5002a0a9-9534-4912-89aa-91a689064a82","system_id":"levelo_inurba_marseille","lat":43.28615,"lon":5.35106,"is_reserved":false,"is_disabled":false,"rental_uris":{"android":"levelo://app?vid=5002a0a9-9534-4912-89aa-91a689064a82","ios":"levelo://app?vid=5002a0a9-9534-4912-89aa-91a689064a82"},"vehicle_type_id":"4","last_reported":1741263525,"current_range_meters":17600,"station_id":"ce4bhch2rcd13ifvqeug","pricing_plan_id":"cebpf4jnsgd1na2vs0mg"},{"bike_id":"10b74c6d-04bc-43c8-b892-4a1d3e03c2bd","system_id":"levelo_inurba_marseille","lat":43.23062,"lon":5.354941,"is_reserved":false,"is_disabled":false,"rental_uris":{"android":"levelo://app?vid=10b74c6d-04bc-43c8-b892-4a1d3e03c2bd","ios":"levelo://app?vid=10b74c6d-04bc-43c8-b892-4a1d3e03c2bd"},"vehicle_type_id":"4","last_reported":1741263525,"current_range_meters":17600,"station_id":"cpo3342slgdg3j2ifvpg","pricing_plan_id":"cebpf4jnsgd1na2vs0mg"},{"bike_id":"a96c848a-df62-43d4-a912-4249257f04b9","system_id":"levelo_inurba_marseille","lat":43.29284,"lon":5.40111,"is_reserved":false,"is_disabled":false,"rental_uris":{"android":"levelo://app?vid=a96c848a-df62-43d4-a912-4249257f04b9","ios":"levelo://app?vid=a96c848a-df62-43d4-a912-4249257f04b9"},"vehicle_type_id":"4","last_reported":1741263525,"current_range_meters":18000,"station_id":"ce4bh312rcd13ifvqdk0","pricing_plan_id":"cebpf4jnsgd1na2vs0mg"},{"bike_id":"ed222ecb-a95f-4395-be65-00dc7a682e47","system_id":"levelo_inurba_marseille","lat":43.28359,"lon":5.38101,"is_reserved":false,"is_disabled":false,"rental_uris":{"android":"levelo://app?vid=ed222ecb-a95f-4395-be65-00dc7a682e47","ios":"levelo://app?vid=ed222ecb-a95f-4395-be65-00dc7a682e47"},"vehicle_type_id":"4","last_reported":1741263525,"current_range_meters":18000,"station_id":"ce4bh412rcd13ifvqdr0","pricing_plan_id":"cebpf4jnsgd1na2vs0mg"},{"bike_id":"08cf7e37-69c7-493d-b08d-f8740166dde1","system_id":"levelo_inurba_marseille","lat":43.29039,"lon":5.37563,"is_reserved":false,"is_disabled":false,"rental_uris":{"android":"levelo://app?vid=08cf7e37-69c7-493d-b08d-f8740166dde1","ios":"levelo://app?vid=08cf7e37-69c7-493d-b08d-f8740166dde1"},"vehicle_type_id":"4","last_reported":1741263525,"current_range_meters":18000,"station_id":"ce4bh692rcd13ifvqe90","pricing_plan_id":"cebpf4jnsgd1na2vs0mg"},{"bike_id":"cc9601be-ac6e-448e-b853-67536eaba38c","system_id":"levelo_inurba_marseille","lat":43.28113,"lon":5.3783,"is_reserved":false,"is_disabled":false,"rental_uris":{"android":"levelo://app?vid=cc9601be-ac6e-448e-b853-67536eaba38c","ios":"levelo://app?vid=cc9601be-ac6e-448e-b853-67536eaba38c"},"vehicle_type_id":"4","last_reported":1741263525,"current_range_meters":18000,"station_id":"ce4bha12rcd13ifvqee0","pricing_plan_id":"cebpf4jnsgd1na2vs0mg"},{"bike_id":"deabf1df-2edb-4371-bf19-1fc9db16ee77","system_id":"levelo_inurba_marseille","lat":43.28152,"lon":5.42653,"is_reserved":false,"is_disabled":false,"rental_uris":{"android":"levelo://app?vid=deabf1df-2edb-4371-bf19-1fc9db16ee77","ios":"levelo://app?vid=deabf1df-2edb-4371-bf19-1fc9db16ee77"},"vehicle_type_id":"4","last_reported":1741263525,"current_range_meters":18000,"station_id":"ce4bhnh2rcd13ifvqgug","pricing_plan_id":"cebpf4jnsgd1na2vs0mg"},{"bike_id":"8d203f57-3343-4bc0-8a9c-79d1c1be1625","system_id":"levelo_inurba_marseille","lat":43.26798,"lon":5.40257,"is_reserved":false,"is_disabled":false,"rental_uris":{"android":"levelo://app?vid=8d203f57-3343-4bc0-8a9c-79d1c1be1625","ios":"levelo://app?vid=8d203f57-3343-4bc0-8a9c-79d1c1be1625"},"vehicle_type_id":"4","last_reported":1741263525,"current_range_meters":18000,"station_id":"ce501612rcd8frsf0b60","pricing_plan_id":"cebpf4jnsgd1na2vs0mg"},{"bike_id":"554a57ba-490a-4d04-b60e-2874964dddb0","system_id":"levelo_inurba_marseille","lat":43.29313,"lon":5.37143,"is_reserved":false,"is_disabled":false,"rental_uris":{"android":"levelo://app?vid=554a57ba-490a-4d04-b60e-2874964dddb0","ios":"levelo://app?vid=554a57ba-490a-4d04-b60e-2874964dddb0"},"vehicle_type_id":"4","last_reported":1741263525,"current_range_meters":18800,"station_id":"ce4bgh92rcd13ifvqb40","pricing_plan_id":"cebpf4jnsgd1na2vs0mg"},{"bike_id":"564b6aaa-a693-42eb-8cb8-8063368cd03f","system_id":"levelo_inurba_marseille","lat":43.31495,"lon":5.37305,"is_reserved":false,"is_disabled":false,"rental_uris":{"android":"levelo://app?vid=564b6aaa-a693-42eb-8cb8-8063368cd03f","ios":"levelo://app?vid=564b6aaa-a693-42eb-8cb8-8063368cd03f"},"vehicle_type_id":"4","last_reported":1741263525,"current_range_meters":18800,"station_id":"ce4bgt12rcd13ifvqcd0","pricing_plan_id":"cebpf4jnsgd1na2vs0mg"},{"bike_id":"0235fce0-6db4-48fe-8c7a-c739c3f76bf4","system_id":"levelo_inurba_marseille","lat":43.29527,"lon":5.39034,"is_reserved":false,"is_disabled":false,"rental_uris":{"android":"levelo://app?vid=0235fce0-6db4-48fe-8c7a-c739c3f76bf4","ios":"levelo://app?vid=0235fce0-6db4-48fe-8c7a-c739c3f76bf4"},"vehicle_type_id":"4","last_reported":1741263525,"current_range_meters":18800,"station_id":"ce4bh3p2rcd13ifvqdp0","pricing_plan_id":"cebpf4jnsgd1na2vs0mg"},{"bike_id":"3cc9dbdb-7c54-43bd-a0e0-3e78d1e1ed55","system_id":"levelo_inurba_marseille","lat":43.27903,"lon":5.38016,"is_reserved":false,"is_disabled":false,"rental_uris":{"android":"levelo://app?vid=3cc9dbdb-7c54-43bd-a0e0-3e78d1e1ed55","ios":"levelo://app?vid=3cc9dbdb-7c54-43bd-a0e0-3e78d1e1ed55"},"vehicle_type_id":"4","last_reported":1741263525,"current_range_meters":18800,"station_id":"ce4bhf92rcd13ifvqf50","pricing_plan_id":"cebpf4jnsgd1na2vs0mg"},{"bike_id":"fdc2b2b9-e30b-49be-aa1c-da9bc53869de","system_id":"levelo_inurba_marseille","lat":43.2621,"lon":5.37442,"is_reserved":false,"is_disabled":false,"rental_uris":{"android":"levelo://app?vid=fdc2b2b9-e30b-49be-aa1c-da9bc53869de","ios":"levelo://app?vid=fdc2b2b9-e30b-49be-aa1c-da9bc53869de"},"vehicle_type_id":"4","last_reported":1741263525,"current_range_meters":18800,"station_id":"ce4bhgp2rcd13ifvqfc0","pricing_plan_id":"cebpf4jnsgd1na2vs0mg"},{"bike_id":"6ae77951-a909-4dfa-a933-35324bca41b7","system_id":"levelo_inurba_marseille","lat":43.2502,"lon":5.38879,"is_reserved":false,"is_disabled":false,"rental_uris":{"android":"levelo://app?vid=6ae77951-a909-4dfa-a933-35324bca41b7","ios":"levelo://app?vid=6ae77951-a909-4dfa-a933-35324bca41b7"},"vehicle_type_id":"4","last_reported":1741263525,"current_range_meters":18800,"station_id":"ce4bhgp2rcd13ifvqfd0","pricing_plan_id":"cebpf4jnsgd1na2vs0mg"},{"bike_id":"5f75ba61-02d5-48cc-b264-b113b66ed19b","system_id":"levelo_inurba_marseille","lat":43.32575,"lon":5.41405,"is_reserved":false,"is_disabled":false,"rental_uris":{"android":"levelo://app?vid=5f75ba61-02d5-48cc-b264-b113b66ed19b","ios":"levelo://app?vid=5f75ba61-02d5-48cc-b264-b113b66ed19b"},"vehicle_type_id":"4","last_reported":1741263525,"current_range_meters":19200,"station_id":"","pricing_plan_id":"cebpf4jnsgd1na2vs0mg"},{"bike_id":"69737e30-d9d9-40f9-ba32-730dcb9fb321","system_id":"levelo_inurba_marseille","lat":43.29521,"lon":5.38532,"is_reserved":false,"is_disabled":false,"rental_uris":{"android":"levelo://app?vid=69737e30-d9d9-40f9-ba32-730dcb9fb321","ios":"levelo://app?vid=69737e30-d9d9-40f9-ba32-730dcb9fb321"},"vehicle_type_id":"4","last_reported":1741263525,"current_range_meters":19200,"station_id":"ce4bgih2rcd13ifvqba0","pricing_plan_id":"cebpf4jnsgd1na2vs0mg"},{"bike_id":"a0ed1447-9a3a-4964-b750-f7217ba7226e","system_id":"levelo_inurba_marseille","lat":43.27617,"lon":5.36113,"is_reserved":false,"is_disabled":false,"rental_uris":{"android":"levelo://app?vid=a0ed1447-9a3a-4964-b750-f7217ba7226e","ios":"levelo://app?vid=a0ed1447-9a3a-4964-b750-f7217ba7226e"},"vehicle_type_id":"4","last_reported":1741263525,"current_range_meters":19200,"station_id":"ce4bgj92rcd13ifvqbe0","pricing_plan_id":"cebpf4jnsgd1na2vs0mg"},{"bike_id":"29edcdf8-7bc3-43be-ae5c-4e6f84412ed9","system_id":"levelo_inurba_marseille","lat":43.31685,"lon":5.40478,"is_reserved":false,"is_disabled":false,"rental_uris":{"android":"levelo://app?vid=29edcdf8-7bc3-43be-ae5c-4e6f84412ed9","ios":"levelo://app?vid=29edcdf8-7bc3-43be-ae5c-4e6f84412ed9"},"vehicle_type_id":"4","last_reported":1741263525,"current_range_meters":19200,"station_id":"ce4bh012rcd13ifvqd00","pricing_plan_id":"cebpf4jnsgd1na2vs0mg"},{"bike_id":"650d2f2f-9467-49c6-96dc-b6572b477ed0","system_id":"levelo_inurba_marseille","lat":43.29201,"lon":5.39328,"is_reserved":false,"is_disabled":false,"rental_uris":{"android":"levelo://app?vid=650d2f2f-9467-49c6-96dc-b6572b477ed0","ios":"levelo://app?vid=650d2f2f-9467-49c6-96dc-b6572b477ed0"},"vehicle_type_id":"4","last_reported":1741263525,"current_range_meters":19200,"station_id":"ce4bh192rcd13ifvqdd0","pricing_plan_id":"cebpf4jnsgd1na2vs0mg"},{"bike_id":"cd2acc2c-1b4a-454c-977a-87a72452b146","system_id":"levelo_inurba_marseille","lat":43.29439,"lon":5.39759,"is_reserved":false,"is_disabled":false,"rental_uris":{"android":"levelo://app?vid=cd2acc2c-1b4a-454c-977a-87a72452b146","ios":"levelo://app?vid=cd2acc2c-1b4a-454c-977a-87a72452b146"},"vehicle_type_id":"4","last_reported":1741263525,"current_range_meters":19200,"station_id":"ce4bh3h2rcd13ifvqdo0","pricing_plan_id":"cebpf4jnsgd1na2vs0mg"},{"bike_id":"43d55693-be44-4f7b-870d-2b17a576a397","system_id":"levelo_inurba_marseille","lat":43.26206,"lon":5.37442,"is_reserved":false,"is_disabled":false,"rental_uris":{"android":"levelo://app?vid=43d55693-be44-4f7b-870d-2b17a576a397","ios":"levelo://app?vid=43d55693-be44-4f7b-870d-2b17a576a397"},"vehicle_type_id":"4","last_reported":1741263525,"current_range_meters":19200,"station_id":"ce4bhgp2rcd13ifvqfc0","pricing_plan_id":"cebpf4jnsgd1na2vs0mg"},{"bike_id":"9587d161-57f9-4907-bb95-16d14ffdb35c","system_id":"levelo_inurba_marseille","lat":43.270549,"lon":5.402626,"is_reserved":false,"is_disabled":false,"rental_uris":{"android":"levelo://app?vid=9587d161-57f9-4907-bb95-16d14ffdb35c","ios":"levelo://app?vid=9587d161-57f9-4907-bb95-16d14ffdb35c"},"vehicle_type_id":"4","last_reported":1741263525,"current_range_meters":19200,"station_id":"ce4bhk92rcd13ifvqgc0","pricing_plan_id":"cebpf4jnsgd1na2vs0mg"},{"bike_id":"31599403-fa7c-418d-bb69-6540a31c9ff6","system_id":"levelo_inurba_marseille","lat":43.28713,"lon":5.39992,"is_reserved":false,"is_disabled":false,"rental_uris":{"android":"levelo://app?vid=31599403-fa7c-418d-bb69-6540a31c9ff6","ios":"levelo://app?vid=31599403-fa7c-418d-bb69-6540a31c9ff6"},"vehicle_type_id":"4","last_reported":1741263525,"current_range_meters":19200,"station_id":"ce4bho92rcd13ifvqh3g","pricing_plan_id":"cebpf4jnsgd1na2vs0mg"},{"bike_id":"9726066e-9c9a-4321-8087-e70ae6f40c03","system_id":"levelo_inurba_marseille","lat":43.276241,"lon":5.361087,"is_reserved":false,"is_disabled":false,"rental_uris":{"android":"levelo://app?vid=9726066e-9c9a-4321-8087-e70ae6f40c03","ios":"levelo://app?vid=9726066e-9c9a-4321-8087-e70ae6f40c03"},"vehicle_type_id":"4","last_reported":1741263525,"current_range_meters":19600,"station_id":"ce4bha12rcd13ifvqee0","pricing_plan_id":"cebpf4jnsgd1na2vs0mg"},{"bike_id":"fe2a1c26-6de6-44ee-8be0-f51cd2d0b446","system_id":"levelo_inurba_marseille","lat":43.28431,"lon":5.34993,"is_reserved":false,"is_disabled":false,"rental_uris":{"android":"levelo://app?vid=fe2a1c26-6de6-44ee-8be0-f51cd2d0b446","ios":"levelo://app?vid=fe2a1c26-6de6-44ee-8be0-f51cd2d0b446"},"vehicle_type_id":"4","last_reported":1741263525,"current_range_meters":19600,"station_id":"ce4bhbh2rcd13ifvqepg","pricing_plan_id":"cebpf4jnsgd1na2vs0mg"},{"bike_id":"71f195be-dd67-415e-88aa-e33863e2ca63","system_id":"levelo_inurba_marseille","lat":43.25496,"lon":5.37648,"is_reserved":false,"is_disabled":false,"rental_uris":{"android":"levelo://app?vid=71f195be-dd67-415e-88aa-e33863e2ca63","ios":"levelo://app?vid=71f195be-dd67-415e-88aa-e33863e2ca63"},"vehicle_type_id":"4","last_reported":1741263525,"current_range_meters":19600,"station_id":"ce4bhh12rcd13ifvqff0","pricing_plan_id":"cebpf4jnsgd1na2vs0mg"},{"bike_id":"313ac303-c660-47de-8103-0178890dc3d2","system_id":"levelo_inurba_marseille","lat":43.27562,"lon":5.38415,"is_reserved":false,"is_disabled":false,"rental_uris":{"android":"levelo://app?vid=313ac303-c660-47de-8103-0178890dc3d2","ios":"levelo://app?vid=313ac303-c660-47de-8103-0178890dc3d2"},"vehicle_type_id":"4","last_reported":1741263525,"current_range_meters":19600,"station_id":"ce4bhh92rcd13ifvqfi0","pricing_plan_id":"cebpf4jnsgd1na2vs0mg"},{"bike_id":"107606d2-61c2-49a1-8cbd-023ebbc09511","system_id":"levelo_inurba_marseille","lat":43.27939,"lon":5.41055,"is_reserved":false,"is_disabled":false,"rental_uris":{"android":"levelo://app?vid=107606d2-61c2-49a1-8cbd-023ebbc09511","ios":"levelo://app?vid=107606d2-61c2-49a1-8cbd-023ebbc09511"},"vehicle_type_id":"4","last_reported":1741263525,"current_range_meters":19600,"station_id":"ce4bhnp2rcd13ifvqh0g","pricing_plan_id":"cebpf4jnsgd1na2vs0mg"},{"bike_id":"deba5ad5-ffe7-414e-a2ff-5c9aadb14df1","system_id":"levelo_inurba_marseille","lat":43.30145,"lon":5.37401,"is_reserved":false,"is_disabled":false,"rental_uris":{"android":"levelo://app?vid=deba5ad5-ffe7-414e-a2ff-5c9aadb14df1","ios":"levelo://app?vid=deba5ad5-ffe7-414e-a2ff-5c9aadb14df1"},"vehicle_type_id":"4","last_reported":1741263525,"current_range_meters":20000,"station_id":"ce4bgs92rcd13ifvqcc0","pricing_plan_id":"cebpf4jnsgd1na2vs0mg"},{"bike_id":"45fa88e7-a104-428a-9a3a-65d1514e73be","system_id":"levelo_inurba_marseille","lat":43.2669,"lon":5.38265,"is_reserved":false,"is_disabled":false,"rental_uris":{"android":"levelo://app?vid=45fa88e7-a104-428a-9a3a-65d1514e73be","ios":"levelo://app?vid=45fa88e7-a104-428a-9a3a-65d1514e73be"},"vehicle_type_id":"4","last_reported":1741263525,"current_range_meters":20000,"station_id":"ce4bhg92rcd13ifvqf90","pricing_plan_id":"cebpf4jnsgd1na2vs0mg"},{"bike_id":"e524bcef-a391-41b2-bad2-673eae53ea51","system_id":"levelo_inurba_marseille","lat":43.31705,"lon":5.43703,"is_reserved":false,"is_disabled":false,"rental_uris":{"android":"levelo://app?vid=e524bcef-a391-41b2-bad2-673eae53ea51","ios":"levelo://app?vid=e524bcef-a391-41b2-bad2-673eae53ea51"},"vehicle_type_id":"4","last_reported":1741263525,"current_range_meters":20000,"station_id":"ce4bhp92rcd13ifvqhcg","pricing_plan_id":"cebpf4jnsgd1na2vs0mg"},{"bike_id":"7f815e78-db8a-4efd-b663-289792b7a5d2","system_id":"levelo_inurba_marseille","lat":43.33015,"lon":5.39034,"is_reserved":false,"is_disabled":false,"rental_uris":{"android":"levelo://app?vid=7f815e78-db8a-4efd-b663-289792b7a5d2","ios":"levelo://app?vid=7f815e78-db8a-4efd-b663-289792b7a5d2"},"vehicle_type_id":"4","last_reported":1741263525,"current_range_meters":20000,"station_id":"ce4bhr92rcd13ifvqhrg","pricing_plan_id":"cebpf4jnsgd1na2vs0mg"},{"bike_id":"94bb4b42-765a-4dcc-84e5-1e56175a727a","system_id":"levelo_inurba_marseille","lat":43.33792,"lon":5.37428,"is_reserved":false,"is_disabled":false,"rental_uris":{"android":"levelo://app?vid=94bb4b42-765a-4dcc-84e5-1e56175a727a","ios":"levelo://app?vid=94bb4b42-765a-4dcc-84e5-1e56175a727a"},"vehicle_type_id":"4","last_reported":1741263525,"current_range_meters":20400,"station_id":"","pricing_plan_id":"cebpf4jnsgd1na2vs0mg"},{"bike_id":"b0dd88ab-353e-498c-9694-5f92d7becfa9","system_id":"levelo_inurba_marseille","lat":43.3056,"lon":5.36544,"is_reserved":false,"is_disabled":false,"rental_uris":{"android":"levelo://app?vid=b0dd88ab-353e-498c-9694-5f92d7becfa9","ios":"levelo://app?vid=b0dd88ab-353e-498c-9694-5f92d7becfa9"},"vehicle_type_id":"4","last_reported":1741263525,"current_range_meters":20400,"station_id":"ce4bgs12rcd13ifvqcag","pricing_plan_id":"cebpf4jnsgd1na2vs0mg"},{"bike_id":"b0d61102-4306-44f4-8a64-2e802ae72ff6","system_id":"levelo_inurba_marseille","lat":43.29412,"lon":5.38632,"is_reserved":false,"is_disabled":false,"rental_uris":{"android":"levelo://app?vid=b0d61102-4306-44f4-8a64-2e802ae72ff6","ios":"levelo://app?vid=b0d61102-4306-44f4-8a64-2e802ae72ff6"},"vehicle_type_id":"4","last_reported":1741263525,"current_range_meters":20400,"station_id":"ce4bh2h2rcd13ifvqdh0","pricing_plan_id":"cebpf4jnsgd1na2vs0mg"},{"bike_id":"cd084862-fc87-4717-9ddb-2813ecd24ada","system_id":"levelo_inurba_marseille","lat":43.25,"lon":5.38929,"is_reserved":false,"is_disabled":false,"rental_uris":{"android":"levelo://app?vid=cd084862-fc87-4717-9ddb-2813ecd24ada","ios":"levelo://app?vid=cd084862-fc87-4717-9ddb-2813ecd24ada"},"vehicle_type_id":"4","last_reported":1741263525,"current_range_meters":20400,"station_id":"ce4bhgp2rcd13ifvqfd0","pricing_plan_id":"cebpf4jnsgd1na2vs0mg"},{"bike_id":"25ad3e40-44c5-489c-b5d7-f6379033322e","system_id":"levelo_inurba_marseille","lat":43.2718,"lon":5.39154,"is_reserved":false,"is_disabled":false,"rental_uris":{"android":"levelo://app?vid=25ad3e40-44c5-489c-b5d7-f6379033322e","ios":"levelo://app?vid=25ad3e40-44c5-489c-b5d7-f6379033322e"},"vehicle_type_id":"4","last_reported":1741263525,"current_range_meters":20400,"station_id":"ce4bhhp2rcd13ifvqfm0","pricing_plan_id":"cebpf4jnsgd1na2vs0mg"},{"bike_id":"fc60fbfd-28de-47f0-8809-01173db8a105","system_id":"levelo_inurba_marseille","lat":43.31362,"lon":5.36704,"is_reserved":false,"is_disabled":false,"rental_uris":{"android":"levelo://app?vid=fc60fbfd-28de-47f0-8809-01173db8a105","ios":"levelo://app?vid=fc60fbfd-28de-47f0-8809-01173db8a105"},"vehicle_type_id":"4","last_reported":1741263525,"current_range_meters":20800,"station_id":"ce4bgr92rcd13ifvqc6g","pricing_plan_id":"cebpf4jnsgd1na2vs0mg"},{"bike_id":"f151b0df-9c24-4287-b326-4ec99b433ef5","system_id":"levelo_inurba_marseille","lat":43.30933,"lon":5.4014,"is_reserved":false,"is_disabled":false,"rental_uris":{"android":"levelo://app?vid=f151b0df-9c24-4287-b326-4ec99b433ef5","ios":"levelo://app?vid=f151b0df-9c24-4287-b326-4ec99b433ef5"},"vehicle_type_id":"4","last_reported":1741263525,"current_range_meters":20800,"station_id":"ce4bgvp2rcd13ifvqct0","pricing_plan_id":"cebpf4jnsgd1na2vs0mg"},{"bike_id":"d1236ef5-9f28-463c-a4b5-1ac069f4c987","system_id":"levelo_inurba_marseille","lat":43.29415,"lon":5.38622,"is_reserved":false,"is_disabled":false,"rental_uris":{"android":"levelo://app?vid=d1236ef5-9f28-463c-a4b5-1ac069f4c987","ios":"levelo://app?vid=d1236ef5-9f28-463c-a4b5-1ac069f4c987"},"vehicle_type_id":"4","last_reported":1741263525,"current_range_meters":20800,"station_id":"ce4bh2h2rcd13ifvqdh0","pricing_plan_id":"cebpf4jnsgd1na2vs0mg"},{"bike_id":"0469e106-9ac0-4a96-ac12-1a0d23a48b9d","system_id":"levelo_inurba_marseille","lat":43.26552,"lon":5.37303,"is_reserved":false,"is_disabled":false,"rental_uris":{"android":"levelo://app?vid=0469e106-9ac0-4a96-ac12-1a0d23a48b9d","ios":"levelo://app?vid=0469e106-9ac0-4a96-ac12-1a0d23a48b9d"},"vehicle_type_id":"4","last_reported":1741263525,"current_range_meters":20800,"station_id":"ce4bhg12rcd13ifvqf70","pricing_plan_id":"cebpf4jnsgd1na2vs0mg"},{"bike_id":"b37d6e9f-2b77-42d8-8a3c-c3df6863002a","system_id":"levelo_inurba_marseille","lat":43.24387,"lon":5.37069,"is_reserved":false,"is_disabled":false,"rental_uris":{"android":"levelo://app?vid=b37d6e9f-2b77-42d8-8a3c-c3df6863002a","ios":"levelo://app?vid=b37d6e9f-2b77-42d8-8a3c-c3df6863002a"},"vehicle_type_id":"4","last_reported":1741263525,"current_range_meters":20800,"station_id":"ce4bhhh2rcd13ifvqfk0","pricing_plan_id":"cebpf4jnsgd1na2vs0mg"},{"bike_id":"0f4b205b-2e75-4920-8222-41053ba3d98e","system_id":"levelo_inurba_marseille","lat":43.32485,"lon":5.36557,"is_reserved":false,"is_disabled":false,"rental_uris":{"android":"levelo://app?vid=0f4b205b-2e75-4920-8222-41053ba3d98e","ios":"levelo://app?vid=0f4b205b-2e75-4920-8222-41053ba3d98e"},"vehicle_type_id":"4","last_reported":1741263525,"current_range_meters":20800,"station_id":"ce4bhs12rcd13ifvqhvg","pricing_plan_id":"cebpf4jnsgd1na2vs0mg"},{"bike_id":"30865e18-c0d9-43d3-8f10-c6f94bbccca8","system_id":"levelo_inurba_marseille","lat":43.30537,"lon":5.38424,"is_reserved":false,"is_disabled":false,"rental_uris":{"android":"levelo://app?vid=30865e18-c0d9-43d3-8f10-c6f94bbccca8","ios":"levelo://app?vid=30865e18-c0d9-43d3-8f10-c6f94bbccca8"},"vehicle_type_id":"4","last_reported":1741263525,"current_range_meters":21600,"station_id":"ce4bgg92rcd13ifvqb30","pricing_plan_id":"cebpf4jnsgd1na2vs0mg"},{"bike_id":"8da2f0dd-7caf-420f-8c66-711e33461371","system_id":"levelo_inurba_marseille","lat":43.30465,"lon":5.37902,"is_reserved":false,"is_disabled":false,"rental_uris":{"android":"levelo://app?vid=8da2f0dd-7caf-420f-8c66-711e33461371","ios":"levelo://app?vid=8da2f0dd-7caf-420f-8c66-711e33461371"},"vehicle_type_id":"4","last_reported":1741263525,"current_range_meters":21600,"station_id":"ce4bgup2rcd13ifvqcn0","pricing_plan_id":"cebpf4jnsgd1na2vs0mg"},{"bike_id":"85ea3d5a-fc87-4192-9bf1-d74c62a44121","system_id":"levelo_inurba_marseille","lat":43.30784,"lon":5.37636,"is_reserved":false,"is_disabled":false,"rental_uris":{"android":"levelo://app?vid=85ea3d5a-fc87-4192-9bf1-d74c62a44121","ios":"levelo://app?vid=85ea3d5a-fc87-4192-9bf1-d74c62a44121"},"vehicle_type_id":"4","last_reported":1741263525,"current_range_meters":21600,"station_id":"ce4bgv92rcd13ifvqcq0","pricing_plan_id":"cebpf4jnsgd1na2vs0mg"},{"bike_id":"8c0e3534-42b2-4116-9e7f-9873e8e32d92","system_id":"levelo_inurba_marseille","lat":43.28564,"lon":5.35156,"is_reserved":false,"is_disabled":false,"rental_uris":{"android":"levelo://app?vid=8c0e3534-42b2-4116-9e7f-9873e8e32d92","ios":"levelo://app?vid=8c0e3534-42b2-4116-9e7f-9873e8e32d92"},"vehicle_type_id":"4","last_reported":1741263525,"current_range_meters":21600,"station_id":"ce4bhch2rcd13ifvqeug","pricing_plan_id":"cebpf4jnsgd1na2vs0mg"},{"bike_id":"93884096-d7d4-458f-81bd-0f94691fb2cb","system_id":"levelo_inurba_marseille","lat":43.23151,"lon":5.43715,"is_reserved":false,"is_disabled":false,"rental_uris":{"android":"levelo://app?vid=93884096-d7d4-458f-81bd-0f94691fb2cb","ios":"levelo://app?vid=93884096-d7d4-458f-81bd-0f94691fb2cb"},"vehicle_type_id":"4","last_reported":1741263525,"current_range_meters":21600,"station_id":"ce4bhmp2rcd13ifvqgog","pricing_plan_id":"cebpf4jnsgd1na2vs0mg"},{"bike_id":"eaf37e50-137c-4c4d-8912-45140a711964","system_id":"levelo_inurba_marseille","lat":43.23151,"lon":5.43717,"is_reserved":false,"is_disabled":false,"rental_uris":{"android":"levelo://app?vid=eaf37e50-137c-4c4d-8912-45140a711964","ios":"levelo://app?vid=eaf37e50-137c-4c4d-8912-45140a711964"},"vehicle_type_id":"4","last_reported":1741263525,"current_range_meters":21600,"station_id":"ce4bhmp2rcd13ifvqgog","pricing_plan_id":"cebpf4jnsgd1na2vs0mg"},{"bike_id":"77ee7625-0bad-4bb5-ad4c-0e177d052153","system_id":"levelo_inurba_marseille","lat":43.31261,"lon":5.37028,"is_reserved":false,"is_disabled":false,"rental_uris":{"android":"levelo://app?vid=77ee7625-0bad-4bb5-ad4c-0e177d052153","ios":"levelo://app?vid=77ee7625-0bad-4bb5-ad4c-0e177d052153"},"vehicle_type_id":"4","last_reported":1741263525,"current_range_meters":22000,"station_id":"","pricing_plan_id":"cebpf4jnsgd1na2vs0mg"},{"bike_id":"53f675ca-c6c0-4929-adca-15805bdeb9aa","system_id":"levelo_inurba_marseille","lat":43.30538,"lon":5.36546,"is_reserved":false,"is_disabled":false,"rental_uris":{"android":"levelo://app?vid=53f675ca-c6c0-4929-adca-15805bdeb9aa","ios":"levelo://app?vid=53f675ca-c6c0-4929-adca-15805bdeb9aa"},"vehicle_type_id":"4","last_reported":1741263525,"current_range_meters":22000,"station_id":"ce4bgs12rcd13ifvqcag","pricing_plan_id":"cebpf4jnsgd1na2vs0mg"},{"bike_id":"cc16f2b0-329f-4eb6-9391-a921f49ed00e","system_id":"levelo_inurba_marseille","lat":43.30477,"lon":5.37917,"is_reserved":false,"is_disabled":false,"rental_uris":{"android":"levelo://app?vid=cc16f2b0-329f-4eb6-9391-a921f49ed00e","ios":"levelo://app?vid=cc16f2b0-329f-4eb6-9391-a921f49ed00e"},"vehicle_type_id":"4","last_reported":1741263525,"current_range_meters":22000,"station_id":"ce4bgup2rcd13ifvqcn0","pricing_plan_id":"cebpf4jnsgd1na2vs0mg"},{"bike_id":"2c94ea9a-602b-43d7-a6b7-fd8affd7eddd","system_id":"levelo_inurba_marseille","lat":43.2837,"lon":5.38639,"is_reserved":false,"is_disabled":false,"rental_uris":{"android":"levelo://app?vid=2c94ea9a-602b-43d7-a6b7-fd8affd7eddd","ios":"levelo://app?vid=2c94ea9a-602b-43d7-a6b7-fd8affd7eddd"},"vehicle_type_id":"4","last_reported":1741263525,"current_range_meters":22000,"station_id":"ce4bh492rcd13ifvqdvg","pricing_plan_id":"cebpf4jnsgd1na2vs0mg"},{"bike_id":"21a2aeec-19ec-4539-a259-d6ec8187071f","system_id":"levelo_inurba_marseille","lat":43.29194,"lon":5.35806,"is_reserved":false,"is_disabled":false,"rental_uris":{"android":"levelo://app?vid=21a2aeec-19ec-4539-a259-d6ec8187071f","ios":"levelo://app?vid=21a2aeec-19ec-4539-a259-d6ec8187071f"},"vehicle_type_id":"4","last_reported":1741263525,"current_range_meters":22000,"station_id":"ce4bhb12rcd13ifvqel0","pricing_plan_id":"cebpf4jnsgd1na2vs0mg"},{"bike_id":"2ad06afa-3831-450a-ba3c-a4aab894a0a6","system_id":"levelo_inurba_marseille","lat":43.27422,"lon":5.39416,"is_reserved":false,"is_disabled":false,"rental_uris":{"android":"levelo://app?vid=2ad06afa-3831-450a-ba3c-a4aab894a0a6","ios":"levelo://app?vid=2ad06afa-3831-450a-ba3c-a4aab894a0a6"},"vehicle_type_id":"4","last_reported":1741263525,"current_range_meters":22000,"station_id":"ce4bhdp2rcd13ifvqf20","pricing_plan_id":"cebpf4jnsgd1na2vs0mg"},{"bike_id":"efb46f35-9314-4636-a55b-d1f4849fb051","system_id":"levelo_inurba_marseille","lat":43.26561,"lon":5.39004,"is_reserved":false,"is_disabled":false,"rental_uris":{"android":"levelo://app?vid=efb46f35-9314-4636-a55b-d1f4849fb051","ios":"levelo://app?vid=efb46f35-9314-4636-a55b-d1f4849fb051"},"vehicle_type_id":"4","last_reported":1741263525,"current_range_meters":22000,"station_id":"ce4bhe12rcd13ifvqf30","pricing_plan_id":"cebpf4jnsgd1na2vs0mg"},{"bike_id":"df5bccb8-db95-45c4-a0da-e15ee410bc78","system_id":"levelo_inurba_marseille","lat":43.25727,"lon":5.41107,"is_reserved":false,"is_disabled":false,"rental_uris":{"android":"levelo://app?vid=df5bccb8-db95-45c4-a0da-e15ee410bc78","ios":"levelo://app?vid=df5bccb8-db95-45c4-a0da-e15ee410bc78"},"vehicle_type_id":"4","last_reported":1741263525,"current_range_meters":22000,"station_id":"ce4bhkp2rcd13ifvqgd0","pricing_plan_id":"cebpf4jnsgd1na2vs0mg"},{"bike_id":"b074c098-105a-483f-9325-0896897af1e3","system_id":"levelo_inurba_marseille","lat":43.23201,"lon":5.39995,"is_reserved":false,"is_disabled":false,"rental_uris":{"android":"levelo://app?vid=b074c098-105a-483f-9325-0896897af1e3","ios":"levelo://app?vid=b074c098-105a-483f-9325-0896897af1e3"},"vehicle_type_id":"4","last_reported":1741263525,"current_range_meters":22000,"station_id":"ce4bhn12rcd13ifvqgqg","pricing_plan_id":"cebpf4jnsgd1na2vs0mg"},