{"last_updated":1768724114,"ttl":60,"version":"2.2","data":{"bikes":[{"bike_id":"3bb4f388-8d72-48f0-ac2d-95655c4ae4df","system_id":"levelo_inurba_marseille","lat":43.24463,"lon":5.42537,"is_reserved":false,"is_disabled":false,"rental_uris":{"android":"levelo://app?vid=3bb4f388-8d72-48f0-ac2d-95655c4ae4df","ios":"levelo://app?vid=3bb4f388-8d72-48f0-ac2d-95655c4ae4df"},"vehicle_type_id":"4","last_reported":1768724115,"current_range_meters":2800,"station_id":"st_d4a3vfp97mjs738cd8kg","pricing_plan_id":"cebpf4jnsgd1na2vs0mg"},{"bike_id":"513ed6c4-8623-44b6-ada8-0b1c7c1ff00d","system_id":"levelo_inurba_marseille","lat":43.29834,"lon":5.37648,"is_reserved":false,"is_disabled":false,"rental_uris":{"android":"levelo://app?vid=513ed6c4-8623-44b6-ada8-0b1c7c1ff00d","ios":"levelo://app?vid=513ed6c4-8623-44b6-ada8-0b1c7c1ff00d"},"vehicle_type_id":"4","last_reported":1768724115,"current_range_meters":2800,"station_id":"","pricing_plan_id":"cebpf4jnsgd1na2vs0mg"},{"bike_id":"b99c8a93-fdcf-4884-b9c3-af61ba2c4a81","system_id":"levelo_inurba_marseille","lat":43.303053,"lon":5.392122,"is_reserved":false,"is_disabled":false,"rental_uris":{"android":"levelo://app?vid=b99c8a93-fdcf-4884-b9c3-af61ba2c4a81","ios":"levelo://app?vid=b99c8a93-fdcf-4884-b9c3-af61ba2c4a81"},"vehicle_type_id":"4","last_reported":1768724115,"current_range_meters":2800,"station_id":"ce4bgkh2rcd13ifvqbk0","pricing_plan_id":"cebpf4jnsgd1na2vs0mg"},{"bike_id":"a274104c-9fd4-4c23-abd7-0da4a9c7690c","system_id":"levelo_inurba_marseille","lat":43.29265,"lon":5.40122,"is_reserved":false,"is_disabled":true,"rental_uris":{"android":"levelo://app?vid=a274104c-9fd4-4c23-abd7-0da4a9c7690c","ios":"levelo://app?vid=a274104c-9fd4-4c23-abd7-0da4a9c7690c"},"vehicle_type_id":"4","last_reported":1768724115,"current_range_meters":2800,"station_id":"ce4bh312rcd13ifvqdk0","pricing_plan_id":"cebpf4jnsgd1na2vs0mg"},{"bike_id":"7faf58eb-ee03-481a-9f28-1064e829d8e1","system_id":"levelo_inurba_marseille","lat":43.29732,"lon":5.42792,"is_reserved":false,"is_disabled":false,"rental_uris":{"android":"levelo://app?vid=7faf58eb-ee03-481a-9f28-1064e829d8e1","ios":"levelo://app?vid=7faf58eb-ee03-481a-9f28-1064e829d8e1"},"vehicle_type_id":"4","last_reported":1768724115,"current_range_meters":2800,"station_id":"st_d3md5207bmas73dh9klg","pricing_plan_id":"cebpf4jnsgd1na2vs0mg"},{"bike_id":"ce41017a-a6c7-4223-bbd8-50e042933d47","system_id":"levelo_inurba_marseille","lat":43.32487,"lon":5.38299,"is_reserved":false,"is_disabled":false,"rental_uris":{"android":"levelo://app?vid=ce41017a-a6c7-4223-bbd8-50e042933d47","ios":"levelo://app?vid=ce41017a-a6c7-4223-bbd8-50e042933d47"},"vehicle_type_id":"4","last_reported":1768724115,"current_range_meters":2800,"station_id":"st_d4asgbiv49dc73anf9m0","pricing_plan_id":"cebpf4jnsgd1na2vs0mg"},{"bike_id":"4884e3b4-8b53-43b4-90a8-716c16790211","system_id":"levelo_inurba_marseille","lat":43.323533,"lon":5.367296,"is_reserved":false,"is_disabled":false,"rental_uris":{"android":"levelo://app?vid=4884e3b4-8b53-43b4-90a8-716c16790211","ios":"levelo://app?vid=4884e3b4-8b53-43b4-90a8-716c16790211"},"vehicle_type_id":"4","last_reported":1768724115,"current_range_meters":2800,"station_id":"ce4bhsh2rcd13ifvqi2g","pricing_plan_id":"cebpf4jnsgd1na2vs0mg"},{"bike_id":"b6c4e88c-195c-4a84-b117-44df917816ad","system_id":"levelo_inurba_marseille","lat":43.29224,"lon":5.36069,"is_reserved":false,"is_disabled":false,"rental_uris":{"android":"levelo://app?vid=b6c4e88c-195c-4a84-b117-44df917816ad","ios":"levelo://app?vid=b6c4e88c-195c-4a84-b117-44df917816ad"},"vehicle_type_id":"4","last_reported":1768724115,"current_range_meters":2800,"station_id":"ce4bhbh2rcd13ifvqeqg","pricing_plan_id":"cebpf4jnsgd1na2vs0mg"},{"bike_id":"c93295d4-3196-445e-9eef-17e591656b20","system_id":"levelo_inurba_marseille","lat":43.27816,"lon":5.40706,"is_reserved":false,"is_disabled":false,"rental_uris":{"android":"levelo://app?vid=c93295d4-3196-445e-9eef-17e591656b20","ios":"levelo://app?vid=c93295d4-3196-445e-9eef-17e591656b20"},"vehicle_type_id":"4","last_reported":1768724115,"current_range_meters":2800,"station_id":"ce4bhnh2rcd13ifvqgtg","pricing_plan_id":"cebpf4jnsgd1na2vs0mg"},{"bike_id":"bfada416-3798-466f-af74-fc5faeca59fc","system_id":"levelo_inurba_marseille","lat":43.26566,"lon":5.40325,"is_reserved":false,"is_disabled":false,"rental_uris":{"android":"levelo://app?vid=bfada416-3798-466f-af74-fc5faeca59fc","ios":"levelo://app?vid=bfada416-3798-466f-af74-fc5faeca59fc"},"vehicle_type_id":"4","last_reported":1768724115,"current_range_meters":2800,"station_id":"ce4bhmp2rcd13ifvqgng","pricing_plan_id":"cebpf4jnsgd1na2vs0mg"},{"bike_id":"12973c53-3c4b-4eeb-9bcf-3e724fe32df6","system_id":"levelo_inurba_marseille","lat":43.28161,"lon":5.4045,"is_reserved":false,"is_disabled":false,"rental_uris":{"android":"levelo://app?vid=12973c53-3c4b-4eeb-9bcf-3e724fe32df6","ios":"levelo://app?vid=12973c53-3c4b-4eeb-9bcf-3e724fe32df6"},"vehicle_type_id":"4","last_reported":1768724115,"current_range_meters":3200,"station_id":"","pricing_plan_id":"cebpf4jnsgd1na2vs0mg"},{"bike_id":"8dacb807-ae73-4531-80c9-d07102b884b1","system_id":"levelo_inurba_marseille","lat":43.306026,"lon":5.372148,"is_reserved":false,"is_disabled":false,"rental_uris":{"android":"levelo://app?vid=8dacb807-ae73-4531-80c9-d07102b884b1","ios":"levelo://app?vid=8dacb807-ae73-4531-80c9-d07102b884b1"},"vehicle_type_id":"4","last_reported":1768724115,"current_range_meters":3200,"station_id":"ce4bgqh2rcd13ifvqc4g","pricing_plan_id":"cebpf4jnsgd1na2vs0mg"},{"bike_id":"ff32f7e5-c711-4917-abef-c2fdc31c1e9b","system_id":"levelo_inurba_marseille","lat":43.28939,"lon":5.39635,"is_reserved":false,"is_disabled":false,"rental_uris":{"android":"levelo://app?vid=ff32f7e5-c711-4917-abef-c2fdc31c1e9b","ios":"levelo://app?vid=ff32f7e5-c711-4917-abef-c2fdc31c1e9b"},"vehicle_type_id":"4","last_reported":1768724115,"current_range_meters":3200,"station_id":"ce4bh3h2rcd13ifvqdn0","pricing_plan_id":"cebpf4jnsgd1na2vs0mg"},{"bike_id":"0dba0e67-842b-483d-b59d-db38abdb659c","system_id":"levelo_inurba_marseille","lat":43.258647,"lon":5.398938,"is_reserved":false,"is_disabled":false,"rental_uris":{"android":"levelo://app?vid=0dba0e67-842b-483d-b59d-db38abdb659c","ios":"levelo://app?vid=0dba0e67-842b-483d-b59d-db38abdb659c"},"vehicle_type_id":"4","last_reported":1768724115,"current_range_meters":3200,"station_id":"ce4bhl92rcd13ifvqghg","pricing_plan_id":"cebpf4jnsgd1na2vs0mg"},{"bike_id":"bd9c4f9b-d8b4-4c19-a282-e7f16c61f7b6","system_id":"levelo_inurba_marseille","lat":43.32103,"lon":5.36726,"is_reserved":false,"is_disabled":false,"rental_uris":{"android":"levelo://app?vid=bd9c4f9b-d8b4-4c19-a282-e7f16c61f7b6","ios":"levelo://app?vid=bd9c4f9b-d8b4-4c19-a282-e7f16c61f7b6"},"vehicle_type_id":"4","last_reported":1768724115,"current_range_meters":3200,"station_id":"ce4bhrh2rcd13ifvqhug","pricing_plan_id":"cebpf4jnsgd1na2vs0mg"},{"bike_id":"64616ddc-02fc-4fa3-a96e-55f8d46496f1","system_id":"levelo_inurba_marseille","lat":43.32117,"lon":5.36767,"is_reserved":false,"is_disabled":false,"rental_uris":{"android":"levelo://app?vid=64616ddc-02fc-4fa3-a96e-55f8d46496f1","ios":"levelo://app?vid=64616ddc-02fc-4fa3-a96e-55f8d46496f1"},"vehicle_type_id":"4","last_reported":1768724115,"current_range_meters":3200,"station_id":"ce4bhrh2rcd13ifvqhug","pricing_plan_id":"cebpf4jnsgd1na2vs0mg"},{"bike_id":"4984b832-6132-4a85-98d6-bb7d5604492a","system_id":"levelo_inurba_marseille","lat":43.25348,"lon":5.42193,"is_reserved":false,"is_disabled":false,"rental_uris":{"android":"levelo://app?vid=4984b832-6132-4a85-98d6-bb7d5604492a","ios":"levelo://app?vid=4984b832-6132-4a85-98d6-bb7d5604492a"},"vehicle_type_id":"4","last_reported":1768724115,"current_range_meters":3200,"station_id":"st_d2m65c5bi1j21697t3ng","pricing_plan_id":"cebpf4jnsgd1na2vs0mg"},{"bike_id":"53883162-a32e-45f2-a25b-e71336c68327","system_id":"levelo_inurba_marseille","lat":43.241679,"lon":5.363968,"is_reserved":false,"is_disabled":false,"rental_uris":{"android":"levelo://app?vid=53883162-a32e-45f2-a25b-e71336c68327","ios":"levelo://app?vid=53883162-a32e-45f2-a25b-e71336c68327"},"vehicle_type_id":"4","last_reported":1768724115,"current_range_meters":3200,"station_id":"cpo36qri1sfpv3e86is0","pricing_plan_id":"cebpf4jnsgd1na2vs0mg"},{"bike_id":"f2faf870-b1de-43b2-ad71-1d80f04f5730","system_id":"levelo_inurba_marseille","lat":43.249486,"lon":5.404966,"is_reserved":false,"is_disabled":false,"rental_uris":{"android":"levelo://app?vid=f2faf870-b1de-43b2-ad71-1d80f04f5730","ios":"levelo://app?vid=f2faf870-b1de-43b2-ad71-1d80f04f5730"},"vehicle_type_id":"4","last_reported":1768724115,"current_range_meters":3200,"station_id":"st_d2ngiaodas8pm72gd1h0","pricing_plan_id":"cebpf4jnsgd1na2vs0mg"},{"bike_id":"74a1e1f8-bb34-4287-aa1b-9f0b4e610f1e","system_id":"levelo_inurba_marseille","lat":43.3085,"lon":5.3747,"is_reserved":false,"is_disabled":false,"rental_uris":{"android":"levelo://app?vid=74a1e1f8-bb34-4287-aa1b-9f0b4e610f1e","ios":"levelo://app?vid=74a1e1f8-bb34-4287-aa1b-9f0b4e610f1e"},"vehicle_type_id":"4","last_reported":1768724115,"current_range_meters":3200,"station_id":"","pricing_plan_id":"cebpf4jnsgd1na2vs0mg"},{"bike_id":"12bdf3a8-c528-41e9-b4f5-8f4e12b00830","system_id":"levelo_inurba_marseille","lat":43.25329,"lon":5.42183,"is_reserved":false,"is_disabled":false,"rental_uris":{"android":"levelo://app?vid=12bdf3a8-c528-41e9-b4f5-8f4e12b00830","ios":"levelo://app?vid=12bdf3a8-c528-41e9-b4f5-8f4e12b00830"},"vehicle_type_id":"4","last_reported":1768724115,"current_range_meters":3200,"station_id":"st_d2m65c5bi1j21697t3ng","pricing_plan_id":"cebpf4jnsgd1na2vs0mg"},{"bike_id":"b5d67ffe-eaa4-4106-b565-a864660becc6","system_id":"levelo_inurba_marseille","lat":43.23186,"lon":5.35569,"is_reserved":false,"is_disabled":false,"rental_uris":{"android":"levelo://app?vid=b5d67ffe-eaa4-4106-b565-a864660becc6","ios":"levelo://app?vid=b5d67ffe-eaa4-4106-b565-a864660becc6"},"vehicle_type_id":"4","last_reported":1768724115,"current_range_meters":3600,"station_id":"ce4bhu92rcd13ifvqi70","pricing_plan_id":"cebpf4jnsgd1na2vs0mg"},{"bike_id":"10e5d836-06fe-47f0-9168-cead4d559e65","system_id":"levelo_inurba_marseille","lat":43.28943,"lon":5.39626,"is_reserved":false,"is_disabled":false,"rental_uris":{"android":"levelo://app?vid=10e5d836-06fe-47f0-9168-cead4d559e65","ios":"levelo://app?vid=10e5d836-06fe-47f0-9168-cead4d559e65"},"vehicle_type_id":"4","last_reported":1768724115,"current_range_meters":3600,"station_id":"ce4bh3h2rcd13ifvqdn0","pricing_plan_id":"cebpf4jnsgd1na2vs0mg"},{"bike_id":"8a9933e9-1ba0-42bc-9dfa-198447433b99","system_id":"levelo_inurba_marseille","lat":43.26059,"lon":5.39398,"is_reserved":false,"is_disabled":false,"rental_uris":{"android":"levelo://app?vid=8a9933e9-1ba0-42bc-9dfa-198447433b99","ios":"levelo://app?vid=8a9933e9-1ba0-42bc-9dfa-198447433b99"},"vehicle_type_id":"4","last_reported":1768724115,"current_range_meters":3600,"station_id":"ce4bhh92rcd13ifvqfj0","pricing_plan_id":"cebpf4jnsgd1na2vs0mg"},{"bike_id":"4946eb11-667b-4be5-bc35-6aa618cf8bcb","system_id":"levelo_inurba_marseille","lat":43.22555,"lon":5.41634,"is_reserved":false,"is_disabled":false,"rental_uris":{"android":"levelo://app?vid=4946eb11-667b-4be5-bc35-6aa618cf8bcb","ios":"levelo://app?vid=4946eb11-667b-4be5-bc35-6aa618cf8bcb"},"vehicle_type_id":"4","last_reported":1768724115,"current_range_meters":3600,"station_id":"st_d2o4gvlbi1j2169b742g","pricing_plan_id":"cebpf4jnsgd1na2vs0mg"},{"bike_id":"82b87168-267f-432c-a609-70f7b40ac901","system_id":"levelo_inurba_marseille","lat":43.27726,"lon":5.40776,"is_reserved":false,"is_disabled":false,"rental_uris":{"android":"levelo://app?vid=82b87168-267f-432c-a609-70f7b40ac901","ios":"levelo://app?vid=82b87168-267f-432c-a609-70f7b40ac901"},"vehicle_type_id":"4","last_reported":1768724115,"current_range_meters":3600,"station_id":"","pricing_plan_id":"cebpf4jnsgd1na2vs0mg"},{"bike_id":"ac7f22c4-c5a7-4c9f-94dd-f3d8404aa0c9","system_id":"levelo_inurba_marseille","lat":43.27911,"lon":5.37956,"is_reserved":false,"is_disabled":false,"rental_uris":{"android":"levelo://app?vid=ac7f22c4-c5a7-4c9f-94dd-f3d8404aa0c9","ios":"levelo://app?vid=ac7f22c4-c5a7-4c9f-94dd-f3d8404aa0c9"},"vehicle_type_id":"4","last_reported":1768724115,"current_range_meters":3600,"station_id":"ce4bhf92rcd13ifvqf50","pricing_plan_id":"cebpf4jnsgd1na2vs0mg"},{"bike_id":"93d19107-8e5b-47dc-b8af-6eee1dce6f1e","system_id":"levelo_inurba_marseille","lat":43.26554,"lon":5.373,"is_reserved":false,"is_disabled":false,"rental_uris":{"android":"levelo://app?vid=93d19107-8e5b-47dc-b8af-6eee1dce6f1e","ios":"levelo://app?vid=93d19107-8e5b-47dc-b8af-6eee1dce6f1e"},"vehicle_type_id":"4","last_reported":1768724115,"current_range_meters":3600,"station_id":"ce4bhg12rcd13ifvqf70","pricing_plan_id":"cebpf4jnsgd1na2vs0mg"},{"bike_id":"2340445d-9199-48cf-83f4-7309507be9a4","system_id":"levelo_inurba_marseille","lat":43.24455,"lon":5.42554,"is_reserved":false,"is_disabled":false,"rental_uris":{"android":"levelo://app?vid=2340445d-9199-48cf-83f4-7309507be9a4","ios":"levelo://app?vid=2340445d-9199-48cf-83f4-7309507be9a4"},"vehicle_type_id":"4","last_reported":1768724115,"current_range_meters":3600,"station_id":"st_d4a3vfp97mjs738cd8kg","pricing_plan_id":"cebpf4jnsgd1na2vs0mg"},{"bike_id":"54373d4f-1ad6-419d-b86b-78a30c30ea0f","system_id":"levelo_inurba_marseille","lat":43.317066,"lon":5.437046,"is_reserved":false,"is_disabled":false,"rental_uris":{"android":"levelo://app?vid=54373d4f-1ad6-419d-b86b-78a30c30ea0f","ios":"levelo://app?vid=54373d4f-1ad6-419d-b86b-78a30c30ea0f"},"vehicle_type_id":"4","last_reported":1768724115,"current_range_meters":3600,"station_id":"ce4bhp92rcd13ifvqhcg","pricing_plan_id":"cebpf4jnsgd1na2vs0mg"},{"bike_id":"3a36667a-93a2-47e6-8728-e382036e6f88","system_id":"levelo_inurba_marseille","lat":43.21769,"lon":5.34586,"is_reserved":false,"is_disabled":false,"rental_uris":{"android":"levelo://app?vid=3a36667a-93a2-47e6-8728-e382036e6f88","ios":"levelo://app?vid=3a36667a-93a2-47e6-8728-e382036e6f88"},"vehicle_type_id":"4","last_reported":1768724115,"current_range_meters":3600,"station_id":"st_cvj6r9ubvosntc0bgbag","pricing_plan_id":"cebpf4jnsgd1na2vs0mg"},{"bike_id":"c9b3f5f8-fbcf-481b-8f1e-5dafe85e3908","system_id":"levelo_inurba_marseille","lat":43.31181,"lon":5.38762,"is_reserved":false,"is_disabled":false,"rental_uris":{"android":"levelo://app?vid=c9b3f5f8-fbcf-481b-8f1e-5dafe85e3908","ios":"levelo://app?vid=c9b3f5f8-fbcf-481b-8f1e-5dafe85e3908"},"vehicle_type_id":"4","last_reported":1768724115,"current_range_meters":4000,"station_id":"ce4bgv12rcd13ifvqcp0","pricing_plan_id":"cebpf4jnsgd1na2vs0mg"},{"bike_id":"5046767e-783a-4712-8e13-08b5e3357478","system_id":"levelo_inurba_marseille","lat":43.26568,"lon":5.40341,"is_reserved":false,"is_disabled":false,"rental_uris":{"android":"levelo://app?vid=5046767e-783a-4712-8e13-08b5e3357478","ios":"levelo://app?vid=5046767e-783a-4712-8e13-08b5e3357478"},"vehicle_type_id":"4","last_reported":1768724115,"current_range_meters":4000,"station_id":"ce4bhmp2rcd13ifvqgng","pricing_plan_id":"cebpf4jnsgd1na2vs0mg"},{"bike_id":"46806932-3cfa-4ebe-af4a-3467d6c21a46","system_id":"levelo_inurba_marseille","lat":43.27808,"lon":5.40694,"is_reserved":false,"is_disabled":false,"rental_uris":{"android":"levelo://app?vid=46806932-3cfa-4ebe-af4a-3467d6c21a46","ios":"levelo://app?vid=46806932-3cfa-4ebe-af4a-3467d6c21a46"},"vehicle_type_id":"4","last_reported":1768724115,"current_range_meters":4000,"station_id":"ce4bhnh2rcd13ifvqgtg","pricing_plan_id":"cebpf4jnsgd1na2vs0mg"},{"bike_id":"acaa042e-c501-42e4-aaa9-5e42ce2c0a67","system_id":"levelo_inurba_marseille","lat":43.28069,"lon":5.38842,"is_reserved":false,"is_disabled":false,"rental_uris":{"android":"levelo://app?vid=acaa042e-c501-42e4-aaa9-5e42ce2c0a67","ios":"levelo://app?vid=acaa042e-c501-42e4-aaa9-5e42ce2c0a67"},"vehicle_type_id":"4","last_reported":1768724115,"current_range_meters":4000,"station_id":"","pricing_plan_id":"cebpf4jnsgd1na2vs0mg"},{"bike_id":"2675671c-3881-46f8-8b37-e9cc96a4dbb9","system_id":"levelo_inurba_marseille","lat":43.29812,"lon":5.37595,"is_reserved":false,"is_disabled":false,"rental_uris":{"android":"levelo://app?vid=2675671c-3881-46f8-8b37-e9cc96a4dbb9","ios":"levelo://app?vid=2675671c-3881-46f8-8b37-e9cc96a4dbb9"},"vehicle_type_id":"4","last_reported":1768724115,"current_range_meters":4000,"station_id":"","pricing_plan_id":"cebpf4jnsgd1na2vs0mg"},{"bike_id":"252a01eb-733e-461c-bfde-ad296dc94be6","system_id":"levelo_inurba_marseille","lat":43.30599,"lon":5.37553,"is_reserved":false,"is_disabled":false,"rental_uris":{"android":"levelo://app?vid=252a01eb-733e-461c-bfde-ad296dc94be6","ios":"levelo://app?vid=252a01eb-733e-461c-bfde-ad296dc94be6"},"vehicle_type_id":"4","last_reported":1768724115,"current_range_meters":4000,"station_id":"","pricing_plan_id":"cebpf4jnsgd1na2vs0mg"},{"bike_id":"7176f1ca-8b5e-490b-a2c6-30442fad6105","system_id":"levelo_inurba_marseille","lat":43.28545,"lon":5.44109,"is_reserved":false,"is_disabled":false,"rental_uris":{"android":"levelo://app?vid=7176f1ca-8b5e-490b-a2c6-30442fad6105","ios":"levelo://app?vid=7176f1ca-8b5e-490b-a2c6-30442fad6105"},"vehicle_type_id":"4","last_reported":1768724115,"current_range_meters":4000,"station_id":"st_d3j3df2ikq2c7380ej80","pricing_plan_id":"cebpf4jnsgd1na2vs0mg"},{"bike_id":"f27d777b-6544-4f21-a823-e930164ef3bc","system_id":"levelo_inurba_marseille","lat":43.30926,"lon":5.40139,"is_reserved":false,"is_disabled":false,"rental_uris":{"android":"levelo://app?vid=f27d777b-6544-4f21-a823-e930164ef3bc","ios":"levelo://app?vid=f27d777b-6544-4f21-a823-e930164ef3bc"},"vehicle_type_id":"4","last_reported":1768724115,"current_range_meters":4000,"station_id":"ce4bgvp2rcd13ifvqct0","pricing_plan_id":"cebpf4jnsgd1na2vs0mg"},{"bike_id":"e91e3903-60f1-4c5a-bc80-d327c473e2e7","system_id":"levelo_inurba_marseille","lat":43.254968,"lon":5.376539,"is_reserved":false,"is_disabled":false,"rental_uris":{"android":"levelo://app?vid=e91e3903-60f1-4c5a-bc80-d327c473e2e7","ios":"levelo://app?vid=e91e3903-60f1-4c5a-bc80-d327c473e2e7"},"vehicle_type_id":"4","last_reported":1768724115,"current_range_meters":4000,"station_id":"ce4bhh12rcd13ifvqff0","pricing_plan_id":"cebpf4jnsgd1na2vs0mg"},{"bike_id":"b61188c0-9590-46e5-be62-ff02194516dc","system_id":"levelo_inurba_marseille","lat":43.32495,"lon":5.38298,"is_reserved":false,"is_disabled":false,"rental_uris":{"android":"levelo://app?vid=b61188c0-9590-46e5-be62-ff02194516dc","ios":"levelo://app?vid=b61188c0-9590-46e5-be62-ff02194516dc"},"vehicle_type_id":"4","last_reported":1768724115,"current_range_meters":4000,"station_id":"st_d4asgbiv49dc73anf9m0","pricing_plan_id":"cebpf4jnsgd1na2vs0mg"},{"bike_id":"f3d775a3-f599-439d-bd34-f2266ddda566","system_id":"levelo_inurba_marseille","lat":43.323477,"lon":5.3674,"is_reserved":false,"is_disabled":false,"rental_uris":{"android":"levelo://app?vid=f3d775a3-f599-439d-bd34-f2266ddda566","ios":"levelo://app?vid=f3d775a3-f599-439d-bd34-f2266ddda566"},"vehicle_type_id":"4","last_reported":1768724115,"current_range_meters":4000,"station_id":"ce4bhsh2rcd13ifvqi2g","pricing_plan_id":"cebpf4jnsgd1na2vs0mg"},{"bike_id":"ab96d693-0de6-43f1-85b1-d62380e9052b","system_id":"levelo_inurba_marseille","lat":43.27986,"lon":5.39987,"is_reserved":false,"is_disabled":false,"rental_uris":{"android":"levelo://app?vid=ab96d693-0de6-43f1-85b1-d62380e9052b","ios":"levelo://app?vid=ab96d693-0de6-43f1-85b1-d62380e9052b"},"vehicle_type_id":"4","last_reported":1768724115,"current_range_meters":4400,"station_id":"ce4bho92rcd13ifvqh4g","pricing_plan_id":"cebpf4jnsgd1na2vs0mg"},{"bike_id":"ec1861e3-cf5e-47e7-9bee-92fe639b30f4","system_id":"levelo_inurba_marseille","lat":43.24536,"lon":5.39503,"is_reserved":false,"is_disabled":false,"rental_uris":{"android":"levelo://app?vid=ec1861e3-cf5e-47e7-9bee-92fe639b30f4","ios":"levelo://app?vid=ec1861e3-cf5e-47e7-9bee-92fe639b30f4"},"vehicle_type_id":"4","last_reported":1768724115,"current_range_meters":4400,"station_id":"ce4bhlp2rcd13ifvqgjg","pricing_plan_id":"cebpf4jnsgd1na2vs0mg"},{"bike_id":"40d3dc88-0f80-474c-b9b5-fa3b55d5a0df","system_id":"levelo_inurba_marseille","lat":43.28541,"lon":5.441,"is_reserved":false,"is_disabled":false,"rental_uris":{"android":"levelo://app?vid=40d3dc88-0f80-474c-b9b5-fa3b55d5a0df","ios":"levelo://app?vid=40d3dc88-0f80-474c-b9b5-fa3b55d5a0df"},"vehicle_type_id":"4","last_reported":1768724115,"current_range_meters":4400,"station_id":"st_d3j3df2ikq2c7380ej80","pricing_plan_id":"cebpf4jnsgd1na2vs0mg"},{"bike_id":"2c4b1f11-b410-4a3d-a8e3-83ab665a60a1","system_id":"levelo_inurba_marseille","lat":43.30408,"lon":5.36624,"is_reserved":false,"is_disabled":false,"rental_uris":{"android":"levelo://app?vid=2c4b1f11-b410-4a3d-a8e3-83ab665a60a1","ios":"levelo://app?vid=2c4b1f11-b410-4a3d-a8e3-83ab665a60a1"},"vehicle_type_id":"4","last_reported":1768724115,"current_range_meters":4400,"station_id":"","pricing_plan_id":"cebpf4jnsgd1na2vs0mg"},{"bike_id":"8ea32f00-9912-46cc-8294-16fbcc66d07b","system_id":"levelo_inurba_marseille","lat":43.30924,"lon":5.4015,"is_reserved":false,"is_disabled":false,"rental_uris":{"android":"levelo://app?vid=8ea32f00-9912-46cc-8294-16fbcc66d07b","ios":"levelo://app?vid=8ea32f00-9912-46cc-8294-16fbcc66d07b"},"vehicle_type_id":"4","last_reported":1768724115,"current_range_meters":4400,"station_id":"ce4bgvp2rcd13ifvqct0","pricing_plan_id":"cebpf4jnsgd1na2vs0mg"},{"bike_id":"f0a83361-5351-404b-ab85-c3162bb75598","system_id":"levelo_inurba_marseille","lat":43.23194,"lon":5.35547,"is_reserved":false,"is_disabled":false,"rental_uris":{"android":"levelo://app?vid=f0a83361-5351-404b-ab85-c3162bb75598","ios":"levelo://app?vid=f0a83361-5351-404b-ab85-c3162bb75598"},"vehicle_type_id":"4","last_reported":1768724115,"current_range_meters":4400,"station_id":"ce4bhu92rcd13ifvqi70","pricing_plan_id":"cebpf4jnsgd1na2vs0mg"},{"bike_id":"b15f60fa-4b9a-40de-b626-bc1e6287e8d8","system_id":"levelo_inurba_marseille","lat":43.257258,"lon":5.411118,"is_reserved":false,"is_disabled":false,"rental_uris":{"android":"levelo://app?vid=b15f60fa-4b9a-40de-b626-bc1e6287e8d8","ios":"levelo://app?vid=b15f60fa-4b9a-40de-b626-bc1e6287e8d8"},"vehicle_type_id":"4","last_reported":1768724115,"current_range_meters":4400,"station_id":"ce4bhkp2rcd13ifvqgd0","pricing_plan_id":"cebpf4jnsgd1na2vs0mg"},{"bike_id":"dfa72997-bdba-48f4-a1d1-63ff5130518c","system_id":"levelo_inurba_marseille","lat":43.32363,"lon":5.36767,"is_reserved":false,"is_disabled":false,"rental_uris":{"android":"levelo://app?vid=dfa72997-bdba-48f4-a1d1-63ff5130518c","ios":"levelo://app?vid=dfa72997-bdba-48f4-a1d1-63ff5130518c"},"vehicle_type_id":"4","last_reported":1768724115,"current_range_meters":4800,"station_id":"ce4bhsh2rcd13ifvqi2g","pricing_plan_id":"cebpf4jnsgd1na2vs0mg"},{"bike_id":"763d5379-7bf1-4867-9d13-c1561dbe521b","system_id":"levelo_inurba_marseille","lat":43.244645,"lon":5.425329,"is_reserved":false,"is_disabled":false,"rental_uris":{"android":"levelo://app?vid=763d5379-7bf1-4867-9d13-c1561dbe521b","ios":"levelo://app?vid=763d5379-7bf1-4867-9d13-c1561dbe521b"},"vehicle_type_id":"4","last_reported":1768724115,"current_range_meters":4800,"station_id":"st_d4a3vfp97mjs738cd8kg","pricing_plan_id":"cebpf4jnsgd1na2vs0mg"},{"bike_id":"0105de79-43a8-4de9-af65-6d3d110a6400","system_id":"levelo_inurba_marseille","lat":43.24165,"lon":5.39741,"is_reserved":false,"is_disabled":false,"rental_uris":{"android":"levelo://app?vid=0105de79-43a8-4de9-af65-6d3d110a6400","ios":"levelo://app?vid=0105de79-43a8-4de9-af65-6d3d110a6400"},"vehicle_type_id":"4","last_reported":1768724115,"current_range_meters":4800,"station_id":"ce4bhn12rcd13ifvqgpg","pricing_plan_id":"cebpf4jnsgd1na2vs0mg"},{"bike_id":"3b428159-9a79-4525-99b4-23377c48a4e1","system_id":"levelo_inurba_marseille","lat":43.30894,"lon":5.39634,"is_reserved":false,"is_disabled":false,"rental_uris":{"android":"levelo://app?vid=3b428159-9a79-4525-99b4-23377c48a4e1","ios":"levelo://app?vid=3b428159-9a79-4525-99b4-23377c48a4e1"},"vehicle_type_id":"4","last_reported":1768724115,"current_range_meters":4800,"station_id":"ce4bh012rcd13ifvqcv0","pricing_plan_id":"cebpf4jnsgd1na2vs0mg"},{"bike_id":"8cd4145c-7ee4-4622-b85e-33a89b02d290","system_id":"levelo_inurba_marseille","lat":43.217499,"lon":5.346013,"is_reserved":false,"is_disabled":false,"rental_uris":{"android":"levelo://app?vid=8cd4145c-7ee4-4622-b85e-33a89b02d290","ios":"levelo://app?vid=8cd4145c-7ee4-4622-b85e-33a89b02d290"},"vehicle_type_id":"4","last_reported":1768724115,"current_range_meters":4800,"station_id":"st_cvj6r9ubvosntc0bgbag","pricing_plan_id":"cebpf4jnsgd1na2vs0mg"},{"bike_id":"d3f1b0a6-185c-4fa2-9ef4-12f8e80b3e6a","system_id":"levelo_inurba_marseille","lat":43.29004,"lon":5.35617,"is_reserved":false,"is_disabled":false,"rental_uris":{"android":"levelo://app?vid=d3f1b0a6-185c-4fa2-9ef4-12f8e80b3e6a","ios":"levelo://app?vid=d3f1b0a6-185c-4fa2-9ef4-12f8e80b3e6a"},"vehicle_type_id":"4","last_reported":1768724115,"current_range_meters":4800,"station_id":"ce4bhb92rcd13ifvqen0","pricing_plan_id":"cebpf4jnsgd1na2vs0mg"},{"bike_id":"a7ede7a1-de3b-485f-bb68-62cac497b7c9","system_id":"levelo_inurba_marseille","lat":43.29035,"lon":5.37562,"is_reserved":false,"is_disabled":false,"rental_uris":{"android":"levelo://app?vid=a7ede7a1-de3b-485f-bb68-62cac497b7c9","ios":"levelo://app?vid=a7ede7a1-de3b-485f-bb68-62cac497b7c9"},"vehicle_type_id":"4","last_reported":1768724115,"current_range_meters":4800,"station_id":"ce4bh692rcd13ifvqe90","pricing_plan_id":"cebpf4jnsgd1na2vs0mg"},{"bike_id":"2e59ab37-51b4-434c-9efd-dbfcceedd362","system_id":"levelo_inurba_marseille","lat":43.32363,"lon":5.36756,"is_reserved":false,"is_disabled":false,"rental_uris":{"android":"levelo://app?vid=2e59ab37-51b4-434c-9efd-dbfcceedd362","ios":"levelo://app?vid=2e59ab37-51b4-434c-9efd-dbfcceedd362"},"vehicle_type_id":"4","last_reported":1768724115,"current_range_meters":5600,"station_id":"ce4bhsh2rcd13ifvqi2g","pricing_plan_id":"cebpf4jnsgd1na2vs0mg"},{"bike_id":"bb07dfed-85dc-4af8-8fd2-5ea8c9b12b59","system_id":"levelo_inurba_marseille","lat":43.255813,"lon":5.382338,"is_reserved":false,"is_disabled":false,"rental_uris":{"android":"levelo://app?vid=bb07dfed-85dc-4af8-8fd2-5ea8c9b12b59","ios":"levelo://app?vid=bb07dfed-85dc-4af8-8fd2-5ea8c9b12b59"},"vehicle_type_id":"4","last_reported":1768724115,"current_range_meters":5600,"station_id":"ce4bhih2rcd13ifvqfs0","pricing_plan_id":"cebpf4jnsgd1na2vs0mg"},{"bike_id":"2b145973-3802-427d-9998-97f195dc402b","system_id":"levelo_inurba_marseille","lat":43.23189,"lon":5.35579,"is_reserved":false,"is_disabled":false,"rental_uris":{"android":"levelo://app?vid=2b145973-3802-427d-9998-97f195dc402b","ios":"levelo://app?vid=2b145973-3802-427d-9998-97f195dc402b"},"vehicle_type_id":"4","last_reported":1768724115,"current_range_meters":5600,"station_id":"ce4bhu92rcd13ifvqi70","pricing_plan_id":"cebpf4jnsgd1na2vs0mg"},{"bike_id":"de890674-a00b-4313-ae9c-0f8495e4953e","system_id":"levelo_inurba_marseille","lat":43.282755,"lon":5.350588,"is_reserved":false,"is_disabled":false,"rental_uris":{"android":"levelo://app?vid=de890674-a00b-4313-ae9c-0f8495e4953e","ios":"levelo://app?vid=de890674-a00b-4313-ae9c-0f8495e4953e"},"vehicle_type_id":"4","last_reported":1768724115,"current_range_meters":5600,"station_id":"ce4bhbp2rcd13ifvqerg","pricing_plan_id":"cebpf4jnsgd1na2vs0mg"},{"bike_id":"dc2a51a7-64f4-4158-b84a-2791d926c053","system_id":"levelo_inurba_marseille","lat":43.31302,"lon":5.38185,"is_reserved":false,"is_disabled":false,"rental_uris":{"android":"levelo://app?vid=dc2a51a7-64f4-4158-b84a-2791d926c053","ios":"levelo://app?vid=dc2a51a7-64f4-4158-b84a-2791d926c053"},"vehicle_type_id":"4","last_reported":1768724115,"current_range_meters":5600,"station_id":"","pricing_plan_id":"cebpf4jnsgd1na2vs0mg"},{"bike_id":"937d90e0-a5db-43d2-9364-92db8adcffb4","system_id":"levelo_inurba_marseille","lat":43.25339,"lon":5.42179,"is_reserved":false,"is_disabled":false,"rental_uris":{"android":"levelo://app?vid=937d90e0-a5db-43d2-9364-92db8adcffb4","ios":"levelo://app?vid=937d90e0-a5db-43d2-9364-92db8adcffb4"},"vehicle_type_id":"4","last_reported":1768724115,"current_range_meters":5600,"station_id":"st_d2m65c5bi1j21697t3ng","pricing_plan_id":"cebpf4jnsgd1na2vs0mg"},{"bike_id":"24fd007e-1bb4-4653-974d-a1e9e478c87f","system_id":"levelo_inurba_marseille","lat":43.24168,"lon":5.3641,"is_reserved":false,"is_disabled":false,"rental_uris":{"android":"levelo://app?vid=24fd007e-1bb4-4653-974d-a1e9e478c87f","ios":"levelo://app?vid=24fd007e-1bb4-4653-974d-a1e9e478c87f"},"vehicle_type_id":"4","last_reported":1768724115,"current_range_meters":5600,"station_id":"cpo36qri1sfpv3e86is0","pricing_plan_id":"cebpf4jnsgd1na2vs0mg"},{"bike_id":"87350e61-368a-4de9-a080-78764da5bd65","system_id":"levelo_inurba_marseille","lat":43.284773,"lon":5.48396,"is_reserved":false,"is_disabled":false,"rental_uris":{"android":"levelo://app?vid=87350e61-368a-4de9-a080-78764da5bd65","ios":"levelo://app?vid=87350e61-368a-4de9-a080-78764da5bd65"},"vehicle_type_id":"4","last_reported":1768724115,"current_range_meters":5600,"station_id":"","pricing_plan_id":"cebpf4jnsgd1na2vs0mg"},{"bike_id":"eacc92f4-9f5a-4634-b7ee-66e8ca464cb9","system_id":"levelo_inurba_marseille","lat":43.30917,"lon":5.36881,"is_reserved":false,"is_disabled":false,"rental_uris":{"android":"levelo://app?vid=eacc92f4-9f5a-4634-b7ee-66e8ca464cb9","ios":"levelo://app?vid=eacc92f4-9f5a-4634-b7ee-66e8ca464cb9"},"vehicle_type_id":"4","last_reported":1768724115,"current_range_meters":6000,"station_id":"ce4bgn92rcd13ifvqbvg","pricing_plan_id":"cebpf4jnsgd1na2vs0mg"},{"bike_id":"ff2d3e5a-0e52-4f3a-ad99-d57d4a209ef1","system_id":"levelo_inurba_marseille","lat":43.30174,"lon":5.37412,"is_reserved":false,"is_disabled":false,"rental_uris":{"android":"levelo://app?vid=ff2d3e5a-0e52-4f3a-ad99-d57d4a209ef1","ios":"levelo://app?vid=ff2d3e5a-0e52-4f3a-ad99-d57d4a209ef1"},"vehicle_type_id":"4","last_reported":1768724115,"current_range_meters":6000,"station_id":"ce4bgs92rcd13ifvqcc0","pricing_plan_id":"cebpf4jnsgd1na2vs0mg"},{"bike_id":"9f9ee95b-a709-468f-875a-8cf12fad1678","system_id":"levelo_inurba_marseille","lat":43.30167,"lon":5.37434,"is_reserved":false,"is_disabled":false,"rental_uris":{"android":"levelo://app?vid=9f9ee95b-a709-468f-875a-8cf12fad1678","ios":"levelo://app?vid=9f9ee95b-a709-468f-875a-8cf12fad1678"},"vehicle_type_id":"4","last_reported":1768724115,"current_range_meters":6000,"station_id":"ce4bgs92rcd13ifvqcc0","pricing_plan_id":"cebpf4jnsgd1na2vs0mg"},{"bike_id":"e6872936-d756-4b20-b25b-25e2aeef4bd8","system_id":"levelo_inurba_marseille","lat":43.23192,"lon":5.35553,"is_reserved":false,"is_disabled":false,"rental_uris":{"android":"levelo://app?vid=e6872936-d756-4b20-b25b-25e2aeef4bd8","ios":"levelo://app?vid=e6872936-d756-4b20-b25b-25e2aeef4bd8"},"vehicle_type_id":"4","last_reported":1768724115,"current_range_meters":6000,"station_id":"ce4bhu92rcd13ifvqi70","pricing_plan_id":"cebpf4jnsgd1na2vs0mg"},{"bike_id":"36210777-fc61-46fb-9fff-dbb7888395c3","system_id":"levelo_inurba_marseille","lat":43.29699,"lon":5.38194,"is_reserved":false,"is_disabled":false,"rental_uris":{"android":"levelo://app?vid=36210777-fc61-46fb-9fff-dbb7888395c3","ios":"levelo://app?vid=36210777-fc61-46fb-9fff-dbb7888395c3"},"vehicle_type_id":"4","last_reported":1768724115,"current_range_meters":6000,"station_id":"","pricing_plan_id":"cebpf4jnsgd1na2vs0mg"},{"bike_id":"dbba0a0b-4a48-431c-b93f-cc7a9adf711d","system_id":"levelo_inurba_marseille","lat":43.297907,"lon":5.380864,"is_reserved":false,"is_disabled":true,"rental_uris":{"android":"levelo://app?vid=dbba0a0b-4a48-431c-b93f-cc7a9adf711d","ios":"levelo://app?vid=dbba0a0b-4a48-431c-b93f-cc7a9adf711d"},"vehicle_type_id":"4","last_reported":1768724115,"current_range_meters":6000,"station_id":"ce4bgip2rcd13ifvqbb0","pricing_plan_id":"cebpf4jnsgd1na2vs0mg"},{"bike_id":"878dde24-bede-4e19-ae02-67a59c493306","system_id":"levelo_inurba_marseille","lat":43.27953,"lon":5.41059,"is_reserved":false,"is_disabled":false,"rental_uris":{"android":"levelo://app?vid=878dde24-bede-4e19-ae02-67a59c493306","ios":"levelo://app?vid=878dde24-bede-4e19-ae02-67a59c493306"},"vehicle_type_id":"4","last_reported":1768724115,"current_range_meters":6000,"station_id":"ce4bhnp2rcd13ifvqh0g","pricing_plan_id":"cebpf4jnsgd1na2vs0mg"},{"bike_id":"32a026f3-f702-4bc9-bd30-7b2e64df35ea","system_id":"levelo_inurba_marseille","lat":43.30929,"lon":5.40151,"is_reserved":false,"is_disabled":false,"rental_uris":{"android":"levelo://app?vid=32a026f3-f702-4bc9-bd30-7b2e64df35ea","ios":"levelo://app?vid=32a026f3-f702-4bc9-bd30-7b2e64df35ea"},"vehicle_type_id":"4","last_reported":1768724115,"current_range_meters":6000,"station_id":"ce4bgvp2rcd13ifvqct0","pricing_plan_id":"cebpf4jnsgd1na2vs0mg"},{"bike_id":"791cb4d0-546f-4f96-b131-34cd64d89ad7","system_id":"levelo_inurba_marseille","lat":43.28151,"lon":5.4264,"is_reserved":false,"is_disabled":false,"rental_uris":{"android":"levelo://app?vid=791cb4d0-546f-4f96-b131-34cd64d89ad7","ios":"levelo://app?vid=791cb4d0-546f-4f96-b131-34cd64d89ad7"},"vehicle_type_id":"4","last_reported":1768724115,"current_range_meters":6000,"station_id":"ce4bhnh2rcd13ifvqgug","pricing_plan_id":"cebpf4jnsgd1na2vs0mg"},{"bike_id":"fdeddf5a-97ec-44e9-b387-06a93cc2e9eb","system_id":"levelo_inurba_marseille","lat":43.27979,"lon":5.38707,"is_reserved":false,"is_disabled":false,"rental_uris":{"android":"levelo://app?vid=fdeddf5a-97ec-44e9-b387-06a93cc2e9eb","ios":"levelo://app?vid=fdeddf5a-97ec-44e9-b387-06a93cc2e9eb"},"vehicle_type_id":"4","last_reported":1768724115,"current_range_meters":6000,"station_id":"ce4bhg12rcd13ifvqf80","pricing_plan_id":"cebpf4jnsgd1na2vs0mg"},{"bike_id":"efc44575-cac7-4f53-a260-0df63e66c214","system_id":"levelo_inurba_marseille","lat":43.26545,"lon":5.37286,"is_reserved":false,"is_disabled":false,"rental_uris":{"android":"levelo://app?vid=efc44575-cac7-4f53-a260-0df63e66c214","ios":"levelo://app?vid=efc44575-cac7-4f53-a260-0df63e66c214"},"vehicle_type_id":"4","last_reported":1768724115,"current_range_meters":6000,"station_id":"ce4bhg12rcd13ifvqf70","pricing_plan_id":"cebpf4jnsgd1na2vs0mg"},{"bike_id":"d16700cb-ba4c-4823-80e9-8e58db3e2e5c","system_id":"levelo_inurba_marseille","lat":43.25911,"lon":5.40862,"is_reserved":false,"is_disabled":false,"rental_uris":{"android":"levelo://app?vid=d16700cb-ba4c-4823-80e9-8e58db3e2e5c","ios":"levelo://app?vid=d16700cb-ba4c-4823-80e9-8e58db3e2e5c"},"vehicle_type_id":"4","last_reported":1768724115,"current_range_meters":6000,"station_id":"ce4bhm92rcd13ifvqglg","pricing_plan_id":"cebpf4jnsgd1na2vs0mg"},{"bike_id":"7e56f2aa-c907-404a-a5a6-866d9725ac4e","system_id":"levelo_inurba_marseille","lat":43.265021,"lon":5.395356,"is_reserved":false,"is_disabled":false,"rental_uris":{"android":"levelo://app?vid=7e56f2aa-c907-404a-a5a6-866d9725ac4e","ios":"levelo://app?vid=7e56f2aa-c907-404a-a5a6-866d9725ac4e"},"vehicle_type_id":"4","last_reported":1768724115,"current_range_meters":6000,"station_id":"ce4bhi12rcd13ifvqfq0","pricing_plan_id":"cebpf4jnsgd1na2vs0mg"},{"bike_id":"ca60ba64-a62a-4877-bd7b-adbdf64e9bf1","system_id":"levelo_inurba_marseille","lat":43.30355,"lon":5.41884,"is_reserved":false,"is_disabled":false,"rental_uris":{"android":"levelo://app?vid=ca60ba64-a62a-4877-bd7b-adbdf64e9bf1","ios":"levelo://app?vid=ca60ba64-a62a-4877-bd7b-adbdf64e9bf1"},"vehicle_type_id":"4","last_reported":1768724115,"current_range_meters":6400,"station_id":"ce4bhop2rcd13ifvqh7g","pricing_plan_id":"cebpf4jnsgd1na2vs0mg"},{"bike_id":"573eadbb-c1ca-4c6e-b5f8-9acf544eb555","system_id":"levelo_inurba_marseille","lat":43.29276,"lon":5.40135,"is_reserved":false,"is_disabled":false,"rental_uris":{"android":"levelo://app?vid=573eadbb-c1ca-4c6e-b5f8-9acf544eb555","ios":"levelo://app?vid=573eadbb-c1ca-4c6e-b5f8-9acf544eb555"},"vehicle_type_id":"4","last_reported":1768724115,"current_range_meters":6400,"station_id":"ce4bh312rcd13ifvqdk0","pricing_plan_id":"cebpf4jnsgd1na2vs0mg"},{"bike_id":"c978491e-4f9a-40e3-8365-8371dd595780","system_id":"levelo_inurba_marseille","lat":43.29569,"lon":5.37529,"is_reserved":false,"is_disabled":false,"rental_uris":{"android":"levelo://app?vid=c978491e-4f9a-40e3-8365-8371dd595780","ios":"levelo://app?vid=c978491e-4f9a-40e3-8365-8371dd595780"},"vehicle_type_id":"4","last_reported":1768724115,"current_range_meters":6400,"station_id":"ce4bgh92rcd13ifvqb50","pricing_plan_id":"cebpf4jnsgd1na2vs0mg"},{"bike_id":"36ed8b7e-587c-4c5f-b09f-07884d111249","system_id":"levelo_inurba_marseille","lat":43.24996,"lon":5.38914,"is_reserved":false,"is_disabled":false,"rental_uris":{"android":"levelo://app?vid=36ed8b7e-587c-4c5f-b09f-07884d111249","ios":"levelo://app?vid=36ed8b7e-587c-4c5f-b09f-07884d111249"},"vehicle_type_id":"4","last_reported":1768724115,"current_range_meters":6400,"station_id":"ce4bhgp2rcd13ifvqfd0","pricing_plan_id":"cebpf4jnsgd1na2vs0mg"},{"bike_id":"d657cf9a-89e3-455b-b3a0-0b088f505c04","system_id":"levelo_inurba_marseille","lat":43.29257,"lon":5.38447,"is_reserved":false,"is_disabled":true,"rental_uris":{"android":"levelo://app?vid=d657cf9a-89e3-455b-b3a0-0b088f505c04","ios":"levelo://app?vid=d657cf9a-89e3-455b-b3a0-0b088f505c04"},"vehicle_type_id":"4","last_reported":1768724115,"current_range_meters":6400,"station_id":"ce4bh692rcd13ifvqea0","pricing_plan_id":"cebpf4jnsgd1na2vs0mg"},{"bike_id":"9e22bfa9-2a50-4ed5-b9b2-cd25f6476383","system_id":"levelo_inurba_marseille","lat":43.23187,"lon":5.399816,"is_reserved":false,"is_disabled":false,"rental_uris":{"android":"levelo://app?vid=9e22bfa9-2a50-4ed5-b9b2-cd25f6476383","ios":"levelo://app?vid=9e22bfa9-2a50-4ed5-b9b2-cd25f6476383"},"vehicle_type_id":"4","last_reported":1768724115,"current_range_meters":6400,"station_id":"ce4bhn12rcd13ifvqgqg","pricing_plan_id":"cebpf4jnsgd1na2vs0mg"},{"bike_id":"34c66c70-d3e2-4b84-b84c-2f238c05e82f","system_id":"levelo_inurba_marseille","lat":43.32345,"lon":5.3674,"is_reserved":false,"is_disabled":false,"rental_uris":{"android":"levelo://app?vid=34c66c70-d3e2-4b84-b84c-2f238c05e82f","ios":"levelo://app?vid=34c66c70-d3e2-4b84-b84c-2f238c05e82f"},"vehicle_type_id":"4","last_reported":1768724115,"current_range_meters":6400,"station_id":"ce4bhsh2rcd13ifvqi2g","pricing_plan_id":"cebpf4jnsgd1na2vs0mg"},{"bike_id":"0045d04d-0a17-4adb-9b95-74fb938426e3","system_id":"levelo_inurba_marseille","lat":43.29625,"lon":5.406035,"is_reserved":false,"is_disabled":false,"rental_uris":{"android":"levelo://app?vid=0045d04d-0a17-4adb-9b95-74fb938426e3","ios":"levelo://app?vid=0045d04d-0a17-4adb-9b95-74fb938426e3"},"vehicle_type_id":"4","last_reported":1768724115,"current_range_meters":6400,"station_id":"ce4bh0h2rcd13ifvqd60","pricing_plan_id":"cebpf4jnsgd1na2vs0mg"},{"bike_id":"923a293c-cb5e-4620-acad-ddc8186290d8","system_id":"levelo_inurba_marseille","lat":43.24651,"lon":5.388896,"is_reserved":false,"is_disabled":false,"rental_uris":{"android":"levelo://app?vid=923a293c-cb5e-4620-acad-ddc8186290d8","ios":"levelo://app?vid=923a293c-cb5e-4620-acad-ddc8186290d8"},"vehicle_type_id":"4","last_reported":1768724115,"current_range_meters":6400,"station_id":"ce4bhg12rcd13ifvqf60","pricing_plan_id":"cebpf4jnsgd1na2vs0mg"},{"bike_id":"1c7752d6-3957-41a3-b756-451c1e115cff","system_id":"levelo_inurba_marseille","lat":43.26586,"lon":5.39032,"is_reserved":false,"is_disabled":false,"rental_uris":{"android":"levelo://app?vid=1c7752d6-3957-41a3-b756-451c1e115cff","ios":"levelo://app?vid=1c7752d6-3957-41a3-b756-451c1e115cff"},"vehicle_type_id":"4","last_reported":1768724115,"current_range_meters":6400,"station_id":"ce4bhe12rcd13ifvqf30","pricing_plan_id":"cebpf4jnsgd1na2vs0mg"},{"bike_id":"49ecf593-a1c9-4420-b6f0-bea038ba7420","system_id":"levelo_inurba_marseille","lat":43.31296,"lon":5.3791,"is_reserved":false,"is_disabled":false,"rental_uris":{"android":"levelo://app?vid=49ecf593-a1c9-4420-b6f0-bea038ba7420","ios":"levelo://app?vid=49ecf593-a1c9-4420-b6f0-bea038ba7420"},"vehicle_type_id":"4","last_reported":1768724115,"current_range_meters":6400,"station_id":"","pricing_plan_id":"cebpf4jnsgd1na2vs0mg"},{"bike_id":"3de79ba5-6bdb-408d-95bd-3f4b9c83991c","system_id":"levelo_inurba_marseille","lat":43.29519,"lon":5.37887,"is_reserved":false,"is_disabled":false,"rental_uris":{"android":"levelo://app?vid=3de79ba5-6bdb-408d-95bd-3f4b9c83991c","ios":"levelo://app?vid=3de79ba5-6bdb-408d-95bd-3f4b9c83991c"},"vehicle_type_id":"4","last_reported":1768724115,"current_range_meters":6400,"station_id":"","pricing_plan_id":"cebpf4jnsgd1na2vs0mg"},{"bike_id":"463320f5-e892-41ba-802c-8be01b12e869","system_id":"levelo_inurba_marseille","lat":43.22923,"lon":5.35392,"is_reserved":false,"is_disabled":false,"rental_uris":{"android":"levelo://app?vid=463320f5-e892-41ba-802c-8be01b12e869","ios":"levelo://app?vid=463320f5-e892-41ba-802c-8be01b12e869"},"vehicle_type_id":"4","last_reported":1768724115,"current_range_meters":6400,"station_id":"cpo3532slgdg3j2ikp40","pricing_plan_id":"cebpf4jnsgd1na2vs0mg"},{"bike_id":"c1c26299-6653-4ca3-a249-59cfdd0e29f0","system_id":"levelo_inurba_marseille","lat":43.271865,"lon":5.409884,"is_reserved":false,"is_disabled":false,"rental_uris":{"android":"levelo://app?vid=c1c26299-6653-4ca3-a249-59cfdd0e29f0","ios":"levelo://app?vid=c1c26299-6653-4ca3-a249-59cfdd0e29f0"},"vehicle_type_id":"4","last_reported":1768724115,"current_range_meters":6400,"station_id":"ce4bhl12rcd13ifvqgf0","pricing_plan_id":"cebpf4jnsgd1na2vs0mg"},{"bike_id":"772223ce-24bf-4e7e-9860-3e6b11fe1be5","system_id":"levelo_inurba_marseille","lat":43.2487,"lon":5.40777,"is_reserved":false,"is_disabled":false,"rental_uris":{"android":"levelo://app?vid=772223ce-24bf-4e7e-9860-3e6b11fe1be5","ios":"levelo://app?vid=772223ce-24bf-4e7e-9860-3e6b11fe1be5"},"vehicle_type_id":"4","last_reported":1768724115,"current_range_meters":6400,"station_id":"","pricing_plan_id":"cebpf4jnsgd1na2vs0mg"},{"bike_id":"ae2ada0f-2a33-43e3-9de1-cb58095a1999","system_id":"levelo_inurba_marseille","lat":43.3087,"lon":5.39658,"is_reserved":false,"is_disabled":false,"rental_uris":{"android":"levelo://app?vid=ae2ada0f-2a33-43e3-9de1-cb58095a1999","ios":"levelo://app?vid=ae2ada0f-2a33-43e3-9de1-cb58095a1999"},"vehicle_type_id":"4","last_reported":1768724115,"current_range_meters":6400,"station_id":"ce4bh012rcd13ifvqcv0","pricing_plan_id":"cebpf4jnsgd1na2vs0mg"},{"bike_id":"2a5a3e25-d115-4865-9217-12f5237a0224","system_id":"levelo_inurba_marseille","lat":43.25355,"lon":5.42169,"is_reserved":false,"is_disabled":false,"rental_uris":{"android":"levelo://app?vid=2a5a3e25-d115-4865-9217-12f5237a0224","ios":"levelo://app?vid=2a5a3e25-d115-4865-9217-12f5237a0224"},"vehicle_type_id":"4","last_reported":1768724115,"current_range_meters":6400,"station_id":"st_d2m65c5bi1j21697t3ng","pricing_plan_id":"cebpf4jnsgd1na2vs0mg"},{"bike_id":"0cdf86fa-1d6f-4140-aa62-b930ff22d688","system_id":"levelo_inurba_marseille","lat":43.253314,"lon":5.421746,"is_reserved":false,"is_disabled":false,"rental_uris":{"android":"levelo://app?vid=0cdf86fa-1d6f-4140-aa62-b930ff22d688","ios":"levelo://app?vid=0cdf86fa-1d6f-4140-aa62-b930ff22d688"},"vehicle_type_id":"4","last_reported":1768724115,"current_range_meters":6800,"station_id":"st_d2m65c5bi1j21697t3ng","pricing_plan_id":"cebpf4jnsgd1na2vs0mg"},{"bike_id":"ef3f1e70-32c3-4923-9ca7-95ec1e3cefa1","system_id":"levelo_inurba_marseille","lat":43.28206,"lon":5.38147,"is_reserved":false,"is_disabled":false,"rental_uris":{"android":"levelo://app?vid=ef3f1e70-32c3-4923-9ca7-95ec1e3cefa1","ios":"levelo://app?vid=ef3f1e70-32c3-4923-9ca7-95ec1e3cefa1"},"vehicle_type_id":"4","last_reported":1768724115,"current_range_meters":6800,"station_id":"","pricing_plan_id":"cebpf4jnsgd1na2vs0mg"},{"bike_id":"1ec247ef-5ae2-4481-a8f1-83d49de262d8","system_id":"levelo_inurba_marseille","lat":43.255809,"lon":5.38246,"is_reserved":false,"is_disabled":false,"rental_uris":{"android":"levelo://app?vid=1ec247ef-5ae2-4481-a8f1-83d49de262d8","ios":"levelo://app?vid=1ec247ef-5ae2-4481-a8f1-83d49de262d8"},"vehicle_type_id":"4","last_reported":1768724115,"current_range_meters":6800,"station_id":"ce4bhih2rcd13ifvqfs0","pricing_plan_id":"cebpf4jnsgd1na2vs0mg"},{"bike_id":"aedd631f-bbfa-40e3-8be0-4b1d882c129d","system_id":"levelo_inurba_marseille","lat":43.251185,"lon":5.403119,"is_reserved":false,"is_disabled":false,"rental_uris":{"android":"levelo://app?vid=aedd631f-bbfa-40e3-8be0-4b1d882c129d","ios":"levelo://app?vid=aedd631f-bbfa-40e3-8be0-4b1d882c129d"},"vehicle_type_id":"4","last_reported":1768724115,"current_range_meters":6800,"station_id":"ce4bhlh2rcd13ifvqgig","pricing_plan_id":"cebpf4jnsgd1na2vs0mg"},{"bike_id":"3320b44f-28ee-4e99-ab1b-4906eed292fe","system_id":"levelo_inurba_marseille","lat":43.315,"lon":5.37316,"is_reserved":false,"is_disabled":false,"rental_uris":{"android":"levelo://app?vid=3320b44f-28ee-4e99-ab1b-4906eed292fe","ios":"levelo://app?vid=3320b44f-28ee-4e99-ab1b-4906eed292fe"},"vehicle_type_id":"4","last_reported":1768724115,"current_range_meters":6800,"station_id":"ce4bgt12rcd13ifvqcd0","pricing_plan_id":"cebpf4jnsgd1na2vs0mg"},{"bike_id":"aec78a62-6e5d-409d-8248-259d8204ee4a","system_id":"levelo_inurba_marseille","lat":43.29181,"lon":5.39325,"is_reserved":false,"is_disabled":false,"rental_uris":{"android":"levelo://app?vid=aec78a62-6e5d-409d-8248-259d8204ee4a","ios":"levelo://app?vid=aec78a62-6e5d-409d-8248-259d8204ee4a"},"vehicle_type_id":"4","last_reported":1768724115,"current_range_meters":6800,"station_id":"ce4bh192rcd13ifvqdd0","pricing_plan_id":"cebpf4jnsgd1na2vs0mg"},{"bike_id":"e7214ada-a28a-4f98-a0df-b615cdc95b49","system_id":"levelo_inurba_marseille","lat":43.24653,"lon":5.38165,"is_reserved":false,"is_disabled":false,"rental_uris":{"android":"levelo://app?vid=e7214ada-a28a-4f98-a0df-b615cdc95b49","ios":"levelo://app?vid=e7214ada-a28a-4f98-a0df-b615cdc95b49"},"vehicle_type_id":"4","last_reported":1768724115,"current_range_meters":6800,"station_id":"ce4bhih2rcd13ifvqfr0","pricing_plan_id":"cebpf4jnsgd1na2vs0mg"},{"bike_id":"ddef4d4f-5883-4484-bc03-0df24418699a","system_id":"levelo_inurba_marseille","lat":43.21751,"lon":5.34604,"is_reserved":false,"is_disabled":false,"rental_uris":{"android":"levelo://app?vid=ddef4d4f-5883-4484-bc03-0df24418699a","ios":"levelo://app?vid=ddef4d4f-5883-4484-bc03-0df24418699a"},"vehicle_type_id":"4","last_reported":1768724115,"current_range_meters":6800,"station_id":"st_cvj6r9ubvosntc0bgbag","pricing_plan_id":"cebpf4jnsgd1na2vs0mg"},{"bike_id":"9271202c-ac33-4e20-a909-7ef90d7a11c4","system_id":"levelo_inurba_marseille","lat":43.30615,"lon":5.37635,"is_reserved":false,"is_disabled":false,"rental_uris":{"android":"levelo://app?vid=9271202c-ac33-4e20-a909-7ef90d7a11c4","ios":"levelo://app?vid=9271202c-ac33-4e20-a909-7ef90d7a11c4"},"vehicle_type_id":"4","last_reported":1768724115,"current_range_meters":6800,"station_id":"","pricing_plan_id":"cebpf4jnsgd1na2vs0mg"},{"bike_id":"168fb7c0-bb3d-4dc2-b81c-95a7d644950b","system_id":"levelo_inurba_marseille","lat":43.28112,"lon":5.42642,"is_reserved":false,"is_disabled":false,"rental_uris":{"android":"levelo://app?vid=168fb7c0-bb3d-4dc2-b81c-95a7d644950b","ios":"levelo://app?vid=168fb7c0-bb3d-4dc2-b81c-95a7d644950b"},"vehicle_type_id":"4","last_reported":1768724115,"current_range_meters":6800,"station_id":"ce4bhnh2rcd13ifvqgug","pricing_plan_id":"cebpf4jnsgd1na2vs0mg"},{"bike_id":"d6618e16-298b-459f-8763-b9bd216e1a8c","system_id":"levelo_inurba_marseille","lat":43.28999,"lon":5.35608,"is_reserved":false,"is_disabled":false,"rental_uris":{"android":"levelo://app?vid=d6618e16-298b-459f-8763-b9bd216e1a8c","ios":"levelo://app?vid=d6618e16-298b-459f-8763-b9bd216e1a8c"},"vehicle_type_id":"4","last_reported":1768724115,"current_range_meters":7200,"station_id":"ce4bhb92rcd13ifvqen0","pricing_plan_id":"cebpf4jnsgd1na2vs0mg"},{"bike_id":"3edcb619-e140-4ca7-af08-f551c6a288f3","system_id":"levelo_inurba_marseille","lat":43.28484,"lon":5.48403,"is_reserved":false,"is_disabled":false,"rental_uris":{"android":"levelo://app?vid=3edcb619-e140-4ca7-af08-f551c6a288f3","ios":"levelo://app?vid=3edcb619-e140-4ca7-af08-f551c6a288f3"},"vehicle_type_id":"4","last_reported":1768724115,"current_range_meters":7200,"station_id":"","pricing_plan_id":"cebpf4jnsgd1na2vs0mg"},{"bike_id":"6116392c-6b86-47a5-bcc7-c95cae236d34","system_id":"levelo_inurba_marseille","lat":43.27815,"lon":5.40725,"is_reserved":false,"is_disabled":false,"rental_uris":{"android":"levelo://app?vid=6116392c-6b86-47a5-bcc7-c95cae236d34","ios":"levelo://app?vid=6116392c-6b86-47a5-bcc7-c95cae236d34"},"vehicle_type_id":"4","last_reported":1768724115,"current_range_meters":7200,"station_id":"ce4bhnh2rcd13ifvqgtg","pricing_plan_id":"cebpf4jnsgd1na2vs0mg"},{"bike_id":"7eded3b1-4745-4b4d-b80d-d88da3addd51","system_id":"levelo_inurba_marseille","lat":43.276146,"lon":5.361031,"is_reserved":false,"is_disabled":false,"rental_uris":{"android":"levelo://app?vid=7eded3b1-4745-4b4d-b80d-d88da3addd51","ios":"levelo://app?vid=7eded3b1-4745-4b4d-b80d-d88da3addd51"},"vehicle_type_id":"4","last_reported":1768724115,"current_range_meters":7200,"station_id":"ce4bgj92rcd13ifvqbe0","pricing_plan_id":"cebpf4jnsgd1na2vs0mg"},{"bike_id":"632c49af-b0f7-4ef5-8faa-80577c4d9e02","system_id":"levelo_inurba_marseille","lat":43.31069,"lon":5.38353,"is_reserved":false,"is_disabled":false,"rental_uris":{"android":"levelo://app?vid=632c49af-b0f7-4ef5-8faa-80577c4d9e02","ios":"levelo://app?vid=632c49af-b0f7-4ef5-8faa-80577c4d9e02"},"vehicle_type_id":"4","last_reported":1768724115,"current_range_meters":7200,"station_id":"ce4bgv92rcd13ifvqcr0","pricing_plan_id":"cebpf4jnsgd1na2vs0mg"},{"bike_id":"5e957bb0-b205-462f-b5e5-df60c0ace1a5","system_id":"levelo_inurba_marseille","lat":43.23756,"lon":5.36668,"is_reserved":false,"is_disabled":false,"rental_uris":{"android":"levelo://app?vid=5e957bb0-b205-462f-b5e5-df60c0ace1a5","ios":"levelo://app?vid=5e957bb0-b205-462f-b5e5-df60c0ace1a5"},"vehicle_type_id":"4","last_reported":1768724115,"current_range_meters":7200,"station_id":"st_d3nk18o9ro0c73en2l3g","pricing_plan_id":"cebpf4jnsgd1na2vs0mg"},{"bike_id":"9a96c7ff-aee0-42fe-87ea-dad07da0d7ef","system_id":"levelo_inurba_marseille","lat":43.265158,"lon":5.395341,"is_reserved":false,"is_disabled":false,"rental_uris":{"android":"levelo://app?vid=9a96c7ff-aee0-42fe-87ea-dad07da0d7ef","ios":"levelo://app?vid=9a96c7ff-aee0-42fe-87ea-dad07da0d7ef"},"vehicle_type_id":"4","last_reported":1768724115,"current_range_meters":7200,"station_id":"ce4bhi12rcd13ifvqfq0","pricing_plan_id":"cebpf4jnsgd1na2vs0mg"},{"bike_id":"f559ecaa-810f-4111-8b9b-3003d9733761","system_id":"levelo_inurba_marseille","lat":43.30152,"lon":5.38084,"is_reserved":false,"is_disabled":false,"rental_uris":{"android":"levelo://app?vid=f559ecaa-810f-4111-8b9b-3003d9733761","ios":"levelo://app?vid=f559ecaa-810f-4111-8b9b-3003d9733761"},"vehicle_type_id":"4","last_reported":1768724115,"current_range_meters":7200,"station_id":"ce4bgjp2rcd13ifvqbh0","pricing_plan_id":"cebpf4jnsgd1na2vs0mg"},{"bike_id":"50cd05ce-7e96-4a8b-a0ac-336aca34ff03","system_id":"levelo_inurba_marseille","lat":43.29284,"lon":5.40108,"is_reserved":false,"is_disabled":false,"rental_uris":{"android":"levelo://app?vid=50cd05ce-7e96-4a8b-a0ac-336aca34ff03","ios":"levelo://app?vid=50cd05ce-7e96-4a8b-a0ac-336aca34ff03"},"vehicle_type_id":"4","last_reported":1768724115,"current_range_meters":7200,"station_id":"ce4bh312rcd13ifvqdk0","pricing_plan_id":"cebpf4jnsgd1na2vs0mg"},{"bike_id":"bfcb0a93-17dd-4715-a1db-5bf28af099d3","system_id":"levelo_inurba_marseille","lat":43.31317,"lon":5.39685,"is_reserved":false,"is_disabled":false,"rental_uris":{"android":"levelo://app?vid=bfcb0a93-17dd-4715-a1db-5bf28af099d3","ios":"levelo://app?vid=bfcb0a93-17dd-4715-a1db-5bf28af099d3"},"vehicle_type_id":"4","last_reported":1768724115,"current_range_meters":7200,"station_id":"ce4bgvp2rcd13ifvqcu0","pricing_plan_id":"cebpf4jnsgd1na2vs0mg"},{"bike_id":"8de8b54d-ad44-4bfe-b86e-f06e0a2ec0cd","system_id":"levelo_inurba_marseille","lat":43.31579,"lon":5.3793,"is_reserved":false,"is_disabled":false,"rental_uris":{"android":"levelo://app?vid=8de8b54d-ad44-4bfe-b86e-f06e0a2ec0cd","ios":"levelo://app?vid=8de8b54d-ad44-4bfe-b86e-f06e0a2ec0cd"},"vehicle_type_id":"4","last_reported":1768724115,"current_range_meters":7200,"station_id":"","pricing_plan_id":"cebpf4jnsgd1na2vs0mg"},{"bike_id":"bb3766c0-d3b2-4bd2-8882-5c09e4176cea","system_id":"levelo_inurba_marseille","lat":43.28345,"lon":5.38113,"is_reserved":false,"is_disabled":false,"rental_uris":{"android":"levelo://app?vid=bb3766c0-d3b2-4bd2-8882-5c09e4176cea","ios":"levelo://app?vid=bb3766c0-d3b2-4bd2-8882-5c09e4176cea"},"vehicle_type_id":"4","last_reported":1768724115,"current_range_meters":7200,"station_id":"ce4bh412rcd13ifvqdr0","pricing_plan_id":"cebpf4jnsgd1na2vs0mg"},{"bike_id":"cddc8cba-0793-4ae1-9748-684c9f43e271","system_id":"levelo_inurba_marseille","lat":43.30847,"lon":5.39701,"is_reserved":false,"is_disabled":false,"rental_uris":{"android":"levelo://app?vid=cddc8cba-0793-4ae1-9748-684c9f43e271","ios":"levelo://app?vid=cddc8cba-0793-4ae1-9748-684c9f43e271"},"vehicle_type_id":"4","last_reported":1768724115,"current_range_meters":7200,"station_id":"","pricing_plan_id":"cebpf4jnsgd1na2vs0mg"},{"bike_id":"4160c95a-911c-47a2-8c82-0f403b2f4a3a","system_id":"levelo_inurba_marseille","lat":43.28423,"lon":5.34985,"is_reserved":false,"is_disabled":false,"rental_uris":{"android":"levelo://app?vid=4160c95a-911c-47a2-8c82-0f403b2f4a3a","ios":"levelo://app?vid=4160c95a-911c-47a2-8c82-0f403b2f4a3a"},"vehicle_type_id":"4","last_reported":1768724115,"current_range_meters":7200,"station_id":"ce4bhbh2rcd13ifvqepg","pricing_plan_id":"cebpf4jnsgd1na2vs0mg"},{"bike_id":"bcda77ef-d425-4420-9325-feb91e21d37e","system_id":"levelo_inurba_marseille","lat":43.28493,"lon":5.48426,"is_reserved":false,"is_disabled":false,"rental_uris":{"android":"levelo://app?vid=bcda77ef-d425-4420-9325-feb91e21d37e","ios":"levelo://app?vid=bcda77ef-d425-4420-9325-feb91e21d37e"},"vehicle_type_id":"4","last_reported":1768724115,"current_range_meters":7200,"station_id":"","pricing_plan_id":"cebpf4jnsgd1na2vs0mg"},{"bike_id":"aa15a51a-9791-4194-8067-5640d12a247c","system_id":"levelo_inurba_marseille","lat":43.24164,"lon":5.36413,"is_reserved":false,"is_disabled":false,"rental_uris":{"android":"levelo://app?vid=aa15a51a-9791-4194-8067-5640d12a247c","ios":"levelo://app?vid=aa15a51a-9791-4194-8067-5640d12a247c"},"vehicle_type_id":"4","last_reported":1768724115,"current_range_meters":7200,"station_id":"cpo36qri1sfpv3e86is0","pricing_plan_id":"cebpf4jnsgd1na2vs0mg"},{"bike_id":"bd6b7033-d838-49d2-9f9e-c7224fde7095","system_id":"levelo_inurba_marseille","lat":43.24654,"lon":5.38169,"is_reserved":false,"is_disabled":false,"rental_uris":{"android":"levelo://app?vid=bd6b7033-d838-49d2-9f9e-c7224fde7095","ios":"levelo://app?vid=bd6b7033-d838-49d2-9f9e-c7224fde7095"},"vehicle_type_id":"4","last_reported":1768724115,"current_range_meters":7200,"station_id":"ce4bhih2rcd13ifvqfr0","pricing_plan_id":"cebpf4jnsgd1na2vs0mg"},{"bike_id":"bb74209e-c6a8-44ea-96c7-046161e5ebb1","system_id":"levelo_inurba_marseille","lat":43.229262,"lon":5.353749,"is_reserved":false,"is_disabled":false,"rental_uris":{"android":"levelo://app?vid=bb74209e-c6a8-44ea-96c7-046161e5ebb1","ios":"levelo://app?vid=bb74209e-c6a8-44ea-96c7-046161e5ebb1"},"vehicle_type_id":"4","last_reported":1768724115,"current_range_meters":7200,"station_id":"cpo3532slgdg3j2ikp40","pricing_plan_id":"cebpf4jnsgd1na2vs0mg"},{"bike_id":"5274e3ae-55b9-47ed-87a5-b88518db8850","system_id":"levelo_inurba_marseille","lat":43.27913,"lon":5.39576,"is_reserved":false,"is_disabled":false,"rental_uris":{"android":"levelo://app?vid=5274e3ae-55b9-47ed-87a5-b88518db8850","ios":"levelo://app?vid=5274e3ae-55b9-47ed-87a5-b88518db8850"},"vehicle_type_id":"4","last_reported":1768724115,"current_range_meters":7200,"station_id":"ce4bhf92rcd13ifvqf40","pricing_plan_id":"cebpf4jnsgd1na2vs0mg"},{"bike_id":"73c7a783-2390-4143-8418-3e834504ca8a","system_id":"levelo_inurba_marseille","lat":43.29054,"lon":5.39946,"is_reserved":false,"is_disabled":false,"rental_uris":{"android":"levelo://app?vid=73c7a783-2390-4143-8418-3e834504ca8a","ios":"levelo://app?vid=73c7a783-2390-4143-8418-3e834504ca8a"},"vehicle_type_id":"4","last_reported":1768724115,"current_range_meters":8000,"station_id":"ce4bh392rcd13ifvqdm0","pricing_plan_id":"cebpf4jnsgd1na2vs0mg"},{"bike_id":"767eff67-48e3-4244-b425-866fa6739ce0","system_id":"levelo_inurba_marseille","lat":43.23184,"lon":5.39973,"is_reserved":false,"is_disabled":false,"rental_uris":{"android":"levelo://app?vid=767eff67-48e3-4244-b425-866fa6739ce0","ios":"levelo://app?vid=767eff67-48e3-4244-b425-866fa6739ce0"},"vehicle_type_id":"4","last_reported":1768724115,"current_range_meters":8000,"station_id":"ce4bhn12rcd13ifvqgqg","pricing_plan_id":"cebpf4jnsgd1na2vs0mg"},{"bike_id":"c55653aa-3b40-49b8-ab2e-4981db381d01","system_id":"levelo_inurba_marseille","lat":43.279927,"lon":5.416603,"is_reserved":false,"is_disabled":false,"rental_uris":{"android":"levelo://app?vid=c55653aa-3b40-49b8-ab2e-4981db381d01","ios":"levelo://app?vid=c55653aa-3b40-49b8-ab2e-4981db381d01"},"vehicle_type_id":"4","last_reported":1768724115,"current_range_meters":8000,"station_id":"ce4bho12rcd13ifvqh1g","pricing_plan_id":"cebpf4jnsgd1na2vs0mg"},{"bike_id":"45bb7221-e7aa-41a9-b651-ce7642ffb4d6","system_id":"levelo_inurba_marseille","lat":43.278114,"lon":5.40716,"is_reserved":false,"is_disabled":false,"rental_uris":{"android":"levelo://app?vid=45bb7221-e7aa-41a9-b651-ce7642ffb4d6","ios":"levelo://app?vid=45bb7221-e7aa-41a9-b651-ce7642ffb4d6"},"vehicle_type_id":"4","last_reported":1768724115,"current_range_meters":8000,"station_id":"ce4bhnh2rcd13ifvqgtg","pricing_plan_id":"cebpf4jnsgd1na2vs0mg"},{"bike_id":"2fa7b407-6340-4fb7-b9f7-523ee592e1a0","system_id":"levelo_inurba_marseille","lat":43.25576,"lon":5.38237,"is_reserved":false,"is_disabled":false,"rental_uris":{"android":"levelo://app?vid=2fa7b407-6340-4fb7-b9f7-523ee592e1a0","ios":"levelo://app?vid=2fa7b407-6340-4fb7-b9f7-523ee592e1a0"},"vehicle_type_id":"4","last_reported":1768724115,"current_range_meters":8000,"station_id":"ce4bhih2rcd13ifvqfs0","pricing_plan_id":"cebpf4jnsgd1na2vs0mg"},{"bike_id":"d311ffc7-6d26-41ec-96e5-fc35ec52cdc7","system_id":"levelo_inurba_marseille","lat":43.32359,"lon":5.3676,"is_reserved":false,"is_disabled":false,"rental_uris":{"android":"levelo://app?vid=d311ffc7-6d26-41ec-96e5-fc35ec52cdc7","ios":"levelo://app?vid=d311ffc7-6d26-41ec-96e5-fc35ec52cdc7"},"vehicle_type_id":"4","last_reported":1768724115,"current_range_meters":8000,"station_id":"ce4bhsh2rcd13ifvqi2g","pricing_plan_id":"cebpf4jnsgd1na2vs0mg"},{"bike_id":"b28a97c3-16e4-4be8-8147-34db1e170408","system_id":"levelo_inurba_marseille","lat":43.28145,"lon":5.42647,"is_reserved":false,"is_disabled":false,"rental_uris":{"android":"levelo://app?vid=b28a97c3-16e4-4be8-8147-34db1e170408","ios":"levelo://app?vid=b28a97c3-16e4-4be8-8147-34db1e170408"},"vehicle_type_id":"4","last_reported":1768724115,"current_range_meters":8000,"station_id":"ce4bhnh2rcd13ifvqgug","pricing_plan_id":"cebpf4jnsgd1na2vs0mg"},{"bike_id":"07bb76d4-422a-4c87-90ad-e08ace96a760","system_id":"levelo_inurba_marseille","lat":43.24406,"lon":5.40087,"is_reserved":false,"is_disabled":false,"rental_uris":{"android":"levelo://app?vid=07bb76d4-422a-4c87-90ad-e08ace96a760","ios":"levelo://app?vid=07bb76d4-422a-4c87-90ad-e08ace96a760"},"vehicle_type_id":"4","last_reported":1768724115,"current_range_meters":8000,"station_id":"","pricing_plan_id":"cebpf4jnsgd1na2vs0mg"},{"bike_id":"724da048-f937-4446-a0b2-3f881c76c59a","system_id":"levelo_inurba_marseille","lat":43.28151,"lon":5.42636,"is_reserved":false,"is_disabled":false,"rental_uris":{"android":"levelo://app?vid=724da048-f937-4446-a0b2-3f881c76c59a","ios":"levelo://app?vid=724da048-f937-4446-a0b2-3f881c76c59a"},"vehicle_type_id":"4","last_reported":1768724115,"current_range_meters":8000,"station_id":"ce4bhnh2rcd13ifvqgug","pricing_plan_id":"cebpf4jnsgd1na2vs0mg"},{"bike_id":"bf443dfe-f19a-49ca-ab0a-ace202cd3776","system_id":"levelo_inurba_marseille","lat":43.301384,"lon":5.374265,"is_reserved":false,"is_disabled":false,"rental_uris":{"android":"levelo://app?vid=bf443dfe-f19a-49ca-ab0a-ace202cd3776","ios":"levelo://app?vid=bf443dfe-f19a-49ca-ab0a-ace202cd3776"},"vehicle_type_id":"4","last_reported":1768724115,"current_range_meters":8000,"station_id":"ce4bgs92rcd13ifvqcc0","pricing_plan_id":"cebpf4jnsgd1na2vs0mg"},{"bike_id":"d75d6a8b-66aa-4deb-820e-ef260a5410b0","system_id":"levelo_inurba_marseille","lat":43.23183,"lon":5.39996,"is_reserved":false,"is_disabled":false,"rental_uris":{"android":"levelo://app?vid=d75d6a8b-66aa-4deb-820e-ef260a5410b0","ios":"levelo://app?vid=d75d6a8b-66aa-4deb-820e-ef260a5410b0"},"vehicle_type_id":"4","last_reported":1768724115,"current_range_meters":8000,"station_id":"ce4bhn12rcd13ifvqgqg","pricing_plan_id":"cebpf4jnsgd1na2vs0mg"},{"bike_id":"02bf7a4c-8844-41f4-9ad9-8ab41f7538c4","system_id":"levelo_inurba_marseille","lat":43.30963,"lon":5.39052,"is_reserved":false,"is_disabled":true,"rental_uris":{"android":"levelo://app?vid=02bf7a4c-8844-41f4-9ad9-8ab41f7538c4","ios":"levelo://app?vid=02bf7a4c-8844-41f4-9ad9-8ab41f7538c4"},"vehicle_type_id":"4","last_reported":1768724115,"current_range_meters":8000,"station_id":"ce4bgup2rcd13ifvqco0","pricing_plan_id":"cebpf4jnsgd1na2vs0mg"},{"bike_id":"0e7e404d-f2be-4a77-8821-df9240fef7f0","system_id":"levelo_inurba_marseille","lat":43.30932,"lon":5.40166,"is_reserved":false,"is_disabled":false,"rental_uris":{"android":"levelo://app?vid=0e7e404d-f2be-4a77-8821-df9240fef7f0","ios":"levelo://app?vid=0e7e404d-f2be-4a77-8821-df9240fef7f0"},"vehicle_type_id":"4","last_reported":1768724115,"current_range_meters":8000,"station_id":"ce4bgvp2rcd13ifvqct0","pricing_plan_id":"cebpf4jnsgd1na2vs0mg"},{"bike_id":"848b23ea-2c41-462c-8a29-ee9c18139e8c","system_id":"levelo_inurba_marseille","lat":43.31224,"lon":5.36905,"is_reserved":false,"is_disabled":false,"rental_uris":{"android":"levelo://app?vid=848b23ea-2c41-462c-8a29-ee9c18139e8c","ios":"levelo://app?vid=848b23ea-2c41-462c-8a29-ee9c18139e8c"},"vehicle_type_id":"4","last_reported":1768724115,"current_range_meters":8000,"station_id":"ce4bgl92rcd13ifvqbq0","pricing_plan_id":"cebpf4jnsgd1na2vs0mg"},{"bike_id":"bcb6fd23-eb51-4278-a994-eb47185edae8","system_id":"levelo_inurba_marseille","lat":43.2961,"lon":5.37885,"is_reserved":false,"is_disabled":false,"rental_uris":{"android":"levelo://app?vid=bcb6fd23-eb51-4278-a994-eb47185edae8","ios":"levelo://app?vid=bcb6fd23-eb51-4278-a994-eb47185edae8"},"vehicle_type_id":"4","last_reported":1768724115,"current_range_meters":8000,"station_id":"","pricing_plan_id":"cebpf4jnsgd1na2vs0mg"},{"bike_id":"a8fe342c-fcc2-4754-8f9e-460330301f49","system_id":"levelo_inurba_marseille","lat":43.31688,"lon":5.40469,"is_reserved":false,"is_disabled":false,"rental_uris":{"android":"levelo://app?vid=a8fe342c-fcc2-4754-8f9e-460330301f49","ios":"levelo://app?vid=a8fe342c-fcc2-4754-8f9e-460330301f49"},"vehicle_type_id":"4","last_reported":1768724115,"current_range_meters":8000,"station_id":"ce4bh012rcd13ifvqd00","pricing_plan_id":"cebpf4jnsgd1na2vs0mg"},{"bike_id":"2b38c1fe-7b40-40b3-a3f9-5013de1a9ac2","system_id":"levelo_inurba_marseille","lat":43.26223,"lon":5.37459,"is_reserved":false,"is_disabled":false,"rental_uris":{"android":"levelo://app?vid=2b38c1fe-7b40-40b3-a3f9-5013de1a9ac2","ios":"levelo://app?vid=2b38c1fe-7b40-40b3-a3f9-5013de1a9ac2"},"vehicle_type_id":"4","last_reported":1768724115,"current_range_meters":8400,"station_id":"","pricing_plan_id":"cebpf4jnsgd1na2vs0mg"},{"bike_id":"63fce7c8-7f43-4b72-8789-b89a53e74737","system_id":"levelo_inurba_marseille","lat":43.29196,"lon":5.393396,"is_reserved":false,"is_disabled":false,"rental_uris":{"android":"levelo://app?vid=63fce7c8-7f43-4b72-8789-b89a53e74737","ios":"levelo://app?vid=63fce7c8-7f43-4b72-8789-b89a53e74737"},"vehicle_type_id":"4","last_reported":1768724115,"current_range_meters":8400,"station_id":"ce4bh192rcd13ifvqdd0","pricing_plan_id":"cebpf4jnsgd1na2vs0mg"},{"bike_id":"76b4a274-d884-412f-a0de-86ee91443c8c","system_id":"levelo_inurba_marseille","lat":43.28414,"lon":5.37516,"is_reserved":false,"is_disabled":false,"rental_uris":{"android":"levelo://app?vid=76b4a274-d884-412f-a0de-86ee91443c8c","ios":"levelo://app?vid=76b4a274-d884-412f-a0de-86ee91443c8c"},"vehicle_type_id":"4","last_reported":1768724115,"current_range_meters":8400,"station_id":"ce4bh412rcd13ifvqds0","pricing_plan_id":"cebpf4jnsgd1na2vs0mg"},{"bike_id":"132d2f49-bf2d-4fdc-8224-9766c2457bfd","system_id":"levelo_inurba_marseille","lat":43.26058,"lon":5.39397,"is_reserved":false,"is_disabled":false,"rental_uris":{"android":"levelo://app?vid=132d2f49-bf2d-4fdc-8224-9766c2457bfd","ios":"levelo://app?vid=132d2f49-bf2d-4fdc-8224-9766c2457bfd"},"vehicle_type_id":"4","last_reported":1768724115,"current_range_meters":8400,"station_id":"ce4bhh92rcd13ifvqfj0","pricing_plan_id":"cebpf4jnsgd1na2vs0mg"},{"bike_id":"15783ada-2900-4389-8e59-9733596d6397","system_id":"levelo_inurba_marseille","lat":43.28461,"lon":5.35883,"is_reserved":false,"is_disabled":false,"rental_uris":{"android":"levelo://app?vid=15783ada-2900-4389-8e59-9733596d6397","ios":"levelo://app?vid=15783ada-2900-4389-8e59-9733596d6397"},"vehicle_type_id":"4","last_reported":1768724115,"current_range_meters":8400,"station_id":"ce4bhah2rcd13ifvqei0","pricing_plan_id":"cebpf4jnsgd1na2vs0mg"},{"bike_id":"a8f5c21d-88da-440c-b956-bd918d0088fd","system_id":"levelo_inurba_marseille","lat":43.23203,"lon":5.35551,"is_reserved":false,"is_disabled":false,"rental_uris":{"android":"levelo://app?vid=a8f5c21d-88da-440c-b956-bd918d0088fd","ios":"levelo://app?vid=a8f5c21d-88da-440c-b956-bd918d0088fd"},"vehicle_type_id":"4","last_reported":1768724115,"current_range_meters":8400,"station_id":"ce4bhu92rcd13ifvqi70","pricing_plan_id":"cebpf4jnsgd1na2vs0mg"},{"bike_id":"90ae9b61-bd04-438f-aa50-b55b97b5816a","system_id":"levelo_inurba_marseille","lat":43.217412,"lon":5.346058,"is_reserved":false,"is_disabled":false,"rental_uris":{"android":"levelo://app?vid=90ae9b61-bd04-438f-aa50-b55b97b5816a","ios":"levelo://app?vid=90ae9b61-bd04-438f-aa50-b55b97b5816a"},"vehicle_type_id":"4","last_reported":1768724115,"current_range_meters":8400,"station_id":"","pricing_plan_id":"cebpf4jnsgd1na2vs0mg"},{"bike_id":"894a0977-5656-4a03-aa3f-1587f7cf7530","system_id":"levelo_inurba_marseille","lat":43.32583,"lon":5.41136,"is_reserved":false,"is_disabled":false,"rental_uris":{"android":"levelo://app?vid=894a0977-5656-4a03-aa3f-1587f7cf7530","ios":"levelo://app?vid=894a0977-5656-4a03-aa3f-1587f7cf7530"},"vehicle_type_id":"4","last_reported":1768724115,"current_range_meters":8400,"station_id":"","pricing_plan_id":"cebpf4jnsgd1na2vs0mg"},{"bike_id":"5ee2bfc8-b82e-45fd-8d4d-9cf770c36d55","system_id":"levelo_inurba_marseille","lat":43.24166,"lon":5.36387,"is_reserved":false,"is_disabled":false,"rental_uris":{"android":"levelo://app?vid=5ee2bfc8-b82e-45fd-8d4d-9cf770c36d55","ios":"levelo://app?vid=5ee2bfc8-b82e-45fd-8d4d-9cf770c36d55"},"vehicle_type_id":"4","last_reported":1768724115,"current_range_meters":8400,"station_id":"cpo36qri1sfpv3e86is0","pricing_plan_id":"cebpf4jnsgd1na2vs0mg"},{"bike_id":"5a23d787-3af3-481f-b4fe-b47ea3394d85","system_id":"levelo_inurba_marseille","lat":43.24939,"lon":5.40482,"is_reserved":false,"is_disabled":false,"rental_uris":{"android":"levelo://app?vid=5a23d787-3af3-481f-b4fe-b47ea3394d85","ios":"levelo://app?vid=5a23d787-3af3-481f-b4fe-b47ea3394d85"},"vehicle_type_id":"4","last_reported":1768724115,"current_range_meters":8400,"station_id":"st_d2ngiaodas8pm72gd1h0","pricing_plan_id":"cebpf4jnsgd1na2vs0mg"},{"bike_id":"4a28a0a5-92a3-4f41-871e-f75bf8fb68f3","system_id":"levelo_inurba_marseille","lat":43.30369,"lon":5.40904,"is_reserved":false,"is_disabled":false,"rental_uris":{"android":"levelo://app?vid=4a28a0a5-92a3-4f41-871e-f75bf8fb68f3","ios":"levelo://app?vid=4a28a0a5-92a3-4f41-871e-f75bf8fb68f3"},"vehicle_type_id":"4","last_reported":1768724115,"current_range_meters":8400,"station_id":"","pricing_plan_id":"cebpf4jnsgd1na2vs0mg"},{"bike_id":"4e6fefb6-1d6d-4159-8f32-f4ab5cc98ccb","system_id":"levelo_inurba_marseille","lat":43.23191,"lon":5.35562,"is_reserved":false,"is_disabled":false,"rental_uris":{"android":"levelo://app?vid=4e6fefb6-1d6d-4159-8f32-f4ab5cc98ccb","ios":"levelo://app?vid=4e6fefb6-1d6d-4159-8f32-f4ab5cc98ccb"},"vehicle_type_id":"4","last_reported":1768724115,"current_range_meters":8400,"station_id":"ce4bhu92rcd13ifvqi70","pricing_plan_id":"cebpf4jnsgd1na2vs0mg"},{"bike_id":"02ab98c5-1cd1-4d33-a034-5f5e1f65b38a","system_id":"levelo_inurba_marseille","lat":43.2849,"lon":5.48399,"is_reserved":false,"is_disabled":false,"rental_uris":{"android":"levelo://app?vid=02ab98c5-1cd1-4d33-a034-5f5e1f65b38a","ios":"levelo://app?vid=02ab98c5-1cd1-4d33-a034-5f5e1f65b38a"},"vehicle_type_id":"4","last_reported":1768724115,"current_range_meters":8800,"station_id":"","pricing_plan_id":"cebpf4jnsgd1na2vs0mg"},{"bike_id":"24160edd-d39f-4289-876a-e9144f93a2c6","system_id":"levelo_inurba_marseille","lat":43.32343,"lon":5.36749,"is_reserved":false,"is_disabled":false,"rental_uris":{"android":"levelo://app?vid=24160edd-d39f-4289-876a-e9144f93a2c6","ios":"levelo://app?vid=24160edd-d39f-4289-876a-e9144f93a2c6"},"vehicle_type_id":"4","last_reported":1768724115,"current_range_meters":8800,"station_id":"ce4bhsh2rcd13ifvqi2g","pricing_plan_id":"cebpf4jnsgd1na2vs0mg"},{"bike_id":"624b55bb-4d49-4da2-97ee-cc0f0e7da638","system_id":"levelo_inurba_marseille","lat":43.25093,"lon":5.39528,"is_reserved":false,"is_disabled":false,"rental_uris":{"android":"levelo://app?vid=624b55bb-4d49-4da2-97ee-cc0f0e7da638","ios":"levelo://app?vid=624b55bb-4d49-4da2-97ee-cc0f0e7da638"},"vehicle_type_id":"4","last_reported":1768724115,"current_range_meters":8800,"station_id":"ce4bhm12rcd13ifvqgkg","pricing_plan_id":"cebpf4jnsgd1na2vs0mg"},{"bike_id":"f9650e24-8048-44b3-9275-13d881c210a3","system_id":"levelo_inurba_marseille","lat":43.30294,"lon":5.37698,"is_reserved":false,"is_disabled":false,"rental_uris":{"android":"levelo://app?vid=f9650e24-8048-44b3-9275-13d881c210a3","ios":"levelo://app?vid=f9650e24-8048-44b3-9275-13d881c210a3"},"vehicle_type_id":"4","last_reported":1768724115,"current_range_meters":8800,"station_id":"ce4bguh2rcd13ifvqcj0","pricing_plan_id":"cebpf4jnsgd1na2vs0mg"},{"bike_id":"7784751a-9b9c-47b1-8c51-f51c21d53b6f","system_id":"levelo_inurba_marseille","lat":43.24136,"lon":5.36399,"is_reserved":false,"is_disabled":false,"rental_uris":{"android":"levelo://app?vid=7784751a-9b9c-47b1-8c51-f51c21d53b6f","ios":"levelo://app?vid=7784751a-9b9c-47b1-8c51-f51c21d53b6f"},"vehicle_type_id":"4","last_reported":1768724115,"current_range_meters":8800,"station_id":"cpo36qri1sfpv3e86is0","pricing_plan_id":"cebpf4jnsgd1na2vs0mg"},{"bike_id":"c6b7d41c-17d5-4d4d-98f7-04f5d62108df","system_id":"levelo_inurba_marseille","lat":43.225563,"lon":5.416261,"is_reserved":false,"is_disabled":true,"rental_uris":{"android":"levelo://app?vid=c6b7d41c-17d5-4d4d-98f7-04f5d62108df","ios":"levelo://app?vid=c6b7d41c-17d5-4d4d-98f7-04f5d62108df"},"vehicle_type_id":"4","last_reported":1768724115,"current_range_meters":8800,"station_id":"st_d2o4gvlbi1j2169b742g","pricing_plan_id":"cebpf4jnsgd1na2vs0mg"},{"bike_id":"25892a9b-4cb5-4caf-b7e9-8f0885e7f825","system_id":"levelo_inurba_marseille","lat":43.25493,"lon":5.37645,"is_reserved":false,"is_disabled":false,"rental_uris":{"android":"levelo://app?vid=25892a9b-4cb5-4caf-b7e9-8f0885e7f825","ios":"levelo://app?vid=25892a9b-4cb5-4caf-b7e9-8f0885e7f825"},"vehicle_type_id":"4","last_reported":1768724115,"current_range_meters":8800,"station_id":"ce4bhh12rcd13ifvqff0","pricing_plan_id":"cebpf4jnsgd1na2vs0mg"},{"bike_id":"516af917-c4ea-4c6c-a104-a756dbbe6e31","system_id":"levelo_inurba_marseille","lat":43.28854,"lon":5.42512,"is_reserved":false,"is_disabled":false,"rental_uris":{"android":"levelo://app?vid=516af917-c4ea-4c6c-a104-a756dbbe6e31","ios":"levelo://app?vid=516af917-c4ea-4c6c-a104-a756dbbe6e31"},"vehicle_type_id":"4","last_reported":1768724115,"current_range_meters":8800,"station_id":"st_d3b462108ojc7389ooeg","pricing_plan_id":"cebpf4jnsgd1na2vs0mg"},{"bike_id":"e4673345-b12b-41a6-851b-d8e241ebb64e","system_id":"levelo_inurba_marseille","lat":43.249535,"lon":5.40481,"is_reserved":false,"is_disabled":false,"rental_uris":{"android":"levelo://app?vid=e4673345-b12b-41a6-851b-d8e241ebb64e","ios":"levelo://app?vid=e4673345-b12b-41a6-851b-d8e241ebb64e"},"vehicle_type_id":"4","last_reported":1768724115,"current_range_meters":8800,"station_id":"st_d2ngiaodas8pm72gd1h0","pricing_plan_id":"cebpf4jnsgd1na2vs0mg"},{"bike_id":"07bfd20b-f57f-4def-b2f0-1e693474cbde","system_id":"levelo_inurba_marseille","lat":43.25486,"lon":5.37642,"is_reserved":false,"is_disabled":false,"rental_uris":{"android":"levelo://app?vid=07bfd20b-f57f-4def-b2f0-1e693474cbde","ios":"levelo://app?vid=07bfd20b-f57f-4def-b2f0-1e693474cbde"},"vehicle_type_id":"4","last_reported":1768724115,"current_range_meters":9200,"station_id":"ce4bhh12rcd13ifvqff0","pricing_plan_id":"cebpf4jnsgd1na2vs0mg"},{"bike_id":"aa648442-ea0f-4284-b119-78b9aeb4ca5c","system_id":"levelo_inurba_marseille","lat":43.30504,"lon":5.36722,"is_reserved":false,"is_disabled":false,"rental_uris":{"android":"levelo://app?vid=aa648442-ea0f-4284-b119-78b9aeb4ca5c","ios":"levelo://app?vid=aa648442-ea0f-4284-b119-78b9aeb4ca5c"},"vehicle_type_id":"4","last_reported":1768724115,"current_range_meters":9200,"station_id":"ce4bgrp2rcd13ifvqc9g","pricing_plan_id":"cebpf4jnsgd1na2vs0mg"},{"bike_id":"5bab7825-5c50-4c8f-baf3-891acf636d42","system_id":"levelo_inurba_marseille","lat":43.23193,"lon":5.39992,"is_reserved":false,"is_disabled":false,"rental_uris":{"android":"levelo://app?vid=5bab7825-5c50-4c8f-baf3-891acf636d42","ios":"levelo://app?vid=5bab7825-5c50-4c8f-baf3-891acf636d42"},"vehicle_type_id":"4","last_reported":1768724115,"current_range_meters":9200,"station_id":"ce4bhn12rcd13ifvqgqg","pricing_plan_id":"cebpf4jnsgd1na2vs0mg"},{"bike_id":"5037036f-188b-4c9c-9f7e-772a64c012d7","system_id":"levelo_inurba_marseille","lat":43.24182,"lon":5.39761,"is_reserved":false,"is_disabled":false,"rental_uris":{"android":"levelo://app?vid=5037036f-188b-4c9c-9f7e-772a64c012d7","ios":"levelo://app?vid=5037036f-188b-4c9c-9f7e-772a64c012d7"},"vehicle_type_id":"4","last_reported":1768724115,"current_range_meters":9200,"station_id":"ce4bhn12rcd13ifvqgpg","pricing_plan_id":"cebpf4jnsgd1na2vs0mg"},{"bike_id":"825dbe6a-05ff-42c5-b686-988034ec5c97","system_id":"levelo_inurba_marseille","lat":43.27935,"lon":5.41058,"is_reserved":false,"is_disabled":true,"rental_uris":{"android":"levelo://app?vid=825dbe6a-05ff-42c5-b686-988034ec5c97","ios":"levelo://app?vid=825dbe6a-05ff-42c5-b686-988034ec5c97"},"vehicle_type_id":"4","last_reported":1768724115,"current_range_meters":9200,"station_id":"ce4bhnp2rcd13ifvqh0g","pricing_plan_id":"cebpf4jnsgd1na2vs0mg"},{"bike_id":"2e4ee5e8-6d91-467b-8480-688c2671b88d","system_id":"levelo_inurba_marseille","lat":43.27813,"lon":5.40745,"is_reserved":false,"is_disabled":false,"rental_uris":{"android":"levelo://app?vid=2e4ee5e8-6d91-467b-8480-688c2671b88d","ios":"levelo://app?vid=2e4ee5e8-6d91-467b-8480-688c2671b88d"},"vehicle_type_id":"4","last_reported":1768724115,"current_range_meters":9200,"station_id":"ce4bhnh2rcd13ifvqgtg","pricing_plan_id":"cebpf4jnsgd1na2vs0mg"},{"bike_id":"ff839314-dbe7-407b-b40a-0a369c1d2176","system_id":"levelo_inurba_marseille","lat":43.29243,"lon":5.38456,"is_reserved":false,"is_disabled":false,"rental_uris":{"android":"levelo://app?vid=ff839314-dbe7-407b-b40a-0a369c1d2176","ios":"levelo://app?vid=ff839314-dbe7-407b-b40a-0a369c1d2176"},"vehicle_type_id":"4","last_reported":1768724115,"current_range_meters":9200,"station_id":"ce4bh692rcd13ifvqea0","pricing_plan_id":"cebpf4jnsgd1na2vs0mg"},{"bike_id":"997bd131-bc4b-4ed3-be50-234bd23db618","system_id":"levelo_inurba_marseille","lat":43.23785,"lon":5.36643,"is_reserved":false,"is_disabled":false,"rental_uris":{"android":"levelo://app?vid=997bd131-bc4b-4ed3-be50-234bd23db618","ios":"levelo://app?vid=997bd131-bc4b-4ed3-be50-234bd23db618"},"vehicle_type_id":"4","last_reported":1768724115,"current_range_meters":9200,"station_id":"st_d3nk18o9ro0c73en2l3g","pricing_plan_id":"cebpf4jnsgd1na2vs0mg"},{"bike_id":"2a347ed8-2eea-4ab0-aa28-b6464c142e48","system_id":"levelo_inurba_marseille","lat":43.30368,"lon":5.42474,"is_reserved":false,"is_disabled":false,"rental_uris":{"android":"levelo://app?vid=2a347ed8-2eea-4ab0-aa28-b6464c142e48","ios":"levelo://app?vid=2a347ed8-2eea-4ab0-aa28-b6464c142e48"},"vehicle_type_id":"4","last_reported":1768724115,"current_range_meters":9200,"station_id":"ce4bhoh2rcd13ifvqh6g","pricing_plan_id":"cebpf4jnsgd1na2vs0mg"},{"bike_id":"36b60305-9675-49d2-be8e-b290c7586dc8","system_id":"levelo_inurba_marseille","lat":43.28595,"lon":5.35159,"is_reserved":false,"is_disabled":false,"rental_uris":{"android":"levelo://app?vid=36b60305-9675-49d2-be8e-b290c7586dc8","ios":"levelo://app?vid=36b60305-9675-49d2-be8e-b290c7586dc8"},"vehicle_type_id":"4","last_reported":1768724115,"current_range_meters":9200,"station_id":"","pricing_plan_id":"cebpf4jnsgd1na2vs0mg"},{"bike_id":"da3c4aca-37e7-4c63-a18e-04f09b3ed01f","system_id":"levelo_inurba_marseille","lat":43.2795,"lon":5.41039,"is_reserved":false,"is_disabled":false,"rental_uris":{"android":"levelo://app?vid=da3c4aca-37e7-4c63-a18e-04f09b3ed01f","ios":"levelo://app?vid=da3c4aca-37e7-4c63-a18e-04f09b3ed01f"},"vehicle_type_id":"4","last_reported":1768724115,"current_range_meters":9200,"station_id":"","pricing_plan_id":"cebpf4jnsgd1na2vs0mg"},{"bike_id":"ffbe9b93-d297-498d-b2a3-07ab4ea9a5fd","system_id":"levelo_inurba_marseille","lat":43.31174,"lon":5.38717,"is_reserved":false,"is_disabled":false,"rental_uris":{"android":"levelo://app?vid=ffbe9b93-d297-498d-b2a3-07ab4ea9a5fd","ios":"levelo://app?vid=ffbe9b93-d297-498d-b2a3-07ab4ea9a5fd"},"vehicle_type_id":"4","last_reported":1768724115,"current_range_meters":9200,"station_id":"ce4bgv12rcd13ifvqcp0","pricing_plan_id":"cebpf4jnsgd1na2vs0mg"},{"bike_id":"458b86b1-af07-4017-adae-6b0797bf4c6a","system_id":"levelo_inurba_marseille","lat":43.24463,"lon":5.42532,"is_reserved":false,"is_disabled":false,"rental_uris":{"android":"levelo://app?vid=458b86b1-af07-4017-adae-6b0797bf4c6a","ios":"levelo://app?vid=458b86b1-af07-4017-adae-6b0797bf4c6a"},"vehicle_type_id":"4","last_reported":1768724115,"current_range_meters":9200,"station_id":"st_d4a3vfp97mjs738cd8kg","pricing_plan_id":"cebpf4jnsgd1na2vs0mg"},{"bike_id":"0fe34aba-5a26-4945-8ee5-6fd7d499a22c","system_id":"levelo_inurba_marseille","lat":43.23184,"lon":5.39978,"is_reserved":false,"is_disabled":false,"rental_uris":{"android":"levelo://app?vid=0fe34aba-5a26-4945-8ee5-6fd7d499a22c","ios":"levelo://app?vid=0fe34aba-5a26-4945-8ee5-6fd7d499a22c"},"vehicle_type_id":"4","last_reported":1768724115,"current_range_meters":9200,"station_id":"ce4bhn12rcd13ifvqgqg","pricing_plan_id":"cebpf4jnsgd1na2vs0mg"},{"bike_id":"d61d55f2-38b3-47bf-8db3-dd8829f32d8f","system_id":"levelo_inurba_marseille","lat":43.28529,"lon":5.44087,"is_reserved":false,"is_disabled":false,"rental_uris":{"android":"levelo://app?vid=d61d55f2-38b3-47bf-8db3-dd8829f32d8f","ios":"levelo://app?vid=d61d55f2-38b3-47bf-8db3-dd8829f32d8f"},"vehicle_type_id":"4","last_reported":1768724115,"current_range_meters":9200,"station_id":"st_d3j3df2ikq2c7380ej80","pricing_plan_id":"cebpf4jnsgd1na2vs0mg"},{"bike_id":"ca310899-3b5f-4d76-8134-99befad3e112","system_id":"levelo_inurba_marseille","lat":43.23194,"lon":5.35556,"is_reserved":false,"is_disabled":false,"rental_uris":{"android":"levelo://app?vid=ca310899-3b5f-4d76-8134-99befad3e112","ios":"levelo://app?vid=ca310899-3b5f-4d76-8134-99befad3e112"},"vehicle_type_id":"4","last_reported":1768724115,"current_range_meters":9600,"station_id":"ce4bhu92rcd13ifvqi70","pricing_plan_id":"cebpf4jnsgd1na2vs0mg"},{"bike_id":"405bacf0-7d07-4ec7-aad7-72e1c5147c0f","system_id":"levelo_inurba_marseille","lat":43.30141,"lon":5.37397,"is_reserved":false,"is_disabled":false,"rental_uris":{"android":"levelo://app?vid=405bacf0-7d07-4ec7-aad7-72e1c5147c0f","ios":"levelo://app?vid=405bacf0-7d07-4ec7-aad7-72e1c5147c0f"},"vehicle_type_id":"4","last_reported":1768724115,"current_range_meters":9600,"station_id":"ce4bgs92rcd13ifvqcc0","pricing_plan_id":"cebpf4jnsgd1na2vs0mg"},{"bike_id":"87f35a5d-485c-42c0-a0d6-d17c180ada41","system_id":"levelo_inurba_marseille","lat":43.24164,"lon":5.36403,"is_reserved":false,"is_disabled":false,"rental_uris":{"android":"levelo://app?vid=87f35a5d-485c-42c0-a0d6-d17c180ada41","ios":"levelo://app?vid=87f35a5d-485c-42c0-a0d6-d17c180ada41"},"vehicle_type_id":"4","last_reported":1768724115,"current_range_meters":9600,"station_id":"cpo36qri1sfpv3e86is0","pricing_plan_id":"cebpf4jnsgd1na2vs0mg"},{"bike_id":"85ed53d9-2b9b-4cfd-ae63-41618797ad59","system_id":"levelo_inurba_marseille","lat":43.27985,"lon":5.40017,"is_reserved":false,"is_disabled":false,"rental_uris":{"android":"levelo://app?vid=85ed53d9-2b9b-4cfd-ae63-41618797ad59","ios":"levelo://app?vid=85ed53d9-2b9b-4cfd-ae63-41618797ad59"},"vehicle_type_id":"4","last_reported":1768724115,"current_range_meters":9600,"station_id":"ce4bho92rcd13ifvqh4g","pricing_plan_id":"cebpf4jnsgd1na2vs0mg"},{"bike_id":"d7a7bee1-7e52-448b-8db4-293e5d040752","system_id":"levelo_inurba_marseille","lat":43.30579,"lon":5.37194,"is_reserved":false,"is_disabled":false,"rental_uris":{"android":"levelo://app?vid=d7a7bee1-7e52-448b-8db4-293e5d040752","ios":"levelo://app?vid=d7a7bee1-7e52-448b-8db4-293e5d040752"},"vehicle_type_id":"4","last_reported":1768724115,"current_range_meters":9600,"station_id":"ce4bgqh2rcd13ifvqc4g","pricing_plan_id":"cebpf4jnsgd1na2vs0mg"},{"bike_id":"9ea71dd4-557a-49eb-872d-de0717506d64","system_id":"levelo_inurba_marseille","lat":43.231948,"lon":5.355508,"is_reserved":false,"is_disabled":false,"rental_uris":{"android":"levelo://app?vid=9ea71dd4-557a-49eb-872d-de0717506d64","ios":"levelo://app?vid=9ea71dd4-557a-49eb-872d-de0717506d64"},"vehicle_type_id":"4","last_reported":1768724115,"current_range_meters":9600,"station_id":"ce4bhu92rcd13ifvqi70","pricing_plan_id":"cebpf4jnsgd1na2vs0mg"},{"bike_id":"2692c150-a0c0-40f2-90c3-6786678aa239","system_id":"levelo_inurba_marseille","lat":43.31086,"lon":5.42455,"is_reserved":false,"is_disabled":false,"rental_uris":{"android":"levelo://app?vid=2692c150-a0c0-40f2-90c3-6786678aa239","ios":"levelo://app?vid=2692c150-a0c0-40f2-90c3-6786678aa239"},"vehicle_type_id":"4","last_reported":1768724115,"current_range_meters":9600,"station_id":"ce4bhp92rcd13ifvqhag","pricing_plan_id":"cebpf4jnsgd1na2vs0mg"},{"bike_id":"3e1b0ae8-bc2e-47bc-9eec-b1e55fd276e4","system_id":"levelo_inurba_marseille","lat":43.284805,"lon":5.48387,"is_reserved":false,"is_disabled":false,"rental_uris":{"android":"levelo://app?vid=3e1b0ae8-bc2e-47bc-9eec-b1e55fd276e4","ios":"levelo://app?vid=3e1b0ae8-bc2e-47bc-9eec-b1e55fd276e4"},"vehicle_type_id":"4","last_reported":1768724115,"current_range_meters":9600,"station_id":"st_d3svhcjqgbts73a3dn0g","pricing_plan_id":"cebpf4jnsgd1na2vs0mg"},{"bike_id":"52d76d5a-c8fd-4dbd-b507-0ab60f5b55ae","system_id":"levelo_inurba_marseille","lat":43.255373,"lon":5.432423,"is_reserved":false,"is_disabled":false,"rental_uris":{"android":"levelo://app?vid=52d76d5a-c8fd-4dbd-b507-0ab60f5b55ae","ios":"levelo://app?vid=52d76d5a-c8fd-4dbd-b507-0ab60f5b55ae"},"vehicle_type_id":"4","last_reported":1768724115,"current_range_meters":9600,"station_id":"","pricing_plan_id":"cebpf4jnsgd1na2vs0mg"},{"bike_id":"99eb7f6e-7d47-4fe7-a5ad-44af0b5818fb","system_id":"levelo_inurba_marseille","lat":43.24073,"lon":5.39718,"is_reserved":false,"is_disabled":false,"rental_uris":{"android":"levelo://app?vid=99eb7f6e-7d47-4fe7-a5ad-44af0b5818fb","ios":"levelo://app?vid=99eb7f6e-7d47-4fe7-a5ad-44af0b5818fb"},"vehicle_type_id":"4","last_reported":1768724115,"current_range_meters":9600,"station_id":"","pricing_plan_id":"cebpf4jnsgd1na2vs0mg"},{"bike_id":"6c301bf0-7eab-460b-832f-b35b9d28584f","system_id":"levelo_inurba_marseille","lat":43.271792,"lon":5.409836,"is_reserved":false,"is_disabled":false,"rental_uris":{"android":"levelo://app?vid=6c301bf0-7eab-460b-832f-b35b9d28584f","ios":"levelo://app?vid=6c301bf0-7eab-460b-832f-b35b9d28584f"},"vehicle_type_id":"4","last_reported":1768724115,"current_range_meters":9600,"station_id":"ce4bhl12rcd13ifvqgf0","pricing_plan_id":"cebpf4jnsgd1na2vs0mg"},{"bike_id":"ec84f853-3c1e-432f-84f1-c7932f803205","system_id":"levelo_inurba_marseille","lat":43.24468,"lon":5.42541,"is_reserved":false,"is_disabled":false,"rental_uris":{"android":"levelo://app?vid=ec84f853-3c1e-432f-84f1-c7932f803205","ios":"levelo://app?vid=ec84f853-3c1e-432f-84f1-c7932f803205"},"vehicle_type_id":"4","last_reported":1768724115,"current_range_meters":9600,"station_id":"st_d4a3vfp97mjs738cd8kg","pricing_plan_id":"cebpf4jnsgd1na2vs0mg"},{"bike_id":"3019b242-daef-4adc-9001-a765b1be88a4","system_id":"levelo_inurba_marseille","lat":43.28551,"lon":5.44139,"is_reserved":false,"is_disabled":false,"rental_uris":{"android":"levelo://app?vid=3019b242-daef-4adc-9001-a765b1be88a4","ios":"levelo://app?vid=3019b242-daef-4adc-9001-a765b1be88a4"},"vehicle_type_id":"4","last_reported":1768724115,"current_range_meters":9600,"station_id":"st_d3j3df2ikq2c7380ej80","pricing_plan_id":"cebpf4jnsgd1na2vs0mg"},{"bike_id":"addd09a5-2b93-4a35-8f42-e6b3857520e9","system_id":"levelo_inurba_marseille","lat":43.30158,"lon":5.38099,"is_reserved":false,"is_disabled":false,"rental_uris":{"android":"levelo://app?vid=addd09a5-2b93-4a35-8f42-e6b3857520e9","ios":"levelo://app?vid=addd09a5-2b93-4a35-8f42-e6b3857520e9"},"vehicle_type_id":"4","last_reported":1768724115,"current_range_meters":9600,"station_id":"ce4bgjp2rcd13ifvqbh0","pricing_plan_id":"cebpf4jnsgd1na2vs0mg"},{"bike_id":"a54d5df4-8e04-455c-aff5-6470c2bee2e4","system_id":"levelo_inurba_marseille","lat":43.27997,"lon":5.38474,"is_reserved":false,"is_disabled":false,"rental_uris":{"android":"levelo://app?vid=a54d5df4-8e04-455c-aff5-6470c2bee2e4","ios":"levelo://app?vid=a54d5df4-8e04-455c-aff5-6470c2bee2e4"},"vehicle_type_id":"4","last_reported":1768724115,"current_range_meters":10000,"station_id":"","pricing_plan_id":"cebpf4jnsgd1na2vs0mg"},{"bike_id":"09105b5f-3c1b-4262-b05c-2ed28916e5be","system_id":"levelo_inurba_marseille","lat":43.25347,"lon":5.42157,"is_reserved":false,"is_disabled":false,"rental_uris":{"android":"levelo://app?vid=09105b5f-3c1b-4262-b05c-2ed28916e5be","ios":"levelo://app?vid=09105b5f-3c1b-4262-b05c-2ed28916e5be"},"vehicle_type_id":"4","last_reported":1768724115,"current_range_meters":10000,"station_id":"st_d2m65c5bi1j21697t3ng","pricing_plan_id":"cebpf4jnsgd1na2vs0mg"},{"bike_id":"e67e42fe-b68e-4d43-9d57-582dc6eaf5d9","system_id":"levelo_inurba_marseille","lat":43.255766,"lon":5.382265,"is_reserved":false,"is_disabled":false,"rental_uris":{"android":"levelo://app?vid=e67e42fe-b68e-4d43-9d57-582dc6eaf5d9","ios":"levelo://app?vid=e67e42fe-b68e-4d43-9d57-582dc6eaf5d9"},"vehicle_type_id":"4","last_reported":1768724115,"current_range_meters":10000,"station_id":"","pricing_plan_id":"cebpf4jnsgd1na2vs0mg"},{"bike_id":"34d67b7e-f34f-411c-91a6-5b1263b023cd","system_id":"levelo_inurba_marseille","lat":43.31212,"lon":5.36881,"is_reserved":false,"is_disabled":false,"rental_uris":{"android":"levelo://app?vid=34d67b7e-f34f-411c-91a6-5b1263b023cd","ios":"levelo://app?vid=34d67b7e-f34f-411c-91a6-5b1263b023cd"},"vehicle_type_id":"4","last_reported":1768724115,"current_range_meters":10000,"station_id":"ce4bgl92rcd13ifvqbq0","pricing_plan_id":"cebpf4jnsgd1na2vs0mg"},{"bike_id":"4c7ed0db-f0d6-4424-9e71-a1fb6abaf721","system_id":"levelo_inurba_marseille","lat":43.31366,"lon":5.38505,"is_reserved":false,"is_disabled":false,"rental_uris":{"android":"levelo://app?vid=4c7ed0db-f0d6-4424-9e71-a1fb6abaf721","ios":"levelo://app?vid=4c7ed0db-f0d6-4424-9e71-a1fb6abaf721"},"vehicle_type_id":"4","last_reported":1768724115,"current_range_meters":10000,"station_id":"ce4bgt92rcd13ifvqcf0","pricing_plan_id":"cebpf4jnsgd1na2vs0mg"},{"bike_id":"e0b3d136-4efd-4410-be5e-53b3cc12c4c3","system_id":"levelo_inurba_marseille","lat":43.260536,"lon":5.386443,"is_reserved":false,"is_disabled":false,"rental_uris":{"android":"levelo://app?vid=e0b3d136-4efd-4410-be5e-53b3cc12c4c3","ios":"levelo://app?vid=e0b3d136-4efd-4410-be5e-53b3cc12c4c3"},"vehicle_type_id":"4","last_reported":1768724115,"current_range_meters":10000,"station_id":"","pricing_plan_id":"cebpf4jnsgd1na2vs0mg"},{"bike_id":"502976bc-a9bf-446d-890f-6b192d487131","system_id":"levelo_inurba_marseille","lat":43.265735,"lon":5.390003,"is_reserved":false,"is_disabled":false,"rental_uris":{"android":"levelo://app?vid=502976bc-a9bf-446d-890f-6b192d487131","ios":"levelo://app?vid=502976bc-a9bf-446d-890f-6b192d487131"},"vehicle_type_id":"4","last_reported":1768724115,"current_range_meters":10000,"station_id":"ce4bhe12rcd13ifvqf30","pricing_plan_id":"cebpf4jnsgd1na2vs0mg"},{"bike_id":"5cccdad3-57e0-40c4-bb97-5effe42d761a","system_id":"levelo_inurba_marseille","lat":43.24809,"lon":5.37462,"is_reserved":false,"is_disabled":false,"rental_uris":{"android":"levelo://app?vid=5cccdad3-57e0-40c4-bb97-5effe42d761a","ios":"levelo://app?vid=5cccdad3-57e0-40c4-bb97-5effe42d761a"},"vehicle_type_id":"4","last_reported":1768724115,"current_range_meters":10000,"station_id":"ce4bhgh2rcd13ifvqfb0","pricing_plan_id":"cebpf4jnsgd1na2vs0mg"},{"bike_id":"f6dee482-e963-4223-be46-6a1a82c523df","system_id":"levelo_inurba_marseille","lat":43.2418,"lon":5.39727,"is_reserved":false,"is_disabled":false,"rental_uris":{"android":"levelo://app?vid=f6dee482-e963-4223-be46-6a1a82c523df","ios":"levelo://app?vid=f6dee482-e963-4223-be46-6a1a82c523df"},"vehicle_type_id":"4","last_reported":1768724115,"current_range_meters":10000,"station_id":"ce4bhn12rcd13ifvqgpg","pricing_plan_id":"cebpf4jnsgd1na2vs0mg"},{"bike_id":"9e956125-d135-4c5b-a672-b787c5ecd852","system_id":"levelo_inurba_marseille","lat":43.24175,"lon":5.39724,"is_reserved":false,"is_disabled":false,"rental_uris":{"android":"levelo://app?vid=9e956125-d135-4c5b-a672-b787c5ecd852","ios":"levelo://app?vid=9e956125-d135-4c5b-a672-b787c5ecd852"},"vehicle_type_id":"4","last_reported":1768724115,"current_range_meters":10000,"station_id":"ce4bhn12rcd13ifvqgpg","pricing_plan_id":"cebpf4jnsgd1na2vs0mg"},{"bike_id":"1d845d40-bee8-4284-affc-9030247b1e56","system_id":"levelo_inurba_marseille","lat":43.22938,"lon":5.3538,"is_reserved":false,"is_disabled":false,"rental_uris":{"android":"levelo://app?vid=1d845d40-bee8-4284-affc-9030247b1e56","ios":"levelo://app?vid=1d845d40-bee8-4284-affc-9030247b1e56"},"vehicle_type_id":"4","last_reported":1768724115,"current_range_meters":10000,"station_id":"cpo3532slgdg3j2ikp40","pricing_plan_id":"cebpf4jnsgd1na2vs0mg"},{"bike_id":"d6ab83d9-f0e3-4bdf-a1c4-652a184696f5","system_id":"levelo_inurba_marseille","lat":43.22933,"lon":5.3538,"is_reserved":false,"is_disabled":false,"rental_uris":{"android":"levelo://app?vid=d6ab83d9-f0e3-4bdf-a1c4-652a184696f5","ios":"levelo://app?vid=d6ab83d9-f0e3-4bdf-a1c4-652a184696f5"},"vehicle_type_id":"4","last_reported":1768724115,"current_range_meters":10000,"station_id":"cpo3532slgdg3j2ikp40","pricing_plan_id":"cebpf4jnsgd1na2vs0mg"},{"bike_id":"ef88c352-189d-4372-beb9-7002182fbb2b","system_id":"levelo_inurba_marseille","lat":43.27997,"lon":5.39991,"is_reserved":false,"is_disabled":false,"rental_uris":{"android":"levelo://app?vid=ef88c352-189d-4372-beb9-7002182fbb2b","ios":"levelo://app?vid=ef88c352-189d-4372-beb9-7002182fbb2b"},"vehicle_type_id":"4","last_reported":1768724115,"current_range_meters":10000,"station_id":"ce4bho92rcd13ifvqh4g","pricing_plan_id":"cebpf4jnsgd1na2vs0mg"},{"bike_id":"80dd23a5-0dde-4636-a849-634c5c6760f9","system_id":"levelo_inurba_marseille","lat":43.24066,"lon":5.377558,"is_reserved":false,"is_disabled":false,"rental_uris":{"android":"levelo://app?vid=80dd23a5-0dde-4636-a849-634c5c6760f9","ios":"levelo://app?vid=80dd23a5-0dde-4636-a849-634c5c6760f9"},"vehicle_type_id":"4","last_reported":1768724115,"current_range_meters":10000,"station_id":"ce4bhnp2rcd13ifvqgvg","pricing_plan_id":"cebpf4jnsgd1na2vs0mg"},{"bike_id":"a0d7c082-92f3-4e97-a63f-223774df3428","system_id":"levelo_inurba_marseille","lat":43.26563,"lon":5.39013,"is_reserved":false,"is_disabled":false,"rental_uris":{"android":"levelo://app?vid=a0d7c082-92f3-4e97-a63f-223774df3428","ios":"levelo://app?vid=a0d7c082-92f3-4e97-a63f-223774df3428"},"vehicle_type_id":"4","last_reported":1768724115,"current_range_meters":10000,"station_id":"ce4bhe12rcd13ifvqf30","pricing_plan_id":"cebpf4jnsgd1na2vs0mg"},{"bike_id":"0d8e321e-4297-4b59-b390-9a37ed0190a1","system_id":"levelo_inurba_marseille","lat":43.33612,"lon":5.41002,"is_reserved":false,"is_disabled":false,"rental_uris":{"android":"levelo://app?vid=0d8e321e-4297-4b59-b390-9a37ed0190a1","ios":"levelo://app?vid=0d8e321e-4297-4b59-b390-9a37ed0190a1"},"vehicle_type_id":"4","last_reported":1768724115,"current_range_meters":10000,"station_id":"ce4bhqh2rcd13ifvqhmg","pricing_plan_id":"cebpf4jnsgd1na2vs0mg"},{"bike_id":"1532d42e-38ab-4af0-9974-bda480cde4fa","system_id":"levelo_inurba_marseille","lat":43.27053,"lon":5.38309,"is_reserved":false,"is_disabled":false,"rental_uris":{"android":"levelo://app?vid=1532d42e-38ab-4af0-9974-bda480cde4fa","ios":"levelo://app?vid=1532d42e-38ab-4af0-9974-bda480cde4fa"},"vehicle_type_id":"4","last_reported":1768724115,"current_range_meters":10000,"station_id":"st_d3n2fo6cfp8s73cte1j0","pricing_plan_id":"cebpf4jnsgd1na2vs0mg"},{"bike_id":"544bcdbb-4ade-4e28-8d58-bd0ce6c900eb","system_id":"levelo_inurba_marseille","lat":43.2532,"lon":5.42168,"is_reserved":false,"is_disabled":false,"rental_uris":{"android":"levelo://app?vid=544bcdbb-4ade-4e28-8d58-bd0ce6c900eb","ios":"levelo://app?vid=544bcdbb-4ade-4e28-8d58-bd0ce6c900eb"},"vehicle_type_id":"4","last_reported":1768724115,"current_range_meters":10000,"station_id":"st_d2m65c5bi1j21697t3ng","pricing_plan_id":"cebpf4jnsgd1na2vs0mg"},{"bike_id":"e3ab7fbc-a543-4ce6-8bfb-a545434b1568","system_id":"levelo_inurba_marseille","lat":43.28862,"lon":5.42533,"is_reserved":false,"is_disabled":false,"rental_uris":{"android":"levelo://app?vid=e3ab7fbc-a543-4ce6-8bfb-a545434b1568","ios":"levelo://app?vid=e3ab7fbc-a543-4ce6-8bfb-a545434b1568"},"vehicle_type_id":"4","last_reported":1768724115,"current_range_meters":10800,"station_id":"st_d3b462108ojc7389ooeg","pricing_plan_id":"cebpf4jnsgd1na2vs0mg"},{"bike_id":"bc5446ee-938b-4f89-b75e-21ffe1627550","system_id":"levelo_inurba_marseille","lat":43.27339,"lon":5.39107,"is_reserved":false,"is_disabled":false,"rental_uris":{"android":"levelo://app?vid=bc5446ee-938b-4f89-b75e-21ffe1627550","ios":"levelo://app?vid=bc5446ee-938b-4f89-b75e-21ffe1627550"},"vehicle_type_id":"4","last_reported":1768724115,"current_range_meters":10800,"station_id":"ce4bhgp2rcd13ifvqfe0","pricing_plan_id":"cebpf4jnsgd1na2vs0mg"},{"bike_id":"016900bc-5ac6-4330-ab84-4d755560128b","system_id":"levelo_inurba_marseille","lat":43.27964,"lon":5.39939,"is_reserved":false,"is_disabled":false,"rental_uris":{"android":"levelo://app?vid=016900bc-5ac6-4330-ab84-4d755560128b","ios":"levelo://app?vid=016900bc-5ac6-4330-ab84-4d755560128b"},"vehicle_type_id":"4","last_reported":1768724115,"current_range_meters":10800,"station_id":"","pricing_plan_id":"cebpf4jnsgd1na2vs0mg"},{"bike_id":"ba07251e-69c5-4418-ace3-7cd844e33077","system_id":"levelo_inurba_marseille","lat":43.278159,"lon":5.407134,"is_reserved":false,"is_disabled":false,"rental_uris":{"android":"levelo://app?vid=ba07251e-69c5-4418-ace3-7cd844e33077","ios":"levelo://app?vid=ba07251e-69c5-4418-ace3-7cd844e33077"},"vehicle_type_id":"4","last_reported":1768724115,"current_range_meters":10800,"station_id":"ce4bhnh2rcd13ifvqgtg","pricing_plan_id":"cebpf4jnsgd1na2vs0mg"},{"bike_id":"1337e7bc-8657-452b-bbc7-2639bc3dc485","system_id":"levelo_inurba_marseille","lat":43.28952,"lon":5.3641,"is_reserved":false,"is_disabled":false,"rental_uris":{"android":"levelo://app?vid=1337e7bc-8657-452b-bbc7-2639bc3dc485","ios":"levelo://app?vid=1337e7bc-8657-452b-bbc7-2639bc3dc485"},"vehicle_type_id":"4","last_reported":1768724115,"current_range_meters":10800,"station_id":"ce4bhc92rcd13ifvqetg","pricing_plan_id":"cebpf4jnsgd1na2vs0mg"},{"bike_id":"d6a5286c-a8f1-4c48-bd44-cb6cde170fbe","system_id":"levelo_inurba_marseille","lat":43.30097,"lon":5.39077,"is_reserved":false,"is_disabled":true,"rental_uris":{"android":"levelo://app?vid=d6a5286c-a8f1-4c48-bd44-cb6cde170fbe","ios":"levelo://app?vid=d6a5286c-a8f1-4c48-bd44-cb6cde170fbe"},"vehicle_type_id":"4","last_reported":1768724115,"current_range_meters":10800,"station_id":"ce4bh192rcd13ifvqdb0","pricing_plan_id":"cebpf4jnsgd1na2vs0mg"},{"bike_id":"f70a59b4-29fe-4c71-a82c-c9b428830b98","system_id":"levelo_inurba_marseille","lat":43.240757,"lon":5.37753,"is_reserved":false,"is_disabled":false,"rental_uris":{"android":"levelo://app?vid=f70a59b4-29fe-4c71-a82c-c9b428830b98","ios":"levelo://app?vid=f70a59b4-29fe-4c71-a82c-c9b428830b98"},"vehicle_type_id":"4","last_reported":1768724115,"current_range_meters":10800,"station_id":"ce4bhnp2rcd13ifvqgvg","pricing_plan_id":"cebpf4jnsgd1na2vs0mg"},{"bike_id":"76bd8662-78d2-416e-bd1f-dbf6b13bf763","system_id":"levelo_inurba_marseille","lat":43.26945,"lon":5.40242,"is_reserved":false,"is_disabled":false,"rental_uris":{"android":"levelo://app?vid=76bd8662-78d2-416e-bd1f-dbf6b13bf763","ios":"levelo://app?vid=76bd8662-78d2-416e-bd1f-dbf6b13bf763"},"vehicle_type_id":"4","last_reported":1768724115,"current_range_meters":10800,"station_id":"cjm6bp8fraef2m0cb0m0","pricing_plan_id":"cebpf4jnsgd1na2vs0mg"},{"bike_id":"0fd21be0-2047-4c19-93b0-3d78a043614b","system_id":"levelo_inurba_marseille","lat":43.237793,"lon":5.366341,"is_reserved":false,"is_disabled":false,"rental_uris":{"android":"levelo://app?vid=0fd21be0-2047-4c19-93b0-3d78a043614b","ios":"levelo://app?vid=0fd21be0-2047-4c19-93b0-3d78a043614b"},"vehicle_type_id":"4","last_reported":1768724115,"current_range_meters":10800,"station_id":"st_d3nk18o9ro0c73en2l3g","pricing_plan_id":"cebpf4jnsgd1na2vs0mg"},{"bike_id":"9a0409a8-0df9-48e6-9f3b-330b6f60c7fa","system_id":"levelo_inurba_marseille","lat":43.2861,"lon":5.39922,"is_reserved":false,"is_disabled":false,"rental_uris":{"android":"levelo://app?vid=9a0409a8-0df9-48e6-9f3b-330b6f60c7fa","ios":"levelo://app?vid=9a0409a8-0df9-48e6-9f3b-330b6f60c7fa"},"vehicle_type_id":"4","last_reported":1768724115,"current_range_meters":10800,"station_id":"st_d4a7ka997mjs738ck50g","pricing_plan_id":"cebpf4jnsgd1na2vs0mg"},{"bike_id":"84d602b3-8943-4780-bcf1-164d29a27b66","system_id":"levelo_inurba_marseille","lat":43.28481,"lon":5.48399,"is_reserved":false,"is_disabled":false,"rental_uris":{"android":"levelo://app?vid=84d602b3-8943-4780-bcf1-164d29a27b66","ios":"levelo://app?vid=84d602b3-8943-4780-bcf1-164d29a27b66"},"vehicle_type_id":"4","last_reported":1768724115,"current_range_meters":10800,"station_id":"","pricing_plan_id":"cebpf4jnsgd1na2vs0mg"},{"bike_id":"40ec9b3e-8a68-4f21-9a1a-c3df8cc32599","system_id":"levelo_inurba_marseille","lat":43.24062,"lon":5.3777,"is_reserved":false,"is_disabled":false,"rental_uris":{"android":"levelo://app?vid=40ec9b3e-8a68-4f21-9a1a-c3df8cc32599","ios":"levelo://app?vid=40ec9b3e-8a68-4f21-9a1a-c3df8cc32599"},"vehicle_type_id":"4","last_reported":1768724115,"current_range_meters":10800,"station_id":"ce4bhnp2rcd13ifvqgvg","pricing_plan_id":"cebpf4jnsgd1na2vs0mg"},{"bike_id":"44d80ca6-dac0-4000-97a2-ac8fa224bc0e","system_id":"levelo_inurba_marseille","lat":43.287521,"lon":5.371526,"is_reserved":false,"is_disabled":false,"rental_uris":{"android":"levelo://app?vid=44d80ca6-dac0-4000-97a2-ac8fa224bc0e","ios":"levelo://app?vid=44d80ca6-dac0-4000-97a2-ac8fa224bc0e"},"vehicle_type_id":"4","last_reported":1768724115,"current_range_meters":10800,"station_id":"","pricing_plan_id":"cebpf4jnsgd1na2vs0mg"},