{"last_updated":1735729604,"ttl":60,"version":"2.2","data":{"bikes":[{"bike_id":"2f56c5dc-0755-4629-adf9-4349a3b8ebb1","system_id":"levelo_inurba_marseille","lat":43.28149,"lon":5.42662,"is_reserved":false,"is_disabled":false,"rental_uris":{"android":"levelo://app?vid=2f56c5dc-0755-4629-adf9-4349a3b8ebb1","ios":"levelo://app?vid=2f56c5dc-0755-4629-adf9-4349a3b8ebb1"},"vehicle_type_id":"4","last_reported":1735729604,"current_range_meters":22800,"station_id":"ce4bhnh2rcd13ifvqgug","pricing_plan_id":"cebpf4jnsgd1na2vs0mg"},{"bike_id":"4135b8eb-0926-4040-9eea-632b5ce11f58","system_id":"levelo_inurba_marseille","lat":43.32367,"lon":5.38901,"is_reserved":false,"is_disabled":false,"rental_uris":{"android":"levelo://app?vid=4135b8eb-0926-4040-9eea-632b5ce11f58","ios":"levelo://app?vid=4135b8eb-0926-4040-9eea-632b5ce11f58"},"vehicle_type_id":"4","last_reported":1735729604,"current_range_meters":21600,"station_id":"ce4bhqp2rcd13ifvqhog","pricing_plan_id":"cebpf4jnsgd1na2vs0mg"},{"bike_id":"57c949f2-ac1b-4830-a85c-935d8ad70f8d","system_id":"levelo_inurba_marseille","lat":43.26689,"lon":5.38272,"is_reserved":false,"is_disabled":false,"rental_uris":{"android":"levelo://app?vid=57c949f2-ac1b-4830-a85c-935d8ad70f8d","ios":"levelo://app?vid=57c949f2-ac1b-4830-a85c-935d8ad70f8d"},"vehicle_type_id":"4","last_reported":1735729604,"current_range_meters":38000,"station_id":"ce4bhg92rcd13ifvqf90","pricing_plan_id":"cebpf4jnsgd1na2vs0mg"},{"bike_id":"d06b5da1-2f20-4593-9d79-0cd21b76f9bd","system_id":"levelo_inurba_marseille","lat":43.2784,"lon":5.39211,"is_reserved":false,"is_disabled":false,"rental_uris":{"android":"levelo://app?vid=d06b5da1-2f20-4593-9d79-0cd21b76f9bd","ios":"levelo://app?vid=d06b5da1-2f20-4593-9d79-0cd21b76f9bd"},"vehicle_type_id":"4","last_reported":1735729604,"current_range_meters":38800,"station_id":"ce4bhjp2rcd13ifvqga0","pricing_plan_id":"cebpf4jnsgd1na2vs0mg"},{"bike_id":"7295ef51-cfcc-499e-9236-e0cf1cb9dfec","system_id":"levelo_inurba_marseille","lat":43.27981,"lon":5.41656,"is_reserved":false,"is_disabled":false,"rental_uris":{"android":"levelo://app?vid=7295ef51-cfcc-499e-9236-e0cf1cb9dfec","ios":"levelo://app?vid=7295ef51-cfcc-499e-9236-e0cf1cb9dfec"},"vehicle_type_id":"4","last_reported":1735729604,"current_range_meters":28800,"station_id":"ce4bho12rcd13ifvqh1g","pricing_plan_id":"cebpf4jnsgd1na2vs0mg"},{"bike_id":"30675ccc-9ef1-40b1-963e-228cee2b4741","system_id":"levelo_inurba_marseille","lat":43.27948,"lon":5.41057,"is_reserved":false,"is_disabled":true,"rental_uris":{"android":"levelo://app?vid=30675ccc-9ef1-40b1-963e-228cee2b4741","ios":"levelo://app?vid=30675ccc-9ef1-40b1-963e-228cee2b4741"},"vehicle_type_id":"4","last_reported":1735729604,"current_range_meters":21600,"station_id":"ce4bhnp2rcd13ifvqh0g","pricing_plan_id":"cebpf4jnsgd1na2vs0mg"},{"bike_id":"071b3015-16c7-4ddd-bbee-f44a92d6240d","system_id":"levelo_inurba_marseille","lat":43.30886,"lon":5.3963,"is_reserved":false,"is_disabled":false,"rental_uris":{"android":"levelo://app?vid=071b3015-16c7-4ddd-bbee-f44a92d6240d","ios":"levelo://app?vid=071b3015-16c7-4ddd-bbee-f44a92d6240d"},"vehicle_type_id":"4","last_reported":1735729604,"current_range_meters":38800,"station_id":"ce4bh012rcd13ifvqcv0","pricing_plan_id":"cebpf4jnsgd1na2vs0mg"},{"bike_id":"cc70937d-3988-401d-9133-9fc3f838c790","system_id":"levelo_inurba_marseille","lat":43.32649,"lon":5.4096,"is_reserved":false,"is_disabled":false,"rental_uris":{"android":"levelo://app?vid=cc70937d-3988-401d-9133-9fc3f838c790","ios":"levelo://app?vid=cc70937d-3988-401d-9133-9fc3f838c790"},"vehicle_type_id":"4","last_reported":1735729604,"current_range_meters":16000,"station_id":"ce4bhpp2rcd13ifvqhgg","pricing_plan_id":"cebpf4jnsgd1na2vs0mg"},{"bike_id":"259412ae-a9bb-43fa-89b0-91ce274ab21d","system_id":"levelo_inurba_marseille","lat":43.25725,"lon":5.41111,"is_reserved":false,"is_disabled":false,"rental_uris":{"android":"levelo://app?vid=259412ae-a9bb-43fa-89b0-91ce274ab21d","ios":"levelo://app?vid=259412ae-a9bb-43fa-89b0-91ce274ab21d"},"vehicle_type_id":"4","last_reported":1735729604,"current_range_meters":37600,"station_id":"ce4bhkp2rcd13ifvqgd0","pricing_plan_id":"cebpf4jnsgd1na2vs0mg"},{"bike_id":"a84c903a-16f0-44ed-becd-c6849674ff70","system_id":"levelo_inurba_marseille","lat":43.22928,"lon":5.35376,"is_reserved":false,"is_disabled":false,"rental_uris":{"android":"levelo://app?vid=a84c903a-16f0-44ed-becd-c6849674ff70","ios":"levelo://app?vid=a84c903a-16f0-44ed-becd-c6849674ff70"},"vehicle_type_id":"4","last_reported":1735729604,"current_range_meters":6000,"station_id":"cpo3532slgdg3j2ikp40","pricing_plan_id":"cebpf4jnsgd1na2vs0mg"},{"bike_id":"d79b271e-0cf7-4d7a-8ce3-2adb5275fea6","system_id":"levelo_inurba_marseille","lat":43.24998,"lon":5.38925,"is_reserved":false,"is_disabled":false,"rental_uris":{"android":"levelo://app?vid=d79b271e-0cf7-4d7a-8ce3-2adb5275fea6","ios":"levelo://app?vid=d79b271e-0cf7-4d7a-8ce3-2adb5275fea6"},"vehicle_type_id":"4","last_reported":1735729604,"current_range_meters":32800,"station_id":"ce4bhgp2rcd13ifvqfd0","pricing_plan_id":"cebpf4jnsgd1na2vs0mg"},{"bike_id":"73d37c64-b56a-41a1-b46d-f0fc99e1d21a","system_id":"levelo_inurba_marseille","lat":43.2927,"lon":5.4016,"is_reserved":false,"is_disabled":false,"rental_uris":{"android":"levelo://app?vid=73d37c64-b56a-41a1-b46d-f0fc99e1d21a","ios":"levelo://app?vid=73d37c64-b56a-41a1-b46d-f0fc99e1d21a"},"vehicle_type_id":"4","last_reported":1735729604,"current_range_meters":39200,"station_id":"ce4bh312rcd13ifvqdk0","pricing_plan_id":"cebpf4jnsgd1na2vs0mg"},{"bike_id":"97176dc8-ab2c-438e-898d-b4e537439946","system_id":"levelo_inurba_marseille","lat":43.30409,"lon":5.41296,"is_reserved":false,"is_disabled":false,"rental_uris":{"android":"levelo://app?vid=97176dc8-ab2c-438e-898d-b4e537439946","ios":"levelo://app?vid=97176dc8-ab2c-438e-898d-b4e537439946"},"vehicle_type_id":"4","last_reported":1735729604,"current_range_meters":24400,"station_id":"ce4bhop2rcd13ifvqh8g","pricing_plan_id":"cebpf4jnsgd1na2vs0mg"},{"bike_id":"a8fa3464-c49c-4259-8973-385a53d0a929","system_id":"levelo_inurba_marseille","lat":43.29281,"lon":5.40152,"is_reserved":false,"is_disabled":false,"rental_uris":{"android":"levelo://app?vid=a8fa3464-c49c-4259-8973-385a53d0a929","ios":"levelo://app?vid=a8fa3464-c49c-4259-8973-385a53d0a929"},"vehicle_type_id":"4","last_reported":1735729604,"current_range_meters":37600,"station_id":"ce4bh312rcd13ifvqdk0","pricing_plan_id":"cebpf4jnsgd1na2vs0mg"},{"bike_id":"8ad09b60-3a79-4fc1-9f8d-63dc687108f3","system_id":"levelo_inurba_marseille","lat":43.337444,"lon":5.374475,"is_reserved":false,"is_disabled":true,"rental_uris":{"android":"levelo://app?vid=8ad09b60-3a79-4fc1-9f8d-63dc687108f3","ios":"levelo://app?vid=8ad09b60-3a79-4fc1-9f8d-63dc687108f3"},"vehicle_type_id":"4","last_reported":1735729604,"current_range_meters":35200,"station_id":"","pricing_plan_id":"cebpf4jnsgd1na2vs0mg"},{"bike_id":"aaf2847c-1c33-449a-8a3d-243e799ec2b1","system_id":"levelo_inurba_marseille","lat":43.23964,"lon":5.36634,"is_reserved":false,"is_disabled":false,"rental_uris":{"android":"levelo://app?vid=aaf2847c-1c33-449a-8a3d-243e799ec2b1","ios":"levelo://app?vid=aaf2847c-1c33-449a-8a3d-243e799ec2b1"},"vehicle_type_id":"4","last_reported":1735729604,"current_range_meters":38000,"station_id":"ce4bhi12rcd13ifvqfp0","pricing_plan_id":"cebpf4jnsgd1na2vs0mg"},{"bike_id":"e423629e-caf1-4427-8702-b30357fe9b81","system_id":"levelo_inurba_marseille","lat":43.25009,"lon":5.38921,"is_reserved":false,"is_disabled":false,"rental_uris":{"android":"levelo://app?vid=e423629e-caf1-4427-8702-b30357fe9b81","ios":"levelo://app?vid=e423629e-caf1-4427-8702-b30357fe9b81"},"vehicle_type_id":"4","last_reported":1735729604,"current_range_meters":22800,"station_id":"ce4bhgp2rcd13ifvqfd0","pricing_plan_id":"cebpf4jnsgd1na2vs0mg"},{"bike_id":"5430a545-a0f1-45ad-a500-b4193006fdcf","system_id":"levelo_inurba_marseille","lat":43.23184,"lon":5.35585,"is_reserved":false,"is_disabled":false,"rental_uris":{"android":"levelo://app?vid=5430a545-a0f1-45ad-a500-b4193006fdcf","ios":"levelo://app?vid=5430a545-a0f1-45ad-a500-b4193006fdcf"},"vehicle_type_id":"4","last_reported":1735729604,"current_range_meters":26000,"station_id":"ce4bhu92rcd13ifvqi70","pricing_plan_id":"cebpf4jnsgd1na2vs0mg"},{"bike_id":"59f96b49-77b3-43aa-8b90-acc517685175","system_id":"levelo_inurba_marseille","lat":43.29847,"lon":5.38907,"is_reserved":false,"is_disabled":false,"rental_uris":{"android":"levelo://app?vid=59f96b49-77b3-43aa-8b90-acc517685175","ios":"levelo://app?vid=59f96b49-77b3-43aa-8b90-acc517685175"},"vehicle_type_id":"4","last_reported":1735729604,"current_range_meters":38800,"station_id":"ce4bh392rcd13ifvqdl0","pricing_plan_id":"cebpf4jnsgd1na2vs0mg"},{"bike_id":"aa4fcdb8-7919-4e96-9fad-bb7045a210c7","system_id":"levelo_inurba_marseille","lat":43.30878,"lon":5.39659,"is_reserved":false,"is_disabled":false,"rental_uris":{"android":"levelo://app?vid=aa4fcdb8-7919-4e96-9fad-bb7045a210c7","ios":"levelo://app?vid=aa4fcdb8-7919-4e96-9fad-bb7045a210c7"},"vehicle_type_id":"4","last_reported":1735729604,"current_range_meters":33600,"station_id":"ce4bh012rcd13ifvqcv0","pricing_plan_id":"cebpf4jnsgd1na2vs0mg"},{"bike_id":"ebb56956-e2e2-4f51-8f7a-80ccc26c078c","system_id":"levelo_inurba_marseille","lat":43.28158,"lon":5.42627,"is_reserved":false,"is_disabled":false,"rental_uris":{"android":"levelo://app?vid=ebb56956-e2e2-4f51-8f7a-80ccc26c078c","ios":"levelo://app?vid=ebb56956-e2e2-4f51-8f7a-80ccc26c078c"},"vehicle_type_id":"4","last_reported":1735729604,"current_range_meters":38000,"station_id":"ce4bhnh2rcd13ifvqgug","pricing_plan_id":"cebpf4jnsgd1na2vs0mg"},{"bike_id":"e97feb8d-305b-476f-a18a-facbd48b51f1","system_id":"levelo_inurba_marseille","lat":43.33603,"lon":5.41033,"is_reserved":false,"is_disabled":false,"rental_uris":{"android":"levelo://app?vid=e97feb8d-305b-476f-a18a-facbd48b51f1","ios":"levelo://app?vid=e97feb8d-305b-476f-a18a-facbd48b51f1"},"vehicle_type_id":"4","last_reported":1735729604,"current_range_meters":30000,"station_id":"ce4bhqh2rcd13ifvqhmg","pricing_plan_id":"cebpf4jnsgd1na2vs0mg"},{"bike_id":"7298264b-332b-4cd6-9585-222dbe95a1ae","system_id":"levelo_inurba_marseille","lat":43.28889,"lon":5.36652,"is_reserved":false,"is_disabled":false,"rental_uris":{"android":"levelo://app?vid=7298264b-332b-4cd6-9585-222dbe95a1ae","ios":"levelo://app?vid=7298264b-332b-4cd6-9585-222dbe95a1ae"},"vehicle_type_id":"4","last_reported":1735729604,"current_range_meters":20400,"station_id":"ce4bhap2rcd13ifvqek0","pricing_plan_id":"cebpf4jnsgd1na2vs0mg"},{"bike_id":"d1f9ce89-9c15-4290-9354-e1438c8ae8ca","system_id":"levelo_inurba_marseille","lat":43.29373,"lon":5.3788,"is_reserved":false,"is_disabled":false,"rental_uris":{"android":"levelo://app?vid=d1f9ce89-9c15-4290-9354-e1438c8ae8ca","ios":"levelo://app?vid=d1f9ce89-9c15-4290-9354-e1438c8ae8ca"},"vehicle_type_id":"4","last_reported":1735729604,"current_range_meters":20000,"station_id":"ce4bgjh2rcd13ifvqbf0","pricing_plan_id":"cebpf4jnsgd1na2vs0mg"},{"bike_id":"406c72fc-c815-4840-861a-36d7f7f2fd01","system_id":"levelo_inurba_marseille","lat":43.23182,"lon":5.3557,"is_reserved":false,"is_disabled":false,"rental_uris":{"android":"levelo://app?vid=406c72fc-c815-4840-861a-36d7f7f2fd01","ios":"levelo://app?vid=406c72fc-c815-4840-861a-36d7f7f2fd01"},"vehicle_type_id":"4","last_reported":1735729604,"current_range_meters":39200,"station_id":"ce4bhu92rcd13ifvqi70","pricing_plan_id":"cebpf4jnsgd1na2vs0mg"},{"bike_id":"014798f2-776e-4c34-8670-3f8bbd4aec0d","system_id":"levelo_inurba_marseille","lat":43.27938,"lon":5.41052,"is_reserved":false,"is_disabled":false,"rental_uris":{"android":"levelo://app?vid=014798f2-776e-4c34-8670-3f8bbd4aec0d","ios":"levelo://app?vid=014798f2-776e-4c34-8670-3f8bbd4aec0d"},"vehicle_type_id":"4","last_reported":1735729604,"current_range_meters":33600,"station_id":"ce4bhnp2rcd13ifvqh0g","pricing_plan_id":"cebpf4jnsgd1na2vs0mg"},{"bike_id":"d08aed72-c4aa-4b14-9e94-1554d28646fc","system_id":"levelo_inurba_marseille","lat":43.23963,"lon":5.36632,"is_reserved":false,"is_disabled":false,"rental_uris":{"android":"levelo://app?vid=d08aed72-c4aa-4b14-9e94-1554d28646fc","ios":"levelo://app?vid=d08aed72-c4aa-4b14-9e94-1554d28646fc"},"vehicle_type_id":"4","last_reported":1735729604,"current_range_meters":38800,"station_id":"ce4bhi12rcd13ifvqfp0","pricing_plan_id":"cebpf4jnsgd1na2vs0mg"},{"bike_id":"76443485-bcd6-4607-9286-3a71978e6eb5","system_id":"levelo_inurba_marseille","lat":43.24362,"lon":5.37067,"is_reserved":false,"is_disabled":false,"rental_uris":{"android":"levelo://app?vid=76443485-bcd6-4607-9286-3a71978e6eb5","ios":"levelo://app?vid=76443485-bcd6-4607-9286-3a71978e6eb5"},"vehicle_type_id":"4","last_reported":1735729604,"current_range_meters":9600,"station_id":"ce4bhhh2rcd13ifvqfk0","pricing_plan_id":"cebpf4jnsgd1na2vs0mg"},{"bike_id":"c486d2da-6493-41c3-8988-0b4d24010b8d","system_id":"levelo_inurba_marseille","lat":43.28349,"lon":5.38099,"is_reserved":false,"is_disabled":false,"rental_uris":{"android":"levelo://app?vid=c486d2da-6493-41c3-8988-0b4d24010b8d","ios":"levelo://app?vid=c486d2da-6493-41c3-8988-0b4d24010b8d"},"vehicle_type_id":"4","last_reported":1735729604,"current_range_meters":31200,"station_id":"ce4bh412rcd13ifvqdr0","pricing_plan_id":"cebpf4jnsgd1na2vs0mg"},{"bike_id":"a3517146-3a38-485e-9b65-46f28f14e1c6","system_id":"levelo_inurba_marseille","lat":43.26942,"lon":5.3892,"is_reserved":false,"is_disabled":false,"rental_uris":{"android":"levelo://app?vid=a3517146-3a38-485e-9b65-46f28f14e1c6","ios":"levelo://app?vid=a3517146-3a38-485e-9b65-46f28f14e1c6"},"vehicle_type_id":"4","last_reported":1735729604,"current_range_meters":32000,"station_id":"ce4bhhh2rcd13ifvqfl0","pricing_plan_id":"cebpf4jnsgd1na2vs0mg"},{"bike_id":"29e41b02-be52-4633-b267-4292f5ed1d1a","system_id":"levelo_inurba_marseille","lat":43.25858,"lon":5.39904,"is_reserved":false,"is_disabled":false,"rental_uris":{"android":"levelo://app?vid=29e41b02-be52-4633-b267-4292f5ed1d1a","ios":"levelo://app?vid=29e41b02-be52-4633-b267-4292f5ed1d1a"},"vehicle_type_id":"4","last_reported":1735729604,"current_range_meters":3600,"station_id":"ce4bhl92rcd13ifvqghg","pricing_plan_id":"cebpf4jnsgd1na2vs0mg"},{"bike_id":"c99b8dcf-e235-478c-baab-6f381cbb552a","system_id":"levelo_inurba_marseille","lat":43.29518,"lon":5.39041,"is_reserved":false,"is_disabled":false,"rental_uris":{"android":"levelo://app?vid=c99b8dcf-e235-478c-baab-6f381cbb552a","ios":"levelo://app?vid=c99b8dcf-e235-478c-baab-6f381cbb552a"},"vehicle_type_id":"4","last_reported":1735729604,"current_range_meters":13600,"station_id":"ce4bh3p2rcd13ifvqdp0","pricing_plan_id":"cebpf4jnsgd1na2vs0mg"},{"bike_id":"a5c93878-65a6-40b6-873c-b15e1c191ccd","system_id":"levelo_inurba_marseille","lat":43.27944,"lon":5.41011,"is_reserved":false,"is_disabled":false,"rental_uris":{"android":"levelo://app?vid=a5c93878-65a6-40b6-873c-b15e1c191ccd","ios":"levelo://app?vid=a5c93878-65a6-40b6-873c-b15e1c191ccd"},"vehicle_type_id":"4","last_reported":1735729604,"current_range_meters":34000,"station_id":"ce4bhnp2rcd13ifvqh0g","pricing_plan_id":"cebpf4jnsgd1na2vs0mg"},{"bike_id":"8a8d2384-33d6-4e3f-befc-59293242646b","system_id":"levelo_inurba_marseille","lat":43.30772,"lon":5.37651,"is_reserved":false,"is_disabled":false,"rental_uris":{"android":"levelo://app?vid=8a8d2384-33d6-4e3f-befc-59293242646b","ios":"levelo://app?vid=8a8d2384-33d6-4e3f-befc-59293242646b"},"vehicle_type_id":"4","last_reported":1735729604,"current_range_meters":38800,"station_id":"ce4bgv92rcd13ifvqcq0","pricing_plan_id":"cebpf4jnsgd1na2vs0mg"},{"bike_id":"c396f0aa-0ed6-47f3-b47b-0c577c6bac6d","system_id":"levelo_inurba_marseille","lat":43.2807,"lon":5.39651,"is_reserved":false,"is_disabled":false,"rental_uris":{"android":"levelo://app?vid=c396f0aa-0ed6-47f3-b47b-0c577c6bac6d","ios":"levelo://app?vid=c396f0aa-0ed6-47f3-b47b-0c577c6bac6d"},"vehicle_type_id":"4","last_reported":1735729604,"current_range_meters":38800,"station_id":"ce4bho12rcd13ifvqh2g","pricing_plan_id":"cebpf4jnsgd1na2vs0mg"},{"bike_id":"ff49d49a-53c3-499a-b296-89a67f332a8a","system_id":"levelo_inurba_marseille","lat":43.24165,"lon":5.36403,"is_reserved":false,"is_disabled":false,"rental_uris":{"android":"levelo://app?vid=ff49d49a-53c3-499a-b296-89a67f332a8a","ios":"levelo://app?vid=ff49d49a-53c3-499a-b296-89a67f332a8a"},"vehicle_type_id":"4","last_reported":1735729604,"current_range_meters":33600,"station_id":"cpo36qri1sfpv3e86is0","pricing_plan_id":"cebpf4jnsgd1na2vs0mg"},{"bike_id":"f060fe60-43b5-4c23-8bc7-369e88e1b658","system_id":"levelo_inurba_marseille","lat":43.324,"lon":5.38979,"is_reserved":false,"is_disabled":false,"rental_uris":{"android":"levelo://app?vid=f060fe60-43b5-4c23-8bc7-369e88e1b658","ios":"levelo://app?vid=f060fe60-43b5-4c23-8bc7-369e88e1b658"},"vehicle_type_id":"4","last_reported":1735729604,"current_range_meters":8400,"station_id":"","pricing_plan_id":"cebpf4jnsgd1na2vs0mg"},{"bike_id":"d9b95949-d692-4b6d-b82f-65dd27c9ef21","system_id":"levelo_inurba_marseille","lat":43.32448,"lon":5.36587,"is_reserved":false,"is_disabled":false,"rental_uris":{"android":"levelo://app?vid=d9b95949-d692-4b6d-b82f-65dd27c9ef21","ios":"levelo://app?vid=d9b95949-d692-4b6d-b82f-65dd27c9ef21"},"vehicle_type_id":"4","last_reported":1735729604,"current_range_meters":29600,"station_id":"ce4bhs12rcd13ifvqhvg","pricing_plan_id":"cebpf4jnsgd1na2vs0mg"},{"bike_id":"749fe38c-8def-476c-84d1-64964897f501","system_id":"levelo_inurba_marseille","lat":43.273017,"lon":5.390923,"is_reserved":false,"is_disabled":false,"rental_uris":{"android":"levelo://app?vid=749fe38c-8def-476c-84d1-64964897f501","ios":"levelo://app?vid=749fe38c-8def-476c-84d1-64964897f501"},"vehicle_type_id":"4","last_reported":1735729604,"current_range_meters":22400,"station_id":"ce4bhgp2rcd13ifvqfe0","pricing_plan_id":"cebpf4jnsgd1na2vs0mg"},{"bike_id":"c3ba5b5b-015c-4689-95a9-abcb1279b90e","system_id":"levelo_inurba_marseille","lat":43.24643,"lon":5.38912,"is_reserved":false,"is_disabled":false,"rental_uris":{"android":"levelo://app?vid=c3ba5b5b-015c-4689-95a9-abcb1279b90e","ios":"levelo://app?vid=c3ba5b5b-015c-4689-95a9-abcb1279b90e"},"vehicle_type_id":"4","last_reported":1735729604,"current_range_meters":39200,"station_id":"ce4bhg12rcd13ifvqf60","pricing_plan_id":"cebpf4jnsgd1na2vs0mg"},{"bike_id":"027085de-3c06-4c90-8099-b9537f78e863","system_id":"levelo_inurba_marseille","lat":43.23164,"lon":5.43683,"is_reserved":false,"is_disabled":false,"rental_uris":{"android":"levelo://app?vid=027085de-3c06-4c90-8099-b9537f78e863","ios":"levelo://app?vid=027085de-3c06-4c90-8099-b9537f78e863"},"vehicle_type_id":"4","last_reported":1735729604,"current_range_meters":35600,"station_id":"ce4bhmp2rcd13ifvqgog","pricing_plan_id":"cebpf4jnsgd1na2vs0mg"},{"bike_id":"924b8338-4a40-42e8-8ff9-5a56a6ed9db8","system_id":"levelo_inurba_marseille","lat":43.28698,"lon":5.39986,"is_reserved":false,"is_disabled":false,"rental_uris":{"android":"levelo://app?vid=924b8338-4a40-42e8-8ff9-5a56a6ed9db8","ios":"levelo://app?vid=924b8338-4a40-42e8-8ff9-5a56a6ed9db8"},"vehicle_type_id":"4","last_reported":1735729604,"current_range_meters":38800,"station_id":"ce4bho92rcd13ifvqh3g","pricing_plan_id":"cebpf4jnsgd1na2vs0mg"},{"bike_id":"ed4dbc06-5f02-4135-b3d8-03e171e13ed9","system_id":"levelo_inurba_marseille","lat":43.26538,"lon":5.39036,"is_reserved":false,"is_disabled":false,"rental_uris":{"android":"levelo://app?vid=ed4dbc06-5f02-4135-b3d8-03e171e13ed9","ios":"levelo://app?vid=ed4dbc06-5f02-4135-b3d8-03e171e13ed9"},"vehicle_type_id":"4","last_reported":1735729604,"current_range_meters":27200,"station_id":"ce4bhe12rcd13ifvqf30","pricing_plan_id":"cebpf4jnsgd1na2vs0mg"},{"bike_id":"dd43ec1a-328a-4f14-a1c5-2dfbd492ab23","system_id":"levelo_inurba_marseille","lat":43.31317,"lon":5.39706,"is_reserved":false,"is_disabled":false,"rental_uris":{"android":"levelo://app?vid=dd43ec1a-328a-4f14-a1c5-2dfbd492ab23","ios":"levelo://app?vid=dd43ec1a-328a-4f14-a1c5-2dfbd492ab23"},"vehicle_type_id":"4","last_reported":1735729604,"current_range_meters":34800,"station_id":"ce4bgvp2rcd13ifvqcu0","pricing_plan_id":"cebpf4jnsgd1na2vs0mg"},{"bike_id":"e7774da4-c308-4bfa-aba8-31efca07b3a0","system_id":"levelo_inurba_marseille","lat":43.33741,"lon":5.37467,"is_reserved":false,"is_disabled":true,"rental_uris":{"android":"levelo://app?vid=e7774da4-c308-4bfa-aba8-31efca07b3a0","ios":"levelo://app?vid=e7774da4-c308-4bfa-aba8-31efca07b3a0"},"vehicle_type_id":"4","last_reported":1735729604,"current_range_meters":8400,"station_id":"","pricing_plan_id":"cebpf4jnsgd1na2vs0mg"},{"bike_id":"49bee660-6c79-461c-a4c0-1dbce66c16a2","system_id":"levelo_inurba_marseille","lat":43.27314,"lon":5.39099,"is_reserved":false,"is_disabled":false,"rental_uris":{"android":"levelo://app?vid=49bee660-6c79-461c-a4c0-1dbce66c16a2","ios":"levelo://app?vid=49bee660-6c79-461c-a4c0-1dbce66c16a2"},"vehicle_type_id":"4","last_reported":1735729604,"current_range_meters":37600,"station_id":"ce4bhgp2rcd13ifvqfe0","pricing_plan_id":"cebpf4jnsgd1na2vs0mg"},{"bike_id":"76efae45-a52e-4bbd-a0f0-7f166072bc17","system_id":"levelo_inurba_marseille","lat":43.31358,"lon":5.38501,"is_reserved":false,"is_disabled":true,"rental_uris":{"android":"levelo://app?vid=76efae45-a52e-4bbd-a0f0-7f166072bc17","ios":"levelo://app?vid=76efae45-a52e-4bbd-a0f0-7f166072bc17"},"vehicle_type_id":"4","last_reported":1735729604,"current_range_meters":800,"station_id":"ce4bgt92rcd13ifvqcf0","pricing_plan_id":"cebpf4jnsgd1na2vs0mg"},{"bike_id":"ad09079b-2a66-443a-a13d-b1f84ab569d5","system_id":"levelo_inurba_marseille","lat":43.250007,"lon":5.389277,"is_reserved":false,"is_disabled":false,"rental_uris":{"android":"levelo://app?vid=ad09079b-2a66-443a-a13d-b1f84ab569d5","ios":"levelo://app?vid=ad09079b-2a66-443a-a13d-b1f84ab569d5"},"vehicle_type_id":"4","last_reported":1735729604,"current_range_meters":38000,"station_id":"ce4bhgp2rcd13ifvqfd0","pricing_plan_id":"cebpf4jnsgd1na2vs0mg"},{"bike_id":"1b9666de-703f-4874-9b63-e9d42533848b","system_id":"levelo_inurba_marseille","lat":43.31894,"lon":5.40731,"is_reserved":false,"is_disabled":false,"rental_uris":{"android":"levelo://app?vid=1b9666de-703f-4874-9b63-e9d42533848b","ios":"levelo://app?vid=1b9666de-703f-4874-9b63-e9d42533848b"},"vehicle_type_id":"4","last_reported":1735729604,"current_range_meters":39200,"station_id":"ce4bhq12rcd13ifvqhig","pricing_plan_id":"cebpf4jnsgd1na2vs0mg"},{"bike_id":"67ba2b1c-c61a-46e9-95cd-2243b1c0a80c","system_id":"levelo_inurba_marseille","lat":43.3089,"lon":5.37196,"is_reserved":false,"is_disabled":false,"rental_uris":{"android":"levelo://app?vid=67ba2b1c-c61a-46e9-95cd-2243b1c0a80c","ios":"levelo://app?vid=67ba2b1c-c61a-46e9-95cd-2243b1c0a80c"},"vehicle_type_id":"4","last_reported":1735729604,"current_range_meters":28400,"station_id":"ce4bguh2rcd13ifvqckg","pricing_plan_id":"cebpf4jnsgd1na2vs0mg"},{"bike_id":"de8a4f85-4c17-4f4a-9510-dff177cf3feb","system_id":"levelo_inurba_marseille","lat":43.30415,"lon":5.41284,"is_reserved":false,"is_disabled":false,"rental_uris":{"android":"levelo://app?vid=de8a4f85-4c17-4f4a-9510-dff177cf3feb","ios":"levelo://app?vid=de8a4f85-4c17-4f4a-9510-dff177cf3feb"},"vehicle_type_id":"4","last_reported":1735729604,"current_range_meters":32800,"station_id":"ce4bhop2rcd13ifvqh8g","pricing_plan_id":"cebpf4jnsgd1na2vs0mg"},{"bike_id":"1f6c2c11-6e60-4a9c-8157-56eb72ae0771","system_id":"levelo_inurba_marseille","lat":43.28602,"lon":5.37075,"is_reserved":false,"is_disabled":false,"rental_uris":{"android":"levelo://app?vid=1f6c2c11-6e60-4a9c-8157-56eb72ae0771","ios":"levelo://app?vid=1f6c2c11-6e60-4a9c-8157-56eb72ae0771"},"vehicle_type_id":"4","last_reported":1735729604,"current_range_meters":38800,"station_id":"ce4bht12rcd13ifvqi60","pricing_plan_id":"cebpf4jnsgd1na2vs0mg"},{"bike_id":"8aee6e51-ec03-4d1e-a7f9-0bc033449db3","system_id":"levelo_inurba_marseille","lat":43.28409,"lon":5.3752,"is_reserved":false,"is_disabled":false,"rental_uris":{"android":"levelo://app?vid=8aee6e51-ec03-4d1e-a7f9-0bc033449db3","ios":"levelo://app?vid=8aee6e51-ec03-4d1e-a7f9-0bc033449db3"},"vehicle_type_id":"4","last_reported":1735729604,"current_range_meters":32000,"station_id":"ce4bh412rcd13ifvqds0","pricing_plan_id":"cebpf4jnsgd1na2vs0mg"},{"bike_id":"09b4d46e-a013-4126-aba8-c2d7405e345e","system_id":"levelo_inurba_marseille","lat":43.30248,"lon":5.40062,"is_reserved":false,"is_disabled":false,"rental_uris":{"android":"levelo://app?vid=09b4d46e-a013-4126-aba8-c2d7405e345e","ios":"levelo://app?vid=09b4d46e-a013-4126-aba8-c2d7405e345e"},"vehicle_type_id":"4","last_reported":1735729604,"current_range_meters":36800,"station_id":"ce4bgvh2rcd13ifvqcs0","pricing_plan_id":"cebpf4jnsgd1na2vs0mg"},{"bike_id":"fc9ca4dc-eb81-4943-ba4c-9803a0a93bbb","system_id":"levelo_inurba_marseille","lat":43.32469,"lon":5.3656,"is_reserved":false,"is_disabled":false,"rental_uris":{"android":"levelo://app?vid=fc9ca4dc-eb81-4943-ba4c-9803a0a93bbb","ios":"levelo://app?vid=fc9ca4dc-eb81-4943-ba4c-9803a0a93bbb"},"vehicle_type_id":"4","last_reported":1735729604,"current_range_meters":29600,"station_id":"ce4bhs12rcd13ifvqhvg","pricing_plan_id":"cebpf4jnsgd1na2vs0mg"},{"bike_id":"da3075ee-8070-42f9-8350-58e475a60c82","system_id":"levelo_inurba_marseille","lat":43.27564,"lon":5.38441,"is_reserved":false,"is_disabled":false,"rental_uris":{"android":"levelo://app?vid=da3075ee-8070-42f9-8350-58e475a60c82","ios":"levelo://app?vid=da3075ee-8070-42f9-8350-58e475a60c82"},"vehicle_type_id":"4","last_reported":1735729604,"current_range_meters":38800,"station_id":"ce4bhh92rcd13ifvqfi0","pricing_plan_id":"cebpf4jnsgd1na2vs0mg"},{"bike_id":"716c296f-3472-482a-a3b6-6dd163ce35c2","system_id":"levelo_inurba_marseille","lat":43.28458,"lon":5.35898,"is_reserved":false,"is_disabled":false,"rental_uris":{"android":"levelo://app?vid=716c296f-3472-482a-a3b6-6dd163ce35c2","ios":"levelo://app?vid=716c296f-3472-482a-a3b6-6dd163ce35c2"},"vehicle_type_id":"4","last_reported":1735729604,"current_range_meters":9600,"station_id":"ce4bhah2rcd13ifvqei0","pricing_plan_id":"cebpf4jnsgd1na2vs0mg"},{"bike_id":"13bbf231-599a-4321-b1a1-827d41a9e628","system_id":"levelo_inurba_marseille","lat":43.30925,"lon":5.40153,"is_reserved":false,"is_disabled":false,"rental_uris":{"android":"levelo://app?vid=13bbf231-599a-4321-b1a1-827d41a9e628","ios":"levelo://app?vid=13bbf231-599a-4321-b1a1-827d41a9e628"},"vehicle_type_id":"4","last_reported":1735729604,"current_range_meters":26800,"station_id":"ce4bgvp2rcd13ifvqct0","pricing_plan_id":"cebpf4jnsgd1na2vs0mg"},{"bike_id":"28e59975-b964-4c0f-ac87-03dd9aa0f102","system_id":"levelo_inurba_marseille","lat":43.28941,"lon":5.36388,"is_reserved":false,"is_disabled":false,"rental_uris":{"android":"levelo://app?vid=28e59975-b964-4c0f-ac87-03dd9aa0f102","ios":"levelo://app?vid=28e59975-b964-4c0f-ac87-03dd9aa0f102"},"vehicle_type_id":"4","last_reported":1735729604,"current_range_meters":24400,"station_id":"ce4bhc92rcd13ifvqetg","pricing_plan_id":"cebpf4jnsgd1na2vs0mg"},{"bike_id":"e5fc90b8-f4d7-48fe-9b1b-e04042412667","system_id":"levelo_inurba_marseille","lat":43.32006,"lon":5.38133,"is_reserved":false,"is_disabled":false,"rental_uris":{"android":"levelo://app?vid=e5fc90b8-f4d7-48fe-9b1b-e04042412667","ios":"levelo://app?vid=e5fc90b8-f4d7-48fe-9b1b-e04042412667"},"vehicle_type_id":"4","last_reported":1735729604,"current_range_meters":39200,"station_id":"ce4bhr12rcd13ifvqhpg","pricing_plan_id":"cebpf4jnsgd1na2vs0mg"},{"bike_id":"ba5368c0-c1ed-4093-9ac5-9de6b9ef6b55","system_id":"levelo_inurba_marseille","lat":43.30865,"lon":5.39684,"is_reserved":false,"is_disabled":false,"rental_uris":{"android":"levelo://app?vid=ba5368c0-c1ed-4093-9ac5-9de6b9ef6b55","ios":"levelo://app?vid=ba5368c0-c1ed-4093-9ac5-9de6b9ef6b55"},"vehicle_type_id":"4","last_reported":1735729604,"current_range_meters":32000,"station_id":"","pricing_plan_id":"cebpf4jnsgd1na2vs0mg"},{"bike_id":"9442beb3-1455-4adc-8931-0b082c806807","system_id":"levelo_inurba_marseille","lat":43.30273,"lon":5.40073,"is_reserved":false,"is_disabled":false,"rental_uris":{"android":"levelo://app?vid=9442beb3-1455-4adc-8931-0b082c806807","ios":"levelo://app?vid=9442beb3-1455-4adc-8931-0b082c806807"},"vehicle_type_id":"4","last_reported":1735729604,"current_range_meters":39200,"station_id":"ce4bgvh2rcd13ifvqcs0","pricing_plan_id":"cebpf4jnsgd1na2vs0mg"},{"bike_id":"1801346e-1e1d-4686-92d7-c4a0bcce5f31","system_id":"levelo_inurba_marseille","lat":43.26946,"lon":5.38915,"is_reserved":false,"is_disabled":false,"rental_uris":{"android":"levelo://app?vid=1801346e-1e1d-4686-92d7-c4a0bcce5f31","ios":"levelo://app?vid=1801346e-1e1d-4686-92d7-c4a0bcce5f31"},"vehicle_type_id":"4","last_reported":1735729604,"current_range_meters":39200,"station_id":"ce4bhhh2rcd13ifvqfl0","pricing_plan_id":"cebpf4jnsgd1na2vs0mg"},{"bike_id":"b6daf7f7-9e92-49f6-9bd6-324d01a67477","system_id":"levelo_inurba_marseille","lat":43.30182,"lon":5.36642,"is_reserved":false,"is_disabled":false,"rental_uris":{"android":"levelo://app?vid=b6daf7f7-9e92-49f6-9bd6-324d01a67477","ios":"levelo://app?vid=b6daf7f7-9e92-49f6-9bd6-324d01a67477"},"vehicle_type_id":"4","last_reported":1735729604,"current_range_meters":38400,"station_id":"ce4bgrh2rcd13ifvqc8g","pricing_plan_id":"cebpf4jnsgd1na2vs0mg"},{"bike_id":"0a307a77-69d5-45d3-8b82-e5d4307eaa77","system_id":"levelo_inurba_marseille","lat":43.28267,"lon":5.35062,"is_reserved":false,"is_disabled":false,"rental_uris":{"android":"levelo://app?vid=0a307a77-69d5-45d3-8b82-e5d4307eaa77","ios":"levelo://app?vid=0a307a77-69d5-45d3-8b82-e5d4307eaa77"},"vehicle_type_id":"4","last_reported":1735729604,"current_range_meters":24800,"station_id":"ce4bhbp2rcd13ifvqerg","pricing_plan_id":"cebpf4jnsgd1na2vs0mg"},{"bike_id":"b29e6f20-8cee-47fa-909d-1ea34c4aaaa0","system_id":"levelo_inurba_marseille","lat":43.24432,"lon":5.39663,"is_reserved":false,"is_disabled":false,"rental_uris":{"android":"levelo://app?vid=b29e6f20-8cee-47fa-909d-1ea34c4aaaa0","ios":"levelo://app?vid=b29e6f20-8cee-47fa-909d-1ea34c4aaaa0"},"vehicle_type_id":"4","last_reported":1735729604,"current_range_meters":18800,"station_id":"","pricing_plan_id":"cebpf4jnsgd1na2vs0mg"},{"bike_id":"f1ae0bf8-0350-41dd-95ca-65a425c0e4b6","system_id":"levelo_inurba_marseille","lat":43.30303,"lon":5.369,"is_reserved":false,"is_disabled":false,"rental_uris":{"android":"levelo://app?vid=f1ae0bf8-0350-41dd-95ca-65a425c0e4b6","ios":"levelo://app?vid=f1ae0bf8-0350-41dd-95ca-65a425c0e4b6"},"vehicle_type_id":"4","last_reported":1735729604,"current_range_meters":39200,"station_id":"ce4bgqh2rcd13ifvqc5g","pricing_plan_id":"cebpf4jnsgd1na2vs0mg"},{"bike_id":"436e82f4-f2ae-49ca-b349-14409bc9531c","system_id":"levelo_inurba_marseille","lat":43.266877,"lon":5.382675,"is_reserved":false,"is_disabled":false,"rental_uris":{"android":"levelo://app?vid=436e82f4-f2ae-49ca-b349-14409bc9531c","ios":"levelo://app?vid=436e82f4-f2ae-49ca-b349-14409bc9531c"},"vehicle_type_id":"4","last_reported":1735729604,"current_range_meters":28800,"station_id":"ce4bhg92rcd13ifvqf90","pricing_plan_id":"cebpf4jnsgd1na2vs0mg"},{"bike_id":"73951743-e2d8-48c8-9b4b-49f6b638eeb5","system_id":"levelo_inurba_marseille","lat":43.300943,"lon":5.390903,"is_reserved":false,"is_disabled":false,"rental_uris":{"android":"levelo://app?vid=73951743-e2d8-48c8-9b4b-49f6b638eeb5","ios":"levelo://app?vid=73951743-e2d8-48c8-9b4b-49f6b638eeb5"},"vehicle_type_id":"4","last_reported":1735729604,"current_range_meters":32800,"station_id":"ce4bh192rcd13ifvqdb0","pricing_plan_id":"cebpf4jnsgd1na2vs0mg"},{"bike_id":"2958545c-c42f-40c6-b109-d7dd39b54efc","system_id":"levelo_inurba_marseille","lat":43.278085,"lon":5.407132,"is_reserved":false,"is_disabled":false,"rental_uris":{"android":"levelo://app?vid=2958545c-c42f-40c6-b109-d7dd39b54efc","ios":"levelo://app?vid=2958545c-c42f-40c6-b109-d7dd39b54efc"},"vehicle_type_id":"4","last_reported":1735729604,"current_range_meters":34000,"station_id":"ce4bhnh2rcd13ifvqgtg","pricing_plan_id":"cebpf4jnsgd1na2vs0mg"},{"bike_id":"d625e588-11c3-4fb0-bbf8-82531f0a858d","system_id":"levelo_inurba_marseille","lat":43.288545,"lon":5.393114,"is_reserved":false,"is_disabled":false,"rental_uris":{"android":"levelo://app?vid=d625e588-11c3-4fb0-bbf8-82531f0a858d","ios":"levelo://app?vid=d625e588-11c3-4fb0-bbf8-82531f0a858d"},"vehicle_type_id":"4","last_reported":1735729604,"current_range_meters":38800,"station_id":"ce4bh2p2rcd13ifvqdi0","pricing_plan_id":"cebpf4jnsgd1na2vs0mg"},{"bike_id":"4e946ccd-6648-4aaa-ac0d-746ef34c5d06","system_id":"levelo_inurba_marseille","lat":43.30872,"lon":5.39645,"is_reserved":false,"is_disabled":false,"rental_uris":{"android":"levelo://app?vid=4e946ccd-6648-4aaa-ac0d-746ef34c5d06","ios":"levelo://app?vid=4e946ccd-6648-4aaa-ac0d-746ef34c5d06"},"vehicle_type_id":"4","last_reported":1735729604,"current_range_meters":11600,"station_id":"ce4bh012rcd13ifvqcv0","pricing_plan_id":"cebpf4jnsgd1na2vs0mg"},{"bike_id":"66ed4723-8a35-4bf4-860b-cd758b67909b","system_id":"levelo_inurba_marseille","lat":43.31357,"lon":5.38509,"is_reserved":false,"is_disabled":false,"rental_uris":{"android":"levelo://app?vid=66ed4723-8a35-4bf4-860b-cd758b67909b","ios":"levelo://app?vid=66ed4723-8a35-4bf4-860b-cd758b67909b"},"vehicle_type_id":"4","last_reported":1735729604,"current_range_meters":38800,"station_id":"ce4bgt92rcd13ifvqcf0","pricing_plan_id":"cebpf4jnsgd1na2vs0mg"},{"bike_id":"c557fb52-76b6-4c01-a192-456db77d7e08","system_id":"levelo_inurba_marseille","lat":43.28954,"lon":5.39624,"is_reserved":false,"is_disabled":false,"rental_uris":{"android":"levelo://app?vid=c557fb52-76b6-4c01-a192-456db77d7e08","ios":"levelo://app?vid=c557fb52-76b6-4c01-a192-456db77d7e08"},"vehicle_type_id":"4","last_reported":1735729604,"current_range_meters":38800,"station_id":"ce4bh3h2rcd13ifvqdn0","pricing_plan_id":"cebpf4jnsgd1na2vs0mg"},{"bike_id":"8b9949d8-2468-4baa-924d-f750df0d0ee9","system_id":"levelo_inurba_marseille","lat":43.27179,"lon":5.40999,"is_reserved":false,"is_disabled":false,"rental_uris":{"android":"levelo://app?vid=8b9949d8-2468-4baa-924d-f750df0d0ee9","ios":"levelo://app?vid=8b9949d8-2468-4baa-924d-f750df0d0ee9"},"vehicle_type_id":"4","last_reported":1735729604,"current_range_meters":18000,"station_id":"ce4bhl12rcd13ifvqgf0","pricing_plan_id":"cebpf4jnsgd1na2vs0mg"},{"bike_id":"e1e7bef5-99da-4588-be05-518835d4048a","system_id":"levelo_inurba_marseille","lat":43.33006,"lon":5.39093,"is_reserved":false,"is_disabled":false,"rental_uris":{"android":"levelo://app?vid=e1e7bef5-99da-4588-be05-518835d4048a","ios":"levelo://app?vid=e1e7bef5-99da-4588-be05-518835d4048a"},"vehicle_type_id":"4","last_reported":1735729604,"current_range_meters":37600,"station_id":"ce4bhr92rcd13ifvqhrg","pricing_plan_id":"cebpf4jnsgd1na2vs0mg"},{"bike_id":"9629d611-f7f1-41c6-990f-2d87cf6eea15","system_id":"levelo_inurba_marseille","lat":43.30294,"lon":5.39221,"is_reserved":false,"is_disabled":false,"rental_uris":{"android":"levelo://app?vid=9629d611-f7f1-41c6-990f-2d87cf6eea15","ios":"levelo://app?vid=9629d611-f7f1-41c6-990f-2d87cf6eea15"},"vehicle_type_id":"4","last_reported":1735729604,"current_range_meters":38800,"station_id":"ce4bgkh2rcd13ifvqbk0","pricing_plan_id":"cebpf4jnsgd1na2vs0mg"},{"bike_id":"72e77b90-afcd-4a9e-b850-cd4fb2365945","system_id":"levelo_inurba_marseille","lat":43.273927,"lon":5.390153,"is_reserved":false,"is_disabled":true,"rental_uris":{"android":"levelo://app?vid=72e77b90-afcd-4a9e-b850-cd4fb2365945","ios":"levelo://app?vid=72e77b90-afcd-4a9e-b850-cd4fb2365945"},"vehicle_type_id":"4","last_reported":1735729604,"current_range_meters":37600,"station_id":"","pricing_plan_id":"cebpf4jnsgd1na2vs0mg"},{"bike_id":"b55acca6-b0a7-437a-9d12-a1bdcc4f524c","system_id":"levelo_inurba_marseille","lat":43.29191,"lon":5.39332,"is_reserved":false,"is_disabled":false,"rental_uris":{"android":"levelo://app?vid=b55acca6-b0a7-437a-9d12-a1bdcc4f524c","ios":"levelo://app?vid=b55acca6-b0a7-437a-9d12-a1bdcc4f524c"},"vehicle_type_id":"4","last_reported":1735729604,"current_range_meters":38800,"station_id":"ce4bh192rcd13ifvqdd0","pricing_plan_id":"cebpf4jnsgd1na2vs0mg"},{"bike_id":"6531a9a9-51ea-4d64-9cf9-3bdd7e3a4118","system_id":"levelo_inurba_marseille","lat":43.28463,"lon":5.38416,"is_reserved":false,"is_disabled":false,"rental_uris":{"android":"levelo://app?vid=6531a9a9-51ea-4d64-9cf9-3bdd7e3a4118","ios":"levelo://app?vid=6531a9a9-51ea-4d64-9cf9-3bdd7e3a4118"},"vehicle_type_id":"4","last_reported":1735729604,"current_range_meters":14000,"station_id":"ce4bh512rcd13ifvqe3g","pricing_plan_id":"cebpf4jnsgd1na2vs0mg"},{"bike_id":"769e9f7d-8d35-4eb0-8da3-589c4c9f25d7","system_id":"levelo_inurba_marseille","lat":43.29888,"lon":5.43661,"is_reserved":false,"is_disabled":false,"rental_uris":{"android":"levelo://app?vid=769e9f7d-8d35-4eb0-8da3-589c4c9f25d7","ios":"levelo://app?vid=769e9f7d-8d35-4eb0-8da3-589c4c9f25d7"},"vehicle_type_id":"4","last_reported":1735729604,"current_range_meters":4000,"station_id":"ce4bhpp2rcd13ifvqhfg","pricing_plan_id":"cebpf4jnsgd1na2vs0mg"},{"bike_id":"9abba3dd-2152-45b1-ae00-71d57f759f4c","system_id":"levelo_inurba_marseille","lat":43.28266,"lon":5.35081,"is_reserved":false,"is_disabled":false,"rental_uris":{"android":"levelo://app?vid=9abba3dd-2152-45b1-ae00-71d57f759f4c","ios":"levelo://app?vid=9abba3dd-2152-45b1-ae00-71d57f759f4c"},"vehicle_type_id":"4","last_reported":1735729604,"current_range_meters":30400,"station_id":"ce4bhbp2rcd13ifvqerg","pricing_plan_id":"cebpf4jnsgd1na2vs0mg"},{"bike_id":"d358c29f-6972-45d9-ab88-d417f38017f7","system_id":"levelo_inurba_marseille","lat":43.28728,"lon":5.36091,"is_reserved":false,"is_disabled":false,"rental_uris":{"android":"levelo://app?vid=d358c29f-6972-45d9-ab88-d417f38017f7","ios":"levelo://app?vid=d358c29f-6972-45d9-ab88-d417f38017f7"},"vehicle_type_id":"4","last_reported":1735729604,"current_range_meters":30000,"station_id":"cki0cbj6b192h4jlfktg","pricing_plan_id":"cebpf4jnsgd1na2vs0mg"},{"bike_id":"24fd1ceb-578d-4632-806d-7d0442aa3d86","system_id":"levelo_inurba_marseille","lat":43.29779,"lon":5.39549,"is_reserved":false,"is_disabled":true,"rental_uris":{"android":"levelo://app?vid=24fd1ceb-578d-4632-806d-7d0442aa3d86","ios":"levelo://app?vid=24fd1ceb-578d-4632-806d-7d0442aa3d86"},"vehicle_type_id":"4","last_reported":1735729604,"current_range_meters":0,"station_id":"","pricing_plan_id":"cebpf4jnsgd1na2vs0mg"},{"bike_id":"5ed30ea6-8073-4473-aab5-61728e37fd52","system_id":"levelo_inurba_marseille","lat":43.30581,"lon":5.39359,"is_reserved":false,"is_disabled":false,"rental_uris":{"android":"levelo://app?vid=5ed30ea6-8073-4473-aab5-61728e37fd52","ios":"levelo://app?vid=5ed30ea6-8073-4473-aab5-61728e37fd52"},"vehicle_type_id":"4","last_reported":1735729604,"current_range_meters":24800,"station_id":"ce4bh0p2rcd13ifvqd80","pricing_plan_id":"cebpf4jnsgd1na2vs0mg"},{"bike_id":"30a49652-d136-44e4-a4d9-d7c1b83f0627","system_id":"levelo_inurba_marseille","lat":43.30189,"lon":5.37543,"is_reserved":false,"is_disabled":true,"rental_uris":{"android":"levelo://app?vid=30a49652-d136-44e4-a4d9-d7c1b83f0627","ios":"levelo://app?vid=30a49652-d136-44e4-a4d9-d7c1b83f0627"},"vehicle_type_id":"4","last_reported":1735729604,"current_range_meters":0,"station_id":"","pricing_plan_id":"cebpf4jnsgd1na2vs0mg"},{"bike_id":"8e43fa85-9764-4a8e-9f3b-20e1a8b81057","system_id":"levelo_inurba_marseille","lat":43.33837,"lon":5.4228,"is_reserved":false,"is_disabled":false,"rental_uris":{"android":"levelo://app?vid=8e43fa85-9764-4a8e-9f3b-20e1a8b81057","ios":"levelo://app?vid=8e43fa85-9764-4a8e-9f3b-20e1a8b81057"},"vehicle_type_id":"4","last_reported":1735729604,"current_range_meters":9200,"station_id":"","pricing_plan_id":"cebpf4jnsgd1na2vs0mg"},{"bike_id":"544f1707-8cee-4515-8c4e-024e8c5531e8","system_id":"levelo_inurba_marseille","lat":43.32459,"lon":5.36562,"is_reserved":false,"is_disabled":false,"rental_uris":{"android":"levelo://app?vid=544f1707-8cee-4515-8c4e-024e8c5531e8","ios":"levelo://app?vid=544f1707-8cee-4515-8c4e-024e8c5531e8"},"vehicle_type_id":"4","last_reported":1735729604,"current_range_meters":16000,"station_id":"ce4bhs12rcd13ifvqhvg","pricing_plan_id":"cebpf4jnsgd1na2vs0mg"},{"bike_id":"5edc9490-e816-46ce-bfd4-cf1e2e5e8dce","system_id":"levelo_inurba_marseille","lat":43.3016,"lon":5.38082,"is_reserved":false,"is_disabled":false,"rental_uris":{"android":"levelo://app?vid=5edc9490-e816-46ce-bfd4-cf1e2e5e8dce","ios":"levelo://app?vid=5edc9490-e816-46ce-bfd4-cf1e2e5e8dce"},"vehicle_type_id":"4","last_reported":1735729604,"current_range_meters":36400,"station_id":"ce4bgjp2rcd13ifvqbh0","pricing_plan_id":"cebpf4jnsgd1na2vs0mg"},{"bike_id":"9965033c-8b8a-4b3a-853b-785e6ed02405","system_id":"levelo_inurba_marseille","lat":43.31056,"lon":5.38135,"is_reserved":false,"is_disabled":false,"rental_uris":{"android":"levelo://app?vid=9965033c-8b8a-4b3a-853b-785e6ed02405","ios":"levelo://app?vid=9965033c-8b8a-4b3a-853b-785e6ed02405"},"vehicle_type_id":"4","last_reported":1735729604,"current_range_meters":24800,"station_id":"","pricing_plan_id":"cebpf4jnsgd1na2vs0mg"},{"bike_id":"b895e7be-3b22-4c26-a96b-8e72c85a6dee","system_id":"levelo_inurba_marseille","lat":43.28708,"lon":5.39986,"is_reserved":false,"is_disabled":false,"rental_uris":{"android":"levelo://app?vid=b895e7be-3b22-4c26-a96b-8e72c85a6dee","ios":"levelo://app?vid=b895e7be-3b22-4c26-a96b-8e72c85a6dee"},"vehicle_type_id":"4","last_reported":1735729604,"current_range_meters":30000,"station_id":"ce4bho92rcd13ifvqh3g","pricing_plan_id":"cebpf4jnsgd1na2vs0mg"},{"bike_id":"cd74a333-9a1d-4930-b287-4902bed467c1","system_id":"levelo_inurba_marseille","lat":43.30837,"lon":5.38136,"is_reserved":false,"is_disabled":false,"rental_uris":{"android":"levelo://app?vid=cd74a333-9a1d-4930-b287-4902bed467c1","ios":"levelo://app?vid=cd74a333-9a1d-4930-b287-4902bed467c1"},"vehicle_type_id":"4","last_reported":1735729604,"current_range_meters":38800,"station_id":"ce4bgt12rcd13ifvqce0","pricing_plan_id":"cebpf4jnsgd1na2vs0mg"},{"bike_id":"602066a0-2260-4df6-91ea-a3f6be32a7d2","system_id":"levelo_inurba_marseille","lat":43.31739,"lon":5.3905,"is_reserved":false,"is_disabled":false,"rental_uris":{"android":"levelo://app?vid=602066a0-2260-4df6-91ea-a3f6be32a7d2","ios":"levelo://app?vid=602066a0-2260-4df6-91ea-a3f6be32a7d2"},"vehicle_type_id":"4","last_reported":1735729604,"current_range_meters":38800,"station_id":"ce4bhqp2rcd13ifvqhng","pricing_plan_id":"cebpf4jnsgd1na2vs0mg"},{"bike_id":"d996ebe6-a085-4671-8aef-57e91ba860dc","system_id":"levelo_inurba_marseille","lat":43.26812,"lon":5.40244,"is_reserved":false,"is_disabled":false,"rental_uris":{"android":"levelo://app?vid=d996ebe6-a085-4671-8aef-57e91ba860dc","ios":"levelo://app?vid=d996ebe6-a085-4671-8aef-57e91ba860dc"},"vehicle_type_id":"4","last_reported":1735729604,"current_range_meters":28800,"station_id":"ce501612rcd8frsf0b60","pricing_plan_id":"cebpf4jnsgd1na2vs0mg"},{"bike_id":"3d105c89-1a7e-4faf-b4f8-bd1dc0eb87a2","system_id":"levelo_inurba_marseille","lat":43.31082,"lon":5.42425,"is_reserved":false,"is_disabled":false,"rental_uris":{"android":"levelo://app?vid=3d105c89-1a7e-4faf-b4f8-bd1dc0eb87a2","ios":"levelo://app?vid=3d105c89-1a7e-4faf-b4f8-bd1dc0eb87a2"},"vehicle_type_id":"4","last_reported":1735729604,"current_range_meters":24400,"station_id":"ce4bhp92rcd13ifvqhag","pricing_plan_id":"cebpf4jnsgd1na2vs0mg"},{"bike_id":"6c29b31c-ae3e-4023-8789-26b6c4d26fc4","system_id":"levelo_inurba_marseille","lat":43.2406,"lon":5.37742,"is_reserved":false,"is_disabled":false,"rental_uris":{"android":"levelo://app?vid=6c29b31c-ae3e-4023-8789-26b6c4d26fc4","ios":"levelo://app?vid=6c29b31c-ae3e-4023-8789-26b6c4d26fc4"},"vehicle_type_id":"4","last_reported":1735729604,"current_range_meters":39200,"station_id":"ce4bhnp2rcd13ifvqgvg","pricing_plan_id":"cebpf4jnsgd1na2vs0mg"},{"bike_id":"4d58319e-7d9e-4a48-ae60-840b828182a7","system_id":"levelo_inurba_marseille","lat":43.27941,"lon":5.41045,"is_reserved":false,"is_disabled":false,"rental_uris":{"android":"levelo://app?vid=4d58319e-7d9e-4a48-ae60-840b828182a7","ios":"levelo://app?vid=4d58319e-7d9e-4a48-ae60-840b828182a7"},"vehicle_type_id":"4","last_reported":1735729604,"current_range_meters":27200,"station_id":"ce4bhnp2rcd13ifvqh0g","pricing_plan_id":"cebpf4jnsgd1na2vs0mg"},{"bike_id":"7f9e49d8-8213-48ff-8267-1347961734e7","system_id":"levelo_inurba_marseille","lat":43.2784,"lon":5.39197,"is_reserved":false,"is_disabled":false,"rental_uris":{"android":"levelo://app?vid=7f9e49d8-8213-48ff-8267-1347961734e7","ios":"levelo://app?vid=7f9e49d8-8213-48ff-8267-1347961734e7"},"vehicle_type_id":"4","last_reported":1735729604,"current_range_meters":38800,"station_id":"ce4bhjp2rcd13ifvqga0","pricing_plan_id":"cebpf4jnsgd1na2vs0mg"},{"bike_id":"737ef40e-a86b-4f85-a60b-fd1719a16354","system_id":"levelo_inurba_marseille","lat":43.28683,"lon":5.4004,"is_reserved":false,"is_disabled":false,"rental_uris":{"android":"levelo://app?vid=737ef40e-a86b-4f85-a60b-fd1719a16354","ios":"levelo://app?vid=737ef40e-a86b-4f85-a60b-fd1719a16354"},"vehicle_type_id":"4","last_reported":1735729604,"current_range_meters":38800,"station_id":"ce4bho92rcd13ifvqh3g","pricing_plan_id":"cebpf4jnsgd1na2vs0mg"},{"bike_id":"69b033d3-5f35-46fb-9a0f-517b6be49ce8","system_id":"levelo_inurba_marseille","lat":43.28364,"lon":5.3864,"is_reserved":false,"is_disabled":false,"rental_uris":{"android":"levelo://app?vid=69b033d3-5f35-46fb-9a0f-517b6be49ce8","ios":"levelo://app?vid=69b033d3-5f35-46fb-9a0f-517b6be49ce8"},"vehicle_type_id":"4","last_reported":1735729604,"current_range_meters":38400,"station_id":"ce4bh492rcd13ifvqdvg","pricing_plan_id":"cebpf4jnsgd1na2vs0mg"},{"bike_id":"ea990fc9-5f95-4acd-a2be-29105099e24e","system_id":"levelo_inurba_marseille","lat":43.23063,"lon":5.35489,"is_reserved":false,"is_disabled":true,"rental_uris":{"android":"levelo://app?vid=ea990fc9-5f95-4acd-a2be-29105099e24e","ios":"levelo://app?vid=ea990fc9-5f95-4acd-a2be-29105099e24e"},"vehicle_type_id":"4","last_reported":1735729604,"current_range_meters":31200,"station_id":"cpo3342slgdg3j2ifvpg","pricing_plan_id":"cebpf4jnsgd1na2vs0mg"},{"bike_id":"2f88a2e1-992c-466c-87a8-278e13b26a68","system_id":"levelo_inurba_marseille","lat":43.3147,"lon":5.37289,"is_reserved":false,"is_disabled":false,"rental_uris":{"android":"levelo://app?vid=2f88a2e1-992c-466c-87a8-278e13b26a68","ios":"levelo://app?vid=2f88a2e1-992c-466c-87a8-278e13b26a68"},"vehicle_type_id":"4","last_reported":1735729604,"current_range_meters":36000,"station_id":"ce4bgt12rcd13ifvqcd0","pricing_plan_id":"cebpf4jnsgd1na2vs0mg"},{"bike_id":"711f1fd4-0cad-4b01-a65d-e868b4eef140","system_id":"levelo_inurba_marseille","lat":43.29239,"lon":5.40899,"is_reserved":false,"is_disabled":false,"rental_uris":{"android":"levelo://app?vid=711f1fd4-0cad-4b01-a65d-e868b4eef140","ios":"levelo://app?vid=711f1fd4-0cad-4b01-a65d-e868b4eef140"},"vehicle_type_id":"4","last_reported":1735729604,"current_range_meters":38800,"station_id":"ce4bh192rcd13ifvqdc0","pricing_plan_id":"cebpf4jnsgd1na2vs0mg"},{"bike_id":"875a1f95-fa28-45eb-8a15-cb8df7fccf00","system_id":"levelo_inurba_marseille","lat":43.324841,"lon":5.365618,"is_reserved":false,"is_disabled":false,"rental_uris":{"android":"levelo://app?vid=875a1f95-fa28-45eb-8a15-cb8df7fccf00","ios":"levelo://app?vid=875a1f95-fa28-45eb-8a15-cb8df7fccf00"},"vehicle_type_id":"4","last_reported":1735729604,"current_range_meters":35200,"station_id":"ce4bhs12rcd13ifvqhvg","pricing_plan_id":"cebpf4jnsgd1na2vs0mg"},{"bike_id":"f6ef02b6-6b1e-489f-b05b-4b8633c4634a","system_id":"levelo_inurba_marseille","lat":43.30518,"lon":5.3842,"is_reserved":false,"is_disabled":false,"rental_uris":{"android":"levelo://app?vid=f6ef02b6-6b1e-489f-b05b-4b8633c4634a","ios":"levelo://app?vid=f6ef02b6-6b1e-489f-b05b-4b8633c4634a"},"vehicle_type_id":"4","last_reported":1735729604,"current_range_meters":38800,"station_id":"ce4bgg92rcd13ifvqb30","pricing_plan_id":"cebpf4jnsgd1na2vs0mg"},{"bike_id":"d13b199e-e620-4f52-ae43-9a360f46ed32","system_id":"levelo_inurba_marseille","lat":43.27995,"lon":5.40035,"is_reserved":false,"is_disabled":false,"rental_uris":{"android":"levelo://app?vid=d13b199e-e620-4f52-ae43-9a360f46ed32","ios":"levelo://app?vid=d13b199e-e620-4f52-ae43-9a360f46ed32"},"vehicle_type_id":"4","last_reported":1735729604,"current_range_meters":6400,"station_id":"ce4bho92rcd13ifvqh4g","pricing_plan_id":"cebpf4jnsgd1na2vs0mg"},{"bike_id":"062bd3e7-a1b0-4a7b-be3e-67845610f912","system_id":"levelo_inurba_marseille","lat":43.31261,"lon":5.40196,"is_reserved":false,"is_disabled":false,"rental_uris":{"android":"levelo://app?vid=062bd3e7-a1b0-4a7b-be3e-67845610f912","ios":"levelo://app?vid=062bd3e7-a1b0-4a7b-be3e-67845610f912"},"vehicle_type_id":"4","last_reported":1735729604,"current_range_meters":29600,"station_id":"ce4bh092rcd13ifvqd30","pricing_plan_id":"cebpf4jnsgd1na2vs0mg"},{"bike_id":"64b201b6-baea-40fe-8ce0-09f71446a830","system_id":"levelo_inurba_marseille","lat":43.26942,"lon":5.38647,"is_reserved":false,"is_disabled":false,"rental_uris":{"android":"levelo://app?vid=64b201b6-baea-40fe-8ce0-09f71446a830","ios":"levelo://app?vid=64b201b6-baea-40fe-8ce0-09f71446a830"},"vehicle_type_id":"4","last_reported":1735729604,"current_range_meters":31200,"station_id":"ce4bhh92rcd13ifvqfh0","pricing_plan_id":"cebpf4jnsgd1na2vs0mg"},{"bike_id":"15761a5b-add9-49b7-b000-890835f6ca74","system_id":"levelo_inurba_marseille","lat":43.30202,"lon":5.36423,"is_reserved":false,"is_disabled":true,"rental_uris":{"android":"levelo://app?vid=15761a5b-add9-49b7-b000-890835f6ca74","ios":"levelo://app?vid=15761a5b-add9-49b7-b000-890835f6ca74"},"vehicle_type_id":"4","last_reported":1735729604,"current_range_meters":29600,"station_id":"","pricing_plan_id":"cebpf4jnsgd1na2vs0mg"},{"bike_id":"32afc6cc-1544-4f88-ab5c-34496cc35b04","system_id":"levelo_inurba_marseille","lat":43.23064,"lon":5.35506,"is_reserved":false,"is_disabled":false,"rental_uris":{"android":"levelo://app?vid=32afc6cc-1544-4f88-ab5c-34496cc35b04","ios":"levelo://app?vid=32afc6cc-1544-4f88-ab5c-34496cc35b04"},"vehicle_type_id":"4","last_reported":1735729604,"current_range_meters":12400,"station_id":"cpo3342slgdg3j2ifvpg","pricing_plan_id":"cebpf4jnsgd1na2vs0mg"},{"bike_id":"34d20bf1-6aea-4179-808b-978c64e28d8c","system_id":"levelo_inurba_marseille","lat":43.2781,"lon":5.40723,"is_reserved":false,"is_disabled":false,"rental_uris":{"android":"levelo://app?vid=34d20bf1-6aea-4179-808b-978c64e28d8c","ios":"levelo://app?vid=34d20bf1-6aea-4179-808b-978c64e28d8c"},"vehicle_type_id":"4","last_reported":1735729604,"current_range_meters":38800,"station_id":"ce4bhnh2rcd13ifvqgtg","pricing_plan_id":"cebpf4jnsgd1na2vs0mg"},{"bike_id":"3a96308b-7546-4ebb-b68b-68e746a49e92","system_id":"levelo_inurba_marseille","lat":43.30881,"lon":5.3964,"is_reserved":false,"is_disabled":true,"rental_uris":{"android":"levelo://app?vid=3a96308b-7546-4ebb-b68b-68e746a49e92","ios":"levelo://app?vid=3a96308b-7546-4ebb-b68b-68e746a49e92"},"vehicle_type_id":"4","last_reported":1735729604,"current_range_meters":30400,"station_id":"ce4bh012rcd13ifvqcv0","pricing_plan_id":"cebpf4jnsgd1na2vs0mg"},{"bike_id":"9705fbad-2944-4e76-a642-a2dd5578a7fc","system_id":"levelo_inurba_marseille","lat":43.27054,"lon":5.40278,"is_reserved":false,"is_disabled":false,"rental_uris":{"android":"levelo://app?vid=9705fbad-2944-4e76-a642-a2dd5578a7fc","ios":"levelo://app?vid=9705fbad-2944-4e76-a642-a2dd5578a7fc"},"vehicle_type_id":"4","last_reported":1735729604,"current_range_meters":18800,"station_id":"ce4bhk92rcd13ifvqgc0","pricing_plan_id":"cebpf4jnsgd1na2vs0mg"},{"bike_id":"e5967929-b43d-4a0a-924e-13dc4eba2a6f","system_id":"levelo_inurba_marseille","lat":43.3175,"lon":5.39028,"is_reserved":false,"is_disabled":false,"rental_uris":{"android":"levelo://app?vid=e5967929-b43d-4a0a-924e-13dc4eba2a6f","ios":"levelo://app?vid=e5967929-b43d-4a0a-924e-13dc4eba2a6f"},"vehicle_type_id":"4","last_reported":1735729604,"current_range_meters":30000,"station_id":"ce4bhqp2rcd13ifvqhng","pricing_plan_id":"cebpf4jnsgd1na2vs0mg"},{"bike_id":"f23b89f2-25ec-4920-871b-13b1f24bc04d","system_id":"levelo_inurba_marseille","lat":43.24983,"lon":5.38945,"is_reserved":false,"is_disabled":false,"rental_uris":{"android":"levelo://app?vid=f23b89f2-25ec-4920-871b-13b1f24bc04d","ios":"levelo://app?vid=f23b89f2-25ec-4920-871b-13b1f24bc04d"},"vehicle_type_id":"4","last_reported":1735729604,"current_range_meters":10000,"station_id":"ce4bhgp2rcd13ifvqfd0","pricing_plan_id":"cebpf4jnsgd1na2vs0mg"},{"bike_id":"6582727b-82e7-4b14-9de6-1cf4763828af","system_id":"levelo_inurba_marseille","lat":43.30794,"lon":5.43537,"is_reserved":false,"is_disabled":false,"rental_uris":{"android":"levelo://app?vid=6582727b-82e7-4b14-9de6-1cf4763828af","ios":"levelo://app?vid=6582727b-82e7-4b14-9de6-1cf4763828af"},"vehicle_type_id":"4","last_reported":1735729604,"current_range_meters":36000,"station_id":"ce4bhph2rcd13ifvqheg","pricing_plan_id":"cebpf4jnsgd1na2vs0mg"},{"bike_id":"d9039fb6-1526-43a5-ab47-bf6c74051347","system_id":"levelo_inurba_marseille","lat":43.28159,"lon":5.42643,"is_reserved":false,"is_disabled":false,"rental_uris":{"android":"levelo://app?vid=d9039fb6-1526-43a5-ab47-bf6c74051347","ios":"levelo://app?vid=d9039fb6-1526-43a5-ab47-bf6c74051347"},"vehicle_type_id":"4","last_reported":1735729604,"current_range_meters":8000,"station_id":"ce4bhnh2rcd13ifvqgug","pricing_plan_id":"cebpf4jnsgd1na2vs0mg"},{"bike_id":"85d511af-c5d8-4223-9956-3b8f289b598c","system_id":"levelo_inurba_marseille","lat":43.28271,"lon":5.35081,"is_reserved":false,"is_disabled":false,"rental_uris":{"android":"levelo://app?vid=85d511af-c5d8-4223-9956-3b8f289b598c","ios":"levelo://app?vid=85d511af-c5d8-4223-9956-3b8f289b598c"},"vehicle_type_id":"4","last_reported":1735729604,"current_range_meters":32400,"station_id":"ce4bhbp2rcd13ifvqerg","pricing_plan_id":"cebpf4jnsgd1na2vs0mg"},{"bike_id":"41f82925-3aff-4ae8-bef1-2e85a078111b","system_id":"levelo_inurba_marseille","lat":43.30886,"lon":5.39657,"is_reserved":false,"is_disabled":false,"rental_uris":{"android":"levelo://app?vid=41f82925-3aff-4ae8-bef1-2e85a078111b","ios":"levelo://app?vid=41f82925-3aff-4ae8-bef1-2e85a078111b"},"vehicle_type_id":"4","last_reported":1735729604,"current_range_meters":34000,"station_id":"ce4bh012rcd13ifvqcv0","pricing_plan_id":"cebpf4jnsgd1na2vs0mg"},{"bike_id":"cad9e3fc-bf11-4cf5-b9f2-3d777441891d","system_id":"levelo_inurba_marseille","lat":43.28719,"lon":5.39955,"is_reserved":false,"is_disabled":false,"rental_uris":{"android":"levelo://app?vid=cad9e3fc-bf11-4cf5-b9f2-3d777441891d","ios":"levelo://app?vid=cad9e3fc-bf11-4cf5-b9f2-3d777441891d"},"vehicle_type_id":"4","last_reported":1735729604,"current_range_meters":32400,"station_id":"ce4bho92rcd13ifvqh3g","pricing_plan_id":"cebpf4jnsgd1na2vs0mg"},{"bike_id":"022d826a-d31d-48ef-b07e-f8dd0ceaa746","system_id":"levelo_inurba_marseille","lat":43.24996,"lon":5.38935,"is_reserved":false,"is_disabled":false,"rental_uris":{"android":"levelo://app?vid=022d826a-d31d-48ef-b07e-f8dd0ceaa746","ios":"levelo://app?vid=022d826a-d31d-48ef-b07e-f8dd0ceaa746"},"vehicle_type_id":"4","last_reported":1735729604,"current_range_meters":32800,"station_id":"ce4bhgp2rcd13ifvqfd0","pricing_plan_id":"cebpf4jnsgd1na2vs0mg"},{"bike_id":"c9d01350-1227-4b65-b16a-371c8344a674","system_id":"levelo_inurba_marseille","lat":43.2871,"lon":5.39981,"is_reserved":false,"is_disabled":false,"rental_uris":{"android":"levelo://app?vid=c9d01350-1227-4b65-b16a-371c8344a674","ios":"levelo://app?vid=c9d01350-1227-4b65-b16a-371c8344a674"},"vehicle_type_id":"4","last_reported":1735729604,"current_range_meters":17600,"station_id":"ce4bho92rcd13ifvqh3g","pricing_plan_id":"cebpf4jnsgd1na2vs0mg"},{"bike_id":"04e7867a-1371-4222-a6db-9d80083cea73","system_id":"levelo_inurba_marseille","lat":43.28844,"lon":5.35846,"is_reserved":false,"is_disabled":false,"rental_uris":{"android":"levelo://app?vid=04e7867a-1371-4222-a6db-9d80083cea73","ios":"levelo://app?vid=04e7867a-1371-4222-a6db-9d80083cea73"},"vehicle_type_id":"4","last_reported":1735729604,"current_range_meters":33600,"station_id":"ce4bhb12rcd13ifvqem0","pricing_plan_id":"cebpf4jnsgd1na2vs0mg"},{"bike_id":"e24c4302-6cd0-4cc4-bfbf-45dfccb7152e","system_id":"levelo_inurba_marseille","lat":43.30199,"lon":5.39479,"is_reserved":false,"is_disabled":false,"rental_uris":{"android":"levelo://app?vid=e24c4302-6cd0-4cc4-bfbf-45dfccb7152e","ios":"levelo://app?vid=e24c4302-6cd0-4cc4-bfbf-45dfccb7152e"},"vehicle_type_id":"4","last_reported":1735729604,"current_range_meters":38800,"station_id":"ce4bh0p2rcd13ifvqd70","pricing_plan_id":"cebpf4jnsgd1na2vs0mg"},{"bike_id":"4d1a84a8-b869-4c6c-a789-022dd0dc51b8","system_id":"levelo_inurba_marseille","lat":43.31279,"lon":5.40168,"is_reserved":false,"is_disabled":false,"rental_uris":{"android":"levelo://app?vid=4d1a84a8-b869-4c6c-a789-022dd0dc51b8","ios":"levelo://app?vid=4d1a84a8-b869-4c6c-a789-022dd0dc51b8"},"vehicle_type_id":"4","last_reported":1735729604,"current_range_meters":38800,"station_id":"ce4bh092rcd13ifvqd30","pricing_plan_id":"cebpf4jnsgd1na2vs0mg"},{"bike_id":"dacb31f4-90b7-43f7-bc2e-c7ea69b2bb33","system_id":"levelo_inurba_marseille","lat":43.31215,"lon":5.369,"is_reserved":false,"is_disabled":true,"rental_uris":{"android":"levelo://app?vid=dacb31f4-90b7-43f7-bc2e-c7ea69b2bb33","ios":"levelo://app?vid=dacb31f4-90b7-43f7-bc2e-c7ea69b2bb33"},"vehicle_type_id":"4","last_reported":1735729604,"current_range_meters":38800,"station_id":"ce4bgl92rcd13ifvqbq0","pricing_plan_id":"cebpf4jnsgd1na2vs0mg"},{"bike_id":"ce832012-a3ed-43f4-b69b-817fb4ff309b","system_id":"levelo_inurba_marseille","lat":43.30416,"lon":5.3976,"is_reserved":false,"is_disabled":false,"rental_uris":{"android":"levelo://app?vid=ce832012-a3ed-43f4-b69b-817fb4ff309b","ios":"levelo://app?vid=ce832012-a3ed-43f4-b69b-817fb4ff309b"},"vehicle_type_id":"4","last_reported":1735729604,"current_range_meters":38000,"station_id":"ce4bh092rcd13ifvqd20","pricing_plan_id":"cebpf4jnsgd1na2vs0mg"},{"bike_id":"428d9846-0630-4f49-8fa8-8571caa761ea","system_id":"levelo_inurba_marseille","lat":43.30889,"lon":5.37207,"is_reserved":false,"is_disabled":false,"rental_uris":{"android":"levelo://app?vid=428d9846-0630-4f49-8fa8-8571caa761ea","ios":"levelo://app?vid=428d9846-0630-4f49-8fa8-8571caa761ea"},"vehicle_type_id":"4","last_reported":1735729604,"current_range_meters":30800,"station_id":"ce4bguh2rcd13ifvqckg","pricing_plan_id":"cebpf4jnsgd1na2vs0mg"},{"bike_id":"6bd3afe6-91ca-4d9c-9df4-f4d2d0202408","system_id":"levelo_inurba_marseille","lat":43.28701,"lon":5.39984,"is_reserved":false,"is_disabled":false,"rental_uris":{"android":"levelo://app?vid=6bd3afe6-91ca-4d9c-9df4-f4d2d0202408","ios":"levelo://app?vid=6bd3afe6-91ca-4d9c-9df4-f4d2d0202408"},"vehicle_type_id":"4","last_reported":1735729604,"current_range_meters":18800,"station_id":"ce4bho92rcd13ifvqh3g","pricing_plan_id":"cebpf4jnsgd1na2vs0mg"},{"bike_id":"bf654c11-a7e0-4cab-821c-d8bcb8858e68","system_id":"levelo_inurba_marseille","lat":43.28698,"lon":5.37374,"is_reserved":false,"is_disabled":false,"rental_uris":{"android":"levelo://app?vid=bf654c11-a7e0-4cab-821c-d8bcb8858e68","ios":"levelo://app?vid=bf654c11-a7e0-4cab-821c-d8bcb8858e68"},"vehicle_type_id":"4","last_reported":1735729604,"current_range_meters":35600,"station_id":"ce4bh3p2rcd13ifvqdq0","pricing_plan_id":"cebpf4jnsgd1na2vs0mg"},{"bike_id":"564a3d09-1ba5-4dd8-ba88-dab5b710821c","system_id":"levelo_inurba_marseille","lat":43.31985,"lon":5.38147,"is_reserved":false,"is_disabled":false,"rental_uris":{"android":"levelo://app?vid=564a3d09-1ba5-4dd8-ba88-dab5b710821c","ios":"levelo://app?vid=564a3d09-1ba5-4dd8-ba88-dab5b710821c"},"vehicle_type_id":"4","last_reported":1735729604,"current_range_meters":10800,"station_id":"ce4bhr12rcd13ifvqhpg","pricing_plan_id":"cebpf4jnsgd1na2vs0mg"},{"bike_id":"42cbcf8e-b8f4-4f25-94b7-e3eab3f5f61d","system_id":"levelo_inurba_marseille","lat":43.29523,"lon":5.39044,"is_reserved":false,"is_disabled":false,"rental_uris":{"android":"levelo://app?vid=42cbcf8e-b8f4-4f25-94b7-e3eab3f5f61d","ios":"levelo://app?vid=42cbcf8e-b8f4-4f25-94b7-e3eab3f5f61d"},"vehicle_type_id":"4","last_reported":1735729604,"current_range_meters":18000,"station_id":"ce4bh3p2rcd13ifvqdp0","pricing_plan_id":"cebpf4jnsgd1na2vs0mg"},{"bike_id":"59aea15c-63a1-4bc3-8429-95a2a875a733","system_id":"levelo_inurba_marseille","lat":43.31708,"lon":5.437,"is_reserved":false,"is_disabled":false,"rental_uris":{"android":"levelo://app?vid=59aea15c-63a1-4bc3-8429-95a2a875a733","ios":"levelo://app?vid=59aea15c-63a1-4bc3-8429-95a2a875a733"},"vehicle_type_id":"4","last_reported":1735729604,"current_range_meters":12400,"station_id":"ce4bhp92rcd13ifvqhcg","pricing_plan_id":"cebpf4jnsgd1na2vs0mg"},{"bike_id":"f6c3569e-efa4-4a1c-b75b-94ded8df3e64","system_id":"levelo_inurba_marseille","lat":43.27953,"lon":5.38711,"is_reserved":false,"is_disabled":false,"rental_uris":{"android":"levelo://app?vid=f6c3569e-efa4-4a1c-b75b-94ded8df3e64","ios":"levelo://app?vid=f6c3569e-efa4-4a1c-b75b-94ded8df3e64"},"vehicle_type_id":"4","last_reported":1735729604,"current_range_meters":28800,"station_id":"ce4bhg12rcd13ifvqf80","pricing_plan_id":"cebpf4jnsgd1na2vs0mg"},{"bike_id":"cf9ddc20-a956-4ff8-926a-7954a2ba41fb","system_id":"levelo_inurba_marseille","lat":43.29851,"lon":5.38918,"is_reserved":false,"is_disabled":false,"rental_uris":{"android":"levelo://app?vid=cf9ddc20-a956-4ff8-926a-7954a2ba41fb","ios":"levelo://app?vid=cf9ddc20-a956-4ff8-926a-7954a2ba41fb"},"vehicle_type_id":"4","last_reported":1735729604,"current_range_meters":38800,"station_id":"ce4bh392rcd13ifvqdl0","pricing_plan_id":"cebpf4jnsgd1na2vs0mg"},{"bike_id":"a9199af1-e18e-467d-bb00-00d655306aaf","system_id":"levelo_inurba_marseille","lat":43.29272,"lon":5.36843,"is_reserved":false,"is_disabled":false,"rental_uris":{"android":"levelo://app?vid=a9199af1-e18e-467d-bb00-00d655306aaf","ios":"levelo://app?vid=a9199af1-e18e-467d-bb00-00d655306aaf"},"vehicle_type_id":"4","last_reported":1735729604,"current_range_meters":25600,"station_id":"ce4bhbp2rcd13ifvqesg","pricing_plan_id":"cebpf4jnsgd1na2vs0mg"},{"bike_id":"fb5995bb-8220-42b4-ae97-59bd68efff62","system_id":"levelo_inurba_marseille","lat":43.301447,"lon":5.380871,"is_reserved":false,"is_disabled":false,"rental_uris":{"android":"levelo://app?vid=fb5995bb-8220-42b4-ae97-59bd68efff62","ios":"levelo://app?vid=fb5995bb-8220-42b4-ae97-59bd68efff62"},"vehicle_type_id":"4","last_reported":1735729604,"current_range_meters":38800,"station_id":"ce4bgjp2rcd13ifvqbh0","pricing_plan_id":"cebpf4jnsgd1na2vs0mg"},{"bike_id":"8225b39c-b01e-4430-9c50-d5c917d5576d","system_id":"levelo_inurba_marseille","lat":43.25496,"lon":5.37664,"is_reserved":false,"is_disabled":false,"rental_uris":{"android":"levelo://app?vid=8225b39c-b01e-4430-9c50-d5c917d5576d","ios":"levelo://app?vid=8225b39c-b01e-4430-9c50-d5c917d5576d"},"vehicle_type_id":"4","last_reported":1735729604,"current_range_meters":30000,"station_id":"ce4bhh12rcd13ifvqff0","pricing_plan_id":"cebpf4jnsgd1na2vs0mg"},{"bike_id":"3836437c-1933-40d2-9149-0cea580ee0b8","system_id":"levelo_inurba_marseille","lat":43.24806,"lon":5.37455,"is_reserved":false,"is_disabled":false,"rental_uris":{"android":"levelo://app?vid=3836437c-1933-40d2-9149-0cea580ee0b8","ios":"levelo://app?vid=3836437c-1933-40d2-9149-0cea580ee0b8"},"vehicle_type_id":"4","last_reported":1735729604,"current_range_meters":32000,"station_id":"ce4bhgh2rcd13ifvqfb0","pricing_plan_id":"cebpf4jnsgd1na2vs0mg"},{"bike_id":"ff9fb98a-12b7-4913-b4c5-8600f1cc4ece","system_id":"levelo_inurba_marseille","lat":43.26662,"lon":5.38271,"is_reserved":false,"is_disabled":false,"rental_uris":{"android":"levelo://app?vid=ff9fb98a-12b7-4913-b4c5-8600f1cc4ece","ios":"levelo://app?vid=ff9fb98a-12b7-4913-b4c5-8600f1cc4ece"},"vehicle_type_id":"4","last_reported":1735729604,"current_range_meters":28000,"station_id":"ce4bhg92rcd13ifvqf90","pricing_plan_id":"cebpf4jnsgd1na2vs0mg"},{"bike_id":"e7f232e6-9751-45f4-a24f-005b95d10947","system_id":"levelo_inurba_marseille","lat":43.29612,"lon":5.37734,"is_reserved":false,"is_disabled":true,"rental_uris":{"android":"levelo://app?vid=e7f232e6-9751-45f4-a24f-005b95d10947","ios":"levelo://app?vid=e7f232e6-9751-45f4-a24f-005b95d10947"},"vehicle_type_id":"4","last_reported":1735729604,"current_range_meters":38000,"station_id":"ce4bgi92rcd13ifvqb90","pricing_plan_id":"cebpf4jnsgd1na2vs0mg"},{"bike_id":"4f2ac8ed-dfff-4d5d-afd2-2813f6005d43","system_id":"levelo_inurba_marseille","lat":43.32471,"lon":5.36564,"is_reserved":false,"is_disabled":false,"rental_uris":{"android":"levelo://app?vid=4f2ac8ed-dfff-4d5d-afd2-2813f6005d43","ios":"levelo://app?vid=4f2ac8ed-dfff-4d5d-afd2-2813f6005d43"},"vehicle_type_id":"4","last_reported":1735729604,"current_range_meters":6800,"station_id":"ce4bhs12rcd13ifvqhvg","pricing_plan_id":"cebpf4jnsgd1na2vs0mg"},{"bike_id":"f3998a04-3b93-4948-8eb7-aa16047370fd","system_id":"levelo_inurba_marseille","lat":43.27956,"lon":5.41068,"is_reserved":false,"is_disabled":false,"rental_uris":{"android":"levelo://app?vid=f3998a04-3b93-4948-8eb7-aa16047370fd","ios":"levelo://app?vid=f3998a04-3b93-4948-8eb7-aa16047370fd"},"vehicle_type_id":"4","last_reported":1735729604,"current_range_meters":27600,"station_id":"ce4bhnp2rcd13ifvqh0g","pricing_plan_id":"cebpf4jnsgd1na2vs0mg"},{"bike_id":"2241734e-29b7-4c37-ae32-2588a0ac3a7c","system_id":"levelo_inurba_marseille","lat":43.32472,"lon":5.36564,"is_reserved":false,"is_disabled":false,"rental_uris":{"android":"levelo://app?vid=2241734e-29b7-4c37-ae32-2588a0ac3a7c","ios":"levelo://app?vid=2241734e-29b7-4c37-ae32-2588a0ac3a7c"},"vehicle_type_id":"4","last_reported":1735729604,"current_range_meters":38800,"station_id":"ce4bhs12rcd13ifvqhvg","pricing_plan_id":"cebpf4jnsgd1na2vs0mg"},{"bike_id":"4e5ddd94-96b7-43d6-9911-f47ef0293625","system_id":"levelo_inurba_marseille","lat":43.30351,"lon":5.41885,"is_reserved":false,"is_disabled":false,"rental_uris":{"android":"levelo://app?vid=4e5ddd94-96b7-43d6-9911-f47ef0293625","ios":"levelo://app?vid=4e5ddd94-96b7-43d6-9911-f47ef0293625"},"vehicle_type_id":"4","last_reported":1735729604,"current_range_meters":38000,"station_id":"ce4bhop2rcd13ifvqh7g","pricing_plan_id":"cebpf4jnsgd1na2vs0mg"},{"bike_id":"39d9f610-5223-49ac-852d-17a3ed22dbf7","system_id":"levelo_inurba_marseille","lat":43.2759,"lon":5.36128,"is_reserved":false,"is_disabled":false,"rental_uris":{"android":"levelo://app?vid=39d9f610-5223-49ac-852d-17a3ed22dbf7","ios":"levelo://app?vid=39d9f610-5223-49ac-852d-17a3ed22dbf7"},"vehicle_type_id":"4","last_reported":1735729604,"current_range_meters":37600,"station_id":"ce4bgj92rcd13ifvqbe0","pricing_plan_id":"cebpf4jnsgd1na2vs0mg"},{"bike_id":"8ead7e35-2ddd-4db1-b525-2dbe32578065","system_id":"levelo_inurba_marseille","lat":43.30296,"lon":5.36913,"is_reserved":false,"is_disabled":true,"rental_uris":{"android":"levelo://app?vid=8ead7e35-2ddd-4db1-b525-2dbe32578065","ios":"levelo://app?vid=8ead7e35-2ddd-4db1-b525-2dbe32578065"},"vehicle_type_id":"4","last_reported":1735729604,"current_range_meters":36000,"station_id":"ce4bgqh2rcd13ifvqc5g","pricing_plan_id":"cebpf4jnsgd1na2vs0mg"},{"bike_id":"8aee7335-9bb9-4f23-b622-e2e583683fb9","system_id":"levelo_inurba_marseille","lat":43.29879,"lon":5.38918,"is_reserved":false,"is_disabled":false,"rental_uris":{"android":"levelo://app?vid=8aee7335-9bb9-4f23-b622-e2e583683fb9","ios":"levelo://app?vid=8aee7335-9bb9-4f23-b622-e2e583683fb9"},"vehicle_type_id":"4","last_reported":1735729604,"current_range_meters":38800,"station_id":"ce4bh392rcd13ifvqdl0","pricing_plan_id":"cebpf4jnsgd1na2vs0mg"},{"bike_id":"e157af35-862f-4ff3-a971-0cec14143385","system_id":"levelo_inurba_marseille","lat":43.27938,"lon":5.41051,"is_reserved":false,"is_disabled":false,"rental_uris":{"android":"levelo://app?vid=e157af35-862f-4ff3-a971-0cec14143385","ios":"levelo://app?vid=e157af35-862f-4ff3-a971-0cec14143385"},"vehicle_type_id":"4","last_reported":1735729604,"current_range_meters":32800,"station_id":"ce4bhnp2rcd13ifvqh0g","pricing_plan_id":"cebpf4jnsgd1na2vs0mg"},{"bike_id":"49ee66ed-b6be-4789-915b-c6b934bac121","system_id":"levelo_inurba_marseille","lat":43.31157,"lon":5.38725,"is_reserved":false,"is_disabled":false,"rental_uris":{"android":"levelo://app?vid=49ee66ed-b6be-4789-915b-c6b934bac121","ios":"levelo://app?vid=49ee66ed-b6be-4789-915b-c6b934bac121"},"vehicle_type_id":"4","last_reported":1735729604,"current_range_meters":38800,"station_id":"ce4bgv12rcd13ifvqcp0","pricing_plan_id":"cebpf4jnsgd1na2vs0mg"},{"bike_id":"8be9d6a5-7dc9-4d66-b234-788cd54bbaf1","system_id":"levelo_inurba_marseille","lat":43.26789,"lon":5.40254,"is_reserved":false,"is_disabled":false,"rental_uris":{"android":"levelo://app?vid=8be9d6a5-7dc9-4d66-b234-788cd54bbaf1","ios":"levelo://app?vid=8be9d6a5-7dc9-4d66-b234-788cd54bbaf1"},"vehicle_type_id":"4","last_reported":1735729604,"current_range_meters":6800,"station_id":"ce501612rcd8frsf0b60","pricing_plan_id":"cebpf4jnsgd1na2vs0mg"},{"bike_id":"f5997a88-606e-48c9-933e-041b10894cea","system_id":"levelo_inurba_marseille","lat":43.27067,"lon":5.4229,"is_reserved":false,"is_disabled":false,"rental_uris":{"android":"levelo://app?vid=f5997a88-606e-48c9-933e-041b10894cea","ios":"levelo://app?vid=f5997a88-606e-48c9-933e-041b10894cea"},"vehicle_type_id":"4","last_reported":1735729604,"current_range_meters":19200,"station_id":"ce4bhk92rcd13ifvqgb0","pricing_plan_id":"cebpf4jnsgd1na2vs0mg"},{"bike_id":"b00d7d36-dac2-4ef6-a960-ccdb351c1093","system_id":"levelo_inurba_marseille","lat":43.275673,"lon":5.38429,"is_reserved":false,"is_disabled":true,"rental_uris":{"android":"levelo://app?vid=b00d7d36-dac2-4ef6-a960-ccdb351c1093","ios":"levelo://app?vid=b00d7d36-dac2-4ef6-a960-ccdb351c1093"},"vehicle_type_id":"4","last_reported":1735729604,"current_range_meters":0,"station_id":"ce4bhh92rcd13ifvqfi0","pricing_plan_id":"cebpf4jnsgd1na2vs0mg"},{"bike_id":"b2efc2c9-4c50-4ae0-9f7a-2ebbe60214c1","system_id":"levelo_inurba_marseille","lat":43.25099,"lon":5.40362,"is_reserved":false,"is_disabled":false,"rental_uris":{"android":"levelo://app?vid=b2efc2c9-4c50-4ae0-9f7a-2ebbe60214c1","ios":"levelo://app?vid=b2efc2c9-4c50-4ae0-9f7a-2ebbe60214c1"},"vehicle_type_id":"4","last_reported":1735729604,"current_range_meters":8000,"station_id":"ce4bhlh2rcd13ifvqgig","pricing_plan_id":"cebpf4jnsgd1na2vs0mg"},{"bike_id":"015bb4c5-f17f-4baa-914b-befacf5ab9df","system_id":"levelo_inurba_marseille","lat":43.298467,"lon":5.362953,"is_reserved":false,"is_disabled":false,"rental_uris":{"android":"levelo://app?vid=015bb4c5-f17f-4baa-914b-befacf5ab9df","ios":"levelo://app?vid=015bb4c5-f17f-4baa-914b-befacf5ab9df"},"vehicle_type_id":"4","last_reported":1735729604,"current_range_meters":38000,"station_id":"ce4bgpp2rcd13ifvqc3g","pricing_plan_id":"cebpf4jnsgd1na2vs0mg"},{"bike_id":"236b3030-26dc-4d31-a5ec-3e724cdce4e6","system_id":"levelo_inurba_marseille","lat":43.30867,"lon":5.39645,"is_reserved":false,"is_disabled":false,"rental_uris":{"android":"levelo://app?vid=236b3030-26dc-4d31-a5ec-3e724cdce4e6","ios":"levelo://app?vid=236b3030-26dc-4d31-a5ec-3e724cdce4e6"},"vehicle_type_id":"4","last_reported":1735729604,"current_range_meters":39200,"station_id":"ce4bh012rcd13ifvqcv0","pricing_plan_id":"cebpf4jnsgd1na2vs0mg"},{"bike_id":"feaee7f2-ad2c-4d64-9a6d-551b5c8ebcd4","system_id":"levelo_inurba_marseille","lat":43.31692,"lon":5.37813,"is_reserved":false,"is_disabled":false,"rental_uris":{"android":"levelo://app?vid=feaee7f2-ad2c-4d64-9a6d-551b5c8ebcd4","ios":"levelo://app?vid=feaee7f2-ad2c-4d64-9a6d-551b5c8ebcd4"},"vehicle_type_id":"4","last_reported":1735729604,"current_range_meters":9600,"station_id":"ce4bgth2rcd13ifvqch0","pricing_plan_id":"cebpf4jnsgd1na2vs0mg"},{"bike_id":"4ae90592-e920-400e-8a25-b327a1d3d78f","system_id":"levelo_inurba_marseille","lat":43.246731,"lon":5.38162,"is_reserved":false,"is_disabled":false,"rental_uris":{"android":"levelo://app?vid=4ae90592-e920-400e-8a25-b327a1d3d78f","ios":"levelo://app?vid=4ae90592-e920-400e-8a25-b327a1d3d78f"},"vehicle_type_id":"4","last_reported":1735729604,"current_range_meters":6400,"station_id":"ce4bhih2rcd13ifvqfr0","pricing_plan_id":"cebpf4jnsgd1na2vs0mg"},{"bike_id":"7423a698-8ffc-4eb4-b004-2a2364db3293","system_id":"levelo_inurba_marseille","lat":43.26966,"lon":5.38629,"is_reserved":false,"is_disabled":false,"rental_uris":{"android":"levelo://app?vid=7423a698-8ffc-4eb4-b004-2a2364db3293","ios":"levelo://app?vid=7423a698-8ffc-4eb4-b004-2a2364db3293"},"vehicle_type_id":"4","last_reported":1735729604,"current_range_meters":23200,"station_id":"ce4bhh92rcd13ifvqfh0","pricing_plan_id":"cebpf4jnsgd1na2vs0mg"},{"bike_id":"2fc8e17d-9495-4922-8d89-7dea2e5ea943","system_id":"levelo_inurba_marseille","lat":43.27046,"lon":5.40274,"is_reserved":false,"is_disabled":false,"rental_uris":{"android":"levelo://app?vid=2fc8e17d-9495-4922-8d89-7dea2e5ea943","ios":"levelo://app?vid=2fc8e17d-9495-4922-8d89-7dea2e5ea943"},"vehicle_type_id":"4","last_reported":1735729604,"current_range_meters":8400,"station_id":"ce4bhk92rcd13ifvqgc0","pricing_plan_id":"cebpf4jnsgd1na2vs0mg"},{"bike_id":"d65f5c2e-27f3-4a51-8a8d-4c8282ad66dc","system_id":"levelo_inurba_marseille","lat":43.25493,"lon":5.37649,"is_reserved":false,"is_disabled":false,"rental_uris":{"android":"levelo://app?vid=d65f5c2e-27f3-4a51-8a8d-4c8282ad66dc","ios":"levelo://app?vid=d65f5c2e-27f3-4a51-8a8d-4c8282ad66dc"},"vehicle_type_id":"4","last_reported":1735729604,"current_range_meters":39200,"station_id":"ce4bhh12rcd13ifvqff0","pricing_plan_id":"cebpf4jnsgd1na2vs0mg"},{"bike_id":"4f0a55b7-aa61-4e03-8ff7-6257f884cdd6","system_id":"levelo_inurba_marseille","lat":43.30468,"lon":5.37911,"is_reserved":false,"is_disabled":false,"rental_uris":{"android":"levelo://app?vid=4f0a55b7-aa61-4e03-8ff7-6257f884cdd6","ios":"levelo://app?vid=4f0a55b7-aa61-4e03-8ff7-6257f884cdd6"},"vehicle_type_id":"4","last_reported":1735729604,"current_range_meters":24800,"station_id":"ce4bgup2rcd13ifvqcn0","pricing_plan_id":"cebpf4jnsgd1na2vs0mg"},{"bike_id":"7d44431e-ed83-438c-86a7-892d7e053d01","system_id":"levelo_inurba_marseille","lat":43.32059,"lon":5.41551,"is_reserved":false,"is_disabled":false,"rental_uris":{"android":"levelo://app?vid=7d44431e-ed83-438c-86a7-892d7e053d01","ios":"levelo://app?vid=7d44431e-ed83-438c-86a7-892d7e053d01"},"vehicle_type_id":"4","last_reported":1735729604,"current_range_meters":28800,"station_id":"ce4bhq92rcd13ifvqhkg","pricing_plan_id":"cebpf4jnsgd1na2vs0mg"},{"bike_id":"84ff672c-254b-42d1-ad81-4f7d674dca47","system_id":"levelo_inurba_marseille","lat":43.24381,"lon":5.37051,"is_reserved":false,"is_disabled":false,"rental_uris":{"android":"levelo://app?vid=84ff672c-254b-42d1-ad81-4f7d674dca47","ios":"levelo://app?vid=84ff672c-254b-42d1-ad81-4f7d674dca47"},"vehicle_type_id":"4","last_reported":1735729604,"current_range_meters":37600,"station_id":"ce4bhhh2rcd13ifvqfk0","pricing_plan_id":"cebpf4jnsgd1na2vs0mg"},{"bike_id":"d42bc978-4b09-4a1a-a3f8-f73483d2bd7b","system_id":"levelo_inurba_marseille","lat":43.32456,"lon":5.3657,"is_reserved":false,"is_disabled":false,"rental_uris":{"android":"levelo://app?vid=d42bc978-4b09-4a1a-a3f8-f73483d2bd7b","ios":"levelo://app?vid=d42bc978-4b09-4a1a-a3f8-f73483d2bd7b"},"vehicle_type_id":"4","last_reported":1735729604,"current_range_meters":19600,"station_id":"ce4bhs12rcd13ifvqhvg","pricing_plan_id":"cebpf4jnsgd1na2vs0mg"},{"bike_id":"84574380-5e63-4a67-bbf0-475b0a817486","system_id":"levelo_inurba_marseille","lat":43.27657,"lon":5.38935,"is_reserved":false,"is_disabled":false,"rental_uris":{"android":"levelo://app?vid=84574380-5e63-4a67-bbf0-475b0a817486","ios":"levelo://app?vid=84574380-5e63-4a67-bbf0-475b0a817486"},"vehicle_type_id":"4","last_reported":1735729604,"current_range_meters":38800,"station_id":"ce4bhi12rcd13ifvqfo0","pricing_plan_id":"cebpf4jnsgd1na2vs0mg"},{"bike_id":"e446fa3b-8379-4d34-9d75-ea10c796c01a","system_id":"levelo_inurba_marseille","lat":43.31362,"lon":5.385,"is_reserved":false,"is_disabled":false,"rental_uris":{"android":"levelo://app?vid=e446fa3b-8379-4d34-9d75-ea10c796c01a","ios":"levelo://app?vid=e446fa3b-8379-4d34-9d75-ea10c796c01a"},"vehicle_type_id":"4","last_reported":1735729604,"current_range_meters":34000,"station_id":"ce4bgt92rcd13ifvqcf0","pricing_plan_id":"cebpf4jnsgd1na2vs0mg"},{"bike_id":"ebbdb52f-ebba-4684-b557-d63f96169510","system_id":"levelo_inurba_marseille","lat":43.34146,"lon":5.40902,"is_reserved":false,"is_disabled":false,"rental_uris":{"android":"levelo://app?vid=ebbdb52f-ebba-4684-b557-d63f96169510","ios":"levelo://app?vid=ebbdb52f-ebba-4684-b557-d63f96169510"},"vehicle_type_id":"4","last_reported":1735729604,"current_range_meters":38800,"station_id":"ce4bhqh2rcd13ifvqhlg","pricing_plan_id":"cebpf4jnsgd1na2vs0mg"},{"bike_id":"1909837d-c3cb-4f0e-93e1-5dcfc1b3166a","system_id":"levelo_inurba_marseille","lat":43.33598,"lon":5.41022,"is_reserved":false,"is_disabled":false,"rental_uris":{"android":"levelo://app?vid=1909837d-c3cb-4f0e-93e1-5dcfc1b3166a","ios":"levelo://app?vid=1909837d-c3cb-4f0e-93e1-5dcfc1b3166a"},"vehicle_type_id":"4","last_reported":1735729604,"current_range_meters":24800,"station_id":"ce4bhqh2rcd13ifvqhmg","pricing_plan_id":"cebpf4jnsgd1na2vs0mg"},{"bike_id":"3bcfc247-595e-4073-9ae9-f2ca8e7ff582","system_id":"levelo_inurba_marseille","lat":43.30445,"lon":5.38893,"is_reserved":false,"is_disabled":false,"rental_uris":{"android":"levelo://app?vid=3bcfc247-595e-4073-9ae9-f2ca8e7ff582","ios":"levelo://app?vid=3bcfc247-595e-4073-9ae9-f2ca8e7ff582"},"vehicle_type_id":"4","last_reported":1735729604,"current_range_meters":38800,"station_id":"ce4bgk12rcd13ifvqbi0","pricing_plan_id":"cebpf4jnsgd1na2vs0mg"},{"bike_id":"94e6dee2-3159-449e-9ee5-297188ebe26e","system_id":"levelo_inurba_marseille","lat":43.299229,"lon":5.374394,"is_reserved":false,"is_disabled":false,"rental_uris":{"android":"levelo://app?vid=94e6dee2-3159-449e-9ee5-297188ebe26e","ios":"levelo://app?vid=94e6dee2-3159-449e-9ee5-297188ebe26e"},"vehicle_type_id":"4","last_reported":1735729604,"current_range_meters":22400,"station_id":"ce4bgjh2rcd13ifvqbg0","pricing_plan_id":"cebpf4jnsgd1na2vs0mg"},{"bike_id":"abbfded5-56c2-44f5-8004-1e2a51b9d0ff","system_id":"levelo_inurba_marseille","lat":43.28157,"lon":5.42634,"is_reserved":false,"is_disabled":false,"rental_uris":{"android":"levelo://app?vid=abbfded5-56c2-44f5-8004-1e2a51b9d0ff","ios":"levelo://app?vid=abbfded5-56c2-44f5-8004-1e2a51b9d0ff"},"vehicle_type_id":"4","last_reported":1735729604,"current_range_meters":22000,"station_id":"ce4bhnh2rcd13ifvqgug","pricing_plan_id":"cebpf4jnsgd1na2vs0mg"},{"bike_id":"265e4b32-4ee8-4389-af20-3caf0441f0f5","system_id":"levelo_inurba_marseille","lat":43.31363,"lon":5.38366,"is_reserved":false,"is_disabled":false,"rental_uris":{"android":"levelo://app?vid=265e4b32-4ee8-4389-af20-3caf0441f0f5","ios":"levelo://app?vid=265e4b32-4ee8-4389-af20-3caf0441f0f5"},"vehicle_type_id":"4","last_reported":1735729604,"current_range_meters":24000,"station_id":"","pricing_plan_id":"cebpf4jnsgd1na2vs0mg"},{"bike_id":"3c092760-f0fd-4792-abf7-ff55c2f417a1","system_id":"levelo_inurba_marseille","lat":43.318854,"lon":5.407296,"is_reserved":false,"is_disabled":false,"rental_uris":{"android":"levelo://app?vid=3c092760-f0fd-4792-abf7-ff55c2f417a1","ios":"levelo://app?vid=3c092760-f0fd-4792-abf7-ff55c2f417a1"},"vehicle_type_id":"4","last_reported":1735729604,"current_range_meters":39200,"station_id":"ce4bhq12rcd13ifvqhig","pricing_plan_id":"cebpf4jnsgd1na2vs0mg"},{"bike_id":"8cbc8b99-428c-4040-b86c-4e2c4fffea65","system_id":"levelo_inurba_marseille","lat":43.33749,"lon":5.37449,"is_reserved":false,"is_disabled":true,"rental_uris":{"android":"levelo://app?vid=8cbc8b99-428c-4040-b86c-4e2c4fffea65","ios":"levelo://app?vid=8cbc8b99-428c-4040-b86c-4e2c4fffea65"},"vehicle_type_id":"4","last_reported":1735729604,"current_range_meters":36800,"station_id":"","pricing_plan_id":"cebpf4jnsgd1na2vs0mg"},{"bike_id":"a16950a8-6a01-4579-bde0-a7f1b91a931c","system_id":"levelo_inurba_marseille","lat":43.28921,"lon":5.38388,"is_reserved":false,"is_disabled":false,"rental_uris":{"android":"levelo://app?vid=a16950a8-6a01-4579-bde0-a7f1b91a931c","ios":"levelo://app?vid=a16950a8-6a01-4579-bde0-a7f1b91a931c"},"vehicle_type_id":"4","last_reported":1735729604,"current_range_meters":39200,"station_id":"ce4bh612rcd13ifvqe6g","pricing_plan_id":"cebpf4jnsgd1na2vs0mg"},{"bike_id":"576c3c6b-bcf6-433f-9d79-5f33ae917960","system_id":"levelo_inurba_marseille","lat":43.29568,"lon":5.42273,"is_reserved":false,"is_disabled":false,"rental_uris":{"android":"levelo://app?vid=576c3c6b-bcf6-433f-9d79-5f33ae917960","ios":"levelo://app?vid=576c3c6b-bcf6-433f-9d79-5f33ae917960"},"vehicle_type_id":"4","last_reported":1735729604,"current_range_meters":39200,"station_id":"ce4bhph2rcd13ifvqhdg","pricing_plan_id":"cebpf4jnsgd1na2vs0mg"},{"bike_id":"16054d17-4fd7-4138-9624-eaa027a7f557","system_id":"levelo_inurba_marseille","lat":43.2996,"lon":5.38522,"is_reserved":false,"is_disabled":false,"rental_uris":{"android":"levelo://app?vid=16054d17-4fd7-4138-9624-eaa027a7f557","ios":"levelo://app?vid=16054d17-4fd7-4138-9624-eaa027a7f557"},"vehicle_type_id":"4","last_reported":1735729604,"current_range_meters":38000,"station_id":"ce4bgj92rcd13ifvqbd0","pricing_plan_id":"cebpf4jnsgd1na2vs0mg"},{"bike_id":"62af83b8-0bcb-4a53-9c44-e8ad4810fed3","system_id":"levelo_inurba_marseille","lat":43.26484,"lon":5.39549,"is_reserved":false,"is_disabled":false,"rental_uris":{"android":"levelo://app?vid=62af83b8-0bcb-4a53-9c44-e8ad4810fed3","ios":"levelo://app?vid=62af83b8-0bcb-4a53-9c44-e8ad4810fed3"},"vehicle_type_id":"4","last_reported":1735729604,"current_range_meters":25200,"station_id":"ce4bhi12rcd13ifvqfq0","pricing_plan_id":"cebpf4jnsgd1na2vs0mg"},{"bike_id":"241064ff-27c5-4706-9532-739a8faf7045","system_id":"levelo_inurba_marseille","lat":43.31704,"lon":5.40454,"is_reserved":false,"is_disabled":true,"rental_uris":{"android":"levelo://app?vid=241064ff-27c5-4706-9532-739a8faf7045","ios":"levelo://app?vid=241064ff-27c5-4706-9532-739a8faf7045"},"vehicle_type_id":"4","last_reported":1735729604,"current_range_meters":2000,"station_id":"ce4bh012rcd13ifvqd00","pricing_plan_id":"cebpf4jnsgd1na2vs0mg"},{"bike_id":"a5dfd448-be19-40d8-bd6d-9dc244294f70","system_id":"levelo_inurba_marseille","lat":43.30785,"lon":5.37647,"is_reserved":false,"is_disabled":false,"rental_uris":{"android":"levelo://app?vid=a5dfd448-be19-40d8-bd6d-9dc244294f70","ios":"levelo://app?vid=a5dfd448-be19-40d8-bd6d-9dc244294f70"},"vehicle_type_id":"4","last_reported":1735729604,"current_range_meters":25600,"station_id":"ce4bgv92rcd13ifvqcq0","pricing_plan_id":"cebpf4jnsgd1na2vs0mg"},{"bike_id":"b1815487-383e-42be-8a0b-8b8db0c2ceef","system_id":"levelo_inurba_marseille","lat":43.32292,"lon":5.38264,"is_reserved":false,"is_disabled":false,"rental_uris":{"android":"levelo://app?vid=b1815487-383e-42be-8a0b-8b8db0c2ceef","ios":"levelo://app?vid=b1815487-383e-42be-8a0b-8b8db0c2ceef"},"vehicle_type_id":"4","last_reported":1735729604,"current_range_meters":38800,"station_id":"ce4bhr12rcd13ifvqhqg","pricing_plan_id":"cebpf4jnsgd1na2vs0mg"},{"bike_id":"2f71d5d0-4248-4fd8-90b9-7615dc7e3077","system_id":"levelo_inurba_marseille","lat":43.2512,"lon":5.40332,"is_reserved":false,"is_disabled":false,"rental_uris":{"android":"levelo://app?vid=2f71d5d0-4248-4fd8-90b9-7615dc7e3077","ios":"levelo://app?vid=2f71d5d0-4248-4fd8-90b9-7615dc7e3077"},"vehicle_type_id":"4","last_reported":1735729604,"current_range_meters":38800,"station_id":"ce4bhlh2rcd13ifvqgig","pricing_plan_id":"cebpf4jnsgd1na2vs0mg"},{"bike_id":"f46bd378-e30f-485c-b539-9d29fba578aa","system_id":"levelo_inurba_marseille","lat":43.34139,"lon":5.40904,"is_reserved":false,"is_disabled":false,"rental_uris":{"android":"levelo://app?vid=f46bd378-e30f-485c-b539-9d29fba578aa","ios":"levelo://app?vid=f46bd378-e30f-485c-b539-9d29fba578aa"},"vehicle_type_id":"4","last_reported":1735729604,"current_range_meters":38800,"station_id":"ce4bhqh2rcd13ifvqhlg","pricing_plan_id":"cebpf4jnsgd1na2vs0mg"},{"bike_id":"7ec4d381-79e4-4c43-b132-77d2c6adbb98","system_id":"levelo_inurba_marseille","lat":43.30881,"lon":5.39632,"is_reserved":false,"is_disabled":false,"rental_uris":{"android":"levelo://app?vid=7ec4d381-79e4-4c43-b132-77d2c6adbb98","ios":"levelo://app?vid=7ec4d381-79e4-4c43-b132-77d2c6adbb98"},"vehicle_type_id":"4","last_reported":1735729604,"current_range_meters":38800,"station_id":"ce4bh012rcd13ifvqcv0","pricing_plan_id":"cebpf4jnsgd1na2vs0mg"},{"bike_id":"f009e540-d0f8-4c32-a5bf-eaf55d3e7a9b","system_id":"levelo_inurba_marseille","lat":43.289317,"lon":5.364014,"is_reserved":false,"is_disabled":false,"rental_uris":{"android":"levelo://app?vid=f009e540-d0f8-4c32-a5bf-eaf55d3e7a9b","ios":"levelo://app?vid=f009e540-d0f8-4c32-a5bf-eaf55d3e7a9b"},"vehicle_type_id":"4","last_reported":1735729604,"current_range_meters":26000,"station_id":"ce4bhc92rcd13ifvqetg","pricing_plan_id":"cebpf4jnsgd1na2vs0mg"},{"bike_id":"81b92da7-27e3-4768-a12f-16d0a727682f","system_id":"levelo_inurba_marseille","lat":43.25505,"lon":5.37644,"is_reserved":false,"is_disabled":false,"rental_uris":{"android":"levelo://app?vid=81b92da7-27e3-4768-a12f-16d0a727682f","ios":"levelo://app?vid=81b92da7-27e3-4768-a12f-16d0a727682f"},"vehicle_type_id":"4","last_reported":1735729604,"current_range_meters":39200,"station_id":"ce4bhh12rcd13ifvqff0","pricing_plan_id":"cebpf4jnsgd1na2vs0mg"},{"bike_id":"df334d50-4421-42a5-a762-fb7f39807cc1","system_id":"levelo_inurba_marseille","lat":43.337444,"lon":5.374475,"is_reserved":false,"is_disabled":true,"rental_uris":{"android":"levelo://app?vid=df334d50-4421-42a5-a762-fb7f39807cc1","ios":"levelo://app?vid=df334d50-4421-42a5-a762-fb7f39807cc1"},"vehicle_type_id":"4","last_reported":1735729604,"current_range_meters":35200,"station_id":"","pricing_plan_id":"cebpf4jnsgd1na2vs0mg"},{"bike_id":"7334d0ab-d439-41e8-9351-6b864e977ca8","system_id":"levelo_inurba_marseille","lat":43.2582,"lon":5.39426,"is_reserved":false,"is_disabled":false,"rental_uris":{"android":"levelo://app?vid=7334d0ab-d439-41e8-9351-6b864e977ca8","ios":"levelo://app?vid=7334d0ab-d439-41e8-9351-6b864e977ca8"},"vehicle_type_id":"4","last_reported":1735729604,"current_range_meters":8400,"station_id":"ce4bhip2rcd13ifvqft0","pricing_plan_id":"cebpf4jnsgd1na2vs0mg"},{"bike_id":"35d7b981-f2f8-4e1f-bf58-6f3547d4e1f6","system_id":"levelo_inurba_marseille","lat":43.303091,"lon":5.369082,"is_reserved":false,"is_disabled":true,"rental_uris":{"android":"levelo://app?vid=35d7b981-f2f8-4e1f-bf58-6f3547d4e1f6","ios":"levelo://app?vid=35d7b981-f2f8-4e1f-bf58-6f3547d4e1f6"},"vehicle_type_id":"4","last_reported":1735729604,"current_range_meters":24000,"station_id":"ce4bgqh2rcd13ifvqc5g","pricing_plan_id":"cebpf4jnsgd1na2vs0mg"},{"bike_id":"01e3daf2-3dc3-42f0-a716-39b38bbee6f9","system_id":"levelo_inurba_marseille","lat":43.28694,"lon":5.39989,"is_reserved":false,"is_disabled":false,"rental_uris":{"android":"levelo://app?vid=01e3daf2-3dc3-42f0-a716-39b38bbee6f9","ios":"levelo://app?vid=01e3daf2-3dc3-42f0-a716-39b38bbee6f9"},"vehicle_type_id":"4","last_reported":1735729604,"current_range_meters":26000,"station_id":"ce4bho92rcd13ifvqh3g","pricing_plan_id":"cebpf4jnsgd1na2vs0mg"},{"bike_id":"847e09aa-0198-46d1-b907-778eecf50dd1","system_id":"levelo_inurba_marseille","lat":43.31249,"lon":5.3686,"is_reserved":false,"is_disabled":true,"rental_uris":{"android":"levelo://app?vid=847e09aa-0198-46d1-b907-778eecf50dd1","ios":"levelo://app?vid=847e09aa-0198-46d1-b907-778eecf50dd1"},"vehicle_type_id":"4","last_reported":1735729604,"current_range_meters":38800,"station_id":"ce4bgl92rcd13ifvqbq0","pricing_plan_id":"cebpf4jnsgd1na2vs0mg"},{"bike_id":"a2cc55cd-4242-417c-a2b1-1d0a21800575","system_id":"levelo_inurba_marseille","lat":43.28083,"lon":5.37849,"is_reserved":false,"is_disabled":false,"rental_uris":{"android":"levelo://app?vid=a2cc55cd-4242-417c-a2b1-1d0a21800575","ios":"levelo://app?vid=a2cc55cd-4242-417c-a2b1-1d0a21800575"},"vehicle_type_id":"4","last_reported":1735729604,"current_range_meters":30000,"station_id":"ce4bha12rcd13ifvqee0","pricing_plan_id":"cebpf4jnsgd1na2vs0mg"},{"bike_id":"5367a292-5564-4681-91cd-97babb89fc00","system_id":"levelo_inurba_marseille","lat":43.22926,"lon":5.35394,"is_reserved":false,"is_disabled":false,"rental_uris":{"android":"levelo://app?vid=5367a292-5564-4681-91cd-97babb89fc00","ios":"levelo://app?vid=5367a292-5564-4681-91cd-97babb89fc00"},"vehicle_type_id":"4","last_reported":1735729604,"current_range_meters":24000,"station_id":"cpo3532slgdg3j2ikp40","pricing_plan_id":"cebpf4jnsgd1na2vs0mg"},{"bike_id":"1d5543c4-1c87-4447-ad2e-0cc64903ea75","system_id":"levelo_inurba_marseille","lat":43.25844,"lon":5.39913,"is_reserved":false,"is_disabled":false,"rental_uris":{"android":"levelo://app?vid=1d5543c4-1c87-4447-ad2e-0cc64903ea75","ios":"levelo://app?vid=1d5543c4-1c87-4447-ad2e-0cc64903ea75"},"vehicle_type_id":"4","last_reported":1735729604,"current_range_meters":38800,"station_id":"ce4bhl92rcd13ifvqghg","pricing_plan_id":"cebpf4jnsgd1na2vs0mg"},{"bike_id":"0483d5a5-12c2-4b90-8e6c-47d6d5a4b82c","system_id":"levelo_inurba_marseille","lat":43.25812,"lon":5.39433,"is_reserved":false,"is_disabled":false,"rental_uris":{"android":"levelo://app?vid=0483d5a5-12c2-4b90-8e6c-47d6d5a4b82c","ios":"levelo://app?vid=0483d5a5-12c2-4b90-8e6c-47d6d5a4b82c"},"vehicle_type_id":"4","last_reported":1735729604,"current_range_meters":38800,"station_id":"ce4bhip2rcd13ifvqft0","pricing_plan_id":"cebpf4jnsgd1na2vs0mg"},{"bike_id":"9000f02a-b6fe-42af-8351-b80067f79863","system_id":"levelo_inurba_marseille","lat":43.3122,"lon":5.36863,"is_reserved":false,"is_disabled":false,"rental_uris":{"android":"levelo://app?vid=9000f02a-b6fe-42af-8351-b80067f79863","ios":"levelo://app?vid=9000f02a-b6fe-42af-8351-b80067f79863"},"vehicle_type_id":"4","last_reported":1735729604,"current_range_meters":38800,"station_id":"ce4bgl92rcd13ifvqbq0","pricing_plan_id":"cebpf4jnsgd1na2vs0mg"},{"bike_id":"7ce163bd-4fac-440f-abcd-cc8c88b309a9","system_id":"levelo_inurba_marseille","lat":43.25493,"lon":5.37652,"is_reserved":false,"is_disabled":false,"rental_uris":{"android":"levelo://app?vid=7ce163bd-4fac-440f-abcd-cc8c88b309a9","ios":"levelo://app?vid=7ce163bd-4fac-440f-abcd-cc8c88b309a9"},"vehicle_type_id":"4","last_reported":1735729604,"current_range_meters":17200,"station_id":"ce4bhh12rcd13ifvqff0","pricing_plan_id":"cebpf4jnsgd1na2vs0mg"},{"bike_id":"bb0b4800-77bf-4fe1-91ff-67ba6b41255a","system_id":"levelo_inurba_marseille","lat":43.303214,"lon":5.404431,"is_reserved":false,"is_disabled":false,"rental_uris":{"android":"levelo://app?vid=bb0b4800-77bf-4fe1-91ff-67ba6b41255a","ios":"levelo://app?vid=bb0b4800-77bf-4fe1-91ff-67ba6b41255a"},"vehicle_type_id":"4","last_reported":1735729604,"current_range_meters":38800,"station_id":"ce4bh012rcd13ifvqd10","pricing_plan_id":"cebpf4jnsgd1na2vs0mg"},{"bike_id":"cd7951d2-d0f1-4fc8-a1c4-9f3518978642","system_id":"levelo_inurba_marseille","lat":43.29637,"lon":5.37177,"is_reserved":false,"is_disabled":false,"rental_uris":{"android":"levelo://app?vid=cd7951d2-d0f1-4fc8-a1c4-9f3518978642","ios":"levelo://app?vid=cd7951d2-d0f1-4fc8-a1c4-9f3518978642"},"vehicle_type_id":"4","last_reported":1735729604,"current_range_meters":38000,"station_id":"ce4bgnh2rcd13ifvqc0g","pricing_plan_id":"cebpf4jnsgd1na2vs0mg"},{"bike_id":"6164fd70-bd1e-4bfa-b09a-6196d7e0229b","system_id":"levelo_inurba_marseille","lat":43.24383,"lon":5.37072,"is_reserved":false,"is_disabled":false,"rental_uris":{"android":"levelo://app?vid=6164fd70-bd1e-4bfa-b09a-6196d7e0229b","ios":"levelo://app?vid=6164fd70-bd1e-4bfa-b09a-6196d7e0229b"},"vehicle_type_id":"4","last_reported":1735729604,"current_range_meters":39200,"station_id":"ce4bhhh2rcd13ifvqfk0","pricing_plan_id":"cebpf4jnsgd1na2vs0mg"},{"bike_id":"6b83decb-9b97-4344-9ff7-c58da90d18a5","system_id":"levelo_inurba_marseille","lat":43.27612,"lon":5.36119,"is_reserved":false,"is_disabled":false,"rental_uris":{"android":"levelo://app?vid=6b83decb-9b97-4344-9ff7-c58da90d18a5","ios":"levelo://app?vid=6b83decb-9b97-4344-9ff7-c58da90d18a5"},"vehicle_type_id":"4","last_reported":1735729604,"current_range_meters":28400,"station_id":"ce4bgj92rcd13ifvqbe0","pricing_plan_id":"cebpf4jnsgd1na2vs0mg"},{"bike_id":"264edb07-6f3f-4980-919d-34083f9815b0","system_id":"levelo_inurba_marseille","lat":43.265515,"lon":5.37285,"is_reserved":false,"is_disabled":false,"rental_uris":{"android":"levelo://app?vid=264edb07-6f3f-4980-919d-34083f9815b0","ios":"levelo://app?vid=264edb07-6f3f-4980-919d-34083f9815b0"},"vehicle_type_id":"4","last_reported":1735729604,"current_range_meters":17600,"station_id":"ce4bhg12rcd13ifvqf70","pricing_plan_id":"cebpf4jnsgd1na2vs0mg"},{"bike_id":"dbabe84f-1e8d-4444-bbd2-f0bdaeff74bc","system_id":"levelo_inurba_marseille","lat":43.309236,"lon":5.368438,"is_reserved":false,"is_disabled":false,"rental_uris":{"android":"levelo://app?vid=dbabe84f-1e8d-4444-bbd2-f0bdaeff74bc","ios":"levelo://app?vid=dbabe84f-1e8d-4444-bbd2-f0bdaeff74bc"},"vehicle_type_id":"4","last_reported":1735729604,"current_range_meters":34000,"station_id":"ce4bgn92rcd13ifvqbvg","pricing_plan_id":"cebpf4jnsgd1na2vs0mg"},{"bike_id":"be62d9b1-8b7d-4acb-b97b-0f8f72402ff0","system_id":"levelo_inurba_marseille","lat":43.30468,"lon":5.37917,"is_reserved":false,"is_disabled":false,"rental_uris":{"android":"levelo://app?vid=be62d9b1-8b7d-4acb-b97b-0f8f72402ff0","ios":"levelo://app?vid=be62d9b1-8b7d-4acb-b97b-0f8f72402ff0"},"vehicle_type_id":"4","last_reported":1735729604,"current_range_meters":38800,"station_id":"ce4bgup2rcd13ifvqcn0","pricing_plan_id":"cebpf4jnsgd1na2vs0mg"},{"bike_id":"bbfc5010-5ad1-478a-9bf0-def17e142c1c","system_id":"levelo_inurba_marseille","lat":43.2803,"lon":5.36949,"is_reserved":false,"is_disabled":false,"rental_uris":{"android":"levelo://app?vid=bbfc5010-5ad1-478a-9bf0-def17e142c1c","ios":"levelo://app?vid=bbfc5010-5ad1-478a-9bf0-def17e142c1c"},"vehicle_type_id":"4","last_reported":1735729604,"current_range_meters":6400,"station_id":"ce4bha12rcd13ifvqef0","pricing_plan_id":"cebpf4jnsgd1na2vs0mg"},{"bike_id":"2e95937c-71d1-4f05-a281-71f72a40056b","system_id":"levelo_inurba_marseille","lat":43.29801,"lon":5.40413,"is_reserved":false,"is_disabled":false,"rental_uris":{"android":"levelo://app?vid=2e95937c-71d1-4f05-a281-71f72a40056b","ios":"levelo://app?vid=2e95937c-71d1-4f05-a281-71f72a40056b"},"vehicle_type_id":"4","last_reported":1735729604,"current_range_meters":38000,"station_id":"ce4bh112rcd13ifvqd90","pricing_plan_id":"cebpf4jnsgd1na2vs0mg"},{"bike_id":"f4d31bdd-067d-44f1-8dce-9df56d6287d9","system_id":"levelo_inurba_marseille","lat":43.26862,"lon":5.41975,"is_reserved":false,"is_disabled":false,"rental_uris":{"android":"levelo://app?vid=f4d31bdd-067d-44f1-8dce-9df56d6287d9","ios":"levelo://app?vid=f4d31bdd-067d-44f1-8dce-9df56d6287d9"},"vehicle_type_id":"4","last_reported":1735729604,"current_range_meters":10000,"station_id":"","pricing_plan_id":"cebpf4jnsgd1na2vs0mg"},{"bike_id":"a8b56c88-91b8-4b72-abc2-bbab4199f8e4","system_id":"levelo_inurba_marseille","lat":43.30452,"lon":5.37914,"is_reserved":false,"is_disabled":false,"rental_uris":{"android":"levelo://app?vid=a8b56c88-91b8-4b72-abc2-bbab4199f8e4","ios":"levelo://app?vid=a8b56c88-91b8-4b72-abc2-bbab4199f8e4"},"vehicle_type_id":"4","last_reported":1735729604,"current_range_meters":15200,"station_id":"ce4bgup2rcd13ifvqcn0","pricing_plan_id":"cebpf4jnsgd1na2vs0mg"},{"bike_id":"dac94ecf-3203-4c89-acc0-21c14e979588","system_id":"levelo_inurba_marseille","lat":43.26696,"lon":5.38267,"is_reserved":false,"is_disabled":false,"rental_uris":{"android":"levelo://app?vid=dac94ecf-3203-4c89-acc0-21c14e979588","ios":"levelo://app?vid=dac94ecf-3203-4c89-acc0-21c14e979588"},"vehicle_type_id":"4","last_reported":1735729604,"current_range_meters":9600,"station_id":"ce4bhg92rcd13ifvqf90","pricing_plan_id":"cebpf4jnsgd1na2vs0mg"},{"bike_id":"560a082e-860d-453b-bdd6-7a868105718c","system_id":"levelo_inurba_marseille","lat":43.26805,"lon":5.40264,"is_reserved":false,"is_disabled":false,"rental_uris":{"android":"levelo://app?vid=560a082e-860d-453b-bdd6-7a868105718c","ios":"levelo://app?vid=560a082e-860d-453b-bdd6-7a868105718c"},"vehicle_type_id":"4","last_reported":1735729604,"current_range_meters":38800,"station_id":"ce501612rcd8frsf0b60","pricing_plan_id":"cebpf4jnsgd1na2vs0mg"},{"bike_id":"34c94d6b-e825-45a5-a340-625525b8066e","system_id":"levelo_inurba_marseille","lat":43.32358,"lon":5.38887,"is_reserved":false,"is_disabled":false,"rental_uris":{"android":"levelo://app?vid=34c94d6b-e825-45a5-a340-625525b8066e","ios":"levelo://app?vid=34c94d6b-e825-45a5-a340-625525b8066e"},"vehicle_type_id":"4","last_reported":1735729604,"current_range_meters":18000,"station_id":"ce4bhqp2rcd13ifvqhog","pricing_plan_id":"cebpf4jnsgd1na2vs0mg"},{"bike_id":"9c42c59a-a990-48ee-91ac-32ebebcaabf5","system_id":"levelo_inurba_marseille","lat":43.27564,"lon":5.3844,"is_reserved":false,"is_disabled":false,"rental_uris":{"android":"levelo://app?vid=9c42c59a-a990-48ee-91ac-32ebebcaabf5","ios":"levelo://app?vid=9c42c59a-a990-48ee-91ac-32ebebcaabf5"},"vehicle_type_id":"4","last_reported":1735729604,"current_range_meters":39200,"station_id":"ce4bhh92rcd13ifvqfi0","pricing_plan_id":"cebpf4jnsgd1na2vs0mg"},{"bike_id":"16e02510-3bf0-4cb1-80f6-1ee86bd92dd1","system_id":"levelo_inurba_marseille","lat":43.29266,"lon":5.40904,"is_reserved":false,"is_disabled":false,"rental_uris":{"android":"levelo://app?vid=16e02510-3bf0-4cb1-80f6-1ee86bd92dd1","ios":"levelo://app?vid=16e02510-3bf0-4cb1-80f6-1ee86bd92dd1"},"vehicle_type_id":"4","last_reported":1735729604,"current_range_meters":29600,"station_id":"ce4bh192rcd13ifvqdc0","pricing_plan_id":"cebpf4jnsgd1na2vs0mg"},{"bike_id":"0f952e66-90d3-4606-84d9-a7eba4b2c521","system_id":"levelo_inurba_marseille","lat":43.30294,"lon":5.39212,"is_reserved":false,"is_disabled":false,"rental_uris":{"android":"levelo://app?vid=0f952e66-90d3-4606-84d9-a7eba4b2c521","ios":"levelo://app?vid=0f952e66-90d3-4606-84d9-a7eba4b2c521"},"vehicle_type_id":"4","last_reported":1735729604,"current_range_meters":38400,"station_id":"ce4bgkh2rcd13ifvqbk0","pricing_plan_id":"cebpf4jnsgd1na2vs0mg"},{"bike_id":"1e8b166b-4ac7-4e46-9531-4a3163b32a0f","system_id":"levelo_inurba_marseille","lat":43.2873,"lon":5.36082,"is_reserved":false,"is_disabled":false,"rental_uris":{"android":"levelo://app?vid=1e8b166b-4ac7-4e46-9531-4a3163b32a0f","ios":"levelo://app?vid=1e8b166b-4ac7-4e46-9531-4a3163b32a0f"},"vehicle_type_id":"4","last_reported":1735729604,"current_range_meters":24000,"station_id":"cki0cbj6b192h4jlfktg","pricing_plan_id":"cebpf4jnsgd1na2vs0mg"},{"bike_id":"ac8e2fd4-a1b8-41e2-950c-f79a97a17cb9","system_id":"levelo_inurba_marseille","lat":43.27052,"lon":5.40258,"is_reserved":false,"is_disabled":false,"rental_uris":{"android":"levelo://app?vid=ac8e2fd4-a1b8-41e2-950c-f79a97a17cb9","ios":"levelo://app?vid=ac8e2fd4-a1b8-41e2-950c-f79a97a17cb9"},"vehicle_type_id":"4","last_reported":1735729604,"current_range_meters":30400,"station_id":"ce4bhk92rcd13ifvqgc0","pricing_plan_id":"cebpf4jnsgd1na2vs0mg"},{"bike_id":"ab16d1bd-cc5a-492f-a523-fcc0f6376cad","system_id":"levelo_inurba_marseille","lat":43.24064,"lon":5.37762,"is_reserved":false,"is_disabled":false,"rental_uris":{"android":"levelo://app?vid=ab16d1bd-cc5a-492f-a523-fcc0f6376cad","ios":"levelo://app?vid=ab16d1bd-cc5a-492f-a523-fcc0f6376cad"},"vehicle_type_id":"4","last_reported":1735729604,"current_range_meters":20800,"station_id":"ce4bhnp2rcd13ifvqgvg","pricing_plan_id":"cebpf4jnsgd1na2vs0mg"},{"bike_id":"49f1bb91-37dd-44ec-9cce-64cbe6be5e00","system_id":"levelo_inurba_marseille","lat":43.287239,"lon":5.360851,"is_reserved":false,"is_disabled":false,"rental_uris":{"android":"levelo://app?vid=49f1bb91-37dd-44ec-9cce-64cbe6be5e00","ios":"levelo://app?vid=49f1bb91-37dd-44ec-9cce-64cbe6be5e00"},"vehicle_type_id":"4","last_reported":1735729604,"current_range_meters":36800,"station_id":"cki0cbj6b192h4jlfktg","pricing_plan_id":"cebpf4jnsgd1na2vs0mg"},