{"last_updated":1728454427,"ttl":60,"version":"2.2","data":{"bikes":[{"bike_id":"794b6258-b872-4bca-91c6-1ba78632ea2d","system_id":"levelo_inurba_marseille","lat":43.25865,"lon":5.39911,"is_reserved":false,"is_disabled":false,"rental_uris":{"android":"levelo://app?vid=794b6258-b872-4bca-91c6-1ba78632ea2d","ios":"levelo://app?vid=794b6258-b872-4bca-91c6-1ba78632ea2d"},"vehicle_type_id":"4","last_reported":1728454427,"current_range_meters":38400,"station_id":"ce4bhl92rcd13ifvqghg","pricing_plan_id":"cebpf4jnsgd1na2vs0mg"},{"bike_id":"c60da232-2931-445e-9832-6a7c4cbdbe4f","system_id":"levelo_inurba_marseille","lat":43.25939,"lon":5.40909,"is_reserved":false,"is_disabled":false,"rental_uris":{"android":"levelo://app?vid=c60da232-2931-445e-9832-6a7c4cbdbe4f","ios":"levelo://app?vid=c60da232-2931-445e-9832-6a7c4cbdbe4f"},"vehicle_type_id":"4","last_reported":1728454427,"current_range_meters":28400,"station_id":"ce4bhm92rcd13ifvqglg","pricing_plan_id":"cebpf4jnsgd1na2vs0mg"},{"bike_id":"aa2838aa-07b1-447b-a086-a1d2547a28f5","system_id":"levelo_inurba_marseille","lat":43.27616,"lon":5.36107,"is_reserved":false,"is_disabled":false,"rental_uris":{"android":"levelo://app?vid=aa2838aa-07b1-447b-a086-a1d2547a28f5","ios":"levelo://app?vid=aa2838aa-07b1-447b-a086-a1d2547a28f5"},"vehicle_type_id":"4","last_reported":1728454427,"current_range_meters":29600,"station_id":"ce4bgj92rcd13ifvqbe0","pricing_plan_id":"cebpf4jnsgd1na2vs0mg"},{"bike_id":"51512ed1-1496-4ab4-92a1-c0432ac48932","system_id":"levelo_inurba_marseille","lat":43.24182,"lon":5.39722,"is_reserved":false,"is_disabled":false,"rental_uris":{"android":"levelo://app?vid=51512ed1-1496-4ab4-92a1-c0432ac48932","ios":"levelo://app?vid=51512ed1-1496-4ab4-92a1-c0432ac48932"},"vehicle_type_id":"4","last_reported":1728454427,"current_range_meters":28400,"station_id":"ce4bhn12rcd13ifvqgpg","pricing_plan_id":"cebpf4jnsgd1na2vs0mg"},{"bike_id":"5b5e59f4-1650-4783-b44e-275a5a79f0d3","system_id":"levelo_inurba_marseille","lat":43.30786,"lon":5.37644,"is_reserved":false,"is_disabled":false,"rental_uris":{"android":"levelo://app?vid=5b5e59f4-1650-4783-b44e-275a5a79f0d3","ios":"levelo://app?vid=5b5e59f4-1650-4783-b44e-275a5a79f0d3"},"vehicle_type_id":"4","last_reported":1728454427,"current_range_meters":38000,"station_id":"ce4bgv92rcd13ifvqcq0","pricing_plan_id":"cebpf4jnsgd1na2vs0mg"},{"bike_id":"62d9e195-f719-4690-a78c-ff33746a6f51","system_id":"levelo_inurba_marseille","lat":43.27371,"lon":5.3626,"is_reserved":false,"is_disabled":false,"rental_uris":{"android":"levelo://app?vid=62d9e195-f719-4690-a78c-ff33746a6f51","ios":"levelo://app?vid=62d9e195-f719-4690-a78c-ff33746a6f51"},"vehicle_type_id":"4","last_reported":1728454427,"current_range_meters":38800,"station_id":"ce4bhbh2rcd13ifvqeo0","pricing_plan_id":"cebpf4jnsgd1na2vs0mg"},{"bike_id":"6b8918a4-396b-43e5-9a7f-f056357bf660","system_id":"levelo_inurba_marseille","lat":43.23066,"lon":5.35487,"is_reserved":false,"is_disabled":false,"rental_uris":{"android":"levelo://app?vid=6b8918a4-396b-43e5-9a7f-f056357bf660","ios":"levelo://app?vid=6b8918a4-396b-43e5-9a7f-f056357bf660"},"vehicle_type_id":"4","last_reported":1728454427,"current_range_meters":9600,"station_id":"cpo3342slgdg3j2ifvpg","pricing_plan_id":"cebpf4jnsgd1na2vs0mg"},{"bike_id":"d8e9d64f-58e8-44a2-bd7c-c474490c85eb","system_id":"levelo_inurba_marseille","lat":43.28679,"lon":5.38654,"is_reserved":false,"is_disabled":false,"rental_uris":{"android":"levelo://app?vid=d8e9d64f-58e8-44a2-bd7c-c474490c85eb","ios":"levelo://app?vid=d8e9d64f-58e8-44a2-bd7c-c474490c85eb"},"vehicle_type_id":"4","last_reported":1728454427,"current_range_meters":38000,"station_id":"ce4bh492rcd13ifvqdug","pricing_plan_id":"cebpf4jnsgd1na2vs0mg"},{"bike_id":"28718dbc-8207-4cdd-a5da-cea9a594d0fc","system_id":"levelo_inurba_marseille","lat":43.32337,"lon":5.40614,"is_reserved":false,"is_disabled":false,"rental_uris":{"android":"levelo://app?vid=28718dbc-8207-4cdd-a5da-cea9a594d0fc","ios":"levelo://app?vid=28718dbc-8207-4cdd-a5da-cea9a594d0fc"},"vehicle_type_id":"4","last_reported":1728454427,"current_range_meters":30000,"station_id":"ce4bhq92rcd13ifvqhjg","pricing_plan_id":"cebpf4jnsgd1na2vs0mg"},{"bike_id":"64524fe4-6e16-4d18-8e90-00b089a26f5f","system_id":"levelo_inurba_marseille","lat":43.27843,"lon":5.38479,"is_reserved":false,"is_disabled":false,"rental_uris":{"android":"levelo://app?vid=64524fe4-6e16-4d18-8e90-00b089a26f5f","ios":"levelo://app?vid=64524fe4-6e16-4d18-8e90-00b089a26f5f"},"vehicle_type_id":"4","last_reported":1728454427,"current_range_meters":35200,"station_id":"ce4bgvp2rcd13ifvqct0","pricing_plan_id":"cebpf4jnsgd1na2vs0mg"},{"bike_id":"0fff8baa-bdea-415a-80d5-a5bb069859c4","system_id":"levelo_inurba_marseille","lat":43.26806,"lon":5.40262,"is_reserved":false,"is_disabled":false,"rental_uris":{"android":"levelo://app?vid=0fff8baa-bdea-415a-80d5-a5bb069859c4","ios":"levelo://app?vid=0fff8baa-bdea-415a-80d5-a5bb069859c4"},"vehicle_type_id":"4","last_reported":1728454427,"current_range_meters":8400,"station_id":"ce501612rcd8frsf0b60","pricing_plan_id":"cebpf4jnsgd1na2vs0mg"},{"bike_id":"0942f772-31be-4eb1-b669-63d390169f0e","system_id":"levelo_inurba_marseille","lat":43.33603,"lon":5.41024,"is_reserved":false,"is_disabled":false,"rental_uris":{"android":"levelo://app?vid=0942f772-31be-4eb1-b669-63d390169f0e","ios":"levelo://app?vid=0942f772-31be-4eb1-b669-63d390169f0e"},"vehicle_type_id":"4","last_reported":1728454427,"current_range_meters":38800,"station_id":"ce4bhqh2rcd13ifvqhmg","pricing_plan_id":"cebpf4jnsgd1na2vs0mg"},{"bike_id":"96b8b793-be91-48ac-abec-777c4852916e","system_id":"levelo_inurba_marseille","lat":43.31657,"lon":5.40425,"is_reserved":false,"is_disabled":false,"rental_uris":{"android":"levelo://app?vid=96b8b793-be91-48ac-abec-777c4852916e","ios":"levelo://app?vid=96b8b793-be91-48ac-abec-777c4852916e"},"vehicle_type_id":"4","last_reported":1728454427,"current_range_meters":4800,"station_id":"ce4bhq92rcd13ifvqhjg","pricing_plan_id":"cebpf4jnsgd1na2vs0mg"},{"bike_id":"39889ba0-0431-4056-b70a-688defafb58c","system_id":"levelo_inurba_marseille","lat":43.27492,"lon":5.4245,"is_reserved":false,"is_disabled":false,"rental_uris":{"android":"levelo://app?vid=39889ba0-0431-4056-b70a-688defafb58c","ios":"levelo://app?vid=39889ba0-0431-4056-b70a-688defafb58c"},"vehicle_type_id":"4","last_reported":1728454427,"current_range_meters":35200,"station_id":"ce4bhn92rcd13ifvqgrg","pricing_plan_id":"cebpf4jnsgd1na2vs0mg"},{"bike_id":"ace8a186-8cef-4d0f-9025-4c745fd721d3","system_id":"levelo_inurba_marseille","lat":43.31165,"lon":5.38717,"is_reserved":false,"is_disabled":false,"rental_uris":{"android":"levelo://app?vid=ace8a186-8cef-4d0f-9025-4c745fd721d3","ios":"levelo://app?vid=ace8a186-8cef-4d0f-9025-4c745fd721d3"},"vehicle_type_id":"4","last_reported":1728454427,"current_range_meters":38800,"station_id":"ce4bgv12rcd13ifvqcp0","pricing_plan_id":"cebpf4jnsgd1na2vs0mg"},{"bike_id":"44c54571-c3c8-4682-80b4-74bd87ded135","system_id":"levelo_inurba_marseille","lat":43.30261,"lon":5.37734,"is_reserved":false,"is_disabled":false,"rental_uris":{"android":"levelo://app?vid=44c54571-c3c8-4682-80b4-74bd87ded135","ios":"levelo://app?vid=44c54571-c3c8-4682-80b4-74bd87ded135"},"vehicle_type_id":"4","last_reported":1728454427,"current_range_meters":28000,"station_id":"ce4bguh2rcd13ifvqcj0","pricing_plan_id":"cebpf4jnsgd1na2vs0mg"},{"bike_id":"142d470c-133f-48e6-a215-eb35f3ed1638","system_id":"levelo_inurba_marseille","lat":43.31879,"lon":5.40742,"is_reserved":false,"is_disabled":false,"rental_uris":{"android":"levelo://app?vid=142d470c-133f-48e6-a215-eb35f3ed1638","ios":"levelo://app?vid=142d470c-133f-48e6-a215-eb35f3ed1638"},"vehicle_type_id":"4","last_reported":1728454427,"current_range_meters":25200,"station_id":"ce4bhq12rcd13ifvqhig","pricing_plan_id":"cebpf4jnsgd1na2vs0mg"},{"bike_id":"66adeba8-5df7-4620-b2f2-1937e7b64748","system_id":"levelo_inurba_marseille","lat":43.26957,"lon":5.38646,"is_reserved":false,"is_disabled":false,"rental_uris":{"android":"levelo://app?vid=66adeba8-5df7-4620-b2f2-1937e7b64748","ios":"levelo://app?vid=66adeba8-5df7-4620-b2f2-1937e7b64748"},"vehicle_type_id":"4","last_reported":1728454427,"current_range_meters":6000,"station_id":"ce4bhh92rcd13ifvqfh0","pricing_plan_id":"cebpf4jnsgd1na2vs0mg"},{"bike_id":"64c9abdc-a744-4b43-9856-a64e8ee5db15","system_id":"levelo_inurba_marseille","lat":43.23062,"lon":5.35488,"is_reserved":false,"is_disabled":false,"rental_uris":{"android":"levelo://app?vid=64c9abdc-a744-4b43-9856-a64e8ee5db15","ios":"levelo://app?vid=64c9abdc-a744-4b43-9856-a64e8ee5db15"},"vehicle_type_id":"4","last_reported":1728454427,"current_range_meters":38800,"station_id":"cpo3342slgdg3j2ifvpg","pricing_plan_id":"cebpf4jnsgd1na2vs0mg"},{"bike_id":"299104d3-0300-4195-8c09-375d40793ddc","system_id":"levelo_inurba_marseille","lat":43.25581,"lon":5.38231,"is_reserved":false,"is_disabled":false,"rental_uris":{"android":"levelo://app?vid=299104d3-0300-4195-8c09-375d40793ddc","ios":"levelo://app?vid=299104d3-0300-4195-8c09-375d40793ddc"},"vehicle_type_id":"4","last_reported":1728454427,"current_range_meters":36800,"station_id":"ce4bhih2rcd13ifvqfs0","pricing_plan_id":"cebpf4jnsgd1na2vs0mg"},{"bike_id":"0e6c3bbb-bf4d-433a-b365-e3780e072d1d","system_id":"levelo_inurba_marseille","lat":43.32334,"lon":5.4062,"is_reserved":false,"is_disabled":false,"rental_uris":{"android":"levelo://app?vid=0e6c3bbb-bf4d-433a-b365-e3780e072d1d","ios":"levelo://app?vid=0e6c3bbb-bf4d-433a-b365-e3780e072d1d"},"vehicle_type_id":"4","last_reported":1728454427,"current_range_meters":39200,"station_id":"ce4bhq92rcd13ifvqhjg","pricing_plan_id":"cebpf4jnsgd1na2vs0mg"},{"bike_id":"df182855-ea6e-46c5-858c-cafee4dccb53","system_id":"levelo_inurba_marseille","lat":43.275692,"lon":5.384249,"is_reserved":false,"is_disabled":false,"rental_uris":{"android":"levelo://app?vid=df182855-ea6e-46c5-858c-cafee4dccb53","ios":"levelo://app?vid=df182855-ea6e-46c5-858c-cafee4dccb53"},"vehicle_type_id":"4","last_reported":1728454427,"current_range_meters":16000,"station_id":"ce4bhh92rcd13ifvqfi0","pricing_plan_id":"cebpf4jnsgd1na2vs0mg"},{"bike_id":"72249399-0f58-4a6d-8a4e-5f70be3f56c1","system_id":"levelo_inurba_marseille","lat":43.31533,"lon":5.38029,"is_reserved":false,"is_disabled":false,"rental_uris":{"android":"levelo://app?vid=72249399-0f58-4a6d-8a4e-5f70be3f56c1","ios":"levelo://app?vid=72249399-0f58-4a6d-8a4e-5f70be3f56c1"},"vehicle_type_id":"4","last_reported":1728454427,"current_range_meters":38800,"station_id":"ce4bhsp2rcd13ifvqi50","pricing_plan_id":"cebpf4jnsgd1na2vs0mg"},{"bike_id":"7469c44d-e141-45b2-a053-a4209ee695e3","system_id":"levelo_inurba_marseille","lat":43.29552,"lon":5.42279,"is_reserved":false,"is_disabled":false,"rental_uris":{"android":"levelo://app?vid=7469c44d-e141-45b2-a053-a4209ee695e3","ios":"levelo://app?vid=7469c44d-e141-45b2-a053-a4209ee695e3"},"vehicle_type_id":"4","last_reported":1728454427,"current_range_meters":38800,"station_id":"ce4bhph2rcd13ifvqhdg","pricing_plan_id":"cebpf4jnsgd1na2vs0mg"},{"bike_id":"838b16dd-9eac-4c3f-b799-083241b130de","system_id":"levelo_inurba_marseille","lat":43.31345,"lon":5.36707,"is_reserved":false,"is_disabled":false,"rental_uris":{"android":"levelo://app?vid=838b16dd-9eac-4c3f-b799-083241b130de","ios":"levelo://app?vid=838b16dd-9eac-4c3f-b799-083241b130de"},"vehicle_type_id":"4","last_reported":1728454427,"current_range_meters":38800,"station_id":"ce4bgr92rcd13ifvqc6g","pricing_plan_id":"cebpf4jnsgd1na2vs0mg"},{"bike_id":"53119476-26a1-436f-872c-f741bf0956f2","system_id":"levelo_inurba_marseille","lat":43.27063,"lon":5.40255,"is_reserved":false,"is_disabled":false,"rental_uris":{"android":"levelo://app?vid=53119476-26a1-436f-872c-f741bf0956f2","ios":"levelo://app?vid=53119476-26a1-436f-872c-f741bf0956f2"},"vehicle_type_id":"4","last_reported":1728454427,"current_range_meters":38800,"station_id":"ce4bhk92rcd13ifvqgc0","pricing_plan_id":"cebpf4jnsgd1na2vs0mg"},{"bike_id":"1ae2b79a-32f0-4db0-b2e2-c49b76723d00","system_id":"levelo_inurba_marseille","lat":43.30189,"lon":5.3663,"is_reserved":false,"is_disabled":false,"rental_uris":{"android":"levelo://app?vid=1ae2b79a-32f0-4db0-b2e2-c49b76723d00","ios":"levelo://app?vid=1ae2b79a-32f0-4db0-b2e2-c49b76723d00"},"vehicle_type_id":"4","last_reported":1728454427,"current_range_meters":34800,"station_id":"ce4bgrh2rcd13ifvqc8g","pricing_plan_id":"cebpf4jnsgd1na2vs0mg"},{"bike_id":"8b1fbf19-b297-4076-84ee-eae96b76bb0e","system_id":"levelo_inurba_marseille","lat":43.27491,"lon":5.42455,"is_reserved":false,"is_disabled":false,"rental_uris":{"android":"levelo://app?vid=8b1fbf19-b297-4076-84ee-eae96b76bb0e","ios":"levelo://app?vid=8b1fbf19-b297-4076-84ee-eae96b76bb0e"},"vehicle_type_id":"4","last_reported":1728454427,"current_range_meters":30000,"station_id":"ce4bhn92rcd13ifvqgrg","pricing_plan_id":"cebpf4jnsgd1na2vs0mg"},{"bike_id":"77a0090c-a4ec-419e-b179-925c1be63405","system_id":"levelo_inurba_marseille","lat":43.28348,"lon":5.38109,"is_reserved":false,"is_disabled":false,"rental_uris":{"android":"levelo://app?vid=77a0090c-a4ec-419e-b179-925c1be63405","ios":"levelo://app?vid=77a0090c-a4ec-419e-b179-925c1be63405"},"vehicle_type_id":"4","last_reported":1728454427,"current_range_meters":5600,"station_id":"ce4bh412rcd13ifvqdr0","pricing_plan_id":"cebpf4jnsgd1na2vs0mg"},{"bike_id":"a25cf3f5-8305-429f-b687-0d2dc1eedf78","system_id":"levelo_inurba_marseille","lat":43.30462,"lon":5.37903,"is_reserved":false,"is_disabled":false,"rental_uris":{"android":"levelo://app?vid=a25cf3f5-8305-429f-b687-0d2dc1eedf78","ios":"levelo://app?vid=a25cf3f5-8305-429f-b687-0d2dc1eedf78"},"vehicle_type_id":"4","last_reported":1728454427,"current_range_meters":20000,"station_id":"ce4bgup2rcd13ifvqcn0","pricing_plan_id":"cebpf4jnsgd1na2vs0mg"},{"bike_id":"4a33675d-62f6-40a3-8045-3b3ee051daca","system_id":"levelo_inurba_marseille","lat":43.2903,"lon":5.39976,"is_reserved":false,"is_disabled":false,"rental_uris":{"android":"levelo://app?vid=4a33675d-62f6-40a3-8045-3b3ee051daca","ios":"levelo://app?vid=4a33675d-62f6-40a3-8045-3b3ee051daca"},"vehicle_type_id":"4","last_reported":1728454427,"current_range_meters":27200,"station_id":"ce4bh392rcd13ifvqdm0","pricing_plan_id":"cebpf4jnsgd1na2vs0mg"},{"bike_id":"bb2e1fea-dfd8-4ba8-bfa3-2c6117c876fd","system_id":"levelo_inurba_marseille","lat":43.24548,"lon":5.39522,"is_reserved":false,"is_disabled":false,"rental_uris":{"android":"levelo://app?vid=bb2e1fea-dfd8-4ba8-bfa3-2c6117c876fd","ios":"levelo://app?vid=bb2e1fea-dfd8-4ba8-bfa3-2c6117c876fd"},"vehicle_type_id":"4","last_reported":1728454427,"current_range_meters":16400,"station_id":"ce4bhlp2rcd13ifvqgjg","pricing_plan_id":"cebpf4jnsgd1na2vs0mg"},{"bike_id":"59a20882-e884-470e-b111-32ed424e7cc3","system_id":"levelo_inurba_marseille","lat":43.33724,"lon":5.39191,"is_reserved":false,"is_disabled":false,"rental_uris":{"android":"levelo://app?vid=59a20882-e884-470e-b111-32ed424e7cc3","ios":"levelo://app?vid=59a20882-e884-470e-b111-32ed424e7cc3"},"vehicle_type_id":"4","last_reported":1728454427,"current_range_meters":32800,"station_id":"ce4bhr92rcd13ifvqhsg","pricing_plan_id":"cebpf4jnsgd1na2vs0mg"},{"bike_id":"765253b8-b2bc-4e05-b9bc-e75ec8e9dc23","system_id":"levelo_inurba_marseille","lat":43.29374,"lon":5.37834,"is_reserved":false,"is_disabled":false,"rental_uris":{"android":"levelo://app?vid=765253b8-b2bc-4e05-b9bc-e75ec8e9dc23","ios":"levelo://app?vid=765253b8-b2bc-4e05-b9bc-e75ec8e9dc23"},"vehicle_type_id":"4","last_reported":1728454427,"current_range_meters":25600,"station_id":"ce4bgjh2rcd13ifvqbf0","pricing_plan_id":"cebpf4jnsgd1na2vs0mg"},{"bike_id":"0fc17932-ea76-4a66-b62d-a2e15db045c6","system_id":"levelo_inurba_marseille","lat":43.31169,"lon":5.38725,"is_reserved":false,"is_disabled":false,"rental_uris":{"android":"levelo://app?vid=0fc17932-ea76-4a66-b62d-a2e15db045c6","ios":"levelo://app?vid=0fc17932-ea76-4a66-b62d-a2e15db045c6"},"vehicle_type_id":"4","last_reported":1728454427,"current_range_meters":37600,"station_id":"ce4bgv12rcd13ifvqcp0","pricing_plan_id":"cebpf4jnsgd1na2vs0mg"},{"bike_id":"2829482b-f02b-493e-b0b5-77d7f3bee5c4","system_id":"levelo_inurba_marseille","lat":43.30592,"lon":5.39362,"is_reserved":false,"is_disabled":false,"rental_uris":{"android":"levelo://app?vid=2829482b-f02b-493e-b0b5-77d7f3bee5c4","ios":"levelo://app?vid=2829482b-f02b-493e-b0b5-77d7f3bee5c4"},"vehicle_type_id":"4","last_reported":1728454427,"current_range_meters":30000,"station_id":"ce4bh0p2rcd13ifvqd80","pricing_plan_id":"cebpf4jnsgd1na2vs0mg"},{"bike_id":"83240f4b-c21b-40e5-a58a-e25bddcb6143","system_id":"levelo_inurba_marseille","lat":43.297928,"lon":5.381176,"is_reserved":false,"is_disabled":false,"rental_uris":{"android":"levelo://app?vid=83240f4b-c21b-40e5-a58a-e25bddcb6143","ios":"levelo://app?vid=83240f4b-c21b-40e5-a58a-e25bddcb6143"},"vehicle_type_id":"4","last_reported":1728454427,"current_range_meters":26000,"station_id":"","pricing_plan_id":"cebpf4jnsgd1na2vs0mg"},{"bike_id":"c2c697a5-1f78-4f8d-b2a7-f7db1f56eb5d","system_id":"levelo_inurba_marseille","lat":43.33606,"lon":5.4102,"is_reserved":false,"is_disabled":false,"rental_uris":{"android":"levelo://app?vid=c2c697a5-1f78-4f8d-b2a7-f7db1f56eb5d","ios":"levelo://app?vid=c2c697a5-1f78-4f8d-b2a7-f7db1f56eb5d"},"vehicle_type_id":"4","last_reported":1728454427,"current_range_meters":39200,"station_id":"ce4bhqh2rcd13ifvqhmg","pricing_plan_id":"cebpf4jnsgd1na2vs0mg"},{"bike_id":"7d7ab187-9965-49a4-bf26-b6ade39671fc","system_id":"levelo_inurba_marseille","lat":43.23195,"lon":5.3555,"is_reserved":false,"is_disabled":false,"rental_uris":{"android":"levelo://app?vid=7d7ab187-9965-49a4-bf26-b6ade39671fc","ios":"levelo://app?vid=7d7ab187-9965-49a4-bf26-b6ade39671fc"},"vehicle_type_id":"4","last_reported":1728454427,"current_range_meters":26800,"station_id":"ce4bhu92rcd13ifvqi70","pricing_plan_id":"cebpf4jnsgd1na2vs0mg"},{"bike_id":"800d8d30-e076-47c0-b419-3f963f64351b","system_id":"levelo_inurba_marseille","lat":43.29798,"lon":5.38093,"is_reserved":false,"is_disabled":false,"rental_uris":{"android":"levelo://app?vid=800d8d30-e076-47c0-b419-3f963f64351b","ios":"levelo://app?vid=800d8d30-e076-47c0-b419-3f963f64351b"},"vehicle_type_id":"4","last_reported":1728454427,"current_range_meters":35600,"station_id":"ce4bgip2rcd13ifvqbb0","pricing_plan_id":"cebpf4jnsgd1na2vs0mg"},{"bike_id":"4c1d49fa-f997-40d9-bdd1-213dadbd24c5","system_id":"levelo_inurba_marseille","lat":43.32656,"lon":5.40992,"is_reserved":false,"is_disabled":false,"rental_uris":{"android":"levelo://app?vid=4c1d49fa-f997-40d9-bdd1-213dadbd24c5","ios":"levelo://app?vid=4c1d49fa-f997-40d9-bdd1-213dadbd24c5"},"vehicle_type_id":"4","last_reported":1728454427,"current_range_meters":34000,"station_id":"ce4bhpp2rcd13ifvqhgg","pricing_plan_id":"cebpf4jnsgd1na2vs0mg"},{"bike_id":"64cbf5ad-210a-4eed-8035-947870e47e4b","system_id":"levelo_inurba_marseille","lat":43.231897,"lon":5.399837,"is_reserved":false,"is_disabled":false,"rental_uris":{"android":"levelo://app?vid=64cbf5ad-210a-4eed-8035-947870e47e4b","ios":"levelo://app?vid=64cbf5ad-210a-4eed-8035-947870e47e4b"},"vehicle_type_id":"4","last_reported":1728454427,"current_range_meters":4800,"station_id":"ce4bhn12rcd13ifvqgqg","pricing_plan_id":"cebpf4jnsgd1na2vs0mg"},{"bike_id":"a8a51af8-0702-42a1-ad61-2025fcc441f7","system_id":"levelo_inurba_marseille","lat":43.29974,"lon":5.385036,"is_reserved":false,"is_disabled":false,"rental_uris":{"android":"levelo://app?vid=a8a51af8-0702-42a1-ad61-2025fcc441f7","ios":"levelo://app?vid=a8a51af8-0702-42a1-ad61-2025fcc441f7"},"vehicle_type_id":"4","last_reported":1728454427,"current_range_meters":30800,"station_id":"ce4bgj92rcd13ifvqbd0","pricing_plan_id":"cebpf4jnsgd1na2vs0mg"},{"bike_id":"9406efd2-db2d-4369-97fd-2096995372ea","system_id":"levelo_inurba_marseille","lat":43.28674,"lon":5.38656,"is_reserved":false,"is_disabled":false,"rental_uris":{"android":"levelo://app?vid=9406efd2-db2d-4369-97fd-2096995372ea","ios":"levelo://app?vid=9406efd2-db2d-4369-97fd-2096995372ea"},"vehicle_type_id":"4","last_reported":1728454427,"current_range_meters":37600,"station_id":"ce4bh492rcd13ifvqdug","pricing_plan_id":"cebpf4jnsgd1na2vs0mg"},{"bike_id":"35a60bcb-e914-4185-9d41-dfdd93b37632","system_id":"levelo_inurba_marseille","lat":43.2466,"lon":5.38161,"is_reserved":false,"is_disabled":false,"rental_uris":{"android":"levelo://app?vid=35a60bcb-e914-4185-9d41-dfdd93b37632","ios":"levelo://app?vid=35a60bcb-e914-4185-9d41-dfdd93b37632"},"vehicle_type_id":"4","last_reported":1728454427,"current_range_meters":38800,"station_id":"ce4bhih2rcd13ifvqfr0","pricing_plan_id":"cebpf4jnsgd1na2vs0mg"},{"bike_id":"3ebb579f-18fb-44f5-b0b3-804bd56371c5","system_id":"levelo_inurba_marseille","lat":43.24084,"lon":5.37761,"is_reserved":false,"is_disabled":false,"rental_uris":{"android":"levelo://app?vid=3ebb579f-18fb-44f5-b0b3-804bd56371c5","ios":"levelo://app?vid=3ebb579f-18fb-44f5-b0b3-804bd56371c5"},"vehicle_type_id":"4","last_reported":1728454427,"current_range_meters":36800,"station_id":"ce4bhnp2rcd13ifvqgvg","pricing_plan_id":"cebpf4jnsgd1na2vs0mg"},{"bike_id":"5a593ff4-69be-4de7-8ca7-cb271da3e0a8","system_id":"levelo_inurba_marseille","lat":43.23967,"lon":5.36635,"is_reserved":false,"is_disabled":false,"rental_uris":{"android":"levelo://app?vid=5a593ff4-69be-4de7-8ca7-cb271da3e0a8","ios":"levelo://app?vid=5a593ff4-69be-4de7-8ca7-cb271da3e0a8"},"vehicle_type_id":"4","last_reported":1728454427,"current_range_meters":22000,"station_id":"ce4bhi12rcd13ifvqfp0","pricing_plan_id":"cebpf4jnsgd1na2vs0mg"},{"bike_id":"fc6fe8e1-2d55-4160-9d6c-a50a08935ebf","system_id":"levelo_inurba_marseille","lat":43.28718,"lon":5.37941,"is_reserved":false,"is_disabled":false,"rental_uris":{"android":"levelo://app?vid=fc6fe8e1-2d55-4160-9d6c-a50a08935ebf","ios":"levelo://app?vid=fc6fe8e1-2d55-4160-9d6c-a50a08935ebf"},"vehicle_type_id":"4","last_reported":1728454427,"current_range_meters":36800,"station_id":"ce4bh9p2rcd13ifvqec0","pricing_plan_id":"cebpf4jnsgd1na2vs0mg"},{"bike_id":"cfeb45ab-cab0-43fd-82c7-0283af45cf07","system_id":"levelo_inurba_marseille","lat":43.27493,"lon":5.42451,"is_reserved":false,"is_disabled":false,"rental_uris":{"android":"levelo://app?vid=cfeb45ab-cab0-43fd-82c7-0283af45cf07","ios":"levelo://app?vid=cfeb45ab-cab0-43fd-82c7-0283af45cf07"},"vehicle_type_id":"4","last_reported":1728454427,"current_range_meters":33600,"station_id":"ce4bhn92rcd13ifvqgrg","pricing_plan_id":"cebpf4jnsgd1na2vs0mg"},{"bike_id":"4ba5ecab-b246-40de-b957-7d30ebafaad6","system_id":"levelo_inurba_marseille","lat":43.27172,"lon":5.40993,"is_reserved":false,"is_disabled":false,"rental_uris":{"android":"levelo://app?vid=4ba5ecab-b246-40de-b957-7d30ebafaad6","ios":"levelo://app?vid=4ba5ecab-b246-40de-b957-7d30ebafaad6"},"vehicle_type_id":"4","last_reported":1728454427,"current_range_meters":28400,"station_id":"ce4bhl12rcd13ifvqgf0","pricing_plan_id":"cebpf4jnsgd1na2vs0mg"},{"bike_id":"1dfa5a44-ddd0-4c3b-bf3a-b240c5947494","system_id":"levelo_inurba_marseille","lat":43.28725,"lon":5.37942,"is_reserved":false,"is_disabled":false,"rental_uris":{"android":"levelo://app?vid=1dfa5a44-ddd0-4c3b-bf3a-b240c5947494","ios":"levelo://app?vid=1dfa5a44-ddd0-4c3b-bf3a-b240c5947494"},"vehicle_type_id":"4","last_reported":1728454427,"current_range_meters":34800,"station_id":"ce4bh9p2rcd13ifvqec0","pricing_plan_id":"cebpf4jnsgd1na2vs0mg"},{"bike_id":"74e9ce9d-9e9f-4c6b-92fb-2f9a88c1f0f4","system_id":"levelo_inurba_marseille","lat":43.24165,"lon":5.36402,"is_reserved":false,"is_disabled":false,"rental_uris":{"android":"levelo://app?vid=74e9ce9d-9e9f-4c6b-92fb-2f9a88c1f0f4","ios":"levelo://app?vid=74e9ce9d-9e9f-4c6b-92fb-2f9a88c1f0f4"},"vehicle_type_id":"4","last_reported":1728454427,"current_range_meters":38000,"station_id":"cpo36qri1sfpv3e86is0","pricing_plan_id":"cebpf4jnsgd1na2vs0mg"},{"bike_id":"ad3c6500-0331-494b-8046-307691d81a08","system_id":"levelo_inurba_marseille","lat":43.29554,"lon":5.42299,"is_reserved":false,"is_disabled":false,"rental_uris":{"android":"levelo://app?vid=ad3c6500-0331-494b-8046-307691d81a08","ios":"levelo://app?vid=ad3c6500-0331-494b-8046-307691d81a08"},"vehicle_type_id":"4","last_reported":1728454427,"current_range_meters":11200,"station_id":"ce4bhph2rcd13ifvqhdg","pricing_plan_id":"cebpf4jnsgd1na2vs0mg"},{"bike_id":"88814ead-4633-40d7-9ed8-ff254c863ef5","system_id":"levelo_inurba_marseille","lat":43.26056,"lon":5.39401,"is_reserved":false,"is_disabled":false,"rental_uris":{"android":"levelo://app?vid=88814ead-4633-40d7-9ed8-ff254c863ef5","ios":"levelo://app?vid=88814ead-4633-40d7-9ed8-ff254c863ef5"},"vehicle_type_id":"4","last_reported":1728454427,"current_range_meters":25200,"station_id":"ce4bhh92rcd13ifvqfj0","pricing_plan_id":"cebpf4jnsgd1na2vs0mg"},{"bike_id":"792577a6-685a-43bd-bdfe-2ef41696d1e8","system_id":"levelo_inurba_marseille","lat":43.23188,"lon":5.39998,"is_reserved":false,"is_disabled":false,"rental_uris":{"android":"levelo://app?vid=792577a6-685a-43bd-bdfe-2ef41696d1e8","ios":"levelo://app?vid=792577a6-685a-43bd-bdfe-2ef41696d1e8"},"vehicle_type_id":"4","last_reported":1728454427,"current_range_meters":34000,"station_id":"ce4bhn12rcd13ifvqgqg","pricing_plan_id":"cebpf4jnsgd1na2vs0mg"},{"bike_id":"90b1ce2d-31b7-4b33-9c56-a6854e17f5b0","system_id":"levelo_inurba_marseille","lat":43.3048,"lon":5.37906,"is_reserved":false,"is_disabled":false,"rental_uris":{"android":"levelo://app?vid=90b1ce2d-31b7-4b33-9c56-a6854e17f5b0","ios":"levelo://app?vid=90b1ce2d-31b7-4b33-9c56-a6854e17f5b0"},"vehicle_type_id":"4","last_reported":1728454427,"current_range_meters":37600,"station_id":"ce4bgup2rcd13ifvqcn0","pricing_plan_id":"cebpf4jnsgd1na2vs0mg"},{"bike_id":"7d134c7e-8a37-4cd8-833e-574eb14c4a4d","system_id":"levelo_inurba_marseille","lat":43.24802,"lon":5.37452,"is_reserved":false,"is_disabled":false,"rental_uris":{"android":"levelo://app?vid=7d134c7e-8a37-4cd8-833e-574eb14c4a4d","ios":"levelo://app?vid=7d134c7e-8a37-4cd8-833e-574eb14c4a4d"},"vehicle_type_id":"4","last_reported":1728454427,"current_range_meters":39200,"station_id":"ce4bhgh2rcd13ifvqfb0","pricing_plan_id":"cebpf4jnsgd1na2vs0mg"},{"bike_id":"4e6700a4-9eaa-4883-b595-cfa877cac3c2","system_id":"levelo_inurba_marseille","lat":43.229341,"lon":5.35371,"is_reserved":false,"is_disabled":false,"rental_uris":{"android":"levelo://app?vid=4e6700a4-9eaa-4883-b595-cfa877cac3c2","ios":"levelo://app?vid=4e6700a4-9eaa-4883-b595-cfa877cac3c2"},"vehicle_type_id":"4","last_reported":1728454427,"current_range_meters":17200,"station_id":"cpo3532slgdg3j2ikp40","pricing_plan_id":"cebpf4jnsgd1na2vs0mg"},{"bike_id":"15076557-340d-41fc-a13c-2001a5da6496","system_id":"levelo_inurba_marseille","lat":43.25577,"lon":5.3823,"is_reserved":false,"is_disabled":false,"rental_uris":{"android":"levelo://app?vid=15076557-340d-41fc-a13c-2001a5da6496","ios":"levelo://app?vid=15076557-340d-41fc-a13c-2001a5da6496"},"vehicle_type_id":"4","last_reported":1728454427,"current_range_meters":28400,"station_id":"ce4bhih2rcd13ifvqfs0","pricing_plan_id":"cebpf4jnsgd1na2vs0mg"},{"bike_id":"4b1d5d3d-55f8-4c81-a361-d0b57ab7e4cf","system_id":"levelo_inurba_marseille","lat":43.337444,"lon":5.374475,"is_reserved":false,"is_disabled":false,"rental_uris":{"android":"levelo://app?vid=4b1d5d3d-55f8-4c81-a361-d0b57ab7e4cf","ios":"levelo://app?vid=4b1d5d3d-55f8-4c81-a361-d0b57ab7e4cf"},"vehicle_type_id":"4","last_reported":1728454427,"current_range_meters":38800,"station_id":"","pricing_plan_id":"cebpf4jnsgd1na2vs0mg"},{"bike_id":"702024f5-e04f-490f-8ed3-a4c1038463fa","system_id":"levelo_inurba_marseille","lat":43.29603,"lon":5.381,"is_reserved":false,"is_disabled":false,"rental_uris":{"android":"levelo://app?vid=702024f5-e04f-490f-8ed3-a4c1038463fa","ios":"levelo://app?vid=702024f5-e04f-490f-8ed3-a4c1038463fa"},"vehicle_type_id":"4","last_reported":1728454427,"current_range_meters":34800,"station_id":"ce4bgl12rcd13ifvqbo0","pricing_plan_id":"cebpf4jnsgd1na2vs0mg"},{"bike_id":"8bea543b-214d-40ec-9431-9caab1e0e5b3","system_id":"levelo_inurba_marseille","lat":43.26713,"lon":5.40807,"is_reserved":false,"is_disabled":false,"rental_uris":{"android":"levelo://app?vid=8bea543b-214d-40ec-9431-9caab1e0e5b3","ios":"levelo://app?vid=8bea543b-214d-40ec-9431-9caab1e0e5b3"},"vehicle_type_id":"4","last_reported":1728454427,"current_range_meters":15200,"station_id":"ce4bhmp2rcd13ifvqgog","pricing_plan_id":"cebpf4jnsgd1na2vs0mg"},{"bike_id":"ff069fe5-dc29-4fdb-bd5f-9284dc998c0f","system_id":"levelo_inurba_marseille","lat":43.29705,"lon":5.36601,"is_reserved":false,"is_disabled":false,"rental_uris":{"android":"levelo://app?vid=ff069fe5-dc29-4fdb-bd5f-9284dc998c0f","ios":"levelo://app?vid=ff069fe5-dc29-4fdb-bd5f-9284dc998c0f"},"vehicle_type_id":"4","last_reported":1728454427,"current_range_meters":36800,"station_id":"ce4bgn12rcd13ifvqbt0","pricing_plan_id":"cebpf4jnsgd1na2vs0mg"},{"bike_id":"d3d56830-8710-450a-9311-63319fc341ac","system_id":"levelo_inurba_marseille","lat":43.325479,"lon":5.414332,"is_reserved":false,"is_disabled":false,"rental_uris":{"android":"levelo://app?vid=d3d56830-8710-450a-9311-63319fc341ac","ios":"levelo://app?vid=d3d56830-8710-450a-9311-63319fc341ac"},"vehicle_type_id":"4","last_reported":1728454427,"current_range_meters":23200,"station_id":"ce4bhq12rcd13ifvqhhg","pricing_plan_id":"cebpf4jnsgd1na2vs0mg"},{"bike_id":"28870c61-52ad-4627-bd08-d12e58cefbc6","system_id":"levelo_inurba_marseille","lat":43.27497,"lon":5.42456,"is_reserved":false,"is_disabled":false,"rental_uris":{"android":"levelo://app?vid=28870c61-52ad-4627-bd08-d12e58cefbc6","ios":"levelo://app?vid=28870c61-52ad-4627-bd08-d12e58cefbc6"},"vehicle_type_id":"4","last_reported":1728454427,"current_range_meters":28800,"station_id":"ce4bhn92rcd13ifvqgrg","pricing_plan_id":"cebpf4jnsgd1na2vs0mg"},{"bike_id":"051133e1-617d-4246-9be9-4d946642f690","system_id":"levelo_inurba_marseille","lat":43.336008,"lon":5.410171,"is_reserved":false,"is_disabled":false,"rental_uris":{"android":"levelo://app?vid=051133e1-617d-4246-9be9-4d946642f690","ios":"levelo://app?vid=051133e1-617d-4246-9be9-4d946642f690"},"vehicle_type_id":"4","last_reported":1728454427,"current_range_meters":38800,"station_id":"ce4bhqh2rcd13ifvqhmg","pricing_plan_id":"cebpf4jnsgd1na2vs0mg"},{"bike_id":"c87495cc-f294-4d8e-b013-d461eb672ec9","system_id":"levelo_inurba_marseille","lat":43.23966,"lon":5.36633,"is_reserved":false,"is_disabled":false,"rental_uris":{"android":"levelo://app?vid=c87495cc-f294-4d8e-b013-d461eb672ec9","ios":"levelo://app?vid=c87495cc-f294-4d8e-b013-d461eb672ec9"},"vehicle_type_id":"4","last_reported":1728454427,"current_range_meters":22400,"station_id":"ce4bhi12rcd13ifvqfp0","pricing_plan_id":"cebpf4jnsgd1na2vs0mg"},{"bike_id":"63bc6fbd-035b-47f9-a3ae-5719e200cfda","system_id":"levelo_inurba_marseille","lat":43.28357,"lon":5.38106,"is_reserved":false,"is_disabled":false,"rental_uris":{"android":"levelo://app?vid=63bc6fbd-035b-47f9-a3ae-5719e200cfda","ios":"levelo://app?vid=63bc6fbd-035b-47f9-a3ae-5719e200cfda"},"vehicle_type_id":"4","last_reported":1728454427,"current_range_meters":8800,"station_id":"ce4bh412rcd13ifvqdr0","pricing_plan_id":"cebpf4jnsgd1na2vs0mg"},{"bike_id":"8513be67-a978-4cfc-9563-19285ed6fe5a","system_id":"levelo_inurba_marseille","lat":43.232,"lon":5.35545,"is_reserved":false,"is_disabled":false,"rental_uris":{"android":"levelo://app?vid=8513be67-a978-4cfc-9563-19285ed6fe5a","ios":"levelo://app?vid=8513be67-a978-4cfc-9563-19285ed6fe5a"},"vehicle_type_id":"4","last_reported":1728454427,"current_range_meters":14000,"station_id":"ce4bhu92rcd13ifvqi70","pricing_plan_id":"cebpf4jnsgd1na2vs0mg"},{"bike_id":"50209f7b-eb88-4e3b-a707-659f9842f7ca","system_id":"levelo_inurba_marseille","lat":43.2318,"lon":5.39997,"is_reserved":false,"is_disabled":false,"rental_uris":{"android":"levelo://app?vid=50209f7b-eb88-4e3b-a707-659f9842f7ca","ios":"levelo://app?vid=50209f7b-eb88-4e3b-a707-659f9842f7ca"},"vehicle_type_id":"4","last_reported":1728454427,"current_range_meters":15200,"station_id":"ce4bhn12rcd13ifvqgqg","pricing_plan_id":"cebpf4jnsgd1na2vs0mg"},{"bike_id":"ef19fa2a-a21a-4a6f-8756-3571dd034b64","system_id":"levelo_inurba_marseille","lat":43.25089,"lon":5.39502,"is_reserved":false,"is_disabled":false,"rental_uris":{"android":"levelo://app?vid=ef19fa2a-a21a-4a6f-8756-3571dd034b64","ios":"levelo://app?vid=ef19fa2a-a21a-4a6f-8756-3571dd034b64"},"vehicle_type_id":"4","last_reported":1728454427,"current_range_meters":9200,"station_id":"ce4bhm12rcd13ifvqgkg","pricing_plan_id":"cebpf4jnsgd1na2vs0mg"},{"bike_id":"1dfe06b2-bd44-4314-b2c5-ca9a8a922d19","system_id":"levelo_inurba_marseille","lat":43.24084,"lon":5.37759,"is_reserved":false,"is_disabled":false,"rental_uris":{"android":"levelo://app?vid=1dfe06b2-bd44-4314-b2c5-ca9a8a922d19","ios":"levelo://app?vid=1dfe06b2-bd44-4314-b2c5-ca9a8a922d19"},"vehicle_type_id":"4","last_reported":1728454427,"current_range_meters":27600,"station_id":"ce4bhnp2rcd13ifvqgvg","pricing_plan_id":"cebpf4jnsgd1na2vs0mg"},{"bike_id":"922252e8-02c2-4987-8eed-1d6d69073568","system_id":"levelo_inurba_marseille","lat":43.26688,"lon":5.38285,"is_reserved":false,"is_disabled":false,"rental_uris":{"android":"levelo://app?vid=922252e8-02c2-4987-8eed-1d6d69073568","ios":"levelo://app?vid=922252e8-02c2-4987-8eed-1d6d69073568"},"vehicle_type_id":"4","last_reported":1728454427,"current_range_meters":33600,"station_id":"ce4bhg92rcd13ifvqf90","pricing_plan_id":"cebpf4jnsgd1na2vs0mg"},{"bike_id":"edb53ae2-fce9-4c98-be65-8c2fedcecefa","system_id":"levelo_inurba_marseille","lat":43.28851,"lon":5.37023,"is_reserved":false,"is_disabled":false,"rental_uris":{"android":"levelo://app?vid=edb53ae2-fce9-4c98-be65-8c2fedcecefa","ios":"levelo://app?vid=edb53ae2-fce9-4c98-be65-8c2fedcecefa"},"vehicle_type_id":"4","last_reported":1728454427,"current_range_meters":27600,"station_id":"","pricing_plan_id":"cebpf4jnsgd1na2vs0mg"},{"bike_id":"6bd31e4e-2fd0-4c44-9080-9e340617a86a","system_id":"levelo_inurba_marseille","lat":43.28272,"lon":5.35071,"is_reserved":false,"is_disabled":false,"rental_uris":{"android":"levelo://app?vid=6bd31e4e-2fd0-4c44-9080-9e340617a86a","ios":"levelo://app?vid=6bd31e4e-2fd0-4c44-9080-9e340617a86a"},"vehicle_type_id":"4","last_reported":1728454427,"current_range_meters":37600,"station_id":"ce4bhbp2rcd13ifvqerg","pricing_plan_id":"cebpf4jnsgd1na2vs0mg"},{"bike_id":"6dfb2322-2f01-4ce9-9ce4-136ce4eb15d5","system_id":"levelo_inurba_marseille","lat":43.30358,"lon":5.41877,"is_reserved":false,"is_disabled":false,"rental_uris":{"android":"levelo://app?vid=6dfb2322-2f01-4ce9-9ce4-136ce4eb15d5","ios":"levelo://app?vid=6dfb2322-2f01-4ce9-9ce4-136ce4eb15d5"},"vehicle_type_id":"4","last_reported":1728454427,"current_range_meters":28400,"station_id":"ce4bhop2rcd13ifvqh7g","pricing_plan_id":"cebpf4jnsgd1na2vs0mg"},{"bike_id":"e2830f46-261e-4b13-bb04-bc8fe6e8f7d4","system_id":"levelo_inurba_marseille","lat":43.24548,"lon":5.39519,"is_reserved":false,"is_disabled":false,"rental_uris":{"android":"levelo://app?vid=e2830f46-261e-4b13-bb04-bc8fe6e8f7d4","ios":"levelo://app?vid=e2830f46-261e-4b13-bb04-bc8fe6e8f7d4"},"vehicle_type_id":"4","last_reported":1728454427,"current_range_meters":33200,"station_id":"ce4bhlp2rcd13ifvqgjg","pricing_plan_id":"cebpf4jnsgd1na2vs0mg"},{"bike_id":"e6d64693-3a42-420c-88a9-e7b4aef00046","system_id":"levelo_inurba_marseille","lat":43.29222,"lon":5.3608,"is_reserved":false,"is_disabled":false,"rental_uris":{"android":"levelo://app?vid=e6d64693-3a42-420c-88a9-e7b4aef00046","ios":"levelo://app?vid=e6d64693-3a42-420c-88a9-e7b4aef00046"},"vehicle_type_id":"4","last_reported":1728454427,"current_range_meters":28800,"station_id":"ce4bhbh2rcd13ifvqeqg","pricing_plan_id":"cebpf4jnsgd1na2vs0mg"},{"bike_id":"604d15ec-8a74-4600-9234-5e2d48eeff51","system_id":"levelo_inurba_marseille","lat":43.33606,"lon":5.41031,"is_reserved":false,"is_disabled":false,"rental_uris":{"android":"levelo://app?vid=604d15ec-8a74-4600-9234-5e2d48eeff51","ios":"levelo://app?vid=604d15ec-8a74-4600-9234-5e2d48eeff51"},"vehicle_type_id":"4","last_reported":1728454427,"current_range_meters":20000,"station_id":"ce4bhqh2rcd13ifvqhmg","pricing_plan_id":"cebpf4jnsgd1na2vs0mg"},{"bike_id":"5b756fda-7bc5-4563-9990-b0d97c56306f","system_id":"levelo_inurba_marseille","lat":43.28352,"lon":5.38103,"is_reserved":false,"is_disabled":false,"rental_uris":{"android":"levelo://app?vid=5b756fda-7bc5-4563-9990-b0d97c56306f","ios":"levelo://app?vid=5b756fda-7bc5-4563-9990-b0d97c56306f"},"vehicle_type_id":"4","last_reported":1728454427,"current_range_meters":35600,"station_id":"ce4bh412rcd13ifvqdr0","pricing_plan_id":"cebpf4jnsgd1na2vs0mg"},{"bike_id":"6e42f93f-2d1c-4f39-bf45-8f485ec3d0e2","system_id":"levelo_inurba_marseille","lat":43.30595,"lon":5.39357,"is_reserved":false,"is_disabled":false,"rental_uris":{"android":"levelo://app?vid=6e42f93f-2d1c-4f39-bf45-8f485ec3d0e2","ios":"levelo://app?vid=6e42f93f-2d1c-4f39-bf45-8f485ec3d0e2"},"vehicle_type_id":"4","last_reported":1728454427,"current_range_meters":13600,"station_id":"ce4bh0p2rcd13ifvqd80","pricing_plan_id":"cebpf4jnsgd1na2vs0mg"},{"bike_id":"30ad42a8-138d-4c38-89e8-3b033da2c43b","system_id":"levelo_inurba_marseille","lat":43.23959,"lon":5.36638,"is_reserved":false,"is_disabled":false,"rental_uris":{"android":"levelo://app?vid=30ad42a8-138d-4c38-89e8-3b033da2c43b","ios":"levelo://app?vid=30ad42a8-138d-4c38-89e8-3b033da2c43b"},"vehicle_type_id":"4","last_reported":1728454427,"current_range_meters":38800,"station_id":"ce4bhi12rcd13ifvqfp0","pricing_plan_id":"cebpf4jnsgd1na2vs0mg"},{"bike_id":"2c326297-c07d-45b1-b66c-b2717a12f1b8","system_id":"levelo_inurba_marseille","lat":43.24076,"lon":5.37755,"is_reserved":false,"is_disabled":false,"rental_uris":{"android":"levelo://app?vid=2c326297-c07d-45b1-b66c-b2717a12f1b8","ios":"levelo://app?vid=2c326297-c07d-45b1-b66c-b2717a12f1b8"},"vehicle_type_id":"4","last_reported":1728454427,"current_range_meters":25200,"station_id":"ce4bhnp2rcd13ifvqgvg","pricing_plan_id":"cebpf4jnsgd1na2vs0mg"},{"bike_id":"d1d729c1-7adb-492b-9c95-9015a1ed2807","system_id":"levelo_inurba_marseille","lat":43.23152,"lon":5.43716,"is_reserved":false,"is_disabled":false,"rental_uris":{"android":"levelo://app?vid=d1d729c1-7adb-492b-9c95-9015a1ed2807","ios":"levelo://app?vid=d1d729c1-7adb-492b-9c95-9015a1ed2807"},"vehicle_type_id":"4","last_reported":1728454427,"current_range_meters":30000,"station_id":"ce4bhmp2rcd13ifvqgog","pricing_plan_id":"cebpf4jnsgd1na2vs0mg"},{"bike_id":"d6be0573-8229-4f86-aa75-9b0ac9540236","system_id":"levelo_inurba_marseille","lat":43.28598,"lon":5.385031,"is_reserved":false,"is_disabled":false,"rental_uris":{"android":"levelo://app?vid=d6be0573-8229-4f86-aa75-9b0ac9540236","ios":"levelo://app?vid=d6be0573-8229-4f86-aa75-9b0ac9540236"},"vehicle_type_id":"4","last_reported":1728454427,"current_range_meters":36400,"station_id":"ce4bh8p2rcd13ifvqeb0","pricing_plan_id":"cebpf4jnsgd1na2vs0mg"},{"bike_id":"81eba9c0-3cd9-4980-9f0f-263f8a2d8f93","system_id":"levelo_inurba_marseille","lat":43.28352,"lon":5.38107,"is_reserved":false,"is_disabled":false,"rental_uris":{"android":"levelo://app?vid=81eba9c0-3cd9-4980-9f0f-263f8a2d8f93","ios":"levelo://app?vid=81eba9c0-3cd9-4980-9f0f-263f8a2d8f93"},"vehicle_type_id":"4","last_reported":1728454427,"current_range_meters":33200,"station_id":"ce4bh412rcd13ifvqdr0","pricing_plan_id":"cebpf4jnsgd1na2vs0mg"},{"bike_id":"0a5c5fe7-f31b-4d65-8ff2-1e654550fb3d","system_id":"levelo_inurba_marseille","lat":43.29026,"lon":5.40006,"is_reserved":false,"is_disabled":false,"rental_uris":{"android":"levelo://app?vid=0a5c5fe7-f31b-4d65-8ff2-1e654550fb3d","ios":"levelo://app?vid=0a5c5fe7-f31b-4d65-8ff2-1e654550fb3d"},"vehicle_type_id":"4","last_reported":1728454427,"current_range_meters":27600,"station_id":"ce4bh392rcd13ifvqdm0","pricing_plan_id":"cebpf4jnsgd1na2vs0mg"},{"bike_id":"96d80047-32d2-45f4-bd41-195cf5cb8e0c","system_id":"levelo_inurba_marseille","lat":43.23053,"lon":5.35493,"is_reserved":false,"is_disabled":false,"rental_uris":{"android":"levelo://app?vid=96d80047-32d2-45f4-bd41-195cf5cb8e0c","ios":"levelo://app?vid=96d80047-32d2-45f4-bd41-195cf5cb8e0c"},"vehicle_type_id":"4","last_reported":1728454427,"current_range_meters":38000,"station_id":"cpo3342slgdg3j2ifvpg","pricing_plan_id":"cebpf4jnsgd1na2vs0mg"},{"bike_id":"d262d71f-803d-4d5e-b356-69e52ada37c1","system_id":"levelo_inurba_marseille","lat":43.29274,"lon":5.36847,"is_reserved":false,"is_disabled":false,"rental_uris":{"android":"levelo://app?vid=d262d71f-803d-4d5e-b356-69e52ada37c1","ios":"levelo://app?vid=d262d71f-803d-4d5e-b356-69e52ada37c1"},"vehicle_type_id":"4","last_reported":1728454427,"current_range_meters":22800,"station_id":"ce4bhbp2rcd13ifvqesg","pricing_plan_id":"cebpf4jnsgd1na2vs0mg"},{"bike_id":"0f70adbe-ee9d-46bd-9883-74567fc4748c","system_id":"levelo_inurba_marseille","lat":43.3124,"lon":5.36845,"is_reserved":false,"is_disabled":false,"rental_uris":{"android":"levelo://app?vid=0f70adbe-ee9d-46bd-9883-74567fc4748c","ios":"levelo://app?vid=0f70adbe-ee9d-46bd-9883-74567fc4748c"},"vehicle_type_id":"4","last_reported":1728454427,"current_range_meters":38800,"station_id":"ce4bgl92rcd13ifvqbq0","pricing_plan_id":"cebpf4jnsgd1na2vs0mg"},{"bike_id":"4527bfc5-c904-4845-895d-1c7c8e77151f","system_id":"levelo_inurba_marseille","lat":43.31996,"lon":5.38147,"is_reserved":false,"is_disabled":false,"rental_uris":{"android":"levelo://app?vid=4527bfc5-c904-4845-895d-1c7c8e77151f","ios":"levelo://app?vid=4527bfc5-c904-4845-895d-1c7c8e77151f"},"vehicle_type_id":"4","last_reported":1728454427,"current_range_meters":36800,"station_id":"ce4bhr12rcd13ifvqhpg","pricing_plan_id":"cebpf4jnsgd1na2vs0mg"},{"bike_id":"a44748dc-f8f5-4318-8bce-df7a0f090cd4","system_id":"levelo_inurba_marseille","lat":43.29554,"lon":5.42279,"is_reserved":false,"is_disabled":false,"rental_uris":{"android":"levelo://app?vid=a44748dc-f8f5-4318-8bce-df7a0f090cd4","ios":"levelo://app?vid=a44748dc-f8f5-4318-8bce-df7a0f090cd4"},"vehicle_type_id":"4","last_reported":1728454427,"current_range_meters":39200,"station_id":"ce4bhph2rcd13ifvqhdg","pricing_plan_id":"cebpf4jnsgd1na2vs0mg"},{"bike_id":"45051c07-a864-41b8-be9f-d6bc8c6d0047","system_id":"levelo_inurba_marseille","lat":43.23151,"lon":5.4372,"is_reserved":false,"is_disabled":false,"rental_uris":{"android":"levelo://app?vid=45051c07-a864-41b8-be9f-d6bc8c6d0047","ios":"levelo://app?vid=45051c07-a864-41b8-be9f-d6bc8c6d0047"},"vehicle_type_id":"4","last_reported":1728454427,"current_range_meters":31200,"station_id":"ce4bhmp2rcd13ifvqgog","pricing_plan_id":"cebpf4jnsgd1na2vs0mg"},{"bike_id":"2b64fa52-2d67-40d0-a42a-0a868431df0b","system_id":"levelo_inurba_marseille","lat":43.28942,"lon":5.36642,"is_reserved":false,"is_disabled":false,"rental_uris":{"android":"levelo://app?vid=2b64fa52-2d67-40d0-a42a-0a868431df0b","ios":"levelo://app?vid=2b64fa52-2d67-40d0-a42a-0a868431df0b"},"vehicle_type_id":"4","last_reported":1728454427,"current_range_meters":32000,"station_id":"ce4bhap2rcd13ifvqek0","pricing_plan_id":"cebpf4jnsgd1na2vs0mg"},{"bike_id":"b45d4f53-018e-407c-b58b-5667c347cfde","system_id":"levelo_inurba_marseille","lat":43.28356,"lon":5.38111,"is_reserved":false,"is_disabled":false,"rental_uris":{"android":"levelo://app?vid=b45d4f53-018e-407c-b58b-5667c347cfde","ios":"levelo://app?vid=b45d4f53-018e-407c-b58b-5667c347cfde"},"vehicle_type_id":"4","last_reported":1728454427,"current_range_meters":37600,"station_id":"ce4bh412rcd13ifvqdr0","pricing_plan_id":"cebpf4jnsgd1na2vs0mg"},{"bike_id":"55ba4377-601c-4927-9ad3-a34a12963ae2","system_id":"levelo_inurba_marseille","lat":43.23056,"lon":5.354901,"is_reserved":false,"is_disabled":false,"rental_uris":{"android":"levelo://app?vid=55ba4377-601c-4927-9ad3-a34a12963ae2","ios":"levelo://app?vid=55ba4377-601c-4927-9ad3-a34a12963ae2"},"vehicle_type_id":"4","last_reported":1728454427,"current_range_meters":28400,"station_id":"cpo3342slgdg3j2ifvpg","pricing_plan_id":"cebpf4jnsgd1na2vs0mg"},{"bike_id":"9fe78430-11e7-47f8-baac-bd725566a90b","system_id":"levelo_inurba_marseille","lat":43.23193,"lon":5.35547,"is_reserved":false,"is_disabled":false,"rental_uris":{"android":"levelo://app?vid=9fe78430-11e7-47f8-baac-bd725566a90b","ios":"levelo://app?vid=9fe78430-11e7-47f8-baac-bd725566a90b"},"vehicle_type_id":"4","last_reported":1728454427,"current_range_meters":4800,"station_id":"ce4bhu92rcd13ifvqi70","pricing_plan_id":"cebpf4jnsgd1na2vs0mg"},{"bike_id":"db39ac6c-6dfd-4c4a-ba76-104e497aea95","system_id":"levelo_inurba_marseille","lat":43.30471,"lon":5.3792,"is_reserved":false,"is_disabled":false,"rental_uris":{"android":"levelo://app?vid=db39ac6c-6dfd-4c4a-ba76-104e497aea95","ios":"levelo://app?vid=db39ac6c-6dfd-4c4a-ba76-104e497aea95"},"vehicle_type_id":"4","last_reported":1728454427,"current_range_meters":38800,"station_id":"ce4bgup2rcd13ifvqcn0","pricing_plan_id":"cebpf4jnsgd1na2vs0mg"},{"bike_id":"158c735d-765f-459c-89f5-d54d747df691","system_id":"levelo_inurba_marseille","lat":43.25928,"lon":5.4091,"is_reserved":false,"is_disabled":false,"rental_uris":{"android":"levelo://app?vid=158c735d-765f-459c-89f5-d54d747df691","ios":"levelo://app?vid=158c735d-765f-459c-89f5-d54d747df691"},"vehicle_type_id":"4","last_reported":1728454427,"current_range_meters":38400,"station_id":"ce4bhm92rcd13ifvqglg","pricing_plan_id":"cebpf4jnsgd1na2vs0mg"},{"bike_id":"da4a30f9-9ac5-49b6-a719-4d62f8e54519","system_id":"levelo_inurba_marseille","lat":43.30154,"lon":5.38083,"is_reserved":false,"is_disabled":false,"rental_uris":{"android":"levelo://app?vid=da4a30f9-9ac5-49b6-a719-4d62f8e54519","ios":"levelo://app?vid=da4a30f9-9ac5-49b6-a719-4d62f8e54519"},"vehicle_type_id":"4","last_reported":1728454427,"current_range_meters":21600,"station_id":"ce4bgjp2rcd13ifvqbh0","pricing_plan_id":"cebpf4jnsgd1na2vs0mg"},{"bike_id":"c21dea86-b8f3-4096-9b65-3f743252176b","system_id":"levelo_inurba_marseille","lat":43.29034,"lon":5.38133,"is_reserved":false,"is_disabled":false,"rental_uris":{"android":"levelo://app?vid=c21dea86-b8f3-4096-9b65-3f743252176b","ios":"levelo://app?vid=c21dea86-b8f3-4096-9b65-3f743252176b"},"vehicle_type_id":"4","last_reported":1728454427,"current_range_meters":26800,"station_id":"","pricing_plan_id":"cebpf4jnsgd1na2vs0mg"},{"bike_id":"32a47555-5b90-4e71-acec-5d7469e9cc0c","system_id":"levelo_inurba_marseille","lat":43.32484,"lon":5.36569,"is_reserved":false,"is_disabled":false,"rental_uris":{"android":"levelo://app?vid=32a47555-5b90-4e71-acec-5d7469e9cc0c","ios":"levelo://app?vid=32a47555-5b90-4e71-acec-5d7469e9cc0c"},"vehicle_type_id":"4","last_reported":1728454427,"current_range_meters":38800,"station_id":"ce4bhs12rcd13ifvqhvg","pricing_plan_id":"cebpf4jnsgd1na2vs0mg"},{"bike_id":"6b85a3ee-4da3-449d-ad78-2a214e188956","system_id":"levelo_inurba_marseille","lat":43.30152,"lon":5.3808,"is_reserved":false,"is_disabled":false,"rental_uris":{"android":"levelo://app?vid=6b85a3ee-4da3-449d-ad78-2a214e188956","ios":"levelo://app?vid=6b85a3ee-4da3-449d-ad78-2a214e188956"},"vehicle_type_id":"4","last_reported":1728454427,"current_range_meters":18000,"station_id":"ce4bgjp2rcd13ifvqbh0","pricing_plan_id":"cebpf4jnsgd1na2vs0mg"},{"bike_id":"187c5d49-681d-473e-a8ec-038b8d734112","system_id":"levelo_inurba_marseille","lat":43.30464,"lon":5.37909,"is_reserved":false,"is_disabled":false,"rental_uris":{"android":"levelo://app?vid=187c5d49-681d-473e-a8ec-038b8d734112","ios":"levelo://app?vid=187c5d49-681d-473e-a8ec-038b8d734112"},"vehicle_type_id":"4","last_reported":1728454427,"current_range_meters":36400,"station_id":"ce4bgup2rcd13ifvqcn0","pricing_plan_id":"cebpf4jnsgd1na2vs0mg"},{"bike_id":"ce6c19d1-c644-4415-9475-a4042768c14f","system_id":"levelo_inurba_marseille","lat":43.27999,"lon":5.40011,"is_reserved":false,"is_disabled":false,"rental_uris":{"android":"levelo://app?vid=ce6c19d1-c644-4415-9475-a4042768c14f","ios":"levelo://app?vid=ce6c19d1-c644-4415-9475-a4042768c14f"},"vehicle_type_id":"4","last_reported":1728454427,"current_range_meters":38400,"station_id":"ce4bho92rcd13ifvqh4g","pricing_plan_id":"cebpf4jnsgd1na2vs0mg"},{"bike_id":"8815ef0f-18c3-4f44-be21-04321971cf48","system_id":"levelo_inurba_marseille","lat":43.30594,"lon":5.39351,"is_reserved":false,"is_disabled":false,"rental_uris":{"android":"levelo://app?vid=8815ef0f-18c3-4f44-be21-04321971cf48","ios":"levelo://app?vid=8815ef0f-18c3-4f44-be21-04321971cf48"},"vehicle_type_id":"4","last_reported":1728454427,"current_range_meters":32000,"station_id":"ce4bh0p2rcd13ifvqd80","pricing_plan_id":"cebpf4jnsgd1na2vs0mg"},{"bike_id":"7b9d7181-9385-474a-a038-99288caa4ca1","system_id":"levelo_inurba_marseille","lat":43.27815,"lon":5.40716,"is_reserved":false,"is_disabled":false,"rental_uris":{"android":"levelo://app?vid=7b9d7181-9385-474a-a038-99288caa4ca1","ios":"levelo://app?vid=7b9d7181-9385-474a-a038-99288caa4ca1"},"vehicle_type_id":"4","last_reported":1728454427,"current_range_meters":27200,"station_id":"ce4bhnh2rcd13ifvqgtg","pricing_plan_id":"cebpf4jnsgd1na2vs0mg"},{"bike_id":"65696ffa-7908-462c-aec5-8e1b250732a8","system_id":"levelo_inurba_marseille","lat":43.29611,"lon":5.37715,"is_reserved":false,"is_disabled":false,"rental_uris":{"android":"levelo://app?vid=65696ffa-7908-462c-aec5-8e1b250732a8","ios":"levelo://app?vid=65696ffa-7908-462c-aec5-8e1b250732a8"},"vehicle_type_id":"4","last_reported":1728454427,"current_range_meters":32400,"station_id":"ce4bgi92rcd13ifvqb90","pricing_plan_id":"cebpf4jnsgd1na2vs0mg"},{"bike_id":"d0c17f54-a406-49c3-8888-297df83b9eec","system_id":"levelo_inurba_marseille","lat":43.2894,"lon":5.36639,"is_reserved":false,"is_disabled":false,"rental_uris":{"android":"levelo://app?vid=d0c17f54-a406-49c3-8888-297df83b9eec","ios":"levelo://app?vid=d0c17f54-a406-49c3-8888-297df83b9eec"},"vehicle_type_id":"4","last_reported":1728454427,"current_range_meters":37600,"station_id":"ce4bhap2rcd13ifvqek0","pricing_plan_id":"cebpf4jnsgd1na2vs0mg"},{"bike_id":"272be48c-70be-4490-9642-333eb81255c1","system_id":"levelo_inurba_marseille","lat":43.2904,"lon":5.39979,"is_reserved":false,"is_disabled":false,"rental_uris":{"android":"levelo://app?vid=272be48c-70be-4490-9642-333eb81255c1","ios":"levelo://app?vid=272be48c-70be-4490-9642-333eb81255c1"},"vehicle_type_id":"4","last_reported":1728454427,"current_range_meters":38800,"station_id":"ce4bh392rcd13ifvqdm0","pricing_plan_id":"cebpf4jnsgd1na2vs0mg"},{"bike_id":"6217f0d4-29aa-4911-a3f9-c02e45328700","system_id":"levelo_inurba_marseille","lat":43.23194,"lon":5.35547,"is_reserved":false,"is_disabled":false,"rental_uris":{"android":"levelo://app?vid=6217f0d4-29aa-4911-a3f9-c02e45328700","ios":"levelo://app?vid=6217f0d4-29aa-4911-a3f9-c02e45328700"},"vehicle_type_id":"4","last_reported":1728454427,"current_range_meters":34000,"station_id":"ce4bhu92rcd13ifvqi70","pricing_plan_id":"cebpf4jnsgd1na2vs0mg"},{"bike_id":"2ff60633-3d53-44dd-8fb8-4c7e1aa31e16","system_id":"levelo_inurba_marseille","lat":43.310069,"lon":5.389684,"is_reserved":false,"is_disabled":false,"rental_uris":{"android":"levelo://app?vid=2ff60633-3d53-44dd-8fb8-4c7e1aa31e16","ios":"levelo://app?vid=2ff60633-3d53-44dd-8fb8-4c7e1aa31e16"},"vehicle_type_id":"4","last_reported":1728454427,"current_range_meters":33600,"station_id":"","pricing_plan_id":"cebpf4jnsgd1na2vs0mg"},{"bike_id":"5b96d083-1a8e-4c07-9472-90da520a5d74","system_id":"levelo_inurba_marseille","lat":43.307996,"lon":5.435203,"is_reserved":false,"is_disabled":false,"rental_uris":{"android":"levelo://app?vid=5b96d083-1a8e-4c07-9472-90da520a5d74","ios":"levelo://app?vid=5b96d083-1a8e-4c07-9472-90da520a5d74"},"vehicle_type_id":"4","last_reported":1728454427,"current_range_meters":8800,"station_id":"ce4bhph2rcd13ifvqheg","pricing_plan_id":"cebpf4jnsgd1na2vs0mg"},{"bike_id":"141df06e-113e-44c6-8129-a25fe376a60a","system_id":"levelo_inurba_marseille","lat":43.29551,"lon":5.42285,"is_reserved":false,"is_disabled":false,"rental_uris":{"android":"levelo://app?vid=141df06e-113e-44c6-8129-a25fe376a60a","ios":"levelo://app?vid=141df06e-113e-44c6-8129-a25fe376a60a"},"vehicle_type_id":"4","last_reported":1728454427,"current_range_meters":38800,"station_id":"ce4bhph2rcd13ifvqhdg","pricing_plan_id":"cebpf4jnsgd1na2vs0mg"},{"bike_id":"c8ebc7d1-6943-4044-ad6c-3252fb6dd74b","system_id":"levelo_inurba_marseille","lat":43.26999,"lon":5.38699,"is_reserved":false,"is_disabled":false,"rental_uris":{"android":"levelo://app?vid=c8ebc7d1-6943-4044-ad6c-3252fb6dd74b","ios":"levelo://app?vid=c8ebc7d1-6943-4044-ad6c-3252fb6dd74b"},"vehicle_type_id":"4","last_reported":1728454427,"current_range_meters":28800,"station_id":"ce4bhh92rcd13ifvqfh0","pricing_plan_id":"cebpf4jnsgd1na2vs0mg"},{"bike_id":"db1bc551-c9e7-45ea-a089-87368fc7380e","system_id":"levelo_inurba_marseille","lat":43.26803,"lon":5.40265,"is_reserved":false,"is_disabled":false,"rental_uris":{"android":"levelo://app?vid=db1bc551-c9e7-45ea-a089-87368fc7380e","ios":"levelo://app?vid=db1bc551-c9e7-45ea-a089-87368fc7380e"},"vehicle_type_id":"4","last_reported":1728454427,"current_range_meters":38000,"station_id":"ce501612rcd8frsf0b60","pricing_plan_id":"cebpf4jnsgd1na2vs0mg"},{"bike_id":"b4b36b3e-4c8f-422c-b8a0-b4868481fbb6","system_id":"levelo_inurba_marseille","lat":43.28445,"lon":5.39195,"is_reserved":false,"is_disabled":false,"rental_uris":{"android":"levelo://app?vid=b4b36b3e-4c8f-422c-b8a0-b4868481fbb6","ios":"levelo://app?vid=b4b36b3e-4c8f-422c-b8a0-b4868481fbb6"},"vehicle_type_id":"4","last_reported":1728454427,"current_range_meters":38400,"station_id":"ce4bhoh2rcd13ifvqh5g","pricing_plan_id":"cebpf4jnsgd1na2vs0mg"},{"bike_id":"0ac4c99e-25ae-49bd-9233-643b1e4bb98b","system_id":"levelo_inurba_marseille","lat":43.255804,"lon":5.382328,"is_reserved":false,"is_disabled":false,"rental_uris":{"android":"levelo://app?vid=0ac4c99e-25ae-49bd-9233-643b1e4bb98b","ios":"levelo://app?vid=0ac4c99e-25ae-49bd-9233-643b1e4bb98b"},"vehicle_type_id":"4","last_reported":1728454427,"current_range_meters":38800,"station_id":"ce4bhih2rcd13ifvqfs0","pricing_plan_id":"cebpf4jnsgd1na2vs0mg"},{"bike_id":"89dec385-737e-4a0c-b008-c03f16a84911","system_id":"levelo_inurba_marseille","lat":43.29558,"lon":5.42289,"is_reserved":false,"is_disabled":false,"rental_uris":{"android":"levelo://app?vid=89dec385-737e-4a0c-b008-c03f16a84911","ios":"levelo://app?vid=89dec385-737e-4a0c-b008-c03f16a84911"},"vehicle_type_id":"4","last_reported":1728454427,"current_range_meters":28000,"station_id":"ce4bhph2rcd13ifvqhdg","pricing_plan_id":"cebpf4jnsgd1na2vs0mg"},{"bike_id":"21fd2ed5-76e1-4d13-b2ad-087477352252","system_id":"levelo_inurba_marseille","lat":43.28979,"lon":5.37843,"is_reserved":false,"is_disabled":false,"rental_uris":{"android":"levelo://app?vid=21fd2ed5-76e1-4d13-b2ad-087477352252","ios":"levelo://app?vid=21fd2ed5-76e1-4d13-b2ad-087477352252"},"vehicle_type_id":"4","last_reported":1728454427,"current_range_meters":8400,"station_id":"ce4bh9p2rcd13ifvqed0","pricing_plan_id":"cebpf4jnsgd1na2vs0mg"},{"bike_id":"16c99d8a-9fec-4054-b8c3-437334a27e05","system_id":"levelo_inurba_marseille","lat":43.29547,"lon":5.42282,"is_reserved":false,"is_disabled":false,"rental_uris":{"android":"levelo://app?vid=16c99d8a-9fec-4054-b8c3-437334a27e05","ios":"levelo://app?vid=16c99d8a-9fec-4054-b8c3-437334a27e05"},"vehicle_type_id":"4","last_reported":1728454427,"current_range_meters":31200,"station_id":"ce4bhph2rcd13ifvqhdg","pricing_plan_id":"cebpf4jnsgd1na2vs0mg"},{"bike_id":"5cc2d6a1-62c7-4868-9812-38ce5c0a7667","system_id":"levelo_inurba_marseille","lat":43.30599,"lon":5.39354,"is_reserved":false,"is_disabled":false,"rental_uris":{"android":"levelo://app?vid=5cc2d6a1-62c7-4868-9812-38ce5c0a7667","ios":"levelo://app?vid=5cc2d6a1-62c7-4868-9812-38ce5c0a7667"},"vehicle_type_id":"4","last_reported":1728454427,"current_range_meters":37600,"station_id":"ce4bh0p2rcd13ifvqd80","pricing_plan_id":"cebpf4jnsgd1na2vs0mg"},{"bike_id":"0b23183a-28b0-4a12-9287-2e37db88ad12","system_id":"levelo_inurba_marseille","lat":43.309479,"lon":5.390265,"is_reserved":false,"is_disabled":false,"rental_uris":{"android":"levelo://app?vid=0b23183a-28b0-4a12-9287-2e37db88ad12","ios":"levelo://app?vid=0b23183a-28b0-4a12-9287-2e37db88ad12"},"vehicle_type_id":"4","last_reported":1728454427,"current_range_meters":36000,"station_id":"ce4bguh2rcd13ifvqckg","pricing_plan_id":"cebpf4jnsgd1na2vs0mg"},{"bike_id":"0c5b3ed9-3d2d-43f4-892f-7a1d023cd564","system_id":"levelo_inurba_marseille","lat":43.30444,"lon":5.38893,"is_reserved":false,"is_disabled":false,"rental_uris":{"android":"levelo://app?vid=0c5b3ed9-3d2d-43f4-892f-7a1d023cd564","ios":"levelo://app?vid=0c5b3ed9-3d2d-43f4-892f-7a1d023cd564"},"vehicle_type_id":"4","last_reported":1728454427,"current_range_meters":35600,"station_id":"ce4bgk12rcd13ifvqbi0","pricing_plan_id":"cebpf4jnsgd1na2vs0mg"},{"bike_id":"40ce2d9d-e920-4ff5-a7be-f7e9fddaed2e","system_id":"levelo_inurba_marseille","lat":43.30532,"lon":5.36721,"is_reserved":false,"is_disabled":false,"rental_uris":{"android":"levelo://app?vid=40ce2d9d-e920-4ff5-a7be-f7e9fddaed2e","ios":"levelo://app?vid=40ce2d9d-e920-4ff5-a7be-f7e9fddaed2e"},"vehicle_type_id":"4","last_reported":1728454427,"current_range_meters":35200,"station_id":"ce4bgrp2rcd13ifvqc9g","pricing_plan_id":"cebpf4jnsgd1na2vs0mg"},{"bike_id":"8d1794e8-a4a9-4e7a-892c-539d2cb0fd90","system_id":"levelo_inurba_marseille","lat":43.23196,"lon":5.35553,"is_reserved":false,"is_disabled":false,"rental_uris":{"android":"levelo://app?vid=8d1794e8-a4a9-4e7a-892c-539d2cb0fd90","ios":"levelo://app?vid=8d1794e8-a4a9-4e7a-892c-539d2cb0fd90"},"vehicle_type_id":"4","last_reported":1728454427,"current_range_meters":19200,"station_id":"ce4bhu92rcd13ifvqi70","pricing_plan_id":"cebpf4jnsgd1na2vs0mg"},{"bike_id":"119aba7a-04e6-42c2-8c69-50ca709eec20","system_id":"levelo_inurba_marseille","lat":43.3254,"lon":5.41434,"is_reserved":false,"is_disabled":false,"rental_uris":{"android":"levelo://app?vid=119aba7a-04e6-42c2-8c69-50ca709eec20","ios":"levelo://app?vid=119aba7a-04e6-42c2-8c69-50ca709eec20"},"vehicle_type_id":"4","last_reported":1728454427,"current_range_meters":29600,"station_id":"ce4bhq12rcd13ifvqhhg","pricing_plan_id":"cebpf4jnsgd1na2vs0mg"},{"bike_id":"8264911a-d902-46b8-9500-f48e4b3f8a38","system_id":"levelo_inurba_marseille","lat":43.30151,"lon":5.38077,"is_reserved":false,"is_disabled":false,"rental_uris":{"android":"levelo://app?vid=8264911a-d902-46b8-9500-f48e4b3f8a38","ios":"levelo://app?vid=8264911a-d902-46b8-9500-f48e4b3f8a38"},"vehicle_type_id":"4","last_reported":1728454427,"current_range_meters":37600,"station_id":"ce4bgjp2rcd13ifvqbh0","pricing_plan_id":"cebpf4jnsgd1na2vs0mg"},{"bike_id":"0af98fa8-5bd1-491d-968a-5703ea7ae812","system_id":"levelo_inurba_marseille","lat":43.24068,"lon":5.37765,"is_reserved":false,"is_disabled":false,"rental_uris":{"android":"levelo://app?vid=0af98fa8-5bd1-491d-968a-5703ea7ae812","ios":"levelo://app?vid=0af98fa8-5bd1-491d-968a-5703ea7ae812"},"vehicle_type_id":"4","last_reported":1728454427,"current_range_meters":4800,"station_id":"ce4bhnp2rcd13ifvqgvg","pricing_plan_id":"cebpf4jnsgd1na2vs0mg"},{"bike_id":"562ca1c5-5529-4b7f-ba55-7ccfdb717c00","system_id":"levelo_inurba_marseille","lat":43.26937,"lon":5.402565,"is_reserved":false,"is_disabled":false,"rental_uris":{"android":"levelo://app?vid=562ca1c5-5529-4b7f-ba55-7ccfdb717c00","ios":"levelo://app?vid=562ca1c5-5529-4b7f-ba55-7ccfdb717c00"},"vehicle_type_id":"4","last_reported":1728454427,"current_range_meters":38000,"station_id":"cjm6bp8fraef2m0cb0m0","pricing_plan_id":"cebpf4jnsgd1na2vs0mg"},{"bike_id":"09fa8933-188c-463c-b655-4d048fac928d","system_id":"levelo_inurba_marseille","lat":43.30155,"lon":5.38084,"is_reserved":false,"is_disabled":false,"rental_uris":{"android":"levelo://app?vid=09fa8933-188c-463c-b655-4d048fac928d","ios":"levelo://app?vid=09fa8933-188c-463c-b655-4d048fac928d"},"vehicle_type_id":"4","last_reported":1728454427,"current_range_meters":36400,"station_id":"ce4bgjp2rcd13ifvqbh0","pricing_plan_id":"cebpf4jnsgd1na2vs0mg"},{"bike_id":"25afecff-8faf-4ca5-beb4-ce74280dcb13","system_id":"levelo_inurba_marseille","lat":43.23195,"lon":5.35547,"is_reserved":false,"is_disabled":false,"rental_uris":{"android":"levelo://app?vid=25afecff-8faf-4ca5-beb4-ce74280dcb13","ios":"levelo://app?vid=25afecff-8faf-4ca5-beb4-ce74280dcb13"},"vehicle_type_id":"4","last_reported":1728454427,"current_range_meters":5600,"station_id":"ce4bhu92rcd13ifvqi70","pricing_plan_id":"cebpf4jnsgd1na2vs0mg"},{"bike_id":"d2622d5a-ab7c-483b-a2a6-cae9c212a96d","system_id":"levelo_inurba_marseille","lat":43.30467,"lon":5.37908,"is_reserved":false,"is_disabled":false,"rental_uris":{"android":"levelo://app?vid=d2622d5a-ab7c-483b-a2a6-cae9c212a96d","ios":"levelo://app?vid=d2622d5a-ab7c-483b-a2a6-cae9c212a96d"},"vehicle_type_id":"4","last_reported":1728454427,"current_range_meters":38800,"station_id":"ce4bgup2rcd13ifvqcn0","pricing_plan_id":"cebpf4jnsgd1na2vs0mg"},{"bike_id":"9ddbff3a-7de8-4ccf-9d85-074854875271","system_id":"levelo_inurba_marseille","lat":43.28435,"lon":5.37562,"is_reserved":false,"is_disabled":false,"rental_uris":{"android":"levelo://app?vid=9ddbff3a-7de8-4ccf-9d85-074854875271","ios":"levelo://app?vid=9ddbff3a-7de8-4ccf-9d85-074854875271"},"vehicle_type_id":"4","last_reported":1728454427,"current_range_meters":35600,"station_id":"","pricing_plan_id":"cebpf4jnsgd1na2vs0mg"},{"bike_id":"7219fee0-219f-4cfa-8633-b620db7597ae","system_id":"levelo_inurba_marseille","lat":43.29853,"lon":5.37111,"is_reserved":false,"is_disabled":false,"rental_uris":{"android":"levelo://app?vid=7219fee0-219f-4cfa-8633-b620db7597ae","ios":"levelo://app?vid=7219fee0-219f-4cfa-8633-b620db7597ae"},"vehicle_type_id":"4","last_reported":1728454427,"current_range_meters":17200,"station_id":"ce4bgjh2rcd13ifvqbg0","pricing_plan_id":"cebpf4jnsgd1na2vs0mg"},{"bike_id":"b256f7c9-146e-4c45-b70b-1f573981b025","system_id":"levelo_inurba_marseille","lat":43.292548,"lon":5.409118,"is_reserved":false,"is_disabled":false,"rental_uris":{"android":"levelo://app?vid=b256f7c9-146e-4c45-b70b-1f573981b025","ios":"levelo://app?vid=b256f7c9-146e-4c45-b70b-1f573981b025"},"vehicle_type_id":"4","last_reported":1728454427,"current_range_meters":38400,"station_id":"ce4bh192rcd13ifvqdc0","pricing_plan_id":"cebpf4jnsgd1na2vs0mg"},{"bike_id":"a92132a4-f46c-40a6-b06c-cea89c5b1a00","system_id":"levelo_inurba_marseille","lat":43.26553,"lon":5.37281,"is_reserved":false,"is_disabled":false,"rental_uris":{"android":"levelo://app?vid=a92132a4-f46c-40a6-b06c-cea89c5b1a00","ios":"levelo://app?vid=a92132a4-f46c-40a6-b06c-cea89c5b1a00"},"vehicle_type_id":"4","last_reported":1728454427,"current_range_meters":37600,"station_id":"ce4bhg12rcd13ifvqf70","pricing_plan_id":"cebpf4jnsgd1na2vs0mg"},{"bike_id":"5e146af4-57f6-4478-8445-6a3648fa63e5","system_id":"levelo_inurba_marseille","lat":43.30949,"lon":5.39031,"is_reserved":false,"is_disabled":false,"rental_uris":{"android":"levelo://app?vid=5e146af4-57f6-4478-8445-6a3648fa63e5","ios":"levelo://app?vid=5e146af4-57f6-4478-8445-6a3648fa63e5"},"vehicle_type_id":"4","last_reported":1728454427,"current_range_meters":22400,"station_id":"ce4bgup2rcd13ifvqco0","pricing_plan_id":"cebpf4jnsgd1na2vs0mg"},{"bike_id":"13e28c57-3bd4-4692-95c1-aa18f5cad0f7","system_id":"levelo_inurba_marseille","lat":43.29894,"lon":5.43664,"is_reserved":false,"is_disabled":false,"rental_uris":{"android":"levelo://app?vid=13e28c57-3bd4-4692-95c1-aa18f5cad0f7","ios":"levelo://app?vid=13e28c57-3bd4-4692-95c1-aa18f5cad0f7"},"vehicle_type_id":"4","last_reported":1728454427,"current_range_meters":38800,"station_id":"ce4bhpp2rcd13ifvqhfg","pricing_plan_id":"cebpf4jnsgd1na2vs0mg"},{"bike_id":"5a20e4bc-4789-4fd0-8ad3-bb78c7602031","system_id":"levelo_inurba_marseille","lat":43.31351,"lon":5.36704,"is_reserved":false,"is_disabled":false,"rental_uris":{"android":"levelo://app?vid=5a20e4bc-4789-4fd0-8ad3-bb78c7602031","ios":"levelo://app?vid=5a20e4bc-4789-4fd0-8ad3-bb78c7602031"},"vehicle_type_id":"4","last_reported":1728454427,"current_range_meters":31200,"station_id":"ce4bgr92rcd13ifvqc6g","pricing_plan_id":"cebpf4jnsgd1na2vs0mg"},{"bike_id":"4d90c39b-aaf1-46de-8d71-bf7e0298e6f4","system_id":"levelo_inurba_marseille","lat":43.30354,"lon":5.41883,"is_reserved":false,"is_disabled":false,"rental_uris":{"android":"levelo://app?vid=4d90c39b-aaf1-46de-8d71-bf7e0298e6f4","ios":"levelo://app?vid=4d90c39b-aaf1-46de-8d71-bf7e0298e6f4"},"vehicle_type_id":"4","last_reported":1728454427,"current_range_meters":38800,"station_id":"ce4bhop2rcd13ifvqh7g","pricing_plan_id":"cebpf4jnsgd1na2vs0mg"},{"bike_id":"e2d3bf15-6bc4-4545-bc67-a271e3dd6038","system_id":"levelo_inurba_marseille","lat":43.29555,"lon":5.42284,"is_reserved":false,"is_disabled":false,"rental_uris":{"android":"levelo://app?vid=e2d3bf15-6bc4-4545-bc67-a271e3dd6038","ios":"levelo://app?vid=e2d3bf15-6bc4-4545-bc67-a271e3dd6038"},"vehicle_type_id":"4","last_reported":1728454427,"current_range_meters":38800,"station_id":"ce4bhph2rcd13ifvqhdg","pricing_plan_id":"cebpf4jnsgd1na2vs0mg"},{"bike_id":"2c502928-b51e-47c4-b911-763aae73ab9e","system_id":"levelo_inurba_marseille","lat":43.24077,"lon":5.37756,"is_reserved":false,"is_disabled":false,"rental_uris":{"android":"levelo://app?vid=2c502928-b51e-47c4-b911-763aae73ab9e","ios":"levelo://app?vid=2c502928-b51e-47c4-b911-763aae73ab9e"},"vehicle_type_id":"4","last_reported":1728454427,"current_range_meters":36000,"station_id":"ce4bhnp2rcd13ifvqgvg","pricing_plan_id":"cebpf4jnsgd1na2vs0mg"},{"bike_id":"0c0ed5f2-c349-4ed4-bccb-eaedea0d2c08","system_id":"levelo_inurba_marseille","lat":43.31996,"lon":5.38171,"is_reserved":false,"is_disabled":false,"rental_uris":{"android":"levelo://app?vid=0c0ed5f2-c349-4ed4-bccb-eaedea0d2c08","ios":"levelo://app?vid=0c0ed5f2-c349-4ed4-bccb-eaedea0d2c08"},"vehicle_type_id":"4","last_reported":1728454427,"current_range_meters":9200,"station_id":"ce4bhr12rcd13ifvqhpg","pricing_plan_id":"cebpf4jnsgd1na2vs0mg"},{"bike_id":"19193846-02aa-40b2-88d0-7f889c7b47e9","system_id":"levelo_inurba_marseille","lat":43.28876,"lon":5.37439,"is_reserved":false,"is_disabled":false,"rental_uris":{"android":"levelo://app?vid=19193846-02aa-40b2-88d0-7f889c7b47e9","ios":"levelo://app?vid=19193846-02aa-40b2-88d0-7f889c7b47e9"},"vehicle_type_id":"4","last_reported":1728454427,"current_range_meters":32000,"station_id":"","pricing_plan_id":"cebpf4jnsgd1na2vs0mg"},{"bike_id":"49e74dee-8cba-4b09-8380-03c6c3b2ccb7","system_id":"levelo_inurba_marseille","lat":43.33611,"lon":5.41028,"is_reserved":false,"is_disabled":false,"rental_uris":{"android":"levelo://app?vid=49e74dee-8cba-4b09-8380-03c6c3b2ccb7","ios":"levelo://app?vid=49e74dee-8cba-4b09-8380-03c6c3b2ccb7"},"vehicle_type_id":"4","last_reported":1728454427,"current_range_meters":27600,"station_id":"ce4bhqh2rcd13ifvqhmg","pricing_plan_id":"cebpf4jnsgd1na2vs0mg"},{"bike_id":"675d4a1a-a13d-4502-9689-89e83595b0c3","system_id":"levelo_inurba_marseille","lat":43.26944,"lon":5.40251,"is_reserved":false,"is_disabled":false,"rental_uris":{"android":"levelo://app?vid=675d4a1a-a13d-4502-9689-89e83595b0c3","ios":"levelo://app?vid=675d4a1a-a13d-4502-9689-89e83595b0c3"},"vehicle_type_id":"4","last_reported":1728454427,"current_range_meters":38000,"station_id":"cjm6bp8fraef2m0cb0m0","pricing_plan_id":"cebpf4jnsgd1na2vs0mg"},{"bike_id":"d7528251-5367-4923-8cfd-6f0c25b8da10","system_id":"levelo_inurba_marseille","lat":43.30355,"lon":5.41879,"is_reserved":false,"is_disabled":false,"rental_uris":{"android":"levelo://app?vid=d7528251-5367-4923-8cfd-6f0c25b8da10","ios":"levelo://app?vid=d7528251-5367-4923-8cfd-6f0c25b8da10"},"vehicle_type_id":"4","last_reported":1728454427,"current_range_meters":32000,"station_id":"ce4bhop2rcd13ifvqh7g","pricing_plan_id":"cebpf4jnsgd1na2vs0mg"},{"bike_id":"0c21a95b-e658-4f7c-87e5-984cf9f49594","system_id":"levelo_inurba_marseille","lat":43.30462,"lon":5.37915,"is_reserved":false,"is_disabled":false,"rental_uris":{"android":"levelo://app?vid=0c21a95b-e658-4f7c-87e5-984cf9f49594","ios":"levelo://app?vid=0c21a95b-e658-4f7c-87e5-984cf9f49594"},"vehicle_type_id":"4","last_reported":1728454427,"current_range_meters":32800,"station_id":"ce4bgup2rcd13ifvqcn0","pricing_plan_id":"cebpf4jnsgd1na2vs0mg"},{"bike_id":"ce26f9e7-fcf2-47ae-af8c-1cc567c786aa","system_id":"levelo_inurba_marseille","lat":43.25835,"lon":5.39799,"is_reserved":false,"is_disabled":false,"rental_uris":{"android":"levelo://app?vid=ce26f9e7-fcf2-47ae-af8c-1cc567c786aa","ios":"levelo://app?vid=ce26f9e7-fcf2-47ae-af8c-1cc567c786aa"},"vehicle_type_id":"4","last_reported":1728454427,"current_range_meters":27200,"station_id":"ce4bho92rcd13ifvqh4g","pricing_plan_id":"cebpf4jnsgd1na2vs0mg"},{"bike_id":"06971ff2-9e3f-427f-9afb-e2db59fd3490","system_id":"levelo_inurba_marseille","lat":43.30152,"lon":5.38087,"is_reserved":false,"is_disabled":false,"rental_uris":{"android":"levelo://app?vid=06971ff2-9e3f-427f-9afb-e2db59fd3490","ios":"levelo://app?vid=06971ff2-9e3f-427f-9afb-e2db59fd3490"},"vehicle_type_id":"4","last_reported":1728454427,"current_range_meters":30400,"station_id":"ce4bgjp2rcd13ifvqbh0","pricing_plan_id":"cebpf4jnsgd1na2vs0mg"},{"bike_id":"8398e38b-731d-444c-9318-247aa42614bc","system_id":"levelo_inurba_marseille","lat":43.28767,"lon":5.39086,"is_reserved":false,"is_disabled":false,"rental_uris":{"android":"levelo://app?vid=8398e38b-731d-444c-9318-247aa42614bc","ios":"levelo://app?vid=8398e38b-731d-444c-9318-247aa42614bc"},"vehicle_type_id":"4","last_reported":1728454427,"current_range_meters":38400,"station_id":"ce4bh492rcd13ifvqdug","pricing_plan_id":"cebpf4jnsgd1na2vs0mg"},{"bike_id":"09a84495-5dc7-411e-a793-b3778a33cfd9","system_id":"levelo_inurba_marseille","lat":43.28346,"lon":5.38111,"is_reserved":false,"is_disabled":false,"rental_uris":{"android":"levelo://app?vid=09a84495-5dc7-411e-a793-b3778a33cfd9","ios":"levelo://app?vid=09a84495-5dc7-411e-a793-b3778a33cfd9"},"vehicle_type_id":"4","last_reported":1728454427,"current_range_meters":34000,"station_id":"ce4bh412rcd13ifvqdr0","pricing_plan_id":"cebpf4jnsgd1na2vs0mg"},{"bike_id":"6a930237-624b-4cde-ad52-27a0343c1393","system_id":"levelo_inurba_marseille","lat":43.2315,"lon":5.43713,"is_reserved":false,"is_disabled":false,"rental_uris":{"android":"levelo://app?vid=6a930237-624b-4cde-ad52-27a0343c1393","ios":"levelo://app?vid=6a930237-624b-4cde-ad52-27a0343c1393"},"vehicle_type_id":"4","last_reported":1728454427,"current_range_meters":38400,"station_id":"ce4bhmp2rcd13ifvqgog","pricing_plan_id":"cebpf4jnsgd1na2vs0mg"},{"bike_id":"74e99172-b562-4180-88ef-777a20d65b0b","system_id":"levelo_inurba_marseille","lat":43.24078,"lon":5.37757,"is_reserved":false,"is_disabled":false,"rental_uris":{"android":"levelo://app?vid=74e99172-b562-4180-88ef-777a20d65b0b","ios":"levelo://app?vid=74e99172-b562-4180-88ef-777a20d65b0b"},"vehicle_type_id":"4","last_reported":1728454427,"current_range_meters":34800,"station_id":"ce4bhnp2rcd13ifvqgvg","pricing_plan_id":"cebpf4jnsgd1na2vs0mg"},{"bike_id":"eceb2651-22c9-443b-a9bb-601eda9e342e","system_id":"levelo_inurba_marseille","lat":43.30934,"lon":5.401388,"is_reserved":false,"is_disabled":false,"rental_uris":{"android":"levelo://app?vid=eceb2651-22c9-443b-a9bb-601eda9e342e","ios":"levelo://app?vid=eceb2651-22c9-443b-a9bb-601eda9e342e"},"vehicle_type_id":"4","last_reported":1728454427,"current_range_meters":19600,"station_id":"ce4bhap2rcd13ifvqek0","pricing_plan_id":"cebpf4jnsgd1na2vs0mg"},{"bike_id":"74637494-39b2-4d45-8059-bbc9298d0213","system_id":"levelo_inurba_marseille","lat":43.27371,"lon":5.36257,"is_reserved":false,"is_disabled":false,"rental_uris":{"android":"levelo://app?vid=74637494-39b2-4d45-8059-bbc9298d0213","ios":"levelo://app?vid=74637494-39b2-4d45-8059-bbc9298d0213"},"vehicle_type_id":"4","last_reported":1728454427,"current_range_meters":38400,"station_id":"ce4bhbh2rcd13ifvqeo0","pricing_plan_id":"cebpf4jnsgd1na2vs0mg"},{"bike_id":"bd035d7b-f283-48b5-ba7e-7144a494294f","system_id":"levelo_inurba_marseille","lat":43.30039,"lon":5.40167,"is_reserved":false,"is_disabled":false,"rental_uris":{"android":"levelo://app?vid=bd035d7b-f283-48b5-ba7e-7144a494294f","ios":"levelo://app?vid=bd035d7b-f283-48b5-ba7e-7144a494294f"},"vehicle_type_id":"4","last_reported":1728454427,"current_range_meters":28800,"station_id":"","pricing_plan_id":"cebpf4jnsgd1na2vs0mg"},{"bike_id":"fb6089d0-9595-496f-b97d-f06ddfd30f36","system_id":"levelo_inurba_marseille","lat":43.27968,"lon":5.38748,"is_reserved":false,"is_disabled":false,"rental_uris":{"android":"levelo://app?vid=fb6089d0-9595-496f-b97d-f06ddfd30f36","ios":"levelo://app?vid=fb6089d0-9595-496f-b97d-f06ddfd30f36"},"vehicle_type_id":"4","last_reported":1728454427,"current_range_meters":30400,"station_id":"ce4bhg12rcd13ifvqf80","pricing_plan_id":"cebpf4jnsgd1na2vs0mg"},{"bike_id":"88256317-8052-47f6-ab7c-206661bc5eb5","system_id":"levelo_inurba_marseille","lat":43.29795,"lon":5.38096,"is_reserved":false,"is_disabled":false,"rental_uris":{"android":"levelo://app?vid=88256317-8052-47f6-ab7c-206661bc5eb5","ios":"levelo://app?vid=88256317-8052-47f6-ab7c-206661bc5eb5"},"vehicle_type_id":"4","last_reported":1728454427,"current_range_meters":4800,"station_id":"ce4bgip2rcd13ifvqbb0","pricing_plan_id":"cebpf4jnsgd1na2vs0mg"},{"bike_id":"8a43e77f-c6b6-4cad-80fe-b98eadd87c9c","system_id":"levelo_inurba_marseille","lat":43.29221,"lon":5.36075,"is_reserved":false,"is_disabled":false,"rental_uris":{"android":"levelo://app?vid=8a43e77f-c6b6-4cad-80fe-b98eadd87c9c","ios":"levelo://app?vid=8a43e77f-c6b6-4cad-80fe-b98eadd87c9c"},"vehicle_type_id":"4","last_reported":1728454427,"current_range_meters":34000,"station_id":"ce4bhbh2rcd13ifvqeqg","pricing_plan_id":"cebpf4jnsgd1na2vs0mg"},{"bike_id":"4262d60f-468d-47d5-8e5a-0e2c3e0f0876","system_id":"levelo_inurba_marseille","lat":43.24389,"lon":5.37055,"is_reserved":false,"is_disabled":false,"rental_uris":{"android":"levelo://app?vid=4262d60f-468d-47d5-8e5a-0e2c3e0f0876","ios":"levelo://app?vid=4262d60f-468d-47d5-8e5a-0e2c3e0f0876"},"vehicle_type_id":"4","last_reported":1728454427,"current_range_meters":12800,"station_id":"ce4bhhh2rcd13ifvqfk0","pricing_plan_id":"cebpf4jnsgd1na2vs0mg"},{"bike_id":"e72fa7c9-6357-4d3c-946f-994459110c8a","system_id":"levelo_inurba_marseille","lat":43.27492,"lon":5.42455,"is_reserved":false,"is_disabled":false,"rental_uris":{"android":"levelo://app?vid=e72fa7c9-6357-4d3c-946f-994459110c8a","ios":"levelo://app?vid=e72fa7c9-6357-4d3c-946f-994459110c8a"},"vehicle_type_id":"4","last_reported":1728454427,"current_range_meters":38800,"station_id":"ce4bhn92rcd13ifvqgrg","pricing_plan_id":"cebpf4jnsgd1na2vs0mg"},{"bike_id":"2ed31331-8d4b-4cc9-a6d5-cb863be87dba","system_id":"levelo_inurba_marseille","lat":43.27499,"lon":5.42448,"is_reserved":false,"is_disabled":false,"rental_uris":{"android":"levelo://app?vid=2ed31331-8d4b-4cc9-a6d5-cb863be87dba","ios":"levelo://app?vid=2ed31331-8d4b-4cc9-a6d5-cb863be87dba"},"vehicle_type_id":"4","last_reported":1728454427,"current_range_meters":38800,"station_id":"ce4bhn92rcd13ifvqgrg","pricing_plan_id":"cebpf4jnsgd1na2vs0mg"},{"bike_id":"212d58f0-7281-494e-b4af-6dc8f301be06","system_id":"levelo_inurba_marseille","lat":43.27494,"lon":5.42453,"is_reserved":false,"is_disabled":false,"rental_uris":{"android":"levelo://app?vid=212d58f0-7281-494e-b4af-6dc8f301be06","ios":"levelo://app?vid=212d58f0-7281-494e-b4af-6dc8f301be06"},"vehicle_type_id":"4","last_reported":1728454427,"current_range_meters":33600,"station_id":"ce4bhn92rcd13ifvqgrg","pricing_plan_id":"cebpf4jnsgd1na2vs0mg"},{"bike_id":"7b4f410c-08b3-4530-813d-013476253c0c","system_id":"levelo_inurba_marseille","lat":43.28718,"lon":5.37939,"is_reserved":false,"is_disabled":false,"rental_uris":{"android":"levelo://app?vid=7b4f410c-08b3-4530-813d-013476253c0c","ios":"levelo://app?vid=7b4f410c-08b3-4530-813d-013476253c0c"},"vehicle_type_id":"4","last_reported":1728454427,"current_range_meters":30400,"station_id":"ce4bh9p2rcd13ifvqec0","pricing_plan_id":"cebpf4jnsgd1na2vs0mg"},{"bike_id":"5fdef448-ae4c-43a2-84d0-2a7d0587a11c","system_id":"levelo_inurba_marseille","lat":43.279742,"lon":5.387422,"is_reserved":false,"is_disabled":false,"rental_uris":{"android":"levelo://app?vid=5fdef448-ae4c-43a2-84d0-2a7d0587a11c","ios":"levelo://app?vid=5fdef448-ae4c-43a2-84d0-2a7d0587a11c"},"vehicle_type_id":"4","last_reported":1728454427,"current_range_meters":37600,"station_id":"ce4bh412rcd13ifvqds0","pricing_plan_id":"cebpf4jnsgd1na2vs0mg"},{"bike_id":"1fe64f31-b1f7-4d93-b037-765b28dcef03","system_id":"levelo_inurba_marseille","lat":43.25581,"lon":5.38233,"is_reserved":false,"is_disabled":false,"rental_uris":{"android":"levelo://app?vid=1fe64f31-b1f7-4d93-b037-765b28dcef03","ios":"levelo://app?vid=1fe64f31-b1f7-4d93-b037-765b28dcef03"},"vehicle_type_id":"4","last_reported":1728454427,"current_range_meters":38800,"station_id":"ce4bhih2rcd13ifvqfs0","pricing_plan_id":"cebpf4jnsgd1na2vs0mg"},{"bike_id":"9f2ff0b7-4940-4f9b-bfa7-0d1c2ff05e80","system_id":"levelo_inurba_marseille","lat":43.31758,"lon":5.38999,"is_reserved":false,"is_disabled":false,"rental_uris":{"android":"levelo://app?vid=9f2ff0b7-4940-4f9b-bfa7-0d1c2ff05e80","ios":"levelo://app?vid=9f2ff0b7-4940-4f9b-bfa7-0d1c2ff05e80"},"vehicle_type_id":"4","last_reported":1728454427,"current_range_meters":20000,"station_id":"ce4bhqp2rcd13ifvqhng","pricing_plan_id":"cebpf4jnsgd1na2vs0mg"},{"bike_id":"466a221c-3b1a-4708-a4d0-285f2b15468a","system_id":"levelo_inurba_marseille","lat":43.31169,"lon":5.38721,"is_reserved":false,"is_disabled":false,"rental_uris":{"android":"levelo://app?vid=466a221c-3b1a-4708-a4d0-285f2b15468a","ios":"levelo://app?vid=466a221c-3b1a-4708-a4d0-285f2b15468a"},"vehicle_type_id":"4","last_reported":1728454427,"current_range_meters":38000,"station_id":"ce4bgv12rcd13ifvqcp0","pricing_plan_id":"cebpf4jnsgd1na2vs0mg"},{"bike_id":"7b6d963a-fda7-4fdd-8f2d-53c8c733ba98","system_id":"levelo_inurba_marseille","lat":43.3059,"lon":5.39353,"is_reserved":false,"is_disabled":false,"rental_uris":{"android":"levelo://app?vid=7b6d963a-fda7-4fdd-8f2d-53c8c733ba98","ios":"levelo://app?vid=7b6d963a-fda7-4fdd-8f2d-53c8c733ba98"},"vehicle_type_id":"4","last_reported":1728454427,"current_range_meters":38000,"station_id":"ce4bh0p2rcd13ifvqd80","pricing_plan_id":"cebpf4jnsgd1na2vs0mg"},{"bike_id":"981417f7-3650-4686-9c01-f3fca65dc77f","system_id":"levelo_inurba_marseille","lat":43.2307,"lon":5.35493,"is_reserved":false,"is_disabled":false,"rental_uris":{"android":"levelo://app?vid=981417f7-3650-4686-9c01-f3fca65dc77f","ios":"levelo://app?vid=981417f7-3650-4686-9c01-f3fca65dc77f"},"vehicle_type_id":"4","last_reported":1728454427,"current_range_meters":20000,"station_id":"cpo3342slgdg3j2ifvpg","pricing_plan_id":"cebpf4jnsgd1na2vs0mg"},{"bike_id":"d9e78638-d819-4cce-8dbf-1fa89d7a43c2","system_id":"levelo_inurba_marseille","lat":43.25575,"lon":5.38224,"is_reserved":false,"is_disabled":false,"rental_uris":{"android":"levelo://app?vid=d9e78638-d819-4cce-8dbf-1fa89d7a43c2","ios":"levelo://app?vid=d9e78638-d819-4cce-8dbf-1fa89d7a43c2"},"vehicle_type_id":"4","last_reported":1728454427,"current_range_meters":34800,"station_id":"ce4bhih2rcd13ifvqfs0","pricing_plan_id":"cebpf4jnsgd1na2vs0mg"},{"bike_id":"9cc88652-7b97-4310-bf8e-9500f8b90d60","system_id":"levelo_inurba_marseille","lat":43.2657,"lon":5.39012,"is_reserved":false,"is_disabled":false,"rental_uris":{"android":"levelo://app?vid=9cc88652-7b97-4310-bf8e-9500f8b90d60","ios":"levelo://app?vid=9cc88652-7b97-4310-bf8e-9500f8b90d60"},"vehicle_type_id":"4","last_reported":1728454427,"current_range_meters":27200,"station_id":"ce4bhe12rcd13ifvqf30","pricing_plan_id":"cebpf4jnsgd1na2vs0mg"},{"bike_id":"a7fc21fc-96fb-4603-843c-267888a20c03","system_id":"levelo_inurba_marseille","lat":43.30533,"lon":5.3673,"is_reserved":false,"is_disabled":false,"rental_uris":{"android":"levelo://app?vid=a7fc21fc-96fb-4603-843c-267888a20c03","ios":"levelo://app?vid=a7fc21fc-96fb-4603-843c-267888a20c03"},"vehicle_type_id":"4","last_reported":1728454427,"current_range_meters":32400,"station_id":"ce4bgrp2rcd13ifvqc9g","pricing_plan_id":"cebpf4jnsgd1na2vs0mg"},{"bike_id":"bf2263df-dcae-42be-981d-9a72b7db3132","system_id":"levelo_inurba_marseille","lat":43.29267,"lon":5.38441,"is_reserved":false,"is_disabled":false,"rental_uris":{"android":"levelo://app?vid=bf2263df-dcae-42be-981d-9a72b7db3132","ios":"levelo://app?vid=bf2263df-dcae-42be-981d-9a72b7db3132"},"vehicle_type_id":"4","last_reported":1728454427,"current_range_meters":34800,"station_id":"ce4bh692rcd13ifvqea0","pricing_plan_id":"cebpf4jnsgd1na2vs0mg"},{"bike_id":"da6579d7-20a1-4d71-b1ec-0f6d742a68c4","system_id":"levelo_inurba_marseille","lat":43.27058,"lon":5.40258,"is_reserved":false,"is_disabled":false,"rental_uris":{"android":"levelo://app?vid=da6579d7-20a1-4d71-b1ec-0f6d742a68c4","ios":"levelo://app?vid=da6579d7-20a1-4d71-b1ec-0f6d742a68c4"},"vehicle_type_id":"4","last_reported":1728454427,"current_range_meters":38800,"station_id":"ce4bhk92rcd13ifvqgc0","pricing_plan_id":"cebpf4jnsgd1na2vs0mg"},{"bike_id":"aa256eb4-1255-4ade-8fe0-d6c21661205d","system_id":"levelo_inurba_marseille","lat":43.31532,"lon":5.38026,"is_reserved":false,"is_disabled":false,"rental_uris":{"android":"levelo://app?vid=aa256eb4-1255-4ade-8fe0-d6c21661205d","ios":"levelo://app?vid=aa256eb4-1255-4ade-8fe0-d6c21661205d"},"vehicle_type_id":"4","last_reported":1728454427,"current_range_meters":36800,"station_id":"ce4bhsp2rcd13ifvqi50","pricing_plan_id":"cebpf4jnsgd1na2vs0mg"},{"bike_id":"f0baba30-8b49-4030-9123-4d13a5c6ccf2","system_id":"levelo_inurba_marseille","lat":43.27056,"lon":5.40267,"is_reserved":false,"is_disabled":false,"rental_uris":{"android":"levelo://app?vid=f0baba30-8b49-4030-9123-4d13a5c6ccf2","ios":"levelo://app?vid=f0baba30-8b49-4030-9123-4d13a5c6ccf2"},"vehicle_type_id":"4","last_reported":1728454427,"current_range_meters":6800,"station_id":"ce4bhk92rcd13ifvqgc0","pricing_plan_id":"cebpf4jnsgd1na2vs0mg"},{"bike_id":"5b88c963-47f3-429c-af9e-fe86716196ce","system_id":"levelo_inurba_marseille","lat":43.295531,"lon":5.422819,"is_reserved":false,"is_disabled":false,"rental_uris":{"android":"levelo://app?vid=5b88c963-47f3-429c-af9e-fe86716196ce","ios":"levelo://app?vid=5b88c963-47f3-429c-af9e-fe86716196ce"},"vehicle_type_id":"4","last_reported":1728454427,"current_range_meters":39200,"station_id":"ce4bhph2rcd13ifvqhdg","pricing_plan_id":"cebpf4jnsgd1na2vs0mg"},{"bike_id":"b4cdd3cc-cc3c-48ad-ac9d-4120e6f711f5","system_id":"levelo_inurba_marseille","lat":43.30154,"lon":5.38082,"is_reserved":false,"is_disabled":false,"rental_uris":{"android":"levelo://app?vid=b4cdd3cc-cc3c-48ad-ac9d-4120e6f711f5","ios":"levelo://app?vid=b4cdd3cc-cc3c-48ad-ac9d-4120e6f711f5"},"vehicle_type_id":"4","last_reported":1728454427,"current_range_meters":23200,"station_id":"ce4bgjp2rcd13ifvqbh0","pricing_plan_id":"cebpf4jnsgd1na2vs0mg"},{"bike_id":"4bc8f152-5ceb-47af-90fe-8feb3e2a5a1a","system_id":"levelo_inurba_marseille","lat":43.28035,"lon":5.36933,"is_reserved":false,"is_disabled":false,"rental_uris":{"android":"levelo://app?vid=4bc8f152-5ceb-47af-90fe-8feb3e2a5a1a","ios":"levelo://app?vid=4bc8f152-5ceb-47af-90fe-8feb3e2a5a1a"},"vehicle_type_id":"4","last_reported":1728454427,"current_range_meters":38800,"station_id":"ce4bha12rcd13ifvqef0","pricing_plan_id":"cebpf4jnsgd1na2vs0mg"},{"bike_id":"bf95273f-62ba-4176-b69f-2e879358a833","system_id":"levelo_inurba_marseille","lat":43.31223,"lon":5.3685,"is_reserved":false,"is_disabled":false,"rental_uris":{"android":"levelo://app?vid=bf95273f-62ba-4176-b69f-2e879358a833","ios":"levelo://app?vid=bf95273f-62ba-4176-b69f-2e879358a833"},"vehicle_type_id":"4","last_reported":1728454427,"current_range_meters":38800,"station_id":"ce4bgl92rcd13ifvqbq0","pricing_plan_id":"cebpf4jnsgd1na2vs0mg"},{"bike_id":"105cc977-34ae-489d-8857-680e2a567ac9","system_id":"levelo_inurba_marseille","lat":43.25581,"lon":5.38227,"is_reserved":false,"is_disabled":false,"rental_uris":{"android":"levelo://app?vid=105cc977-34ae-489d-8857-680e2a567ac9","ios":"levelo://app?vid=105cc977-34ae-489d-8857-680e2a567ac9"},"vehicle_type_id":"4","last_reported":1728454427,"current_range_meters":27600,"station_id":"ce4bhih2rcd13ifvqfs0","pricing_plan_id":"cebpf4jnsgd1na2vs0mg"},{"bike_id":"a8c2c851-f541-4890-905c-6869fa60cd0a","system_id":"levelo_inurba_marseille","lat":43.29603,"lon":5.38103,"is_reserved":false,"is_disabled":false,"rental_uris":{"android":"levelo://app?vid=a8c2c851-f541-4890-905c-6869fa60cd0a","ios":"levelo://app?vid=a8c2c851-f541-4890-905c-6869fa60cd0a"},"vehicle_type_id":"4","last_reported":1728454427,"current_range_meters":24400,"station_id":"ce4bgl12rcd13ifvqbo0","pricing_plan_id":"cebpf4jnsgd1na2vs0mg"},{"bike_id":"810b32d6-b30c-480b-a6ee-5bd54d112eb8","system_id":"levelo_inurba_marseille","lat":43.337444,"lon":5.374475,"is_reserved":false,"is_disabled":false,"rental_uris":{"android":"levelo://app?vid=810b32d6-b30c-480b-a6ee-5bd54d112eb8","ios":"levelo://app?vid=810b32d6-b30c-480b-a6ee-5bd54d112eb8"},"vehicle_type_id":"4","last_reported":1728454427,"current_range_meters":27200,"station_id":"","pricing_plan_id":"cebpf4jnsgd1na2vs0mg"},{"bike_id":"6cb4bd99-0ca4-42cd-bee0-4d3335536a9c","system_id":"levelo_inurba_marseille","lat":43.24548,"lon":5.39528,"is_reserved":false,"is_disabled":false,"rental_uris":{"android":"levelo://app?vid=6cb4bd99-0ca4-42cd-bee0-4d3335536a9c","ios":"levelo://app?vid=6cb4bd99-0ca4-42cd-bee0-4d3335536a9c"},"vehicle_type_id":"4","last_reported":1728454427,"current_range_meters":29600,"station_id":"ce4bhlp2rcd13ifvqgjg","pricing_plan_id":"cebpf4jnsgd1na2vs0mg"},{"bike_id":"131dc033-13a9-49c8-bf85-2f51c5628f4e","system_id":"levelo_inurba_marseille","lat":43.2815,"lon":5.42631,"is_reserved":false,"is_disabled":false,"rental_uris":{"android":"levelo://app?vid=131dc033-13a9-49c8-bf85-2f51c5628f4e","ios":"levelo://app?vid=131dc033-13a9-49c8-bf85-2f51c5628f4e"},"vehicle_type_id":"4","last_reported":1728454427,"current_range_meters":38000,"station_id":"ce4bhnh2rcd13ifvqgug","pricing_plan_id":"cebpf4jnsgd1na2vs0mg"},{"bike_id":"1cc15235-f555-4085-863f-fb0718487278","system_id":"levelo_inurba_marseille","lat":43.29611,"lon":5.3811,"is_reserved":false,"is_disabled":false,"rental_uris":{"android":"levelo://app?vid=1cc15235-f555-4085-863f-fb0718487278","ios":"levelo://app?vid=1cc15235-f555-4085-863f-fb0718487278"},"vehicle_type_id":"4","last_reported":1728454427,"current_range_meters":20400,"station_id":"ce4bgl12rcd13ifvqbo0","pricing_plan_id":"cebpf4jnsgd1na2vs0mg"},{"bike_id":"d77a8155-08b8-4fe2-bf17-5470ae6d27d1","system_id":"levelo_inurba_marseille","lat":43.22931,"lon":5.35376,"is_reserved":false,"is_disabled":false,"rental_uris":{"android":"levelo://app?vid=d77a8155-08b8-4fe2-bf17-5470ae6d27d1","ios":"levelo://app?vid=d77a8155-08b8-4fe2-bf17-5470ae6d27d1"},"vehicle_type_id":"4","last_reported":1728454427,"current_range_meters":24400,"station_id":"cpo3532slgdg3j2ikp40","pricing_plan_id":"cebpf4jnsgd1na2vs0mg"},{"bike_id":"566f124d-d2dc-44d6-baaa-cd99b0a92098","system_id":"levelo_inurba_marseille","lat":43.23149,"lon":5.43717,"is_reserved":false,"is_disabled":false,"rental_uris":{"android":"levelo://app?vid=566f124d-d2dc-44d6-baaa-cd99b0a92098","ios":"levelo://app?vid=566f124d-d2dc-44d6-baaa-cd99b0a92098"},"vehicle_type_id":"4","last_reported":1728454427,"current_range_meters":39200,"station_id":"ce4bhmp2rcd13ifvqgog","pricing_plan_id":"cebpf4jnsgd1na2vs0mg"},{"bike_id":"8b23f748-ae6e-4558-940e-aa65f217ce76","system_id":"levelo_inurba_marseille","lat":43.24384,"lon":5.37055,"is_reserved":false,"is_disabled":false,"rental_uris":{"android":"levelo://app?vid=8b23f748-ae6e-4558-940e-aa65f217ce76","ios":"levelo://app?vid=8b23f748-ae6e-4558-940e-aa65f217ce76"},"vehicle_type_id":"4","last_reported":1728454427,"current_range_meters":36800,"station_id":"ce4bhhh2rcd13ifvqfk0","pricing_plan_id":"cebpf4jnsgd1na2vs0mg"},{"bike_id":"d04d162c-6069-432d-89c9-a082b4277997","system_id":"levelo_inurba_marseille","lat":43.30327,"lon":5.40438,"is_reserved":false,"is_disabled":false,"rental_uris":{"android":"levelo://app?vid=d04d162c-6069-432d-89c9-a082b4277997","ios":"levelo://app?vid=d04d162c-6069-432d-89c9-a082b4277997"},"vehicle_type_id":"4","last_reported":1728454427,"current_range_meters":34000,"station_id":"ce4bh012rcd13ifvqd10","pricing_plan_id":"cebpf4jnsgd1na2vs0mg"},{"bike_id":"b07c9041-9e77-472f-a70f-a4123173b73e","system_id":"levelo_inurba_marseille","lat":43.30592,"lon":5.39347,"is_reserved":false,"is_disabled":false,"rental_uris":{"android":"levelo://app?vid=b07c9041-9e77-472f-a70f-a4123173b73e","ios":"levelo://app?vid=b07c9041-9e77-472f-a70f-a4123173b73e"},"vehicle_type_id":"4","last_reported":1728454427,"current_range_meters":23200,"station_id":"ce4bh0p2rcd13ifvqd80","pricing_plan_id":"cebpf4jnsgd1na2vs0mg"},{"bike_id":"483c9ef4-466c-4084-a6f5-16648aecb604","system_id":"levelo_inurba_marseille","lat":43.32537,"lon":5.41426,"is_reserved":false,"is_disabled":false,"rental_uris":{"android":"levelo://app?vid=483c9ef4-466c-4084-a6f5-16648aecb604","ios":"levelo://app?vid=483c9ef4-466c-4084-a6f5-16648aecb604"},"vehicle_type_id":"4","last_reported":1728454427,"current_range_meters":39200,"station_id":"ce4bhq12rcd13ifvqhhg","pricing_plan_id":"cebpf4jnsgd1na2vs0mg"},{"bike_id":"92f0f563-ea16-4c02-b287-b0ed88c8eb9d","system_id":"levelo_inurba_marseille","lat":43.26676,"lon":5.38267,"is_reserved":false,"is_disabled":false,"rental_uris":{"android":"levelo://app?vid=92f0f563-ea16-4c02-b287-b0ed88c8eb9d","ios":"levelo://app?vid=92f0f563-ea16-4c02-b287-b0ed88c8eb9d"},"vehicle_type_id":"4","last_reported":1728454427,"current_range_meters":18000,"station_id":"ce4bhg92rcd13ifvqf90","pricing_plan_id":"cebpf4jnsgd1na2vs0mg"},{"bike_id":"8afaacd3-ceb3-4fbb-84a9-6242faa61bed","system_id":"levelo_inurba_marseille","lat":43.30927,"lon":5.40146,"is_reserved":false,"is_disabled":false,"rental_uris":{"android":"levelo://app?vid=8afaacd3-ceb3-4fbb-84a9-6242faa61bed","ios":"levelo://app?vid=8afaacd3-ceb3-4fbb-84a9-6242faa61bed"},"vehicle_type_id":"4","last_reported":1728454427,"current_range_meters":12800,"station_id":"ce4bgvp2rcd13ifvqct0","pricing_plan_id":"cebpf4jnsgd1na2vs0mg"},{"bike_id":"cd3d8e80-a3cd-4dae-8dd7-f3bb9fc91ead","system_id":"levelo_inurba_marseille","lat":43.28973,"lon":5.37839,"is_reserved":false,"is_disabled":false,"rental_uris":{"android":"levelo://app?vid=cd3d8e80-a3cd-4dae-8dd7-f3bb9fc91ead","ios":"levelo://app?vid=cd3d8e80-a3cd-4dae-8dd7-f3bb9fc91ead"},"vehicle_type_id":"4","last_reported":1728454427,"current_range_meters":38000,"station_id":"ce4bh9p2rcd13ifvqed0","pricing_plan_id":"cebpf4jnsgd1na2vs0mg"},{"bike_id":"9ab66f2d-7574-4054-91ec-ba27d9b2bdd3","system_id":"levelo_inurba_marseille","lat":43.31169,"lon":5.38716,"is_reserved":false,"is_disabled":false,"rental_uris":{"android":"levelo://app?vid=9ab66f2d-7574-4054-91ec-ba27d9b2bdd3","ios":"levelo://app?vid=9ab66f2d-7574-4054-91ec-ba27d9b2bdd3"},"vehicle_type_id":"4","last_reported":1728454427,"current_range_meters":38400,"station_id":"ce4bgv12rcd13ifvqcp0","pricing_plan_id":"cebpf4jnsgd1na2vs0mg"},{"bike_id":"543b497d-4f72-44c4-98fe-d04b2fb0ba84","system_id":"levelo_inurba_marseille","lat":43.33738,"lon":5.37435,"is_reserved":false,"is_disabled":false,"rental_uris":{"android":"levelo://app?vid=543b497d-4f72-44c4-98fe-d04b2fb0ba84","ios":"levelo://app?vid=543b497d-4f72-44c4-98fe-d04b2fb0ba84"},"vehicle_type_id":"4","last_reported":1728454427,"current_range_meters":37600,"station_id":"ce4rr2p2rcd13i802rgg","pricing_plan_id":"cebpf4jnsgd1na2vs0mg"},{"bike_id":"468f3f12-d8da-4904-bf7c-e2a41cb9a620","system_id":"levelo_inurba_marseille","lat":43.231993,"lon":5.355487,"is_reserved":false,"is_disabled":false,"rental_uris":{"android":"levelo://app?vid=468f3f12-d8da-4904-bf7c-e2a41cb9a620","ios":"levelo://app?vid=468f3f12-d8da-4904-bf7c-e2a41cb9a620"},"vehicle_type_id":"4","last_reported":1728454427,"current_range_meters":36000,"station_id":"ce4bhu92rcd13ifvqi70","pricing_plan_id":"cebpf4jnsgd1na2vs0mg"},{"bike_id":"ec5d5cc0-7637-4fb9-a741-7392281e0c95","system_id":"levelo_inurba_marseille","lat":43.25494,"lon":5.37647,"is_reserved":false,"is_disabled":false,"rental_uris":{"android":"levelo://app?vid=ec5d5cc0-7637-4fb9-a741-7392281e0c95","ios":"levelo://app?vid=ec5d5cc0-7637-4fb9-a741-7392281e0c95"},"vehicle_type_id":"4","last_reported":1728454427,"current_range_meters":30000,"station_id":"ce4bhh12rcd13ifvqff0","pricing_plan_id":"cebpf4jnsgd1na2vs0mg"},{"bike_id":"872387e6-d759-4bc1-ad04-2b363d98dd08","system_id":"levelo_inurba_marseille","lat":43.26058,"lon":5.39396,"is_reserved":false,"is_disabled":false,"rental_uris":{"android":"levelo://app?vid=872387e6-d759-4bc1-ad04-2b363d98dd08","ios":"levelo://app?vid=872387e6-d759-4bc1-ad04-2b363d98dd08"},"vehicle_type_id":"4","last_reported":1728454427,"current_range_meters":24400,"station_id":"ce4bhh92rcd13ifvqfj0","pricing_plan_id":"cebpf4jnsgd1na2vs0mg"},{"bike_id":"910aed26-9911-4137-aa8a-8c760b409a96","system_id":"levelo_inurba_marseille","lat":43.29682,"lon":5.36634,"is_reserved":false,"is_disabled":false,"rental_uris":{"android":"levelo://app?vid=910aed26-9911-4137-aa8a-8c760b409a96","ios":"levelo://app?vid=910aed26-9911-4137-aa8a-8c760b409a96"},"vehicle_type_id":"4","last_reported":1728454427,"current_range_meters":28400,"station_id":"ce4bgn12rcd13ifvqbt0","pricing_plan_id":"cebpf4jnsgd1na2vs0mg"},{"bike_id":"54079b9d-f5e5-47d9-92c8-ab21752e98fa","system_id":"levelo_inurba_marseille","lat":43.30803,"lon":5.38155,"is_reserved":false,"is_disabled":false,"rental_uris":{"android":"levelo://app?vid=54079b9d-f5e5-47d9-92c8-ab21752e98fa","ios":"levelo://app?vid=54079b9d-f5e5-47d9-92c8-ab21752e98fa"},"vehicle_type_id":"4","last_reported":1728454427,"current_range_meters":39200,"station_id":"ce4bgt12rcd13ifvqce0","pricing_plan_id":"cebpf4jnsgd1na2vs0mg"},{"bike_id":"7d8ca65d-bc4f-4a21-a46d-f2e2001ba92b","system_id":"levelo_inurba_marseille","lat":43.30149,"lon":5.37422,"is_reserved":false,"is_disabled":false,"rental_uris":{"android":"levelo://app?vid=7d8ca65d-bc4f-4a21-a46d-f2e2001ba92b","ios":"levelo://app?vid=7d8ca65d-bc4f-4a21-a46d-f2e2001ba92b"},"vehicle_type_id":"4","last_reported":1728454427,"current_range_meters":30400,"station_id":"ce4bgs92rcd13ifvqcc0","pricing_plan_id":"cebpf4jnsgd1na2vs0mg"},{"bike_id":"c522102f-994e-486c-9b55-e2af76c88342","system_id":"levelo_inurba_marseille","lat":43.29265,"lon":5.38444,"is_reserved":false,"is_disabled":false,"rental_uris":{"android":"levelo://app?vid=c522102f-994e-486c-9b55-e2af76c88342","ios":"levelo://app?vid=c522102f-994e-486c-9b55-e2af76c88342"},"vehicle_type_id":"4","last_reported":1728454427,"current_range_meters":38000,"station_id":"ce4bh692rcd13ifvqea0","pricing_plan_id":"cebpf4jnsgd1na2vs0mg"},{"bike_id":"1b269a00-7cb1-4fd7-8b2e-8de6d79903af","system_id":"levelo_inurba_marseille","lat":43.27616,"lon":5.3611,"is_reserved":false,"is_disabled":false,"rental_uris":{"android":"levelo://app?vid=1b269a00-7cb1-4fd7-8b2e-8de6d79903af","ios":"levelo://app?vid=1b269a00-7cb1-4fd7-8b2e-8de6d79903af"},"vehicle_type_id":"4","last_reported":1728454427,"current_range_meters":38800,"station_id":"ce4bgj92rcd13ifvqbe0","pricing_plan_id":"cebpf4jnsgd1na2vs0mg"},{"bike_id":"b0808575-d63b-4932-a84a-bf0c0627d6fb","system_id":"levelo_inurba_marseille","lat":43.26564,"lon":5.39002,"is_reserved":false,"is_disabled":false,"rental_uris":{"android":"levelo://app?vid=b0808575-d63b-4932-a84a-bf0c0627d6fb","ios":"levelo://app?vid=b0808575-d63b-4932-a84a-bf0c0627d6fb"},"vehicle_type_id":"4","last_reported":1728454427,"current_range_meters":27200,"station_id":"ce4bhe12rcd13ifvqf30","pricing_plan_id":"cebpf4jnsgd1na2vs0mg"},{"bike_id":"64442ffd-fe46-40f1-b6de-d2f7f35dbea5","system_id":"levelo_inurba_marseille","lat":43.29788,"lon":5.39352,"is_reserved":false,"is_disabled":false,"rental_uris":{"android":"levelo://app?vid=64442ffd-fe46-40f1-b6de-d2f7f35dbea5","ios":"levelo://app?vid=64442ffd-fe46-40f1-b6de-d2f7f35dbea5"},"vehicle_type_id":"4","last_reported":1728454427,"current_range_meters":36800,"station_id":"chh1huq6cuj3fo74tm60","pricing_plan_id":"cebpf4jnsgd1na2vs0mg"},{"bike_id":"cc24d049-f88b-4699-9eae-08663cf9a2a2","system_id":"levelo_inurba_marseille","lat":43.25492,"lon":5.37648,"is_reserved":false,"is_disabled":false,"rental_uris":{"android":"levelo://app?vid=cc24d049-f88b-4699-9eae-08663cf9a2a2","ios":"levelo://app?vid=cc24d049-f88b-4699-9eae-08663cf9a2a2"},"vehicle_type_id":"4","last_reported":1728454427,"current_range_meters":3600,"station_id":"","pricing_plan_id":"cebpf4jnsgd1na2vs0mg"},{"bike_id":"cecac83d-c967-46da-8795-ddd95b1dd822","system_id":"levelo_inurba_marseille","lat":43.2466,"lon":5.3816,"is_reserved":false,"is_disabled":false,"rental_uris":{"android":"levelo://app?vid=cecac83d-c967-46da-8795-ddd95b1dd822","ios":"levelo://app?vid=cecac83d-c967-46da-8795-ddd95b1dd822"},"vehicle_type_id":"4","last_reported":1728454427,"current_range_meters":30000,"station_id":"ce4bhih2rcd13ifvqfr0","pricing_plan_id":"cebpf4jnsgd1na2vs0mg"},{"bike_id":"76307891-bcdc-47db-9b70-f5ade37a309f","system_id":"levelo_inurba_marseille","lat":43.28358,"lon":5.381,"is_reserved":false,"is_disabled":false,"rental_uris":{"android":"levelo://app?vid=76307891-bcdc-47db-9b70-f5ade37a309f","ios":"levelo://app?vid=76307891-bcdc-47db-9b70-f5ade37a309f"},"vehicle_type_id":"4","last_reported":1728454427,"current_range_meters":38400,"station_id":"ce4bh412rcd13ifvqdr0","pricing_plan_id":"cebpf4jnsgd1na2vs0mg"},{"bike_id":"7c508c4f-0d71-47bf-997b-905aab4646c4","system_id":"levelo_inurba_marseille","lat":43.32543,"lon":5.41458,"is_reserved":false,"is_disabled":false,"rental_uris":{"android":"levelo://app?vid=7c508c4f-0d71-47bf-997b-905aab4646c4","ios":"levelo://app?vid=7c508c4f-0d71-47bf-997b-905aab4646c4"},"vehicle_type_id":"4","last_reported":1728454427,"current_range_meters":30400,"station_id":"ce4bhq12rcd13ifvqhhg","pricing_plan_id":"cebpf4jnsgd1na2vs0mg"},{"bike_id":"6e8c8cbf-845b-47fc-9626-2d8b3d922025","system_id":"levelo_inurba_marseille","lat":43.22932,"lon":5.35374,"is_reserved":false,"is_disabled":false,"rental_uris":{"android":"levelo://app?vid=6e8c8cbf-845b-47fc-9626-2d8b3d922025","ios":"levelo://app?vid=6e8c8cbf-845b-47fc-9626-2d8b3d922025"},"vehicle_type_id":"4","last_reported":1728454427,"current_range_meters":22000,"station_id":"cpo3532slgdg3j2ikp40","pricing_plan_id":"cebpf4jnsgd1na2vs0mg"},{"bike_id":"466d9e8c-d1c5-49d2-9f0d-6c9f39abf073","system_id":"levelo_inurba_marseille","lat":43.30214,"lon":5.39458,"is_reserved":false,"is_disabled":false,"rental_uris":{"android":"levelo://app?vid=466d9e8c-d1c5-49d2-9f0d-6c9f39abf073","ios":"levelo://app?vid=466d9e8c-d1c5-49d2-9f0d-6c9f39abf073"},"vehicle_type_id":"4","last_reported":1728454427,"current_range_meters":38800,"station_id":"ce4bh0p2rcd13ifvqd70","pricing_plan_id":"cebpf4jnsgd1na2vs0mg"},{"bike_id":"134da93d-879e-457a-9aff-a4d639e53eaa","system_id":"levelo_inurba_marseille","lat":43.30467,"lon":5.37892,"is_reserved":false,"is_disabled":false,"rental_uris":{"android":"levelo://app?vid=134da93d-879e-457a-9aff-a4d639e53eaa","ios":"levelo://app?vid=134da93d-879e-457a-9aff-a4d639e53eaa"},"vehicle_type_id":"4","last_reported":1728454427,"current_range_meters":39200,"station_id":"ce4bgup2rcd13ifvqcn0","pricing_plan_id":"cebpf4jnsgd1na2vs0mg"},{"bike_id":"5b7c1b64-2180-4349-a949-460f6aba1aeb","system_id":"levelo_inurba_marseille","lat":43.26682,"lon":5.38263,"is_reserved":false,"is_disabled":false,"rental_uris":{"android":"levelo://app?vid=5b7c1b64-2180-4349-a949-460f6aba1aeb","ios":"levelo://app?vid=5b7c1b64-2180-4349-a949-460f6aba1aeb"},"vehicle_type_id":"4","last_reported":1728454427,"current_range_meters":38400,"station_id":"ce4bhg92rcd13ifvqf90","pricing_plan_id":"cebpf4jnsgd1na2vs0mg"},{"bike_id":"4389048e-7532-40bb-8ee0-75345df2c04a","system_id":"levelo_inurba_marseille","lat":43.31488,"lon":5.37308,"is_reserved":false,"is_disabled":false,"rental_uris":{"android":"levelo://app?vid=4389048e-7532-40bb-8ee0-75345df2c04a","ios":"levelo://app?vid=4389048e-7532-40bb-8ee0-75345df2c04a"},"vehicle_type_id":"4","last_reported":1728454427,"current_range_meters":36400,"station_id":"ce4bgt12rcd13ifvqcd0","pricing_plan_id":"cebpf4jnsgd1na2vs0mg"},