{"last_updated":1736885411,"ttl":60,"version":"2.2","data":{"bikes":[{"bike_id":"0843b65c-6b0d-435a-bf9e-aea6f6f2f7f4","system_id":"levelo_inurba_marseille","lat":43.30083,"lon":5.39903,"is_reserved":false,"is_disabled":false,"rental_uris":{"android":"levelo://app?vid=0843b65c-6b0d-435a-bf9e-aea6f6f2f7f4","ios":"levelo://app?vid=0843b65c-6b0d-435a-bf9e-aea6f6f2f7f4"},"vehicle_type_id":"4","last_reported":1736885411,"current_range_meters":38000,"station_id":"ce4bh0h2rcd13ifvqd40","pricing_plan_id":"cebpf4jnsgd1na2vs0mg"},{"bike_id":"ba484e63-4e5e-48df-80e8-717691e650cd","system_id":"levelo_inurba_marseille","lat":43.2557,"lon":5.38222,"is_reserved":false,"is_disabled":false,"rental_uris":{"android":"levelo://app?vid=ba484e63-4e5e-48df-80e8-717691e650cd","ios":"levelo://app?vid=ba484e63-4e5e-48df-80e8-717691e650cd"},"vehicle_type_id":"4","last_reported":1736885411,"current_range_meters":38800,"station_id":"ce4bhih2rcd13ifvqfs0","pricing_plan_id":"cebpf4jnsgd1na2vs0mg"},{"bike_id":"094f2b9d-982b-42a3-8932-981369abda5b","system_id":"levelo_inurba_marseille","lat":43.26945,"lon":5.40244,"is_reserved":false,"is_disabled":false,"rental_uris":{"android":"levelo://app?vid=094f2b9d-982b-42a3-8932-981369abda5b","ios":"levelo://app?vid=094f2b9d-982b-42a3-8932-981369abda5b"},"vehicle_type_id":"4","last_reported":1736885411,"current_range_meters":28000,"station_id":"cjm6bp8fraef2m0cb0m0","pricing_plan_id":"cebpf4jnsgd1na2vs0mg"},{"bike_id":"4d650d1c-16ba-41ab-bcb6-74b29ff0910c","system_id":"levelo_inurba_marseille","lat":43.27323,"lon":5.39085,"is_reserved":false,"is_disabled":false,"rental_uris":{"android":"levelo://app?vid=4d650d1c-16ba-41ab-bcb6-74b29ff0910c","ios":"levelo://app?vid=4d650d1c-16ba-41ab-bcb6-74b29ff0910c"},"vehicle_type_id":"4","last_reported":1736885411,"current_range_meters":36800,"station_id":"ce4bhgp2rcd13ifvqfe0","pricing_plan_id":"cebpf4jnsgd1na2vs0mg"},{"bike_id":"057a0cde-1d9c-461d-8957-89370ad5844d","system_id":"levelo_inurba_marseille","lat":43.26052,"lon":5.39389,"is_reserved":false,"is_disabled":false,"rental_uris":{"android":"levelo://app?vid=057a0cde-1d9c-461d-8957-89370ad5844d","ios":"levelo://app?vid=057a0cde-1d9c-461d-8957-89370ad5844d"},"vehicle_type_id":"4","last_reported":1736885411,"current_range_meters":39200,"station_id":"ce4bhh92rcd13ifvqfj0","pricing_plan_id":"cebpf4jnsgd1na2vs0mg"},{"bike_id":"8b946f40-6c08-4c0a-9db9-872b051c4842","system_id":"levelo_inurba_marseille","lat":43.28419,"lon":5.37497,"is_reserved":false,"is_disabled":false,"rental_uris":{"android":"levelo://app?vid=8b946f40-6c08-4c0a-9db9-872b051c4842","ios":"levelo://app?vid=8b946f40-6c08-4c0a-9db9-872b051c4842"},"vehicle_type_id":"4","last_reported":1736885411,"current_range_meters":22800,"station_id":"ce4bh412rcd13ifvqds0","pricing_plan_id":"cebpf4jnsgd1na2vs0mg"},{"bike_id":"459eda55-c02d-48e5-b482-24c6e37a8793","system_id":"levelo_inurba_marseille","lat":43.28451,"lon":5.3919,"is_reserved":false,"is_disabled":true,"rental_uris":{"android":"levelo://app?vid=459eda55-c02d-48e5-b482-24c6e37a8793","ios":"levelo://app?vid=459eda55-c02d-48e5-b482-24c6e37a8793"},"vehicle_type_id":"4","last_reported":1736885411,"current_range_meters":15200,"station_id":"ce4bhoh2rcd13ifvqh5g","pricing_plan_id":"cebpf4jnsgd1na2vs0mg"},{"bike_id":"b071cb0d-0d43-4303-900a-5fce398a8b0c","system_id":"levelo_inurba_marseille","lat":43.32289,"lon":5.3827,"is_reserved":false,"is_disabled":false,"rental_uris":{"android":"levelo://app?vid=b071cb0d-0d43-4303-900a-5fce398a8b0c","ios":"levelo://app?vid=b071cb0d-0d43-4303-900a-5fce398a8b0c"},"vehicle_type_id":"4","last_reported":1736885411,"current_range_meters":38800,"station_id":"ce4bhr12rcd13ifvqhqg","pricing_plan_id":"cebpf4jnsgd1na2vs0mg"},{"bike_id":"75e972c1-d61c-4de9-b47e-692d5319ad3c","system_id":"levelo_inurba_marseille","lat":43.31166,"lon":5.38712,"is_reserved":false,"is_disabled":false,"rental_uris":{"android":"levelo://app?vid=75e972c1-d61c-4de9-b47e-692d5319ad3c","ios":"levelo://app?vid=75e972c1-d61c-4de9-b47e-692d5319ad3c"},"vehicle_type_id":"4","last_reported":1736885411,"current_range_meters":12800,"station_id":"ce4bgv12rcd13ifvqcp0","pricing_plan_id":"cebpf4jnsgd1na2vs0mg"},{"bike_id":"5e0b46d4-53a6-4a9b-81ed-42b3629948b7","system_id":"levelo_inurba_marseille","lat":43.32109,"lon":5.36785,"is_reserved":false,"is_disabled":false,"rental_uris":{"android":"levelo://app?vid=5e0b46d4-53a6-4a9b-81ed-42b3629948b7","ios":"levelo://app?vid=5e0b46d4-53a6-4a9b-81ed-42b3629948b7"},"vehicle_type_id":"4","last_reported":1736885411,"current_range_meters":36800,"station_id":"ce4bhrh2rcd13ifvqhug","pricing_plan_id":"cebpf4jnsgd1na2vs0mg"},{"bike_id":"ec7ee651-f5c4-4c27-b63b-d7758be06887","system_id":"levelo_inurba_marseille","lat":43.26944,"lon":5.40259,"is_reserved":false,"is_disabled":false,"rental_uris":{"android":"levelo://app?vid=ec7ee651-f5c4-4c27-b63b-d7758be06887","ios":"levelo://app?vid=ec7ee651-f5c4-4c27-b63b-d7758be06887"},"vehicle_type_id":"4","last_reported":1736885411,"current_range_meters":16400,"station_id":"cjm6bp8fraef2m0cb0m0","pricing_plan_id":"cebpf4jnsgd1na2vs0mg"},{"bike_id":"90008e08-866e-46c3-96ff-04c849cafc46","system_id":"levelo_inurba_marseille","lat":43.280727,"lon":5.396417,"is_reserved":false,"is_disabled":false,"rental_uris":{"android":"levelo://app?vid=90008e08-866e-46c3-96ff-04c849cafc46","ios":"levelo://app?vid=90008e08-866e-46c3-96ff-04c849cafc46"},"vehicle_type_id":"4","last_reported":1736885411,"current_range_meters":28400,"station_id":"ce4bho12rcd13ifvqh2g","pricing_plan_id":"cebpf4jnsgd1na2vs0mg"},{"bike_id":"5bb5758f-37be-496e-ac0a-3712e6b43125","system_id":"levelo_inurba_marseille","lat":43.262,"lon":5.37903,"is_reserved":false,"is_disabled":false,"rental_uris":{"android":"levelo://app?vid=5bb5758f-37be-496e-ac0a-3712e6b43125","ios":"levelo://app?vid=5bb5758f-37be-496e-ac0a-3712e6b43125"},"vehicle_type_id":"4","last_reported":1736885411,"current_range_meters":38800,"station_id":"ce4bhjp2rcd13ifvqg90","pricing_plan_id":"cebpf4jnsgd1na2vs0mg"},{"bike_id":"f5b491dc-fbd0-4b94-8215-768689bb9d80","system_id":"levelo_inurba_marseille","lat":43.29056,"lon":5.35908,"is_reserved":false,"is_disabled":false,"rental_uris":{"android":"levelo://app?vid=f5b491dc-fbd0-4b94-8215-768689bb9d80","ios":"levelo://app?vid=f5b491dc-fbd0-4b94-8215-768689bb9d80"},"vehicle_type_id":"4","last_reported":1736885411,"current_range_meters":30000,"station_id":"ce4bha92rcd13ifvqeg0","pricing_plan_id":"cebpf4jnsgd1na2vs0mg"},{"bike_id":"6c72276d-8e89-4c2f-8150-2735b7561b95","system_id":"levelo_inurba_marseille","lat":43.27489,"lon":5.42444,"is_reserved":false,"is_disabled":true,"rental_uris":{"android":"levelo://app?vid=6c72276d-8e89-4c2f-8150-2735b7561b95","ios":"levelo://app?vid=6c72276d-8e89-4c2f-8150-2735b7561b95"},"vehicle_type_id":"4","last_reported":1736885411,"current_range_meters":0,"station_id":"ce4bhn92rcd13ifvqgrg","pricing_plan_id":"cebpf4jnsgd1na2vs0mg"},{"bike_id":"d301b2d7-d53f-43ff-9ec0-cc63ffc701fe","system_id":"levelo_inurba_marseille","lat":43.29205,"lon":5.3603,"is_reserved":false,"is_disabled":false,"rental_uris":{"android":"levelo://app?vid=d301b2d7-d53f-43ff-9ec0-cc63ffc701fe","ios":"levelo://app?vid=d301b2d7-d53f-43ff-9ec0-cc63ffc701fe"},"vehicle_type_id":"4","last_reported":1736885411,"current_range_meters":27600,"station_id":"ce4bhbh2rcd13ifvqeqg","pricing_plan_id":"cebpf4jnsgd1na2vs0mg"},{"bike_id":"c82352eb-cb08-4639-95c9-b20b13ceeac3","system_id":"levelo_inurba_marseille","lat":43.31483,"lon":5.37309,"is_reserved":false,"is_disabled":false,"rental_uris":{"android":"levelo://app?vid=c82352eb-cb08-4639-95c9-b20b13ceeac3","ios":"levelo://app?vid=c82352eb-cb08-4639-95c9-b20b13ceeac3"},"vehicle_type_id":"4","last_reported":1736885411,"current_range_meters":14000,"station_id":"ce4bgt12rcd13ifvqcd0","pricing_plan_id":"cebpf4jnsgd1na2vs0mg"},{"bike_id":"1146e50e-afe2-4591-aea2-aeb7dbe858e6","system_id":"levelo_inurba_marseille","lat":43.27431,"lon":5.39416,"is_reserved":false,"is_disabled":false,"rental_uris":{"android":"levelo://app?vid=1146e50e-afe2-4591-aea2-aeb7dbe858e6","ios":"levelo://app?vid=1146e50e-afe2-4591-aea2-aeb7dbe858e6"},"vehicle_type_id":"4","last_reported":1736885411,"current_range_meters":9200,"station_id":"ce4bhdp2rcd13ifvqf20","pricing_plan_id":"cebpf4jnsgd1na2vs0mg"},{"bike_id":"6cc4ad93-e83a-4132-9553-a10e254b533c","system_id":"levelo_inurba_marseille","lat":43.26934,"lon":5.38917,"is_reserved":false,"is_disabled":false,"rental_uris":{"android":"levelo://app?vid=6cc4ad93-e83a-4132-9553-a10e254b533c","ios":"levelo://app?vid=6cc4ad93-e83a-4132-9553-a10e254b533c"},"vehicle_type_id":"4","last_reported":1736885411,"current_range_meters":20000,"station_id":"ce4bhhh2rcd13ifvqfl0","pricing_plan_id":"cebpf4jnsgd1na2vs0mg"},{"bike_id":"de24f0eb-d07d-4b52-b35d-5a84aaa3df22","system_id":"levelo_inurba_marseille","lat":43.29214,"lon":5.3604,"is_reserved":false,"is_disabled":true,"rental_uris":{"android":"levelo://app?vid=de24f0eb-d07d-4b52-b35d-5a84aaa3df22","ios":"levelo://app?vid=de24f0eb-d07d-4b52-b35d-5a84aaa3df22"},"vehicle_type_id":"4","last_reported":1736885411,"current_range_meters":9600,"station_id":"ce4bhbh2rcd13ifvqeqg","pricing_plan_id":"cebpf4jnsgd1na2vs0mg"},{"bike_id":"68f552f5-a34a-4bde-8c66-3b288475cd31","system_id":"levelo_inurba_marseille","lat":43.29583,"lon":5.37506,"is_reserved":false,"is_disabled":false,"rental_uris":{"android":"levelo://app?vid=68f552f5-a34a-4bde-8c66-3b288475cd31","ios":"levelo://app?vid=68f552f5-a34a-4bde-8c66-3b288475cd31"},"vehicle_type_id":"4","last_reported":1736885411,"current_range_meters":6800,"station_id":"ce4bgh92rcd13ifvqb50","pricing_plan_id":"cebpf4jnsgd1na2vs0mg"},{"bike_id":"961a1c03-ea05-4b5c-86bd-3e5250b56085","system_id":"levelo_inurba_marseille","lat":43.285643,"lon":5.394928,"is_reserved":false,"is_disabled":false,"rental_uris":{"android":"levelo://app?vid=961a1c03-ea05-4b5c-86bd-3e5250b56085","ios":"levelo://app?vid=961a1c03-ea05-4b5c-86bd-3e5250b56085"},"vehicle_type_id":"4","last_reported":1736885411,"current_range_meters":11600,"station_id":"ce4bh292rcd13ifvqdg0","pricing_plan_id":"cebpf4jnsgd1na2vs0mg"},{"bike_id":"1546f697-d82b-4e5d-a850-a9023302096e","system_id":"levelo_inurba_marseille","lat":43.24995,"lon":5.3892,"is_reserved":false,"is_disabled":false,"rental_uris":{"android":"levelo://app?vid=1546f697-d82b-4e5d-a850-a9023302096e","ios":"levelo://app?vid=1546f697-d82b-4e5d-a850-a9023302096e"},"vehicle_type_id":"4","last_reported":1736885411,"current_range_meters":6800,"station_id":"ce4bhgp2rcd13ifvqfd0","pricing_plan_id":"cebpf4jnsgd1na2vs0mg"},{"bike_id":"3a154d79-06d4-4814-bd52-2ebbe8926e69","system_id":"levelo_inurba_marseille","lat":43.2978,"lon":5.39344,"is_reserved":false,"is_disabled":true,"rental_uris":{"android":"levelo://app?vid=3a154d79-06d4-4814-bd52-2ebbe8926e69","ios":"levelo://app?vid=3a154d79-06d4-4814-bd52-2ebbe8926e69"},"vehicle_type_id":"4","last_reported":1736885411,"current_range_meters":36800,"station_id":"chh1huq6cuj3fo74tm60","pricing_plan_id":"cebpf4jnsgd1na2vs0mg"},{"bike_id":"a05bd889-5f47-4435-a653-f868055678ed","system_id":"levelo_inurba_marseille","lat":43.25009,"lon":5.38918,"is_reserved":false,"is_disabled":false,"rental_uris":{"android":"levelo://app?vid=a05bd889-5f47-4435-a653-f868055678ed","ios":"levelo://app?vid=a05bd889-5f47-4435-a653-f868055678ed"},"vehicle_type_id":"4","last_reported":1736885411,"current_range_meters":30000,"station_id":"ce4bhgp2rcd13ifvqfd0","pricing_plan_id":"cebpf4jnsgd1na2vs0mg"},{"bike_id":"d6d5004e-f401-4743-b020-ebb5bd2111bc","system_id":"levelo_inurba_marseille","lat":43.28719,"lon":5.37945,"is_reserved":false,"is_disabled":false,"rental_uris":{"android":"levelo://app?vid=d6d5004e-f401-4743-b020-ebb5bd2111bc","ios":"levelo://app?vid=d6d5004e-f401-4743-b020-ebb5bd2111bc"},"vehicle_type_id":"4","last_reported":1736885411,"current_range_meters":36400,"station_id":"ce4bh9p2rcd13ifvqec0","pricing_plan_id":"cebpf4jnsgd1na2vs0mg"},{"bike_id":"30be5c4e-066f-4a96-8b48-7cfcb4068f4f","system_id":"levelo_inurba_marseille","lat":43.25819,"lon":5.39438,"is_reserved":false,"is_disabled":false,"rental_uris":{"android":"levelo://app?vid=30be5c4e-066f-4a96-8b48-7cfcb4068f4f","ios":"levelo://app?vid=30be5c4e-066f-4a96-8b48-7cfcb4068f4f"},"vehicle_type_id":"4","last_reported":1736885411,"current_range_meters":15200,"station_id":"ce4bhip2rcd13ifvqft0","pricing_plan_id":"cebpf4jnsgd1na2vs0mg"},{"bike_id":"c93610bc-3721-4748-acac-88553ac5d9bb","system_id":"levelo_inurba_marseille","lat":43.26941,"lon":5.40246,"is_reserved":false,"is_disabled":false,"rental_uris":{"android":"levelo://app?vid=c93610bc-3721-4748-acac-88553ac5d9bb","ios":"levelo://app?vid=c93610bc-3721-4748-acac-88553ac5d9bb"},"vehicle_type_id":"4","last_reported":1736885411,"current_range_meters":16000,"station_id":"cjm6bp8fraef2m0cb0m0","pricing_plan_id":"cebpf4jnsgd1na2vs0mg"},{"bike_id":"0a8548c9-813b-46a1-8b3b-1cc1f7c8806b","system_id":"levelo_inurba_marseille","lat":43.27217,"lon":5.3916,"is_reserved":false,"is_disabled":true,"rental_uris":{"android":"levelo://app?vid=0a8548c9-813b-46a1-8b3b-1cc1f7c8806b","ios":"levelo://app?vid=0a8548c9-813b-46a1-8b3b-1cc1f7c8806b"},"vehicle_type_id":"4","last_reported":1736885411,"current_range_meters":0,"station_id":"ce4bhhp2rcd13ifvqfm0","pricing_plan_id":"cebpf4jnsgd1na2vs0mg"},{"bike_id":"ef61abed-a66d-4c60-9394-2d5716f5a006","system_id":"levelo_inurba_marseille","lat":43.28665,"lon":5.36355,"is_reserved":false,"is_disabled":false,"rental_uris":{"android":"levelo://app?vid=ef61abed-a66d-4c60-9394-2d5716f5a006","ios":"levelo://app?vid=ef61abed-a66d-4c60-9394-2d5716f5a006"},"vehicle_type_id":"4","last_reported":1736885411,"current_range_meters":17200,"station_id":"ce4bhah2rcd13ifvqej0","pricing_plan_id":"cebpf4jnsgd1na2vs0mg"},{"bike_id":"5a86aa09-db47-4e56-9eb9-20e0980df853","system_id":"levelo_inurba_marseille","lat":43.29097,"lon":5.38115,"is_reserved":false,"is_disabled":false,"rental_uris":{"android":"levelo://app?vid=5a86aa09-db47-4e56-9eb9-20e0980df853","ios":"levelo://app?vid=5a86aa09-db47-4e56-9eb9-20e0980df853"},"vehicle_type_id":"4","last_reported":1736885411,"current_range_meters":16800,"station_id":"ce4bh512rcd13ifvqe2g","pricing_plan_id":"cebpf4jnsgd1na2vs0mg"},{"bike_id":"4f2d34a7-3342-4e22-a054-687ce7d50b05","system_id":"levelo_inurba_marseille","lat":43.25862,"lon":5.39901,"is_reserved":false,"is_disabled":false,"rental_uris":{"android":"levelo://app?vid=4f2d34a7-3342-4e22-a054-687ce7d50b05","ios":"levelo://app?vid=4f2d34a7-3342-4e22-a054-687ce7d50b05"},"vehicle_type_id":"4","last_reported":1736885411,"current_range_meters":19600,"station_id":"ce4bhl92rcd13ifvqghg","pricing_plan_id":"cebpf4jnsgd1na2vs0mg"},{"bike_id":"6d2e54c1-0c27-453e-88d9-6d899bdc3cfc","system_id":"levelo_inurba_marseille","lat":43.23192,"lon":5.39987,"is_reserved":false,"is_disabled":false,"rental_uris":{"android":"levelo://app?vid=6d2e54c1-0c27-453e-88d9-6d899bdc3cfc","ios":"levelo://app?vid=6d2e54c1-0c27-453e-88d9-6d899bdc3cfc"},"vehicle_type_id":"4","last_reported":1736885411,"current_range_meters":38800,"station_id":"ce4bhn12rcd13ifvqgqg","pricing_plan_id":"cebpf4jnsgd1na2vs0mg"},{"bike_id":"e59d389b-e9db-459e-aa48-a198e3a7c796","system_id":"levelo_inurba_marseille","lat":43.27439,"lon":5.39409,"is_reserved":false,"is_disabled":false,"rental_uris":{"android":"levelo://app?vid=e59d389b-e9db-459e-aa48-a198e3a7c796","ios":"levelo://app?vid=e59d389b-e9db-459e-aa48-a198e3a7c796"},"vehicle_type_id":"4","last_reported":1736885411,"current_range_meters":7200,"station_id":"ce4bhdp2rcd13ifvqf20","pricing_plan_id":"cebpf4jnsgd1na2vs0mg"},{"bike_id":"4bf8e077-5992-436a-881c-2ce4e6a9dd0e","system_id":"levelo_inurba_marseille","lat":43.27215,"lon":5.39167,"is_reserved":false,"is_disabled":false,"rental_uris":{"android":"levelo://app?vid=4bf8e077-5992-436a-881c-2ce4e6a9dd0e","ios":"levelo://app?vid=4bf8e077-5992-436a-881c-2ce4e6a9dd0e"},"vehicle_type_id":"4","last_reported":1736885411,"current_range_meters":22000,"station_id":"ce4bhhp2rcd13ifvqfm0","pricing_plan_id":"cebpf4jnsgd1na2vs0mg"},{"bike_id":"abf0ee83-7bab-44f7-bed9-fd6daf3b18a1","system_id":"levelo_inurba_marseille","lat":43.285624,"lon":5.395057,"is_reserved":false,"is_disabled":false,"rental_uris":{"android":"levelo://app?vid=abf0ee83-7bab-44f7-bed9-fd6daf3b18a1","ios":"levelo://app?vid=abf0ee83-7bab-44f7-bed9-fd6daf3b18a1"},"vehicle_type_id":"4","last_reported":1736885411,"current_range_meters":38000,"station_id":"ce4bh292rcd13ifvqdg0","pricing_plan_id":"cebpf4jnsgd1na2vs0mg"},{"bike_id":"04358c5b-484d-4765-bd1a-8af61719f288","system_id":"levelo_inurba_marseille","lat":43.27049,"lon":5.40257,"is_reserved":false,"is_disabled":false,"rental_uris":{"android":"levelo://app?vid=04358c5b-484d-4765-bd1a-8af61719f288","ios":"levelo://app?vid=04358c5b-484d-4765-bd1a-8af61719f288"},"vehicle_type_id":"4","last_reported":1736885411,"current_range_meters":34000,"station_id":"ce4bhk92rcd13ifvqgc0","pricing_plan_id":"cebpf4jnsgd1na2vs0mg"},{"bike_id":"a402044d-1041-4786-a63f-9d18af3bc82f","system_id":"levelo_inurba_marseille","lat":43.24166,"lon":5.36384,"is_reserved":false,"is_disabled":false,"rental_uris":{"android":"levelo://app?vid=a402044d-1041-4786-a63f-9d18af3bc82f","ios":"levelo://app?vid=a402044d-1041-4786-a63f-9d18af3bc82f"},"vehicle_type_id":"4","last_reported":1736885411,"current_range_meters":38400,"station_id":"cpo36qri1sfpv3e86is0","pricing_plan_id":"cebpf4jnsgd1na2vs0mg"},{"bike_id":"8390f89b-9a45-4a4c-b5a4-a4475d49b89a","system_id":"levelo_inurba_marseille","lat":43.27202,"lon":5.39178,"is_reserved":false,"is_disabled":false,"rental_uris":{"android":"levelo://app?vid=8390f89b-9a45-4a4c-b5a4-a4475d49b89a","ios":"levelo://app?vid=8390f89b-9a45-4a4c-b5a4-a4475d49b89a"},"vehicle_type_id":"4","last_reported":1736885411,"current_range_meters":4000,"station_id":"ce4bhhp2rcd13ifvqfm0","pricing_plan_id":"cebpf4jnsgd1na2vs0mg"},{"bike_id":"1c5d72d2-22d6-429f-ba6f-84e11d9cdb3e","system_id":"levelo_inurba_marseille","lat":43.31527,"lon":5.38028,"is_reserved":false,"is_disabled":false,"rental_uris":{"android":"levelo://app?vid=1c5d72d2-22d6-429f-ba6f-84e11d9cdb3e","ios":"levelo://app?vid=1c5d72d2-22d6-429f-ba6f-84e11d9cdb3e"},"vehicle_type_id":"4","last_reported":1736885411,"current_range_meters":19600,"station_id":"ce4bhsp2rcd13ifvqi50","pricing_plan_id":"cebpf4jnsgd1na2vs0mg"},{"bike_id":"4ae990a2-1900-42b1-9f13-1f3e658accfe","system_id":"levelo_inurba_marseille","lat":43.28,"lon":5.40003,"is_reserved":false,"is_disabled":false,"rental_uris":{"android":"levelo://app?vid=4ae990a2-1900-42b1-9f13-1f3e658accfe","ios":"levelo://app?vid=4ae990a2-1900-42b1-9f13-1f3e658accfe"},"vehicle_type_id":"4","last_reported":1736885411,"current_range_meters":39200,"station_id":"ce4bho92rcd13ifvqh4g","pricing_plan_id":"cebpf4jnsgd1na2vs0mg"},{"bike_id":"f592ef44-2eff-44cf-92ed-692843871905","system_id":"levelo_inurba_marseille","lat":43.29266,"lon":5.36854,"is_reserved":false,"is_disabled":false,"rental_uris":{"android":"levelo://app?vid=f592ef44-2eff-44cf-92ed-692843871905","ios":"levelo://app?vid=f592ef44-2eff-44cf-92ed-692843871905"},"vehicle_type_id":"4","last_reported":1736885411,"current_range_meters":7200,"station_id":"ce4bhb12rcd13ifvqel0","pricing_plan_id":"cebpf4jnsgd1na2vs0mg"},{"bike_id":"c8e997c0-8580-4d0f-8d9f-0766596381e1","system_id":"levelo_inurba_marseille","lat":43.33921,"lon":5.37571,"is_reserved":false,"is_disabled":true,"rental_uris":{"android":"levelo://app?vid=c8e997c0-8580-4d0f-8d9f-0766596381e1","ios":"levelo://app?vid=c8e997c0-8580-4d0f-8d9f-0766596381e1"},"vehicle_type_id":"4","last_reported":1736885411,"current_range_meters":0,"station_id":"","pricing_plan_id":"cebpf4jnsgd1na2vs0mg"},{"bike_id":"140de28e-d84b-4549-920b-f5944a014864","system_id":"levelo_inurba_marseille","lat":43.27306,"lon":5.3908,"is_reserved":false,"is_disabled":false,"rental_uris":{"android":"levelo://app?vid=140de28e-d84b-4549-920b-f5944a014864","ios":"levelo://app?vid=140de28e-d84b-4549-920b-f5944a014864"},"vehicle_type_id":"4","last_reported":1736885411,"current_range_meters":23200,"station_id":"ce4bhgp2rcd13ifvqfe0","pricing_plan_id":"cebpf4jnsgd1na2vs0mg"},{"bike_id":"be5ae871-06ac-4218-b749-5f620bc3cb55","system_id":"levelo_inurba_marseille","lat":43.28852,"lon":5.35878,"is_reserved":false,"is_disabled":false,"rental_uris":{"android":"levelo://app?vid=be5ae871-06ac-4218-b749-5f620bc3cb55","ios":"levelo://app?vid=be5ae871-06ac-4218-b749-5f620bc3cb55"},"vehicle_type_id":"4","last_reported":1736885411,"current_range_meters":32000,"station_id":"ce4bhb12rcd13ifvqem0","pricing_plan_id":"cebpf4jnsgd1na2vs0mg"},{"bike_id":"ba5df164-d25c-4a1c-8679-1bd1a1db0642","system_id":"levelo_inurba_marseille","lat":43.3372,"lon":5.39194,"is_reserved":false,"is_disabled":false,"rental_uris":{"android":"levelo://app?vid=ba5df164-d25c-4a1c-8679-1bd1a1db0642","ios":"levelo://app?vid=ba5df164-d25c-4a1c-8679-1bd1a1db0642"},"vehicle_type_id":"4","last_reported":1736885411,"current_range_meters":34800,"station_id":"ce4bhr92rcd13ifvqhsg","pricing_plan_id":"cebpf4jnsgd1na2vs0mg"},{"bike_id":"84c14737-c732-47b4-8ed3-09b4b8466aac","system_id":"levelo_inurba_marseille","lat":43.28396,"lon":5.37507,"is_reserved":false,"is_disabled":false,"rental_uris":{"android":"levelo://app?vid=84c14737-c732-47b4-8ed3-09b4b8466aac","ios":"levelo://app?vid=84c14737-c732-47b4-8ed3-09b4b8466aac"},"vehicle_type_id":"4","last_reported":1736885411,"current_range_meters":7200,"station_id":"ce4bh412rcd13ifvqds0","pricing_plan_id":"cebpf4jnsgd1na2vs0mg"},{"bike_id":"d3c55a35-8db3-4ddd-8731-c2f619f28f47","system_id":"levelo_inurba_marseille","lat":43.2744,"lon":5.3941,"is_reserved":false,"is_disabled":false,"rental_uris":{"android":"levelo://app?vid=d3c55a35-8db3-4ddd-8731-c2f619f28f47","ios":"levelo://app?vid=d3c55a35-8db3-4ddd-8731-c2f619f28f47"},"vehicle_type_id":"4","last_reported":1736885411,"current_range_meters":34000,"station_id":"ce4bhdp2rcd13ifvqf20","pricing_plan_id":"cebpf4jnsgd1na2vs0mg"},{"bike_id":"b73f1401-d1f1-4db5-9249-1d420505c604","system_id":"levelo_inurba_marseille","lat":43.29538,"lon":5.38536,"is_reserved":false,"is_disabled":false,"rental_uris":{"android":"levelo://app?vid=b73f1401-d1f1-4db5-9249-1d420505c604","ios":"levelo://app?vid=b73f1401-d1f1-4db5-9249-1d420505c604"},"vehicle_type_id":"4","last_reported":1736885411,"current_range_meters":38800,"station_id":"ce4bgih2rcd13ifvqba0","pricing_plan_id":"cebpf4jnsgd1na2vs0mg"},{"bike_id":"a3d7ced1-e78a-40d4-a1cc-51990929ec11","system_id":"levelo_inurba_marseille","lat":43.27831,"lon":5.39207,"is_reserved":false,"is_disabled":false,"rental_uris":{"android":"levelo://app?vid=a3d7ced1-e78a-40d4-a1cc-51990929ec11","ios":"levelo://app?vid=a3d7ced1-e78a-40d4-a1cc-51990929ec11"},"vehicle_type_id":"4","last_reported":1736885411,"current_range_meters":39200,"station_id":"ce4bhjp2rcd13ifvqga0","pricing_plan_id":"cebpf4jnsgd1na2vs0mg"},{"bike_id":"ca939829-fffe-4670-b2aa-b9757d203f81","system_id":"levelo_inurba_marseille","lat":43.31324,"lon":5.39693,"is_reserved":false,"is_disabled":false,"rental_uris":{"android":"levelo://app?vid=ca939829-fffe-4670-b2aa-b9757d203f81","ios":"levelo://app?vid=ca939829-fffe-4670-b2aa-b9757d203f81"},"vehicle_type_id":"4","last_reported":1736885411,"current_range_meters":17600,"station_id":"ce4bgvp2rcd13ifvqcu0","pricing_plan_id":"cebpf4jnsgd1na2vs0mg"},{"bike_id":"f0691327-4efc-46db-9653-add386e0e1f0","system_id":"levelo_inurba_marseille","lat":43.28922,"lon":5.36629,"is_reserved":false,"is_disabled":false,"rental_uris":{"android":"levelo://app?vid=f0691327-4efc-46db-9653-add386e0e1f0","ios":"levelo://app?vid=f0691327-4efc-46db-9653-add386e0e1f0"},"vehicle_type_id":"4","last_reported":1736885411,"current_range_meters":39200,"station_id":"ce4bhap2rcd13ifvqek0","pricing_plan_id":"cebpf4jnsgd1na2vs0mg"},{"bike_id":"f0affcbc-ebfe-44a9-9dc4-35992b1c9661","system_id":"levelo_inurba_marseille","lat":43.29782,"lon":5.39334,"is_reserved":false,"is_disabled":false,"rental_uris":{"android":"levelo://app?vid=f0affcbc-ebfe-44a9-9dc4-35992b1c9661","ios":"levelo://app?vid=f0affcbc-ebfe-44a9-9dc4-35992b1c9661"},"vehicle_type_id":"4","last_reported":1736885411,"current_range_meters":6800,"station_id":"chh1huq6cuj3fo74tm60","pricing_plan_id":"cebpf4jnsgd1na2vs0mg"},{"bike_id":"49780bcb-42bd-43a4-ac67-97ab73136957","system_id":"levelo_inurba_marseille","lat":43.32545,"lon":5.41422,"is_reserved":false,"is_disabled":false,"rental_uris":{"android":"levelo://app?vid=49780bcb-42bd-43a4-ac67-97ab73136957","ios":"levelo://app?vid=49780bcb-42bd-43a4-ac67-97ab73136957"},"vehicle_type_id":"4","last_reported":1736885411,"current_range_meters":38400,"station_id":"ce4bhq12rcd13ifvqhhg","pricing_plan_id":"cebpf4jnsgd1na2vs0mg"},{"bike_id":"e81ef256-d7a3-4c28-9bcc-58b1fdfe2d9d","system_id":"levelo_inurba_marseille","lat":43.25105,"lon":5.40321,"is_reserved":false,"is_disabled":false,"rental_uris":{"android":"levelo://app?vid=e81ef256-d7a3-4c28-9bcc-58b1fdfe2d9d","ios":"levelo://app?vid=e81ef256-d7a3-4c28-9bcc-58b1fdfe2d9d"},"vehicle_type_id":"4","last_reported":1736885411,"current_range_meters":38800,"station_id":"ce4bhlh2rcd13ifvqgig","pricing_plan_id":"cebpf4jnsgd1na2vs0mg"},{"bike_id":"56030b9e-68b1-4127-a965-b3d8dac0c886","system_id":"levelo_inurba_marseille","lat":43.24807,"lon":5.37457,"is_reserved":false,"is_disabled":false,"rental_uris":{"android":"levelo://app?vid=56030b9e-68b1-4127-a965-b3d8dac0c886","ios":"levelo://app?vid=56030b9e-68b1-4127-a965-b3d8dac0c886"},"vehicle_type_id":"4","last_reported":1736885411,"current_range_meters":38800,"station_id":"ce4bhgh2rcd13ifvqfb0","pricing_plan_id":"cebpf4jnsgd1na2vs0mg"},{"bike_id":"ed626f63-b68e-4689-918c-7d8199b25721","system_id":"levelo_inurba_marseille","lat":43.30132,"lon":5.39875,"is_reserved":false,"is_disabled":false,"rental_uris":{"android":"levelo://app?vid=ed626f63-b68e-4689-918c-7d8199b25721","ios":"levelo://app?vid=ed626f63-b68e-4689-918c-7d8199b25721"},"vehicle_type_id":"4","last_reported":1736885411,"current_range_meters":3600,"station_id":"ce4bh0h2rcd13ifvqd40","pricing_plan_id":"cebpf4jnsgd1na2vs0mg"},{"bike_id":"426ee80e-06b0-4d0f-86a5-ea8ad64aaa11","system_id":"levelo_inurba_marseille","lat":43.2892,"lon":5.43765,"is_reserved":false,"is_disabled":false,"rental_uris":{"android":"levelo://app?vid=426ee80e-06b0-4d0f-86a5-ea8ad64aaa11","ios":"levelo://app?vid=426ee80e-06b0-4d0f-86a5-ea8ad64aaa11"},"vehicle_type_id":"4","last_reported":1736885411,"current_range_meters":4000,"station_id":"","pricing_plan_id":"cebpf4jnsgd1na2vs0mg"},{"bike_id":"67c6e9c1-f259-4721-a809-627a6182c8bf","system_id":"levelo_inurba_marseille","lat":43.26787,"lon":5.39426,"is_reserved":false,"is_disabled":false,"rental_uris":{"android":"levelo://app?vid=67c6e9c1-f259-4721-a809-627a6182c8bf","ios":"levelo://app?vid=67c6e9c1-f259-4721-a809-627a6182c8bf"},"vehicle_type_id":"4","last_reported":1736885411,"current_range_meters":8000,"station_id":"ce4bhh12rcd13ifvqfg0","pricing_plan_id":"cebpf4jnsgd1na2vs0mg"},{"bike_id":"192943ff-6579-4067-8b54-834fbf6d8760","system_id":"levelo_inurba_marseille","lat":43.27617,"lon":5.36111,"is_reserved":false,"is_disabled":false,"rental_uris":{"android":"levelo://app?vid=192943ff-6579-4067-8b54-834fbf6d8760","ios":"levelo://app?vid=192943ff-6579-4067-8b54-834fbf6d8760"},"vehicle_type_id":"4","last_reported":1736885411,"current_range_meters":38800,"station_id":"ce4bgj92rcd13ifvqbe0","pricing_plan_id":"cebpf4jnsgd1na2vs0mg"},{"bike_id":"fea1b24d-bbfb-474a-b028-8645483cd7e6","system_id":"levelo_inurba_marseille","lat":43.2738,"lon":5.36257,"is_reserved":false,"is_disabled":false,"rental_uris":{"android":"levelo://app?vid=fea1b24d-bbfb-474a-b028-8645483cd7e6","ios":"levelo://app?vid=fea1b24d-bbfb-474a-b028-8645483cd7e6"},"vehicle_type_id":"4","last_reported":1736885411,"current_range_meters":38800,"station_id":"ce4bhbh2rcd13ifvqeo0","pricing_plan_id":"cebpf4jnsgd1na2vs0mg"},{"bike_id":"1c7b5e81-4790-430e-bdea-a0c9f783fb13","system_id":"levelo_inurba_marseille","lat":43.24384,"lon":5.37059,"is_reserved":false,"is_disabled":false,"rental_uris":{"android":"levelo://app?vid=1c7b5e81-4790-430e-bdea-a0c9f783fb13","ios":"levelo://app?vid=1c7b5e81-4790-430e-bdea-a0c9f783fb13"},"vehicle_type_id":"4","last_reported":1736885411,"current_range_meters":34000,"station_id":"ce4bhhh2rcd13ifvqfk0","pricing_plan_id":"cebpf4jnsgd1na2vs0mg"},{"bike_id":"394c1459-78bd-449f-aeb6-57dbaef6e809","system_id":"levelo_inurba_marseille","lat":43.25828,"lon":5.39421,"is_reserved":false,"is_disabled":false,"rental_uris":{"android":"levelo://app?vid=394c1459-78bd-449f-aeb6-57dbaef6e809","ios":"levelo://app?vid=394c1459-78bd-449f-aeb6-57dbaef6e809"},"vehicle_type_id":"4","last_reported":1736885411,"current_range_meters":31200,"station_id":"ce4bhip2rcd13ifvqft0","pricing_plan_id":"cebpf4jnsgd1na2vs0mg"},{"bike_id":"8537741a-f022-433a-aa2f-fafdf7262883","system_id":"levelo_inurba_marseille","lat":43.27306,"lon":5.39068,"is_reserved":false,"is_disabled":false,"rental_uris":{"android":"levelo://app?vid=8537741a-f022-433a-aa2f-fafdf7262883","ios":"levelo://app?vid=8537741a-f022-433a-aa2f-fafdf7262883"},"vehicle_type_id":"4","last_reported":1736885411,"current_range_meters":32000,"station_id":"ce4bhgp2rcd13ifvqfe0","pricing_plan_id":"cebpf4jnsgd1na2vs0mg"},{"bike_id":"0ada6c01-b17d-4394-a9d3-60e5c6157127","system_id":"levelo_inurba_marseille","lat":43.31996,"lon":5.38164,"is_reserved":false,"is_disabled":false,"rental_uris":{"android":"levelo://app?vid=0ada6c01-b17d-4394-a9d3-60e5c6157127","ios":"levelo://app?vid=0ada6c01-b17d-4394-a9d3-60e5c6157127"},"vehicle_type_id":"4","last_reported":1736885411,"current_range_meters":32000,"station_id":"ce4bhr12rcd13ifvqhpg","pricing_plan_id":"cebpf4jnsgd1na2vs0mg"},{"bike_id":"cfc440b8-aa7c-49ea-8b84-bfb1f28ff602","system_id":"levelo_inurba_marseille","lat":43.28436,"lon":5.39205,"is_reserved":false,"is_disabled":false,"rental_uris":{"android":"levelo://app?vid=cfc440b8-aa7c-49ea-8b84-bfb1f28ff602","ios":"levelo://app?vid=cfc440b8-aa7c-49ea-8b84-bfb1f28ff602"},"vehicle_type_id":"4","last_reported":1736885411,"current_range_meters":24400,"station_id":"ce4bhoh2rcd13ifvqh5g","pricing_plan_id":"cebpf4jnsgd1na2vs0mg"},{"bike_id":"33599c56-d6e6-4e5d-9218-3b601dbbda24","system_id":"levelo_inurba_marseille","lat":43.30308,"lon":5.3919,"is_reserved":false,"is_disabled":true,"rental_uris":{"android":"levelo://app?vid=33599c56-d6e6-4e5d-9218-3b601dbbda24","ios":"levelo://app?vid=33599c56-d6e6-4e5d-9218-3b601dbbda24"},"vehicle_type_id":"4","last_reported":1736885411,"current_range_meters":8400,"station_id":"ce4bgkh2rcd13ifvqbk0","pricing_plan_id":"cebpf4jnsgd1na2vs0mg"},{"bike_id":"ae1fc273-8df9-43a4-b771-82687769b7cb","system_id":"levelo_inurba_marseille","lat":43.3234,"lon":5.40609,"is_reserved":false,"is_disabled":false,"rental_uris":{"android":"levelo://app?vid=ae1fc273-8df9-43a4-b771-82687769b7cb","ios":"levelo://app?vid=ae1fc273-8df9-43a4-b771-82687769b7cb"},"vehicle_type_id":"4","last_reported":1736885411,"current_range_meters":16000,"station_id":"ce4bhq92rcd13ifvqhjg","pricing_plan_id":"cebpf4jnsgd1na2vs0mg"},{"bike_id":"33948cef-159b-4075-a8c4-dd4eee89856a","system_id":"levelo_inurba_marseille","lat":43.23185,"lon":5.3999,"is_reserved":false,"is_disabled":false,"rental_uris":{"android":"levelo://app?vid=33948cef-159b-4075-a8c4-dd4eee89856a","ios":"levelo://app?vid=33948cef-159b-4075-a8c4-dd4eee89856a"},"vehicle_type_id":"4","last_reported":1736885411,"current_range_meters":26000,"station_id":"ce4bhn12rcd13ifvqgqg","pricing_plan_id":"cebpf4jnsgd1na2vs0mg"},{"bike_id":"ec4d7ef3-37f4-4003-80a6-21972954ebb8","system_id":"levelo_inurba_marseille","lat":43.27908,"lon":5.39572,"is_reserved":false,"is_disabled":true,"rental_uris":{"android":"levelo://app?vid=ec4d7ef3-37f4-4003-80a6-21972954ebb8","ios":"levelo://app?vid=ec4d7ef3-37f4-4003-80a6-21972954ebb8"},"vehicle_type_id":"4","last_reported":1736885411,"current_range_meters":1600,"station_id":"ce4bhf92rcd13ifvqf40","pricing_plan_id":"cebpf4jnsgd1na2vs0mg"},{"bike_id":"ffbbeede-c616-4792-9428-74f7297330e6","system_id":"levelo_inurba_marseille","lat":43.30077,"lon":5.39068,"is_reserved":false,"is_disabled":false,"rental_uris":{"android":"levelo://app?vid=ffbbeede-c616-4792-9428-74f7297330e6","ios":"levelo://app?vid=ffbbeede-c616-4792-9428-74f7297330e6"},"vehicle_type_id":"4","last_reported":1736885411,"current_range_meters":15200,"station_id":"ce4bh192rcd13ifvqdb0","pricing_plan_id":"cebpf4jnsgd1na2vs0mg"},{"bike_id":"7a30bf24-021e-43bb-9918-d4d7fe853a78","system_id":"levelo_inurba_marseille","lat":43.28678,"lon":5.38669,"is_reserved":false,"is_disabled":false,"rental_uris":{"android":"levelo://app?vid=7a30bf24-021e-43bb-9918-d4d7fe853a78","ios":"levelo://app?vid=7a30bf24-021e-43bb-9918-d4d7fe853a78"},"vehicle_type_id":"4","last_reported":1736885411,"current_range_meters":18000,"station_id":"ce4bh492rcd13ifvqdug","pricing_plan_id":"cebpf4jnsgd1na2vs0mg"},{"bike_id":"a1a925c1-025a-4e52-b724-c9c5776b8317","system_id":"levelo_inurba_marseille","lat":43.2513,"lon":5.40314,"is_reserved":false,"is_disabled":false,"rental_uris":{"android":"levelo://app?vid=a1a925c1-025a-4e52-b724-c9c5776b8317","ios":"levelo://app?vid=a1a925c1-025a-4e52-b724-c9c5776b8317"},"vehicle_type_id":"4","last_reported":1736885411,"current_range_meters":16000,"station_id":"ce4bhlh2rcd13ifvqgig","pricing_plan_id":"cebpf4jnsgd1na2vs0mg"},{"bike_id":"ac1b75ff-ff56-4e4e-9e99-c55f54da7bac","system_id":"levelo_inurba_marseille","lat":43.23188,"lon":5.39976,"is_reserved":false,"is_disabled":false,"rental_uris":{"android":"levelo://app?vid=ac1b75ff-ff56-4e4e-9e99-c55f54da7bac","ios":"levelo://app?vid=ac1b75ff-ff56-4e4e-9e99-c55f54da7bac"},"vehicle_type_id":"4","last_reported":1736885411,"current_range_meters":38000,"station_id":"ce4bhn12rcd13ifvqgqg","pricing_plan_id":"cebpf4jnsgd1na2vs0mg"},{"bike_id":"6f10a7a9-bb97-49c7-85da-0f17ee632f0c","system_id":"levelo_inurba_marseille","lat":43.30131,"lon":5.39876,"is_reserved":false,"is_disabled":false,"rental_uris":{"android":"levelo://app?vid=6f10a7a9-bb97-49c7-85da-0f17ee632f0c","ios":"levelo://app?vid=6f10a7a9-bb97-49c7-85da-0f17ee632f0c"},"vehicle_type_id":"4","last_reported":1736885411,"current_range_meters":25600,"station_id":"ce4bh0h2rcd13ifvqd40","pricing_plan_id":"cebpf4jnsgd1na2vs0mg"},{"bike_id":"a606ac67-d6ab-4d62-8bdf-aa3355e40bc4","system_id":"levelo_inurba_marseille","lat":43.27959,"lon":5.38716,"is_reserved":false,"is_disabled":false,"rental_uris":{"android":"levelo://app?vid=a606ac67-d6ab-4d62-8bdf-aa3355e40bc4","ios":"levelo://app?vid=a606ac67-d6ab-4d62-8bdf-aa3355e40bc4"},"vehicle_type_id":"4","last_reported":1736885411,"current_range_meters":22000,"station_id":"ce4bhg12rcd13ifvqf80","pricing_plan_id":"cebpf4jnsgd1na2vs0mg"},{"bike_id":"bd2a49e7-9d07-4f15-b828-9a1b13219faa","system_id":"levelo_inurba_marseille","lat":43.25861,"lon":5.39909,"is_reserved":false,"is_disabled":false,"rental_uris":{"android":"levelo://app?vid=bd2a49e7-9d07-4f15-b828-9a1b13219faa","ios":"levelo://app?vid=bd2a49e7-9d07-4f15-b828-9a1b13219faa"},"vehicle_type_id":"4","last_reported":1736885411,"current_range_meters":38000,"station_id":"ce4bhl92rcd13ifvqghg","pricing_plan_id":"cebpf4jnsgd1na2vs0mg"},{"bike_id":"36974145-3c31-468b-9760-88b99b61f26c","system_id":"levelo_inurba_marseille","lat":43.27207,"lon":5.4098,"is_reserved":false,"is_disabled":false,"rental_uris":{"android":"levelo://app?vid=36974145-3c31-468b-9760-88b99b61f26c","ios":"levelo://app?vid=36974145-3c31-468b-9760-88b99b61f26c"},"vehicle_type_id":"4","last_reported":1736885411,"current_range_meters":9200,"station_id":"ce4bhl12rcd13ifvqgf0","pricing_plan_id":"cebpf4jnsgd1na2vs0mg"},{"bike_id":"b3ef46ee-af87-4b83-b89f-a4a6c31fc767","system_id":"levelo_inurba_marseille","lat":43.33041,"lon":5.3901,"is_reserved":false,"is_disabled":false,"rental_uris":{"android":"levelo://app?vid=b3ef46ee-af87-4b83-b89f-a4a6c31fc767","ios":"levelo://app?vid=b3ef46ee-af87-4b83-b89f-a4a6c31fc767"},"vehicle_type_id":"4","last_reported":1736885411,"current_range_meters":29600,"station_id":"ce4bhr92rcd13ifvqhrg","pricing_plan_id":"cebpf4jnsgd1na2vs0mg"},{"bike_id":"755e5c0a-8de7-4ee5-9d4e-5ec609711170","system_id":"levelo_inurba_marseille","lat":43.29598,"lon":5.38088,"is_reserved":false,"is_disabled":true,"rental_uris":{"android":"levelo://app?vid=755e5c0a-8de7-4ee5-9d4e-5ec609711170","ios":"levelo://app?vid=755e5c0a-8de7-4ee5-9d4e-5ec609711170"},"vehicle_type_id":"4","last_reported":1736885411,"current_range_meters":29600,"station_id":"ce4bgl12rcd13ifvqbo0","pricing_plan_id":"cebpf4jnsgd1na2vs0mg"},{"bike_id":"8db550fd-eb45-432a-9274-e5fa52a89cd8","system_id":"levelo_inurba_marseille","lat":43.27208,"lon":5.39155,"is_reserved":false,"is_disabled":false,"rental_uris":{"android":"levelo://app?vid=8db550fd-eb45-432a-9274-e5fa52a89cd8","ios":"levelo://app?vid=8db550fd-eb45-432a-9274-e5fa52a89cd8"},"vehicle_type_id":"4","last_reported":1736885411,"current_range_meters":22000,"station_id":"ce4bhhp2rcd13ifvqfm0","pricing_plan_id":"cebpf4jnsgd1na2vs0mg"},{"bike_id":"a7fbea3a-5a32-40d9-90eb-52f8eeb9302a","system_id":"levelo_inurba_marseille","lat":43.28925,"lon":5.36633,"is_reserved":false,"is_disabled":false,"rental_uris":{"android":"levelo://app?vid=a7fbea3a-5a32-40d9-90eb-52f8eeb9302a","ios":"levelo://app?vid=a7fbea3a-5a32-40d9-90eb-52f8eeb9302a"},"vehicle_type_id":"4","last_reported":1736885411,"current_range_meters":38000,"station_id":"ce4bhap2rcd13ifvqek0","pricing_plan_id":"cebpf4jnsgd1na2vs0mg"},{"bike_id":"a15980ac-c225-4e68-8982-6cc8c4cbfd79","system_id":"levelo_inurba_marseille","lat":43.23185,"lon":5.3556,"is_reserved":false,"is_disabled":false,"rental_uris":{"android":"levelo://app?vid=a15980ac-c225-4e68-8982-6cc8c4cbfd79","ios":"levelo://app?vid=a15980ac-c225-4e68-8982-6cc8c4cbfd79"},"vehicle_type_id":"4","last_reported":1736885411,"current_range_meters":38800,"station_id":"ce4bhu92rcd13ifvqi70","pricing_plan_id":"cebpf4jnsgd1na2vs0mg"},{"bike_id":"83453f32-d1da-4127-8a6e-ffce1734df93","system_id":"levelo_inurba_marseille","lat":43.24801,"lon":5.37448,"is_reserved":false,"is_disabled":false,"rental_uris":{"android":"levelo://app?vid=83453f32-d1da-4127-8a6e-ffce1734df93","ios":"levelo://app?vid=83453f32-d1da-4127-8a6e-ffce1734df93"},"vehicle_type_id":"4","last_reported":1736885411,"current_range_meters":35600,"station_id":"ce4bhgh2rcd13ifvqfb0","pricing_plan_id":"cebpf4jnsgd1na2vs0mg"},{"bike_id":"f4acedbd-efad-4ed3-87b6-3302ef76e5a0","system_id":"levelo_inurba_marseille","lat":43.28846,"lon":5.35842,"is_reserved":false,"is_disabled":false,"rental_uris":{"android":"levelo://app?vid=f4acedbd-efad-4ed3-87b6-3302ef76e5a0","ios":"levelo://app?vid=f4acedbd-efad-4ed3-87b6-3302ef76e5a0"},"vehicle_type_id":"4","last_reported":1736885411,"current_range_meters":38800,"station_id":"ce4bhb12rcd13ifvqem0","pricing_plan_id":"cebpf4jnsgd1na2vs0mg"},{"bike_id":"665d259b-317d-40f1-b909-db8fa31f6b35","system_id":"levelo_inurba_marseille","lat":43.28435,"lon":5.39185,"is_reserved":false,"is_disabled":false,"rental_uris":{"android":"levelo://app?vid=665d259b-317d-40f1-b909-db8fa31f6b35","ios":"levelo://app?vid=665d259b-317d-40f1-b909-db8fa31f6b35"},"vehicle_type_id":"4","last_reported":1736885411,"current_range_meters":39200,"station_id":"ce4bhoh2rcd13ifvqh5g","pricing_plan_id":"cebpf4jnsgd1na2vs0mg"},{"bike_id":"3c07fa6e-f4f9-404f-a9a8-7f19979108f6","system_id":"levelo_inurba_marseille","lat":43.32109,"lon":5.36762,"is_reserved":false,"is_disabled":false,"rental_uris":{"android":"levelo://app?vid=3c07fa6e-f4f9-404f-a9a8-7f19979108f6","ios":"levelo://app?vid=3c07fa6e-f4f9-404f-a9a8-7f19979108f6"},"vehicle_type_id":"4","last_reported":1736885411,"current_range_meters":27200,"station_id":"ce4bhrh2rcd13ifvqhug","pricing_plan_id":"cebpf4jnsgd1na2vs0mg"},{"bike_id":"e8536dca-3bcf-4e4f-b753-94dc6cbf864a","system_id":"levelo_inurba_marseille","lat":43.28661,"lon":5.36335,"is_reserved":false,"is_disabled":false,"rental_uris":{"android":"levelo://app?vid=e8536dca-3bcf-4e4f-b753-94dc6cbf864a","ios":"levelo://app?vid=e8536dca-3bcf-4e4f-b753-94dc6cbf864a"},"vehicle_type_id":"4","last_reported":1736885411,"current_range_meters":19200,"station_id":"ce4bhah2rcd13ifvqej0","pricing_plan_id":"cebpf4jnsgd1na2vs0mg"},{"bike_id":"3f404148-f2c7-44b8-a466-977741fe2f8d","system_id":"levelo_inurba_marseille","lat":43.27934,"lon":5.39589,"is_reserved":false,"is_disabled":false,"rental_uris":{"android":"levelo://app?vid=3f404148-f2c7-44b8-a466-977741fe2f8d","ios":"levelo://app?vid=3f404148-f2c7-44b8-a466-977741fe2f8d"},"vehicle_type_id":"4","last_reported":1736885411,"current_range_meters":28000,"station_id":"ce4bhf92rcd13ifvqf40","pricing_plan_id":"cebpf4jnsgd1na2vs0mg"},{"bike_id":"8c7c350d-62c8-4109-bb83-13dd226d5346","system_id":"levelo_inurba_marseille","lat":43.2843,"lon":5.37505,"is_reserved":false,"is_disabled":false,"rental_uris":{"android":"levelo://app?vid=8c7c350d-62c8-4109-bb83-13dd226d5346","ios":"levelo://app?vid=8c7c350d-62c8-4109-bb83-13dd226d5346"},"vehicle_type_id":"4","last_reported":1736885411,"current_range_meters":9200,"station_id":"ce4bh412rcd13ifvqds0","pricing_plan_id":"cebpf4jnsgd1na2vs0mg"},{"bike_id":"34a0783c-0605-41d7-932b-4fc97f12d7a6","system_id":"levelo_inurba_marseille","lat":43.27952,"lon":5.3873,"is_reserved":false,"is_disabled":false,"rental_uris":{"android":"levelo://app?vid=34a0783c-0605-41d7-932b-4fc97f12d7a6","ios":"levelo://app?vid=34a0783c-0605-41d7-932b-4fc97f12d7a6"},"vehicle_type_id":"4","last_reported":1736885411,"current_range_meters":38000,"station_id":"ce4bhg12rcd13ifvqf80","pricing_plan_id":"cebpf4jnsgd1na2vs0mg"},{"bike_id":"51bb6953-dea8-4e82-96bf-52696267905f","system_id":"levelo_inurba_marseille","lat":43.23053,"lon":5.35498,"is_reserved":false,"is_disabled":false,"rental_uris":{"android":"levelo://app?vid=51bb6953-dea8-4e82-96bf-52696267905f","ios":"levelo://app?vid=51bb6953-dea8-4e82-96bf-52696267905f"},"vehicle_type_id":"4","last_reported":1736885411,"current_range_meters":8000,"station_id":"cpo3342slgdg3j2ifvpg","pricing_plan_id":"cebpf4jnsgd1na2vs0mg"},{"bike_id":"47c1ac4b-4a31-402d-8064-4cf430df89ed","system_id":"levelo_inurba_marseille","lat":43.27969,"lon":5.38741,"is_reserved":false,"is_disabled":false,"rental_uris":{"android":"levelo://app?vid=47c1ac4b-4a31-402d-8064-4cf430df89ed","ios":"levelo://app?vid=47c1ac4b-4a31-402d-8064-4cf430df89ed"},"vehicle_type_id":"4","last_reported":1736885411,"current_range_meters":32000,"station_id":"ce4bhg12rcd13ifvqf80","pricing_plan_id":"cebpf4jnsgd1na2vs0mg"},{"bike_id":"eed58033-fa47-4e42-ac28-5d945be79d6b","system_id":"levelo_inurba_marseille","lat":43.28436,"lon":5.3751,"is_reserved":false,"is_disabled":false,"rental_uris":{"android":"levelo://app?vid=eed58033-fa47-4e42-ac28-5d945be79d6b","ios":"levelo://app?vid=eed58033-fa47-4e42-ac28-5d945be79d6b"},"vehicle_type_id":"4","last_reported":1736885411,"current_range_meters":32000,"station_id":"ce4bh412rcd13ifvqds0","pricing_plan_id":"cebpf4jnsgd1na2vs0mg"},{"bike_id":"8cd32c75-b94d-4649-9d24-e69c46512a2c","system_id":"levelo_inurba_marseille","lat":43.27913,"lon":5.39578,"is_reserved":false,"is_disabled":false,"rental_uris":{"android":"levelo://app?vid=8cd32c75-b94d-4649-9d24-e69c46512a2c","ios":"levelo://app?vid=8cd32c75-b94d-4649-9d24-e69c46512a2c"},"vehicle_type_id":"4","last_reported":1736885411,"current_range_meters":35200,"station_id":"ce4bhf92rcd13ifvqf40","pricing_plan_id":"cebpf4jnsgd1na2vs0mg"},{"bike_id":"89e3013e-a258-4d46-8149-9d198ab9da82","system_id":"levelo_inurba_marseille","lat":43.27212,"lon":5.39174,"is_reserved":false,"is_disabled":false,"rental_uris":{"android":"levelo://app?vid=89e3013e-a258-4d46-8149-9d198ab9da82","ios":"levelo://app?vid=89e3013e-a258-4d46-8149-9d198ab9da82"},"vehicle_type_id":"4","last_reported":1736885411,"current_range_meters":9200,"station_id":"ce4bhhp2rcd13ifvqfm0","pricing_plan_id":"cebpf4jnsgd1na2vs0mg"},{"bike_id":"bae33d3d-b9cd-41c9-94f8-bb5d03a8caf9","system_id":"levelo_inurba_marseille","lat":43.2909,"lon":5.38112,"is_reserved":false,"is_disabled":false,"rental_uris":{"android":"levelo://app?vid=bae33d3d-b9cd-41c9-94f8-bb5d03a8caf9","ios":"levelo://app?vid=bae33d3d-b9cd-41c9-94f8-bb5d03a8caf9"},"vehicle_type_id":"4","last_reported":1736885411,"current_range_meters":22000,"station_id":"ce4bh512rcd13ifvqe2g","pricing_plan_id":"cebpf4jnsgd1na2vs0mg"},{"bike_id":"92cc8063-aed1-49c2-93f4-c1f73d681504","system_id":"levelo_inurba_marseille","lat":43.27313,"lon":5.39088,"is_reserved":false,"is_disabled":false,"rental_uris":{"android":"levelo://app?vid=92cc8063-aed1-49c2-93f4-c1f73d681504","ios":"levelo://app?vid=92cc8063-aed1-49c2-93f4-c1f73d681504"},"vehicle_type_id":"4","last_reported":1736885411,"current_range_meters":38800,"station_id":"ce4bhgp2rcd13ifvqfe0","pricing_plan_id":"cebpf4jnsgd1na2vs0mg"},{"bike_id":"c4a8dadf-2d26-4438-8022-6780136cb89c","system_id":"levelo_inurba_marseille","lat":43.27617,"lon":5.36103,"is_reserved":false,"is_disabled":false,"rental_uris":{"android":"levelo://app?vid=c4a8dadf-2d26-4438-8022-6780136cb89c","ios":"levelo://app?vid=c4a8dadf-2d26-4438-8022-6780136cb89c"},"vehicle_type_id":"4","last_reported":1736885411,"current_range_meters":34800,"station_id":"ce4bgj92rcd13ifvqbe0","pricing_plan_id":"cebpf4jnsgd1na2vs0mg"},{"bike_id":"a5bf1a4f-cd65-4a5f-b5a9-ac4f6ddd4b01","system_id":"levelo_inurba_marseille","lat":43.27208,"lon":5.39183,"is_reserved":false,"is_disabled":false,"rental_uris":{"android":"levelo://app?vid=a5bf1a4f-cd65-4a5f-b5a9-ac4f6ddd4b01","ios":"levelo://app?vid=a5bf1a4f-cd65-4a5f-b5a9-ac4f6ddd4b01"},"vehicle_type_id":"4","last_reported":1736885411,"current_range_meters":39200,"station_id":"ce4bhhp2rcd13ifvqfm0","pricing_plan_id":"cebpf4jnsgd1na2vs0mg"},{"bike_id":"f6b5a21b-caca-4bab-9767-62a516c88435","system_id":"levelo_inurba_marseille","lat":43.24658,"lon":5.38901,"is_reserved":false,"is_disabled":false,"rental_uris":{"android":"levelo://app?vid=f6b5a21b-caca-4bab-9767-62a516c88435","ios":"levelo://app?vid=f6b5a21b-caca-4bab-9767-62a516c88435"},"vehicle_type_id":"4","last_reported":1736885411,"current_range_meters":28800,"station_id":"ce4bhg12rcd13ifvqf60","pricing_plan_id":"cebpf4jnsgd1na2vs0mg"},{"bike_id":"1ab3f322-8e8f-40bf-b46a-ad736fdeffee","system_id":"levelo_inurba_marseille","lat":43.23152,"lon":5.43717,"is_reserved":false,"is_disabled":true,"rental_uris":{"android":"levelo://app?vid=1ab3f322-8e8f-40bf-b46a-ad736fdeffee","ios":"levelo://app?vid=1ab3f322-8e8f-40bf-b46a-ad736fdeffee"},"vehicle_type_id":"4","last_reported":1736885411,"current_range_meters":0,"station_id":"ce4bhmp2rcd13ifvqgog","pricing_plan_id":"cebpf4jnsgd1na2vs0mg"},{"bike_id":"19ff6ddf-111e-45c4-974b-ceb990b02c6d","system_id":"levelo_inurba_marseille","lat":43.29051,"lon":5.35918,"is_reserved":false,"is_disabled":false,"rental_uris":{"android":"levelo://app?vid=19ff6ddf-111e-45c4-974b-ceb990b02c6d","ios":"levelo://app?vid=19ff6ddf-111e-45c4-974b-ceb990b02c6d"},"vehicle_type_id":"4","last_reported":1736885411,"current_range_meters":23200,"station_id":"ce4bha92rcd13ifvqeg0","pricing_plan_id":"cebpf4jnsgd1na2vs0mg"},{"bike_id":"a9e8d49a-2ba2-4689-b32f-e928cab22a0c","system_id":"levelo_inurba_marseille","lat":43.29541,"lon":5.38536,"is_reserved":false,"is_disabled":false,"rental_uris":{"android":"levelo://app?vid=a9e8d49a-2ba2-4689-b32f-e928cab22a0c","ios":"levelo://app?vid=a9e8d49a-2ba2-4689-b32f-e928cab22a0c"},"vehicle_type_id":"4","last_reported":1736885411,"current_range_meters":35600,"station_id":"ce4bgih2rcd13ifvqba0","pricing_plan_id":"cebpf4jnsgd1na2vs0mg"},{"bike_id":"53206026-addf-4a65-8fa0-3fc174184ef4","system_id":"levelo_inurba_marseille","lat":43.31752,"lon":5.39025,"is_reserved":false,"is_disabled":false,"rental_uris":{"android":"levelo://app?vid=53206026-addf-4a65-8fa0-3fc174184ef4","ios":"levelo://app?vid=53206026-addf-4a65-8fa0-3fc174184ef4"},"vehicle_type_id":"4","last_reported":1736885411,"current_range_meters":32000,"station_id":"ce4bhqp2rcd13ifvqhng","pricing_plan_id":"cebpf4jnsgd1na2vs0mg"},{"bike_id":"b328758c-1306-4f48-9fa3-7f9b48fccfe1","system_id":"levelo_inurba_marseille","lat":43.23197,"lon":5.39973,"is_reserved":false,"is_disabled":false,"rental_uris":{"android":"levelo://app?vid=b328758c-1306-4f48-9fa3-7f9b48fccfe1","ios":"levelo://app?vid=b328758c-1306-4f48-9fa3-7f9b48fccfe1"},"vehicle_type_id":"4","last_reported":1736885411,"current_range_meters":17600,"station_id":"ce4bhn12rcd13ifvqgqg","pricing_plan_id":"cebpf4jnsgd1na2vs0mg"},{"bike_id":"a56bdef2-14b8-4e02-b3bc-538917283971","system_id":"levelo_inurba_marseille","lat":43.25062,"lon":5.39535,"is_reserved":false,"is_disabled":false,"rental_uris":{"android":"levelo://app?vid=a56bdef2-14b8-4e02-b3bc-538917283971","ios":"levelo://app?vid=a56bdef2-14b8-4e02-b3bc-538917283971"},"vehicle_type_id":"4","last_reported":1736885411,"current_range_meters":30400,"station_id":"ce4bhm12rcd13ifvqgkg","pricing_plan_id":"cebpf4jnsgd1na2vs0mg"},{"bike_id":"a52157ac-8e91-432f-8bbe-5045a7e0eb37","system_id":"levelo_inurba_marseille","lat":43.28721,"lon":5.37941,"is_reserved":false,"is_disabled":false,"rental_uris":{"android":"levelo://app?vid=a52157ac-8e91-432f-8bbe-5045a7e0eb37","ios":"levelo://app?vid=a52157ac-8e91-432f-8bbe-5045a7e0eb37"},"vehicle_type_id":"4","last_reported":1736885411,"current_range_meters":15200,"station_id":"ce4bh9p2rcd13ifvqec0","pricing_plan_id":"cebpf4jnsgd1na2vs0mg"},{"bike_id":"d677a909-27ad-4353-b4cf-7fba66a9d9f6","system_id":"levelo_inurba_marseille","lat":43.26553,"lon":5.37295,"is_reserved":false,"is_disabled":false,"rental_uris":{"android":"levelo://app?vid=d677a909-27ad-4353-b4cf-7fba66a9d9f6","ios":"levelo://app?vid=d677a909-27ad-4353-b4cf-7fba66a9d9f6"},"vehicle_type_id":"4","last_reported":1736885411,"current_range_meters":18000,"station_id":"ce4bhg12rcd13ifvqf70","pricing_plan_id":"cebpf4jnsgd1na2vs0mg"},{"bike_id":"b82e6190-b9e8-496f-a002-b39f52a66828","system_id":"levelo_inurba_marseille","lat":43.28935,"lon":5.36632,"is_reserved":false,"is_disabled":false,"rental_uris":{"android":"levelo://app?vid=b82e6190-b9e8-496f-a002-b39f52a66828","ios":"levelo://app?vid=b82e6190-b9e8-496f-a002-b39f52a66828"},"vehicle_type_id":"4","last_reported":1736885411,"current_range_meters":16800,"station_id":"ce4bhap2rcd13ifvqek0","pricing_plan_id":"cebpf4jnsgd1na2vs0mg"},{"bike_id":"ac72bd68-fe43-417d-8d4d-367f04db8c3c","system_id":"levelo_inurba_marseille","lat":43.31682,"lon":5.43702,"is_reserved":false,"is_disabled":false,"rental_uris":{"android":"levelo://app?vid=ac72bd68-fe43-417d-8d4d-367f04db8c3c","ios":"levelo://app?vid=ac72bd68-fe43-417d-8d4d-367f04db8c3c"},"vehicle_type_id":"4","last_reported":1736885411,"current_range_meters":20800,"station_id":"ce4bhp92rcd13ifvqhcg","pricing_plan_id":"cebpf4jnsgd1na2vs0mg"},{"bike_id":"b51b8509-c21e-40ac-802b-edd56e55cdd0","system_id":"levelo_inurba_marseille","lat":43.30355,"lon":5.41867,"is_reserved":false,"is_disabled":true,"rental_uris":{"android":"levelo://app?vid=b51b8509-c21e-40ac-802b-edd56e55cdd0","ios":"levelo://app?vid=b51b8509-c21e-40ac-802b-edd56e55cdd0"},"vehicle_type_id":"4","last_reported":1736885411,"current_range_meters":19200,"station_id":"ce4bhop2rcd13ifvqh7g","pricing_plan_id":"cebpf4jnsgd1na2vs0mg"},{"bike_id":"72df9525-fda0-466d-a3e3-4c52dcdcb44b","system_id":"levelo_inurba_marseille","lat":43.26928,"lon":5.38659,"is_reserved":false,"is_disabled":false,"rental_uris":{"android":"levelo://app?vid=72df9525-fda0-466d-a3e3-4c52dcdcb44b","ios":"levelo://app?vid=72df9525-fda0-466d-a3e3-4c52dcdcb44b"},"vehicle_type_id":"4","last_reported":1736885411,"current_range_meters":31200,"station_id":"ce4bhh92rcd13ifvqfh0","pricing_plan_id":"cebpf4jnsgd1na2vs0mg"},{"bike_id":"91faf942-6ac2-4015-8913-27ed845296fd","system_id":"levelo_inurba_marseille","lat":43.28957,"lon":5.36372,"is_reserved":false,"is_disabled":false,"rental_uris":{"android":"levelo://app?vid=91faf942-6ac2-4015-8913-27ed845296fd","ios":"levelo://app?vid=91faf942-6ac2-4015-8913-27ed845296fd"},"vehicle_type_id":"4","last_reported":1736885411,"current_range_meters":38800,"station_id":"ce4bhc92rcd13ifvqetg","pricing_plan_id":"cebpf4jnsgd1na2vs0mg"},{"bike_id":"6119ec85-494a-4a3c-bf67-c0675e64b0e1","system_id":"levelo_inurba_marseille","lat":43.25729,"lon":5.41106,"is_reserved":false,"is_disabled":false,"rental_uris":{"android":"levelo://app?vid=6119ec85-494a-4a3c-bf67-c0675e64b0e1","ios":"levelo://app?vid=6119ec85-494a-4a3c-bf67-c0675e64b0e1"},"vehicle_type_id":"4","last_reported":1736885411,"current_range_meters":38000,"station_id":"ce4bhkp2rcd13ifvqgd0","pricing_plan_id":"cebpf4jnsgd1na2vs0mg"},{"bike_id":"5a91ba28-6bde-4a64-ab8b-4c3edb00bfd7","system_id":"levelo_inurba_marseille","lat":43.2781,"lon":5.40715,"is_reserved":false,"is_disabled":false,"rental_uris":{"android":"levelo://app?vid=5a91ba28-6bde-4a64-ab8b-4c3edb00bfd7","ios":"levelo://app?vid=5a91ba28-6bde-4a64-ab8b-4c3edb00bfd7"},"vehicle_type_id":"4","last_reported":1736885411,"current_range_meters":10800,"station_id":"ce4bhnh2rcd13ifvqgtg","pricing_plan_id":"cebpf4jnsgd1na2vs0mg"},{"bike_id":"b3e35a67-739e-4943-9329-8541a5d64a33","system_id":"levelo_inurba_marseille","lat":43.25078,"lon":5.39495,"is_reserved":false,"is_disabled":false,"rental_uris":{"android":"levelo://app?vid=b3e35a67-739e-4943-9329-8541a5d64a33","ios":"levelo://app?vid=b3e35a67-739e-4943-9329-8541a5d64a33"},"vehicle_type_id":"4","last_reported":1736885411,"current_range_meters":26000,"station_id":"ce4bhm12rcd13ifvqgkg","pricing_plan_id":"cebpf4jnsgd1na2vs0mg"},{"bike_id":"13d8461e-0932-4011-b23f-f1f784c30a3e","system_id":"levelo_inurba_marseille","lat":43.25024,"lon":5.38901,"is_reserved":false,"is_disabled":true,"rental_uris":{"android":"levelo://app?vid=13d8461e-0932-4011-b23f-f1f784c30a3e","ios":"levelo://app?vid=13d8461e-0932-4011-b23f-f1f784c30a3e"},"vehicle_type_id":"4","last_reported":1736885411,"current_range_meters":7200,"station_id":"ce4bhgp2rcd13ifvqfd0","pricing_plan_id":"cebpf4jnsgd1na2vs0mg"},{"bike_id":"63053190-3765-40ca-a92a-db46b4b76ee8","system_id":"levelo_inurba_marseille","lat":43.29901,"lon":5.3649,"is_reserved":false,"is_disabled":false,"rental_uris":{"android":"levelo://app?vid=63053190-3765-40ca-a92a-db46b4b76ee8","ios":"levelo://app?vid=63053190-3765-40ca-a92a-db46b4b76ee8"},"vehicle_type_id":"4","last_reported":1736885411,"current_range_meters":14000,"station_id":"ce4bgm92rcd13ifvqbr0","pricing_plan_id":"cebpf4jnsgd1na2vs0mg"},{"bike_id":"1e6ca203-8251-496f-a5de-d2e6081e75b5","system_id":"levelo_inurba_marseille","lat":43.26808,"lon":5.40268,"is_reserved":false,"is_disabled":false,"rental_uris":{"android":"levelo://app?vid=1e6ca203-8251-496f-a5de-d2e6081e75b5","ios":"levelo://app?vid=1e6ca203-8251-496f-a5de-d2e6081e75b5"},"vehicle_type_id":"4","last_reported":1736885411,"current_range_meters":32800,"station_id":"ce501612rcd8frsf0b60","pricing_plan_id":"cebpf4jnsgd1na2vs0mg"},{"bike_id":"7ccb2c0c-9e4a-414b-b51e-882e90241c90","system_id":"levelo_inurba_marseille","lat":43.2843,"lon":5.39173,"is_reserved":false,"is_disabled":false,"rental_uris":{"android":"levelo://app?vid=7ccb2c0c-9e4a-414b-b51e-882e90241c90","ios":"levelo://app?vid=7ccb2c0c-9e4a-414b-b51e-882e90241c90"},"vehicle_type_id":"4","last_reported":1736885411,"current_range_meters":10800,"station_id":"ce4bhoh2rcd13ifvqh5g","pricing_plan_id":"cebpf4jnsgd1na2vs0mg"},{"bike_id":"6d5531ab-8481-4086-b696-2b5d290876aa","system_id":"levelo_inurba_marseille","lat":43.270559,"lon":5.40261,"is_reserved":false,"is_disabled":false,"rental_uris":{"android":"levelo://app?vid=6d5531ab-8481-4086-b696-2b5d290876aa","ios":"levelo://app?vid=6d5531ab-8481-4086-b696-2b5d290876aa"},"vehicle_type_id":"4","last_reported":1736885411,"current_range_meters":15200,"station_id":"ce4bhk92rcd13ifvqgc0","pricing_plan_id":"cebpf4jnsgd1na2vs0mg"},{"bike_id":"09336798-baa9-461f-921e-c75c2db26205","system_id":"levelo_inurba_marseille","lat":43.284207,"lon":5.385943,"is_reserved":false,"is_disabled":true,"rental_uris":{"android":"levelo://app?vid=09336798-baa9-461f-921e-c75c2db26205","ios":"levelo://app?vid=09336798-baa9-461f-921e-c75c2db26205"},"vehicle_type_id":"4","last_reported":1736885411,"current_range_meters":0,"station_id":"","pricing_plan_id":"cebpf4jnsgd1na2vs0mg"},{"bike_id":"f0e8402d-4472-47c3-8835-de5a76db090e","system_id":"levelo_inurba_marseille","lat":43.310611,"lon":5.383367,"is_reserved":false,"is_disabled":false,"rental_uris":{"android":"levelo://app?vid=f0e8402d-4472-47c3-8835-de5a76db090e","ios":"levelo://app?vid=f0e8402d-4472-47c3-8835-de5a76db090e"},"vehicle_type_id":"4","last_reported":1736885411,"current_range_meters":11600,"station_id":"ce4bgv92rcd13ifvqcr0","pricing_plan_id":"cebpf4jnsgd1na2vs0mg"},{"bike_id":"54562beb-d62d-45a9-aee6-6ac8321e0e4a","system_id":"levelo_inurba_marseille","lat":43.29807,"lon":5.40405,"is_reserved":false,"is_disabled":false,"rental_uris":{"android":"levelo://app?vid=54562beb-d62d-45a9-aee6-6ac8321e0e4a","ios":"levelo://app?vid=54562beb-d62d-45a9-aee6-6ac8321e0e4a"},"vehicle_type_id":"4","last_reported":1736885411,"current_range_meters":6400,"station_id":"ce4bh112rcd13ifvqd90","pricing_plan_id":"cebpf4jnsgd1na2vs0mg"},{"bike_id":"64bea19c-156d-4d61-961b-e2dbed8ca861","system_id":"levelo_inurba_marseille","lat":43.2572,"lon":5.411,"is_reserved":false,"is_disabled":false,"rental_uris":{"android":"levelo://app?vid=64bea19c-156d-4d61-961b-e2dbed8ca861","ios":"levelo://app?vid=64bea19c-156d-4d61-961b-e2dbed8ca861"},"vehicle_type_id":"4","last_reported":1736885411,"current_range_meters":38800,"station_id":"ce4bhkp2rcd13ifvqgd0","pricing_plan_id":"cebpf4jnsgd1na2vs0mg"},{"bike_id":"3ab26579-f4e3-4bf0-af70-a98271b1c8a7","system_id":"levelo_inurba_marseille","lat":43.32353,"lon":5.38913,"is_reserved":false,"is_disabled":false,"rental_uris":{"android":"levelo://app?vid=3ab26579-f4e3-4bf0-af70-a98271b1c8a7","ios":"levelo://app?vid=3ab26579-f4e3-4bf0-af70-a98271b1c8a7"},"vehicle_type_id":"4","last_reported":1736885411,"current_range_meters":28800,"station_id":"ce4bhqp2rcd13ifvqhog","pricing_plan_id":"cebpf4jnsgd1na2vs0mg"},{"bike_id":"733c84d1-b906-45a9-b7c5-d0ec2361f65c","system_id":"levelo_inurba_marseille","lat":43.24673,"lon":5.38154,"is_reserved":false,"is_disabled":false,"rental_uris":{"android":"levelo://app?vid=733c84d1-b906-45a9-b7c5-d0ec2361f65c","ios":"levelo://app?vid=733c84d1-b906-45a9-b7c5-d0ec2361f65c"},"vehicle_type_id":"4","last_reported":1736885411,"current_range_meters":16800,"station_id":"ce4bhih2rcd13ifvqfr0","pricing_plan_id":"cebpf4jnsgd1na2vs0mg"},{"bike_id":"f9ce95c3-822e-4269-bce0-05525df4c812","system_id":"levelo_inurba_marseille","lat":43.27376,"lon":5.36255,"is_reserved":false,"is_disabled":false,"rental_uris":{"android":"levelo://app?vid=f9ce95c3-822e-4269-bce0-05525df4c812","ios":"levelo://app?vid=f9ce95c3-822e-4269-bce0-05525df4c812"},"vehicle_type_id":"4","last_reported":1736885411,"current_range_meters":33200,"station_id":"ce4bhbh2rcd13ifvqeo0","pricing_plan_id":"cebpf4jnsgd1na2vs0mg"},{"bike_id":"fc5a2978-9e81-40aa-befb-f736a12e7b56","system_id":"levelo_inurba_marseille","lat":43.31761,"lon":5.39017,"is_reserved":false,"is_disabled":false,"rental_uris":{"android":"levelo://app?vid=fc5a2978-9e81-40aa-befb-f736a12e7b56","ios":"levelo://app?vid=fc5a2978-9e81-40aa-befb-f736a12e7b56"},"vehicle_type_id":"4","last_reported":1736885411,"current_range_meters":18800,"station_id":"ce4bhqp2rcd13ifvqhng","pricing_plan_id":"cebpf4jnsgd1na2vs0mg"},{"bike_id":"20049c3b-0016-46c3-ac7f-11dfb4f0e712","system_id":"levelo_inurba_marseille","lat":43.26938,"lon":5.40251,"is_reserved":false,"is_disabled":false,"rental_uris":{"android":"levelo://app?vid=20049c3b-0016-46c3-ac7f-11dfb4f0e712","ios":"levelo://app?vid=20049c3b-0016-46c3-ac7f-11dfb4f0e712"},"vehicle_type_id":"4","last_reported":1736885411,"current_range_meters":24800,"station_id":"cjm6bp8fraef2m0cb0m0","pricing_plan_id":"cebpf4jnsgd1na2vs0mg"},{"bike_id":"b2084cb6-8cf7-4532-ba95-614f5c2766a4","system_id":"levelo_inurba_marseille","lat":43.28105,"lon":5.37838,"is_reserved":false,"is_disabled":false,"rental_uris":{"android":"levelo://app?vid=b2084cb6-8cf7-4532-ba95-614f5c2766a4","ios":"levelo://app?vid=b2084cb6-8cf7-4532-ba95-614f5c2766a4"},"vehicle_type_id":"4","last_reported":1736885411,"current_range_meters":3200,"station_id":"ce4bha12rcd13ifvqee0","pricing_plan_id":"cebpf4jnsgd1na2vs0mg"},{"bike_id":"6aaac62b-46d6-4196-b308-1f0e2230de84","system_id":"levelo_inurba_marseille","lat":43.28913,"lon":5.36626,"is_reserved":false,"is_disabled":false,"rental_uris":{"android":"levelo://app?vid=6aaac62b-46d6-4196-b308-1f0e2230de84","ios":"levelo://app?vid=6aaac62b-46d6-4196-b308-1f0e2230de84"},"vehicle_type_id":"4","last_reported":1736885411,"current_range_meters":38800,"station_id":"ce4bhap2rcd13ifvqek0","pricing_plan_id":"cebpf4jnsgd1na2vs0mg"},{"bike_id":"7c4817ed-9160-4f4a-89fa-23c1d50b121e","system_id":"levelo_inurba_marseille","lat":43.30144,"lon":5.38081,"is_reserved":false,"is_disabled":false,"rental_uris":{"android":"levelo://app?vid=7c4817ed-9160-4f4a-89fa-23c1d50b121e","ios":"levelo://app?vid=7c4817ed-9160-4f4a-89fa-23c1d50b121e"},"vehicle_type_id":"4","last_reported":1736885411,"current_range_meters":38800,"station_id":"ce4bgjp2rcd13ifvqbh0","pricing_plan_id":"cebpf4jnsgd1na2vs0mg"},{"bike_id":"1d69fa01-40f1-416c-b4f3-f232b3810737","system_id":"levelo_inurba_marseille","lat":43.26785,"lon":5.3942,"is_reserved":false,"is_disabled":false,"rental_uris":{"android":"levelo://app?vid=1d69fa01-40f1-416c-b4f3-f232b3810737","ios":"levelo://app?vid=1d69fa01-40f1-416c-b4f3-f232b3810737"},"vehicle_type_id":"4","last_reported":1736885411,"current_range_meters":36000,"station_id":"ce4bhh12rcd13ifvqfg0","pricing_plan_id":"cebpf4jnsgd1na2vs0mg"},{"bike_id":"472c5457-b72f-4041-bdd6-3d9080f196ef","system_id":"levelo_inurba_marseille","lat":43.32543,"lon":5.41469,"is_reserved":false,"is_disabled":true,"rental_uris":{"android":"levelo://app?vid=472c5457-b72f-4041-bdd6-3d9080f196ef","ios":"levelo://app?vid=472c5457-b72f-4041-bdd6-3d9080f196ef"},"vehicle_type_id":"4","last_reported":1736885411,"current_range_meters":1600,"station_id":"ce4bhq12rcd13ifvqhhg","pricing_plan_id":"cebpf4jnsgd1na2vs0mg"},{"bike_id":"26ba2c8d-12cc-40f5-bb48-b0ea9a048c9c","system_id":"levelo_inurba_marseille","lat":43.31714,"lon":5.43694,"is_reserved":false,"is_disabled":false,"rental_uris":{"android":"levelo://app?vid=26ba2c8d-12cc-40f5-bb48-b0ea9a048c9c","ios":"levelo://app?vid=26ba2c8d-12cc-40f5-bb48-b0ea9a048c9c"},"vehicle_type_id":"4","last_reported":1736885411,"current_range_meters":36400,"station_id":"ce4bhp92rcd13ifvqhcg","pricing_plan_id":"cebpf4jnsgd1na2vs0mg"},{"bike_id":"7ea975c6-b0c4-4b59-aeeb-671c007d33b3","system_id":"levelo_inurba_marseille","lat":43.31068,"lon":5.38343,"is_reserved":false,"is_disabled":false,"rental_uris":{"android":"levelo://app?vid=7ea975c6-b0c4-4b59-aeeb-671c007d33b3","ios":"levelo://app?vid=7ea975c6-b0c4-4b59-aeeb-671c007d33b3"},"vehicle_type_id":"4","last_reported":1736885411,"current_range_meters":34800,"station_id":"ce4bgv92rcd13ifvqcr0","pricing_plan_id":"cebpf4jnsgd1na2vs0mg"},{"bike_id":"5f23a61a-7e7d-465e-942d-98e84a6e0f49","system_id":"levelo_inurba_marseille","lat":43.24808,"lon":5.37456,"is_reserved":false,"is_disabled":false,"rental_uris":{"android":"levelo://app?vid=5f23a61a-7e7d-465e-942d-98e84a6e0f49","ios":"levelo://app?vid=5f23a61a-7e7d-465e-942d-98e84a6e0f49"},"vehicle_type_id":"4","last_reported":1736885411,"current_range_meters":36800,"station_id":"ce4bhgh2rcd13ifvqfb0","pricing_plan_id":"cebpf4jnsgd1na2vs0mg"},{"bike_id":"a86ccf68-5442-4ec9-98dc-c56a29851cd0","system_id":"levelo_inurba_marseille","lat":43.28924,"lon":5.36629,"is_reserved":false,"is_disabled":false,"rental_uris":{"android":"levelo://app?vid=a86ccf68-5442-4ec9-98dc-c56a29851cd0","ios":"levelo://app?vid=a86ccf68-5442-4ec9-98dc-c56a29851cd0"},"vehicle_type_id":"4","last_reported":1736885411,"current_range_meters":27600,"station_id":"ce4bhap2rcd13ifvqek0","pricing_plan_id":"cebpf4jnsgd1na2vs0mg"},{"bike_id":"f6449d14-99b5-4769-aa60-681d491580b1","system_id":"levelo_inurba_marseille","lat":43.2694,"lon":5.40243,"is_reserved":false,"is_disabled":false,"rental_uris":{"android":"levelo://app?vid=f6449d14-99b5-4769-aa60-681d491580b1","ios":"levelo://app?vid=f6449d14-99b5-4769-aa60-681d491580b1"},"vehicle_type_id":"4","last_reported":1736885411,"current_range_meters":27200,"station_id":"cjm6bp8fraef2m0cb0m0","pricing_plan_id":"cebpf4jnsgd1na2vs0mg"},{"bike_id":"d42ddf67-1396-4c81-baf7-8e42c2318a26","system_id":"levelo_inurba_marseille","lat":43.26942,"lon":5.38658,"is_reserved":false,"is_disabled":false,"rental_uris":{"android":"levelo://app?vid=d42ddf67-1396-4c81-baf7-8e42c2318a26","ios":"levelo://app?vid=d42ddf67-1396-4c81-baf7-8e42c2318a26"},"vehicle_type_id":"4","last_reported":1736885411,"current_range_meters":4800,"station_id":"ce4bhh92rcd13ifvqfh0","pricing_plan_id":"cebpf4jnsgd1na2vs0mg"},{"bike_id":"08b253e1-f984-44a7-af5f-77a50497e2f5","system_id":"levelo_inurba_marseille","lat":43.27312,"lon":5.39108,"is_reserved":false,"is_disabled":false,"rental_uris":{"android":"levelo://app?vid=08b253e1-f984-44a7-af5f-77a50497e2f5","ios":"levelo://app?vid=08b253e1-f984-44a7-af5f-77a50497e2f5"},"vehicle_type_id":"4","last_reported":1736885411,"current_range_meters":37600,"station_id":"ce4bhgp2rcd13ifvqfe0","pricing_plan_id":"cebpf4jnsgd1na2vs0mg"},{"bike_id":"ae6a24c6-71f9-417a-adfe-c09c90280637","system_id":"levelo_inurba_marseille","lat":43.265484,"lon":5.372891,"is_reserved":false,"is_disabled":false,"rental_uris":{"android":"levelo://app?vid=ae6a24c6-71f9-417a-adfe-c09c90280637","ios":"levelo://app?vid=ae6a24c6-71f9-417a-adfe-c09c90280637"},"vehicle_type_id":"4","last_reported":1736885411,"current_range_meters":38800,"station_id":"ce4bhg12rcd13ifvqf70","pricing_plan_id":"cebpf4jnsgd1na2vs0mg"},{"bike_id":"fe98a744-9906-4a12-90cf-bf5ffde1dabc","system_id":"levelo_inurba_marseille","lat":43.2768,"lon":5.38889,"is_reserved":false,"is_disabled":false,"rental_uris":{"android":"levelo://app?vid=fe98a744-9906-4a12-90cf-bf5ffde1dabc","ios":"levelo://app?vid=fe98a744-9906-4a12-90cf-bf5ffde1dabc"},"vehicle_type_id":"4","last_reported":1736885411,"current_range_meters":10800,"station_id":"ce4bhi12rcd13ifvqfo0","pricing_plan_id":"cebpf4jnsgd1na2vs0mg"},{"bike_id":"31ca8b0e-c72e-47d4-a59b-a2766db72931","system_id":"levelo_inurba_marseille","lat":43.28389,"lon":5.40932,"is_reserved":false,"is_disabled":true,"rental_uris":{"android":"levelo://app?vid=31ca8b0e-c72e-47d4-a59b-a2766db72931","ios":"levelo://app?vid=31ca8b0e-c72e-47d4-a59b-a2766db72931"},"vehicle_type_id":"4","last_reported":1736885411,"current_range_meters":33600,"station_id":"","pricing_plan_id":"cebpf4jnsgd1na2vs0mg"},{"bike_id":"ec07fc30-5fe0-438e-a70f-83f634904c78","system_id":"levelo_inurba_marseille","lat":43.261981,"lon":5.379266,"is_reserved":false,"is_disabled":false,"rental_uris":{"android":"levelo://app?vid=ec07fc30-5fe0-438e-a70f-83f634904c78","ios":"levelo://app?vid=ec07fc30-5fe0-438e-a70f-83f634904c78"},"vehicle_type_id":"4","last_reported":1736885411,"current_range_meters":38800,"station_id":"ce4bhjp2rcd13ifvqg90","pricing_plan_id":"cebpf4jnsgd1na2vs0mg"},{"bike_id":"be340c0f-88b7-44d8-9521-d55f30bb2565","system_id":"levelo_inurba_marseille","lat":43.309647,"lon":5.390407,"is_reserved":false,"is_disabled":true,"rental_uris":{"android":"levelo://app?vid=be340c0f-88b7-44d8-9521-d55f30bb2565","ios":"levelo://app?vid=be340c0f-88b7-44d8-9521-d55f30bb2565"},"vehicle_type_id":"4","last_reported":1736885411,"current_range_meters":16000,"station_id":"ce4bgup2rcd13ifvqco0","pricing_plan_id":"cebpf4jnsgd1na2vs0mg"},{"bike_id":"60c48e84-151f-4edd-83cd-789ff87c7f63","system_id":"levelo_inurba_marseille","lat":43.28688,"lon":5.37387,"is_reserved":false,"is_disabled":true,"rental_uris":{"android":"levelo://app?vid=60c48e84-151f-4edd-83cd-789ff87c7f63","ios":"levelo://app?vid=60c48e84-151f-4edd-83cd-789ff87c7f63"},"vehicle_type_id":"4","last_reported":1736885411,"current_range_meters":32000,"station_id":"ce4bh3p2rcd13ifvqdq0","pricing_plan_id":"cebpf4jnsgd1na2vs0mg"},{"bike_id":"d4bd3ca0-48a8-4b8f-8823-cc0d13d0ab16","system_id":"levelo_inurba_marseille","lat":43.2807,"lon":5.39662,"is_reserved":false,"is_disabled":false,"rental_uris":{"android":"levelo://app?vid=d4bd3ca0-48a8-4b8f-8823-cc0d13d0ab16","ios":"levelo://app?vid=d4bd3ca0-48a8-4b8f-8823-cc0d13d0ab16"},"vehicle_type_id":"4","last_reported":1736885411,"current_range_meters":37600,"station_id":"ce4bho12rcd13ifvqh2g","pricing_plan_id":"cebpf4jnsgd1na2vs0mg"},{"bike_id":"fa8a30c7-7295-4469-b66e-9b5a43015aac","system_id":"levelo_inurba_marseille","lat":43.33016,"lon":5.39033,"is_reserved":false,"is_disabled":false,"rental_uris":{"android":"levelo://app?vid=fa8a30c7-7295-4469-b66e-9b5a43015aac","ios":"levelo://app?vid=fa8a30c7-7295-4469-b66e-9b5a43015aac"},"vehicle_type_id":"4","last_reported":1736885411,"current_range_meters":38800,"station_id":"ce4bhr92rcd13ifvqhrg","pricing_plan_id":"cebpf4jnsgd1na2vs0mg"},{"bike_id":"6a0ba056-cc0c-4988-92aa-e87cc2d63fcd","system_id":"levelo_inurba_marseille","lat":43.29363,"lon":5.37826,"is_reserved":false,"is_disabled":false,"rental_uris":{"android":"levelo://app?vid=6a0ba056-cc0c-4988-92aa-e87cc2d63fcd","ios":"levelo://app?vid=6a0ba056-cc0c-4988-92aa-e87cc2d63fcd"},"vehicle_type_id":"4","last_reported":1736885411,"current_range_meters":38400,"station_id":"ce4bgjh2rcd13ifvqbf0","pricing_plan_id":"cebpf4jnsgd1na2vs0mg"},{"bike_id":"de05f028-7450-4792-8d5b-e268410faa9d","system_id":"levelo_inurba_marseille","lat":43.32088,"lon":5.36783,"is_reserved":false,"is_disabled":false,"rental_uris":{"android":"levelo://app?vid=de05f028-7450-4792-8d5b-e268410faa9d","ios":"levelo://app?vid=de05f028-7450-4792-8d5b-e268410faa9d"},"vehicle_type_id":"4","last_reported":1736885411,"current_range_meters":28000,"station_id":"ce4bhrh2rcd13ifvqhug","pricing_plan_id":"cebpf4jnsgd1na2vs0mg"},{"bike_id":"e8a7b18f-324f-4d29-886f-77b85b80b2c6","system_id":"levelo_inurba_marseille","lat":43.24069,"lon":5.37758,"is_reserved":false,"is_disabled":true,"rental_uris":{"android":"levelo://app?vid=e8a7b18f-324f-4d29-886f-77b85b80b2c6","ios":"levelo://app?vid=e8a7b18f-324f-4d29-886f-77b85b80b2c6"},"vehicle_type_id":"4","last_reported":1736885411,"current_range_meters":30800,"station_id":"ce4bhnp2rcd13ifvqgvg","pricing_plan_id":"cebpf4jnsgd1na2vs0mg"},{"bike_id":"12c84dc1-55d9-4869-8c9f-6a156dfc584a","system_id":"levelo_inurba_marseille","lat":43.27818,"lon":5.40708,"is_reserved":false,"is_disabled":false,"rental_uris":{"android":"levelo://app?vid=12c84dc1-55d9-4869-8c9f-6a156dfc584a","ios":"levelo://app?vid=12c84dc1-55d9-4869-8c9f-6a156dfc584a"},"vehicle_type_id":"4","last_reported":1736885411,"current_range_meters":32400,"station_id":"ce4bhnh2rcd13ifvqgtg","pricing_plan_id":"cebpf4jnsgd1na2vs0mg"},{"bike_id":"0a050f5c-d7e9-4677-a12e-813b855b91dc","system_id":"levelo_inurba_marseille","lat":43.31118,"lon":5.37772,"is_reserved":false,"is_disabled":false,"rental_uris":{"android":"levelo://app?vid=0a050f5c-d7e9-4677-a12e-813b855b91dc","ios":"levelo://app?vid=0a050f5c-d7e9-4677-a12e-813b855b91dc"},"vehicle_type_id":"4","last_reported":1736885411,"current_range_meters":17600,"station_id":"ce4bgt92rcd13ifvqcg0","pricing_plan_id":"cebpf4jnsgd1na2vs0mg"},{"bike_id":"d85168cd-cda5-48df-a191-5048004ec8d2","system_id":"levelo_inurba_marseille","lat":43.2508,"lon":5.39504,"is_reserved":false,"is_disabled":false,"rental_uris":{"android":"levelo://app?vid=d85168cd-cda5-48df-a191-5048004ec8d2","ios":"levelo://app?vid=d85168cd-cda5-48df-a191-5048004ec8d2"},"vehicle_type_id":"4","last_reported":1736885411,"current_range_meters":38800,"station_id":"ce4bhm12rcd13ifvqgkg","pricing_plan_id":"cebpf4jnsgd1na2vs0mg"},{"bike_id":"8dbecc67-6b8b-4ffd-92cc-8cef36f495cb","system_id":"levelo_inurba_marseille","lat":43.26948,"lon":5.40272,"is_reserved":false,"is_disabled":false,"rental_uris":{"android":"levelo://app?vid=8dbecc67-6b8b-4ffd-92cc-8cef36f495cb","ios":"levelo://app?vid=8dbecc67-6b8b-4ffd-92cc-8cef36f495cb"},"vehicle_type_id":"4","last_reported":1736885411,"current_range_meters":17600,"station_id":"cjm6bp8fraef2m0cb0m0","pricing_plan_id":"cebpf4jnsgd1na2vs0mg"},{"bike_id":"7ae721f4-d2bd-4cdf-877b-d22cf7f0ce48","system_id":"levelo_inurba_marseille","lat":43.287336,"lon":5.386825,"is_reserved":false,"is_disabled":true,"rental_uris":{"android":"levelo://app?vid=7ae721f4-d2bd-4cdf-877b-d22cf7f0ce48","ios":"levelo://app?vid=7ae721f4-d2bd-4cdf-877b-d22cf7f0ce48"},"vehicle_type_id":"4","last_reported":1736885411,"current_range_meters":2000,"station_id":"ce4bh2p2rcd13ifvqdi0","pricing_plan_id":"cebpf4jnsgd1na2vs0mg"},{"bike_id":"8f3d19ca-6788-4fa8-a3b9-31a1f06d17f5","system_id":"levelo_inurba_marseille","lat":43.28027,"lon":5.36936,"is_reserved":false,"is_disabled":false,"rental_uris":{"android":"levelo://app?vid=8f3d19ca-6788-4fa8-a3b9-31a1f06d17f5","ios":"levelo://app?vid=8f3d19ca-6788-4fa8-a3b9-31a1f06d17f5"},"vehicle_type_id":"4","last_reported":1736885411,"current_range_meters":38800,"station_id":"ce4bha12rcd13ifvqef0","pricing_plan_id":"cebpf4jnsgd1na2vs0mg"},{"bike_id":"7ab18eaa-fb49-4cb7-a02a-75b674d810ba","system_id":"levelo_inurba_marseille","lat":43.32362,"lon":5.38906,"is_reserved":false,"is_disabled":false,"rental_uris":{"android":"levelo://app?vid=7ab18eaa-fb49-4cb7-a02a-75b674d810ba","ios":"levelo://app?vid=7ab18eaa-fb49-4cb7-a02a-75b674d810ba"},"vehicle_type_id":"4","last_reported":1736885411,"current_range_meters":30400,"station_id":"ce4bhqp2rcd13ifvqhog","pricing_plan_id":"cebpf4jnsgd1na2vs0mg"},{"bike_id":"415c44d6-1956-4b43-9753-fb0ed6cfdd93","system_id":"levelo_inurba_marseille","lat":43.26062,"lon":5.39386,"is_reserved":false,"is_disabled":false,"rental_uris":{"android":"levelo://app?vid=415c44d6-1956-4b43-9753-fb0ed6cfdd93","ios":"levelo://app?vid=415c44d6-1956-4b43-9753-fb0ed6cfdd93"},"vehicle_type_id":"4","last_reported":1736885411,"current_range_meters":38800,"station_id":"ce4bhh92rcd13ifvqfj0","pricing_plan_id":"cebpf4jnsgd1na2vs0mg"},{"bike_id":"4617d328-5e3d-47fe-baf1-2f30cf998668","system_id":"levelo_inurba_marseille","lat":43.30414,"lon":5.41283,"is_reserved":false,"is_disabled":false,"rental_uris":{"android":"levelo://app?vid=4617d328-5e3d-47fe-baf1-2f30cf998668","ios":"levelo://app?vid=4617d328-5e3d-47fe-baf1-2f30cf998668"},"vehicle_type_id":"4","last_reported":1736885411,"current_range_meters":38800,"station_id":"ce4bhop2rcd13ifvqh8g","pricing_plan_id":"cebpf4jnsgd1na2vs0mg"},{"bike_id":"6280e12b-8c99-470a-acaf-04cfe5b073d5","system_id":"levelo_inurba_marseille","lat":43.27178,"lon":5.41007,"is_reserved":false,"is_disabled":false,"rental_uris":{"android":"levelo://app?vid=6280e12b-8c99-470a-acaf-04cfe5b073d5","ios":"levelo://app?vid=6280e12b-8c99-470a-acaf-04cfe5b073d5"},"vehicle_type_id":"4","last_reported":1736885411,"current_range_meters":39200,"station_id":"ce4bhl12rcd13ifvqgf0","pricing_plan_id":"cebpf4jnsgd1na2vs0mg"},{"bike_id":"a1d695d9-a774-43ab-b8b8-bffc67e8f15b","system_id":"levelo_inurba_marseille","lat":43.2559,"lon":5.38214,"is_reserved":false,"is_disabled":false,"rental_uris":{"android":"levelo://app?vid=a1d695d9-a774-43ab-b8b8-bffc67e8f15b","ios":"levelo://app?vid=a1d695d9-a774-43ab-b8b8-bffc67e8f15b"},"vehicle_type_id":"4","last_reported":1736885411,"current_range_meters":14400,"station_id":"ce4bhih2rcd13ifvqfs0","pricing_plan_id":"cebpf4jnsgd1na2vs0mg"},{"bike_id":"6626123f-fe94-432c-ac35-4da06f4a5179","system_id":"levelo_inurba_marseille","lat":43.2734,"lon":5.39095,"is_reserved":false,"is_disabled":false,"rental_uris":{"android":"levelo://app?vid=6626123f-fe94-432c-ac35-4da06f4a5179","ios":"levelo://app?vid=6626123f-fe94-432c-ac35-4da06f4a5179"},"vehicle_type_id":"4","last_reported":1736885411,"current_range_meters":27200,"station_id":"ce4bhgp2rcd13ifvqfe0","pricing_plan_id":"cebpf4jnsgd1na2vs0mg"},{"bike_id":"f62a7ed4-7c80-4ed8-9568-a4dea62069d1","system_id":"levelo_inurba_marseille","lat":43.28102,"lon":5.39655,"is_reserved":false,"is_disabled":false,"rental_uris":{"android":"levelo://app?vid=f62a7ed4-7c80-4ed8-9568-a4dea62069d1","ios":"levelo://app?vid=f62a7ed4-7c80-4ed8-9568-a4dea62069d1"},"vehicle_type_id":"4","last_reported":1736885411,"current_range_meters":24400,"station_id":"ce4bho12rcd13ifvqh2g","pricing_plan_id":"cebpf4jnsgd1na2vs0mg"},{"bike_id":"4467d7f9-67af-4647-b1b3-f3a1d228515b","system_id":"levelo_inurba_marseille","lat":43.26952,"lon":5.38611,"is_reserved":false,"is_disabled":true,"rental_uris":{"android":"levelo://app?vid=4467d7f9-67af-4647-b1b3-f3a1d228515b","ios":"levelo://app?vid=4467d7f9-67af-4647-b1b3-f3a1d228515b"},"vehicle_type_id":"4","last_reported":1736885411,"current_range_meters":1200,"station_id":"ce4bhh92rcd13ifvqfh0","pricing_plan_id":"cebpf4jnsgd1na2vs0mg"},{"bike_id":"710d5833-8ac1-4145-921e-ea3e3ff0b4a7","system_id":"levelo_inurba_marseille","lat":43.28948,"lon":5.36364,"is_reserved":false,"is_disabled":false,"rental_uris":{"android":"levelo://app?vid=710d5833-8ac1-4145-921e-ea3e3ff0b4a7","ios":"levelo://app?vid=710d5833-8ac1-4145-921e-ea3e3ff0b4a7"},"vehicle_type_id":"4","last_reported":1736885411,"current_range_meters":38800,"station_id":"ce4bhc92rcd13ifvqetg","pricing_plan_id":"cebpf4jnsgd1na2vs0mg"},{"bike_id":"2d299aa8-68d1-40ea-a1d0-c766b33ee2bf","system_id":"levelo_inurba_marseille","lat":43.26944,"lon":5.40242,"is_reserved":false,"is_disabled":false,"rental_uris":{"android":"levelo://app?vid=2d299aa8-68d1-40ea-a1d0-c766b33ee2bf","ios":"levelo://app?vid=2d299aa8-68d1-40ea-a1d0-c766b33ee2bf"},"vehicle_type_id":"4","last_reported":1736885411,"current_range_meters":38800,"station_id":"cjm6bp8fraef2m0cb0m0","pricing_plan_id":"cebpf4jnsgd1na2vs0mg"},{"bike_id":"11f8d0bd-700f-44c3-884c-632478828218","system_id":"levelo_inurba_marseille","lat":43.28617,"lon":5.35095,"is_reserved":false,"is_disabled":false,"rental_uris":{"android":"levelo://app?vid=11f8d0bd-700f-44c3-884c-632478828218","ios":"levelo://app?vid=11f8d0bd-700f-44c3-884c-632478828218"},"vehicle_type_id":"4","last_reported":1736885411,"current_range_meters":9600,"station_id":"ce4bhch2rcd13ifvqeug","pricing_plan_id":"cebpf4jnsgd1na2vs0mg"},{"bike_id":"20509036-1fb9-4b22-bed7-6a8d2b1cbab1","system_id":"levelo_inurba_marseille","lat":43.281027,"lon":5.378543,"is_reserved":false,"is_disabled":false,"rental_uris":{"android":"levelo://app?vid=20509036-1fb9-4b22-bed7-6a8d2b1cbab1","ios":"levelo://app?vid=20509036-1fb9-4b22-bed7-6a8d2b1cbab1"},"vehicle_type_id":"4","last_reported":1736885411,"current_range_meters":38000,"station_id":"ce4bha12rcd13ifvqee0","pricing_plan_id":"cebpf4jnsgd1na2vs0mg"},{"bike_id":"8534aaf4-535f-4db5-8998-0f97ef68ef36","system_id":"levelo_inurba_marseille","lat":43.24372,"lon":5.37088,"is_reserved":false,"is_disabled":false,"rental_uris":{"android":"levelo://app?vid=8534aaf4-535f-4db5-8998-0f97ef68ef36","ios":"levelo://app?vid=8534aaf4-535f-4db5-8998-0f97ef68ef36"},"vehicle_type_id":"4","last_reported":1736885411,"current_range_meters":18800,"station_id":"ce4bhhh2rcd13ifvqfk0","pricing_plan_id":"cebpf4jnsgd1na2vs0mg"},{"bike_id":"b2c33e7b-da8a-4cda-ab12-4bcf5000aca5","system_id":"levelo_inurba_marseille","lat":43.27622,"lon":5.36102,"is_reserved":false,"is_disabled":false,"rental_uris":{"android":"levelo://app?vid=b2c33e7b-da8a-4cda-ab12-4bcf5000aca5","ios":"levelo://app?vid=b2c33e7b-da8a-4cda-ab12-4bcf5000aca5"},"vehicle_type_id":"4","last_reported":1736885411,"current_range_meters":30800,"station_id":"ce4bgj92rcd13ifvqbe0","pricing_plan_id":"cebpf4jnsgd1na2vs0mg"},{"bike_id":"75b74a66-0ba7-4ce9-8152-a0ecf27b08e3","system_id":"levelo_inurba_marseille","lat":43.27994,"lon":5.40009,"is_reserved":false,"is_disabled":false,"rental_uris":{"android":"levelo://app?vid=75b74a66-0ba7-4ce9-8152-a0ecf27b08e3","ios":"levelo://app?vid=75b74a66-0ba7-4ce9-8152-a0ecf27b08e3"},"vehicle_type_id":"4","last_reported":1736885411,"current_range_meters":8000,"station_id":"ce4bho92rcd13ifvqh4g","pricing_plan_id":"cebpf4jnsgd1na2vs0mg"},{"bike_id":"4283e20d-84f9-48a2-a6d0-09a771c088c8","system_id":"levelo_inurba_marseille","lat":43.26782,"lon":5.39404,"is_reserved":false,"is_disabled":false,"rental_uris":{"android":"levelo://app?vid=4283e20d-84f9-48a2-a6d0-09a771c088c8","ios":"levelo://app?vid=4283e20d-84f9-48a2-a6d0-09a771c088c8"},"vehicle_type_id":"4","last_reported":1736885411,"current_range_meters":32800,"station_id":"ce4bhh12rcd13ifvqfg0","pricing_plan_id":"cebpf4jnsgd1na2vs0mg"},{"bike_id":"c24c4e75-0cb8-471f-b3fd-a29c66159b57","system_id":"levelo_inurba_marseille","lat":43.28481,"lon":5.38419,"is_reserved":false,"is_disabled":false,"rental_uris":{"android":"levelo://app?vid=c24c4e75-0cb8-471f-b3fd-a29c66159b57","ios":"levelo://app?vid=c24c4e75-0cb8-471f-b3fd-a29c66159b57"},"vehicle_type_id":"4","last_reported":1736885411,"current_range_meters":14800,"station_id":"ce4bh512rcd13ifvqe3g","pricing_plan_id":"cebpf4jnsgd1na2vs0mg"},{"bike_id":"1c21871d-2c19-4086-b1d1-8033834ad37d","system_id":"levelo_inurba_marseille","lat":43.279171,"lon":5.39585,"is_reserved":false,"is_disabled":false,"rental_uris":{"android":"levelo://app?vid=1c21871d-2c19-4086-b1d1-8033834ad37d","ios":"levelo://app?vid=1c21871d-2c19-4086-b1d1-8033834ad37d"},"vehicle_type_id":"4","last_reported":1736885411,"current_range_meters":37600,"station_id":"ce4bhf92rcd13ifvqf40","pricing_plan_id":"cebpf4jnsgd1na2vs0mg"},{"bike_id":"6749cc36-3616-4588-a142-27ed7a54bc7d","system_id":"levelo_inurba_marseille","lat":43.25582,"lon":5.38227,"is_reserved":false,"is_disabled":false,"rental_uris":{"android":"levelo://app?vid=6749cc36-3616-4588-a142-27ed7a54bc7d","ios":"levelo://app?vid=6749cc36-3616-4588-a142-27ed7a54bc7d"},"vehicle_type_id":"4","last_reported":1736885411,"current_range_meters":37600,"station_id":"ce4bhih2rcd13ifvqfs0","pricing_plan_id":"cebpf4jnsgd1na2vs0mg"},{"bike_id":"20e1393f-328a-4292-8527-a5c73d24ceaf","system_id":"levelo_inurba_marseille","lat":43.2731,"lon":5.39095,"is_reserved":false,"is_disabled":false,"rental_uris":{"android":"levelo://app?vid=20e1393f-328a-4292-8527-a5c73d24ceaf","ios":"levelo://app?vid=20e1393f-328a-4292-8527-a5c73d24ceaf"},"vehicle_type_id":"4","last_reported":1736885411,"current_range_meters":7200,"station_id":"ce4bhgp2rcd13ifvqfe0","pricing_plan_id":"cebpf4jnsgd1na2vs0mg"},{"bike_id":"8176cef6-8015-429e-b7db-50d63dc3a79c","system_id":"levelo_inurba_marseille","lat":43.27709,"lon":5.38943,"is_reserved":false,"is_disabled":false,"rental_uris":{"android":"levelo://app?vid=8176cef6-8015-429e-b7db-50d63dc3a79c","ios":"levelo://app?vid=8176cef6-8015-429e-b7db-50d63dc3a79c"},"vehicle_type_id":"4","last_reported":1736885411,"current_range_meters":3600,"station_id":"","pricing_plan_id":"cebpf4jnsgd1na2vs0mg"},{"bike_id":"8e0499ea-662e-47b6-9895-fccb25a5f954","system_id":"levelo_inurba_marseille","lat":43.29529,"lon":5.39403,"is_reserved":false,"is_disabled":true,"rental_uris":{"android":"levelo://app?vid=8e0499ea-662e-47b6-9895-fccb25a5f954","ios":"levelo://app?vid=8e0499ea-662e-47b6-9895-fccb25a5f954"},"vehicle_type_id":"4","last_reported":1736885411,"current_range_meters":2800,"station_id":"ce4bh292rcd13ifvqdf0","pricing_plan_id":"cebpf4jnsgd1na2vs0mg"},{"bike_id":"2fb6e00e-46ea-45e3-baf1-59e62037f28c","system_id":"levelo_inurba_marseille","lat":43.28937,"lon":5.36634,"is_reserved":false,"is_disabled":false,"rental_uris":{"android":"levelo://app?vid=2fb6e00e-46ea-45e3-baf1-59e62037f28c","ios":"levelo://app?vid=2fb6e00e-46ea-45e3-baf1-59e62037f28c"},"vehicle_type_id":"4","last_reported":1736885411,"current_range_meters":7200,"station_id":"ce4bhap2rcd13ifvqek0","pricing_plan_id":"cebpf4jnsgd1na2vs0mg"},{"bike_id":"41922604-c7b8-4e93-9da5-3903771d7233","system_id":"levelo_inurba_marseille","lat":43.2481,"lon":5.37458,"is_reserved":false,"is_disabled":false,"rental_uris":{"android":"levelo://app?vid=41922604-c7b8-4e93-9da5-3903771d7233","ios":"levelo://app?vid=41922604-c7b8-4e93-9da5-3903771d7233"},"vehicle_type_id":"4","last_reported":1736885411,"current_range_meters":20400,"station_id":"ce4bhgh2rcd13ifvqfb0","pricing_plan_id":"cebpf4jnsgd1na2vs0mg"},{"bike_id":"9a0c6b7e-4bf9-4891-b5ca-ba18ca420306","system_id":"levelo_inurba_marseille","lat":43.27312,"lon":5.39089,"is_reserved":false,"is_disabled":false,"rental_uris":{"android":"levelo://app?vid=9a0c6b7e-4bf9-4891-b5ca-ba18ca420306","ios":"levelo://app?vid=9a0c6b7e-4bf9-4891-b5ca-ba18ca420306"},"vehicle_type_id":"4","last_reported":1736885411,"current_range_meters":20400,"station_id":"ce4bhgp2rcd13ifvqfe0","pricing_plan_id":"cebpf4jnsgd1na2vs0mg"},{"bike_id":"f94df94d-bc8f-423a-851a-769fb61ed24d","system_id":"levelo_inurba_marseille","lat":43.26542,"lon":5.37283,"is_reserved":false,"is_disabled":false,"rental_uris":{"android":"levelo://app?vid=f94df94d-bc8f-423a-851a-769fb61ed24d","ios":"levelo://app?vid=f94df94d-bc8f-423a-851a-769fb61ed24d"},"vehicle_type_id":"4","last_reported":1736885411,"current_range_meters":27200,"station_id":"ce4bhg12rcd13ifvqf70","pricing_plan_id":"cebpf4jnsgd1na2vs0mg"},{"bike_id":"2ee17601-3a84-4745-8ad6-40b8a844b898","system_id":"levelo_inurba_marseille","lat":43.26935,"lon":5.4026,"is_reserved":false,"is_disabled":false,"rental_uris":{"android":"levelo://app?vid=2ee17601-3a84-4745-8ad6-40b8a844b898","ios":"levelo://app?vid=2ee17601-3a84-4745-8ad6-40b8a844b898"},"vehicle_type_id":"4","last_reported":1736885411,"current_range_meters":30000,"station_id":"cjm6bp8fraef2m0cb0m0","pricing_plan_id":"cebpf4jnsgd1na2vs0mg"},{"bike_id":"5059e8f8-07fa-4742-ba80-f3d5d5f2c4ed","system_id":"levelo_inurba_marseille","lat":43.31693,"lon":5.40472,"is_reserved":false,"is_disabled":false,"rental_uris":{"android":"levelo://app?vid=5059e8f8-07fa-4742-ba80-f3d5d5f2c4ed","ios":"levelo://app?vid=5059e8f8-07fa-4742-ba80-f3d5d5f2c4ed"},"vehicle_type_id":"4","last_reported":1736885411,"current_range_meters":24800,"station_id":"ce4bh012rcd13ifvqd00","pricing_plan_id":"cebpf4jnsgd1na2vs0mg"},{"bike_id":"f10a7a72-017c-4e49-80ad-1ec88fe352e5","system_id":"levelo_inurba_marseille","lat":43.28614,"lon":5.35107,"is_reserved":false,"is_disabled":false,"rental_uris":{"android":"levelo://app?vid=f10a7a72-017c-4e49-80ad-1ec88fe352e5","ios":"levelo://app?vid=f10a7a72-017c-4e49-80ad-1ec88fe352e5"},"vehicle_type_id":"4","last_reported":1736885411,"current_range_meters":24400,"station_id":"ce4bhch2rcd13ifvqeug","pricing_plan_id":"cebpf4jnsgd1na2vs0mg"},{"bike_id":"b22d77c3-f37f-47b6-bfd3-17f35050e9db","system_id":"levelo_inurba_marseille","lat":43.27614,"lon":5.36104,"is_reserved":false,"is_disabled":false,"rental_uris":{"android":"levelo://app?vid=b22d77c3-f37f-47b6-bfd3-17f35050e9db","ios":"levelo://app?vid=b22d77c3-f37f-47b6-bfd3-17f35050e9db"},"vehicle_type_id":"4","last_reported":1736885411,"current_range_meters":6400,"station_id":"ce4bgj92rcd13ifvqbe0","pricing_plan_id":"cebpf4jnsgd1na2vs0mg"},{"bike_id":"70a4d228-2c41-4af9-a3eb-23abb00e4e21","system_id":"levelo_inurba_marseille","lat":43.26054,"lon":5.39396,"is_reserved":false,"is_disabled":false,"rental_uris":{"android":"levelo://app?vid=70a4d228-2c41-4af9-a3eb-23abb00e4e21","ios":"levelo://app?vid=70a4d228-2c41-4af9-a3eb-23abb00e4e21"},"vehicle_type_id":"4","last_reported":1736885411,"current_range_meters":12000,"station_id":"ce4bhh92rcd13ifvqfj0","pricing_plan_id":"cebpf4jnsgd1na2vs0mg"},{"bike_id":"50bc62a3-3486-4349-9e75-4652d0b5a803","system_id":"levelo_inurba_marseille","lat":43.26779,"lon":5.39404,"is_reserved":false,"is_disabled":false,"rental_uris":{"android":"levelo://app?vid=50bc62a3-3486-4349-9e75-4652d0b5a803","ios":"levelo://app?vid=50bc62a3-3486-4349-9e75-4652d0b5a803"},"vehicle_type_id":"4","last_reported":1736885411,"current_range_meters":38800,"station_id":"ce4bhh12rcd13ifvqfg0","pricing_plan_id":"cebpf4jnsgd1na2vs0mg"},{"bike_id":"4843d188-c79e-4486-9700-c73fbd1e4a3f","system_id":"levelo_inurba_marseille","lat":43.24388,"lon":5.37057,"is_reserved":false,"is_disabled":false,"rental_uris":{"android":"levelo://app?vid=4843d188-c79e-4486-9700-c73fbd1e4a3f","ios":"levelo://app?vid=4843d188-c79e-4486-9700-c73fbd1e4a3f"},"vehicle_type_id":"4","last_reported":1736885411,"current_range_meters":22800,"station_id":"ce4bhhh2rcd13ifvqfk0","pricing_plan_id":"cebpf4jnsgd1na2vs0mg"},{"bike_id":"d77ab8eb-301d-4932-9ae3-5faf3425ea34","system_id":"levelo_inurba_marseille","lat":43.25861,"lon":5.39902,"is_reserved":false,"is_disabled":false,"rental_uris":{"android":"levelo://app?vid=d77ab8eb-301d-4932-9ae3-5faf3425ea34","ios":"levelo://app?vid=d77ab8eb-301d-4932-9ae3-5faf3425ea34"},"vehicle_type_id":"4","last_reported":1736885411,"current_range_meters":25600,"station_id":"ce4bhl92rcd13ifvqghg","pricing_plan_id":"cebpf4jnsgd1na2vs0mg"},{"bike_id":"bc8a35c8-a368-4d9b-b4a2-5fd2a1727c11","system_id":"levelo_inurba_marseille","lat":43.26782,"lon":5.39413,"is_reserved":false,"is_disabled":true,"rental_uris":{"android":"levelo://app?vid=bc8a35c8-a368-4d9b-b4a2-5fd2a1727c11","ios":"levelo://app?vid=bc8a35c8-a368-4d9b-b4a2-5fd2a1727c11"},"vehicle_type_id":"4","last_reported":1736885411,"current_range_meters":2000,"station_id":"ce4bhh12rcd13ifvqfg0","pricing_plan_id":"cebpf4jnsgd1na2vs0mg"},{"bike_id":"d7ca5915-338f-46db-8725-b258ca726a1c","system_id":"levelo_inurba_marseille","lat":43.28389,"lon":5.37489,"is_reserved":false,"is_disabled":false,"rental_uris":{"android":"levelo://app?vid=d7ca5915-338f-46db-8725-b258ca726a1c","ios":"levelo://app?vid=d7ca5915-338f-46db-8725-b258ca726a1c"},"vehicle_type_id":"4","last_reported":1736885411,"current_range_meters":22400,"station_id":"ce4bh412rcd13ifvqds0","pricing_plan_id":"cebpf4jnsgd1na2vs0mg"},{"bike_id":"67aa8430-3a35-4681-befb-934bab6b5aca","system_id":"levelo_inurba_marseille","lat":43.27216,"lon":5.39157,"is_reserved":false,"is_disabled":false,"rental_uris":{"android":"levelo://app?vid=67aa8430-3a35-4681-befb-934bab6b5aca","ios":"levelo://app?vid=67aa8430-3a35-4681-befb-934bab6b5aca"},"vehicle_type_id":"4","last_reported":1736885411,"current_range_meters":37600,"station_id":"ce4bhhp2rcd13ifvqfm0","pricing_plan_id":"cebpf4jnsgd1na2vs0mg"},{"bike_id":"91ff143d-554b-480d-b447-a1db17fb552d","system_id":"levelo_inurba_marseille","lat":43.27046,"lon":5.40257,"is_reserved":false,"is_disabled":false,"rental_uris":{"android":"levelo://app?vid=91ff143d-554b-480d-b447-a1db17fb552d","ios":"levelo://app?vid=91ff143d-554b-480d-b447-a1db17fb552d"},"vehicle_type_id":"4","last_reported":1736885411,"current_range_meters":12000,"station_id":"ce4bhk92rcd13ifvqgc0","pricing_plan_id":"cebpf4jnsgd1na2vs0mg"},{"bike_id":"ddac84b7-8a0b-4583-b400-dc6df08096b0","system_id":"levelo_inurba_marseille","lat":43.28667,"lon":5.36347,"is_reserved":false,"is_disabled":false,"rental_uris":{"android":"levelo://app?vid=ddac84b7-8a0b-4583-b400-dc6df08096b0","ios":"levelo://app?vid=ddac84b7-8a0b-4583-b400-dc6df08096b0"},"vehicle_type_id":"4","last_reported":1736885411,"current_range_meters":34000,"station_id":"ce4bhah2rcd13ifvqej0","pricing_plan_id":"cebpf4jnsgd1na2vs0mg"},{"bike_id":"5bdeaa33-aa72-49c8-9681-daf03bf4ba32","system_id":"levelo_inurba_marseille","lat":43.27318,"lon":5.39063,"is_reserved":false,"is_disabled":false,"rental_uris":{"android":"levelo://app?vid=5bdeaa33-aa72-49c8-9681-daf03bf4ba32","ios":"levelo://app?vid=5bdeaa33-aa72-49c8-9681-daf03bf4ba32"},"vehicle_type_id":"4","last_reported":1736885411,"current_range_meters":16800,"station_id":"ce4bhgp2rcd13ifvqfe0","pricing_plan_id":"cebpf4jnsgd1na2vs0mg"},{"bike_id":"2b3fcc77-f88b-491e-b987-ce945dc541b8","system_id":"levelo_inurba_marseille","lat":43.24649,"lon":5.38893,"is_reserved":false,"is_disabled":false,"rental_uris":{"android":"levelo://app?vid=2b3fcc77-f88b-491e-b987-ce945dc541b8","ios":"levelo://app?vid=2b3fcc77-f88b-491e-b987-ce945dc541b8"},"vehicle_type_id":"4","last_reported":1736885411,"current_range_meters":31200,"station_id":"ce4bhg12rcd13ifvqf60","pricing_plan_id":"cebpf4jnsgd1na2vs0mg"},{"bike_id":"1dc64d76-fff0-460c-af84-eaea7614f529","system_id":"levelo_inurba_marseille","lat":43.26938,"lon":5.40257,"is_reserved":false,"is_disabled":false,"rental_uris":{"android":"levelo://app?vid=1dc64d76-fff0-460c-af84-eaea7614f529","ios":"levelo://app?vid=1dc64d76-fff0-460c-af84-eaea7614f529"},"vehicle_type_id":"4","last_reported":1736885411,"current_range_meters":39200,"station_id":"cjm6bp8fraef2m0cb0m0","pricing_plan_id":"cebpf4jnsgd1na2vs0mg"},{"bike_id":"1a9e2fd5-2f08-4821-a0e8-5a79147c0238","system_id":"levelo_inurba_marseille","lat":43.27927,"lon":5.39565,"is_reserved":false,"is_disabled":false,"rental_uris":{"android":"levelo://app?vid=1a9e2fd5-2f08-4821-a0e8-5a79147c0238","ios":"levelo://app?vid=1a9e2fd5-2f08-4821-a0e8-5a79147c0238"},"vehicle_type_id":"4","last_reported":1736885411,"current_range_meters":24400,"station_id":"ce4bhf92rcd13ifvqf40","pricing_plan_id":"cebpf4jnsgd1na2vs0mg"},{"bike_id":"1ff7aa9b-2249-4379-9e93-fe4c9a6405ab","system_id":"levelo_inurba_marseille","lat":43.27937,"lon":5.41065,"is_reserved":false,"is_disabled":false,"rental_uris":{"android":"levelo://app?vid=1ff7aa9b-2249-4379-9e93-fe4c9a6405ab","ios":"levelo://app?vid=1ff7aa9b-2249-4379-9e93-fe4c9a6405ab"},"vehicle_type_id":"4","last_reported":1736885411,"current_range_meters":36000,"station_id":"ce4bhnp2rcd13ifvqh0g","pricing_plan_id":"cebpf4jnsgd1na2vs0mg"},{"bike_id":"f9f87261-1e26-4423-adc3-c66105140c7d","system_id":"levelo_inurba_marseille","lat":43.27049,"lon":5.4024,"is_reserved":false,"is_disabled":false,"rental_uris":{"android":"levelo://app?vid=f9f87261-1e26-4423-adc3-c66105140c7d","ios":"levelo://app?vid=f9f87261-1e26-4423-adc3-c66105140c7d"},"vehicle_type_id":"4","last_reported":1736885411,"current_range_meters":30800,"station_id":"ce4bhk92rcd13ifvqgc0","pricing_plan_id":"cebpf4jnsgd1na2vs0mg"},{"bike_id":"c0fd2063-31ae-4171-af17-771dbb4fa212","system_id":"levelo_inurba_marseille","lat":43.22934,"lon":5.35377,"is_reserved":false,"is_disabled":false,"rental_uris":{"android":"levelo://app?vid=c0fd2063-31ae-4171-af17-771dbb4fa212","ios":"levelo://app?vid=c0fd2063-31ae-4171-af17-771dbb4fa212"},"vehicle_type_id":"4","last_reported":1736885411,"current_range_meters":38800,"station_id":"cpo3532slgdg3j2ikp40","pricing_plan_id":"cebpf4jnsgd1na2vs0mg"},{"bike_id":"52dd6ea3-2bdb-41b1-aa26-4adee9e9994a","system_id":"levelo_inurba_marseille","lat":43.27668,"lon":5.38923,"is_reserved":false,"is_disabled":false,"rental_uris":{"android":"levelo://app?vid=52dd6ea3-2bdb-41b1-aa26-4adee9e9994a","ios":"levelo://app?vid=52dd6ea3-2bdb-41b1-aa26-4adee9e9994a"},"vehicle_type_id":"4","last_reported":1736885411,"current_range_meters":38400,"station_id":"ce4bhi12rcd13ifvqfo0","pricing_plan_id":"cebpf4jnsgd1na2vs0mg"},{"bike_id":"e2900a0e-7527-41d5-bae6-66df4a6e5b4b","system_id":"levelo_inurba_marseille","lat":43.30144,"lon":5.39871,"is_reserved":false,"is_disabled":false,"rental_uris":{"android":"levelo://app?vid=e2900a0e-7527-41d5-bae6-66df4a6e5b4b","ios":"levelo://app?vid=e2900a0e-7527-41d5-bae6-66df4a6e5b4b"},"vehicle_type_id":"4","last_reported":1736885411,"current_range_meters":22800,"station_id":"ce4bh0h2rcd13ifvqd40","pricing_plan_id":"cebpf4jnsgd1na2vs0mg"},{"bike_id":"49859924-9449-4404-b4e0-04b6ddce7f36","system_id":"levelo_inurba_marseille","lat":43.27367,"lon":5.36236,"is_reserved":false,"is_disabled":false,"rental_uris":{"android":"levelo://app?vid=49859924-9449-4404-b4e0-04b6ddce7f36","ios":"levelo://app?vid=49859924-9449-4404-b4e0-04b6ddce7f36"},"vehicle_type_id":"4","last_reported":1736885411,"current_range_meters":39200,"station_id":"ce4bhbh2rcd13ifvqeo0","pricing_plan_id":"cebpf4jnsgd1na2vs0mg"},{"bike_id":"c32303b7-5ac6-45d1-a5e7-507573b6b175","system_id":"levelo_inurba_marseille","lat":43.26804,"lon":5.40264,"is_reserved":false,"is_disabled":false,"rental_uris":{"android":"levelo://app?vid=c32303b7-5ac6-45d1-a5e7-507573b6b175","ios":"levelo://app?vid=c32303b7-5ac6-45d1-a5e7-507573b6b175"},"vehicle_type_id":"4","last_reported":1736885411,"current_range_meters":19200,"station_id":"ce501612rcd8frsf0b60","pricing_plan_id":"cebpf4jnsgd1na2vs0mg"},{"bike_id":"8c56d69a-e0b0-4246-a4c8-ecfc8cbb2c1c","system_id":"levelo_inurba_marseille","lat":43.2769,"lon":5.38899,"is_reserved":false,"is_disabled":false,"rental_uris":{"android":"levelo://app?vid=8c56d69a-e0b0-4246-a4c8-ecfc8cbb2c1c","ios":"levelo://app?vid=8c56d69a-e0b0-4246-a4c8-ecfc8cbb2c1c"},"vehicle_type_id":"4","last_reported":1736885411,"current_range_meters":36000,"station_id":"ce4bhi12rcd13ifvqfo0","pricing_plan_id":"cebpf4jnsgd1na2vs0mg"},{"bike_id":"1b22370e-68ef-49e7-8d36-f18a88671a32","system_id":"levelo_inurba_marseille","lat":43.31757,"lon":5.39018,"is_reserved":false,"is_disabled":false,"rental_uris":{"android":"levelo://app?vid=1b22370e-68ef-49e7-8d36-f18a88671a32","ios":"levelo://app?vid=1b22370e-68ef-49e7-8d36-f18a88671a32"},"vehicle_type_id":"4","last_reported":1736885411,"current_range_meters":17200,"station_id":"ce4bhqp2rcd13ifvqhng","pricing_plan_id":"cebpf4jnsgd1na2vs0mg"},{"bike_id":"6d495239-9f42-43bc-8871-208610a1cee5","system_id":"levelo_inurba_marseille","lat":43.27436,"lon":5.39414,"is_reserved":false,"is_disabled":false,"rental_uris":{"android":"levelo://app?vid=6d495239-9f42-43bc-8871-208610a1cee5","ios":"levelo://app?vid=6d495239-9f42-43bc-8871-208610a1cee5"},"vehicle_type_id":"4","last_reported":1736885411,"current_range_meters":35200,"station_id":"ce4bhdp2rcd13ifvqf20","pricing_plan_id":"cebpf4jnsgd1na2vs0mg"},{"bike_id":"8e1700e2-2825-47f3-9373-6fc227095b7d","system_id":"levelo_inurba_marseille","lat":43.24162,"lon":5.36392,"is_reserved":false,"is_disabled":false,"rental_uris":{"android":"levelo://app?vid=8e1700e2-2825-47f3-9373-6fc227095b7d","ios":"levelo://app?vid=8e1700e2-2825-47f3-9373-6fc227095b7d"},"vehicle_type_id":"4","last_reported":1736885411,"current_range_meters":38000,"station_id":"cpo36qri1sfpv3e86is0","pricing_plan_id":"cebpf4jnsgd1na2vs0mg"},{"bike_id":"7b71b7db-e814-4c4a-bfc2-c7099efbeef6","system_id":"levelo_inurba_marseille","lat":43.31149,"lon":5.38734,"is_reserved":false,"is_disabled":false,"rental_uris":{"android":"levelo://app?vid=7b71b7db-e814-4c4a-bfc2-c7099efbeef6","ios":"levelo://app?vid=7b71b7db-e814-4c4a-bfc2-c7099efbeef6"},"vehicle_type_id":"4","last_reported":1736885411,"current_range_meters":4800,"station_id":"ce4bgv12rcd13ifvqcp0","pricing_plan_id":"cebpf4jnsgd1na2vs0mg"},{"bike_id":"865fa250-7b57-406e-a385-67c8de853640","system_id":"levelo_inurba_marseille","lat":43.25078,"lon":5.39514,"is_reserved":false,"is_disabled":false,"rental_uris":{"android":"levelo://app?vid=865fa250-7b57-406e-a385-67c8de853640","ios":"levelo://app?vid=865fa250-7b57-406e-a385-67c8de853640"},"vehicle_type_id":"4","last_reported":1736885411,"current_range_meters":18000,"station_id":"ce4bhm12rcd13ifvqgkg","pricing_plan_id":"cebpf4jnsgd1na2vs0mg"},{"bike_id":"425eddbf-183c-4a0a-90ce-705831814409","system_id":"levelo_inurba_marseille","lat":43.27997,"lon":5.40009,"is_reserved":false,"is_disabled":false,"rental_uris":{"android":"levelo://app?vid=425eddbf-183c-4a0a-90ce-705831814409","ios":"levelo://app?vid=425eddbf-183c-4a0a-90ce-705831814409"},"vehicle_type_id":"4","last_reported":1736885411,"current_range_meters":32400,"station_id":"ce4bho92rcd13ifvqh4g","pricing_plan_id":"cebpf4jnsgd1na2vs0mg"},{"bike_id":"5a957638-0174-4316-baf5-ca8c020de24f","system_id":"levelo_inurba_marseille","lat":43.25086,"lon":5.39516,"is_reserved":false,"is_disabled":false,"rental_uris":{"android":"levelo://app?vid=5a957638-0174-4316-baf5-ca8c020de24f","ios":"levelo://app?vid=5a957638-0174-4316-baf5-ca8c020de24f"},"vehicle_type_id":"4","last_reported":1736885411,"current_range_meters":17600,"station_id":"ce4bhm12rcd13ifvqgkg","pricing_plan_id":"cebpf4jnsgd1na2vs0mg"},{"bike_id":"4a4d296c-e71a-4d73-8515-0b49a9079d8d","system_id":"levelo_inurba_marseille","lat":43.23191,"lon":5.39976,"is_reserved":false,"is_disabled":false,"rental_uris":{"android":"levelo://app?vid=4a4d296c-e71a-4d73-8515-0b49a9079d8d","ios":"levelo://app?vid=4a4d296c-e71a-4d73-8515-0b49a9079d8d"},"vehicle_type_id":"4","last_reported":1736885411,"current_range_meters":28400,"station_id":"ce4bhn12rcd13ifvqgqg","pricing_plan_id":"cebpf4jnsgd1na2vs0mg"},