{"last_updated":1747131112,"ttl":60,"version":"2.2","data":{"bikes":[{"bike_id":"c0b9fd4f-e181-46ce-b0bf-f5119973334f","system_id":"levelo_inurba_marseille","lat":43.33771,"lon":5.37424,"is_reserved":false,"is_disabled":false,"rental_uris":{"android":"levelo://app?vid=c0b9fd4f-e181-46ce-b0bf-f5119973334f","ios":"levelo://app?vid=c0b9fd4f-e181-46ce-b0bf-f5119973334f"},"vehicle_type_id":"4","last_reported":1747131112,"current_range_meters":24400,"station_id":"","pricing_plan_id":"cebpf4jnsgd1na2vs0mg"},{"bike_id":"25684216-a3fc-4916-8e05-9505382e4ab5","system_id":"levelo_inurba_marseille","lat":43.27383,"lon":5.39054,"is_reserved":false,"is_disabled":true,"rental_uris":{"android":"levelo://app?vid=25684216-a3fc-4916-8e05-9505382e4ab5","ios":"levelo://app?vid=25684216-a3fc-4916-8e05-9505382e4ab5"},"vehicle_type_id":"4","last_reported":1747131112,"current_range_meters":0,"station_id":"","pricing_plan_id":"cebpf4jnsgd1na2vs0mg"},{"bike_id":"d19ebaab-ef98-4efa-b952-7192b9b2f014","system_id":"levelo_inurba_marseille","lat":43.26137,"lon":5.39211,"is_reserved":false,"is_disabled":true,"rental_uris":{"android":"levelo://app?vid=d19ebaab-ef98-4efa-b952-7192b9b2f014","ios":"levelo://app?vid=d19ebaab-ef98-4efa-b952-7192b9b2f014"},"vehicle_type_id":"4","last_reported":1747131112,"current_range_meters":0,"station_id":"","pricing_plan_id":"cebpf4jnsgd1na2vs0mg"},{"bike_id":"792567c6-0442-4011-aff0-9c05e25deb48","system_id":"levelo_inurba_marseille","lat":43.28104,"lon":5.44193,"is_reserved":false,"is_disabled":true,"rental_uris":{"android":"levelo://app?vid=792567c6-0442-4011-aff0-9c05e25deb48","ios":"levelo://app?vid=792567c6-0442-4011-aff0-9c05e25deb48"},"vehicle_type_id":"4","last_reported":1747131112,"current_range_meters":0,"station_id":"","pricing_plan_id":"cebpf4jnsgd1na2vs0mg"},{"bike_id":"9ede911c-f878-4f9b-8d75-b4cc562783bb","system_id":"levelo_inurba_marseille","lat":43.29021,"lon":5.3864,"is_reserved":false,"is_disabled":true,"rental_uris":{"android":"levelo://app?vid=9ede911c-f878-4f9b-8d75-b4cc562783bb","ios":"levelo://app?vid=9ede911c-f878-4f9b-8d75-b4cc562783bb"},"vehicle_type_id":"4","last_reported":1747131112,"current_range_meters":0,"station_id":"ce4bh4p2rcd13ifvqe0g","pricing_plan_id":"cebpf4jnsgd1na2vs0mg"},{"bike_id":"1a7bc80f-bc86-4500-b570-4f09b4684eb0","system_id":"levelo_inurba_marseille","lat":43.29095,"lon":5.3813,"is_reserved":false,"is_disabled":true,"rental_uris":{"android":"levelo://app?vid=1a7bc80f-bc86-4500-b570-4f09b4684eb0","ios":"levelo://app?vid=1a7bc80f-bc86-4500-b570-4f09b4684eb0"},"vehicle_type_id":"4","last_reported":1747131112,"current_range_meters":0,"station_id":"ce4bh512rcd13ifvqe2g","pricing_plan_id":"cebpf4jnsgd1na2vs0mg"},{"bike_id":"85afe956-54f5-4074-bc2f-0c9bd2203a59","system_id":"levelo_inurba_marseille","lat":43.28849,"lon":5.35805,"is_reserved":false,"is_disabled":true,"rental_uris":{"android":"levelo://app?vid=85afe956-54f5-4074-bc2f-0c9bd2203a59","ios":"levelo://app?vid=85afe956-54f5-4074-bc2f-0c9bd2203a59"},"vehicle_type_id":"4","last_reported":1747131112,"current_range_meters":0,"station_id":"ce4bhb12rcd13ifvqem0","pricing_plan_id":"cebpf4jnsgd1na2vs0mg"},{"bike_id":"46397486-5161-459f-95bf-50422c29455a","system_id":"levelo_inurba_marseille","lat":43.29001,"lon":5.35616,"is_reserved":false,"is_disabled":true,"rental_uris":{"android":"levelo://app?vid=46397486-5161-459f-95bf-50422c29455a","ios":"levelo://app?vid=46397486-5161-459f-95bf-50422c29455a"},"vehicle_type_id":"4","last_reported":1747131112,"current_range_meters":0,"station_id":"ce4bhb92rcd13ifvqen0","pricing_plan_id":"cebpf4jnsgd1na2vs0mg"},{"bike_id":"3f6b197e-387c-4985-8eb3-7749205acc39","system_id":"levelo_inurba_marseille","lat":43.27373,"lon":5.3622,"is_reserved":false,"is_disabled":true,"rental_uris":{"android":"levelo://app?vid=3f6b197e-387c-4985-8eb3-7749205acc39","ios":"levelo://app?vid=3f6b197e-387c-4985-8eb3-7749205acc39"},"vehicle_type_id":"4","last_reported":1747131112,"current_range_meters":0,"station_id":"ce4bhbh2rcd13ifvqeo0","pricing_plan_id":"cebpf4jnsgd1na2vs0mg"},{"bike_id":"4d1311b7-8fa9-41c9-b1a4-e11bd3341c16","system_id":"levelo_inurba_marseille","lat":43.28257,"lon":5.35071,"is_reserved":false,"is_disabled":true,"rental_uris":{"android":"levelo://app?vid=4d1311b7-8fa9-41c9-b1a4-e11bd3341c16","ios":"levelo://app?vid=4d1311b7-8fa9-41c9-b1a4-e11bd3341c16"},"vehicle_type_id":"4","last_reported":1747131112,"current_range_meters":0,"station_id":"ce4bhbp2rcd13ifvqerg","pricing_plan_id":"cebpf4jnsgd1na2vs0mg"},{"bike_id":"68d7048f-655e-4948-a6ff-9eb1b9a3d8c1","system_id":"levelo_inurba_marseille","lat":43.28259,"lon":5.35078,"is_reserved":false,"is_disabled":true,"rental_uris":{"android":"levelo://app?vid=68d7048f-655e-4948-a6ff-9eb1b9a3d8c1","ios":"levelo://app?vid=68d7048f-655e-4948-a6ff-9eb1b9a3d8c1"},"vehicle_type_id":"4","last_reported":1747131112,"current_range_meters":0,"station_id":"ce4bhbp2rcd13ifvqerg","pricing_plan_id":"cebpf4jnsgd1na2vs0mg"},{"bike_id":"aa082041-db04-4df7-bd50-8ae32652b4b2","system_id":"levelo_inurba_marseille","lat":43.25121,"lon":5.40318,"is_reserved":false,"is_disabled":true,"rental_uris":{"android":"levelo://app?vid=aa082041-db04-4df7-bd50-8ae32652b4b2","ios":"levelo://app?vid=aa082041-db04-4df7-bd50-8ae32652b4b2"},"vehicle_type_id":"4","last_reported":1747131112,"current_range_meters":0,"station_id":"ce4bhlh2rcd13ifvqgig","pricing_plan_id":"cebpf4jnsgd1na2vs0mg"},{"bike_id":"39f6dae9-b6b0-40f9-9c03-2a6a3ae036ea","system_id":"levelo_inurba_marseille","lat":43.24549,"lon":5.39532,"is_reserved":false,"is_disabled":true,"rental_uris":{"android":"levelo://app?vid=39f6dae9-b6b0-40f9-9c03-2a6a3ae036ea","ios":"levelo://app?vid=39f6dae9-b6b0-40f9-9c03-2a6a3ae036ea"},"vehicle_type_id":"4","last_reported":1747131112,"current_range_meters":0,"station_id":"ce4bhlp2rcd13ifvqgjg","pricing_plan_id":"cebpf4jnsgd1na2vs0mg"},{"bike_id":"e1cb567f-3f65-4bbd-be58-de7578480099","system_id":"levelo_inurba_marseille","lat":43.23153,"lon":5.43717,"is_reserved":false,"is_disabled":true,"rental_uris":{"android":"levelo://app?vid=e1cb567f-3f65-4bbd-be58-de7578480099","ios":"levelo://app?vid=e1cb567f-3f65-4bbd-be58-de7578480099"},"vehicle_type_id":"4","last_reported":1747131112,"current_range_meters":0,"station_id":"ce4bhmp2rcd13ifvqgog","pricing_plan_id":"cebpf4jnsgd1na2vs0mg"},{"bike_id":"5572d6d1-d848-4baa-940e-62d87c3fbc23","system_id":"levelo_inurba_marseille","lat":43.296173,"lon":5.371533,"is_reserved":false,"is_disabled":true,"rental_uris":{"android":"levelo://app?vid=5572d6d1-d848-4baa-940e-62d87c3fbc23","ios":"levelo://app?vid=5572d6d1-d848-4baa-940e-62d87c3fbc23"},"vehicle_type_id":"4","last_reported":1747131112,"current_range_meters":400,"station_id":"ce4bgnh2rcd13ifvqc0g","pricing_plan_id":"cebpf4jnsgd1na2vs0mg"},{"bike_id":"3bbed440-52ca-4e70-b1db-3f96f28e120c","system_id":"levelo_inurba_marseille","lat":43.29073,"lon":5.37166,"is_reserved":false,"is_disabled":true,"rental_uris":{"android":"levelo://app?vid=3bbed440-52ca-4e70-b1db-3f96f28e120c","ios":"levelo://app?vid=3bbed440-52ca-4e70-b1db-3f96f28e120c"},"vehicle_type_id":"4","last_reported":1747131112,"current_range_meters":400,"station_id":"ce4bh5p2rcd13ifvqe4g","pricing_plan_id":"cebpf4jnsgd1na2vs0mg"},{"bike_id":"a8f60713-23b3-424f-a5ed-77208051aee1","system_id":"levelo_inurba_marseille","lat":43.24386,"lon":5.37062,"is_reserved":false,"is_disabled":true,"rental_uris":{"android":"levelo://app?vid=a8f60713-23b3-424f-a5ed-77208051aee1","ios":"levelo://app?vid=a8f60713-23b3-424f-a5ed-77208051aee1"},"vehicle_type_id":"4","last_reported":1747131112,"current_range_meters":400,"station_id":"ce4bhhh2rcd13ifvqfk0","pricing_plan_id":"cebpf4jnsgd1na2vs0mg"},{"bike_id":"0fedde00-40eb-40d2-8fc2-e61ecce46b7b","system_id":"levelo_inurba_marseille","lat":43.28327,"lon":5.4322,"is_reserved":false,"is_disabled":true,"rental_uris":{"android":"levelo://app?vid=0fedde00-40eb-40d2-8fc2-e61ecce46b7b","ios":"levelo://app?vid=0fedde00-40eb-40d2-8fc2-e61ecce46b7b"},"vehicle_type_id":"4","last_reported":1747131112,"current_range_meters":1200,"station_id":"","pricing_plan_id":"cebpf4jnsgd1na2vs0mg"},{"bike_id":"3305760b-0c0f-4cf5-8873-ee22b793a11f","system_id":"levelo_inurba_marseille","lat":43.3089,"lon":5.37193,"is_reserved":false,"is_disabled":true,"rental_uris":{"android":"levelo://app?vid=3305760b-0c0f-4cf5-8873-ee22b793a11f","ios":"levelo://app?vid=3305760b-0c0f-4cf5-8873-ee22b793a11f"},"vehicle_type_id":"4","last_reported":1747131112,"current_range_meters":1200,"station_id":"ce4bguh2rcd13ifvqckg","pricing_plan_id":"cebpf4jnsgd1na2vs0mg"},{"bike_id":"fc2577e7-1497-425b-9d4f-ab8d7dc843c6","system_id":"levelo_inurba_marseille","lat":43.33771,"lon":5.37485,"is_reserved":false,"is_disabled":true,"rental_uris":{"android":"levelo://app?vid=fc2577e7-1497-425b-9d4f-ab8d7dc843c6","ios":"levelo://app?vid=fc2577e7-1497-425b-9d4f-ab8d7dc843c6"},"vehicle_type_id":"4","last_reported":1747131112,"current_range_meters":1600,"station_id":"","pricing_plan_id":"cebpf4jnsgd1na2vs0mg"},{"bike_id":"73ff8c44-0977-4b4d-b759-9ccb3cb56773","system_id":"levelo_inurba_marseille","lat":43.29265,"lon":5.38435,"is_reserved":false,"is_disabled":true,"rental_uris":{"android":"levelo://app?vid=73ff8c44-0977-4b4d-b759-9ccb3cb56773","ios":"levelo://app?vid=73ff8c44-0977-4b4d-b759-9ccb3cb56773"},"vehicle_type_id":"4","last_reported":1747131112,"current_range_meters":1600,"station_id":"","pricing_plan_id":"cebpf4jnsgd1na2vs0mg"},{"bike_id":"afae46ae-42fc-4705-8776-3b2ace4cc4e2","system_id":"levelo_inurba_marseille","lat":43.30596,"lon":5.37229,"is_reserved":false,"is_disabled":true,"rental_uris":{"android":"levelo://app?vid=afae46ae-42fc-4705-8776-3b2ace4cc4e2","ios":"levelo://app?vid=afae46ae-42fc-4705-8776-3b2ace4cc4e2"},"vehicle_type_id":"4","last_reported":1747131112,"current_range_meters":1600,"station_id":"ce4bgqh2rcd13ifvqc4g","pricing_plan_id":"cebpf4jnsgd1na2vs0mg"},{"bike_id":"7af91c38-724e-46fe-adbc-b5ec0110b759","system_id":"levelo_inurba_marseille","lat":43.28262,"lon":5.35065,"is_reserved":false,"is_disabled":true,"rental_uris":{"android":"levelo://app?vid=7af91c38-724e-46fe-adbc-b5ec0110b759","ios":"levelo://app?vid=7af91c38-724e-46fe-adbc-b5ec0110b759"},"vehicle_type_id":"4","last_reported":1747131112,"current_range_meters":1600,"station_id":"ce4bhbp2rcd13ifvqerg","pricing_plan_id":"cebpf4jnsgd1na2vs0mg"},{"bike_id":"bd2ee96e-90b3-4727-b701-c669ba09e2a4","system_id":"levelo_inurba_marseille","lat":43.2955,"lon":5.42294,"is_reserved":false,"is_disabled":true,"rental_uris":{"android":"levelo://app?vid=bd2ee96e-90b3-4727-b701-c669ba09e2a4","ios":"levelo://app?vid=bd2ee96e-90b3-4727-b701-c669ba09e2a4"},"vehicle_type_id":"4","last_reported":1747131112,"current_range_meters":1600,"station_id":"ce4bhph2rcd13ifvqhdg","pricing_plan_id":"cebpf4jnsgd1na2vs0mg"},{"bike_id":"1d65d494-9957-476b-88c6-d5ae0baaee20","system_id":"levelo_inurba_marseille","lat":43.2762,"lon":5.3611,"is_reserved":false,"is_disabled":false,"rental_uris":{"android":"levelo://app?vid=1d65d494-9957-476b-88c6-d5ae0baaee20","ios":"levelo://app?vid=1d65d494-9957-476b-88c6-d5ae0baaee20"},"vehicle_type_id":"4","last_reported":1747131112,"current_range_meters":2800,"station_id":"ce4bgj92rcd13ifvqbe0","pricing_plan_id":"cebpf4jnsgd1na2vs0mg"},{"bike_id":"060d57ff-d8bf-408a-859a-cf9e0bbc6323","system_id":"levelo_inurba_marseille","lat":43.27068,"lon":5.42299,"is_reserved":false,"is_disabled":false,"rental_uris":{"android":"levelo://app?vid=060d57ff-d8bf-408a-859a-cf9e0bbc6323","ios":"levelo://app?vid=060d57ff-d8bf-408a-859a-cf9e0bbc6323"},"vehicle_type_id":"4","last_reported":1747131112,"current_range_meters":4000,"station_id":"ce4bhk92rcd13ifvqgb0","pricing_plan_id":"cebpf4jnsgd1na2vs0mg"},{"bike_id":"cc87bfe3-f990-4195-949f-e7ffc1814bdf","system_id":"levelo_inurba_marseille","lat":43.28418,"lon":5.34973,"is_reserved":false,"is_disabled":false,"rental_uris":{"android":"levelo://app?vid=cc87bfe3-f990-4195-949f-e7ffc1814bdf","ios":"levelo://app?vid=cc87bfe3-f990-4195-949f-e7ffc1814bdf"},"vehicle_type_id":"4","last_reported":1747131112,"current_range_meters":4800,"station_id":"ce4bhbh2rcd13ifvqepg","pricing_plan_id":"cebpf4jnsgd1na2vs0mg"},{"bike_id":"b5d55b28-f2f5-4f92-9240-75c595f79f6b","system_id":"levelo_inurba_marseille","lat":43.290201,"lon":5.381321,"is_reserved":false,"is_disabled":false,"rental_uris":{"android":"levelo://app?vid=b5d55b28-f2f5-4f92-9240-75c595f79f6b","ios":"levelo://app?vid=b5d55b28-f2f5-4f92-9240-75c595f79f6b"},"vehicle_type_id":"4","last_reported":1747131112,"current_range_meters":5600,"station_id":"ce4bh4p2rcd13ifvqe1g","pricing_plan_id":"cebpf4jnsgd1na2vs0mg"},{"bike_id":"215df19e-c36c-4a14-9bee-bbf1346d5879","system_id":"levelo_inurba_marseille","lat":43.29008,"lon":5.35613,"is_reserved":false,"is_disabled":false,"rental_uris":{"android":"levelo://app?vid=215df19e-c36c-4a14-9bee-bbf1346d5879","ios":"levelo://app?vid=215df19e-c36c-4a14-9bee-bbf1346d5879"},"vehicle_type_id":"4","last_reported":1747131112,"current_range_meters":5600,"station_id":"ce4bhb92rcd13ifvqen0","pricing_plan_id":"cebpf4jnsgd1na2vs0mg"},{"bike_id":"b0ac8040-90e0-41ee-a2e3-e5462910fefc","system_id":"levelo_inurba_marseille","lat":43.27536,"lon":5.41296,"is_reserved":false,"is_disabled":false,"rental_uris":{"android":"levelo://app?vid=b0ac8040-90e0-41ee-a2e3-e5462910fefc","ios":"levelo://app?vid=b0ac8040-90e0-41ee-a2e3-e5462910fefc"},"vehicle_type_id":"4","last_reported":1747131112,"current_range_meters":6000,"station_id":"","pricing_plan_id":"cebpf4jnsgd1na2vs0mg"},{"bike_id":"edb20238-31ac-435c-acdc-30d0cc2b0e49","system_id":"levelo_inurba_marseille","lat":43.28475,"lon":5.38415,"is_reserved":false,"is_disabled":false,"rental_uris":{"android":"levelo://app?vid=edb20238-31ac-435c-acdc-30d0cc2b0e49","ios":"levelo://app?vid=edb20238-31ac-435c-acdc-30d0cc2b0e49"},"vehicle_type_id":"4","last_reported":1747131112,"current_range_meters":6400,"station_id":"","pricing_plan_id":"cebpf4jnsgd1na2vs0mg"},{"bike_id":"fe72952e-c6ee-4408-9897-8150752b4a8b","system_id":"levelo_inurba_marseille","lat":43.3054,"lon":5.36724,"is_reserved":false,"is_disabled":false,"rental_uris":{"android":"levelo://app?vid=fe72952e-c6ee-4408-9897-8150752b4a8b","ios":"levelo://app?vid=fe72952e-c6ee-4408-9897-8150752b4a8b"},"vehicle_type_id":"4","last_reported":1747131112,"current_range_meters":6400,"station_id":"ce4bgrp2rcd13ifvqc9g","pricing_plan_id":"cebpf4jnsgd1na2vs0mg"},{"bike_id":"006f238e-08b2-4fc6-9168-2db7a4b4b003","system_id":"levelo_inurba_marseille","lat":43.29003,"lon":5.35613,"is_reserved":false,"is_disabled":false,"rental_uris":{"android":"levelo://app?vid=006f238e-08b2-4fc6-9168-2db7a4b4b003","ios":"levelo://app?vid=006f238e-08b2-4fc6-9168-2db7a4b4b003"},"vehicle_type_id":"4","last_reported":1747131112,"current_range_meters":6400,"station_id":"ce4bhb92rcd13ifvqen0","pricing_plan_id":"cebpf4jnsgd1na2vs0mg"},{"bike_id":"978dab67-af73-4c62-8022-ced875e4ffc1","system_id":"levelo_inurba_marseille","lat":43.28416,"lon":5.34998,"is_reserved":false,"is_disabled":false,"rental_uris":{"android":"levelo://app?vid=978dab67-af73-4c62-8022-ced875e4ffc1","ios":"levelo://app?vid=978dab67-af73-4c62-8022-ced875e4ffc1"},"vehicle_type_id":"4","last_reported":1747131112,"current_range_meters":6800,"station_id":"ce4bhbh2rcd13ifvqepg","pricing_plan_id":"cebpf4jnsgd1na2vs0mg"},{"bike_id":"7d01648b-531c-4d03-a92d-468de7d191d6","system_id":"levelo_inurba_marseille","lat":43.27065,"lon":5.42259,"is_reserved":false,"is_disabled":false,"rental_uris":{"android":"levelo://app?vid=7d01648b-531c-4d03-a92d-468de7d191d6","ios":"levelo://app?vid=7d01648b-531c-4d03-a92d-468de7d191d6"},"vehicle_type_id":"4","last_reported":1747131112,"current_range_meters":6800,"station_id":"ce4bhk92rcd13ifvqgb0","pricing_plan_id":"cebpf4jnsgd1na2vs0mg"},{"bike_id":"6217c6a7-3504-4d3d-8128-c3bff46ea608","system_id":"levelo_inurba_marseille","lat":43.21176,"lon":5.35068,"is_reserved":false,"is_disabled":false,"rental_uris":{"android":"levelo://app?vid=6217c6a7-3504-4d3d-8128-c3bff46ea608","ios":"levelo://app?vid=6217c6a7-3504-4d3d-8128-c3bff46ea608"},"vehicle_type_id":"4","last_reported":1747131112,"current_range_meters":6800,"station_id":"st_cvj6sg6p6f1abm77japg","pricing_plan_id":"cebpf4jnsgd1na2vs0mg"},{"bike_id":"831aa21e-7eed-48a7-8fee-11df5950f587","system_id":"levelo_inurba_marseille","lat":43.284062,"lon":5.349854,"is_reserved":false,"is_disabled":false,"rental_uris":{"android":"levelo://app?vid=831aa21e-7eed-48a7-8fee-11df5950f587","ios":"levelo://app?vid=831aa21e-7eed-48a7-8fee-11df5950f587"},"vehicle_type_id":"4","last_reported":1747131112,"current_range_meters":7200,"station_id":"ce4bhbh2rcd13ifvqepg","pricing_plan_id":"cebpf4jnsgd1na2vs0mg"},{"bike_id":"46dcd1ab-ae1b-4d88-a76b-6d678699228a","system_id":"levelo_inurba_marseille","lat":43.29599,"lon":5.376267,"is_reserved":false,"is_disabled":false,"rental_uris":{"android":"levelo://app?vid=46dcd1ab-ae1b-4d88-a76b-6d678699228a","ios":"levelo://app?vid=46dcd1ab-ae1b-4d88-a76b-6d678699228a"},"vehicle_type_id":"4","last_reported":1747131112,"current_range_meters":8400,"station_id":"ce4bgkp2rcd13ifvqbmg","pricing_plan_id":"cebpf4jnsgd1na2vs0mg"},{"bike_id":"203baed1-46c2-4299-90d8-e76d7867f3b0","system_id":"levelo_inurba_marseille","lat":43.296173,"lon":5.371519,"is_reserved":false,"is_disabled":false,"rental_uris":{"android":"levelo://app?vid=203baed1-46c2-4299-90d8-e76d7867f3b0","ios":"levelo://app?vid=203baed1-46c2-4299-90d8-e76d7867f3b0"},"vehicle_type_id":"4","last_reported":1747131112,"current_range_meters":8400,"station_id":"ce4bgnh2rcd13ifvqc0g","pricing_plan_id":"cebpf4jnsgd1na2vs0mg"},{"bike_id":"c2cdc810-a80b-4b1e-ab8d-2ea3b4f98e83","system_id":"levelo_inurba_marseille","lat":43.29876,"lon":5.36256,"is_reserved":false,"is_disabled":false,"rental_uris":{"android":"levelo://app?vid=c2cdc810-a80b-4b1e-ab8d-2ea3b4f98e83","ios":"levelo://app?vid=c2cdc810-a80b-4b1e-ab8d-2ea3b4f98e83"},"vehicle_type_id":"4","last_reported":1747131112,"current_range_meters":8400,"station_id":"ce4bgpp2rcd13ifvqc3g","pricing_plan_id":"cebpf4jnsgd1na2vs0mg"},{"bike_id":"6ab7cd54-3537-479a-9c35-99af64f7db33","system_id":"levelo_inurba_marseille","lat":43.30599,"lon":5.37227,"is_reserved":false,"is_disabled":false,"rental_uris":{"android":"levelo://app?vid=6ab7cd54-3537-479a-9c35-99af64f7db33","ios":"levelo://app?vid=6ab7cd54-3537-479a-9c35-99af64f7db33"},"vehicle_type_id":"4","last_reported":1747131112,"current_range_meters":8400,"station_id":"ce4bgqh2rcd13ifvqc4g","pricing_plan_id":"cebpf4jnsgd1na2vs0mg"},{"bike_id":"c410ec1c-c585-442f-bfb0-30c5009bfd78","system_id":"levelo_inurba_marseille","lat":43.28263,"lon":5.3507,"is_reserved":false,"is_disabled":false,"rental_uris":{"android":"levelo://app?vid=c410ec1c-c585-442f-bfb0-30c5009bfd78","ios":"levelo://app?vid=c410ec1c-c585-442f-bfb0-30c5009bfd78"},"vehicle_type_id":"4","last_reported":1747131112,"current_range_meters":8400,"station_id":"ce4bhbp2rcd13ifvqerg","pricing_plan_id":"cebpf4jnsgd1na2vs0mg"},{"bike_id":"2ee4d910-0ee1-4bc5-86c8-c77afad12b4f","system_id":"levelo_inurba_marseille","lat":43.321046,"lon":5.367666,"is_reserved":false,"is_disabled":false,"rental_uris":{"android":"levelo://app?vid=2ee4d910-0ee1-4bc5-86c8-c77afad12b4f","ios":"levelo://app?vid=2ee4d910-0ee1-4bc5-86c8-c77afad12b4f"},"vehicle_type_id":"4","last_reported":1747131112,"current_range_meters":8400,"station_id":"ce4bhrh2rcd13ifvqhug","pricing_plan_id":"cebpf4jnsgd1na2vs0mg"},{"bike_id":"3f13f210-e94a-40ed-9368-f87fffb7570b","system_id":"levelo_inurba_marseille","lat":43.2953,"lon":5.39037,"is_reserved":false,"is_disabled":false,"rental_uris":{"android":"levelo://app?vid=3f13f210-e94a-40ed-9368-f87fffb7570b","ios":"levelo://app?vid=3f13f210-e94a-40ed-9368-f87fffb7570b"},"vehicle_type_id":"4","last_reported":1747131112,"current_range_meters":8800,"station_id":"ce4bh3p2rcd13ifvqdp0","pricing_plan_id":"cebpf4jnsgd1na2vs0mg"},{"bike_id":"5a000204-ad4e-4f28-b720-d97b6530bfea","system_id":"levelo_inurba_marseille","lat":43.30141,"lon":5.38063,"is_reserved":false,"is_disabled":false,"rental_uris":{"android":"levelo://app?vid=5a000204-ad4e-4f28-b720-d97b6530bfea","ios":"levelo://app?vid=5a000204-ad4e-4f28-b720-d97b6530bfea"},"vehicle_type_id":"4","last_reported":1747131112,"current_range_meters":9200,"station_id":"ce4bgjp2rcd13ifvqbh0","pricing_plan_id":"cebpf4jnsgd1na2vs0mg"},{"bike_id":"dea4d8c9-9d69-423c-8bbb-3b0ffd178b53","system_id":"levelo_inurba_marseille","lat":43.28923,"lon":5.38398,"is_reserved":false,"is_disabled":false,"rental_uris":{"android":"levelo://app?vid=dea4d8c9-9d69-423c-8bbb-3b0ffd178b53","ios":"levelo://app?vid=dea4d8c9-9d69-423c-8bbb-3b0ffd178b53"},"vehicle_type_id":"4","last_reported":1747131112,"current_range_meters":9200,"station_id":"ce4bh612rcd13ifvqe6g","pricing_plan_id":"cebpf4jnsgd1na2vs0mg"},{"bike_id":"9df488ec-a829-4c25-a919-b07a0b9f14c5","system_id":"levelo_inurba_marseille","lat":43.29854,"lon":5.36279,"is_reserved":false,"is_disabled":false,"rental_uris":{"android":"levelo://app?vid=9df488ec-a829-4c25-a919-b07a0b9f14c5","ios":"levelo://app?vid=9df488ec-a829-4c25-a919-b07a0b9f14c5"},"vehicle_type_id":"4","last_reported":1747131112,"current_range_meters":10000,"station_id":"ce4bgpp2rcd13ifvqc3g","pricing_plan_id":"cebpf4jnsgd1na2vs0mg"},{"bike_id":"8a2c30d0-eba1-48d7-be13-dc82296d2c7d","system_id":"levelo_inurba_marseille","lat":43.30532,"lon":5.36524,"is_reserved":false,"is_disabled":false,"rental_uris":{"android":"levelo://app?vid=8a2c30d0-eba1-48d7-be13-dc82296d2c7d","ios":"levelo://app?vid=8a2c30d0-eba1-48d7-be13-dc82296d2c7d"},"vehicle_type_id":"4","last_reported":1747131112,"current_range_meters":10000,"station_id":"ce4bgs12rcd13ifvqcag","pricing_plan_id":"cebpf4jnsgd1na2vs0mg"},{"bike_id":"d2e69e67-af51-4d23-a9dc-01ee7e282de0","system_id":"levelo_inurba_marseille","lat":43.27075,"lon":5.42271,"is_reserved":false,"is_disabled":false,"rental_uris":{"android":"levelo://app?vid=d2e69e67-af51-4d23-a9dc-01ee7e282de0","ios":"levelo://app?vid=d2e69e67-af51-4d23-a9dc-01ee7e282de0"},"vehicle_type_id":"4","last_reported":1747131112,"current_range_meters":10000,"station_id":"ce4bhk92rcd13ifvqgb0","pricing_plan_id":"cebpf4jnsgd1na2vs0mg"},{"bike_id":"0e89a721-196d-4572-b905-e39e1dafff7a","system_id":"levelo_inurba_marseille","lat":43.3212,"lon":5.36776,"is_reserved":false,"is_disabled":false,"rental_uris":{"android":"levelo://app?vid=0e89a721-196d-4572-b905-e39e1dafff7a","ios":"levelo://app?vid=0e89a721-196d-4572-b905-e39e1dafff7a"},"vehicle_type_id":"4","last_reported":1747131112,"current_range_meters":10000,"station_id":"ce4bhrh2rcd13ifvqhug","pricing_plan_id":"cebpf4jnsgd1na2vs0mg"},{"bike_id":"843545a0-615b-4e55-871b-02ac30ca746d","system_id":"levelo_inurba_marseille","lat":43.25821,"lon":5.39434,"is_reserved":false,"is_disabled":false,"rental_uris":{"android":"levelo://app?vid=843545a0-615b-4e55-871b-02ac30ca746d","ios":"levelo://app?vid=843545a0-615b-4e55-871b-02ac30ca746d"},"vehicle_type_id":"4","last_reported":1747131112,"current_range_meters":10800,"station_id":"ce4bhip2rcd13ifvqft0","pricing_plan_id":"cebpf4jnsgd1na2vs0mg"},{"bike_id":"e84c688a-ffef-4e36-a7b2-d296ffd6333d","system_id":"levelo_inurba_marseille","lat":43.295654,"lon":5.42282,"is_reserved":false,"is_disabled":false,"rental_uris":{"android":"levelo://app?vid=e84c688a-ffef-4e36-a7b2-d296ffd6333d","ios":"levelo://app?vid=e84c688a-ffef-4e36-a7b2-d296ffd6333d"},"vehicle_type_id":"4","last_reported":1747131112,"current_range_meters":10800,"station_id":"ce4bhph2rcd13ifvqhdg","pricing_plan_id":"cebpf4jnsgd1na2vs0mg"},{"bike_id":"0f760a05-8688-4092-988b-8aa98d007cb1","system_id":"levelo_inurba_marseille","lat":43.31349,"lon":5.36651,"is_reserved":false,"is_disabled":false,"rental_uris":{"android":"levelo://app?vid=0f760a05-8688-4092-988b-8aa98d007cb1","ios":"levelo://app?vid=0f760a05-8688-4092-988b-8aa98d007cb1"},"vehicle_type_id":"4","last_reported":1747131112,"current_range_meters":11600,"station_id":"ce4bgr92rcd13ifvqc6g","pricing_plan_id":"cebpf4jnsgd1na2vs0mg"},{"bike_id":"66d58cd5-3fe7-4cf6-8ee9-5f8a6e78def3","system_id":"levelo_inurba_marseille","lat":43.32334,"lon":5.4062,"is_reserved":false,"is_disabled":false,"rental_uris":{"android":"levelo://app?vid=66d58cd5-3fe7-4cf6-8ee9-5f8a6e78def3","ios":"levelo://app?vid=66d58cd5-3fe7-4cf6-8ee9-5f8a6e78def3"},"vehicle_type_id":"4","last_reported":1747131112,"current_range_meters":11600,"station_id":"ce4bhq92rcd13ifvqhjg","pricing_plan_id":"cebpf4jnsgd1na2vs0mg"},{"bike_id":"8e033750-ac00-4ca7-bf8b-7f70e8f898dd","system_id":"levelo_inurba_marseille","lat":43.29624,"lon":5.37727,"is_reserved":false,"is_disabled":false,"rental_uris":{"android":"levelo://app?vid=8e033750-ac00-4ca7-bf8b-7f70e8f898dd","ios":"levelo://app?vid=8e033750-ac00-4ca7-bf8b-7f70e8f898dd"},"vehicle_type_id":"4","last_reported":1747131112,"current_range_meters":12000,"station_id":"ce4bgi92rcd13ifvqb90","pricing_plan_id":"cebpf4jnsgd1na2vs0mg"},{"bike_id":"43e946c7-a77c-46ba-9010-a4d46f2fd061","system_id":"levelo_inurba_marseille","lat":43.2838,"lon":5.34996,"is_reserved":false,"is_disabled":false,"rental_uris":{"android":"levelo://app?vid=43e946c7-a77c-46ba-9010-a4d46f2fd061","ios":"levelo://app?vid=43e946c7-a77c-46ba-9010-a4d46f2fd061"},"vehicle_type_id":"4","last_reported":1747131112,"current_range_meters":12000,"station_id":"ce4bhbp2rcd13ifvqerg","pricing_plan_id":"cebpf4jnsgd1na2vs0mg"},{"bike_id":"63cba8ed-6ed2-44f6-915d-6c4c2e1470b8","system_id":"levelo_inurba_marseille","lat":43.24547,"lon":5.3953,"is_reserved":false,"is_disabled":false,"rental_uris":{"android":"levelo://app?vid=63cba8ed-6ed2-44f6-915d-6c4c2e1470b8","ios":"levelo://app?vid=63cba8ed-6ed2-44f6-915d-6c4c2e1470b8"},"vehicle_type_id":"4","last_reported":1747131112,"current_range_meters":12000,"station_id":"ce4bhlp2rcd13ifvqgjg","pricing_plan_id":"cebpf4jnsgd1na2vs0mg"},{"bike_id":"f702f1f1-baff-4710-b092-d4b131f8acb6","system_id":"levelo_inurba_marseille","lat":43.3039,"lon":5.42452,"is_reserved":false,"is_disabled":false,"rental_uris":{"android":"levelo://app?vid=f702f1f1-baff-4710-b092-d4b131f8acb6","ios":"levelo://app?vid=f702f1f1-baff-4710-b092-d4b131f8acb6"},"vehicle_type_id":"4","last_reported":1747131112,"current_range_meters":12400,"station_id":"ce4bghh2rcd13ifvqb60","pricing_plan_id":"cebpf4jnsgd1na2vs0mg"},{"bike_id":"c70481fb-593b-4368-83b5-8348672f55d2","system_id":"levelo_inurba_marseille","lat":43.28264,"lon":5.35062,"is_reserved":false,"is_disabled":false,"rental_uris":{"android":"levelo://app?vid=c70481fb-593b-4368-83b5-8348672f55d2","ios":"levelo://app?vid=c70481fb-593b-4368-83b5-8348672f55d2"},"vehicle_type_id":"4","last_reported":1747131112,"current_range_meters":12400,"station_id":"ce4bhbp2rcd13ifvqerg","pricing_plan_id":"cebpf4jnsgd1na2vs0mg"},{"bike_id":"85c0c8c2-a849-4d6d-b0f9-e585af005f4a","system_id":"levelo_inurba_marseille","lat":43.30521,"lon":5.36488,"is_reserved":false,"is_disabled":false,"rental_uris":{"android":"levelo://app?vid=85c0c8c2-a849-4d6d-b0f9-e585af005f4a","ios":"levelo://app?vid=85c0c8c2-a849-4d6d-b0f9-e585af005f4a"},"vehicle_type_id":"4","last_reported":1747131112,"current_range_meters":12800,"station_id":"","pricing_plan_id":"cebpf4jnsgd1na2vs0mg"},{"bike_id":"d0567193-4418-4c06-ac80-6a8312c24516","system_id":"levelo_inurba_marseille","lat":43.26553,"lon":5.37288,"is_reserved":false,"is_disabled":false,"rental_uris":{"android":"levelo://app?vid=d0567193-4418-4c06-ac80-6a8312c24516","ios":"levelo://app?vid=d0567193-4418-4c06-ac80-6a8312c24516"},"vehicle_type_id":"4","last_reported":1747131112,"current_range_meters":14000,"station_id":"ce4bhg12rcd13ifvqf70","pricing_plan_id":"cebpf4jnsgd1na2vs0mg"},{"bike_id":"4e2612c2-c286-4777-90f3-3d09bfeeded9","system_id":"levelo_inurba_marseille","lat":43.24561,"lon":5.39529,"is_reserved":false,"is_disabled":false,"rental_uris":{"android":"levelo://app?vid=4e2612c2-c286-4777-90f3-3d09bfeeded9","ios":"levelo://app?vid=4e2612c2-c286-4777-90f3-3d09bfeeded9"},"vehicle_type_id":"4","last_reported":1747131112,"current_range_meters":14000,"station_id":"ce4bhlp2rcd13ifvqgjg","pricing_plan_id":"cebpf4jnsgd1na2vs0mg"},{"bike_id":"c4f86981-df25-43de-ae86-531fe96a2086","system_id":"levelo_inurba_marseille","lat":43.28706,"lon":5.39982,"is_reserved":false,"is_disabled":false,"rental_uris":{"android":"levelo://app?vid=c4f86981-df25-43de-ae86-531fe96a2086","ios":"levelo://app?vid=c4f86981-df25-43de-ae86-531fe96a2086"},"vehicle_type_id":"4","last_reported":1747131112,"current_range_meters":14000,"station_id":"ce4bho92rcd13ifvqh3g","pricing_plan_id":"cebpf4jnsgd1na2vs0mg"},{"bike_id":"6cb3ceb8-dace-4e74-9b1a-97edcf83bc0c","system_id":"levelo_inurba_marseille","lat":43.30538,"lon":5.36551,"is_reserved":false,"is_disabled":false,"rental_uris":{"android":"levelo://app?vid=6cb3ceb8-dace-4e74-9b1a-97edcf83bc0c","ios":"levelo://app?vid=6cb3ceb8-dace-4e74-9b1a-97edcf83bc0c"},"vehicle_type_id":"4","last_reported":1747131112,"current_range_meters":14800,"station_id":"ce4bgs12rcd13ifvqcag","pricing_plan_id":"cebpf4jnsgd1na2vs0mg"},{"bike_id":"5bb435e4-df10-48c7-a90a-d5061f350aa7","system_id":"levelo_inurba_marseille","lat":43.27067,"lon":5.4227,"is_reserved":false,"is_disabled":false,"rental_uris":{"android":"levelo://app?vid=5bb435e4-df10-48c7-a90a-d5061f350aa7","ios":"levelo://app?vid=5bb435e4-df10-48c7-a90a-d5061f350aa7"},"vehicle_type_id":"4","last_reported":1747131112,"current_range_meters":14800,"station_id":"ce4bhk92rcd13ifvqgb0","pricing_plan_id":"cebpf4jnsgd1na2vs0mg"},{"bike_id":"ba514e44-6b68-46f5-98bc-d99c9a5ef0e7","system_id":"levelo_inurba_marseille","lat":43.24173,"lon":5.39722,"is_reserved":false,"is_disabled":false,"rental_uris":{"android":"levelo://app?vid=ba514e44-6b68-46f5-98bc-d99c9a5ef0e7","ios":"levelo://app?vid=ba514e44-6b68-46f5-98bc-d99c9a5ef0e7"},"vehicle_type_id":"4","last_reported":1747131112,"current_range_meters":15200,"station_id":"ce4bhn12rcd13ifvqgpg","pricing_plan_id":"cebpf4jnsgd1na2vs0mg"},{"bike_id":"d1c5a942-38f1-45d5-83f3-50e0bd2e87c7","system_id":"levelo_inurba_marseille","lat":43.27997,"lon":5.41665,"is_reserved":false,"is_disabled":false,"rental_uris":{"android":"levelo://app?vid=d1c5a942-38f1-45d5-83f3-50e0bd2e87c7","ios":"levelo://app?vid=d1c5a942-38f1-45d5-83f3-50e0bd2e87c7"},"vehicle_type_id":"4","last_reported":1747131112,"current_range_meters":15200,"station_id":"ce4bho12rcd13ifvqh1g","pricing_plan_id":"cebpf4jnsgd1na2vs0mg"},{"bike_id":"af7378f2-5574-4580-8919-9220d94ad1cc","system_id":"levelo_inurba_marseille","lat":43.23202,"lon":5.3555,"is_reserved":false,"is_disabled":false,"rental_uris":{"android":"levelo://app?vid=af7378f2-5574-4580-8919-9220d94ad1cc","ios":"levelo://app?vid=af7378f2-5574-4580-8919-9220d94ad1cc"},"vehicle_type_id":"4","last_reported":1747131112,"current_range_meters":15200,"station_id":"ce4bhu92rcd13ifvqi70","pricing_plan_id":"cebpf4jnsgd1na2vs0mg"},{"bike_id":"9d352004-7b2c-43e3-9328-20e4f737c9c4","system_id":"levelo_inurba_marseille","lat":43.262294,"lon":5.404539,"is_reserved":false,"is_disabled":false,"rental_uris":{"android":"levelo://app?vid=9d352004-7b2c-43e3-9328-20e4f737c9c4","ios":"levelo://app?vid=9d352004-7b2c-43e3-9328-20e4f737c9c4"},"vehicle_type_id":"4","last_reported":1747131112,"current_range_meters":16000,"station_id":"","pricing_plan_id":"cebpf4jnsgd1na2vs0mg"},{"bike_id":"0a9f8ebd-29af-446f-93db-19c3e4761b21","system_id":"levelo_inurba_marseille","lat":43.31364,"lon":5.38494,"is_reserved":false,"is_disabled":false,"rental_uris":{"android":"levelo://app?vid=0a9f8ebd-29af-446f-93db-19c3e4761b21","ios":"levelo://app?vid=0a9f8ebd-29af-446f-93db-19c3e4761b21"},"vehicle_type_id":"4","last_reported":1747131112,"current_range_meters":16000,"station_id":"ce4bgt92rcd13ifvqcf0","pricing_plan_id":"cebpf4jnsgd1na2vs0mg"},{"bike_id":"b2f43434-b573-47c0-828a-e39ed8e2382b","system_id":"levelo_inurba_marseille","lat":43.28939,"lon":5.3664,"is_reserved":false,"is_disabled":false,"rental_uris":{"android":"levelo://app?vid=b2f43434-b573-47c0-828a-e39ed8e2382b","ios":"levelo://app?vid=b2f43434-b573-47c0-828a-e39ed8e2382b"},"vehicle_type_id":"4","last_reported":1747131112,"current_range_meters":16000,"station_id":"ce4bhap2rcd13ifvqek0","pricing_plan_id":"cebpf4jnsgd1na2vs0mg"},{"bike_id":"54ff9e2d-5dc2-40e7-b62d-e1b8563dacca","system_id":"levelo_inurba_marseille","lat":43.29197,"lon":5.35814,"is_reserved":false,"is_disabled":false,"rental_uris":{"android":"levelo://app?vid=54ff9e2d-5dc2-40e7-b62d-e1b8563dacca","ios":"levelo://app?vid=54ff9e2d-5dc2-40e7-b62d-e1b8563dacca"},"vehicle_type_id":"4","last_reported":1747131112,"current_range_meters":16000,"station_id":"ce4bhb12rcd13ifvqel0","pricing_plan_id":"cebpf4jnsgd1na2vs0mg"},{"bike_id":"6849816a-14a2-4736-aae2-e7373738bc80","system_id":"levelo_inurba_marseille","lat":43.25953,"lon":5.40882,"is_reserved":false,"is_disabled":false,"rental_uris":{"android":"levelo://app?vid=6849816a-14a2-4736-aae2-e7373738bc80","ios":"levelo://app?vid=6849816a-14a2-4736-aae2-e7373738bc80"},"vehicle_type_id":"4","last_reported":1747131112,"current_range_meters":16000,"station_id":"ce4bhm92rcd13ifvqglg","pricing_plan_id":"cebpf4jnsgd1na2vs0mg"},{"bike_id":"a1ed4904-38cc-491f-92cb-861a117a191d","system_id":"levelo_inurba_marseille","lat":43.29301,"lon":5.37468,"is_reserved":false,"is_disabled":false,"rental_uris":{"android":"levelo://app?vid=a1ed4904-38cc-491f-92cb-861a117a191d","ios":"levelo://app?vid=a1ed4904-38cc-491f-92cb-861a117a191d"},"vehicle_type_id":"4","last_reported":1747131112,"current_range_meters":16400,"station_id":"ce4bgi12rcd13ifvqb70","pricing_plan_id":"cebpf4jnsgd1na2vs0mg"},{"bike_id":"3c58dbde-9281-4e0a-b756-0569e19fab6a","system_id":"levelo_inurba_marseille","lat":43.25822,"lon":5.39429,"is_reserved":false,"is_disabled":false,"rental_uris":{"android":"levelo://app?vid=3c58dbde-9281-4e0a-b756-0569e19fab6a","ios":"levelo://app?vid=3c58dbde-9281-4e0a-b756-0569e19fab6a"},"vehicle_type_id":"4","last_reported":1747131112,"current_range_meters":16400,"station_id":"ce4bhip2rcd13ifvqft0","pricing_plan_id":"cebpf4jnsgd1na2vs0mg"},{"bike_id":"73c4d68c-0536-409c-acba-94a1392a1c77","system_id":"levelo_inurba_marseille","lat":43.24194,"lon":5.39718,"is_reserved":false,"is_disabled":false,"rental_uris":{"android":"levelo://app?vid=73c4d68c-0536-409c-acba-94a1392a1c77","ios":"levelo://app?vid=73c4d68c-0536-409c-acba-94a1392a1c77"},"vehicle_type_id":"4","last_reported":1747131112,"current_range_meters":16400,"station_id":"ce4bhn12rcd13ifvqgpg","pricing_plan_id":"cebpf4jnsgd1na2vs0mg"},{"bike_id":"d47e0ef5-128e-4c82-8e08-c07c79e20732","system_id":"levelo_inurba_marseille","lat":43.32478,"lon":5.36575,"is_reserved":false,"is_disabled":false,"rental_uris":{"android":"levelo://app?vid=d47e0ef5-128e-4c82-8e08-c07c79e20732","ios":"levelo://app?vid=d47e0ef5-128e-4c82-8e08-c07c79e20732"},"vehicle_type_id":"4","last_reported":1747131112,"current_range_meters":16400,"station_id":"ce4bhs12rcd13ifvqhvg","pricing_plan_id":"cebpf4jnsgd1na2vs0mg"},{"bike_id":"feac39f2-6b7b-4c29-b543-eddf51041836","system_id":"levelo_inurba_marseille","lat":43.30885,"lon":5.37195,"is_reserved":false,"is_disabled":false,"rental_uris":{"android":"levelo://app?vid=feac39f2-6b7b-4c29-b543-eddf51041836","ios":"levelo://app?vid=feac39f2-6b7b-4c29-b543-eddf51041836"},"vehicle_type_id":"4","last_reported":1747131112,"current_range_meters":16800,"station_id":"ce4bguh2rcd13ifvqckg","pricing_plan_id":"cebpf4jnsgd1na2vs0mg"},{"bike_id":"0893570f-2666-4ce4-b369-81ad674ee829","system_id":"levelo_inurba_marseille","lat":43.2737,"lon":5.36257,"is_reserved":false,"is_disabled":false,"rental_uris":{"android":"levelo://app?vid=0893570f-2666-4ce4-b369-81ad674ee829","ios":"levelo://app?vid=0893570f-2666-4ce4-b369-81ad674ee829"},"vehicle_type_id":"4","last_reported":1747131112,"current_range_meters":16800,"station_id":"ce4bhbh2rcd13ifvqeo0","pricing_plan_id":"cebpf4jnsgd1na2vs0mg"},{"bike_id":"86180e9f-b787-47d7-9006-7eb68c32f72f","system_id":"levelo_inurba_marseille","lat":43.29005,"lon":5.35609,"is_reserved":false,"is_disabled":false,"rental_uris":{"android":"levelo://app?vid=86180e9f-b787-47d7-9006-7eb68c32f72f","ios":"levelo://app?vid=86180e9f-b787-47d7-9006-7eb68c32f72f"},"vehicle_type_id":"4","last_reported":1747131112,"current_range_meters":17200,"station_id":"ce4bhb92rcd13ifvqen0","pricing_plan_id":"cebpf4jnsgd1na2vs0mg"},{"bike_id":"29dc9894-93e9-41ab-9bf6-951ec8ab8a7d","system_id":"levelo_inurba_marseille","lat":43.29007,"lon":5.35613,"is_reserved":false,"is_disabled":false,"rental_uris":{"android":"levelo://app?vid=29dc9894-93e9-41ab-9bf6-951ec8ab8a7d","ios":"levelo://app?vid=29dc9894-93e9-41ab-9bf6-951ec8ab8a7d"},"vehicle_type_id":"4","last_reported":1747131112,"current_range_meters":17200,"station_id":"ce4bhb92rcd13ifvqen0","pricing_plan_id":"cebpf4jnsgd1na2vs0mg"},{"bike_id":"d0e1d080-18ae-4dc2-a286-add79006b92b","system_id":"levelo_inurba_marseille","lat":43.25,"lon":5.38926,"is_reserved":false,"is_disabled":false,"rental_uris":{"android":"levelo://app?vid=d0e1d080-18ae-4dc2-a286-add79006b92b","ios":"levelo://app?vid=d0e1d080-18ae-4dc2-a286-add79006b92b"},"vehicle_type_id":"4","last_reported":1747131112,"current_range_meters":17200,"station_id":"ce4bhgp2rcd13ifvqfd0","pricing_plan_id":"cebpf4jnsgd1na2vs0mg"},{"bike_id":"e9dc658a-eaa4-4f98-8111-9734ea55ddea","system_id":"levelo_inurba_marseille","lat":43.2707,"lon":5.42281,"is_reserved":false,"is_disabled":false,"rental_uris":{"android":"levelo://app?vid=e9dc658a-eaa4-4f98-8111-9734ea55ddea","ios":"levelo://app?vid=e9dc658a-eaa4-4f98-8111-9734ea55ddea"},"vehicle_type_id":"4","last_reported":1747131112,"current_range_meters":17200,"station_id":"ce4bhk92rcd13ifvqgb0","pricing_plan_id":"cebpf4jnsgd1na2vs0mg"},{"bike_id":"ac0112c9-313e-422c-910b-a3523b05b0c9","system_id":"levelo_inurba_marseille","lat":43.23016,"lon":5.3558,"is_reserved":false,"is_disabled":false,"rental_uris":{"android":"levelo://app?vid=ac0112c9-313e-422c-910b-a3523b05b0c9","ios":"levelo://app?vid=ac0112c9-313e-422c-910b-a3523b05b0c9"},"vehicle_type_id":"4","last_reported":1747131112,"current_range_meters":17600,"station_id":"","pricing_plan_id":"cebpf4jnsgd1na2vs0mg"},{"bike_id":"03bf11f0-de68-48aa-a10b-c5d572d4166d","system_id":"levelo_inurba_marseille","lat":43.29006,"lon":5.35608,"is_reserved":false,"is_disabled":false,"rental_uris":{"android":"levelo://app?vid=03bf11f0-de68-48aa-a10b-c5d572d4166d","ios":"levelo://app?vid=03bf11f0-de68-48aa-a10b-c5d572d4166d"},"vehicle_type_id":"4","last_reported":1747131112,"current_range_meters":17600,"station_id":"ce4bhb92rcd13ifvqen0","pricing_plan_id":"cebpf4jnsgd1na2vs0mg"},{"bike_id":"a526779f-38d1-4304-8920-a2ea437ec315","system_id":"levelo_inurba_marseille","lat":43.28417,"lon":5.34982,"is_reserved":false,"is_disabled":false,"rental_uris":{"android":"levelo://app?vid=a526779f-38d1-4304-8920-a2ea437ec315","ios":"levelo://app?vid=a526779f-38d1-4304-8920-a2ea437ec315"},"vehicle_type_id":"4","last_reported":1747131112,"current_range_meters":17600,"station_id":"ce4bhbh2rcd13ifvqepg","pricing_plan_id":"cebpf4jnsgd1na2vs0mg"},{"bike_id":"eb6553af-da3e-43ce-beb7-18ed8c25c394","system_id":"levelo_inurba_marseille","lat":43.26946,"lon":5.38632,"is_reserved":false,"is_disabled":false,"rental_uris":{"android":"levelo://app?vid=eb6553af-da3e-43ce-beb7-18ed8c25c394","ios":"levelo://app?vid=eb6553af-da3e-43ce-beb7-18ed8c25c394"},"vehicle_type_id":"4","last_reported":1747131112,"current_range_meters":17600,"station_id":"ce4bhh92rcd13ifvqfh0","pricing_plan_id":"cebpf4jnsgd1na2vs0mg"},{"bike_id":"fca633eb-f946-4001-ae26-58b01fceca43","system_id":"levelo_inurba_marseille","lat":43.27072,"lon":5.42279,"is_reserved":false,"is_disabled":false,"rental_uris":{"android":"levelo://app?vid=fca633eb-f946-4001-ae26-58b01fceca43","ios":"levelo://app?vid=fca633eb-f946-4001-ae26-58b01fceca43"},"vehicle_type_id":"4","last_reported":1747131112,"current_range_meters":17600,"station_id":"ce4bhk92rcd13ifvqgb0","pricing_plan_id":"cebpf4jnsgd1na2vs0mg"},{"bike_id":"33c9201a-681f-4050-8714-09dea9ea269d","system_id":"levelo_inurba_marseille","lat":43.27175,"lon":5.40993,"is_reserved":false,"is_disabled":false,"rental_uris":{"android":"levelo://app?vid=33c9201a-681f-4050-8714-09dea9ea269d","ios":"levelo://app?vid=33c9201a-681f-4050-8714-09dea9ea269d"},"vehicle_type_id":"4","last_reported":1747131112,"current_range_meters":17600,"station_id":"ce4bhl12rcd13ifvqgf0","pricing_plan_id":"cebpf4jnsgd1na2vs0mg"},{"bike_id":"9d76660f-c284-49a2-8765-48337aa51471","system_id":"levelo_inurba_marseille","lat":43.32114,"lon":5.36763,"is_reserved":false,"is_disabled":false,"rental_uris":{"android":"levelo://app?vid=9d76660f-c284-49a2-8765-48337aa51471","ios":"levelo://app?vid=9d76660f-c284-49a2-8765-48337aa51471"},"vehicle_type_id":"4","last_reported":1747131112,"current_range_meters":17600,"station_id":"ce4bhrh2rcd13ifvqhug","pricing_plan_id":"cebpf4jnsgd1na2vs0mg"},{"bike_id":"0c893fb7-8626-4706-85bf-f404b871dea5","system_id":"levelo_inurba_marseille","lat":43.28114,"lon":5.44608,"is_reserved":false,"is_disabled":false,"rental_uris":{"android":"levelo://app?vid=0c893fb7-8626-4706-85bf-f404b871dea5","ios":"levelo://app?vid=0c893fb7-8626-4706-85bf-f404b871dea5"},"vehicle_type_id":"4","last_reported":1747131112,"current_range_meters":18000,"station_id":"","pricing_plan_id":"cebpf4jnsgd1na2vs0mg"},{"bike_id":"95c00ed9-cfb9-4ff8-898a-d15dba65ae42","system_id":"levelo_inurba_marseille","lat":43.29189,"lon":5.39318,"is_reserved":false,"is_disabled":false,"rental_uris":{"android":"levelo://app?vid=95c00ed9-cfb9-4ff8-898a-d15dba65ae42","ios":"levelo://app?vid=95c00ed9-cfb9-4ff8-898a-d15dba65ae42"},"vehicle_type_id":"4","last_reported":1747131112,"current_range_meters":18000,"station_id":"ce4bh192rcd13ifvqdd0","pricing_plan_id":"cebpf4jnsgd1na2vs0mg"},{"bike_id":"370f62b0-8ff8-4ce1-b00f-3b9934275e4d","system_id":"levelo_inurba_marseille","lat":43.26689,"lon":5.38279,"is_reserved":false,"is_disabled":false,"rental_uris":{"android":"levelo://app?vid=370f62b0-8ff8-4ce1-b00f-3b9934275e4d","ios":"levelo://app?vid=370f62b0-8ff8-4ce1-b00f-3b9934275e4d"},"vehicle_type_id":"4","last_reported":1747131112,"current_range_meters":18000,"station_id":"ce4bhg92rcd13ifvqf90","pricing_plan_id":"cebpf4jnsgd1na2vs0mg"},{"bike_id":"e8b1ea58-f77d-4842-acea-0132fe0ae404","system_id":"levelo_inurba_marseille","lat":43.28714,"lon":5.39992,"is_reserved":false,"is_disabled":false,"rental_uris":{"android":"levelo://app?vid=e8b1ea58-f77d-4842-acea-0132fe0ae404","ios":"levelo://app?vid=e8b1ea58-f77d-4842-acea-0132fe0ae404"},"vehicle_type_id":"4","last_reported":1747131112,"current_range_meters":18000,"station_id":"ce4bho92rcd13ifvqh3g","pricing_plan_id":"cebpf4jnsgd1na2vs0mg"},{"bike_id":"1e297e0e-a907-489c-9a22-1dfb89bfb64f","system_id":"levelo_inurba_marseille","lat":43.29252,"lon":5.36424,"is_reserved":false,"is_disabled":false,"rental_uris":{"android":"levelo://app?vid=1e297e0e-a907-489c-9a22-1dfb89bfb64f","ios":"levelo://app?vid=1e297e0e-a907-489c-9a22-1dfb89bfb64f"},"vehicle_type_id":"4","last_reported":1747131112,"current_range_meters":18800,"station_id":"","pricing_plan_id":"cebpf4jnsgd1na2vs0mg"},{"bike_id":"eeb882a8-fe36-4d5c-a964-fc0d0f965523","system_id":"levelo_inurba_marseille","lat":43.30702,"lon":5.36686,"is_reserved":false,"is_disabled":false,"rental_uris":{"android":"levelo://app?vid=eeb882a8-fe36-4d5c-a964-fc0d0f965523","ios":"levelo://app?vid=eeb882a8-fe36-4d5c-a964-fc0d0f965523"},"vehicle_type_id":"4","last_reported":1747131112,"current_range_meters":18800,"station_id":"","pricing_plan_id":"cebpf4jnsgd1na2vs0mg"},{"bike_id":"0ff0901c-2203-411b-9805-a18946c438f1","system_id":"levelo_inurba_marseille","lat":43.31624,"lon":5.37702,"is_reserved":false,"is_disabled":false,"rental_uris":{"android":"levelo://app?vid=0ff0901c-2203-411b-9805-a18946c438f1","ios":"levelo://app?vid=0ff0901c-2203-411b-9805-a18946c438f1"},"vehicle_type_id":"4","last_reported":1747131112,"current_range_meters":18800,"station_id":"ce4bgth2rcd13ifvqch0","pricing_plan_id":"cebpf4jnsgd1na2vs0mg"},{"bike_id":"bd88d41b-f29d-44c2-8d5d-19a0735af1da","system_id":"levelo_inurba_marseille","lat":43.25943,"lon":5.40885,"is_reserved":false,"is_disabled":false,"rental_uris":{"android":"levelo://app?vid=bd88d41b-f29d-44c2-8d5d-19a0735af1da","ios":"levelo://app?vid=bd88d41b-f29d-44c2-8d5d-19a0735af1da"},"vehicle_type_id":"4","last_reported":1747131112,"current_range_meters":18800,"station_id":"ce4bhm92rcd13ifvqglg","pricing_plan_id":"cebpf4jnsgd1na2vs0mg"},{"bike_id":"581a76c6-406f-436c-80cf-424046378536","system_id":"levelo_inurba_marseille","lat":43.23143,"lon":5.43706,"is_reserved":false,"is_disabled":false,"rental_uris":{"android":"levelo://app?vid=581a76c6-406f-436c-80cf-424046378536","ios":"levelo://app?vid=581a76c6-406f-436c-80cf-424046378536"},"vehicle_type_id":"4","last_reported":1747131112,"current_range_meters":18800,"station_id":"ce4bhmp2rcd13ifvqgog","pricing_plan_id":"cebpf4jnsgd1na2vs0mg"},{"bike_id":"3626ee4b-3852-4989-999e-5bc0d8d20c3f","system_id":"levelo_inurba_marseille","lat":43.33611,"lon":5.41027,"is_reserved":false,"is_disabled":false,"rental_uris":{"android":"levelo://app?vid=3626ee4b-3852-4989-999e-5bc0d8d20c3f","ios":"levelo://app?vid=3626ee4b-3852-4989-999e-5bc0d8d20c3f"},"vehicle_type_id":"4","last_reported":1747131112,"current_range_meters":18800,"station_id":"ce4bhqh2rcd13ifvqhmg","pricing_plan_id":"cebpf4jnsgd1na2vs0mg"},{"bike_id":"9e7ebd91-af82-4549-976b-c088b359c00b","system_id":"levelo_inurba_marseille","lat":43.32127,"lon":5.36775,"is_reserved":false,"is_disabled":false,"rental_uris":{"android":"levelo://app?vid=9e7ebd91-af82-4549-976b-c088b359c00b","ios":"levelo://app?vid=9e7ebd91-af82-4549-976b-c088b359c00b"},"vehicle_type_id":"4","last_reported":1747131112,"current_range_meters":18800,"station_id":"ce4bhrh2rcd13ifvqhug","pricing_plan_id":"cebpf4jnsgd1na2vs0mg"},{"bike_id":"8a5672f1-5de3-4097-b6c8-db9c204f4e93","system_id":"levelo_inurba_marseille","lat":43.2293,"lon":5.3537,"is_reserved":false,"is_disabled":false,"rental_uris":{"android":"levelo://app?vid=8a5672f1-5de3-4097-b6c8-db9c204f4e93","ios":"levelo://app?vid=8a5672f1-5de3-4097-b6c8-db9c204f4e93"},"vehicle_type_id":"4","last_reported":1747131112,"current_range_meters":18800,"station_id":"cpo3532slgdg3j2ikp40","pricing_plan_id":"cebpf4jnsgd1na2vs0mg"},{"bike_id":"bfd588d8-b52b-4551-b1e5-a3ce6edd0572","system_id":"levelo_inurba_marseille","lat":43.28272,"lon":5.35061,"is_reserved":false,"is_disabled":false,"rental_uris":{"android":"levelo://app?vid=bfd588d8-b52b-4551-b1e5-a3ce6edd0572","ios":"levelo://app?vid=bfd588d8-b52b-4551-b1e5-a3ce6edd0572"},"vehicle_type_id":"4","last_reported":1747131112,"current_range_meters":19200,"station_id":"ce4bhbp2rcd13ifvqerg","pricing_plan_id":"cebpf4jnsgd1na2vs0mg"},{"bike_id":"e64ccb21-b07c-4dc1-a129-1e19c593a376","system_id":"levelo_inurba_marseille","lat":43.23153,"lon":5.437,"is_reserved":false,"is_disabled":false,"rental_uris":{"android":"levelo://app?vid=e64ccb21-b07c-4dc1-a129-1e19c593a376","ios":"levelo://app?vid=e64ccb21-b07c-4dc1-a129-1e19c593a376"},"vehicle_type_id":"4","last_reported":1747131112,"current_range_meters":19200,"station_id":"ce4bhmp2rcd13ifvqgog","pricing_plan_id":"cebpf4jnsgd1na2vs0mg"},{"bike_id":"87a18c2e-fad2-46c2-b3c8-ef4c97a8f24e","system_id":"levelo_inurba_marseille","lat":43.29263,"lon":5.37604,"is_reserved":false,"is_disabled":false,"rental_uris":{"android":"levelo://app?vid=87a18c2e-fad2-46c2-b3c8-ef4c97a8f24e","ios":"levelo://app?vid=87a18c2e-fad2-46c2-b3c8-ef4c97a8f24e"},"vehicle_type_id":"4","last_reported":1747131112,"current_range_meters":19600,"station_id":"ce4bgi12rcd13ifvqb80","pricing_plan_id":"cebpf4jnsgd1na2vs0mg"},{"bike_id":"116fcc67-1873-4896-bd6f-d2374e2ad85a","system_id":"levelo_inurba_marseille","lat":43.28258,"lon":5.35052,"is_reserved":false,"is_disabled":false,"rental_uris":{"android":"levelo://app?vid=116fcc67-1873-4896-bd6f-d2374e2ad85a","ios":"levelo://app?vid=116fcc67-1873-4896-bd6f-d2374e2ad85a"},"vehicle_type_id":"4","last_reported":1747131112,"current_range_meters":19600,"station_id":"ce4bgj92rcd13ifvqbe0","pricing_plan_id":"cebpf4jnsgd1na2vs0mg"},{"bike_id":"e8b5dda0-a34a-499f-a278-6c718b9d80e8","system_id":"levelo_inurba_marseille","lat":43.29843,"lon":5.36276,"is_reserved":false,"is_disabled":false,"rental_uris":{"android":"levelo://app?vid=e8b5dda0-a34a-499f-a278-6c718b9d80e8","ios":"levelo://app?vid=e8b5dda0-a34a-499f-a278-6c718b9d80e8"},"vehicle_type_id":"4","last_reported":1747131112,"current_range_meters":19600,"station_id":"ce4bgpp2rcd13ifvqc3g","pricing_plan_id":"cebpf4jnsgd1na2vs0mg"},{"bike_id":"2f0ef015-a852-4a81-9461-736eddf62b33","system_id":"levelo_inurba_marseille","lat":43.30888,"lon":5.37188,"is_reserved":false,"is_disabled":false,"rental_uris":{"android":"levelo://app?vid=2f0ef015-a852-4a81-9461-736eddf62b33","ios":"levelo://app?vid=2f0ef015-a852-4a81-9461-736eddf62b33"},"vehicle_type_id":"4","last_reported":1747131112,"current_range_meters":19600,"station_id":"ce4bguh2rcd13ifvqckg","pricing_plan_id":"cebpf4jnsgd1na2vs0mg"},{"bike_id":"3161c997-a4ce-4419-9367-7a820a5898df","system_id":"levelo_inurba_marseille","lat":43.29012,"lon":5.35624,"is_reserved":false,"is_disabled":false,"rental_uris":{"android":"levelo://app?vid=3161c997-a4ce-4419-9367-7a820a5898df","ios":"levelo://app?vid=3161c997-a4ce-4419-9367-7a820a5898df"},"vehicle_type_id":"4","last_reported":1747131112,"current_range_meters":19600,"station_id":"ce4bhb92rcd13ifvqen0","pricing_plan_id":"cebpf4jnsgd1na2vs0mg"},{"bike_id":"a5e11739-9f4e-4a5c-a67a-316bdd3705d0","system_id":"levelo_inurba_marseille","lat":43.26806,"lon":5.40262,"is_reserved":false,"is_disabled":false,"rental_uris":{"android":"levelo://app?vid=a5e11739-9f4e-4a5c-a67a-316bdd3705d0","ios":"levelo://app?vid=a5e11739-9f4e-4a5c-a67a-316bdd3705d0"},"vehicle_type_id":"4","last_reported":1747131112,"current_range_meters":19600,"station_id":"ce501612rcd8frsf0b60","pricing_plan_id":"cebpf4jnsgd1na2vs0mg"},{"bike_id":"6e3094ae-584b-4b23-8747-809792d486b5","system_id":"levelo_inurba_marseille","lat":43.21187,"lon":5.35073,"is_reserved":false,"is_disabled":false,"rental_uris":{"android":"levelo://app?vid=6e3094ae-584b-4b23-8747-809792d486b5","ios":"levelo://app?vid=6e3094ae-584b-4b23-8747-809792d486b5"},"vehicle_type_id":"4","last_reported":1747131112,"current_range_meters":20000,"station_id":"st_cvj6sg6p6f1abm77japg","pricing_plan_id":"cebpf4jnsgd1na2vs0mg"},{"bike_id":"87292699-755c-455d-a269-ad0042d94c7b","system_id":"levelo_inurba_marseille","lat":43.21191,"lon":5.35057,"is_reserved":false,"is_disabled":false,"rental_uris":{"android":"levelo://app?vid=87292699-755c-455d-a269-ad0042d94c7b","ios":"levelo://app?vid=87292699-755c-455d-a269-ad0042d94c7b"},"vehicle_type_id":"4","last_reported":1747131112,"current_range_meters":20000,"station_id":"st_cvj6sg6p6f1abm77japg","pricing_plan_id":"cebpf4jnsgd1na2vs0mg"},{"bike_id":"995b6502-9a4f-4150-822f-178690fca4ba","system_id":"levelo_inurba_marseille","lat":43.21194,"lon":5.35077,"is_reserved":false,"is_disabled":false,"rental_uris":{"android":"levelo://app?vid=995b6502-9a4f-4150-822f-178690fca4ba","ios":"levelo://app?vid=995b6502-9a4f-4150-822f-178690fca4ba"},"vehicle_type_id":"4","last_reported":1747131112,"current_range_meters":20000,"station_id":"st_cvj6sg6p6f1abm77japg","pricing_plan_id":"cebpf4jnsgd1na2vs0mg"},{"bike_id":"29e00ed1-4407-499f-bfef-70a278d0eab4","system_id":"levelo_inurba_marseille","lat":43.30661,"lon":5.40057,"is_reserved":false,"is_disabled":false,"rental_uris":{"android":"levelo://app?vid=29e00ed1-4407-499f-bfef-70a278d0eab4","ios":"levelo://app?vid=29e00ed1-4407-499f-bfef-70a278d0eab4"},"vehicle_type_id":"4","last_reported":1747131112,"current_range_meters":20400,"station_id":"ce4bh112rcd13ifvqda0","pricing_plan_id":"cebpf4jnsgd1na2vs0mg"},{"bike_id":"a9f02b19-c176-448d-bbd7-70872e29aab1","system_id":"levelo_inurba_marseille","lat":43.23148,"lon":5.43711,"is_reserved":false,"is_disabled":false,"rental_uris":{"android":"levelo://app?vid=a9f02b19-c176-448d-bbd7-70872e29aab1","ios":"levelo://app?vid=a9f02b19-c176-448d-bbd7-70872e29aab1"},"vehicle_type_id":"4","last_reported":1747131112,"current_range_meters":20400,"station_id":"ce4bhmp2rcd13ifvqgog","pricing_plan_id":"cebpf4jnsgd1na2vs0mg"},{"bike_id":"d3ee0d64-5680-4380-93bd-954f0eacacee","system_id":"levelo_inurba_marseille","lat":43.29561,"lon":5.42288,"is_reserved":false,"is_disabled":false,"rental_uris":{"android":"levelo://app?vid=d3ee0d64-5680-4380-93bd-954f0eacacee","ios":"levelo://app?vid=d3ee0d64-5680-4380-93bd-954f0eacacee"},"vehicle_type_id":"4","last_reported":1747131112,"current_range_meters":20400,"station_id":"ce4bhph2rcd13ifvqhdg","pricing_plan_id":"cebpf4jnsgd1na2vs0mg"},{"bike_id":"5ee494a5-c091-4bf3-8442-43c88646c8a5","system_id":"levelo_inurba_marseille","lat":43.29802,"lon":5.38087,"is_reserved":false,"is_disabled":false,"rental_uris":{"android":"levelo://app?vid=5ee494a5-c091-4bf3-8442-43c88646c8a5","ios":"levelo://app?vid=5ee494a5-c091-4bf3-8442-43c88646c8a5"},"vehicle_type_id":"4","last_reported":1747131112,"current_range_meters":20800,"station_id":"ce4bgip2rcd13ifvqbb0","pricing_plan_id":"cebpf4jnsgd1na2vs0mg"},{"bike_id":"de627c19-97da-43ec-abec-cda38440f6d9","system_id":"levelo_inurba_marseille","lat":43.30896,"lon":5.37177,"is_reserved":false,"is_disabled":false,"rental_uris":{"android":"levelo://app?vid=de627c19-97da-43ec-abec-cda38440f6d9","ios":"levelo://app?vid=de627c19-97da-43ec-abec-cda38440f6d9"},"vehicle_type_id":"4","last_reported":1747131112,"current_range_meters":20800,"station_id":"ce4bguh2rcd13ifvqckg","pricing_plan_id":"cebpf4jnsgd1na2vs0mg"},{"bike_id":"3dc54605-c7ff-4ea7-ac3a-1d47cf7a1327","system_id":"levelo_inurba_marseille","lat":43.2926,"lon":5.40913,"is_reserved":false,"is_disabled":false,"rental_uris":{"android":"levelo://app?vid=3dc54605-c7ff-4ea7-ac3a-1d47cf7a1327","ios":"levelo://app?vid=3dc54605-c7ff-4ea7-ac3a-1d47cf7a1327"},"vehicle_type_id":"4","last_reported":1747131112,"current_range_meters":20800,"station_id":"ce4bh192rcd13ifvqdc0","pricing_plan_id":"cebpf4jnsgd1na2vs0mg"},{"bike_id":"c5a6038e-e242-4c42-a6da-186787771b16","system_id":"levelo_inurba_marseille","lat":43.21769,"lon":5.34591,"is_reserved":false,"is_disabled":false,"rental_uris":{"android":"levelo://app?vid=c5a6038e-e242-4c42-a6da-186787771b16","ios":"levelo://app?vid=c5a6038e-e242-4c42-a6da-186787771b16"},"vehicle_type_id":"4","last_reported":1747131112,"current_range_meters":20800,"station_id":"st_cvj6r9ubvosntc0bgbag","pricing_plan_id":"cebpf4jnsgd1na2vs0mg"},{"bike_id":"e78de325-8bd7-43a5-b182-8664e9bdb859","system_id":"levelo_inurba_marseille","lat":43.299774,"lon":5.371672,"is_reserved":false,"is_disabled":false,"rental_uris":{"android":"levelo://app?vid=e78de325-8bd7-43a5-b182-8664e9bdb859","ios":"levelo://app?vid=e78de325-8bd7-43a5-b182-8664e9bdb859"},"vehicle_type_id":"4","last_reported":1747131112,"current_range_meters":21600,"station_id":"ce4bgr92rcd13ifvqc7g","pricing_plan_id":"cebpf4jnsgd1na2vs0mg"},{"bike_id":"bcb840a7-c5ed-4834-9422-6b9f0dc3cc29","system_id":"levelo_inurba_marseille","lat":43.27931,"lon":5.39586,"is_reserved":false,"is_disabled":false,"rental_uris":{"android":"levelo://app?vid=bcb840a7-c5ed-4834-9422-6b9f0dc3cc29","ios":"levelo://app?vid=bcb840a7-c5ed-4834-9422-6b9f0dc3cc29"},"vehicle_type_id":"4","last_reported":1747131112,"current_range_meters":21600,"station_id":"ce4bhf92rcd13ifvqf40","pricing_plan_id":"cebpf4jnsgd1na2vs0mg"},{"bike_id":"b8d8e521-f471-4d38-a7ba-56e8ec1a43e2","system_id":"levelo_inurba_marseille","lat":43.27556,"lon":5.3842,"is_reserved":false,"is_disabled":false,"rental_uris":{"android":"levelo://app?vid=b8d8e521-f471-4d38-a7ba-56e8ec1a43e2","ios":"levelo://app?vid=b8d8e521-f471-4d38-a7ba-56e8ec1a43e2"},"vehicle_type_id":"4","last_reported":1747131112,"current_range_meters":21600,"station_id":"ce4bhh92rcd13ifvqfi0","pricing_plan_id":"cebpf4jnsgd1na2vs0mg"},{"bike_id":"5586737f-6455-4ea2-9af8-69a63f84810a","system_id":"levelo_inurba_marseille","lat":43.23978,"lon":5.3662,"is_reserved":false,"is_disabled":false,"rental_uris":{"android":"levelo://app?vid=5586737f-6455-4ea2-9af8-69a63f84810a","ios":"levelo://app?vid=5586737f-6455-4ea2-9af8-69a63f84810a"},"vehicle_type_id":"4","last_reported":1747131112,"current_range_meters":21600,"station_id":"ce4bhi12rcd13ifvqfp0","pricing_plan_id":"cebpf4jnsgd1na2vs0mg"},{"bike_id":"05669342-cb45-4c08-a397-74c64938fdba","system_id":"levelo_inurba_marseille","lat":43.25957,"lon":5.40901,"is_reserved":false,"is_disabled":false,"rental_uris":{"android":"levelo://app?vid=05669342-cb45-4c08-a397-74c64938fdba","ios":"levelo://app?vid=05669342-cb45-4c08-a397-74c64938fdba"},"vehicle_type_id":"4","last_reported":1747131112,"current_range_meters":21600,"station_id":"ce4bhm92rcd13ifvqglg","pricing_plan_id":"cebpf4jnsgd1na2vs0mg"},{"bike_id":"d1970176-c12a-4521-a0a6-5e60f7819150","system_id":"levelo_inurba_marseille","lat":43.23147,"lon":5.4371,"is_reserved":false,"is_disabled":false,"rental_uris":{"android":"levelo://app?vid=d1970176-c12a-4521-a0a6-5e60f7819150","ios":"levelo://app?vid=d1970176-c12a-4521-a0a6-5e60f7819150"},"vehicle_type_id":"4","last_reported":1747131112,"current_range_meters":21600,"station_id":"ce4bhmp2rcd13ifvqgog","pricing_plan_id":"cebpf4jnsgd1na2vs0mg"},{"bike_id":"3b27af8e-3de7-4902-811f-02064f444eb6","system_id":"levelo_inurba_marseille","lat":43.2826,"lon":5.35072,"is_reserved":false,"is_disabled":false,"rental_uris":{"android":"levelo://app?vid=3b27af8e-3de7-4902-811f-02064f444eb6","ios":"levelo://app?vid=3b27af8e-3de7-4902-811f-02064f444eb6"},"vehicle_type_id":"4","last_reported":1747131112,"current_range_meters":22000,"station_id":"ce4bgj92rcd13ifvqbe0","pricing_plan_id":"cebpf4jnsgd1na2vs0mg"},{"bike_id":"4a0a8039-6e2c-4cf0-9907-3e491c4917d3","system_id":"levelo_inurba_marseille","lat":43.29863,"lon":5.36282,"is_reserved":false,"is_disabled":false,"rental_uris":{"android":"levelo://app?vid=4a0a8039-6e2c-4cf0-9907-3e491c4917d3","ios":"levelo://app?vid=4a0a8039-6e2c-4cf0-9907-3e491c4917d3"},"vehicle_type_id":"4","last_reported":1747131112,"current_range_meters":22000,"station_id":"ce4bgpp2rcd13ifvqc3g","pricing_plan_id":"cebpf4jnsgd1na2vs0mg"},{"bike_id":"e70e47c0-7e35-45ee-b7f6-ab8a468ac3b7","system_id":"levelo_inurba_marseille","lat":43.30553,"lon":5.36704,"is_reserved":false,"is_disabled":false,"rental_uris":{"android":"levelo://app?vid=e70e47c0-7e35-45ee-b7f6-ab8a468ac3b7","ios":"levelo://app?vid=e70e47c0-7e35-45ee-b7f6-ab8a468ac3b7"},"vehicle_type_id":"4","last_reported":1747131112,"current_range_meters":22000,"station_id":"ce4bgrp2rcd13ifvqc9g","pricing_plan_id":"cebpf4jnsgd1na2vs0mg"},{"bike_id":"7814168a-c3c1-49cb-a07e-e1a026262a4c","system_id":"levelo_inurba_marseille","lat":43.30533,"lon":5.36543,"is_reserved":false,"is_disabled":false,"rental_uris":{"android":"levelo://app?vid=7814168a-c3c1-49cb-a07e-e1a026262a4c","ios":"levelo://app?vid=7814168a-c3c1-49cb-a07e-e1a026262a4c"},"vehicle_type_id":"4","last_reported":1747131112,"current_range_meters":22000,"station_id":"ce4bgs12rcd13ifvqcag","pricing_plan_id":"cebpf4jnsgd1na2vs0mg"},{"bike_id":"c84b83ec-5289-4c4f-8a76-d6574f0b5c5d","system_id":"levelo_inurba_marseille","lat":43.31754,"lon":5.39013,"is_reserved":false,"is_disabled":false,"rental_uris":{"android":"levelo://app?vid=c84b83ec-5289-4c4f-8a76-d6574f0b5c5d","ios":"levelo://app?vid=c84b83ec-5289-4c4f-8a76-d6574f0b5c5d"},"vehicle_type_id":"4","last_reported":1747131112,"current_range_meters":22000,"station_id":"ce4bhqp2rcd13ifvqhng","pricing_plan_id":"cebpf4jnsgd1na2vs0mg"},{"bike_id":"3c8b2a8e-116b-4783-8030-383508abd82e","system_id":"levelo_inurba_marseille","lat":43.30922,"lon":5.368286,"is_reserved":false,"is_disabled":false,"rental_uris":{"android":"levelo://app?vid=3c8b2a8e-116b-4783-8030-383508abd82e","ios":"levelo://app?vid=3c8b2a8e-116b-4783-8030-383508abd82e"},"vehicle_type_id":"4","last_reported":1747131112,"current_range_meters":22400,"station_id":"ce4bgn92rcd13ifvqbvg","pricing_plan_id":"cebpf4jnsgd1na2vs0mg"},{"bike_id":"30b6c8fe-0f42-4dc5-840c-ab5633ccc686","system_id":"levelo_inurba_marseille","lat":43.305417,"lon":5.365361,"is_reserved":false,"is_disabled":false,"rental_uris":{"android":"levelo://app?vid=30b6c8fe-0f42-4dc5-840c-ab5633ccc686","ios":"levelo://app?vid=30b6c8fe-0f42-4dc5-840c-ab5633ccc686"},"vehicle_type_id":"4","last_reported":1747131112,"current_range_meters":22400,"station_id":"ce4bgs12rcd13ifvqcag","pricing_plan_id":"cebpf4jnsgd1na2vs0mg"},{"bike_id":"1ba41a44-26e0-42d8-8740-30b082eb93a5","system_id":"levelo_inurba_marseille","lat":43.24067,"lon":5.37764,"is_reserved":false,"is_disabled":false,"rental_uris":{"android":"levelo://app?vid=1ba41a44-26e0-42d8-8740-30b082eb93a5","ios":"levelo://app?vid=1ba41a44-26e0-42d8-8740-30b082eb93a5"},"vehicle_type_id":"4","last_reported":1747131112,"current_range_meters":22400,"station_id":"ce4bhnp2rcd13ifvqgvg","pricing_plan_id":"cebpf4jnsgd1na2vs0mg"},{"bike_id":"17123b0b-342e-4ca7-b368-a4c3ae4e92ca","system_id":"levelo_inurba_marseille","lat":43.30378,"lon":5.42492,"is_reserved":false,"is_disabled":false,"rental_uris":{"android":"levelo://app?vid=17123b0b-342e-4ca7-b368-a4c3ae4e92ca","ios":"levelo://app?vid=17123b0b-342e-4ca7-b368-a4c3ae4e92ca"},"vehicle_type_id":"4","last_reported":1747131112,"current_range_meters":22400,"station_id":"ce4bhoh2rcd13ifvqh6g","pricing_plan_id":"cebpf4jnsgd1na2vs0mg"},{"bike_id":"5647a91f-31a6-41fb-82bb-83893a94fc73","system_id":"levelo_inurba_marseille","lat":43.21192,"lon":5.35071,"is_reserved":false,"is_disabled":false,"rental_uris":{"android":"levelo://app?vid=5647a91f-31a6-41fb-82bb-83893a94fc73","ios":"levelo://app?vid=5647a91f-31a6-41fb-82bb-83893a94fc73"},"vehicle_type_id":"4","last_reported":1747131112,"current_range_meters":22400,"station_id":"st_cvj6sg6p6f1abm77japg","pricing_plan_id":"cebpf4jnsgd1na2vs0mg"},{"bike_id":"8e82026a-d3f2-4482-a6df-0b2e760c4450","system_id":"levelo_inurba_marseille","lat":43.30538,"lon":5.36537,"is_reserved":false,"is_disabled":false,"rental_uris":{"android":"levelo://app?vid=8e82026a-d3f2-4482-a6df-0b2e760c4450","ios":"levelo://app?vid=8e82026a-d3f2-4482-a6df-0b2e760c4450"},"vehicle_type_id":"4","last_reported":1747131112,"current_range_meters":22800,"station_id":"ce4bgs12rcd13ifvqcag","pricing_plan_id":"cebpf4jnsgd1na2vs0mg"},{"bike_id":"4b3d253d-dc2d-480a-bc38-7b808ac1793f","system_id":"levelo_inurba_marseille","lat":43.3133,"lon":5.39692,"is_reserved":false,"is_disabled":false,"rental_uris":{"android":"levelo://app?vid=4b3d253d-dc2d-480a-bc38-7b808ac1793f","ios":"levelo://app?vid=4b3d253d-dc2d-480a-bc38-7b808ac1793f"},"vehicle_type_id":"4","last_reported":1747131112,"current_range_meters":22800,"station_id":"ce4bgvp2rcd13ifvqcu0","pricing_plan_id":"cebpf4jnsgd1na2vs0mg"},{"bike_id":"5efbd9a6-1eca-419d-8e88-e9a30f561a98","system_id":"levelo_inurba_marseille","lat":43.28418,"lon":5.34978,"is_reserved":false,"is_disabled":false,"rental_uris":{"android":"levelo://app?vid=5efbd9a6-1eca-419d-8e88-e9a30f561a98","ios":"levelo://app?vid=5efbd9a6-1eca-419d-8e88-e9a30f561a98"},"vehicle_type_id":"4","last_reported":1747131112,"current_range_meters":22800,"station_id":"ce4bhbh2rcd13ifvqepg","pricing_plan_id":"cebpf4jnsgd1na2vs0mg"},{"bike_id":"d0a588e0-7e62-4c58-bb05-703ea488762e","system_id":"levelo_inurba_marseille","lat":43.2696,"lon":5.38629,"is_reserved":false,"is_disabled":false,"rental_uris":{"android":"levelo://app?vid=d0a588e0-7e62-4c58-bb05-703ea488762e","ios":"levelo://app?vid=d0a588e0-7e62-4c58-bb05-703ea488762e"},"vehicle_type_id":"4","last_reported":1747131112,"current_range_meters":22800,"station_id":"ce4bhh92rcd13ifvqfh0","pricing_plan_id":"cebpf4jnsgd1na2vs0mg"},{"bike_id":"3c304208-ac37-448c-b293-c8e9c6ffab6a","system_id":"levelo_inurba_marseille","lat":43.28151,"lon":5.4265,"is_reserved":false,"is_disabled":false,"rental_uris":{"android":"levelo://app?vid=3c304208-ac37-448c-b293-c8e9c6ffab6a","ios":"levelo://app?vid=3c304208-ac37-448c-b293-c8e9c6ffab6a"},"vehicle_type_id":"4","last_reported":1747131112,"current_range_meters":22800,"station_id":"ce4bhnh2rcd13ifvqgug","pricing_plan_id":"cebpf4jnsgd1na2vs0mg"},{"bike_id":"7f35c671-0cc7-4e6b-ac71-617d491cc5d6","system_id":"levelo_inurba_marseille","lat":43.26934,"lon":5.38918,"is_reserved":false,"is_disabled":false,"rental_uris":{"android":"levelo://app?vid=7f35c671-0cc7-4e6b-ac71-617d491cc5d6","ios":"levelo://app?vid=7f35c671-0cc7-4e6b-ac71-617d491cc5d6"},"vehicle_type_id":"4","last_reported":1747131112,"current_range_meters":23200,"station_id":"ce4bhhh2rcd13ifvqfl0","pricing_plan_id":"cebpf4jnsgd1na2vs0mg"},{"bike_id":"eed97d04-55c9-4469-844e-e04e6b043690","system_id":"levelo_inurba_marseille","lat":43.23982,"lon":5.36607,"is_reserved":false,"is_disabled":false,"rental_uris":{"android":"levelo://app?vid=eed97d04-55c9-4469-844e-e04e6b043690","ios":"levelo://app?vid=eed97d04-55c9-4469-844e-e04e6b043690"},"vehicle_type_id":"4","last_reported":1747131112,"current_range_meters":23200,"station_id":"ce4bhi12rcd13ifvqfp0","pricing_plan_id":"cebpf4jnsgd1na2vs0mg"},{"bike_id":"40a1c000-90a0-4865-a7e7-3a2a723ed018","system_id":"levelo_inurba_marseille","lat":43.2594,"lon":5.40901,"is_reserved":false,"is_disabled":false,"rental_uris":{"android":"levelo://app?vid=40a1c000-90a0-4865-a7e7-3a2a723ed018","ios":"levelo://app?vid=40a1c000-90a0-4865-a7e7-3a2a723ed018"},"vehicle_type_id":"4","last_reported":1747131112,"current_range_meters":23200,"station_id":"ce4bhm92rcd13ifvqglg","pricing_plan_id":"cebpf4jnsgd1na2vs0mg"},{"bike_id":"7cb7e122-1806-4c96-a98e-f5bb7331a49e","system_id":"levelo_inurba_marseille","lat":43.34163,"lon":5.40897,"is_reserved":false,"is_disabled":false,"rental_uris":{"android":"levelo://app?vid=7cb7e122-1806-4c96-a98e-f5bb7331a49e","ios":"levelo://app?vid=7cb7e122-1806-4c96-a98e-f5bb7331a49e"},"vehicle_type_id":"4","last_reported":1747131112,"current_range_meters":23200,"station_id":"ce4bhqh2rcd13ifvqhlg","pricing_plan_id":"cebpf4jnsgd1na2vs0mg"},{"bike_id":"1311b7be-7448-4e46-8540-0cecbf3a9518","system_id":"levelo_inurba_marseille","lat":43.321036,"lon":5.367764,"is_reserved":false,"is_disabled":false,"rental_uris":{"android":"levelo://app?vid=1311b7be-7448-4e46-8540-0cecbf3a9518","ios":"levelo://app?vid=1311b7be-7448-4e46-8540-0cecbf3a9518"},"vehicle_type_id":"4","last_reported":1747131112,"current_range_meters":23200,"station_id":"ce4bhrh2rcd13ifvqhug","pricing_plan_id":"cebpf4jnsgd1na2vs0mg"},{"bike_id":"b0a88558-462a-45f7-9fd1-dd814a9d32f3","system_id":"levelo_inurba_marseille","lat":43.21194,"lon":5.35072,"is_reserved":false,"is_disabled":false,"rental_uris":{"android":"levelo://app?vid=b0a88558-462a-45f7-9fd1-dd814a9d32f3","ios":"levelo://app?vid=b0a88558-462a-45f7-9fd1-dd814a9d32f3"},"vehicle_type_id":"4","last_reported":1747131112,"current_range_meters":23200,"station_id":"st_cvj6sg6p6f1abm77japg","pricing_plan_id":"cebpf4jnsgd1na2vs0mg"},{"bike_id":"1c7f6792-cc6c-4358-878d-ab0737dd6dd9","system_id":"levelo_inurba_marseille","lat":43.29259,"lon":5.37618,"is_reserved":false,"is_disabled":false,"rental_uris":{"android":"levelo://app?vid=1c7f6792-cc6c-4358-878d-ab0737dd6dd9","ios":"levelo://app?vid=1c7f6792-cc6c-4358-878d-ab0737dd6dd9"},"vehicle_type_id":"4","last_reported":1747131112,"current_range_meters":24000,"station_id":"ce4bgi12rcd13ifvqb80","pricing_plan_id":"cebpf4jnsgd1na2vs0mg"},{"bike_id":"f52bf8d4-8245-4127-839c-4dfc43d21dac","system_id":"levelo_inurba_marseille","lat":43.29262,"lon":5.40908,"is_reserved":false,"is_disabled":false,"rental_uris":{"android":"levelo://app?vid=f52bf8d4-8245-4127-839c-4dfc43d21dac","ios":"levelo://app?vid=f52bf8d4-8245-4127-839c-4dfc43d21dac"},"vehicle_type_id":"4","last_reported":1747131112,"current_range_meters":24000,"station_id":"ce4bh192rcd13ifvqdc0","pricing_plan_id":"cebpf4jnsgd1na2vs0mg"},{"bike_id":"e9c4473d-4bf1-48d7-be7b-f01cb07478b3","system_id":"levelo_inurba_marseille","lat":43.25929,"lon":5.40914,"is_reserved":false,"is_disabled":false,"rental_uris":{"android":"levelo://app?vid=e9c4473d-4bf1-48d7-be7b-f01cb07478b3","ios":"levelo://app?vid=e9c4473d-4bf1-48d7-be7b-f01cb07478b3"},"vehicle_type_id":"4","last_reported":1747131112,"current_range_meters":24000,"station_id":"ce4bhm92rcd13ifvqglg","pricing_plan_id":"cebpf4jnsgd1na2vs0mg"},{"bike_id":"45f4457a-2c5a-44e5-aa87-39106030b236","system_id":"levelo_inurba_marseille","lat":43.25931,"lon":5.4091,"is_reserved":false,"is_disabled":false,"rental_uris":{"android":"levelo://app?vid=45f4457a-2c5a-44e5-aa87-39106030b236","ios":"levelo://app?vid=45f4457a-2c5a-44e5-aa87-39106030b236"},"vehicle_type_id":"4","last_reported":1747131112,"current_range_meters":24000,"station_id":"ce4bhm92rcd13ifvqglg","pricing_plan_id":"cebpf4jnsgd1na2vs0mg"},{"bike_id":"b044b041-fe46-44c4-9924-c2321867ee36","system_id":"levelo_inurba_marseille","lat":43.2315,"lon":5.43718,"is_reserved":false,"is_disabled":false,"rental_uris":{"android":"levelo://app?vid=b044b041-fe46-44c4-9924-c2321867ee36","ios":"levelo://app?vid=b044b041-fe46-44c4-9924-c2321867ee36"},"vehicle_type_id":"4","last_reported":1747131112,"current_range_meters":24000,"station_id":"ce4bhmp2rcd13ifvqgog","pricing_plan_id":"cebpf4jnsgd1na2vs0mg"},{"bike_id":"9670f60b-d981-469e-87fd-010a1d3c3a6e","system_id":"levelo_inurba_marseille","lat":43.32104,"lon":5.36775,"is_reserved":false,"is_disabled":false,"rental_uris":{"android":"levelo://app?vid=9670f60b-d981-469e-87fd-010a1d3c3a6e","ios":"levelo://app?vid=9670f60b-d981-469e-87fd-010a1d3c3a6e"},"vehicle_type_id":"4","last_reported":1747131112,"current_range_meters":24000,"station_id":"ce4bhrh2rcd13ifvqhug","pricing_plan_id":"cebpf4jnsgd1na2vs0mg"},{"bike_id":"f8952c9d-63ac-4a52-873f-fc92b0dbdf50","system_id":"levelo_inurba_marseille","lat":43.30518,"lon":5.36521,"is_reserved":false,"is_disabled":false,"rental_uris":{"android":"levelo://app?vid=f8952c9d-63ac-4a52-873f-fc92b0dbdf50","ios":"levelo://app?vid=f8952c9d-63ac-4a52-873f-fc92b0dbdf50"},"vehicle_type_id":"4","last_reported":1747131112,"current_range_meters":24400,"station_id":"","pricing_plan_id":"cebpf4jnsgd1na2vs0mg"},{"bike_id":"68931ec4-b5de-43a4-911a-3769a04877bf","system_id":"levelo_inurba_marseille","lat":43.30133,"lon":5.38774,"is_reserved":false,"is_disabled":false,"rental_uris":{"android":"levelo://app?vid=68931ec4-b5de-43a4-911a-3769a04877bf","ios":"levelo://app?vid=68931ec4-b5de-43a4-911a-3769a04877bf"},"vehicle_type_id":"4","last_reported":1747131112,"current_range_meters":24400,"station_id":"ce4bghh2rcd13ifvqb60","pricing_plan_id":"cebpf4jnsgd1na2vs0mg"},{"bike_id":"814b5b3c-75b2-4b41-ad2f-23d3ee4266c2","system_id":"levelo_inurba_marseille","lat":43.31219,"lon":5.36887,"is_reserved":false,"is_disabled":false,"rental_uris":{"android":"levelo://app?vid=814b5b3c-75b2-4b41-ad2f-23d3ee4266c2","ios":"levelo://app?vid=814b5b3c-75b2-4b41-ad2f-23d3ee4266c2"},"vehicle_type_id":"4","last_reported":1747131112,"current_range_meters":24400,"station_id":"ce4bgl92rcd13ifvqbq0","pricing_plan_id":"cebpf4jnsgd1na2vs0mg"},{"bike_id":"d43c5315-f2c3-4f20-938b-9578172bfd8c","system_id":"levelo_inurba_marseille","lat":43.28856,"lon":5.35849,"is_reserved":false,"is_disabled":false,"rental_uris":{"android":"levelo://app?vid=d43c5315-f2c3-4f20-938b-9578172bfd8c","ios":"levelo://app?vid=d43c5315-f2c3-4f20-938b-9578172bfd8c"},"vehicle_type_id":"4","last_reported":1747131112,"current_range_meters":24400,"station_id":"ce4bhb12rcd13ifvqem0","pricing_plan_id":"cebpf4jnsgd1na2vs0mg"},{"bike_id":"e840ee45-b1e4-4b03-a9c8-5801d9023308","system_id":"levelo_inurba_marseille","lat":43.31884,"lon":5.40736,"is_reserved":false,"is_disabled":false,"rental_uris":{"android":"levelo://app?vid=e840ee45-b1e4-4b03-a9c8-5801d9023308","ios":"levelo://app?vid=e840ee45-b1e4-4b03-a9c8-5801d9023308"},"vehicle_type_id":"4","last_reported":1747131112,"current_range_meters":24400,"station_id":"ce4bhq12rcd13ifvqhig","pricing_plan_id":"cebpf4jnsgd1na2vs0mg"},{"bike_id":"18556955-6e5e-44de-8de6-34b971734618","system_id":"levelo_inurba_marseille","lat":43.3211,"lon":5.36777,"is_reserved":false,"is_disabled":false,"rental_uris":{"android":"levelo://app?vid=18556955-6e5e-44de-8de6-34b971734618","ios":"levelo://app?vid=18556955-6e5e-44de-8de6-34b971734618"},"vehicle_type_id":"4","last_reported":1747131112,"current_range_meters":24400,"station_id":"ce4bhrh2rcd13ifvqhug","pricing_plan_id":"cebpf4jnsgd1na2vs0mg"},{"bike_id":"75271029-e631-4875-914c-2812b2a0315c","system_id":"levelo_inurba_marseille","lat":43.26942,"lon":5.40244,"is_reserved":false,"is_disabled":false,"rental_uris":{"android":"levelo://app?vid=75271029-e631-4875-914c-2812b2a0315c","ios":"levelo://app?vid=75271029-e631-4875-914c-2812b2a0315c"},"vehicle_type_id":"4","last_reported":1747131112,"current_range_meters":24400,"station_id":"cjm6bp8fraef2m0cb0m0","pricing_plan_id":"cebpf4jnsgd1na2vs0mg"},{"bike_id":"a3c2f1e2-e0c5-4acf-bdcb-bc272f737254","system_id":"levelo_inurba_marseille","lat":43.3056,"lon":5.36644,"is_reserved":false,"is_disabled":false,"rental_uris":{"android":"levelo://app?vid=a3c2f1e2-e0c5-4acf-bdcb-bc272f737254","ios":"levelo://app?vid=a3c2f1e2-e0c5-4acf-bdcb-bc272f737254"},"vehicle_type_id":"4","last_reported":1747131112,"current_range_meters":24800,"station_id":"","pricing_plan_id":"cebpf4jnsgd1na2vs0mg"},{"bike_id":"79bd912f-f564-4161-b504-d6f2bba5206e","system_id":"levelo_inurba_marseille","lat":43.29626,"lon":5.37727,"is_reserved":false,"is_disabled":false,"rental_uris":{"android":"levelo://app?vid=79bd912f-f564-4161-b504-d6f2bba5206e","ios":"levelo://app?vid=79bd912f-f564-4161-b504-d6f2bba5206e"},"vehicle_type_id":"4","last_reported":1747131112,"current_range_meters":24800,"station_id":"ce4bgi92rcd13ifvqb90","pricing_plan_id":"cebpf4jnsgd1na2vs0mg"},{"bike_id":"84c7f43a-e387-4b36-9c46-e481fc66216f","system_id":"levelo_inurba_marseille","lat":43.29407,"lon":5.38608,"is_reserved":false,"is_disabled":false,"rental_uris":{"android":"levelo://app?vid=84c7f43a-e387-4b36-9c46-e481fc66216f","ios":"levelo://app?vid=84c7f43a-e387-4b36-9c46-e481fc66216f"},"vehicle_type_id":"4","last_reported":1747131112,"current_range_meters":24800,"station_id":"ce4bh2h2rcd13ifvqdh0","pricing_plan_id":"cebpf4jnsgd1na2vs0mg"},{"bike_id":"cb8d8c8a-d6bd-48fb-a463-d4878b5a6559","system_id":"levelo_inurba_marseille","lat":43.2842,"lon":5.34989,"is_reserved":false,"is_disabled":false,"rental_uris":{"android":"levelo://app?vid=cb8d8c8a-d6bd-48fb-a463-d4878b5a6559","ios":"levelo://app?vid=cb8d8c8a-d6bd-48fb-a463-d4878b5a6559"},"vehicle_type_id":"4","last_reported":1747131112,"current_range_meters":24800,"station_id":"ce4bhbh2rcd13ifvqepg","pricing_plan_id":"cebpf4jnsgd1na2vs0mg"},{"bike_id":"bb0f4c78-b438-44d2-a0e5-e8aa1e48cf9e","system_id":"levelo_inurba_marseille","lat":43.25954,"lon":5.40893,"is_reserved":false,"is_disabled":false,"rental_uris":{"android":"levelo://app?vid=bb0f4c78-b438-44d2-a0e5-e8aa1e48cf9e","ios":"levelo://app?vid=bb0f4c78-b438-44d2-a0e5-e8aa1e48cf9e"},"vehicle_type_id":"4","last_reported":1747131112,"current_range_meters":24800,"station_id":"ce4bhm92rcd13ifvqglg","pricing_plan_id":"cebpf4jnsgd1na2vs0mg"},{"bike_id":"e20c0ab0-90ea-460e-bcc0-e5fa98547380","system_id":"levelo_inurba_marseille","lat":43.3171,"lon":5.436968,"is_reserved":false,"is_disabled":false,"rental_uris":{"android":"levelo://app?vid=e20c0ab0-90ea-460e-bcc0-e5fa98547380","ios":"levelo://app?vid=e20c0ab0-90ea-460e-bcc0-e5fa98547380"},"vehicle_type_id":"4","last_reported":1747131112,"current_range_meters":24800,"station_id":"ce4bhp92rcd13ifvqhcg","pricing_plan_id":"cebpf4jnsgd1na2vs0mg"},{"bike_id":"8367f86c-0ad5-49c6-bbcb-49ff12d8955d","system_id":"levelo_inurba_marseille","lat":43.268067,"lon":5.402379,"is_reserved":false,"is_disabled":false,"rental_uris":{"android":"levelo://app?vid=8367f86c-0ad5-49c6-bbcb-49ff12d8955d","ios":"levelo://app?vid=8367f86c-0ad5-49c6-bbcb-49ff12d8955d"},"vehicle_type_id":"4","last_reported":1747131112,"current_range_meters":24800,"station_id":"ce501612rcd8frsf0b60","pricing_plan_id":"cebpf4jnsgd1na2vs0mg"},{"bike_id":"64824209-6cba-4c12-875a-1502c403c27a","system_id":"levelo_inurba_marseille","lat":43.21198,"lon":5.3506,"is_reserved":false,"is_disabled":false,"rental_uris":{"android":"levelo://app?vid=64824209-6cba-4c12-875a-1502c403c27a","ios":"levelo://app?vid=64824209-6cba-4c12-875a-1502c403c27a"},"vehicle_type_id":"4","last_reported":1747131112,"current_range_meters":24800,"station_id":"st_cvj6sg6p6f1abm77japg","pricing_plan_id":"cebpf4jnsgd1na2vs0mg"},{"bike_id":"b6a34b9f-55ea-4a2b-b0ef-ca81c1bf74cb","system_id":"levelo_inurba_marseille","lat":43.31292,"lon":5.36778,"is_reserved":false,"is_disabled":false,"rental_uris":{"android":"levelo://app?vid=b6a34b9f-55ea-4a2b-b0ef-ca81c1bf74cb","ios":"levelo://app?vid=b6a34b9f-55ea-4a2b-b0ef-ca81c1bf74cb"},"vehicle_type_id":"4","last_reported":1747131112,"current_range_meters":25200,"station_id":"ce4bgr92rcd13ifvqc6g","pricing_plan_id":"cebpf4jnsgd1na2vs0mg"},{"bike_id":"91e4d2b1-2334-4660-a867-9b56e475ab25","system_id":"levelo_inurba_marseille","lat":43.30179,"lon":5.36612,"is_reserved":false,"is_disabled":false,"rental_uris":{"android":"levelo://app?vid=91e4d2b1-2334-4660-a867-9b56e475ab25","ios":"levelo://app?vid=91e4d2b1-2334-4660-a867-9b56e475ab25"},"vehicle_type_id":"4","last_reported":1747131112,"current_range_meters":25200,"station_id":"ce4bgrh2rcd13ifvqc8g","pricing_plan_id":"cebpf4jnsgd1na2vs0mg"},{"bike_id":"ba2cc58f-abd8-4606-8281-41bc81ef23e0","system_id":"levelo_inurba_marseille","lat":43.26938,"lon":5.38915,"is_reserved":false,"is_disabled":false,"rental_uris":{"android":"levelo://app?vid=ba2cc58f-abd8-4606-8281-41bc81ef23e0","ios":"levelo://app?vid=ba2cc58f-abd8-4606-8281-41bc81ef23e0"},"vehicle_type_id":"4","last_reported":1747131112,"current_range_meters":25200,"station_id":"ce4bhhh2rcd13ifvqfl0","pricing_plan_id":"cebpf4jnsgd1na2vs0mg"},{"bike_id":"81e87afe-3f97-4744-93ea-a3d464f2b22e","system_id":"levelo_inurba_marseille","lat":43.26219,"lon":5.4045,"is_reserved":false,"is_disabled":false,"rental_uris":{"android":"levelo://app?vid=81e87afe-3f97-4744-93ea-a3d464f2b22e","ios":"levelo://app?vid=81e87afe-3f97-4744-93ea-a3d464f2b22e"},"vehicle_type_id":"4","last_reported":1747131112,"current_range_meters":25200,"station_id":"ce4bhmh2rcd13ifvqgmg","pricing_plan_id":"cebpf4jnsgd1na2vs0mg"},{"bike_id":"0cc4eb21-80ad-4141-8799-66402bf47bda","system_id":"levelo_inurba_marseille","lat":43.324817,"lon":5.365652,"is_reserved":false,"is_disabled":false,"rental_uris":{"android":"levelo://app?vid=0cc4eb21-80ad-4141-8799-66402bf47bda","ios":"levelo://app?vid=0cc4eb21-80ad-4141-8799-66402bf47bda"},"vehicle_type_id":"4","last_reported":1747131112,"current_range_meters":25200,"station_id":"ce4bhs12rcd13ifvqhvg","pricing_plan_id":"cebpf4jnsgd1na2vs0mg"},{"bike_id":"74cfc9cd-beb6-4c37-9222-5dbf1b992d4a","system_id":"levelo_inurba_marseille","lat":43.30541,"lon":5.3652,"is_reserved":false,"is_disabled":false,"rental_uris":{"android":"levelo://app?vid=74cfc9cd-beb6-4c37-9222-5dbf1b992d4a","ios":"levelo://app?vid=74cfc9cd-beb6-4c37-9222-5dbf1b992d4a"},"vehicle_type_id":"4","last_reported":1747131112,"current_range_meters":25600,"station_id":"ce4bgs12rcd13ifvqcag","pricing_plan_id":"cebpf4jnsgd1na2vs0mg"},{"bike_id":"868328af-b308-41de-bf8d-a53f6755d5d9","system_id":"levelo_inurba_marseille","lat":43.31167,"lon":5.38717,"is_reserved":false,"is_disabled":false,"rental_uris":{"android":"levelo://app?vid=868328af-b308-41de-bf8d-a53f6755d5d9","ios":"levelo://app?vid=868328af-b308-41de-bf8d-a53f6755d5d9"},"vehicle_type_id":"4","last_reported":1747131112,"current_range_meters":25600,"station_id":"ce4bgv12rcd13ifvqcp0","pricing_plan_id":"cebpf4jnsgd1na2vs0mg"},{"bike_id":"47fb83f2-7f31-40ff-bf38-5279ce77d7cd","system_id":"levelo_inurba_marseille","lat":43.27375,"lon":5.3626,"is_reserved":false,"is_disabled":false,"rental_uris":{"android":"levelo://app?vid=47fb83f2-7f31-40ff-bf38-5279ce77d7cd","ios":"levelo://app?vid=47fb83f2-7f31-40ff-bf38-5279ce77d7cd"},"vehicle_type_id":"4","last_reported":1747131112,"current_range_meters":25600,"station_id":"ce4bhbh2rcd13ifvqeo0","pricing_plan_id":"cebpf4jnsgd1na2vs0mg"},{"bike_id":"cb0400c4-0e29-4c45-ae0c-1c4b22916568","system_id":"levelo_inurba_marseille","lat":43.30431,"lon":5.38887,"is_reserved":false,"is_disabled":false,"rental_uris":{"android":"levelo://app?vid=cb0400c4-0e29-4c45-ae0c-1c4b22916568","ios":"levelo://app?vid=cb0400c4-0e29-4c45-ae0c-1c4b22916568"},"vehicle_type_id":"4","last_reported":1747131112,"current_range_meters":26000,"station_id":"ce4bgk12rcd13ifvqbi0","pricing_plan_id":"cebpf4jnsgd1na2vs0mg"},{"bike_id":"1f90b715-15c4-4cb4-95fc-36be63fb474c","system_id":"levelo_inurba_marseille","lat":43.29625,"lon":5.37152,"is_reserved":false,"is_disabled":false,"rental_uris":{"android":"levelo://app?vid=1f90b715-15c4-4cb4-95fc-36be63fb474c","ios":"levelo://app?vid=1f90b715-15c4-4cb4-95fc-36be63fb474c"},"vehicle_type_id":"4","last_reported":1747131112,"current_range_meters":26000,"station_id":"ce4bgnh2rcd13ifvqc0g","pricing_plan_id":"cebpf4jnsgd1na2vs0mg"},{"bike_id":"f179c1a5-1860-4bc6-bfd5-c9e16ef460c8","system_id":"levelo_inurba_marseille","lat":43.29799,"lon":5.37133,"is_reserved":false,"is_disabled":false,"rental_uris":{"android":"levelo://app?vid=f179c1a5-1860-4bc6-bfd5-c9e16ef460c8","ios":"levelo://app?vid=f179c1a5-1860-4bc6-bfd5-c9e16ef460c8"},"vehicle_type_id":"4","last_reported":1747131112,"current_range_meters":26000,"station_id":"ce4bgop2rcd13ifvqc1g","pricing_plan_id":"cebpf4jnsgd1na2vs0mg"},{"bike_id":"b3512cdf-d155-45f3-a2c7-4747b6355f04","system_id":"levelo_inurba_marseille","lat":43.30203,"lon":5.3662,"is_reserved":false,"is_disabled":false,"rental_uris":{"android":"levelo://app?vid=b3512cdf-d155-45f3-a2c7-4747b6355f04","ios":"levelo://app?vid=b3512cdf-d155-45f3-a2c7-4747b6355f04"},"vehicle_type_id":"4","last_reported":1747131112,"current_range_meters":26000,"station_id":"ce4bgrh2rcd13ifvqc8g","pricing_plan_id":"cebpf4jnsgd1na2vs0mg"},{"bike_id":"6e44690e-feff-40a9-84cb-aa10665b47a2","system_id":"levelo_inurba_marseille","lat":43.30406,"lon":5.39733,"is_reserved":false,"is_disabled":false,"rental_uris":{"android":"levelo://app?vid=6e44690e-feff-40a9-84cb-aa10665b47a2","ios":"levelo://app?vid=6e44690e-feff-40a9-84cb-aa10665b47a2"},"vehicle_type_id":"4","last_reported":1747131112,"current_range_meters":26000,"station_id":"ce4bh092rcd13ifvqd20","pricing_plan_id":"cebpf4jnsgd1na2vs0mg"},{"bike_id":"b0b0f51f-02cf-4d04-8ff9-4a1a79993ac7","system_id":"levelo_inurba_marseille","lat":43.306208,"lon":5.393915,"is_reserved":false,"is_disabled":false,"rental_uris":{"android":"levelo://app?vid=b0b0f51f-02cf-4d04-8ff9-4a1a79993ac7","ios":"levelo://app?vid=b0b0f51f-02cf-4d04-8ff9-4a1a79993ac7"},"vehicle_type_id":"4","last_reported":1747131112,"current_range_meters":26000,"station_id":"ce4bh0p2rcd13ifvqd80","pricing_plan_id":"cebpf4jnsgd1na2vs0mg"},{"bike_id":"7faa35ef-6ab8-4d26-915d-6e0fff891add","system_id":"levelo_inurba_marseille","lat":43.29009,"lon":5.35615,"is_reserved":false,"is_disabled":false,"rental_uris":{"android":"levelo://app?vid=7faa35ef-6ab8-4d26-915d-6e0fff891add","ios":"levelo://app?vid=7faa35ef-6ab8-4d26-915d-6e0fff891add"},"vehicle_type_id":"4","last_reported":1747131112,"current_range_meters":26000,"station_id":"ce4bhb92rcd13ifvqen0","pricing_plan_id":"cebpf4jnsgd1na2vs0mg"},{"bike_id":"55ed8d2a-e7f4-45cf-a46c-09722ea50b44","system_id":"levelo_inurba_marseille","lat":43.28425,"lon":5.34981,"is_reserved":false,"is_disabled":false,"rental_uris":{"android":"levelo://app?vid=55ed8d2a-e7f4-45cf-a46c-09722ea50b44","ios":"levelo://app?vid=55ed8d2a-e7f4-45cf-a46c-09722ea50b44"},"vehicle_type_id":"4","last_reported":1747131112,"current_range_meters":26000,"station_id":"ce4bhbh2rcd13ifvqepg","pricing_plan_id":"cebpf4jnsgd1na2vs0mg"},{"bike_id":"03dbd443-f492-424a-bc6b-71406860d128","system_id":"levelo_inurba_marseille","lat":43.26959,"lon":5.38638,"is_reserved":false,"is_disabled":false,"rental_uris":{"android":"levelo://app?vid=03dbd443-f492-424a-bc6b-71406860d128","ios":"levelo://app?vid=03dbd443-f492-424a-bc6b-71406860d128"},"vehicle_type_id":"4","last_reported":1747131112,"current_range_meters":26000,"station_id":"ce4bhh92rcd13ifvqfh0","pricing_plan_id":"cebpf4jnsgd1na2vs0mg"},{"bike_id":"541ac976-c22a-4da7-8717-4982d3eca3f0","system_id":"levelo_inurba_marseille","lat":43.23153,"lon":5.43701,"is_reserved":false,"is_disabled":false,"rental_uris":{"android":"levelo://app?vid=541ac976-c22a-4da7-8717-4982d3eca3f0","ios":"levelo://app?vid=541ac976-c22a-4da7-8717-4982d3eca3f0"},"vehicle_type_id":"4","last_reported":1747131112,"current_range_meters":26000,"station_id":"ce4bhmp2rcd13ifvqgog","pricing_plan_id":"cebpf4jnsgd1na2vs0mg"},{"bike_id":"c5e1079d-7599-434f-b2d2-4d0dce8d40f7","system_id":"levelo_inurba_marseille","lat":43.31708,"lon":5.43708,"is_reserved":false,"is_disabled":false,"rental_uris":{"android":"levelo://app?vid=c5e1079d-7599-434f-b2d2-4d0dce8d40f7","ios":"levelo://app?vid=c5e1079d-7599-434f-b2d2-4d0dce8d40f7"},"vehicle_type_id":"4","last_reported":1747131112,"current_range_meters":26000,"station_id":"ce4bhp92rcd13ifvqhcg","pricing_plan_id":"cebpf4jnsgd1na2vs0mg"},{"bike_id":"7bb48c2b-a8b4-4003-b7bd-8317d0efe511","system_id":"levelo_inurba_marseille","lat":43.260168,"lon":5.41741,"is_reserved":false,"is_disabled":false,"rental_uris":{"android":"levelo://app?vid=7bb48c2b-a8b4-4003-b7bd-8317d0efe511","ios":"levelo://app?vid=7bb48c2b-a8b4-4003-b7bd-8317d0efe511"},"vehicle_type_id":"4","last_reported":1747131112,"current_range_meters":26800,"station_id":"","pricing_plan_id":"cebpf4jnsgd1na2vs0mg"},{"bike_id":"29476b30-3c1f-4b99-afbc-204d65cc6c6e","system_id":"levelo_inurba_marseille","lat":43.27628,"lon":5.36113,"is_reserved":false,"is_disabled":false,"rental_uris":{"android":"levelo://app?vid=29476b30-3c1f-4b99-afbc-204d65cc6c6e","ios":"levelo://app?vid=29476b30-3c1f-4b99-afbc-204d65cc6c6e"},"vehicle_type_id":"4","last_reported":1747131112,"current_range_meters":26800,"station_id":"ce4bgj92rcd13ifvqbe0","pricing_plan_id":"cebpf4jnsgd1na2vs0mg"},{"bike_id":"5c50fe82-ce9b-4ff3-ab4f-072fbf8e6db7","system_id":"levelo_inurba_marseille","lat":43.303065,"lon":5.368602,"is_reserved":false,"is_disabled":false,"rental_uris":{"android":"levelo://app?vid=5c50fe82-ce9b-4ff3-ab4f-072fbf8e6db7","ios":"levelo://app?vid=5c50fe82-ce9b-4ff3-ab4f-072fbf8e6db7"},"vehicle_type_id":"4","last_reported":1747131112,"current_range_meters":26800,"station_id":"ce4bgqh2rcd13ifvqc5g","pricing_plan_id":"cebpf4jnsgd1na2vs0mg"},{"bike_id":"4b440e6e-4dc6-4085-8b1f-bb3d460c75eb","system_id":"levelo_inurba_marseille","lat":43.301605,"lon":5.374205,"is_reserved":false,"is_disabled":false,"rental_uris":{"android":"levelo://app?vid=4b440e6e-4dc6-4085-8b1f-bb3d460c75eb","ios":"levelo://app?vid=4b440e6e-4dc6-4085-8b1f-bb3d460c75eb"},"vehicle_type_id":"4","last_reported":1747131112,"current_range_meters":26800,"station_id":"ce4bgs92rcd13ifvqcc0","pricing_plan_id":"cebpf4jnsgd1na2vs0mg"},{"bike_id":"afbfcc5c-e3e4-4934-b9ce-0ea59ea96d81","system_id":"levelo_inurba_marseille","lat":43.319925,"lon":5.38148,"is_reserved":false,"is_disabled":false,"rental_uris":{"android":"levelo://app?vid=afbfcc5c-e3e4-4934-b9ce-0ea59ea96d81","ios":"levelo://app?vid=afbfcc5c-e3e4-4934-b9ce-0ea59ea96d81"},"vehicle_type_id":"4","last_reported":1747131112,"current_range_meters":26800,"station_id":"ce4bhr12rcd13ifvqhpg","pricing_plan_id":"cebpf4jnsgd1na2vs0mg"},{"bike_id":"3ed7b136-7e44-4e26-9e34-6d57d42640a6","system_id":"levelo_inurba_marseille","lat":43.32365,"lon":5.36765,"is_reserved":false,"is_disabled":false,"rental_uris":{"android":"levelo://app?vid=3ed7b136-7e44-4e26-9e34-6d57d42640a6","ios":"levelo://app?vid=3ed7b136-7e44-4e26-9e34-6d57d42640a6"},"vehicle_type_id":"4","last_reported":1747131112,"current_range_meters":26800,"station_id":"ce4bhsh2rcd13ifvqi2g","pricing_plan_id":"cebpf4jnsgd1na2vs0mg"},{"bike_id":"263c7d27-cb36-4f3a-a7ff-2bed342a8010","system_id":"levelo_inurba_marseille","lat":43.29879,"lon":5.38923,"is_reserved":false,"is_disabled":false,"rental_uris":{"android":"levelo://app?vid=263c7d27-cb36-4f3a-a7ff-2bed342a8010","ios":"levelo://app?vid=263c7d27-cb36-4f3a-a7ff-2bed342a8010"},"vehicle_type_id":"4","last_reported":1747131112,"current_range_meters":27200,"station_id":"ce4bh392rcd13ifvqdl0","pricing_plan_id":"cebpf4jnsgd1na2vs0mg"},{"bike_id":"c77de246-b1d1-4d0c-b58a-1365550c0409","system_id":"levelo_inurba_marseille","lat":43.24419,"lon":5.37099,"is_reserved":false,"is_disabled":false,"rental_uris":{"android":"levelo://app?vid=c77de246-b1d1-4d0c-b58a-1365550c0409","ios":"levelo://app?vid=c77de246-b1d1-4d0c-b58a-1365550c0409"},"vehicle_type_id":"4","last_reported":1747131112,"current_range_meters":27200,"station_id":"ce4bhhh2rcd13ifvqfk0","pricing_plan_id":"cebpf4jnsgd1na2vs0mg"},{"bike_id":"600c164a-ffd5-4fdb-9d67-a790f394f26a","system_id":"levelo_inurba_marseille","lat":43.25819,"lon":5.39437,"is_reserved":false,"is_disabled":false,"rental_uris":{"android":"levelo://app?vid=600c164a-ffd5-4fdb-9d67-a790f394f26a","ios":"levelo://app?vid=600c164a-ffd5-4fdb-9d67-a790f394f26a"},"vehicle_type_id":"4","last_reported":1747131112,"current_range_meters":27200,"station_id":"ce4bhip2rcd13ifvqft0","pricing_plan_id":"cebpf4jnsgd1na2vs0mg"},{"bike_id":"6e6b015c-1eef-4bfa-9709-fe98e5a40321","system_id":"levelo_inurba_marseille","lat":43.24167,"lon":5.39761,"is_reserved":false,"is_disabled":false,"rental_uris":{"android":"levelo://app?vid=6e6b015c-1eef-4bfa-9709-fe98e5a40321","ios":"levelo://app?vid=6e6b015c-1eef-4bfa-9709-fe98e5a40321"},"vehicle_type_id":"4","last_reported":1747131112,"current_range_meters":27200,"station_id":"ce4bhn12rcd13ifvqgpg","pricing_plan_id":"cebpf4jnsgd1na2vs0mg"},{"bike_id":"3f9fc2f0-9223-4e10-83fe-f5bf34ba666b","system_id":"levelo_inurba_marseille","lat":43.2306,"lon":5.35493,"is_reserved":false,"is_disabled":false,"rental_uris":{"android":"levelo://app?vid=3f9fc2f0-9223-4e10-83fe-f5bf34ba666b","ios":"levelo://app?vid=3f9fc2f0-9223-4e10-83fe-f5bf34ba666b"},"vehicle_type_id":"4","last_reported":1747131112,"current_range_meters":27200,"station_id":"cpo3342slgdg3j2ifvpg","pricing_plan_id":"cebpf4jnsgd1na2vs0mg"},{"bike_id":"81be0e7c-9d83-42a6-aea6-9fe2aae0a111","system_id":"levelo_inurba_marseille","lat":43.28419,"lon":5.3499,"is_reserved":false,"is_disabled":false,"rental_uris":{"android":"levelo://app?vid=81be0e7c-9d83-42a6-aea6-9fe2aae0a111","ios":"levelo://app?vid=81be0e7c-9d83-42a6-aea6-9fe2aae0a111"},"vehicle_type_id":"4","last_reported":1747131112,"current_range_meters":27600,"station_id":"ce4bhbh2rcd13ifvqepg","pricing_plan_id":"cebpf4jnsgd1na2vs0mg"},{"bike_id":"3648d500-b24b-455e-83ac-6ee31517ced8","system_id":"levelo_inurba_marseille","lat":43.25943,"lon":5.40906,"is_reserved":false,"is_disabled":false,"rental_uris":{"android":"levelo://app?vid=3648d500-b24b-455e-83ac-6ee31517ced8","ios":"levelo://app?vid=3648d500-b24b-455e-83ac-6ee31517ced8"},"vehicle_type_id":"4","last_reported":1747131112,"current_range_meters":27600,"station_id":"ce4bhm92rcd13ifvqglg","pricing_plan_id":"cebpf4jnsgd1na2vs0mg"},{"bike_id":"7cb272c0-54b3-4b4f-b695-69fd48307e60","system_id":"levelo_inurba_marseille","lat":43.32346,"lon":5.36707,"is_reserved":false,"is_disabled":false,"rental_uris":{"android":"levelo://app?vid=7cb272c0-54b3-4b4f-b695-69fd48307e60","ios":"levelo://app?vid=7cb272c0-54b3-4b4f-b695-69fd48307e60"},"vehicle_type_id":"4","last_reported":1747131112,"current_range_meters":27600,"station_id":"ce4bhsh2rcd13ifvqi2g","pricing_plan_id":"cebpf4jnsgd1na2vs0mg"},{"bike_id":"c351ad74-cfad-4524-b23a-5f995cfa52ab","system_id":"levelo_inurba_marseille","lat":43.22509,"lon":5.34792,"is_reserved":false,"is_disabled":false,"rental_uris":{"android":"levelo://app?vid=c351ad74-cfad-4524-b23a-5f995cfa52ab","ios":"levelo://app?vid=c351ad74-cfad-4524-b23a-5f995cfa52ab"},"vehicle_type_id":"4","last_reported":1747131112,"current_range_meters":27600,"station_id":"st_cvj5dfep6f1abm77gieg","pricing_plan_id":"cebpf4jnsgd1na2vs0mg"},{"bike_id":"9ba5d4e5-9628-401d-a874-938033a7227f","system_id":"levelo_inurba_marseille","lat":43.31294,"lon":5.3676,"is_reserved":false,"is_disabled":false,"rental_uris":{"android":"levelo://app?vid=9ba5d4e5-9628-401d-a874-938033a7227f","ios":"levelo://app?vid=9ba5d4e5-9628-401d-a874-938033a7227f"},"vehicle_type_id":"4","last_reported":1747131112,"current_range_meters":28000,"station_id":"","pricing_plan_id":"cebpf4jnsgd1na2vs0mg"},{"bike_id":"03bd33f1-e08a-43f9-aa6b-3b5c63fd8e5f","system_id":"levelo_inurba_marseille","lat":43.30184,"lon":5.36619,"is_reserved":false,"is_disabled":false,"rental_uris":{"android":"levelo://app?vid=03bd33f1-e08a-43f9-aa6b-3b5c63fd8e5f","ios":"levelo://app?vid=03bd33f1-e08a-43f9-aa6b-3b5c63fd8e5f"},"vehicle_type_id":"4","last_reported":1747131112,"current_range_meters":28000,"station_id":"ce4bgrh2rcd13ifvqc8g","pricing_plan_id":"cebpf4jnsgd1na2vs0mg"},{"bike_id":"5329fe0e-70f3-4e46-9cf5-ac9f43371728","system_id":"levelo_inurba_marseille","lat":43.30521,"lon":5.36705,"is_reserved":false,"is_disabled":false,"rental_uris":{"android":"levelo://app?vid=5329fe0e-70f3-4e46-9cf5-ac9f43371728","ios":"levelo://app?vid=5329fe0e-70f3-4e46-9cf5-ac9f43371728"},"vehicle_type_id":"4","last_reported":1747131112,"current_range_meters":28000,"station_id":"ce4bgrp2rcd13ifvqc9g","pricing_plan_id":"cebpf4jnsgd1na2vs0mg"},{"bike_id":"faaa1687-e1fa-45f7-ac0f-d85170b1f93e","system_id":"levelo_inurba_marseille","lat":43.31364,"lon":5.38503,"is_reserved":false,"is_disabled":false,"rental_uris":{"android":"levelo://app?vid=faaa1687-e1fa-45f7-ac0f-d85170b1f93e","ios":"levelo://app?vid=faaa1687-e1fa-45f7-ac0f-d85170b1f93e"},"vehicle_type_id":"4","last_reported":1747131112,"current_range_meters":28000,"station_id":"ce4bgt92rcd13ifvqcf0","pricing_plan_id":"cebpf4jnsgd1na2vs0mg"},{"bike_id":"bd0f6067-da0b-4596-8ca0-74269ba00833","system_id":"levelo_inurba_marseille","lat":43.29537,"lon":5.39395,"is_reserved":false,"is_disabled":false,"rental_uris":{"android":"levelo://app?vid=bd0f6067-da0b-4596-8ca0-74269ba00833","ios":"levelo://app?vid=bd0f6067-da0b-4596-8ca0-74269ba00833"},"vehicle_type_id":"4","last_reported":1747131112,"current_range_meters":28000,"station_id":"ce4bh292rcd13ifvqdf0","pricing_plan_id":"cebpf4jnsgd1na2vs0mg"},{"bike_id":"378a4337-144a-4d98-998a-e2a40fd09af6","system_id":"levelo_inurba_marseille","lat":43.29003,"lon":5.35609,"is_reserved":false,"is_disabled":false,"rental_uris":{"android":"levelo://app?vid=378a4337-144a-4d98-998a-e2a40fd09af6","ios":"levelo://app?vid=378a4337-144a-4d98-998a-e2a40fd09af6"},"vehicle_type_id":"4","last_reported":1747131112,"current_range_meters":28000,"station_id":"ce4bhb92rcd13ifvqen0","pricing_plan_id":"cebpf4jnsgd1na2vs0mg"},{"bike_id":"377e5032-599c-4e55-9cd7-bb3c6e3e0fd8","system_id":"levelo_inurba_marseille","lat":43.34128,"lon":5.40909,"is_reserved":false,"is_disabled":false,"rental_uris":{"android":"levelo://app?vid=377e5032-599c-4e55-9cd7-bb3c6e3e0fd8","ios":"levelo://app?vid=377e5032-599c-4e55-9cd7-bb3c6e3e0fd8"},"vehicle_type_id":"4","last_reported":1747131112,"current_range_meters":28000,"station_id":"ce4bhqh2rcd13ifvqhlg","pricing_plan_id":"cebpf4jnsgd1na2vs0mg"},{"bike_id":"dcbe19a8-287e-4c52-a392-8432af45bcd3","system_id":"levelo_inurba_marseille","lat":43.32355,"lon":5.3676,"is_reserved":false,"is_disabled":false,"rental_uris":{"android":"levelo://app?vid=dcbe19a8-287e-4c52-a392-8432af45bcd3","ios":"levelo://app?vid=dcbe19a8-287e-4c52-a392-8432af45bcd3"},"vehicle_type_id":"4","last_reported":1747131112,"current_range_meters":28000,"station_id":"ce4bhsh2rcd13ifvqi2g","pricing_plan_id":"cebpf4jnsgd1na2vs0mg"},{"bike_id":"70c6fc48-ae37-4056-8b0a-9bdff1511fa6","system_id":"levelo_inurba_marseille","lat":43.29796,"lon":5.404,"is_reserved":false,"is_disabled":false,"rental_uris":{"android":"levelo://app?vid=70c6fc48-ae37-4056-8b0a-9bdff1511fa6","ios":"levelo://app?vid=70c6fc48-ae37-4056-8b0a-9bdff1511fa6"},"vehicle_type_id":"4","last_reported":1747131112,"current_range_meters":28400,"station_id":"ce4bh112rcd13ifvqd90","pricing_plan_id":"cebpf4jnsgd1na2vs0mg"},{"bike_id":"7d2ef784-0760-4814-a09f-3b9a2a885191","system_id":"levelo_inurba_marseille","lat":43.28715,"lon":5.37933,"is_reserved":false,"is_disabled":false,"rental_uris":{"android":"levelo://app?vid=7d2ef784-0760-4814-a09f-3b9a2a885191","ios":"levelo://app?vid=7d2ef784-0760-4814-a09f-3b9a2a885191"},"vehicle_type_id":"4","last_reported":1747131112,"current_range_meters":28400,"station_id":"ce4bh9p2rcd13ifvqec0","pricing_plan_id":"cebpf4jnsgd1na2vs0mg"},{"bike_id":"ae236183-6e43-475e-a8a8-2d6374faacb9","system_id":"levelo_inurba_marseille","lat":43.25925,"lon":5.40904,"is_reserved":false,"is_disabled":false,"rental_uris":{"android":"levelo://app?vid=ae236183-6e43-475e-a8a8-2d6374faacb9","ios":"levelo://app?vid=ae236183-6e43-475e-a8a8-2d6374faacb9"},"vehicle_type_id":"4","last_reported":1747131112,"current_range_meters":28400,"station_id":"ce4bhm92rcd13ifvqglg","pricing_plan_id":"cebpf4jnsgd1na2vs0mg"},{"bike_id":"f6423a82-d97a-4b03-84ca-8069ff848068","system_id":"levelo_inurba_marseille","lat":43.24172,"lon":5.39737,"is_reserved":false,"is_disabled":false,"rental_uris":{"android":"levelo://app?vid=f6423a82-d97a-4b03-84ca-8069ff848068","ios":"levelo://app?vid=f6423a82-d97a-4b03-84ca-8069ff848068"},"vehicle_type_id":"4","last_reported":1747131112,"current_range_meters":28400,"station_id":"ce4bhn12rcd13ifvqgpg","pricing_plan_id":"cebpf4jnsgd1na2vs0mg"},{"bike_id":"354f0639-e2ee-49bc-b649-f0d89cf9efb0","system_id":"levelo_inurba_marseille","lat":43.32475,"lon":5.36563,"is_reserved":false,"is_disabled":false,"rental_uris":{"android":"levelo://app?vid=354f0639-e2ee-49bc-b649-f0d89cf9efb0","ios":"levelo://app?vid=354f0639-e2ee-49bc-b649-f0d89cf9efb0"},"vehicle_type_id":"4","last_reported":1747131112,"current_range_meters":28400,"station_id":"ce4bhs12rcd13ifvqhvg","pricing_plan_id":"cebpf4jnsgd1na2vs0mg"},{"bike_id":"54c80718-1468-47f9-9877-bc44f5940722","system_id":"levelo_inurba_marseille","lat":43.21197,"lon":5.35061,"is_reserved":false,"is_disabled":false,"rental_uris":{"android":"levelo://app?vid=54c80718-1468-47f9-9877-bc44f5940722","ios":"levelo://app?vid=54c80718-1468-47f9-9877-bc44f5940722"},"vehicle_type_id":"4","last_reported":1747131112,"current_range_meters":28400,"station_id":"st_cvj6sg6p6f1abm77japg","pricing_plan_id":"cebpf4jnsgd1na2vs0mg"},{"bike_id":"68cba90a-f341-46b7-8447-66a01a4dc908","system_id":"levelo_inurba_marseille","lat":43.312407,"lon":5.368416,"is_reserved":false,"is_disabled":false,"rental_uris":{"android":"levelo://app?vid=68cba90a-f341-46b7-8447-66a01a4dc908","ios":"levelo://app?vid=68cba90a-f341-46b7-8447-66a01a4dc908"},"vehicle_type_id":"4","last_reported":1747131112,"current_range_meters":28800,"station_id":"ce4bgl92rcd13ifvqbq0","pricing_plan_id":"cebpf4jnsgd1na2vs0mg"},{"bike_id":"42b7c2f7-690c-4932-8667-fb2889e772f2","system_id":"levelo_inurba_marseille","lat":43.290021,"lon":5.35604,"is_reserved":false,"is_disabled":false,"rental_uris":{"android":"levelo://app?vid=42b7c2f7-690c-4932-8667-fb2889e772f2","ios":"levelo://app?vid=42b7c2f7-690c-4932-8667-fb2889e772f2"},"vehicle_type_id":"4","last_reported":1747131112,"current_range_meters":28800,"station_id":"ce4bhb92rcd13ifvqen0","pricing_plan_id":"cebpf4jnsgd1na2vs0mg"},{"bike_id":"f94ef5b5-00a7-4167-bd13-7643012a5b05","system_id":"levelo_inurba_marseille","lat":43.28261,"lon":5.35071,"is_reserved":false,"is_disabled":false,"rental_uris":{"android":"levelo://app?vid=f94ef5b5-00a7-4167-bd13-7643012a5b05","ios":"levelo://app?vid=f94ef5b5-00a7-4167-bd13-7643012a5b05"},"vehicle_type_id":"4","last_reported":1747131112,"current_range_meters":28800,"station_id":"ce4bhbp2rcd13ifvqerg","pricing_plan_id":"cebpf4jnsgd1na2vs0mg"},{"bike_id":"8c599ec9-9529-4fb9-83f5-749bb4816f25","system_id":"levelo_inurba_marseille","lat":43.25868,"lon":5.39916,"is_reserved":false,"is_disabled":false,"rental_uris":{"android":"levelo://app?vid=8c599ec9-9529-4fb9-83f5-749bb4816f25","ios":"levelo://app?vid=8c599ec9-9529-4fb9-83f5-749bb4816f25"},