{"last_updated":1708110345,"ttl":30,"version":"2.2","data":{"bikes":[{"bike_id":"d1ca432f-6240-47b6-afb6-dc8390e96a6b","system_id":"levelo_inurba_marseille","lat":43.314811,"lon":5.373104,"is_reserved":false,"is_disabled":false,"rental_uris":{"android":"levelo://app?vid=d1ca432f-6240-47b6-afb6-dc8390e96a6b","ios":"levelo://app?vid=d1ca432f-6240-47b6-afb6-dc8390e96a6b"},"vehicle_type_id":"4","last_reported":1708110345,"current_range_meters":31200,"station_id":"ce4bgt12rcd13ifvqcd0","pricing_plan_id":"cebpf4jnsgd1na2vs0mg"},{"bike_id":"5f896cac-5c87-4996-b8ad-a4ced64222fb","system_id":"levelo_inurba_marseille","lat":43.314811,"lon":5.373103,"is_reserved":false,"is_disabled":false,"rental_uris":{"android":"levelo://app?vid=5f896cac-5c87-4996-b8ad-a4ced64222fb","ios":"levelo://app?vid=5f896cac-5c87-4996-b8ad-a4ced64222fb"},"vehicle_type_id":"4","last_reported":1708110345,"current_range_meters":19600,"station_id":"ce4bgt12rcd13ifvqcd0","pricing_plan_id":"cebpf4jnsgd1na2vs0mg"},{"bike_id":"2a847008-44df-43ff-a744-9abfe5a25664","system_id":"levelo_inurba_marseille","lat":43.314811,"lon":5.373104,"is_reserved":false,"is_disabled":false,"rental_uris":{"android":"levelo://app?vid=2a847008-44df-43ff-a744-9abfe5a25664","ios":"levelo://app?vid=2a847008-44df-43ff-a744-9abfe5a25664"},"vehicle_type_id":"4","last_reported":1708110345,"current_range_meters":25200,"station_id":"ce4bgt12rcd13ifvqcd0","pricing_plan_id":"cebpf4jnsgd1na2vs0mg"},{"bike_id":"0d5da2af-0213-4bfd-a274-34f1d0f09064","system_id":"levelo_inurba_marseille","lat":43.309034,"lon":5.371783,"is_reserved":false,"is_disabled":false,"rental_uris":{"android":"levelo://app?vid=0d5da2af-0213-4bfd-a274-34f1d0f09064","ios":"levelo://app?vid=0d5da2af-0213-4bfd-a274-34f1d0f09064"},"vehicle_type_id":"4","last_reported":1708110345,"current_range_meters":10400,"station_id":"ce4bguh2rcd13ifvqckg","pricing_plan_id":"cebpf4jnsgd1na2vs0mg"},{"bike_id":"6f7b6296-dc1d-4580-b54a-dc1170b224fe","system_id":"levelo_inurba_marseille","lat":43.30885,"lon":5.372,"is_reserved":false,"is_disabled":false,"rental_uris":{"android":"levelo://app?vid=6f7b6296-dc1d-4580-b54a-dc1170b224fe","ios":"levelo://app?vid=6f7b6296-dc1d-4580-b54a-dc1170b224fe"},"vehicle_type_id":"4","last_reported":1708110345,"current_range_meters":0,"station_id":"ce4bguh2rcd13ifvqckg","pricing_plan_id":"cebpf4jnsgd1na2vs0mg"},{"bike_id":"fa319959-62d4-49e1-8753-b97d6991e566","system_id":"levelo_inurba_marseille","lat":43.305706,"lon":5.365654,"is_reserved":false,"is_disabled":false,"rental_uris":{"android":"levelo://app?vid=fa319959-62d4-49e1-8753-b97d6991e566","ios":"levelo://app?vid=fa319959-62d4-49e1-8753-b97d6991e566"},"vehicle_type_id":"4","last_reported":1708110345,"current_range_meters":11600,"station_id":"ce4bgs12rcd13ifvqcag","pricing_plan_id":"cebpf4jnsgd1na2vs0mg"},{"bike_id":"8fe469c5-84f8-4a2d-85a4-a180086c270c","system_id":"levelo_inurba_marseille","lat":43.305989,"lon":5.37225,"is_reserved":false,"is_disabled":false,"rental_uris":{"android":"levelo://app?vid=8fe469c5-84f8-4a2d-85a4-a180086c270c","ios":"levelo://app?vid=8fe469c5-84f8-4a2d-85a4-a180086c270c"},"vehicle_type_id":"4","last_reported":1708110345,"current_range_meters":30000,"station_id":"ce4bgqh2rcd13ifvqc4g","pricing_plan_id":"cebpf4jnsgd1na2vs0mg"},{"bike_id":"6e475e85-36f1-494c-be08-0b1006bd6404","system_id":"levelo_inurba_marseille","lat":43.305989,"lon":5.37225,"is_reserved":false,"is_disabled":false,"rental_uris":{"android":"levelo://app?vid=6e475e85-36f1-494c-be08-0b1006bd6404","ios":"levelo://app?vid=6e475e85-36f1-494c-be08-0b1006bd6404"},"vehicle_type_id":"4","last_reported":1708110345,"current_range_meters":7200,"station_id":"ce4bgqh2rcd13ifvqc4g","pricing_plan_id":"cebpf4jnsgd1na2vs0mg"},{"bike_id":"4a4c9ece-5ddc-4aeb-b567-b3c661d560ad","system_id":"levelo_inurba_marseille","lat":43.305989,"lon":5.37225,"is_reserved":false,"is_disabled":false,"rental_uris":{"android":"levelo://app?vid=4a4c9ece-5ddc-4aeb-b567-b3c661d560ad","ios":"levelo://app?vid=4a4c9ece-5ddc-4aeb-b567-b3c661d560ad"},"vehicle_type_id":"4","last_reported":1708110345,"current_range_meters":2000,"station_id":"ce4bgqh2rcd13ifvqc4g","pricing_plan_id":"cebpf4jnsgd1na2vs0mg"},{"bike_id":"b29f639d-2d17-4f5f-b749-b9d7419d46dd","system_id":"levelo_inurba_marseille","lat":43.311297,"lon":5.377663,"is_reserved":false,"is_disabled":false,"rental_uris":{"android":"levelo://app?vid=b29f639d-2d17-4f5f-b749-b9d7419d46dd","ios":"levelo://app?vid=b29f639d-2d17-4f5f-b749-b9d7419d46dd"},"vehicle_type_id":"4","last_reported":1708110345,"current_range_meters":2400,"station_id":"ce4bgt92rcd13ifvqcg0","pricing_plan_id":"cebpf4jnsgd1na2vs0mg"},{"bike_id":"04cecffb-c4bf-4003-ac85-e3921495aab8","system_id":"levelo_inurba_marseille","lat":43.311131,"lon":5.377651,"is_reserved":false,"is_disabled":false,"rental_uris":{"android":"levelo://app?vid=04cecffb-c4bf-4003-ac85-e3921495aab8","ios":"levelo://app?vid=04cecffb-c4bf-4003-ac85-e3921495aab8"},"vehicle_type_id":"4","last_reported":1708110345,"current_range_meters":6400,"station_id":"ce4bgt92rcd13ifvqcg0","pricing_plan_id":"cebpf4jnsgd1na2vs0mg"},{"bike_id":"8458b9e7-591f-4c16-bc5d-d7460b994849","system_id":"levelo_inurba_marseille","lat":43.311131,"lon":5.377651,"is_reserved":false,"is_disabled":false,"rental_uris":{"android":"levelo://app?vid=8458b9e7-591f-4c16-bc5d-d7460b994849","ios":"levelo://app?vid=8458b9e7-591f-4c16-bc5d-d7460b994849"},"vehicle_type_id":"4","last_reported":1708110345,"current_range_meters":15200,"station_id":"ce4bgt92rcd13ifvqcg0","pricing_plan_id":"cebpf4jnsgd1na2vs0mg"},{"bike_id":"9fd3b1b4-94bf-47a9-996b-aa53183e1cba","system_id":"levelo_inurba_marseille","lat":43.30782,"lon":5.37637,"is_reserved":false,"is_disabled":false,"rental_uris":{"android":"levelo://app?vid=9fd3b1b4-94bf-47a9-996b-aa53183e1cba","ios":"levelo://app?vid=9fd3b1b4-94bf-47a9-996b-aa53183e1cba"},"vehicle_type_id":"4","last_reported":1708110345,"current_range_meters":28400,"station_id":"ce4bgv92rcd13ifvqcq0","pricing_plan_id":"cebpf4jnsgd1na2vs0mg"},{"bike_id":"b8503d1f-72be-4134-9519-07cbef17fa5a","system_id":"levelo_inurba_marseille","lat":43.307871,"lon":5.376519,"is_reserved":false,"is_disabled":false,"rental_uris":{"android":"levelo://app?vid=b8503d1f-72be-4134-9519-07cbef17fa5a","ios":"levelo://app?vid=b8503d1f-72be-4134-9519-07cbef17fa5a"},"vehicle_type_id":"4","last_reported":1708110345,"current_range_meters":28000,"station_id":"ce4bgv92rcd13ifvqcq0","pricing_plan_id":"cebpf4jnsgd1na2vs0mg"},{"bike_id":"af45449b-f86d-4a2c-b9ce-b4012fed59d1","system_id":"levelo_inurba_marseille","lat":43.30785,"lon":5.37653,"is_reserved":false,"is_disabled":false,"rental_uris":{"android":"levelo://app?vid=af45449b-f86d-4a2c-b9ce-b4012fed59d1","ios":"levelo://app?vid=af45449b-f86d-4a2c-b9ce-b4012fed59d1"},"vehicle_type_id":"4","last_reported":1708110345,"current_range_meters":19200,"station_id":"ce4bgv92rcd13ifvqcq0","pricing_plan_id":"cebpf4jnsgd1na2vs0mg"},{"bike_id":"b9567b88-37de-411a-94c4-a25bf1255180","system_id":"levelo_inurba_marseille","lat":43.30776,"lon":5.37648,"is_reserved":false,"is_disabled":false,"rental_uris":{"android":"levelo://app?vid=b9567b88-37de-411a-94c4-a25bf1255180","ios":"levelo://app?vid=b9567b88-37de-411a-94c4-a25bf1255180"},"vehicle_type_id":"4","last_reported":1708110345,"current_range_meters":22400,"station_id":"ce4bgv92rcd13ifvqcq0","pricing_plan_id":"cebpf4jnsgd1na2vs0mg"},{"bike_id":"6f78e519-3229-4d77-bd68-f0bcf4e7dbde","system_id":"levelo_inurba_marseille","lat":43.305989,"lon":5.37225,"is_reserved":false,"is_disabled":false,"rental_uris":{"android":"levelo://app?vid=6f78e519-3229-4d77-bd68-f0bcf4e7dbde","ios":"levelo://app?vid=6f78e519-3229-4d77-bd68-f0bcf4e7dbde"},"vehicle_type_id":"4","last_reported":1708110345,"current_range_meters":22000,"station_id":"ce4bgqh2rcd13ifvqc4g","pricing_plan_id":"cebpf4jnsgd1na2vs0mg"},{"bike_id":"8148dcf1-3afb-4ffe-aee5-47850c3932df","system_id":"levelo_inurba_marseille","lat":43.30778,"lon":5.37654,"is_reserved":false,"is_disabled":false,"rental_uris":{"android":"levelo://app?vid=8148dcf1-3afb-4ffe-aee5-47850c3932df","ios":"levelo://app?vid=8148dcf1-3afb-4ffe-aee5-47850c3932df"},"vehicle_type_id":"4","last_reported":1708110345,"current_range_meters":2400,"station_id":"ce4bgv92rcd13ifvqcq0","pricing_plan_id":"cebpf4jnsgd1na2vs0mg"},{"bike_id":"796f5d9d-fe2a-4113-9f6e-dc9c2d0e101a","system_id":"levelo_inurba_marseille","lat":43.3078,"lon":5.3766,"is_reserved":false,"is_disabled":false,"rental_uris":{"android":"levelo://app?vid=796f5d9d-fe2a-4113-9f6e-dc9c2d0e101a","ios":"levelo://app?vid=796f5d9d-fe2a-4113-9f6e-dc9c2d0e101a"},"vehicle_type_id":"4","last_reported":1708110345,"current_range_meters":1200,"station_id":"ce4bgv92rcd13ifvqcq0","pricing_plan_id":"cebpf4jnsgd1na2vs0mg"},{"bike_id":"68c086a4-0426-4dfb-953b-08cb3d26d91c","system_id":"levelo_inurba_marseille","lat":43.317075,"lon":5.377367,"is_reserved":false,"is_disabled":false,"rental_uris":{"android":"levelo://app?vid=68c086a4-0426-4dfb-953b-08cb3d26d91c","ios":"levelo://app?vid=68c086a4-0426-4dfb-953b-08cb3d26d91c"},"vehicle_type_id":"4","last_reported":1708110345,"current_range_meters":15600,"station_id":"ce4bgth2rcd13ifvqch0","pricing_plan_id":"cebpf4jnsgd1na2vs0mg"},{"bike_id":"cc5957e6-fbd1-424d-9cd7-351143fc571e","system_id":"levelo_inurba_marseille","lat":43.317075,"lon":5.377367,"is_reserved":false,"is_disabled":false,"rental_uris":{"android":"levelo://app?vid=cc5957e6-fbd1-424d-9cd7-351143fc571e","ios":"levelo://app?vid=cc5957e6-fbd1-424d-9cd7-351143fc571e"},"vehicle_type_id":"4","last_reported":1708110345,"current_range_meters":23200,"station_id":"ce4bgth2rcd13ifvqch0","pricing_plan_id":"cebpf4jnsgd1na2vs0mg"},{"bike_id":"e0ab11de-fc9c-4d4b-971a-3b2ba2a23340","system_id":"levelo_inurba_marseille","lat":43.317075,"lon":5.377367,"is_reserved":false,"is_disabled":false,"rental_uris":{"android":"levelo://app?vid=e0ab11de-fc9c-4d4b-971a-3b2ba2a23340","ios":"levelo://app?vid=e0ab11de-fc9c-4d4b-971a-3b2ba2a23340"},"vehicle_type_id":"4","last_reported":1708110345,"current_range_meters":31200,"station_id":"ce4bgth2rcd13ifvqch0","pricing_plan_id":"cebpf4jnsgd1na2vs0mg"},{"bike_id":"e841ab86-75f1-48f4-99c6-c0452dc2f6ec","system_id":"levelo_inurba_marseille","lat":43.317077,"lon":5.37746,"is_reserved":false,"is_disabled":false,"rental_uris":{"android":"levelo://app?vid=e841ab86-75f1-48f4-99c6-c0452dc2f6ec","ios":"levelo://app?vid=e841ab86-75f1-48f4-99c6-c0452dc2f6ec"},"vehicle_type_id":"4","last_reported":1708110345,"current_range_meters":19600,"station_id":"ce4bgth2rcd13ifvqch0","pricing_plan_id":"cebpf4jnsgd1na2vs0mg"},{"bike_id":"a9531e14-b43f-4c5b-9c30-9a60ea895c45","system_id":"levelo_inurba_marseille","lat":43.317075,"lon":5.377367,"is_reserved":false,"is_disabled":false,"rental_uris":{"android":"levelo://app?vid=a9531e14-b43f-4c5b-9c30-9a60ea895c45","ios":"levelo://app?vid=a9531e14-b43f-4c5b-9c30-9a60ea895c45"},"vehicle_type_id":"4","last_reported":1708110345,"current_range_meters":31600,"station_id":"ce4bgth2rcd13ifvqch0","pricing_plan_id":"cebpf4jnsgd1na2vs0mg"},{"bike_id":"0059c36f-e434-465b-b808-3f6d5cd3216c","system_id":"levelo_inurba_marseille","lat":43.317075,"lon":5.377367,"is_reserved":false,"is_disabled":false,"rental_uris":{"android":"levelo://app?vid=0059c36f-e434-465b-b808-3f6d5cd3216c","ios":"levelo://app?vid=0059c36f-e434-465b-b808-3f6d5cd3216c"},"vehicle_type_id":"4","last_reported":1708110345,"current_range_meters":10400,"station_id":"ce4bgth2rcd13ifvqch0","pricing_plan_id":"cebpf4jnsgd1na2vs0mg"},{"bike_id":"e8396d9b-01ad-42aa-ae6a-25e7361077f6","system_id":"levelo_inurba_marseille","lat":43.317075,"lon":5.377367,"is_reserved":false,"is_disabled":false,"rental_uris":{"android":"levelo://app?vid=e8396d9b-01ad-42aa-ae6a-25e7361077f6","ios":"levelo://app?vid=e8396d9b-01ad-42aa-ae6a-25e7361077f6"},"vehicle_type_id":"4","last_reported":1708110345,"current_range_meters":31200,"station_id":"ce4bgth2rcd13ifvqch0","pricing_plan_id":"cebpf4jnsgd1na2vs0mg"},{"bike_id":"d14c6b08-f17f-4756-bf03-548f68454f74","system_id":"levelo_inurba_marseille","lat":43.317075,"lon":5.377367,"is_reserved":false,"is_disabled":false,"rental_uris":{"android":"levelo://app?vid=d14c6b08-f17f-4756-bf03-548f68454f74","ios":"levelo://app?vid=d14c6b08-f17f-4756-bf03-548f68454f74"},"vehicle_type_id":"4","last_reported":1708110345,"current_range_meters":23600,"station_id":"ce4bgth2rcd13ifvqch0","pricing_plan_id":"cebpf4jnsgd1na2vs0mg"},{"bike_id":"bd358fc6-c8f1-4017-aba5-09b1b508f5e5","system_id":"levelo_inurba_marseille","lat":43.315293,"lon":5.380349,"is_reserved":false,"is_disabled":false,"rental_uris":{"android":"levelo://app?vid=bd358fc6-c8f1-4017-aba5-09b1b508f5e5","ios":"levelo://app?vid=bd358fc6-c8f1-4017-aba5-09b1b508f5e5"},"vehicle_type_id":"4","last_reported":1708110345,"current_range_meters":14800,"station_id":"ce4bhsp2rcd13ifvqi50","pricing_plan_id":"cebpf4jnsgd1na2vs0mg"},{"bike_id":"a7fbe995-7e07-4640-8104-a31a9badee7b","system_id":"levelo_inurba_marseille","lat":43.308962,"lon":5.380621,"is_reserved":false,"is_disabled":false,"rental_uris":{"android":"levelo://app?vid=a7fbe995-7e07-4640-8104-a31a9badee7b","ios":"levelo://app?vid=a7fbe995-7e07-4640-8104-a31a9badee7b"},"vehicle_type_id":"4","last_reported":1708110345,"current_range_meters":0,"station_id":"","pricing_plan_id":"cebpf4jnsgd1na2vs0mg"},{"bike_id":"f2b46ad5-62a4-4c4d-b995-940a6b4e20c8","system_id":"levelo_inurba_marseille","lat":43.308012,"lon":5.381511,"is_reserved":false,"is_disabled":false,"rental_uris":{"android":"levelo://app?vid=f2b46ad5-62a4-4c4d-b995-940a6b4e20c8","ios":"levelo://app?vid=f2b46ad5-62a4-4c4d-b995-940a6b4e20c8"},"vehicle_type_id":"4","last_reported":1708110345,"current_range_meters":0,"station_id":"ce4bgt12rcd13ifvqce0","pricing_plan_id":"cebpf4jnsgd1na2vs0mg"},{"bike_id":"75be774e-6a89-4c9d-bb07-3b65c8711b51","system_id":"levelo_inurba_marseille","lat":43.324771,"lon":5.36557,"is_reserved":false,"is_disabled":false,"rental_uris":{"android":"levelo://app?vid=75be774e-6a89-4c9d-bb07-3b65c8711b51","ios":"levelo://app?vid=75be774e-6a89-4c9d-bb07-3b65c8711b51"},"vehicle_type_id":"4","last_reported":1708110345,"current_range_meters":4400,"station_id":"ce4bhs12rcd13ifvqhvg","pricing_plan_id":"cebpf4jnsgd1na2vs0mg"},{"bike_id":"93aee7d5-5efc-4021-bab5-b9810878aeb9","system_id":"levelo_inurba_marseille","lat":43.324771,"lon":5.36557,"is_reserved":false,"is_disabled":false,"rental_uris":{"android":"levelo://app?vid=93aee7d5-5efc-4021-bab5-b9810878aeb9","ios":"levelo://app?vid=93aee7d5-5efc-4021-bab5-b9810878aeb9"},"vehicle_type_id":"4","last_reported":1708110345,"current_range_meters":22800,"station_id":"ce4bhs12rcd13ifvqhvg","pricing_plan_id":"cebpf4jnsgd1na2vs0mg"},{"bike_id":"99c81edb-b57e-438c-8ec6-cc469446db51","system_id":"levelo_inurba_marseille","lat":43.324771,"lon":5.36557,"is_reserved":false,"is_disabled":false,"rental_uris":{"android":"levelo://app?vid=99c81edb-b57e-438c-8ec6-cc469446db51","ios":"levelo://app?vid=99c81edb-b57e-438c-8ec6-cc469446db51"},"vehicle_type_id":"4","last_reported":1708110345,"current_range_meters":5600,"station_id":"ce4bhs12rcd13ifvqhvg","pricing_plan_id":"cebpf4jnsgd1na2vs0mg"},{"bike_id":"47024265-3d51-4a77-b25d-6d74135771d6","system_id":"levelo_inurba_marseille","lat":43.324791,"lon":5.365491,"is_reserved":false,"is_disabled":false,"rental_uris":{"android":"levelo://app?vid=47024265-3d51-4a77-b25d-6d74135771d6","ios":"levelo://app?vid=47024265-3d51-4a77-b25d-6d74135771d6"},"vehicle_type_id":"4","last_reported":1708110345,"current_range_meters":6800,"station_id":"ce4bhs12rcd13ifvqhvg","pricing_plan_id":"cebpf4jnsgd1na2vs0mg"},{"bike_id":"3af487a9-52e6-47a1-b645-48e1c5e124c8","system_id":"levelo_inurba_marseille","lat":43.324771,"lon":5.36557,"is_reserved":false,"is_disabled":false,"rental_uris":{"android":"levelo://app?vid=3af487a9-52e6-47a1-b645-48e1c5e124c8","ios":"levelo://app?vid=3af487a9-52e6-47a1-b645-48e1c5e124c8"},"vehicle_type_id":"4","last_reported":1708110345,"current_range_meters":16400,"station_id":"ce4bhs12rcd13ifvqhvg","pricing_plan_id":"cebpf4jnsgd1na2vs0mg"},{"bike_id":"e4b61d04-1f65-4b69-987e-48eb73204e86","system_id":"levelo_inurba_marseille","lat":43.324771,"lon":5.36557,"is_reserved":false,"is_disabled":false,"rental_uris":{"android":"levelo://app?vid=e4b61d04-1f65-4b69-987e-48eb73204e86","ios":"levelo://app?vid=e4b61d04-1f65-4b69-987e-48eb73204e86"},"vehicle_type_id":"4","last_reported":1708110345,"current_range_meters":9600,"station_id":"ce4bhs12rcd13ifvqhvg","pricing_plan_id":"cebpf4jnsgd1na2vs0mg"},{"bike_id":"37e26e25-537e-4cb0-b224-384891feb1f7","system_id":"levelo_inurba_marseille","lat":43.310804,"lon":5.38359,"is_reserved":false,"is_disabled":false,"rental_uris":{"android":"levelo://app?vid=37e26e25-537e-4cb0-b224-384891feb1f7","ios":"levelo://app?vid=37e26e25-537e-4cb0-b224-384891feb1f7"},"vehicle_type_id":"4","last_reported":1708110345,"current_range_meters":6000,"station_id":"ce4bgv92rcd13ifvqcr0","pricing_plan_id":"cebpf4jnsgd1na2vs0mg"},{"bike_id":"e84307a4-1005-4a73-b5c0-7cdae7b9beda","system_id":"levelo_inurba_marseille","lat":43.310804,"lon":5.38359,"is_reserved":false,"is_disabled":false,"rental_uris":{"android":"levelo://app?vid=e84307a4-1005-4a73-b5c0-7cdae7b9beda","ios":"levelo://app?vid=e84307a4-1005-4a73-b5c0-7cdae7b9beda"},"vehicle_type_id":"4","last_reported":1708110345,"current_range_meters":8800,"station_id":"ce4bgv92rcd13ifvqcr0","pricing_plan_id":"cebpf4jnsgd1na2vs0mg"},{"bike_id":"ac20c383-7236-4355-8333-e4847f4c7322","system_id":"levelo_inurba_marseille","lat":43.31078,"lon":5.38363,"is_reserved":false,"is_disabled":false,"rental_uris":{"android":"levelo://app?vid=ac20c383-7236-4355-8333-e4847f4c7322","ios":"levelo://app?vid=ac20c383-7236-4355-8333-e4847f4c7322"},"vehicle_type_id":"4","last_reported":1708110345,"current_range_meters":0,"station_id":"ce4bgv92rcd13ifvqcr0","pricing_plan_id":"cebpf4jnsgd1na2vs0mg"},{"bike_id":"dbf6957d-06ef-4844-84b6-8f549139cbe0","system_id":"levelo_inurba_marseille","lat":43.302784,"lon":5.377158,"is_reserved":false,"is_disabled":false,"rental_uris":{"android":"levelo://app?vid=dbf6957d-06ef-4844-84b6-8f549139cbe0","ios":"levelo://app?vid=dbf6957d-06ef-4844-84b6-8f549139cbe0"},"vehicle_type_id":"4","last_reported":1708110345,"current_range_meters":28400,"station_id":"ce4bguh2rcd13ifvqcj0","pricing_plan_id":"cebpf4jnsgd1na2vs0mg"},{"bike_id":"4a86a5f9-07f3-4932-9c6b-fde8b4738304","system_id":"levelo_inurba_marseille","lat":43.30143,"lon":5.37413,"is_reserved":false,"is_disabled":false,"rental_uris":{"android":"levelo://app?vid=4a86a5f9-07f3-4932-9c6b-fde8b4738304","ios":"levelo://app?vid=4a86a5f9-07f3-4932-9c6b-fde8b4738304"},"vehicle_type_id":"4","last_reported":1708110345,"current_range_meters":0,"station_id":"ce4bgs92rcd13ifvqcc0","pricing_plan_id":"cebpf4jnsgd1na2vs0mg"},{"bike_id":"ab30b2d8-abc4-4ae2-9618-c8fd7ee00b83","system_id":"levelo_inurba_marseille","lat":43.30143,"lon":5.37413,"is_reserved":false,"is_disabled":false,"rental_uris":{"android":"levelo://app?vid=ab30b2d8-abc4-4ae2-9618-c8fd7ee00b83","ios":"levelo://app?vid=ab30b2d8-abc4-4ae2-9618-c8fd7ee00b83"},"vehicle_type_id":"4","last_reported":1708110345,"current_range_meters":13200,"station_id":"ce4bgs92rcd13ifvqcc0","pricing_plan_id":"cebpf4jnsgd1na2vs0mg"},{"bike_id":"212c0968-793f-408a-8843-aac862b8904a","system_id":"levelo_inurba_marseille","lat":43.302784,"lon":5.377158,"is_reserved":false,"is_disabled":false,"rental_uris":{"android":"levelo://app?vid=212c0968-793f-408a-8843-aac862b8904a","ios":"levelo://app?vid=212c0968-793f-408a-8843-aac862b8904a"},"vehicle_type_id":"4","last_reported":1708110345,"current_range_meters":14800,"station_id":"ce4bguh2rcd13ifvqcj0","pricing_plan_id":"cebpf4jnsgd1na2vs0mg"},{"bike_id":"253f57d7-e42e-4792-99e9-60a4836727c6","system_id":"levelo_inurba_marseille","lat":43.31991,"lon":5.38155,"is_reserved":false,"is_disabled":false,"rental_uris":{"android":"levelo://app?vid=253f57d7-e42e-4792-99e9-60a4836727c6","ios":"levelo://app?vid=253f57d7-e42e-4792-99e9-60a4836727c6"},"vehicle_type_id":"4","last_reported":1708110345,"current_range_meters":29600,"station_id":"ce4bhr12rcd13ifvqhpg","pricing_plan_id":"cebpf4jnsgd1na2vs0mg"},{"bike_id":"cec17300-11df-45f5-9fc2-654bdac57e67","system_id":"levelo_inurba_marseille","lat":43.319935,"lon":5.381699,"is_reserved":false,"is_disabled":false,"rental_uris":{"android":"levelo://app?vid=cec17300-11df-45f5-9fc2-654bdac57e67","ios":"levelo://app?vid=cec17300-11df-45f5-9fc2-654bdac57e67"},"vehicle_type_id":"4","last_reported":1708110345,"current_range_meters":29600,"station_id":"ce4bhr12rcd13ifvqhpg","pricing_plan_id":"cebpf4jnsgd1na2vs0mg"},{"bike_id":"a778d218-c4c3-494a-b4df-fc23ae99fc31","system_id":"levelo_inurba_marseille","lat":43.31999,"lon":5.3815,"is_reserved":false,"is_disabled":false,"rental_uris":{"android":"levelo://app?vid=a778d218-c4c3-494a-b4df-fc23ae99fc31","ios":"levelo://app?vid=a778d218-c4c3-494a-b4df-fc23ae99fc31"},"vehicle_type_id":"4","last_reported":1708110345,"current_range_meters":30000,"station_id":"ce4bhr12rcd13ifvqhpg","pricing_plan_id":"cebpf4jnsgd1na2vs0mg"},{"bike_id":"a01b2ae4-3880-4ec4-8bd9-6e5e09b4e373","system_id":"levelo_inurba_marseille","lat":43.31996,"lon":5.38153,"is_reserved":false,"is_disabled":false,"rental_uris":{"android":"levelo://app?vid=a01b2ae4-3880-4ec4-8bd9-6e5e09b4e373","ios":"levelo://app?vid=a01b2ae4-3880-4ec4-8bd9-6e5e09b4e373"},"vehicle_type_id":"4","last_reported":1708110345,"current_range_meters":14400,"station_id":"ce4bhr12rcd13ifvqhpg","pricing_plan_id":"cebpf4jnsgd1na2vs0mg"},{"bike_id":"2d76af47-c728-4336-9ab6-040dda11a28b","system_id":"levelo_inurba_marseille","lat":43.319935,"lon":5.381699,"is_reserved":false,"is_disabled":false,"rental_uris":{"android":"levelo://app?vid=2d76af47-c728-4336-9ab6-040dda11a28b","ios":"levelo://app?vid=2d76af47-c728-4336-9ab6-040dda11a28b"},"vehicle_type_id":"4","last_reported":1708110345,"current_range_meters":7200,"station_id":"ce4bhr12rcd13ifvqhpg","pricing_plan_id":"cebpf4jnsgd1na2vs0mg"},{"bike_id":"9d8c0a3b-7f60-4523-aa49-51e9485356f5","system_id":"levelo_inurba_marseille","lat":43.319935,"lon":5.381699,"is_reserved":false,"is_disabled":false,"rental_uris":{"android":"levelo://app?vid=9d8c0a3b-7f60-4523-aa49-51e9485356f5","ios":"levelo://app?vid=9d8c0a3b-7f60-4523-aa49-51e9485356f5"},"vehicle_type_id":"4","last_reported":1708110345,"current_range_meters":12000,"station_id":"ce4bhr12rcd13ifvqhpg","pricing_plan_id":"cebpf4jnsgd1na2vs0mg"},{"bike_id":"fcd1c5ff-7ff1-45d7-a993-8e4b91a97aff","system_id":"levelo_inurba_marseille","lat":43.319935,"lon":5.381699,"is_reserved":false,"is_disabled":false,"rental_uris":{"android":"levelo://app?vid=fcd1c5ff-7ff1-45d7-a993-8e4b91a97aff","ios":"levelo://app?vid=fcd1c5ff-7ff1-45d7-a993-8e4b91a97aff"},"vehicle_type_id":"4","last_reported":1708110345,"current_range_meters":28000,"station_id":"ce4bhr12rcd13ifvqhpg","pricing_plan_id":"cebpf4jnsgd1na2vs0mg"},{"bike_id":"3db2ee9e-ee0f-400b-87b5-eeb0f5726421","system_id":"levelo_inurba_marseille","lat":43.32,"lon":5.38165,"is_reserved":false,"is_disabled":false,"rental_uris":{"android":"levelo://app?vid=3db2ee9e-ee0f-400b-87b5-eeb0f5726421","ios":"levelo://app?vid=3db2ee9e-ee0f-400b-87b5-eeb0f5726421"},"vehicle_type_id":"4","last_reported":1708110345,"current_range_meters":0,"station_id":"ce4bhr12rcd13ifvqhpg","pricing_plan_id":"cebpf4jnsgd1na2vs0mg"},{"bike_id":"e26fbdc8-1404-4f3f-9ed3-1a951cb9744c","system_id":"levelo_inurba_marseille","lat":43.313571,"lon":5.384829,"is_reserved":false,"is_disabled":false,"rental_uris":{"android":"levelo://app?vid=e26fbdc8-1404-4f3f-9ed3-1a951cb9744c","ios":"levelo://app?vid=e26fbdc8-1404-4f3f-9ed3-1a951cb9744c"},"vehicle_type_id":"4","last_reported":1708110345,"current_range_meters":26800,"station_id":"ce4bgt92rcd13ifvqcf0","pricing_plan_id":"cebpf4jnsgd1na2vs0mg"},{"bike_id":"77470458-96b1-4fde-b55d-0e1a2012d7cb","system_id":"levelo_inurba_marseille","lat":43.2994,"lon":5.36553,"is_reserved":false,"is_disabled":false,"rental_uris":{"android":"levelo://app?vid=77470458-96b1-4fde-b55d-0e1a2012d7cb","ios":"levelo://app?vid=77470458-96b1-4fde-b55d-0e1a2012d7cb"},"vehicle_type_id":"4","last_reported":1708110345,"current_range_meters":18800,"station_id":"ce4bgm92rcd13ifvqbr0","pricing_plan_id":"cebpf4jnsgd1na2vs0mg"},{"bike_id":"8879e26d-c39c-4e0a-b79c-1825fc1a114b","system_id":"levelo_inurba_marseille","lat":43.299724,"lon":5.371829,"is_reserved":false,"is_disabled":false,"rental_uris":{"android":"levelo://app?vid=8879e26d-c39c-4e0a-b79c-1825fc1a114b","ios":"levelo://app?vid=8879e26d-c39c-4e0a-b79c-1825fc1a114b"},"vehicle_type_id":"4","last_reported":1708110345,"current_range_meters":21200,"station_id":"ce4bgr92rcd13ifvqc7g","pricing_plan_id":"cebpf4jnsgd1na2vs0mg"},{"bike_id":"4b1cda39-7d52-4721-8509-23c9f1d52b93","system_id":"levelo_inurba_marseille","lat":43.299243,"lon":5.374807,"is_reserved":false,"is_disabled":false,"rental_uris":{"android":"levelo://app?vid=4b1cda39-7d52-4721-8509-23c9f1d52b93","ios":"levelo://app?vid=4b1cda39-7d52-4721-8509-23c9f1d52b93"},"vehicle_type_id":"4","last_reported":1708110345,"current_range_meters":8400,"station_id":"ce4bgjh2rcd13ifvqbg0","pricing_plan_id":"cebpf4jnsgd1na2vs0mg"},{"bike_id":"390d0970-56f2-4d7e-aae7-74d904223de4","system_id":"levelo_inurba_marseille","lat":43.305364,"lon":5.384119,"is_reserved":false,"is_disabled":false,"rental_uris":{"android":"levelo://app?vid=390d0970-56f2-4d7e-aae7-74d904223de4","ios":"levelo://app?vid=390d0970-56f2-4d7e-aae7-74d904223de4"},"vehicle_type_id":"4","last_reported":1708110345,"current_range_meters":0,"station_id":"ce4bgg92rcd13ifvqb30","pricing_plan_id":"cebpf4jnsgd1na2vs0mg"},{"bike_id":"4f8302a8-4eaa-4ec6-ab11-18a3d731fb8f","system_id":"levelo_inurba_marseille","lat":43.299243,"lon":5.37481,"is_reserved":false,"is_disabled":false,"rental_uris":{"android":"levelo://app?vid=4f8302a8-4eaa-4ec6-ab11-18a3d731fb8f","ios":"levelo://app?vid=4f8302a8-4eaa-4ec6-ab11-18a3d731fb8f"},"vehicle_type_id":"4","last_reported":1708110345,"current_range_meters":6400,"station_id":"ce4bgjh2rcd13ifvqbg0","pricing_plan_id":"cebpf4jnsgd1na2vs0mg"},{"bike_id":"f4eea450-db02-41a0-8615-8f9f718ba0a2","system_id":"levelo_inurba_marseille","lat":43.311722,"lon":5.387247,"is_reserved":false,"is_disabled":false,"rental_uris":{"android":"levelo://app?vid=f4eea450-db02-41a0-8615-8f9f718ba0a2","ios":"levelo://app?vid=f4eea450-db02-41a0-8615-8f9f718ba0a2"},"vehicle_type_id":"4","last_reported":1708110345,"current_range_meters":5200,"station_id":"ce4bgv12rcd13ifvqcp0","pricing_plan_id":"cebpf4jnsgd1na2vs0mg"},{"bike_id":"34d8b8ee-ecf6-44ab-91c4-36cff7b5f8d3","system_id":"levelo_inurba_marseille","lat":43.299243,"lon":5.37481,"is_reserved":false,"is_disabled":false,"rental_uris":{"android":"levelo://app?vid=34d8b8ee-ecf6-44ab-91c4-36cff7b5f8d3","ios":"levelo://app?vid=34d8b8ee-ecf6-44ab-91c4-36cff7b5f8d3"},"vehicle_type_id":"4","last_reported":1708110345,"current_range_meters":1200,"station_id":"ce4bgjh2rcd13ifvqbg0","pricing_plan_id":"cebpf4jnsgd1na2vs0mg"},{"bike_id":"70eafe38-1027-4423-ac4b-7fe911837f5c","system_id":"levelo_inurba_marseille","lat":43.32659,"lon":5.37446,"is_reserved":false,"is_disabled":false,"rental_uris":{"android":"levelo://app?vid=70eafe38-1027-4423-ac4b-7fe911837f5c","ios":"levelo://app?vid=70eafe38-1027-4423-ac4b-7fe911837f5c"},"vehicle_type_id":"4","last_reported":1708110345,"current_range_meters":4800,"station_id":"","pricing_plan_id":"cebpf4jnsgd1na2vs0mg"},{"bike_id":"bb9981ad-0d33-40f9-a443-42634b5de3e9","system_id":"levelo_inurba_marseille","lat":43.297774,"lon":5.370875,"is_reserved":false,"is_disabled":false,"rental_uris":{"android":"levelo://app?vid=bb9981ad-0d33-40f9-a443-42634b5de3e9","ios":"levelo://app?vid=bb9981ad-0d33-40f9-a443-42634b5de3e9"},"vehicle_type_id":"4","last_reported":1708110345,"current_range_meters":2000,"station_id":"ce4bgop2rcd13ifvqc1g","pricing_plan_id":"cebpf4jnsgd1na2vs0mg"},{"bike_id":"89270e4e-5266-4ad3-b1e0-8665f1e8b25f","system_id":"levelo_inurba_marseille","lat":43.297774,"lon":5.370875,"is_reserved":false,"is_disabled":false,"rental_uris":{"android":"levelo://app?vid=89270e4e-5266-4ad3-b1e0-8665f1e8b25f","ios":"levelo://app?vid=89270e4e-5266-4ad3-b1e0-8665f1e8b25f"},"vehicle_type_id":"4","last_reported":1708110345,"current_range_meters":14000,"station_id":"ce4bgop2rcd13ifvqc1g","pricing_plan_id":"cebpf4jnsgd1na2vs0mg"},{"bike_id":"3d149655-a53b-43cc-af49-d0904740e2d1","system_id":"levelo_inurba_marseille","lat":43.322872,"lon":5.382756,"is_reserved":false,"is_disabled":false,"rental_uris":{"android":"levelo://app?vid=3d149655-a53b-43cc-af49-d0904740e2d1","ios":"levelo://app?vid=3d149655-a53b-43cc-af49-d0904740e2d1"},"vehicle_type_id":"4","last_reported":1708110345,"current_range_meters":4800,"station_id":"ce4bhr12rcd13ifvqhqg","pricing_plan_id":"cebpf4jnsgd1na2vs0mg"},{"bike_id":"dd2be7c7-d39e-42f9-b4aa-905d49619990","system_id":"levelo_inurba_marseille","lat":43.322872,"lon":5.382756,"is_reserved":false,"is_disabled":false,"rental_uris":{"android":"levelo://app?vid=dd2be7c7-d39e-42f9-b4aa-905d49619990","ios":"levelo://app?vid=dd2be7c7-d39e-42f9-b4aa-905d49619990"},"vehicle_type_id":"4","last_reported":1708110345,"current_range_meters":5600,"station_id":"ce4bhr12rcd13ifvqhqg","pricing_plan_id":"cebpf4jnsgd1na2vs0mg"},{"bike_id":"3de251e7-275d-4ce6-b31d-dac248ec4967","system_id":"levelo_inurba_marseille","lat":43.322872,"lon":5.382756,"is_reserved":false,"is_disabled":false,"rental_uris":{"android":"levelo://app?vid=3de251e7-275d-4ce6-b31d-dac248ec4967","ios":"levelo://app?vid=3de251e7-275d-4ce6-b31d-dac248ec4967"},"vehicle_type_id":"4","last_reported":1708110345,"current_range_meters":11600,"station_id":"ce4bhr12rcd13ifvqhqg","pricing_plan_id":"cebpf4jnsgd1na2vs0mg"},{"bike_id":"4e3b44c3-d23d-43af-8570-7b92afd3cb93","system_id":"levelo_inurba_marseille","lat":43.322872,"lon":5.382756,"is_reserved":false,"is_disabled":false,"rental_uris":{"android":"levelo://app?vid=4e3b44c3-d23d-43af-8570-7b92afd3cb93","ios":"levelo://app?vid=4e3b44c3-d23d-43af-8570-7b92afd3cb93"},"vehicle_type_id":"4","last_reported":1708110345,"current_range_meters":8000,"station_id":"ce4bhr12rcd13ifvqhqg","pricing_plan_id":"cebpf4jnsgd1na2vs0mg"},{"bike_id":"133959c5-6fe0-474d-be2d-d408a364bacc","system_id":"levelo_inurba_marseille","lat":43.322872,"lon":5.382756,"is_reserved":false,"is_disabled":false,"rental_uris":{"android":"levelo://app?vid=133959c5-6fe0-474d-be2d-d408a364bacc","ios":"levelo://app?vid=133959c5-6fe0-474d-be2d-d408a364bacc"},"vehicle_type_id":"4","last_reported":1708110345,"current_range_meters":4400,"station_id":"ce4bhr12rcd13ifvqhqg","pricing_plan_id":"cebpf4jnsgd1na2vs0mg"},{"bike_id":"83b5f419-4266-4c2c-b6fb-35828173d4ce","system_id":"levelo_inurba_marseille","lat":43.322872,"lon":5.382756,"is_reserved":false,"is_disabled":false,"rental_uris":{"android":"levelo://app?vid=83b5f419-4266-4c2c-b6fb-35828173d4ce","ios":"levelo://app?vid=83b5f419-4266-4c2c-b6fb-35828173d4ce"},"vehicle_type_id":"4","last_reported":1708110345,"current_range_meters":29600,"station_id":"ce4bhr12rcd13ifvqhqg","pricing_plan_id":"cebpf4jnsgd1na2vs0mg"},{"bike_id":"ec21c626-faeb-41e5-9192-4d2bef3ee4d3","system_id":"levelo_inurba_marseille","lat":43.3282,"lon":5.36671,"is_reserved":false,"is_disabled":false,"rental_uris":{"android":"levelo://app?vid=ec21c626-faeb-41e5-9192-4d2bef3ee4d3","ios":"levelo://app?vid=ec21c626-faeb-41e5-9192-4d2bef3ee4d3"},"vehicle_type_id":"4","last_reported":1708110345,"current_range_meters":400,"station_id":"ce4bhs92rcd13ifvqi0g","pricing_plan_id":"cebpf4jnsgd1na2vs0mg"},{"bike_id":"e4cc1337-7654-41c0-8296-b1f3b25edb39","system_id":"levelo_inurba_marseille","lat":43.32822,"lon":5.36683,"is_reserved":false,"is_disabled":false,"rental_uris":{"android":"levelo://app?vid=e4cc1337-7654-41c0-8296-b1f3b25edb39","ios":"levelo://app?vid=e4cc1337-7654-41c0-8296-b1f3b25edb39"},"vehicle_type_id":"4","last_reported":1708110345,"current_range_meters":17200,"station_id":"ce4bhs92rcd13ifvqi0g","pricing_plan_id":"cebpf4jnsgd1na2vs0mg"},{"bike_id":"4a0314a3-53ac-4faf-a81a-365240b15a43","system_id":"levelo_inurba_marseille","lat":43.32822,"lon":5.36679,"is_reserved":false,"is_disabled":false,"rental_uris":{"android":"levelo://app?vid=4a0314a3-53ac-4faf-a81a-365240b15a43","ios":"levelo://app?vid=4a0314a3-53ac-4faf-a81a-365240b15a43"},"vehicle_type_id":"4","last_reported":1708110345,"current_range_meters":21200,"station_id":"ce4bhs92rcd13ifvqi0g","pricing_plan_id":"cebpf4jnsgd1na2vs0mg"},{"bike_id":"4364d526-b2e7-474b-92eb-049adc182d55","system_id":"levelo_inurba_marseille","lat":43.32823,"lon":5.36683,"is_reserved":false,"is_disabled":false,"rental_uris":{"android":"levelo://app?vid=4364d526-b2e7-474b-92eb-049adc182d55","ios":"levelo://app?vid=4364d526-b2e7-474b-92eb-049adc182d55"},"vehicle_type_id":"4","last_reported":1708110345,"current_range_meters":0,"station_id":"ce4bhs92rcd13ifvqi0g","pricing_plan_id":"cebpf4jnsgd1na2vs0mg"},{"bike_id":"c9b88aad-86c2-4a51-9436-08e8586a0048","system_id":"levelo_inurba_marseille","lat":43.328371,"lon":5.366909,"is_reserved":false,"is_disabled":false,"rental_uris":{"android":"levelo://app?vid=c9b88aad-86c2-4a51-9436-08e8586a0048","ios":"levelo://app?vid=c9b88aad-86c2-4a51-9436-08e8586a0048"},"vehicle_type_id":"4","last_reported":1708110345,"current_range_meters":10400,"station_id":"ce4bhs92rcd13ifvqi0g","pricing_plan_id":"cebpf4jnsgd1na2vs0mg"},{"bike_id":"b354d40e-f748-45df-b8a4-085ee0f39b31","system_id":"levelo_inurba_marseille","lat":43.32824,"lon":5.36682,"is_reserved":false,"is_disabled":false,"rental_uris":{"android":"levelo://app?vid=b354d40e-f748-45df-b8a4-085ee0f39b31","ios":"levelo://app?vid=b354d40e-f748-45df-b8a4-085ee0f39b31"},"vehicle_type_id":"4","last_reported":1708110345,"current_range_meters":15200,"station_id":"ce4bhs92rcd13ifvqi0g","pricing_plan_id":"cebpf4jnsgd1na2vs0mg"},{"bike_id":"d059372d-713e-4306-a0dc-ef5b2b5ad059","system_id":"levelo_inurba_marseille","lat":43.328251,"lon":5.366725,"is_reserved":false,"is_disabled":false,"rental_uris":{"android":"levelo://app?vid=d059372d-713e-4306-a0dc-ef5b2b5ad059","ios":"levelo://app?vid=d059372d-713e-4306-a0dc-ef5b2b5ad059"},"vehicle_type_id":"4","last_reported":1708110345,"current_range_meters":26400,"station_id":"ce4bhs92rcd13ifvqi0g","pricing_plan_id":"cebpf4jnsgd1na2vs0mg"},{"bike_id":"18e2c73a-6142-4193-b7b8-60c34b367900","system_id":"levelo_inurba_marseille","lat":43.32826,"lon":5.36675,"is_reserved":false,"is_disabled":false,"rental_uris":{"android":"levelo://app?vid=18e2c73a-6142-4193-b7b8-60c34b367900","ios":"levelo://app?vid=18e2c73a-6142-4193-b7b8-60c34b367900"},"vehicle_type_id":"4","last_reported":1708110345,"current_range_meters":25200,"station_id":"ce4bhs92rcd13ifvqi0g","pricing_plan_id":"cebpf4jnsgd1na2vs0mg"},{"bike_id":"3833ec15-b081-4b20-84c5-72daf8aa7006","system_id":"levelo_inurba_marseille","lat":43.328266,"lon":5.366804,"is_reserved":false,"is_disabled":false,"rental_uris":{"android":"levelo://app?vid=3833ec15-b081-4b20-84c5-72daf8aa7006","ios":"levelo://app?vid=3833ec15-b081-4b20-84c5-72daf8aa7006"},"vehicle_type_id":"4","last_reported":1708110345,"current_range_meters":25600,"station_id":"ce4bhs92rcd13ifvqi0g","pricing_plan_id":"cebpf4jnsgd1na2vs0mg"},{"bike_id":"ecc597d3-f2ea-41b5-b374-bc2279e4f21f","system_id":"levelo_inurba_marseille","lat":43.328283,"lon":5.366843,"is_reserved":false,"is_disabled":false,"rental_uris":{"android":"levelo://app?vid=ecc597d3-f2ea-41b5-b374-bc2279e4f21f","ios":"levelo://app?vid=ecc597d3-f2ea-41b5-b374-bc2279e4f21f"},"vehicle_type_id":"4","last_reported":1708110345,"current_range_meters":2000,"station_id":"ce4bhs92rcd13ifvqi0g","pricing_plan_id":"cebpf4jnsgd1na2vs0mg"},{"bike_id":"007119e4-846d-4c53-a3e7-61bdce369e7e","system_id":"levelo_inurba_marseille","lat":43.297163,"lon":5.365866,"is_reserved":false,"is_disabled":false,"rental_uris":{"android":"levelo://app?vid=007119e4-846d-4c53-a3e7-61bdce369e7e","ios":"levelo://app?vid=007119e4-846d-4c53-a3e7-61bdce369e7e"},"vehicle_type_id":"4","last_reported":1708110345,"current_range_meters":14800,"station_id":"ce4bgn12rcd13ifvqbt0","pricing_plan_id":"cebpf4jnsgd1na2vs0mg"},{"bike_id":"cc924a54-60e4-4421-b12c-5aa0bb659927","system_id":"levelo_inurba_marseille","lat":43.32833,"lon":5.36676,"is_reserved":false,"is_disabled":false,"rental_uris":{"android":"levelo://app?vid=cc924a54-60e4-4421-b12c-5aa0bb659927","ios":"levelo://app?vid=cc924a54-60e4-4421-b12c-5aa0bb659927"},"vehicle_type_id":"4","last_reported":1708110345,"current_range_meters":6400,"station_id":"ce4bhs92rcd13ifvqi0g","pricing_plan_id":"cebpf4jnsgd1na2vs0mg"},{"bike_id":"f23daf79-1d7c-4534-81e4-4baed53eef42","system_id":"levelo_inurba_marseille","lat":43.29713,"lon":5.36623,"is_reserved":false,"is_disabled":false,"rental_uris":{"android":"levelo://app?vid=f23daf79-1d7c-4534-81e4-4baed53eef42","ios":"levelo://app?vid=f23daf79-1d7c-4534-81e4-4baed53eef42"},"vehicle_type_id":"4","last_reported":1708110345,"current_range_meters":0,"station_id":"ce4bgn12rcd13ifvqbt0","pricing_plan_id":"cebpf4jnsgd1na2vs0mg"},{"bike_id":"b09538f5-3571-4002-8705-6f31050ca707","system_id":"levelo_inurba_marseille","lat":43.297163,"lon":5.365866,"is_reserved":false,"is_disabled":false,"rental_uris":{"android":"levelo://app?vid=b09538f5-3571-4002-8705-6f31050ca707","ios":"levelo://app?vid=b09538f5-3571-4002-8705-6f31050ca707"},"vehicle_type_id":"4","last_reported":1708110345,"current_range_meters":20000,"station_id":"ce4bgn12rcd13ifvqbt0","pricing_plan_id":"cebpf4jnsgd1na2vs0mg"},{"bike_id":"78cab5ee-01f7-42ac-98d6-c9f795103c35","system_id":"levelo_inurba_marseille","lat":43.297163,"lon":5.365866,"is_reserved":false,"is_disabled":false,"rental_uris":{"android":"levelo://app?vid=78cab5ee-01f7-42ac-98d6-c9f795103c35","ios":"levelo://app?vid=78cab5ee-01f7-42ac-98d6-c9f795103c35"},"vehicle_type_id":"4","last_reported":1708110345,"current_range_meters":6000,"station_id":"ce4bgn12rcd13ifvqbt0","pricing_plan_id":"cebpf4jnsgd1na2vs0mg"},{"bike_id":"f2c808f1-5d80-4f05-945d-b07926cb5ea6","system_id":"levelo_inurba_marseille","lat":43.2968,"lon":5.37291,"is_reserved":false,"is_disabled":false,"rental_uris":{"android":"levelo://app?vid=f2c808f1-5d80-4f05-945d-b07926cb5ea6","ios":"levelo://app?vid=f2c808f1-5d80-4f05-945d-b07926cb5ea6"},"vehicle_type_id":"4","last_reported":1708110345,"current_range_meters":13200,"station_id":"ce4bgk12rcd13ifvqbj0","pricing_plan_id":"cebpf4jnsgd1na2vs0mg"},{"bike_id":"2b500875-05af-41e2-83db-a99bff9e46b3","system_id":"levelo_inurba_marseille","lat":43.29573,"lon":5.367355,"is_reserved":false,"is_disabled":false,"rental_uris":{"android":"levelo://app?vid=2b500875-05af-41e2-83db-a99bff9e46b3","ios":"levelo://app?vid=2b500875-05af-41e2-83db-a99bff9e46b3"},"vehicle_type_id":"4","last_reported":1708110345,"current_range_meters":0,"station_id":"ce4bgph2rcd13ifvqc2g","pricing_plan_id":"cebpf4jnsgd1na2vs0mg"},{"bike_id":"cf199a32-4cc5-45df-8915-95fba9c1ee91","system_id":"levelo_inurba_marseille","lat":43.29573,"lon":5.367355,"is_reserved":false,"is_disabled":false,"rental_uris":{"android":"levelo://app?vid=cf199a32-4cc5-45df-8915-95fba9c1ee91","ios":"levelo://app?vid=cf199a32-4cc5-45df-8915-95fba9c1ee91"},"vehicle_type_id":"4","last_reported":1708110345,"current_range_meters":2800,"station_id":"ce4bgph2rcd13ifvqc2g","pricing_plan_id":"cebpf4jnsgd1na2vs0mg"},{"bike_id":"82ffcc30-c513-4fe6-8ece-82a53ccdc599","system_id":"levelo_inurba_marseille","lat":43.2958,"lon":5.36739,"is_reserved":false,"is_disabled":false,"rental_uris":{"android":"levelo://app?vid=82ffcc30-c513-4fe6-8ece-82a53ccdc599","ios":"levelo://app?vid=82ffcc30-c513-4fe6-8ece-82a53ccdc599"},"vehicle_type_id":"4","last_reported":1708110345,"current_range_meters":8400,"station_id":"ce4bgph2rcd13ifvqc2g","pricing_plan_id":"cebpf4jnsgd1na2vs0mg"},{"bike_id":"4b8b6116-870d-49c7-b37b-b2c6b2942dac","system_id":"levelo_inurba_marseille","lat":43.299028,"lon":5.381509,"is_reserved":false,"is_disabled":false,"rental_uris":{"android":"levelo://app?vid=4b8b6116-870d-49c7-b37b-b2c6b2942dac","ios":"levelo://app?vid=4b8b6116-870d-49c7-b37b-b2c6b2942dac"},"vehicle_type_id":"4","last_reported":1708110345,"current_range_meters":17200,"station_id":"ce4bgj12rcd13ifvqbc0","pricing_plan_id":"cebpf4jnsgd1na2vs0mg"},{"bike_id":"ea56c7e5-5c6e-452b-98b3-9e640a16ed45","system_id":"levelo_inurba_marseille","lat":43.299028,"lon":5.381509,"is_reserved":false,"is_disabled":false,"rental_uris":{"android":"levelo://app?vid=ea56c7e5-5c6e-452b-98b3-9e640a16ed45","ios":"levelo://app?vid=ea56c7e5-5c6e-452b-98b3-9e640a16ed45"},"vehicle_type_id":"4","last_reported":1708110345,"current_range_meters":17600,"station_id":"ce4bgj12rcd13ifvqbc0","pricing_plan_id":"cebpf4jnsgd1na2vs0mg"},{"bike_id":"2264ef29-8c80-49e6-b933-81f4dcd584ab","system_id":"levelo_inurba_marseille","lat":43.296921,"lon":5.376579,"is_reserved":false,"is_disabled":false,"rental_uris":{"android":"levelo://app?vid=2264ef29-8c80-49e6-b933-81f4dcd584ab","ios":"levelo://app?vid=2264ef29-8c80-49e6-b933-81f4dcd584ab"},"vehicle_type_id":"4","last_reported":1708110345,"current_range_meters":400,"station_id":"ce4bgkh2rcd13ifvqbl0","pricing_plan_id":"cebpf4jnsgd1na2vs0mg"},{"bike_id":"f62ae43f-9ad3-456f-93bf-e78be5cde196","system_id":"levelo_inurba_marseille","lat":43.299028,"lon":5.381509,"is_reserved":false,"is_disabled":false,"rental_uris":{"android":"levelo://app?vid=f62ae43f-9ad3-456f-93bf-e78be5cde196","ios":"levelo://app?vid=f62ae43f-9ad3-456f-93bf-e78be5cde196"},"vehicle_type_id":"4","last_reported":1708110345,"current_range_meters":5200,"station_id":"ce4bgj12rcd13ifvqbc0","pricing_plan_id":"cebpf4jnsgd1na2vs0mg"},{"bike_id":"2d62d395-7de0-47d5-95ec-a2f322428e2f","system_id":"levelo_inurba_marseille","lat":43.299028,"lon":5.381509,"is_reserved":false,"is_disabled":false,"rental_uris":{"android":"levelo://app?vid=2d62d395-7de0-47d5-95ec-a2f322428e2f","ios":"levelo://app?vid=2d62d395-7de0-47d5-95ec-a2f322428e2f"},"vehicle_type_id":"4","last_reported":1708110345,"current_range_meters":26800,"station_id":"ce4bgj12rcd13ifvqbc0","pricing_plan_id":"cebpf4jnsgd1na2vs0mg"},{"bike_id":"5d2bd1be-45f1-4369-9f47-e28414007ae9","system_id":"levelo_inurba_marseille","lat":43.309589,"lon":5.390258,"is_reserved":false,"is_disabled":false,"rental_uris":{"android":"levelo://app?vid=5d2bd1be-45f1-4369-9f47-e28414007ae9","ios":"levelo://app?vid=5d2bd1be-45f1-4369-9f47-e28414007ae9"},"vehicle_type_id":"4","last_reported":1708110345,"current_range_meters":20000,"station_id":"ce4bgup2rcd13ifvqco0","pricing_plan_id":"cebpf4jnsgd1na2vs0mg"},{"bike_id":"47cbab22-20ac-47bd-aa6f-cdebd05b475b","system_id":"levelo_inurba_marseille","lat":43.317557,"lon":5.390173,"is_reserved":false,"is_disabled":false,"rental_uris":{"android":"levelo://app?vid=47cbab22-20ac-47bd-aa6f-cdebd05b475b","ios":"levelo://app?vid=47cbab22-20ac-47bd-aa6f-cdebd05b475b"},"vehicle_type_id":"4","last_reported":1708110345,"current_range_meters":28800,"station_id":"ce4bhqp2rcd13ifvqhng","pricing_plan_id":"cebpf4jnsgd1na2vs0mg"},{"bike_id":"1b7a4234-bddd-44fc-a528-80a01224d060","system_id":"levelo_inurba_marseille","lat":43.31763,"lon":5.3901,"is_reserved":false,"is_disabled":false,"rental_uris":{"android":"levelo://app?vid=1b7a4234-bddd-44fc-a528-80a01224d060","ios":"levelo://app?vid=1b7a4234-bddd-44fc-a528-80a01224d060"},"vehicle_type_id":"4","last_reported":1708110345,"current_range_meters":2800,"station_id":"ce4bhqp2rcd13ifvqhng","pricing_plan_id":"cebpf4jnsgd1na2vs0mg"},{"bike_id":"ed10a435-1a4b-4dcb-9298-e3f009503610","system_id":"levelo_inurba_marseille","lat":43.317557,"lon":5.390173,"is_reserved":false,"is_disabled":false,"rental_uris":{"android":"levelo://app?vid=ed10a435-1a4b-4dcb-9298-e3f009503610","ios":"levelo://app?vid=ed10a435-1a4b-4dcb-9298-e3f009503610"},"vehicle_type_id":"4","last_reported":1708110345,"current_range_meters":28000,"station_id":"ce4bhqp2rcd13ifvqhng","pricing_plan_id":"cebpf4jnsgd1na2vs0mg"},{"bike_id":"92c4433a-1432-4883-85e8-2b2d9843ff33","system_id":"levelo_inurba_marseille","lat":43.3176,"lon":5.39012,"is_reserved":false,"is_disabled":false,"rental_uris":{"android":"levelo://app?vid=92c4433a-1432-4883-85e8-2b2d9843ff33","ios":"levelo://app?vid=92c4433a-1432-4883-85e8-2b2d9843ff33"},"vehicle_type_id":"4","last_reported":1708110345,"current_range_meters":9600,"station_id":"ce4bhqp2rcd13ifvqhng","pricing_plan_id":"cebpf4jnsgd1na2vs0mg"},{"bike_id":"af75b88f-9132-426d-b2bc-62adb25a1d84","system_id":"levelo_inurba_marseille","lat":43.31757,"lon":5.39014,"is_reserved":false,"is_disabled":false,"rental_uris":{"android":"levelo://app?vid=af75b88f-9132-426d-b2bc-62adb25a1d84","ios":"levelo://app?vid=af75b88f-9132-426d-b2bc-62adb25a1d84"},"vehicle_type_id":"4","last_reported":1708110345,"current_range_meters":22800,"station_id":"ce4bhqp2rcd13ifvqhng","pricing_plan_id":"cebpf4jnsgd1na2vs0mg"},{"bike_id":"67f268d0-14b3-4f60-98dd-1d63500bdf9a","system_id":"levelo_inurba_marseille","lat":43.3176,"lon":5.39016,"is_reserved":false,"is_disabled":false,"rental_uris":{"android":"levelo://app?vid=67f268d0-14b3-4f60-98dd-1d63500bdf9a","ios":"levelo://app?vid=67f268d0-14b3-4f60-98dd-1d63500bdf9a"},"vehicle_type_id":"4","last_reported":1708110345,"current_range_meters":19200,"station_id":"ce4bhqp2rcd13ifvqhng","pricing_plan_id":"cebpf4jnsgd1na2vs0mg"},{"bike_id":"b3dcb9ba-bf07-48c1-aada-2fbdb761a352","system_id":"levelo_inurba_marseille","lat":43.317557,"lon":5.390173,"is_reserved":false,"is_disabled":false,"rental_uris":{"android":"levelo://app?vid=b3dcb9ba-bf07-48c1-aada-2fbdb761a352","ios":"levelo://app?vid=b3dcb9ba-bf07-48c1-aada-2fbdb761a352"},"vehicle_type_id":"4","last_reported":1708110345,"current_range_meters":31200,"station_id":"ce4bhqp2rcd13ifvqhng","pricing_plan_id":"cebpf4jnsgd1na2vs0mg"},{"bike_id":"6ccb21c5-f410-4f97-a31b-5d3674cc4c24","system_id":"levelo_inurba_marseille","lat":43.317557,"lon":5.390173,"is_reserved":false,"is_disabled":false,"rental_uris":{"android":"levelo://app?vid=6ccb21c5-f410-4f97-a31b-5d3674cc4c24","ios":"levelo://app?vid=6ccb21c5-f410-4f97-a31b-5d3674cc4c24"},"vehicle_type_id":"4","last_reported":1708110345,"current_range_meters":31600,"station_id":"ce4bhqp2rcd13ifvqhng","pricing_plan_id":"cebpf4jnsgd1na2vs0mg"},{"bike_id":"2ca97d81-6eeb-49fd-a3cc-b94b782f5563","system_id":"levelo_inurba_marseille","lat":43.31759,"lon":5.39018,"is_reserved":false,"is_disabled":false,"rental_uris":{"android":"levelo://app?vid=2ca97d81-6eeb-49fd-a3cc-b94b782f5563","ios":"levelo://app?vid=2ca97d81-6eeb-49fd-a3cc-b94b782f5563"},"vehicle_type_id":"4","last_reported":1708110345,"current_range_meters":28800,"station_id":"ce4bhqp2rcd13ifvqhng","pricing_plan_id":"cebpf4jnsgd1na2vs0mg"},{"bike_id":"f6535c2f-d091-4f83-8ee7-dcd26141ca83","system_id":"levelo_inurba_marseille","lat":43.31759,"lon":5.39018,"is_reserved":false,"is_disabled":false,"rental_uris":{"android":"levelo://app?vid=f6535c2f-d091-4f83-8ee7-dcd26141ca83","ios":"levelo://app?vid=f6535c2f-d091-4f83-8ee7-dcd26141ca83"},"vehicle_type_id":"4","last_reported":1708110345,"current_range_meters":20000,"station_id":"ce4bhqp2rcd13ifvqhng","pricing_plan_id":"cebpf4jnsgd1na2vs0mg"},{"bike_id":"8b19d0ec-456b-4753-8097-2e2ef0dad484","system_id":"levelo_inurba_marseille","lat":43.317557,"lon":5.390173,"is_reserved":false,"is_disabled":false,"rental_uris":{"android":"levelo://app?vid=8b19d0ec-456b-4753-8097-2e2ef0dad484","ios":"levelo://app?vid=8b19d0ec-456b-4753-8097-2e2ef0dad484"},"vehicle_type_id":"4","last_reported":1708110345,"current_range_meters":13600,"station_id":"ce4bhqp2rcd13ifvqhng","pricing_plan_id":"cebpf4jnsgd1na2vs0mg"},{"bike_id":"ed87d69f-71e3-4a80-a6a0-6a1355afd957","system_id":"levelo_inurba_marseille","lat":43.31755,"lon":5.39022,"is_reserved":false,"is_disabled":false,"rental_uris":{"android":"levelo://app?vid=ed87d69f-71e3-4a80-a6a0-6a1355afd957","ios":"levelo://app?vid=ed87d69f-71e3-4a80-a6a0-6a1355afd957"},"vehicle_type_id":"4","last_reported":1708110345,"current_range_meters":15600,"station_id":"ce4bhqp2rcd13ifvqhng","pricing_plan_id":"cebpf4jnsgd1na2vs0mg"},{"bike_id":"0ddd06ca-78d6-4fdc-92ed-9c8ef81f47fe","system_id":"levelo_inurba_marseille","lat":43.317557,"lon":5.390173,"is_reserved":false,"is_disabled":false,"rental_uris":{"android":"levelo://app?vid=0ddd06ca-78d6-4fdc-92ed-9c8ef81f47fe","ios":"levelo://app?vid=0ddd06ca-78d6-4fdc-92ed-9c8ef81f47fe"},"vehicle_type_id":"4","last_reported":1708110345,"current_range_meters":31600,"station_id":"ce4bhqp2rcd13ifvqhng","pricing_plan_id":"cebpf4jnsgd1na2vs0mg"},{"bike_id":"44c0a2a0-88a3-4e19-8fc3-deba4ee3e011","system_id":"levelo_inurba_marseille","lat":43.317557,"lon":5.390173,"is_reserved":false,"is_disabled":false,"rental_uris":{"android":"levelo://app?vid=44c0a2a0-88a3-4e19-8fc3-deba4ee3e011","ios":"levelo://app?vid=44c0a2a0-88a3-4e19-8fc3-deba4ee3e011"},"vehicle_type_id":"4","last_reported":1708110345,"current_range_meters":24800,"station_id":"ce4bhqp2rcd13ifvqhng","pricing_plan_id":"cebpf4jnsgd1na2vs0mg"},{"bike_id":"a203661e-355b-42f4-9955-ac4c89f27d54","system_id":"levelo_inurba_marseille","lat":43.317557,"lon":5.390173,"is_reserved":false,"is_disabled":false,"rental_uris":{"android":"levelo://app?vid=a203661e-355b-42f4-9955-ac4c89f27d54","ios":"levelo://app?vid=a203661e-355b-42f4-9955-ac4c89f27d54"},"vehicle_type_id":"4","last_reported":1708110345,"current_range_meters":32000,"station_id":"ce4bhqp2rcd13ifvqhng","pricing_plan_id":"cebpf4jnsgd1na2vs0mg"},{"bike_id":"f42323f6-2f01-4ae2-b8c5-30b5ec830f02","system_id":"levelo_inurba_marseille","lat":43.29803,"lon":5.38105,"is_reserved":false,"is_disabled":false,"rental_uris":{"android":"levelo://app?vid=f42323f6-2f01-4ae2-b8c5-30b5ec830f02","ios":"levelo://app?vid=f42323f6-2f01-4ae2-b8c5-30b5ec830f02"},"vehicle_type_id":"4","last_reported":1708110345,"current_range_meters":0,"station_id":"ce4bgip2rcd13ifvqbb0","pricing_plan_id":"cebpf4jnsgd1na2vs0mg"},{"bike_id":"7493a203-2384-49f9-8612-4aa684528fb0","system_id":"levelo_inurba_marseille","lat":43.29799,"lon":5.38099,"is_reserved":false,"is_disabled":false,"rental_uris":{"android":"levelo://app?vid=7493a203-2384-49f9-8612-4aa684528fb0","ios":"levelo://app?vid=7493a203-2384-49f9-8612-4aa684528fb0"},"vehicle_type_id":"4","last_reported":1708110345,"current_range_meters":20000,"station_id":"ce4bgip2rcd13ifvqbb0","pricing_plan_id":"cebpf4jnsgd1na2vs0mg"},{"bike_id":"48a84cda-3ed8-4d1b-ae27-5cabb0224754","system_id":"levelo_inurba_marseille","lat":43.298037,"lon":5.381066,"is_reserved":false,"is_disabled":false,"rental_uris":{"android":"levelo://app?vid=48a84cda-3ed8-4d1b-ae27-5cabb0224754","ios":"levelo://app?vid=48a84cda-3ed8-4d1b-ae27-5cabb0224754"},"vehicle_type_id":"4","last_reported":1708110345,"current_range_meters":4800,"station_id":"ce4bgip2rcd13ifvqbb0","pricing_plan_id":"cebpf4jnsgd1na2vs0mg"},{"bike_id":"992db574-c01b-4755-9b11-79c7af482b64","system_id":"levelo_inurba_marseille","lat":43.304278,"lon":5.388868,"is_reserved":false,"is_disabled":false,"rental_uris":{"android":"levelo://app?vid=992db574-c01b-4755-9b11-79c7af482b64","ios":"levelo://app?vid=992db574-c01b-4755-9b11-79c7af482b64"},"vehicle_type_id":"4","last_reported":1708110345,"current_range_meters":0,"station_id":"ce4bgk12rcd13ifvqbi0","pricing_plan_id":"cebpf4jnsgd1na2vs0mg"},{"bike_id":"e008193d-77af-4f94-bb8e-4d0fcc4bee9c","system_id":"levelo_inurba_marseille","lat":43.29798,"lon":5.38111,"is_reserved":false,"is_disabled":false,"rental_uris":{"android":"levelo://app?vid=e008193d-77af-4f94-bb8e-4d0fcc4bee9c","ios":"levelo://app?vid=e008193d-77af-4f94-bb8e-4d0fcc4bee9c"},"vehicle_type_id":"4","last_reported":1708110345,"current_range_meters":7600,"station_id":"ce4bgip2rcd13ifvqbb0","pricing_plan_id":"cebpf4jnsgd1na2vs0mg"},{"bike_id":"d06d97f0-5aad-4838-8e9d-8f8ee212325c","system_id":"levelo_inurba_marseille","lat":43.295748,"lon":5.37522,"is_reserved":false,"is_disabled":false,"rental_uris":{"android":"levelo://app?vid=d06d97f0-5aad-4838-8e9d-8f8ee212325c","ios":"levelo://app?vid=d06d97f0-5aad-4838-8e9d-8f8ee212325c"},"vehicle_type_id":"4","last_reported":1708110345,"current_range_meters":31200,"station_id":"ce4bgh92rcd13ifvqb50","pricing_plan_id":"cebpf4jnsgd1na2vs0mg"},{"bike_id":"02faaae3-7216-4cff-aab0-b6715d5c680c","system_id":"levelo_inurba_marseille","lat":43.295748,"lon":5.37522,"is_reserved":false,"is_disabled":false,"rental_uris":{"android":"levelo://app?vid=02faaae3-7216-4cff-aab0-b6715d5c680c","ios":"levelo://app?vid=02faaae3-7216-4cff-aab0-b6715d5c680c"},"vehicle_type_id":"4","last_reported":1708110345,"current_range_meters":11200,"station_id":"ce4bgh92rcd13ifvqb50","pricing_plan_id":"cebpf4jnsgd1na2vs0mg"},{"bike_id":"509b78bf-a451-489f-a74b-7c9e253077b4","system_id":"levelo_inurba_marseille","lat":43.29789,"lon":5.38104,"is_reserved":false,"is_disabled":false,"rental_uris":{"android":"levelo://app?vid=509b78bf-a451-489f-a74b-7c9e253077b4","ios":"levelo://app?vid=509b78bf-a451-489f-a74b-7c9e253077b4"},"vehicle_type_id":"4","last_reported":1708110345,"current_range_meters":27600,"station_id":"ce4bgip2rcd13ifvqbb0","pricing_plan_id":"cebpf4jnsgd1na2vs0mg"},{"bike_id":"c8d853e0-dccb-4959-98ec-6af1b0000a21","system_id":"levelo_inurba_marseille","lat":43.29791,"lon":5.38108,"is_reserved":false,"is_disabled":false,"rental_uris":{"android":"levelo://app?vid=c8d853e0-dccb-4959-98ec-6af1b0000a21","ios":"levelo://app?vid=c8d853e0-dccb-4959-98ec-6af1b0000a21"},"vehicle_type_id":"4","last_reported":1708110345,"current_range_meters":10800,"station_id":"ce4bgip2rcd13ifvqbb0","pricing_plan_id":"cebpf4jnsgd1na2vs0mg"},{"bike_id":"b141e66b-b4a3-4bd2-8bca-782badebe5a3","system_id":"levelo_inurba_marseille","lat":43.29573,"lon":5.37529,"is_reserved":false,"is_disabled":false,"rental_uris":{"android":"levelo://app?vid=b141e66b-b4a3-4bd2-8bca-782badebe5a3","ios":"levelo://app?vid=b141e66b-b4a3-4bd2-8bca-782badebe5a3"},"vehicle_type_id":"4","last_reported":1708110345,"current_range_meters":2400,"station_id":"","pricing_plan_id":"cebpf4jnsgd1na2vs0mg"},{"bike_id":"48adb7d7-fe31-43dd-a88d-d14ddb438d6f","system_id":"levelo_inurba_marseille","lat":43.295748,"lon":5.37522,"is_reserved":false,"is_disabled":false,"rental_uris":{"android":"levelo://app?vid=48adb7d7-fe31-43dd-a88d-d14ddb438d6f","ios":"levelo://app?vid=48adb7d7-fe31-43dd-a88d-d14ddb438d6f"},"vehicle_type_id":"4","last_reported":1708110345,"current_range_meters":0,"station_id":"ce4bgh92rcd13ifvqb50","pricing_plan_id":"cebpf4jnsgd1na2vs0mg"},{"bike_id":"d5fca4d5-46c5-4f16-9cc3-27cefbcdac0f","system_id":"levelo_inurba_marseille","lat":43.295748,"lon":5.37522,"is_reserved":false,"is_disabled":false,"rental_uris":{"android":"levelo://app?vid=d5fca4d5-46c5-4f16-9cc3-27cefbcdac0f","ios":"levelo://app?vid=d5fca4d5-46c5-4f16-9cc3-27cefbcdac0f"},"vehicle_type_id":"4","last_reported":1708110345,"current_range_meters":5600,"station_id":"ce4bgh92rcd13ifvqb50","pricing_plan_id":"cebpf4jnsgd1na2vs0mg"},{"bike_id":"569afbe9-aab1-430c-bf82-2e642cffd3dd","system_id":"levelo_inurba_marseille","lat":43.29788,"lon":5.38119,"is_reserved":false,"is_disabled":false,"rental_uris":{"android":"levelo://app?vid=569afbe9-aab1-430c-bf82-2e642cffd3dd","ios":"levelo://app?vid=569afbe9-aab1-430c-bf82-2e642cffd3dd"},"vehicle_type_id":"4","last_reported":1708110345,"current_range_meters":10800,"station_id":"ce4bgip2rcd13ifvqbb0","pricing_plan_id":"cebpf4jnsgd1na2vs0mg"},{"bike_id":"1529174d-bfb1-4c26-bc95-585e5f77a31d","system_id":"levelo_inurba_marseille","lat":43.296263,"lon":5.377094,"is_reserved":false,"is_disabled":false,"rental_uris":{"android":"levelo://app?vid=1529174d-bfb1-4c26-bc95-585e5f77a31d","ios":"levelo://app?vid=1529174d-bfb1-4c26-bc95-585e5f77a31d"},"vehicle_type_id":"4","last_reported":1708110345,"current_range_meters":31200,"station_id":"ce4bgi92rcd13ifvqb90","pricing_plan_id":"cebpf4jnsgd1na2vs0mg"},{"bike_id":"8e971b24-2a2c-425a-b415-53db1302ab01","system_id":"levelo_inurba_marseille","lat":43.295748,"lon":5.37522,"is_reserved":false,"is_disabled":false,"rental_uris":{"android":"levelo://app?vid=8e971b24-2a2c-425a-b415-53db1302ab01","ios":"levelo://app?vid=8e971b24-2a2c-425a-b415-53db1302ab01"},"vehicle_type_id":"4","last_reported":1708110345,"current_range_meters":0,"station_id":"ce4bgh92rcd13ifvqb50","pricing_plan_id":"cebpf4jnsgd1na2vs0mg"},{"bike_id":"664ddb46-7c0e-44ae-9823-820e309f9f3d","system_id":"levelo_inurba_marseille","lat":43.296277,"lon":5.377108,"is_reserved":false,"is_disabled":false,"rental_uris":{"android":"levelo://app?vid=664ddb46-7c0e-44ae-9823-820e309f9f3d","ios":"levelo://app?vid=664ddb46-7c0e-44ae-9823-820e309f9f3d"},"vehicle_type_id":"4","last_reported":1708110345,"current_range_meters":9600,"station_id":"ce4bgi92rcd13ifvqb90","pricing_plan_id":"cebpf4jnsgd1na2vs0mg"},{"bike_id":"b5f48342-8434-43cb-aee6-fb15560e1acf","system_id":"levelo_inurba_marseille","lat":43.29618,"lon":5.37722,"is_reserved":false,"is_disabled":false,"rental_uris":{"android":"levelo://app?vid=b5f48342-8434-43cb-aee6-fb15560e1acf","ios":"levelo://app?vid=b5f48342-8434-43cb-aee6-fb15560e1acf"},"vehicle_type_id":"4","last_reported":1708110345,"current_range_meters":0,"station_id":"ce4bgi92rcd13ifvqb90","pricing_plan_id":"cebpf4jnsgd1na2vs0mg"},{"bike_id":"710bba6b-9b15-46de-99a1-4a881ab1f8cb","system_id":"levelo_inurba_marseille","lat":43.296277,"lon":5.377108,"is_reserved":false,"is_disabled":false,"rental_uris":{"android":"levelo://app?vid=710bba6b-9b15-46de-99a1-4a881ab1f8cb","ios":"levelo://app?vid=710bba6b-9b15-46de-99a1-4a881ab1f8cb"},"vehicle_type_id":"4","last_reported":1708110345,"current_range_meters":4000,"station_id":"ce4bgi92rcd13ifvqb90","pricing_plan_id":"cebpf4jnsgd1na2vs0mg"},{"bike_id":"eafaf875-77d6-4f7c-96c0-951a53a60853","system_id":"levelo_inurba_marseille","lat":43.29613,"lon":5.37727,"is_reserved":false,"is_disabled":false,"rental_uris":{"android":"levelo://app?vid=eafaf875-77d6-4f7c-96c0-951a53a60853","ios":"levelo://app?vid=eafaf875-77d6-4f7c-96c0-951a53a60853"},"vehicle_type_id":"4","last_reported":1708110345,"current_range_meters":0,"station_id":"ce4bgi92rcd13ifvqb90","pricing_plan_id":"cebpf4jnsgd1na2vs0mg"},{"bike_id":"64bed817-562c-431f-8d60-94d3368b8612","system_id":"levelo_inurba_marseille","lat":43.295365,"lon":5.37473,"is_reserved":false,"is_disabled":false,"rental_uris":{"android":"levelo://app?vid=64bed817-562c-431f-8d60-94d3368b8612","ios":"levelo://app?vid=64bed817-562c-431f-8d60-94d3368b8612"},"vehicle_type_id":"4","last_reported":1708110345,"current_range_meters":8800,"station_id":"ce4bgip2rcd13ifvqbb0","pricing_plan_id":"cebpf4jnsgd1na2vs0mg"},{"bike_id":"5c06690e-97f1-4bfe-81c1-6cafad4303b5","system_id":"levelo_inurba_marseille","lat":43.295404,"lon":5.375062,"is_reserved":false,"is_disabled":false,"rental_uris":{"android":"levelo://app?vid=5c06690e-97f1-4bfe-81c1-6cafad4303b5","ios":"levelo://app?vid=5c06690e-97f1-4bfe-81c1-6cafad4303b5"},"vehicle_type_id":"4","last_reported":1708110345,"current_range_meters":8800,"station_id":"ce4bgh92rcd13ifvqb40","pricing_plan_id":"cebpf4jnsgd1na2vs0mg"},{"bike_id":"183ba17a-38b1-4e32-8b0b-56a898b92fc6","system_id":"levelo_inurba_marseille","lat":43.29538,"lon":5.37501,"is_reserved":false,"is_disabled":false,"rental_uris":{"android":"levelo://app?vid=183ba17a-38b1-4e32-8b0b-56a898b92fc6","ios":"levelo://app?vid=183ba17a-38b1-4e32-8b0b-56a898b92fc6"},"vehicle_type_id":"4","last_reported":1708110345,"current_range_meters":6400,"station_id":"ce4bgkp2rcd13ifvqbmg","pricing_plan_id":"cebpf4jnsgd1na2vs0mg"},{"bike_id":"68fc07d3-b0d4-48a3-8579-54facd973ce7","system_id":"levelo_inurba_marseille","lat":43.299707,"lon":5.384859,"is_reserved":false,"is_disabled":false,"rental_uris":{"android":"levelo://app?vid=68fc07d3-b0d4-48a3-8579-54facd973ce7","ios":"levelo://app?vid=68fc07d3-b0d4-48a3-8579-54facd973ce7"},"vehicle_type_id":"4","last_reported":1708110345,"current_range_meters":16800,"station_id":"ce4bgj92rcd13ifvqbd0","pricing_plan_id":"cebpf4jnsgd1na2vs0mg"},{"bike_id":"d4223283-df9a-4878-a56b-173f42bbad22","system_id":"levelo_inurba_marseille","lat":43.2953,"lon":5.37507,"is_reserved":false,"is_disabled":false,"rental_uris":{"android":"levelo://app?vid=d4223283-df9a-4878-a56b-173f42bbad22","ios":"levelo://app?vid=d4223283-df9a-4878-a56b-173f42bbad22"},"vehicle_type_id":"4","last_reported":1708110345,"current_range_meters":1600,"station_id":"ce4bgkp2rcd13ifvqbmg","pricing_plan_id":"cebpf4jnsgd1na2vs0mg"},{"bike_id":"18782148-02a5-488e-9d60-ab589197adf7","system_id":"levelo_inurba_marseille","lat":43.295279,"lon":5.375048,"is_reserved":false,"is_disabled":false,"rental_uris":{"android":"levelo://app?vid=18782148-02a5-488e-9d60-ab589197adf7","ios":"levelo://app?vid=18782148-02a5-488e-9d60-ab589197adf7"},"vehicle_type_id":"4","last_reported":1708110345,"current_range_meters":16000,"station_id":"ce4bgkp2rcd13ifvqbmg","pricing_plan_id":"cebpf4jnsgd1na2vs0mg"},{"bike_id":"5e111f4b-4e27-46e4-b71d-ec1d188f93f4","system_id":"levelo_inurba_marseille","lat":43.299707,"lon":5.384859,"is_reserved":false,"is_disabled":false,"rental_uris":{"android":"levelo://app?vid=5e111f4b-4e27-46e4-b71d-ec1d188f93f4","ios":"levelo://app?vid=5e111f4b-4e27-46e4-b71d-ec1d188f93f4"},"vehicle_type_id":"4","last_reported":1708110345,"current_range_meters":27600,"station_id":"ce4bgj92rcd13ifvqbd0","pricing_plan_id":"cebpf4jnsgd1na2vs0mg"},{"bike_id":"d9acd33a-0272-4604-8f78-1ff7a0230451","system_id":"levelo_inurba_marseille","lat":43.299707,"lon":5.384859,"is_reserved":false,"is_disabled":false,"rental_uris":{"android":"levelo://app?vid=d9acd33a-0272-4604-8f78-1ff7a0230451","ios":"levelo://app?vid=d9acd33a-0272-4604-8f78-1ff7a0230451"},"vehicle_type_id":"4","last_reported":1708110345,"current_range_meters":17200,"station_id":"ce4bgj92rcd13ifvqbd0","pricing_plan_id":"cebpf4jnsgd1na2vs0mg"},{"bike_id":"cc986da8-858f-47a8-9927-f027848ad835","system_id":"levelo_inurba_marseille","lat":43.299717,"lon":5.384845,"is_reserved":false,"is_disabled":false,"rental_uris":{"android":"levelo://app?vid=cc986da8-858f-47a8-9927-f027848ad835","ios":"levelo://app?vid=cc986da8-858f-47a8-9927-f027848ad835"},"vehicle_type_id":"4","last_reported":1708110345,"current_range_meters":6000,"station_id":"ce4bgj92rcd13ifvqbd0","pricing_plan_id":"cebpf4jnsgd1na2vs0mg"},{"bike_id":"0ebb368d-6d5b-449a-b9da-116687524d0e","system_id":"levelo_inurba_marseille","lat":43.299717,"lon":5.384845,"is_reserved":false,"is_disabled":false,"rental_uris":{"android":"levelo://app?vid=0ebb368d-6d5b-449a-b9da-116687524d0e","ios":"levelo://app?vid=0ebb368d-6d5b-449a-b9da-116687524d0e"},"vehicle_type_id":"4","last_reported":1708110345,"current_range_meters":26000,"station_id":"ce4bgj92rcd13ifvqbd0","pricing_plan_id":"cebpf4jnsgd1na2vs0mg"},{"bike_id":"bbd687b0-bfb8-48d4-8c8f-b488e56eec89","system_id":"levelo_inurba_marseille","lat":43.29523,"lon":5.37509,"is_reserved":false,"is_disabled":false,"rental_uris":{"android":"levelo://app?vid=bbd687b0-bfb8-48d4-8c8f-b488e56eec89","ios":"levelo://app?vid=bbd687b0-bfb8-48d4-8c8f-b488e56eec89"},"vehicle_type_id":"4","last_reported":1708110345,"current_range_meters":10400,"station_id":"ce4bgkp2rcd13ifvqbmg","pricing_plan_id":"cebpf4jnsgd1na2vs0mg"},{"bike_id":"007776d4-5695-494a-90c6-e2874a0cfd1f","system_id":"levelo_inurba_marseille","lat":43.299717,"lon":5.384845,"is_reserved":false,"is_disabled":false,"rental_uris":{"android":"levelo://app?vid=007776d4-5695-494a-90c6-e2874a0cfd1f","ios":"levelo://app?vid=007776d4-5695-494a-90c6-e2874a0cfd1f"},"vehicle_type_id":"4","last_reported":1708110345,"current_range_meters":4400,"station_id":"ce4bgj92rcd13ifvqbd0","pricing_plan_id":"cebpf4jnsgd1na2vs0mg"},{"bike_id":"b51a2290-12ea-4efb-886f-8014cedd7ee1","system_id":"levelo_inurba_marseille","lat":43.29512,"lon":5.37514,"is_reserved":false,"is_disabled":false,"rental_uris":{"android":"levelo://app?vid=b51a2290-12ea-4efb-886f-8014cedd7ee1","ios":"levelo://app?vid=b51a2290-12ea-4efb-886f-8014cedd7ee1"},"vehicle_type_id":"4","last_reported":1708110345,"current_range_meters":17200,"station_id":"ce4bgkp2rcd13ifvqbmg","pricing_plan_id":"cebpf4jnsgd1na2vs0mg"},{"bike_id":"1c22149e-e036-4fea-a797-1cd51593053f","system_id":"levelo_inurba_marseille","lat":43.32361,"lon":5.38878,"is_reserved":false,"is_disabled":false,"rental_uris":{"android":"levelo://app?vid=1c22149e-e036-4fea-a797-1cd51593053f","ios":"levelo://app?vid=1c22149e-e036-4fea-a797-1cd51593053f"},"vehicle_type_id":"4","last_reported":1708110345,"current_range_meters":28800,"station_id":"ce4bhqp2rcd13ifvqhog","pricing_plan_id":"cebpf4jnsgd1na2vs0mg"},{"bike_id":"a821f5c6-f918-4d8f-ae20-10b0f32c86fa","system_id":"levelo_inurba_marseille","lat":43.32364,"lon":5.38877,"is_reserved":false,"is_disabled":false,"rental_uris":{"android":"levelo://app?vid=a821f5c6-f918-4d8f-ae20-10b0f32c86fa","ios":"levelo://app?vid=a821f5c6-f918-4d8f-ae20-10b0f32c86fa"},"vehicle_type_id":"4","last_reported":1708110345,"current_range_meters":10800,"station_id":"ce4bhqp2rcd13ifvqhog","pricing_plan_id":"cebpf4jnsgd1na2vs0mg"},{"bike_id":"db5a62d4-f9ba-40ff-9ae3-5d05cc8e7704","system_id":"levelo_inurba_marseille","lat":43.32362,"lon":5.38879,"is_reserved":false,"is_disabled":false,"rental_uris":{"android":"levelo://app?vid=db5a62d4-f9ba-40ff-9ae3-5d05cc8e7704","ios":"levelo://app?vid=db5a62d4-f9ba-40ff-9ae3-5d05cc8e7704"},"vehicle_type_id":"4","last_reported":1708110345,"current_range_meters":31200,"station_id":"ce4bhqp2rcd13ifvqhog","pricing_plan_id":"cebpf4jnsgd1na2vs0mg"},{"bike_id":"28f989fa-bfde-4b0a-85ae-f5f93bc020bb","system_id":"levelo_inurba_marseille","lat":43.32367,"lon":5.388836,"is_reserved":false,"is_disabled":false,"rental_uris":{"android":"levelo://app?vid=28f989fa-bfde-4b0a-85ae-f5f93bc020bb","ios":"levelo://app?vid=28f989fa-bfde-4b0a-85ae-f5f93bc020bb"},"vehicle_type_id":"4","last_reported":1708110345,"current_range_meters":17600,"station_id":"ce4bhqp2rcd13ifvqhog","pricing_plan_id":"cebpf4jnsgd1na2vs0mg"},{"bike_id":"67e8879b-193d-41fb-b133-c51309ca16e8","system_id":"levelo_inurba_marseille","lat":43.32367,"lon":5.388836,"is_reserved":false,"is_disabled":false,"rental_uris":{"android":"levelo://app?vid=67e8879b-193d-41fb-b133-c51309ca16e8","ios":"levelo://app?vid=67e8879b-193d-41fb-b133-c51309ca16e8"},"vehicle_type_id":"4","last_reported":1708110345,"current_range_meters":27600,"station_id":"ce4bhqp2rcd13ifvqhog","pricing_plan_id":"cebpf4jnsgd1na2vs0mg"},{"bike_id":"9a785585-c85b-4fa3-85aa-80d29ca57d9f","system_id":"levelo_inurba_marseille","lat":43.32367,"lon":5.388836,"is_reserved":false,"is_disabled":false,"rental_uris":{"android":"levelo://app?vid=9a785585-c85b-4fa3-85aa-80d29ca57d9f","ios":"levelo://app?vid=9a785585-c85b-4fa3-85aa-80d29ca57d9f"},"vehicle_type_id":"4","last_reported":1708110345,"current_range_meters":29600,"station_id":"ce4bhqp2rcd13ifvqhog","pricing_plan_id":"cebpf4jnsgd1na2vs0mg"},{"bike_id":"fceacd93-f4c6-434d-bb12-36d15d3b0640","system_id":"levelo_inurba_marseille","lat":43.32367,"lon":5.388836,"is_reserved":false,"is_disabled":false,"rental_uris":{"android":"levelo://app?vid=fceacd93-f4c6-434d-bb12-36d15d3b0640","ios":"levelo://app?vid=fceacd93-f4c6-434d-bb12-36d15d3b0640"},"vehicle_type_id":"4","last_reported":1708110345,"current_range_meters":30000,"station_id":"ce4bhqp2rcd13ifvqhog","pricing_plan_id":"cebpf4jnsgd1na2vs0mg"},{"bike_id":"a8a3ad88-3aa3-4deb-a961-f2c130a0207e","system_id":"levelo_inurba_marseille","lat":43.32365,"lon":5.38883,"is_reserved":false,"is_disabled":false,"rental_uris":{"android":"levelo://app?vid=a8a3ad88-3aa3-4deb-a961-f2c130a0207e","ios":"levelo://app?vid=a8a3ad88-3aa3-4deb-a961-f2c130a0207e"},"vehicle_type_id":"4","last_reported":1708110345,"current_range_meters":27600,"station_id":"ce4bhqp2rcd13ifvqhog","pricing_plan_id":"cebpf4jnsgd1na2vs0mg"},{"bike_id":"2327eaa2-eb6d-4642-af18-22514541f9a8","system_id":"levelo_inurba_marseille","lat":43.32365,"lon":5.38883,"is_reserved":false,"is_disabled":false,"rental_uris":{"android":"levelo://app?vid=2327eaa2-eb6d-4642-af18-22514541f9a8","ios":"levelo://app?vid=2327eaa2-eb6d-4642-af18-22514541f9a8"},"vehicle_type_id":"4","last_reported":1708110345,"current_range_meters":21200,"station_id":"ce4bhqp2rcd13ifvqhog","pricing_plan_id":"cebpf4jnsgd1na2vs0mg"},{"bike_id":"11f16d73-52cf-4b59-8120-4e257d4d363b","system_id":"levelo_inurba_marseille","lat":43.32367,"lon":5.388836,"is_reserved":false,"is_disabled":false,"rental_uris":{"android":"levelo://app?vid=11f16d73-52cf-4b59-8120-4e257d4d363b","ios":"levelo://app?vid=11f16d73-52cf-4b59-8120-4e257d4d363b"},"vehicle_type_id":"4","last_reported":1708110345,"current_range_meters":12800,"station_id":"ce4bhqp2rcd13ifvqhog","pricing_plan_id":"cebpf4jnsgd1na2vs0mg"},{"bike_id":"f9386ca3-cf78-41ba-b174-602a0647c8e4","system_id":"levelo_inurba_marseille","lat":43.32367,"lon":5.38882,"is_reserved":false,"is_disabled":false,"rental_uris":{"android":"levelo://app?vid=f9386ca3-cf78-41ba-b174-602a0647c8e4","ios":"levelo://app?vid=f9386ca3-cf78-41ba-b174-602a0647c8e4"},"vehicle_type_id":"4","last_reported":1708110345,"current_range_meters":16800,"station_id":"ce4bhqp2rcd13ifvqhog","pricing_plan_id":"cebpf4jnsgd1na2vs0mg"},{"bike_id":"47eafb4f-c4f4-4c49-adff-f0631aa24f49","system_id":"levelo_inurba_marseille","lat":43.32367,"lon":5.388836,"is_reserved":false,"is_disabled":false,"rental_uris":{"android":"levelo://app?vid=47eafb4f-c4f4-4c49-adff-f0631aa24f49","ios":"levelo://app?vid=47eafb4f-c4f4-4c49-adff-f0631aa24f49"},"vehicle_type_id":"4","last_reported":1708110345,"current_range_meters":22400,"station_id":"ce4bhqp2rcd13ifvqhog","pricing_plan_id":"cebpf4jnsgd1na2vs0mg"},{"bike_id":"6af73b7c-3333-47f9-9c52-fb4e2c063bc2","system_id":"levelo_inurba_marseille","lat":43.32367,"lon":5.388836,"is_reserved":false,"is_disabled":false,"rental_uris":{"android":"levelo://app?vid=6af73b7c-3333-47f9-9c52-fb4e2c063bc2","ios":"levelo://app?vid=6af73b7c-3333-47f9-9c52-fb4e2c063bc2"},"vehicle_type_id":"4","last_reported":1708110345,"current_range_meters":15600,"station_id":"ce4bhqp2rcd13ifvqhog","pricing_plan_id":"cebpf4jnsgd1na2vs0mg"},{"bike_id":"7b8ae2a5-fea4-420f-9e1d-5f67a20c6887","system_id":"levelo_inurba_marseille","lat":43.32367,"lon":5.388836,"is_reserved":false,"is_disabled":false,"rental_uris":{"android":"levelo://app?vid=7b8ae2a5-fea4-420f-9e1d-5f67a20c6887","ios":"levelo://app?vid=7b8ae2a5-fea4-420f-9e1d-5f67a20c6887"},"vehicle_type_id":"4","last_reported":1708110345,"current_range_meters":16000,"station_id":"ce4bhqp2rcd13ifvqhog","pricing_plan_id":"cebpf4jnsgd1na2vs0mg"},{"bike_id":"39218043-babe-4383-8f3e-ac96355ba56e","system_id":"levelo_inurba_marseille","lat":43.32368,"lon":5.38891,"is_reserved":false,"is_disabled":false,"rental_uris":{"android":"levelo://app?vid=39218043-babe-4383-8f3e-ac96355ba56e","ios":"levelo://app?vid=39218043-babe-4383-8f3e-ac96355ba56e"},"vehicle_type_id":"4","last_reported":1708110345,"current_range_meters":8400,"station_id":"ce4bhqp2rcd13ifvqhog","pricing_plan_id":"cebpf4jnsgd1na2vs0mg"},{"bike_id":"512d3a05-7856-4f54-8bf4-8fec6f34eec5","system_id":"levelo_inurba_marseille","lat":43.29602,"lon":5.381084,"is_reserved":false,"is_disabled":false,"rental_uris":{"android":"levelo://app?vid=512d3a05-7856-4f54-8bf4-8fec6f34eec5","ios":"levelo://app?vid=512d3a05-7856-4f54-8bf4-8fec6f34eec5"},"vehicle_type_id":"4","last_reported":1708110345,"current_range_meters":400,"station_id":"ce4bgl12rcd13ifvqbo0","pricing_plan_id":"cebpf4jnsgd1na2vs0mg"},{"bike_id":"b609e847-8460-467e-a04c-9a503e1e3f86","system_id":"levelo_inurba_marseille","lat":43.29604,"lon":5.38097,"is_reserved":false,"is_disabled":false,"rental_uris":{"android":"levelo://app?vid=b609e847-8460-467e-a04c-9a503e1e3f86","ios":"levelo://app?vid=b609e847-8460-467e-a04c-9a503e1e3f86"},"vehicle_type_id":"4","last_reported":1708110345,"current_range_meters":4000,"station_id":"ce4bgl12rcd13ifvqbo0","pricing_plan_id":"cebpf4jnsgd1na2vs0mg"},{"bike_id":"abd11e8b-3dfc-46d1-8e24-ad98cd4efeec","system_id":"levelo_inurba_marseille","lat":43.29599,"lon":5.38106,"is_reserved":false,"is_disabled":false,"rental_uris":{"android":"levelo://app?vid=abd11e8b-3dfc-46d1-8e24-ad98cd4efeec","ios":"levelo://app?vid=abd11e8b-3dfc-46d1-8e24-ad98cd4efeec"},"vehicle_type_id":"4","last_reported":1708110345,"current_range_meters":29200,"station_id":"ce4bgl12rcd13ifvqbo0","pricing_plan_id":"cebpf4jnsgd1na2vs0mg"},{"bike_id":"b450662b-3e15-472f-8400-8994d5a29e21","system_id":"levelo_inurba_marseille","lat":43.29308,"lon":5.37185,"is_reserved":false,"is_disabled":false,"rental_uris":{"android":"levelo://app?vid=b450662b-3e15-472f-8400-8994d5a29e21","ios":"levelo://app?vid=b450662b-3e15-472f-8400-8994d5a29e21"},"vehicle_type_id":"4","last_reported":1708110345,"current_range_meters":11600,"station_id":"ce4bgh92rcd13ifvqb40","pricing_plan_id":"cebpf4jnsgd1na2vs0mg"},{"bike_id":"cd80ab32-6569-445b-b59f-bc1fec9f1ff8","system_id":"levelo_inurba_marseille","lat":43.292749,"lon":5.368402,"is_reserved":false,"is_disabled":false,"rental_uris":{"android":"levelo://app?vid=cd80ab32-6569-445b-b59f-bc1fec9f1ff8","ios":"levelo://app?vid=cd80ab32-6569-445b-b59f-bc1fec9f1ff8"},"vehicle_type_id":"4","last_reported":1708110345,"current_range_meters":4000,"station_id":"ce4bhbp2rcd13ifvqesg","pricing_plan_id":"cebpf4jnsgd1na2vs0mg"},{"bike_id":"7a1ab098-cd16-4d1a-991f-79fa3d3ed862","system_id":"levelo_inurba_marseille","lat":43.292749,"lon":5.368402,"is_reserved":false,"is_disabled":false,"rental_uris":{"android":"levelo://app?vid=7a1ab098-cd16-4d1a-991f-79fa3d3ed862","ios":"levelo://app?vid=7a1ab098-cd16-4d1a-991f-79fa3d3ed862"},"vehicle_type_id":"4","last_reported":1708110345,"current_range_meters":11600,"station_id":"ce4bhbp2rcd13ifvqesg","pricing_plan_id":"cebpf4jnsgd1na2vs0mg"},{"bike_id":"72dc7060-9b44-4ed6-ba0d-6dcc02550ed6","system_id":"levelo_inurba_marseille","lat":43.29304,"lon":5.37179,"is_reserved":false,"is_disabled":false,"rental_uris":{"android":"levelo://app?vid=72dc7060-9b44-4ed6-ba0d-6dcc02550ed6","ios":"levelo://app?vid=72dc7060-9b44-4ed6-ba0d-6dcc02550ed6"},"vehicle_type_id":"4","last_reported":1708110345,"current_range_meters":8400,"station_id":"ce4bgh92rcd13ifvqb40","pricing_plan_id":"cebpf4jnsgd1na2vs0mg"},{"bike_id":"3e714f5d-5d3d-4276-bf0b-aae0032a5028","system_id":"levelo_inurba_marseille","lat":43.292749,"lon":5.368402,"is_reserved":false,"is_disabled":false,"rental_uris":{"android":"levelo://app?vid=3e714f5d-5d3d-4276-bf0b-aae0032a5028","ios":"levelo://app?vid=3e714f5d-5d3d-4276-bf0b-aae0032a5028"},"vehicle_type_id":"4","last_reported":1708110345,"current_range_meters":0,"station_id":"ce4bhbp2rcd13ifvqesg","pricing_plan_id":"cebpf4jnsgd1na2vs0mg"},{"bike_id":"dba8cfc3-0802-4910-9757-a7e7856da674","system_id":"levelo_inurba_marseille","lat":43.29302,"lon":5.37166,"is_reserved":false,"is_disabled":false,"rental_uris":{"android":"levelo://app?vid=dba8cfc3-0802-4910-9757-a7e7856da674","ios":"levelo://app?vid=dba8cfc3-0802-4910-9757-a7e7856da674"},"vehicle_type_id":"4","last_reported":1708110345,"current_range_meters":13600,"station_id":"ce4bgh92rcd13ifvqb40","pricing_plan_id":"cebpf4jnsgd1na2vs0mg"},{"bike_id":"7608f927-7be0-4330-aeb2-5437a9e5457f","system_id":"levelo_inurba_marseille","lat":43.292749,"lon":5.368402,"is_reserved":false,"is_disabled":false,"rental_uris":{"android":"levelo://app?vid=7608f927-7be0-4330-aeb2-5437a9e5457f","ios":"levelo://app?vid=7608f927-7be0-4330-aeb2-5437a9e5457f"},"vehicle_type_id":"4","last_reported":1708110345,"current_range_meters":2000,"station_id":"ce4bhbp2rcd13ifvqesg","pricing_plan_id":"cebpf4jnsgd1na2vs0mg"},{"bike_id":"89b94ad4-3a2c-4f55-a920-9197a71ce84f","system_id":"levelo_inurba_marseille","lat":43.292749,"lon":5.368402,"is_reserved":false,"is_disabled":false,"rental_uris":{"android":"levelo://app?vid=89b94ad4-3a2c-4f55-a920-9197a71ce84f","ios":"levelo://app?vid=89b94ad4-3a2c-4f55-a920-9197a71ce84f"},"vehicle_type_id":"4","last_reported":1708110345,"current_range_meters":26000,"station_id":"ce4bhbp2rcd13ifvqesg","pricing_plan_id":"cebpf4jnsgd1na2vs0mg"},{"bike_id":"4461bfcc-48bf-4f2f-8add-0a3ba22a20b2","system_id":"levelo_inurba_marseille","lat":43.292749,"lon":5.368402,"is_reserved":false,"is_disabled":false,"rental_uris":{"android":"levelo://app?vid=4461bfcc-48bf-4f2f-8add-0a3ba22a20b2","ios":"levelo://app?vid=4461bfcc-48bf-4f2f-8add-0a3ba22a20b2"},"vehicle_type_id":"4","last_reported":1708110345,"current_range_meters":10400,"station_id":"ce4bhbp2rcd13ifvqesg","pricing_plan_id":"cebpf4jnsgd1na2vs0mg"},{"bike_id":"5a4a1cb0-caab-4fff-b0a1-401da55ac033","system_id":"levelo_inurba_marseille","lat":43.292749,"lon":5.368402,"is_reserved":false,"is_disabled":false,"rental_uris":{"android":"levelo://app?vid=5a4a1cb0-caab-4fff-b0a1-401da55ac033","ios":"levelo://app?vid=5a4a1cb0-caab-4fff-b0a1-401da55ac033"},"vehicle_type_id":"4","last_reported":1708110345,"current_range_meters":16800,"station_id":"ce4bhbp2rcd13ifvqesg","pricing_plan_id":"cebpf4jnsgd1na2vs0mg"},{"bike_id":"8c9a989a-9b6b-45bb-a7d9-65dd4e1e7ec1","system_id":"levelo_inurba_marseille","lat":43.29304,"lon":5.37192,"is_reserved":false,"is_disabled":false,"rental_uris":{"android":"levelo://app?vid=8c9a989a-9b6b-45bb-a7d9-65dd4e1e7ec1","ios":"levelo://app?vid=8c9a989a-9b6b-45bb-a7d9-65dd4e1e7ec1"},"vehicle_type_id":"4","last_reported":1708110345,"current_range_meters":26800,"station_id":"ce4bgh92rcd13ifvqb40","pricing_plan_id":"cebpf4jnsgd1na2vs0mg"},{"bike_id":"2c95568b-df6e-4bc5-ba23-add0bab65ad4","system_id":"levelo_inurba_marseille","lat":43.292749,"lon":5.368402,"is_reserved":false,"is_disabled":false,"rental_uris":{"android":"levelo://app?vid=2c95568b-df6e-4bc5-ba23-add0bab65ad4","ios":"levelo://app?vid=2c95568b-df6e-4bc5-ba23-add0bab65ad4"},"vehicle_type_id":"4","last_reported":1708110345,"current_range_meters":12800,"station_id":"ce4bhbp2rcd13ifvqesg","pricing_plan_id":"cebpf4jnsgd1na2vs0mg"},{"bike_id":"7ee55e18-3c51-42ae-a823-ca4c3d49834b","system_id":"levelo_inurba_marseille","lat":43.292749,"lon":5.368402,"is_reserved":false,"is_disabled":false,"rental_uris":{"android":"levelo://app?vid=7ee55e18-3c51-42ae-a823-ca4c3d49834b","ios":"levelo://app?vid=7ee55e18-3c51-42ae-a823-ca4c3d49834b"},"vehicle_type_id":"4","last_reported":1708110345,"current_range_meters":20000,"station_id":"ce4bhbp2rcd13ifvqesg","pricing_plan_id":"cebpf4jnsgd1na2vs0mg"},{"bike_id":"a95a17bd-ac4f-4040-8572-cf5590e04ec1","system_id":"levelo_inurba_marseille","lat":43.292749,"lon":5.368402,"is_reserved":false,"is_disabled":false,"rental_uris":{"android":"levelo://app?vid=a95a17bd-ac4f-4040-8572-cf5590e04ec1","ios":"levelo://app?vid=a95a17bd-ac4f-4040-8572-cf5590e04ec1"},"vehicle_type_id":"4","last_reported":1708110345,"current_range_meters":2800,"station_id":"ce4bhbp2rcd13ifvqesg","pricing_plan_id":"cebpf4jnsgd1na2vs0mg"},{"bike_id":"e0b72cef-f47a-4253-a709-c4c7f0d6f98f","system_id":"levelo_inurba_marseille","lat":43.292749,"lon":5.368402,"is_reserved":false,"is_disabled":false,"rental_uris":{"android":"levelo://app?vid=e0b72cef-f47a-4253-a709-c4c7f0d6f98f","ios":"levelo://app?vid=e0b72cef-f47a-4253-a709-c4c7f0d6f98f"},"vehicle_type_id":"4","last_reported":1708110345,"current_range_meters":16000,"station_id":"ce4bhbp2rcd13ifvqesg","pricing_plan_id":"cebpf4jnsgd1na2vs0mg"},{"bike_id":"d405518c-d6da-4111-9568-461ce339f9d6","system_id":"levelo_inurba_marseille","lat":43.292749,"lon":5.368402,"is_reserved":false,"is_disabled":false,"rental_uris":{"android":"levelo://app?vid=d405518c-d6da-4111-9568-461ce339f9d6","ios":"levelo://app?vid=d405518c-d6da-4111-9568-461ce339f9d6"},"vehicle_type_id":"4","last_reported":1708110345,"current_range_meters":2400,"station_id":"ce4bhbp2rcd13ifvqesg","pricing_plan_id":"cebpf4jnsgd1na2vs0mg"},{"bike_id":"c526159f-ffb3-4ec7-8188-100881549492","system_id":"levelo_inurba_marseille","lat":43.29295,"lon":5.37171,"is_reserved":false,"is_disabled":false,"rental_uris":{"android":"levelo://app?vid=c526159f-ffb3-4ec7-8188-100881549492","ios":"levelo://app?vid=c526159f-ffb3-4ec7-8188-100881549492"},"vehicle_type_id":"4","last_reported":1708110345,"current_range_meters":2800,"station_id":"ce4bgh92rcd13ifvqb40","pricing_plan_id":"cebpf4jnsgd1na2vs0mg"},{"bike_id":"da78e7cb-2283-491e-a802-3227771612ed","system_id":"levelo_inurba_marseille","lat":43.295169,"lon":5.390426,"is_reserved":false,"is_disabled":false,"rental_uris":{"android":"levelo://app?vid=da78e7cb-2283-491e-a802-3227771612ed","ios":"levelo://app?vid=da78e7cb-2283-491e-a802-3227771612ed"},"vehicle_type_id":"4","last_reported":1708110345,"current_range_meters":22400,"station_id":"ce4bh3p2rcd13ifvqdp0","pricing_plan_id":"cebpf4jnsgd1na2vs0mg"},{"bike_id":"0ee9b085-48c7-4ab6-a44f-f84ef119005b","system_id":"levelo_inurba_marseille","lat":43.29307,"lon":5.37463,"is_reserved":false,"is_disabled":false,"rental_uris":{"android":"levelo://app?vid=0ee9b085-48c7-4ab6-a44f-f84ef119005b","ios":"levelo://app?vid=0ee9b085-48c7-4ab6-a44f-f84ef119005b"},"vehicle_type_id":"4","last_reported":1708110345,"current_range_meters":23600,"station_id":"ce4bgi12rcd13ifvqb70","pricing_plan_id":"cebpf4jnsgd1na2vs0mg"},{"bike_id":"d3aee2a3-b3b7-4eec-be67-8d033f84ee3b","system_id":"levelo_inurba_marseille","lat":43.29304,"lon":5.37466,"is_reserved":false,"is_disabled":false,"rental_uris":{"android":"levelo://app?vid=d3aee2a3-b3b7-4eec-be67-8d033f84ee3b","ios":"levelo://app?vid=d3aee2a3-b3b7-4eec-be67-8d033f84ee3b"},"vehicle_type_id":"4","last_reported":1708110345,"current_range_meters":11600,"station_id":"ce4bgi12rcd13ifvqb70","pricing_plan_id":"cebpf4jnsgd1na2vs0mg"},{"bike_id":"b4d39cac-c6e1-4bdb-b77c-17d17d08ed04","system_id":"levelo_inurba_marseille","lat":43.293009,"lon":5.374584,"is_reserved":false,"is_disabled":false,"rental_uris":{"android":"levelo://app?vid=b4d39cac-c6e1-4bdb-b77c-17d17d08ed04","ios":"levelo://app?vid=b4d39cac-c6e1-4bdb-b77c-17d17d08ed04"},"vehicle_type_id":"4","last_reported":1708110345,"current_range_meters":17200,"station_id":"ce4bgi12rcd13ifvqb70","pricing_plan_id":"cebpf4jnsgd1na2vs0mg"},{"bike_id":"540d72db-bfb1-4513-b2c8-82b4c3dd5b39","system_id":"levelo_inurba_marseille","lat":43.293009,"lon":5.374584,"is_reserved":false,"is_disabled":false,"rental_uris":{"android":"levelo://app?vid=540d72db-bfb1-4513-b2c8-82b4c3dd5b39","ios":"levelo://app?vid=540d72db-bfb1-4513-b2c8-82b4c3dd5b39"},"vehicle_type_id":"4","last_reported":1708110345,"current_range_meters":0,"station_id":"ce4bgi12rcd13ifvqb70","pricing_plan_id":"cebpf4jnsgd1na2vs0mg"},{"bike_id":"afedcc2f-8d88-4082-8ae1-19e513b0682b","system_id":"levelo_inurba_marseille","lat":43.257079,"lon":5.411051,"is_reserved":false,"is_disabled":false,"rental_uris":{"android":"levelo://app?vid=afedcc2f-8d88-4082-8ae1-19e513b0682b","ios":"levelo://app?vid=afedcc2f-8d88-4082-8ae1-19e513b0682b"},"vehicle_type_id":"4","last_reported":1708110345,"current_range_meters":23600,"station_id":"ce4bhkp2rcd13ifvqgd0","pricing_plan_id":"cebpf4jnsgd1na2vs0mg"},{"bike_id":"cd060e3b-f8be-4ef8-8c42-72a91c50453d","system_id":"levelo_inurba_marseille","lat":43.293009,"lon":5.374584,"is_reserved":false,"is_disabled":false,"rental_uris":{"android":"levelo://app?vid=cd060e3b-f8be-4ef8-8c42-72a91c50453d","ios":"levelo://app?vid=cd060e3b-f8be-4ef8-8c42-72a91c50453d"},"vehicle_type_id":"4","last_reported":1708110345,"current_range_meters":20800,"station_id":"ce4bgi12rcd13ifvqb70","pricing_plan_id":"cebpf4jnsgd1na2vs0mg"},{"bike_id":"242a160e-45fb-47b0-a3cf-e9bc7877468e","system_id":"levelo_inurba_marseille","lat":43.29298,"lon":5.37463,"is_reserved":false,"is_disabled":false,"rental_uris":{"android":"levelo://app?vid=242a160e-45fb-47b0-a3cf-e9bc7877468e","ios":"levelo://app?vid=242a160e-45fb-47b0-a3cf-e9bc7877468e"},"vehicle_type_id":"4","last_reported":1708110345,"current_range_meters":23600,"station_id":"ce4bgi12rcd13ifvqb70","pricing_plan_id":"cebpf4jnsgd1na2vs0mg"},{"bike_id":"6c32752e-411b-4609-b976-64d9e20ba770","system_id":"levelo_inurba_marseille","lat":43.293009,"lon":5.374584,"is_reserved":false,"is_disabled":false,"rental_uris":{"android":"levelo://app?vid=6c32752e-411b-4609-b976-64d9e20ba770","ios":"levelo://app?vid=6c32752e-411b-4609-b976-64d9e20ba770"},"vehicle_type_id":"4","last_reported":1708110345,"current_range_meters":4000,"station_id":"ce4bgi12rcd13ifvqb70","pricing_plan_id":"cebpf4jnsgd1na2vs0mg"},{"bike_id":"8817e565-13ce-47f3-ad6b-d1fd9bf29d7a","system_id":"levelo_inurba_marseille","lat":43.29376,"lon":5.37851,"is_reserved":false,"is_disabled":false,"rental_uris":{"android":"levelo://app?vid=8817e565-13ce-47f3-ad6b-d1fd9bf29d7a","ios":"levelo://app?vid=8817e565-13ce-47f3-ad6b-d1fd9bf29d7a"},"vehicle_type_id":"4","last_reported":1708110345,"current_range_meters":800,"station_id":"ce4bgjh2rcd13ifvqbf0","pricing_plan_id":"cebpf4jnsgd1na2vs0mg"},{"bike_id":"27a05bf5-832d-459c-a634-3119247466f8","system_id":"levelo_inurba_marseille","lat":43.2936,"lon":5.37835,"is_reserved":false,"is_disabled":false,"rental_uris":{"android":"levelo://app?vid=27a05bf5-832d-459c-a634-3119247466f8","ios":"levelo://app?vid=27a05bf5-832d-459c-a634-3119247466f8"},"vehicle_type_id":"4","last_reported":1708110345,"current_range_meters":400,"station_id":"ce4bgjh2rcd13ifvqbf0","pricing_plan_id":"cebpf4jnsgd1na2vs0mg"},{"bike_id":"0536d82a-3269-4767-8caf-c1df020251c7","system_id":"levelo_inurba_marseille","lat":43.292311,"lon":5.360731,"is_reserved":false,"is_disabled":false,"rental_uris":{"android":"levelo://app?vid=0536d82a-3269-4767-8caf-c1df020251c7","ios":"levelo://app?vid=0536d82a-3269-4767-8caf-c1df020251c7"},"vehicle_type_id":"4","last_reported":1708110345,"current_range_meters":23600,"station_id":"ce4bhbh2rcd13ifvqeqg","pricing_plan_id":"cebpf4jnsgd1na2vs0mg"},{"bike_id":"0653d0f7-9daa-4113-b5fc-6bfdf7e25c34","system_id":"levelo_inurba_marseille","lat":43.292311,"lon":5.360731,"is_reserved":false,"is_disabled":false,"rental_uris":{"android":"levelo://app?vid=0653d0f7-9daa-4113-b5fc-6bfdf7e25c34","ios":"levelo://app?vid=0653d0f7-9daa-4113-b5fc-6bfdf7e25c34"},"vehicle_type_id":"4","last_reported":1708110345,"current_range_meters":17200,"station_id":"ce4bhbh2rcd13ifvqeqg","pricing_plan_id":"cebpf4jnsgd1na2vs0mg"},{"bike_id":"f4b38c12-8eca-4588-9431-38541259ccbd","system_id":"levelo_inurba_marseille","lat":43.293536,"lon":5.37864,"is_reserved":false,"is_disabled":false,"rental_uris":{"android":"levelo://app?vid=f4b38c12-8eca-4588-9431-38541259ccbd","ios":"levelo://app?vid=f4b38c12-8eca-4588-9431-38541259ccbd"},"vehicle_type_id":"4","last_reported":1708110345,"current_range_meters":0,"station_id":"ce4bgjh2rcd13ifvqbf0","pricing_plan_id":"cebpf4jnsgd1na2vs0mg"},{"bike_id":"1d8e9bf8-89ca-4c0b-9446-877c2dd45fa7","system_id":"levelo_inurba_marseille","lat":43.298764,"lon":5.388973,"is_reserved":false,"is_disabled":false,"rental_uris":{"android":"levelo://app?vid=1d8e9bf8-89ca-4c0b-9446-877c2dd45fa7","ios":"levelo://app?vid=1d8e9bf8-89ca-4c0b-9446-877c2dd45fa7"},"vehicle_type_id":"4","last_reported":1708110345,"current_range_meters":10000,"station_id":"ce4bh392rcd13ifvqdl0","pricing_plan_id":"cebpf4jnsgd1na2vs0mg"},{"bike_id":"aa48f4ae-e8a5-4a93-a087-a0059ddad612","system_id":"levelo_inurba_marseille","lat":43.291671,"lon":5.371575,"is_reserved":false,"is_disabled":false,"rental_uris":{"android":"levelo://app?vid=aa48f4ae-e8a5-4a93-a087-a0059ddad612","ios":"levelo://app?vid=aa48f4ae-e8a5-4a93-a087-a0059ddad612"},"vehicle_type_id":"4","last_reported":1708110345,"current_range_meters":11600,"station_id":"ce4bha92rcd13ifvqeh0","pricing_plan_id":"cebpf4jnsgd1na2vs0mg"},{"bike_id":"6a3b44f1-8c8a-4e80-b227-6fece02ca77f","system_id":"levelo_inurba_marseille","lat":43.29171,"lon":5.37157,"is_reserved":false,"is_disabled":false,"rental_uris":{"android":"levelo://app?vid=6a3b44f1-8c8a-4e80-b227-6fece02ca77f","ios":"levelo://app?vid=6a3b44f1-8c8a-4e80-b227-6fece02ca77f"},"vehicle_type_id":"4","last_reported":1708110345,"current_range_meters":16800,"station_id":"ce4bha92rcd13ifvqeh0","pricing_plan_id":"cebpf4jnsgd1na2vs0mg"},{"bike_id":"ea010144-7fdf-4dbd-a145-687a38e4cdf0","system_id":"levelo_inurba_marseille","lat":43.298764,"lon":5.388973,"is_reserved":false,"is_disabled":false,"rental_uris":{"android":"levelo://app?vid=ea010144-7fdf-4dbd-a145-687a38e4cdf0","ios":"levelo://app?vid=ea010144-7fdf-4dbd-a145-687a38e4cdf0"},"vehicle_type_id":"4","last_reported":1708110345,"current_range_meters":7200,"station_id":"ce4bh392rcd13ifvqdl0","pricing_plan_id":"cebpf4jnsgd1na2vs0mg"},{"bike_id":"f25e9000-da4a-4b23-96b7-09b8e54cca91","system_id":"levelo_inurba_marseille","lat":43.29197,"lon":5.358,"is_reserved":false,"is_disabled":false,"rental_uris":{"android":"levelo://app?vid=f25e9000-da4a-4b23-96b7-09b8e54cca91","ios":"levelo://app?vid=f25e9000-da4a-4b23-96b7-09b8e54cca91"},"vehicle_type_id":"4","last_reported":1708110345,"current_range_meters":31200,"station_id":"ce4bhb12rcd13ifvqel0","pricing_plan_id":"cebpf4jnsgd1na2vs0mg"},{"bike_id":"bf98dd22-8f43-4c0d-abd4-4723071e5b9e","system_id":"levelo_inurba_marseille","lat":43.313291,"lon":5.396838,"is_reserved":false,"is_disabled":false,"rental_uris":{"android":"levelo://app?vid=bf98dd22-8f43-4c0d-abd4-4723071e5b9e","ios":"levelo://app?vid=bf98dd22-8f43-4c0d-abd4-4723071e5b9e"},"vehicle_type_id":"4","last_reported":1708110345,"current_range_meters":3200,"station_id":"ce4bgvp2rcd13ifvqcu0","pricing_plan_id":"cebpf4jnsgd1na2vs0mg"},{"bike_id":"d1768396-bc2d-43db-847f-4eaf82fe1c4d","system_id":"levelo_inurba_marseille","lat":43.313291,"lon":5.396838,"is_reserved":false,"is_disabled":false,"rental_uris":{"android":"levelo://app?vid=d1768396-bc2d-43db-847f-4eaf82fe1c4d","ios":"levelo://app?vid=d1768396-bc2d-43db-847f-4eaf82fe1c4d"},"vehicle_type_id":"4","last_reported":1708110345,"current_range_meters":9600,"station_id":"ce4bgvp2rcd13ifvqcu0","pricing_plan_id":"cebpf4jnsgd1na2vs0mg"},{"bike_id":"b9e16807-e8b3-4091-b482-d57651cf7421","system_id":"levelo_inurba_marseille","lat":43.313291,"lon":5.396838,"is_reserved":false,"is_disabled":false,"rental_uris":{"android":"levelo://app?vid=b9e16807-e8b3-4091-b482-d57651cf7421","ios":"levelo://app?vid=b9e16807-e8b3-4091-b482-d57651cf7421"},"vehicle_type_id":"4","last_reported":1708110345,"current_range_meters":11600,"station_id":"ce4bgvp2rcd13ifvqcu0","pricing_plan_id":"cebpf4jnsgd1na2vs0mg"},{"bike_id":"7278dac8-7bba-48ba-a0cd-9a7c6cd99a07","system_id":"levelo_inurba_marseille","lat":43.313291,"lon":5.396838,"is_reserved":false,"is_disabled":false,"rental_uris":{"android":"levelo://app?vid=7278dac8-7bba-48ba-a0cd-9a7c6cd99a07","ios":"levelo://app?vid=7278dac8-7bba-48ba-a0cd-9a7c6cd99a07"},"vehicle_type_id":"4","last_reported":1708110345,"current_range_meters":21200,"station_id":"ce4bgvp2rcd13ifvqcu0","pricing_plan_id":"cebpf4jnsgd1na2vs0mg"},{"bike_id":"c50c5f2c-6aed-489e-88ef-b1d2302a7c93","system_id":"levelo_inurba_marseille","lat":43.31327,"lon":5.39694,"is_reserved":false,"is_disabled":false,"rental_uris":{"android":"levelo://app?vid=c50c5f2c-6aed-489e-88ef-b1d2302a7c93","ios":"levelo://app?vid=c50c5f2c-6aed-489e-88ef-b1d2302a7c93"},"vehicle_type_id":"4","last_reported":1708110345,"current_range_meters":12800,"station_id":"ce4bgvp2rcd13ifvqcu0","pricing_plan_id":"cebpf4jnsgd1na2vs0mg"},{"bike_id":"c444ea91-6b8f-495e-9a4b-eb364b285aea","system_id":"levelo_inurba_marseille","lat":43.309038,"lon":5.396546,"is_reserved":false,"is_disabled":false,"rental_uris":{"android":"levelo://app?vid=c444ea91-6b8f-495e-9a4b-eb364b285aea","ios":"levelo://app?vid=c444ea91-6b8f-495e-9a4b-eb364b285aea"},"vehicle_type_id":"4","last_reported":1708110345,"current_range_meters":6000,"station_id":"ce4bh012rcd13ifvqcv0","pricing_plan_id":"cebpf4jnsgd1na2vs0mg"},{"bike_id":"c9e3f48b-9cda-4e35-9405-b8cd135a0987","system_id":"levelo_inurba_marseille","lat":43.309047,"lon":5.396551,"is_reserved":false,"is_disabled":false,"rental_uris":{"android":"levelo://app?vid=c9e3f48b-9cda-4e35-9405-b8cd135a0987","ios":"levelo://app?vid=c9e3f48b-9cda-4e35-9405-b8cd135a0987"},"vehicle_type_id":"4","last_reported":1708110345,"current_range_meters":17600,"station_id":"ce4bh012rcd13ifvqcv0","pricing_plan_id":"cebpf4jnsgd1na2vs0mg"},{"bike_id":"e311e753-06a9-4645-a3f1-fb943fb8dc88","system_id":"levelo_inurba_marseille","lat":43.309038,"lon":5.396546,"is_reserved":false,"is_disabled":false,"rental_uris":{"android":"levelo://app?vid=e311e753-06a9-4645-a3f1-fb943fb8dc88","ios":"levelo://app?vid=e311e753-06a9-4645-a3f1-fb943fb8dc88"},"vehicle_type_id":"4","last_reported":1708110345,"current_range_meters":19200,"station_id":"ce4bh012rcd13ifvqcv0","pricing_plan_id":"cebpf4jnsgd1na2vs0mg"},{"bike_id":"65957180-fc1c-487a-8de2-5d55b67a182a","system_id":"levelo_inurba_marseille","lat":43.313237,"lon":5.39706,"is_reserved":false,"is_disabled":false,"rental_uris":{"android":"levelo://app?vid=65957180-fc1c-487a-8de2-5d55b67a182a","ios":"levelo://app?vid=65957180-fc1c-487a-8de2-5d55b67a182a"},"vehicle_type_id":"4","last_reported":1708110345,"current_range_meters":8400,"station_id":"ce4bgvp2rcd13ifvqcu0","pricing_plan_id":"cebpf4jnsgd1na2vs0mg"},{"bike_id":"d914d257-e6c5-446b-8664-959aa9acc16f","system_id":"levelo_inurba_marseille","lat":43.29529,"lon":5.385581,"is_reserved":false,"is_disabled":false,"rental_uris":{"android":"levelo://app?vid=d914d257-e6c5-446b-8664-959aa9acc16f","ios":"levelo://app?vid=d914d257-e6c5-446b-8664-959aa9acc16f"},"vehicle_type_id":"4","last_reported":1708110345,"current_range_meters":19200,"station_id":"ce4bgih2rcd13ifvqba0","pricing_plan_id":"cebpf4jnsgd1na2vs0mg"},{"bike_id":"acac2617-4bf9-4f31-bc74-e2aab28e2bac","system_id":"levelo_inurba_marseille","lat":43.309038,"lon":5.396546,"is_reserved":false,"is_disabled":false,"rental_uris":{"android":"levelo://app?vid=acac2617-4bf9-4f31-bc74-e2aab28e2bac","ios":"levelo://app?vid=acac2617-4bf9-4f31-bc74-e2aab28e2bac"},"vehicle_type_id":"4","last_reported":1708110345,"current_range_meters":11600,"station_id":"ce4bh012rcd13ifvqcv0","pricing_plan_id":"cebpf4jnsgd1na2vs0mg"},{"bike_id":"8f632f4b-83d6-470c-af67-ee457fd47db2","system_id":"levelo_inurba_marseille","lat":43.29535,"lon":5.38538,"is_reserved":false,"is_disabled":false,"rental_uris":{"android":"levelo://app?vid=8f632f4b-83d6-470c-af67-ee457fd47db2","ios":"levelo://app?vid=8f632f4b-83d6-470c-af67-ee457fd47db2"},"vehicle_type_id":"4","last_reported":1708110345,"current_range_meters":5200,"station_id":"ce4bgih2rcd13ifvqba0","pricing_plan_id":"cebpf4jnsgd1na2vs0mg"},{"bike_id":"9c8a1539-12b9-45fc-8484-62b8c58c8fdd","system_id":"levelo_inurba_marseille","lat":43.29529,"lon":5.385581,"is_reserved":false,"is_disabled":false,"rental_uris":{"android":"levelo://app?vid=9c8a1539-12b9-45fc-8484-62b8c58c8fdd","ios":"levelo://app?vid=9c8a1539-12b9-45fc-8484-62b8c58c8fdd"},"vehicle_type_id":"4","last_reported":1708110345,"current_range_meters":400,"station_id":"ce4bgih2rcd13ifvqba0","pricing_plan_id":"cebpf4jnsgd1na2vs0mg"},{"bike_id":"0e50de79-4ee6-45d7-be00-42fea5d0a3c7","system_id":"levelo_inurba_marseille","lat":43.29537,"lon":5.38544,"is_reserved":false,"is_disabled":false,"rental_uris":{"android":"levelo://app?vid=0e50de79-4ee6-45d7-be00-42fea5d0a3c7","ios":"levelo://app?vid=0e50de79-4ee6-45d7-be00-42fea5d0a3c7"},"vehicle_type_id":"4","last_reported":1708110345,"current_range_meters":15200,"station_id":"ce4bgih2rcd13ifvqba0","pricing_plan_id":"cebpf4jnsgd1na2vs0mg"},{"bike_id":"c9fab8aa-1760-4faa-b18c-7e764cb52b68","system_id":"levelo_inurba_marseille","lat":43.29534,"lon":5.38539,"is_reserved":false,"is_disabled":false,"rental_uris":{"android":"levelo://app?vid=c9fab8aa-1760-4faa-b18c-7e764cb52b68","ios":"levelo://app?vid=c9fab8aa-1760-4faa-b18c-7e764cb52b68"},"vehicle_type_id":"4","last_reported":1708110345,"current_range_meters":28800,"station_id":"ce4bgih2rcd13ifvqba0","pricing_plan_id":"cebpf4jnsgd1na2vs0mg"},{"bike_id":"f41e4f3f-c306-44f5-bb56-ae3d3c39ceb6","system_id":"levelo_inurba_marseille","lat":43.29529,"lon":5.385581,"is_reserved":false,"is_disabled":false,"rental_uris":{"android":"levelo://app?vid=f41e4f3f-c306-44f5-bb56-ae3d3c39ceb6","ios":"levelo://app?vid=f41e4f3f-c306-44f5-bb56-ae3d3c39ceb6"},"vehicle_type_id":"4","last_reported":1708110345,"current_range_meters":30400,"station_id":"ce4bgih2rcd13ifvqba0","pricing_plan_id":"cebpf4jnsgd1na2vs0mg"},{"bike_id":"168214b0-12bf-4e20-a9be-f26c614f10ec","system_id":"levelo_inurba_marseille","lat":43.295353,"lon":5.385444,"is_reserved":false,"is_disabled":false,"rental_uris":{"android":"levelo://app?vid=168214b0-12bf-4e20-a9be-f26c614f10ec","ios":"levelo://app?vid=168214b0-12bf-4e20-a9be-f26c614f10ec"},"vehicle_type_id":"4","last_reported":1708110345,"current_range_meters":26400,"station_id":"ce4bgih2rcd13ifvqba0","pricing_plan_id":"cebpf4jnsgd1na2vs0mg"},{"bike_id":"05e42af3-f18f-4c90-a407-6b4134918383","system_id":"levelo_inurba_marseille","lat":43.29529,"lon":5.385581,"is_reserved":false,"is_disabled":false,"rental_uris":{"android":"levelo://app?vid=05e42af3-f18f-4c90-a407-6b4134918383","ios":"levelo://app?vid=05e42af3-f18f-4c90-a407-6b4134918383"},"vehicle_type_id":"4","last_reported":1708110345,"current_range_meters":3200,"station_id":"ce4bgih2rcd13ifvqba0","pricing_plan_id":"cebpf4jnsgd1na2vs0mg"},{"bike_id":"fead519c-6e6a-48c9-af74-8d0dcc640f42","system_id":"levelo_inurba_marseille","lat":43.29535,"lon":5.38545,"is_reserved":false,"is_disabled":false,"rental_uris":{"android":"levelo://app?vid=fead519c-6e6a-48c9-af74-8d0dcc640f42","ios":"levelo://app?vid=fead519c-6e6a-48c9-af74-8d0dcc640f42"},"vehicle_type_id":"4","last_reported":1708110345,"current_range_meters":18400,"station_id":"ce4bgih2rcd13ifvqba0","pricing_plan_id":"cebpf4jnsgd1na2vs0mg"},{"bike_id":"bacd9a6e-915c-4c98-8944-7e83ae30d7b7","system_id":"levelo_inurba_marseille","lat":43.29529,"lon":5.385581,"is_reserved":false,"is_disabled":false,"rental_uris":{"android":"levelo://app?vid=bacd9a6e-915c-4c98-8944-7e83ae30d7b7","ios":"levelo://app?vid=bacd9a6e-915c-4c98-8944-7e83ae30d7b7"},"vehicle_type_id":"4","last_reported":1708110345,"current_range_meters":30800,"station_id":"ce4bgih2rcd13ifvqba0","pricing_plan_id":"cebpf4jnsgd1na2vs0mg"},{"bike_id":"5601b04a-51ad-4f41-bdf7-9d711b6446a2","system_id":"levelo_inurba_marseille","lat":43.29529,"lon":5.385581,"is_reserved":false,"is_disabled":false,"rental_uris":{"android":"levelo://app?vid=5601b04a-51ad-4f41-bdf7-9d711b6446a2","ios":"levelo://app?vid=5601b04a-51ad-4f41-bdf7-9d711b6446a2"},"vehicle_type_id":"4","last_reported":1708110345,"current_range_meters":2800,"station_id":"ce4bgih2rcd13ifvqba0","pricing_plan_id":"cebpf4jnsgd1na2vs0mg"},{"bike_id":"66b7fcdc-17a2-435a-a248-58ef9189b116","system_id":"levelo_inurba_marseille","lat":43.29533,"lon":5.38544,"is_reserved":false,"is_disabled":false,"rental_uris":{"android":"levelo://app?vid=66b7fcdc-17a2-435a-a248-58ef9189b116","ios":"levelo://app?vid=66b7fcdc-17a2-435a-a248-58ef9189b116"},"vehicle_type_id":"4","last_reported":1708110345,"current_range_meters":4400,"station_id":"ce4bgih2rcd13ifvqba0","pricing_plan_id":"cebpf4jnsgd1na2vs0mg"},{"bike_id":"d854582c-cbf6-4974-81d1-abb702446985","system_id":"levelo_inurba_marseille","lat":43.29529,"lon":5.385581,"is_reserved":false,"is_disabled":false,"rental_uris":{"android":"levelo://app?vid=d854582c-cbf6-4974-81d1-abb702446985","ios":"levelo://app?vid=d854582c-cbf6-4974-81d1-abb702446985"},"vehicle_type_id":"4","last_reported":1708110345,"current_range_meters":12400,"station_id":"ce4bgih2rcd13ifvqba0","pricing_plan_id":"cebpf4jnsgd1na2vs0mg"},{"bike_id":"52babf1d-fe2c-426c-b240-1919f36615ef","system_id":"levelo_inurba_marseille","lat":43.29529,"lon":5.385581,"is_reserved":false,"is_disabled":false,"rental_uris":{"android":"levelo://app?vid=52babf1d-fe2c-426c-b240-1919f36615ef","ios":"levelo://app?vid=52babf1d-fe2c-426c-b240-1919f36615ef"},"vehicle_type_id":"4","last_reported":1708110345,"current_range_meters":14800,"station_id":"ce4bgih2rcd13ifvqba0","pricing_plan_id":"cebpf4jnsgd1na2vs0mg"},