{"last_updated":1752063706,"ttl":60,"version":"2.2","data":{"bikes":[{"bike_id":"cd20cfea-2f2f-444d-a882-a49b6cf370eb","system_id":"levelo_inurba_marseille","lat":43.337444,"lon":5.374475,"is_reserved":false,"is_disabled":true,"rental_uris":{"android":"levelo://app?vid=cd20cfea-2f2f-444d-a882-a49b6cf370eb","ios":"levelo://app?vid=cd20cfea-2f2f-444d-a882-a49b6cf370eb"},"vehicle_type_id":"4","last_reported":1752063707,"current_range_meters":0,"station_id":"","pricing_plan_id":"cebpf4jnsgd1na2vs0mg"},{"bike_id":"3da29fb8-fc97-44c6-b9ac-31dd456b2fd4","system_id":"levelo_inurba_marseille","lat":43.33771,"lon":5.37424,"is_reserved":false,"is_disabled":true,"rental_uris":{"android":"levelo://app?vid=3da29fb8-fc97-44c6-b9ac-31dd456b2fd4","ios":"levelo://app?vid=3da29fb8-fc97-44c6-b9ac-31dd456b2fd4"},"vehicle_type_id":"4","last_reported":1752063707,"current_range_meters":0,"station_id":"","pricing_plan_id":"cebpf4jnsgd1na2vs0mg"},{"bike_id":"01861ad8-a8d7-4be6-816e-651927c87584","system_id":"levelo_inurba_marseille","lat":43.33751,"lon":5.37456,"is_reserved":false,"is_disabled":true,"rental_uris":{"android":"levelo://app?vid=01861ad8-a8d7-4be6-816e-651927c87584","ios":"levelo://app?vid=01861ad8-a8d7-4be6-816e-651927c87584"},"vehicle_type_id":"4","last_reported":1752063707,"current_range_meters":0,"station_id":"","pricing_plan_id":"cebpf4jnsgd1na2vs0mg"},{"bike_id":"53b1a31e-8ada-40c0-8d64-113a81233c84","system_id":"levelo_inurba_marseille","lat":43.36396,"lon":5.31959,"is_reserved":false,"is_disabled":true,"rental_uris":{"android":"levelo://app?vid=53b1a31e-8ada-40c0-8d64-113a81233c84","ios":"levelo://app?vid=53b1a31e-8ada-40c0-8d64-113a81233c84"},"vehicle_type_id":"4","last_reported":1752063707,"current_range_meters":0,"station_id":"","pricing_plan_id":"cebpf4jnsgd1na2vs0mg"},{"bike_id":"deff5b64-342b-4b0f-ad06-3fce3909d3c7","system_id":"levelo_inurba_marseille","lat":43.296,"lon":5.381,"is_reserved":false,"is_disabled":true,"rental_uris":{"android":"levelo://app?vid=deff5b64-342b-4b0f-ad06-3fce3909d3c7","ios":"levelo://app?vid=deff5b64-342b-4b0f-ad06-3fce3909d3c7"},"vehicle_type_id":"4","last_reported":1752063707,"current_range_meters":0,"station_id":"ce4bgl12rcd13ifvqbo0","pricing_plan_id":"cebpf4jnsgd1na2vs0mg"},{"bike_id":"c32e499b-6de7-435c-998e-56ef7be86c08","system_id":"levelo_inurba_marseille","lat":43.29262,"lon":5.40163,"is_reserved":false,"is_disabled":true,"rental_uris":{"android":"levelo://app?vid=c32e499b-6de7-435c-998e-56ef7be86c08","ios":"levelo://app?vid=c32e499b-6de7-435c-998e-56ef7be86c08"},"vehicle_type_id":"4","last_reported":1752063707,"current_range_meters":0,"station_id":"ce4bh312rcd13ifvqdk0","pricing_plan_id":"cebpf4jnsgd1na2vs0mg"},{"bike_id":"d9658d8a-3c22-464a-b72d-5c5dc4c09065","system_id":"levelo_inurba_marseille","lat":43.28417,"lon":5.34999,"is_reserved":false,"is_disabled":true,"rental_uris":{"android":"levelo://app?vid=d9658d8a-3c22-464a-b72d-5c5dc4c09065","ios":"levelo://app?vid=d9658d8a-3c22-464a-b72d-5c5dc4c09065"},"vehicle_type_id":"4","last_reported":1752063707,"current_range_meters":0,"station_id":"ce4bhbh2rcd13ifvqepg","pricing_plan_id":"cebpf4jnsgd1na2vs0mg"},{"bike_id":"4ed5fca6-3c44-493d-b4ff-f28352227cdf","system_id":"levelo_inurba_marseille","lat":43.27982,"lon":5.38743,"is_reserved":false,"is_disabled":true,"rental_uris":{"android":"levelo://app?vid=4ed5fca6-3c44-493d-b4ff-f28352227cdf","ios":"levelo://app?vid=4ed5fca6-3c44-493d-b4ff-f28352227cdf"},"vehicle_type_id":"4","last_reported":1752063707,"current_range_meters":0,"station_id":"ce4bhg12rcd13ifvqf80","pricing_plan_id":"cebpf4jnsgd1na2vs0mg"},{"bike_id":"102488b8-d3fb-427f-bbab-56034240ec6b","system_id":"levelo_inurba_marseille","lat":43.26214,"lon":5.37445,"is_reserved":false,"is_disabled":true,"rental_uris":{"android":"levelo://app?vid=102488b8-d3fb-427f-bbab-56034240ec6b","ios":"levelo://app?vid=102488b8-d3fb-427f-bbab-56034240ec6b"},"vehicle_type_id":"4","last_reported":1752063707,"current_range_meters":0,"station_id":"ce4bhgp2rcd13ifvqfc0","pricing_plan_id":"cebpf4jnsgd1na2vs0mg"},{"bike_id":"0af08b83-db05-434d-8446-bb0bbb88d748","system_id":"levelo_inurba_marseille","lat":43.27956,"lon":5.41049,"is_reserved":false,"is_disabled":true,"rental_uris":{"android":"levelo://app?vid=0af08b83-db05-434d-8446-bb0bbb88d748","ios":"levelo://app?vid=0af08b83-db05-434d-8446-bb0bbb88d748"},"vehicle_type_id":"4","last_reported":1752063707,"current_range_meters":0,"station_id":"ce4bhnp2rcd13ifvqh0g","pricing_plan_id":"cebpf4jnsgd1na2vs0mg"},{"bike_id":"6661cbd2-6ba2-4b46-b15e-1188df0f29d7","system_id":"levelo_inurba_marseille","lat":43.21214,"lon":5.35095,"is_reserved":false,"is_disabled":true,"rental_uris":{"android":"levelo://app?vid=6661cbd2-6ba2-4b46-b15e-1188df0f29d7","ios":"levelo://app?vid=6661cbd2-6ba2-4b46-b15e-1188df0f29d7"},"vehicle_type_id":"4","last_reported":1752063707,"current_range_meters":0,"station_id":"st_cvj6sg6p6f1abm77japg","pricing_plan_id":"cebpf4jnsgd1na2vs0mg"},{"bike_id":"cef03ba1-bfe1-4492-b9ec-f1ba3ab96f5d","system_id":"levelo_inurba_marseille","lat":43.31285,"lon":5.40158,"is_reserved":false,"is_disabled":true,"rental_uris":{"android":"levelo://app?vid=cef03ba1-bfe1-4492-b9ec-f1ba3ab96f5d","ios":"levelo://app?vid=cef03ba1-bfe1-4492-b9ec-f1ba3ab96f5d"},"vehicle_type_id":"4","last_reported":1752063707,"current_range_meters":400,"station_id":"ce4bh092rcd13ifvqd30","pricing_plan_id":"cebpf4jnsgd1na2vs0mg"},{"bike_id":"f56b25bf-972b-4cb3-93c5-333df59459b3","system_id":"levelo_inurba_marseille","lat":43.28265,"lon":5.35085,"is_reserved":false,"is_disabled":true,"rental_uris":{"android":"levelo://app?vid=f56b25bf-972b-4cb3-93c5-333df59459b3","ios":"levelo://app?vid=f56b25bf-972b-4cb3-93c5-333df59459b3"},"vehicle_type_id":"4","last_reported":1752063707,"current_range_meters":400,"station_id":"ce4bhbp2rcd13ifvqerg","pricing_plan_id":"cebpf4jnsgd1na2vs0mg"},{"bike_id":"7f6e51a8-07c6-4c3c-a50f-6b80497136ac","system_id":"levelo_inurba_marseille","lat":43.320515,"lon":5.415367,"is_reserved":false,"is_disabled":true,"rental_uris":{"android":"levelo://app?vid=7f6e51a8-07c6-4c3c-a50f-6b80497136ac","ios":"levelo://app?vid=7f6e51a8-07c6-4c3c-a50f-6b80497136ac"},"vehicle_type_id":"4","last_reported":1752063707,"current_range_meters":400,"station_id":"ce4bhq92rcd13ifvqhkg","pricing_plan_id":"cebpf4jnsgd1na2vs0mg"},{"bike_id":"e562ad4e-a577-4b7b-a74e-7e00b9c0f52f","system_id":"levelo_inurba_marseille","lat":43.225027,"lon":5.347812,"is_reserved":false,"is_disabled":true,"rental_uris":{"android":"levelo://app?vid=e562ad4e-a577-4b7b-a74e-7e00b9c0f52f","ios":"levelo://app?vid=e562ad4e-a577-4b7b-a74e-7e00b9c0f52f"},"vehicle_type_id":"4","last_reported":1752063707,"current_range_meters":400,"station_id":"st_cvj5dfep6f1abm77gieg","pricing_plan_id":"cebpf4jnsgd1na2vs0mg"},{"bike_id":"e03c707b-dc5e-4256-a800-a24a82dac793","system_id":"levelo_inurba_marseille","lat":43.26552,"lon":5.37294,"is_reserved":false,"is_disabled":true,"rental_uris":{"android":"levelo://app?vid=e03c707b-dc5e-4256-a800-a24a82dac793","ios":"levelo://app?vid=e03c707b-dc5e-4256-a800-a24a82dac793"},"vehicle_type_id":"4","last_reported":1752063707,"current_range_meters":1200,"station_id":"ce4bhg12rcd13ifvqf70","pricing_plan_id":"cebpf4jnsgd1na2vs0mg"},{"bike_id":"aec5d3e1-38e5-432c-a740-230297b72e83","system_id":"levelo_inurba_marseille","lat":43.27662,"lon":5.38912,"is_reserved":false,"is_disabled":true,"rental_uris":{"android":"levelo://app?vid=aec5d3e1-38e5-432c-a740-230297b72e83","ios":"levelo://app?vid=aec5d3e1-38e5-432c-a740-230297b72e83"},"vehicle_type_id":"4","last_reported":1752063707,"current_range_meters":1200,"station_id":"ce4bhi12rcd13ifvqfo0","pricing_plan_id":"cebpf4jnsgd1na2vs0mg"},{"bike_id":"0b3f0ebf-c550-443b-8406-c46c17e0827c","system_id":"levelo_inurba_marseille","lat":43.27997,"lon":5.40013,"is_reserved":false,"is_disabled":true,"rental_uris":{"android":"levelo://app?vid=0b3f0ebf-c550-443b-8406-c46c17e0827c","ios":"levelo://app?vid=0b3f0ebf-c550-443b-8406-c46c17e0827c"},"vehicle_type_id":"4","last_reported":1752063707,"current_range_meters":1200,"station_id":"ce4bho92rcd13ifvqh4g","pricing_plan_id":"cebpf4jnsgd1na2vs0mg"},{"bike_id":"19c552da-55bc-46d8-97cb-d1fbabdad01a","system_id":"levelo_inurba_marseille","lat":43.21194,"lon":5.35073,"is_reserved":false,"is_disabled":true,"rental_uris":{"android":"levelo://app?vid=19c552da-55bc-46d8-97cb-d1fbabdad01a","ios":"levelo://app?vid=19c552da-55bc-46d8-97cb-d1fbabdad01a"},"vehicle_type_id":"4","last_reported":1752063707,"current_range_meters":1200,"station_id":"st_cvj6sg6p6f1abm77japg","pricing_plan_id":"cebpf4jnsgd1na2vs0mg"},{"bike_id":"65c95456-89bd-482b-9d25-36eb959374a3","system_id":"levelo_inurba_marseille","lat":43.28091,"lon":5.37864,"is_reserved":false,"is_disabled":true,"rental_uris":{"android":"levelo://app?vid=65c95456-89bd-482b-9d25-36eb959374a3","ios":"levelo://app?vid=65c95456-89bd-482b-9d25-36eb959374a3"},"vehicle_type_id":"4","last_reported":1752063707,"current_range_meters":1600,"station_id":"ce4bha12rcd13ifvqee0","pricing_plan_id":"cebpf4jnsgd1na2vs0mg"},{"bike_id":"6c5b68c6-0e8a-4d4d-8806-5cc0071e59d6","system_id":"levelo_inurba_marseille","lat":43.2737,"lon":5.3624,"is_reserved":false,"is_disabled":true,"rental_uris":{"android":"levelo://app?vid=6c5b68c6-0e8a-4d4d-8806-5cc0071e59d6","ios":"levelo://app?vid=6c5b68c6-0e8a-4d4d-8806-5cc0071e59d6"},"vehicle_type_id":"4","last_reported":1752063707,"current_range_meters":1600,"station_id":"ce4bhbh2rcd13ifvqeo0","pricing_plan_id":"cebpf4jnsgd1na2vs0mg"},{"bike_id":"cc17e2d1-06af-4be0-997a-1fae9d357e3d","system_id":"levelo_inurba_marseille","lat":43.282623,"lon":5.350626,"is_reserved":false,"is_disabled":true,"rental_uris":{"android":"levelo://app?vid=cc17e2d1-06af-4be0-997a-1fae9d357e3d","ios":"levelo://app?vid=cc17e2d1-06af-4be0-997a-1fae9d357e3d"},"vehicle_type_id":"4","last_reported":1752063707,"current_range_meters":1600,"station_id":"ce4bhbp2rcd13ifvqerg","pricing_plan_id":"cebpf4jnsgd1na2vs0mg"},{"bike_id":"fa630b1d-4121-4e1a-8540-d112c5ae3164","system_id":"levelo_inurba_marseille","lat":43.26213,"lon":5.37443,"is_reserved":false,"is_disabled":true,"rental_uris":{"android":"levelo://app?vid=fa630b1d-4121-4e1a-8540-d112c5ae3164","ios":"levelo://app?vid=fa630b1d-4121-4e1a-8540-d112c5ae3164"},"vehicle_type_id":"4","last_reported":1752063707,"current_range_meters":1600,"station_id":"ce4bhgp2rcd13ifvqfc0","pricing_plan_id":"cebpf4jnsgd1na2vs0mg"},{"bike_id":"0650d222-8a61-4821-88f3-8eb8a5502644","system_id":"levelo_inurba_marseille","lat":43.2909,"lon":5.37967,"is_reserved":false,"is_disabled":true,"rental_uris":{"android":"levelo://app?vid=0650d222-8a61-4821-88f3-8eb8a5502644","ios":"levelo://app?vid=0650d222-8a61-4821-88f3-8eb8a5502644"},"vehicle_type_id":"4","last_reported":1752063707,"current_range_meters":2000,"station_id":"","pricing_plan_id":"cebpf4jnsgd1na2vs0mg"},{"bike_id":"0fb7e8d1-8221-410b-8e6c-4ed60282207a","system_id":"levelo_inurba_marseille","lat":43.28474,"lon":5.38418,"is_reserved":false,"is_disabled":false,"rental_uris":{"android":"levelo://app?vid=0fb7e8d1-8221-410b-8e6c-4ed60282207a","ios":"levelo://app?vid=0fb7e8d1-8221-410b-8e6c-4ed60282207a"},"vehicle_type_id":"4","last_reported":1752063707,"current_range_meters":2000,"station_id":"ce4bh512rcd13ifvqe3g","pricing_plan_id":"cebpf4jnsgd1na2vs0mg"},{"bike_id":"3b22f952-d0bc-4c00-8fd3-7e27b88aea23","system_id":"levelo_inurba_marseille","lat":43.29659,"lon":5.36245,"is_reserved":false,"is_disabled":false,"rental_uris":{"android":"levelo://app?vid=3b22f952-d0bc-4c00-8fd3-7e27b88aea23","ios":"levelo://app?vid=3b22f952-d0bc-4c00-8fd3-7e27b88aea23"},"vehicle_type_id":"4","last_reported":1752063707,"current_range_meters":2800,"station_id":"","pricing_plan_id":"cebpf4jnsgd1na2vs0mg"},{"bike_id":"966cbf4e-5375-45b9-a4f7-7d9cd58673e2","system_id":"levelo_inurba_marseille","lat":43.29874,"lon":5.39735,"is_reserved":false,"is_disabled":false,"rental_uris":{"android":"levelo://app?vid=966cbf4e-5375-45b9-a4f7-7d9cd58673e2","ios":"levelo://app?vid=966cbf4e-5375-45b9-a4f7-7d9cd58673e2"},"vehicle_type_id":"4","last_reported":1752063707,"current_range_meters":2800,"station_id":"ce4bh0h2rcd13ifvqd50","pricing_plan_id":"cebpf4jnsgd1na2vs0mg"},{"bike_id":"3b0aa1f7-8104-4684-bacf-c3a99977512f","system_id":"levelo_inurba_marseille","lat":43.28318,"lon":5.43339,"is_reserved":false,"is_disabled":false,"rental_uris":{"android":"levelo://app?vid=3b0aa1f7-8104-4684-bacf-c3a99977512f","ios":"levelo://app?vid=3b0aa1f7-8104-4684-bacf-c3a99977512f"},"vehicle_type_id":"4","last_reported":1752063707,"current_range_meters":3200,"station_id":"","pricing_plan_id":"cebpf4jnsgd1na2vs0mg"},{"bike_id":"14e7b21f-6a49-4bd8-adcb-9e2a34f46350","system_id":"levelo_inurba_marseille","lat":43.28096,"lon":5.39807,"is_reserved":false,"is_disabled":false,"rental_uris":{"android":"levelo://app?vid=14e7b21f-6a49-4bd8-adcb-9e2a34f46350","ios":"levelo://app?vid=14e7b21f-6a49-4bd8-adcb-9e2a34f46350"},"vehicle_type_id":"4","last_reported":1752063707,"current_range_meters":3200,"station_id":"","pricing_plan_id":"cebpf4jnsgd1na2vs0mg"},{"bike_id":"c98d0307-3157-4a39-9409-864e8e505802","system_id":"levelo_inurba_marseille","lat":43.24163,"lon":5.39362,"is_reserved":false,"is_disabled":false,"rental_uris":{"android":"levelo://app?vid=c98d0307-3157-4a39-9409-864e8e505802","ios":"levelo://app?vid=c98d0307-3157-4a39-9409-864e8e505802"},"vehicle_type_id":"4","last_reported":1752063707,"current_range_meters":3200,"station_id":"","pricing_plan_id":"cebpf4jnsgd1na2vs0mg"},{"bike_id":"b8de4260-d6f3-4d4c-b10a-4a126bf007b8","system_id":"levelo_inurba_marseille","lat":43.31088,"lon":5.37716,"is_reserved":false,"is_disabled":false,"rental_uris":{"android":"levelo://app?vid=b8de4260-d6f3-4d4c-b10a-4a126bf007b8","ios":"levelo://app?vid=b8de4260-d6f3-4d4c-b10a-4a126bf007b8"},"vehicle_type_id":"4","last_reported":1752063707,"current_range_meters":3200,"station_id":"ce4bgt92rcd13ifvqcg0","pricing_plan_id":"cebpf4jnsgd1na2vs0mg"},{"bike_id":"f3d1d3c5-eb50-467f-a28d-f5c9ab435de7","system_id":"levelo_inurba_marseille","lat":43.28855,"lon":5.3586,"is_reserved":false,"is_disabled":false,"rental_uris":{"android":"levelo://app?vid=f3d1d3c5-eb50-467f-a28d-f5c9ab435de7","ios":"levelo://app?vid=f3d1d3c5-eb50-467f-a28d-f5c9ab435de7"},"vehicle_type_id":"4","last_reported":1752063707,"current_range_meters":3200,"station_id":"ce4bhb12rcd13ifvqem0","pricing_plan_id":"cebpf4jnsgd1na2vs0mg"},{"bike_id":"a66e68a1-47fd-46d6-a978-13ee1a1adcd9","system_id":"levelo_inurba_marseille","lat":43.32483,"lon":5.36573,"is_reserved":false,"is_disabled":false,"rental_uris":{"android":"levelo://app?vid=a66e68a1-47fd-46d6-a978-13ee1a1adcd9","ios":"levelo://app?vid=a66e68a1-47fd-46d6-a978-13ee1a1adcd9"},"vehicle_type_id":"4","last_reported":1752063707,"current_range_meters":3200,"station_id":"ce4bhs12rcd13ifvqhvg","pricing_plan_id":"cebpf4jnsgd1na2vs0mg"},{"bike_id":"37f2becd-23f9-4f13-a711-38b8024eeec7","system_id":"levelo_inurba_marseille","lat":43.33768,"lon":5.37516,"is_reserved":false,"is_disabled":false,"rental_uris":{"android":"levelo://app?vid=37f2becd-23f9-4f13-a711-38b8024eeec7","ios":"levelo://app?vid=37f2becd-23f9-4f13-a711-38b8024eeec7"},"vehicle_type_id":"4","last_reported":1752063707,"current_range_meters":3600,"station_id":"","pricing_plan_id":"cebpf4jnsgd1na2vs0mg"},{"bike_id":"0add9098-fa6f-4601-8b33-91c8d0d4c31b","system_id":"levelo_inurba_marseille","lat":43.26202,"lon":5.37933,"is_reserved":false,"is_disabled":false,"rental_uris":{"android":"levelo://app?vid=0add9098-fa6f-4601-8b33-91c8d0d4c31b","ios":"levelo://app?vid=0add9098-fa6f-4601-8b33-91c8d0d4c31b"},"vehicle_type_id":"4","last_reported":1752063707,"current_range_meters":3600,"station_id":"ce4bhjp2rcd13ifvqg90","pricing_plan_id":"cebpf4jnsgd1na2vs0mg"},{"bike_id":"303615e2-b645-47aa-b8dc-d69233e50c42","system_id":"levelo_inurba_marseille","lat":43.298991,"lon":5.436758,"is_reserved":false,"is_disabled":false,"rental_uris":{"android":"levelo://app?vid=303615e2-b645-47aa-b8dc-d69233e50c42","ios":"levelo://app?vid=303615e2-b645-47aa-b8dc-d69233e50c42"},"vehicle_type_id":"4","last_reported":1752063707,"current_range_meters":4000,"station_id":"ce4bhpp2rcd13ifvqhfg","pricing_plan_id":"cebpf4jnsgd1na2vs0mg"},{"bike_id":"2c423baa-ecca-420a-87d7-ad0b7e0b9ebb","system_id":"levelo_inurba_marseille","lat":43.28042,"lon":5.35361,"is_reserved":false,"is_disabled":false,"rental_uris":{"android":"levelo://app?vid=2c423baa-ecca-420a-87d7-ad0b7e0b9ebb","ios":"levelo://app?vid=2c423baa-ecca-420a-87d7-ad0b7e0b9ebb"},"vehicle_type_id":"4","last_reported":1752063707,"current_range_meters":4400,"station_id":"","pricing_plan_id":"cebpf4jnsgd1na2vs0mg"},{"bike_id":"a7135d9c-589f-46ec-82ed-1681c9638bc0","system_id":"levelo_inurba_marseille","lat":43.29364,"lon":5.37841,"is_reserved":false,"is_disabled":false,"rental_uris":{"android":"levelo://app?vid=a7135d9c-589f-46ec-82ed-1681c9638bc0","ios":"levelo://app?vid=a7135d9c-589f-46ec-82ed-1681c9638bc0"},"vehicle_type_id":"4","last_reported":1752063707,"current_range_meters":4800,"station_id":"ce4bgjh2rcd13ifvqbf0","pricing_plan_id":"cebpf4jnsgd1na2vs0mg"},{"bike_id":"4662470d-6627-4e34-836d-98c1355a7899","system_id":"levelo_inurba_marseille","lat":43.289541,"lon":5.363866,"is_reserved":false,"is_disabled":false,"rental_uris":{"android":"levelo://app?vid=4662470d-6627-4e34-836d-98c1355a7899","ios":"levelo://app?vid=4662470d-6627-4e34-836d-98c1355a7899"},"vehicle_type_id":"4","last_reported":1752063707,"current_range_meters":5600,"station_id":"ce4bhc92rcd13ifvqetg","pricing_plan_id":"cebpf4jnsgd1na2vs0mg"},{"bike_id":"8793e523-5eb1-455e-838e-15f85858808e","system_id":"levelo_inurba_marseille","lat":43.21189,"lon":5.3508,"is_reserved":false,"is_disabled":false,"rental_uris":{"android":"levelo://app?vid=8793e523-5eb1-455e-838e-15f85858808e","ios":"levelo://app?vid=8793e523-5eb1-455e-838e-15f85858808e"},"vehicle_type_id":"4","last_reported":1752063707,"current_range_meters":5600,"station_id":"st_cvj6sg6p6f1abm77japg","pricing_plan_id":"cebpf4jnsgd1na2vs0mg"},{"bike_id":"7b9c24ee-bc6e-4c01-81e0-2cbb591d78dc","system_id":"levelo_inurba_marseille","lat":43.29632,"lon":5.40599,"is_reserved":false,"is_disabled":false,"rental_uris":{"android":"levelo://app?vid=7b9c24ee-bc6e-4c01-81e0-2cbb591d78dc","ios":"levelo://app?vid=7b9c24ee-bc6e-4c01-81e0-2cbb591d78dc"},"vehicle_type_id":"4","last_reported":1752063707,"current_range_meters":6000,"station_id":"ce4bh0h2rcd13ifvqd60","pricing_plan_id":"cebpf4jnsgd1na2vs0mg"},{"bike_id":"57f614d9-7828-4f19-8773-b39581186a82","system_id":"levelo_inurba_marseille","lat":43.27369,"lon":5.36262,"is_reserved":false,"is_disabled":false,"rental_uris":{"android":"levelo://app?vid=57f614d9-7828-4f19-8773-b39581186a82","ios":"levelo://app?vid=57f614d9-7828-4f19-8773-b39581186a82"},"vehicle_type_id":"4","last_reported":1752063707,"current_range_meters":6000,"station_id":"ce4bhbh2rcd13ifvqeo0","pricing_plan_id":"cebpf4jnsgd1na2vs0mg"},{"bike_id":"eb3745be-e04f-4d8e-95af-450cf708578b","system_id":"levelo_inurba_marseille","lat":43.30527,"lon":5.36709,"is_reserved":false,"is_disabled":false,"rental_uris":{"android":"levelo://app?vid=eb3745be-e04f-4d8e-95af-450cf708578b","ios":"levelo://app?vid=eb3745be-e04f-4d8e-95af-450cf708578b"},"vehicle_type_id":"4","last_reported":1752063707,"current_range_meters":6400,"station_id":"","pricing_plan_id":"cebpf4jnsgd1na2vs0mg"},{"bike_id":"97e0da00-1981-4f23-82b2-4f748721cd5d","system_id":"levelo_inurba_marseille","lat":43.281039,"lon":5.378314,"is_reserved":false,"is_disabled":false,"rental_uris":{"android":"levelo://app?vid=97e0da00-1981-4f23-82b2-4f748721cd5d","ios":"levelo://app?vid=97e0da00-1981-4f23-82b2-4f748721cd5d"},"vehicle_type_id":"4","last_reported":1752063707,"current_range_meters":6400,"station_id":"ce4bha12rcd13ifvqee0","pricing_plan_id":"cebpf4jnsgd1na2vs0mg"},{"bike_id":"8afc5b85-515d-4f37-9b03-de3983286c8d","system_id":"levelo_inurba_marseille","lat":43.28934,"lon":5.36639,"is_reserved":false,"is_disabled":false,"rental_uris":{"android":"levelo://app?vid=8afc5b85-515d-4f37-9b03-de3983286c8d","ios":"levelo://app?vid=8afc5b85-515d-4f37-9b03-de3983286c8d"},"vehicle_type_id":"4","last_reported":1752063707,"current_range_meters":6400,"station_id":"ce4bhap2rcd13ifvqek0","pricing_plan_id":"cebpf4jnsgd1na2vs0mg"},{"bike_id":"3b638e02-6a55-403d-b500-cc62d0041fbc","system_id":"levelo_inurba_marseille","lat":43.26929,"lon":5.38928,"is_reserved":false,"is_disabled":false,"rental_uris":{"android":"levelo://app?vid=3b638e02-6a55-403d-b500-cc62d0041fbc","ios":"levelo://app?vid=3b638e02-6a55-403d-b500-cc62d0041fbc"},"vehicle_type_id":"4","last_reported":1752063707,"current_range_meters":6400,"station_id":"ce4bhhh2rcd13ifvqfl0","pricing_plan_id":"cebpf4jnsgd1na2vs0mg"},{"bike_id":"bc8ffae8-09ad-4258-ad9e-b6d11d06e0ba","system_id":"levelo_inurba_marseille","lat":43.31344,"lon":5.36716,"is_reserved":false,"is_disabled":false,"rental_uris":{"android":"levelo://app?vid=bc8ffae8-09ad-4258-ad9e-b6d11d06e0ba","ios":"levelo://app?vid=bc8ffae8-09ad-4258-ad9e-b6d11d06e0ba"},"vehicle_type_id":"4","last_reported":1752063707,"current_range_meters":6800,"station_id":"ce4bgr92rcd13ifvqc6g","pricing_plan_id":"cebpf4jnsgd1na2vs0mg"},{"bike_id":"4e3695ed-9142-4281-8b46-844b37b8e2dc","system_id":"levelo_inurba_marseille","lat":43.31688,"lon":5.40471,"is_reserved":false,"is_disabled":false,"rental_uris":{"android":"levelo://app?vid=4e3695ed-9142-4281-8b46-844b37b8e2dc","ios":"levelo://app?vid=4e3695ed-9142-4281-8b46-844b37b8e2dc"},"vehicle_type_id":"4","last_reported":1752063707,"current_range_meters":6800,"station_id":"ce4bh012rcd13ifvqd00","pricing_plan_id":"cebpf4jnsgd1na2vs0mg"},{"bike_id":"b4bac238-1e74-4cc0-b276-c18881ae407f","system_id":"levelo_inurba_marseille","lat":43.27315,"lon":5.39083,"is_reserved":false,"is_disabled":false,"rental_uris":{"android":"levelo://app?vid=b4bac238-1e74-4cc0-b276-c18881ae407f","ios":"levelo://app?vid=b4bac238-1e74-4cc0-b276-c18881ae407f"},"vehicle_type_id":"4","last_reported":1752063707,"current_range_meters":6800,"station_id":"ce4bhgp2rcd13ifvqfe0","pricing_plan_id":"cebpf4jnsgd1na2vs0mg"},{"bike_id":"979d49bf-fc42-4a82-9540-bab46839ea01","system_id":"levelo_inurba_marseille","lat":43.3112,"lon":5.37757,"is_reserved":false,"is_disabled":false,"rental_uris":{"android":"levelo://app?vid=979d49bf-fc42-4a82-9540-bab46839ea01","ios":"levelo://app?vid=979d49bf-fc42-4a82-9540-bab46839ea01"},"vehicle_type_id":"4","last_reported":1752063707,"current_range_meters":7200,"station_id":"ce4bgt92rcd13ifvqcg0","pricing_plan_id":"cebpf4jnsgd1na2vs0mg"},{"bike_id":"bef7a3ea-56d6-4af9-b1f9-97d51c77bf3b","system_id":"levelo_inurba_marseille","lat":43.26555,"lon":5.37293,"is_reserved":false,"is_disabled":false,"rental_uris":{"android":"levelo://app?vid=bef7a3ea-56d6-4af9-b1f9-97d51c77bf3b","ios":"levelo://app?vid=bef7a3ea-56d6-4af9-b1f9-97d51c77bf3b"},"vehicle_type_id":"4","last_reported":1752063707,"current_range_meters":7200,"station_id":"ce4bhg12rcd13ifvqf70","pricing_plan_id":"cebpf4jnsgd1na2vs0mg"},{"bike_id":"373f7154-05e4-4923-8d21-eb4b99691656","system_id":"levelo_inurba_marseille","lat":43.31524,"lon":5.38712,"is_reserved":false,"is_disabled":false,"rental_uris":{"android":"levelo://app?vid=373f7154-05e4-4923-8d21-eb4b99691656","ios":"levelo://app?vid=373f7154-05e4-4923-8d21-eb4b99691656"},"vehicle_type_id":"4","last_reported":1752063707,"current_range_meters":8000,"station_id":"","pricing_plan_id":"cebpf4jnsgd1na2vs0mg"},{"bike_id":"bec02b0a-bb8e-4ac2-921d-ac3ca6644eb8","system_id":"levelo_inurba_marseille","lat":43.299255,"lon":5.37475,"is_reserved":false,"is_disabled":false,"rental_uris":{"android":"levelo://app?vid=bec02b0a-bb8e-4ac2-921d-ac3ca6644eb8","ios":"levelo://app?vid=bec02b0a-bb8e-4ac2-921d-ac3ca6644eb8"},"vehicle_type_id":"4","last_reported":1752063707,"current_range_meters":8000,"station_id":"ce4bgjh2rcd13ifvqbg0","pricing_plan_id":"cebpf4jnsgd1na2vs0mg"},{"bike_id":"c4f85196-d81f-47a3-8720-05006d4c86e7","system_id":"levelo_inurba_marseille","lat":43.25943,"lon":5.40903,"is_reserved":false,"is_disabled":false,"rental_uris":{"android":"levelo://app?vid=c4f85196-d81f-47a3-8720-05006d4c86e7","ios":"levelo://app?vid=c4f85196-d81f-47a3-8720-05006d4c86e7"},"vehicle_type_id":"4","last_reported":1752063707,"current_range_meters":8000,"station_id":"ce4bhm92rcd13ifvqglg","pricing_plan_id":"cebpf4jnsgd1na2vs0mg"},{"bike_id":"888522e3-39b6-4ff3-ad74-ff6c6f771157","system_id":"levelo_inurba_marseille","lat":43.29513,"lon":5.40326,"is_reserved":false,"is_disabled":false,"rental_uris":{"android":"levelo://app?vid=888522e3-39b6-4ff3-ad74-ff6c6f771157","ios":"levelo://app?vid=888522e3-39b6-4ff3-ad74-ff6c6f771157"},"vehicle_type_id":"4","last_reported":1752063707,"current_range_meters":8400,"station_id":"","pricing_plan_id":"cebpf4jnsgd1na2vs0mg"},{"bike_id":"d0b64534-1b05-447f-a929-92f0fcfbd85d","system_id":"levelo_inurba_marseille","lat":43.3209,"lon":5.36766,"is_reserved":false,"is_disabled":false,"rental_uris":{"android":"levelo://app?vid=d0b64534-1b05-447f-a929-92f0fcfbd85d","ios":"levelo://app?vid=d0b64534-1b05-447f-a929-92f0fcfbd85d"},"vehicle_type_id":"4","last_reported":1752063707,"current_range_meters":8400,"station_id":"ce4bhrh2rcd13ifvqhug","pricing_plan_id":"cebpf4jnsgd1na2vs0mg"},{"bike_id":"8d355ab6-4461-49e0-aadf-54d1296aa083","system_id":"levelo_inurba_marseille","lat":43.21745,"lon":5.34609,"is_reserved":false,"is_disabled":false,"rental_uris":{"android":"levelo://app?vid=8d355ab6-4461-49e0-aadf-54d1296aa083","ios":"levelo://app?vid=8d355ab6-4461-49e0-aadf-54d1296aa083"},"vehicle_type_id":"4","last_reported":1752063707,"current_range_meters":8400,"station_id":"st_cvj6r9ubvosntc0bgbag","pricing_plan_id":"cebpf4jnsgd1na2vs0mg"},{"bike_id":"63a29694-4af7-4a38-a698-5b65cb87714a","system_id":"levelo_inurba_marseille","lat":43.32018,"lon":5.40827,"is_reserved":false,"is_disabled":false,"rental_uris":{"android":"levelo://app?vid=63a29694-4af7-4a38-a698-5b65cb87714a","ios":"levelo://app?vid=63a29694-4af7-4a38-a698-5b65cb87714a"},"vehicle_type_id":"4","last_reported":1752063707,"current_range_meters":8800,"station_id":"","pricing_plan_id":"cebpf4jnsgd1na2vs0mg"},{"bike_id":"1fae7385-17e6-4b67-939f-d881940c6d80","system_id":"levelo_inurba_marseille","lat":43.3236,"lon":5.36764,"is_reserved":false,"is_disabled":false,"rental_uris":{"android":"levelo://app?vid=1fae7385-17e6-4b67-939f-d881940c6d80","ios":"levelo://app?vid=1fae7385-17e6-4b67-939f-d881940c6d80"},"vehicle_type_id":"4","last_reported":1752063707,"current_range_meters":8800,"station_id":"ce4bhsh2rcd13ifvqi2g","pricing_plan_id":"cebpf4jnsgd1na2vs0mg"},{"bike_id":"df8bf7ea-7b17-42fa-9499-904ad642cac7","system_id":"levelo_inurba_marseille","lat":43.30737,"lon":5.42451,"is_reserved":false,"is_disabled":false,"rental_uris":{"android":"levelo://app?vid=df8bf7ea-7b17-42fa-9499-904ad642cac7","ios":"levelo://app?vid=df8bf7ea-7b17-42fa-9499-904ad642cac7"},"vehicle_type_id":"4","last_reported":1752063707,"current_range_meters":8800,"station_id":"st_cvj6ca6bvosntc0bfgr0","pricing_plan_id":"cebpf4jnsgd1na2vs0mg"},{"bike_id":"069759f3-8488-4973-b337-5e447fc27e24","system_id":"levelo_inurba_marseille","lat":43.21199,"lon":5.35097,"is_reserved":false,"is_disabled":false,"rental_uris":{"android":"levelo://app?vid=069759f3-8488-4973-b337-5e447fc27e24","ios":"levelo://app?vid=069759f3-8488-4973-b337-5e447fc27e24"},"vehicle_type_id":"4","last_reported":1752063707,"current_range_meters":8800,"station_id":"st_cvj6sg6p6f1abm77japg","pricing_plan_id":"cebpf4jnsgd1na2vs0mg"},{"bike_id":"6cde8caf-1756-453c-88e0-a2cf34da7410","system_id":"levelo_inurba_marseille","lat":43.313511,"lon":5.367197,"is_reserved":false,"is_disabled":false,"rental_uris":{"android":"levelo://app?vid=6cde8caf-1756-453c-88e0-a2cf34da7410","ios":"levelo://app?vid=6cde8caf-1756-453c-88e0-a2cf34da7410"},"vehicle_type_id":"4","last_reported":1752063707,"current_range_meters":9200,"station_id":"ce4bgr92rcd13ifvqc6g","pricing_plan_id":"cebpf4jnsgd1na2vs0mg"},{"bike_id":"5dd31c92-dccb-4c98-bf89-618bd17ccc43","system_id":"levelo_inurba_marseille","lat":43.316878,"lon":5.4047,"is_reserved":false,"is_disabled":false,"rental_uris":{"android":"levelo://app?vid=5dd31c92-dccb-4c98-bf89-618bd17ccc43","ios":"levelo://app?vid=5dd31c92-dccb-4c98-bf89-618bd17ccc43"},"vehicle_type_id":"4","last_reported":1752063707,"current_range_meters":9200,"station_id":"ce4bh012rcd13ifvqd00","pricing_plan_id":"cebpf4jnsgd1na2vs0mg"},{"bike_id":"e34e36fc-18f3-47ed-9139-e8d48e75c385","system_id":"levelo_inurba_marseille","lat":43.28419,"lon":5.34972,"is_reserved":false,"is_disabled":false,"rental_uris":{"android":"levelo://app?vid=e34e36fc-18f3-47ed-9139-e8d48e75c385","ios":"levelo://app?vid=e34e36fc-18f3-47ed-9139-e8d48e75c385"},"vehicle_type_id":"4","last_reported":1752063707,"current_range_meters":9200,"station_id":"ce4bhbh2rcd13ifvqepg","pricing_plan_id":"cebpf4jnsgd1na2vs0mg"},{"bike_id":"530a1f9c-8d35-4f41-9a21-4196e947e528","system_id":"levelo_inurba_marseille","lat":43.26792,"lon":5.395158,"is_reserved":false,"is_disabled":false,"rental_uris":{"android":"levelo://app?vid=530a1f9c-8d35-4f41-9a21-4196e947e528","ios":"levelo://app?vid=530a1f9c-8d35-4f41-9a21-4196e947e528"},"vehicle_type_id":"4","last_reported":1752063707,"current_range_meters":9200,"station_id":"ce4bhh12rcd13ifvqfg0","pricing_plan_id":"cebpf4jnsgd1na2vs0mg"},{"bike_id":"25493f11-a045-496a-9610-993de9c3ef8f","system_id":"levelo_inurba_marseille","lat":43.29939,"lon":5.36553,"is_reserved":false,"is_disabled":false,"rental_uris":{"android":"levelo://app?vid=25493f11-a045-496a-9610-993de9c3ef8f","ios":"levelo://app?vid=25493f11-a045-496a-9610-993de9c3ef8f"},"vehicle_type_id":"4","last_reported":1752063707,"current_range_meters":9600,"station_id":"ce4bgm92rcd13ifvqbr0","pricing_plan_id":"cebpf4jnsgd1na2vs0mg"},{"bike_id":"251561ea-6d0f-4d47-a4a1-af268aaa9cfc","system_id":"levelo_inurba_marseille","lat":43.30613,"lon":5.37243,"is_reserved":false,"is_disabled":false,"rental_uris":{"android":"levelo://app?vid=251561ea-6d0f-4d47-a4a1-af268aaa9cfc","ios":"levelo://app?vid=251561ea-6d0f-4d47-a4a1-af268aaa9cfc"},"vehicle_type_id":"4","last_reported":1752063707,"current_range_meters":9600,"station_id":"ce4bgqh2rcd13ifvqc4g","pricing_plan_id":"cebpf4jnsgd1na2vs0mg"},{"bike_id":"7dd4258d-8fe1-466b-bba8-036a896c4262","system_id":"levelo_inurba_marseille","lat":43.231954,"lon":5.355563,"is_reserved":false,"is_disabled":false,"rental_uris":{"android":"levelo://app?vid=7dd4258d-8fe1-466b-bba8-036a896c4262","ios":"levelo://app?vid=7dd4258d-8fe1-466b-bba8-036a896c4262"},"vehicle_type_id":"4","last_reported":1752063707,"current_range_meters":9600,"station_id":"ce4bhu92rcd13ifvqi70","pricing_plan_id":"cebpf4jnsgd1na2vs0mg"},{"bike_id":"7d933cef-15cf-47fc-812c-894d3d9bd172","system_id":"levelo_inurba_marseille","lat":43.21747,"lon":5.34615,"is_reserved":false,"is_disabled":false,"rental_uris":{"android":"levelo://app?vid=7d933cef-15cf-47fc-812c-894d3d9bd172","ios":"levelo://app?vid=7d933cef-15cf-47fc-812c-894d3d9bd172"},"vehicle_type_id":"4","last_reported":1752063707,"current_range_meters":9600,"station_id":"st_cvj6r9ubvosntc0bgbag","pricing_plan_id":"cebpf4jnsgd1na2vs0mg"},{"bike_id":"3030cb07-c041-4d87-a253-8c849c24aa85","system_id":"levelo_inurba_marseille","lat":43.32666,"lon":5.36209,"is_reserved":false,"is_disabled":false,"rental_uris":{"android":"levelo://app?vid=3030cb07-c041-4d87-a253-8c849c24aa85","ios":"levelo://app?vid=3030cb07-c041-4d87-a253-8c849c24aa85"},"vehicle_type_id":"4","last_reported":1752063707,"current_range_meters":10000,"station_id":"","pricing_plan_id":"cebpf4jnsgd1na2vs0mg"},{"bike_id":"44f26f35-64a1-4c89-a1e7-a4dae1cf9621","system_id":"levelo_inurba_marseille","lat":43.30323,"lon":5.36906,"is_reserved":false,"is_disabled":false,"rental_uris":{"android":"levelo://app?vid=44f26f35-64a1-4c89-a1e7-a4dae1cf9621","ios":"levelo://app?vid=44f26f35-64a1-4c89-a1e7-a4dae1cf9621"},"vehicle_type_id":"4","last_reported":1752063707,"current_range_meters":10000,"station_id":"ce4bgqh2rcd13ifvqc5g","pricing_plan_id":"cebpf4jnsgd1na2vs0mg"},{"bike_id":"8acbaea8-493d-463d-a24c-af3677a34ac0","system_id":"levelo_inurba_marseille","lat":43.28111,"lon":5.37833,"is_reserved":false,"is_disabled":false,"rental_uris":{"android":"levelo://app?vid=8acbaea8-493d-463d-a24c-af3677a34ac0","ios":"levelo://app?vid=8acbaea8-493d-463d-a24c-af3677a34ac0"},"vehicle_type_id":"4","last_reported":1752063707,"current_range_meters":10000,"station_id":"ce4bha12rcd13ifvqee0","pricing_plan_id":"cebpf4jnsgd1na2vs0mg"},{"bike_id":"cf2b72de-f2ee-43e4-84e6-90c422aaac69","system_id":"levelo_inurba_marseille","lat":43.26214,"lon":5.37443,"is_reserved":false,"is_disabled":false,"rental_uris":{"android":"levelo://app?vid=cf2b72de-f2ee-43e4-84e6-90c422aaac69","ios":"levelo://app?vid=cf2b72de-f2ee-43e4-84e6-90c422aaac69"},"vehicle_type_id":"4","last_reported":1752063707,"current_range_meters":10000,"station_id":"ce4bhgp2rcd13ifvqfc0","pricing_plan_id":"cebpf4jnsgd1na2vs0mg"},{"bike_id":"c1dfe0b9-49ee-4c7d-b4b9-1421b06c7da0","system_id":"levelo_inurba_marseille","lat":43.24391,"lon":5.37064,"is_reserved":false,"is_disabled":false,"rental_uris":{"android":"levelo://app?vid=c1dfe0b9-49ee-4c7d-b4b9-1421b06c7da0","ios":"levelo://app?vid=c1dfe0b9-49ee-4c7d-b4b9-1421b06c7da0"},"vehicle_type_id":"4","last_reported":1752063707,"current_range_meters":10000,"station_id":"ce4bhhh2rcd13ifvqfk0","pricing_plan_id":"cebpf4jnsgd1na2vs0mg"},{"bike_id":"a5ade55b-5452-4494-b856-af187b8bde8f","system_id":"levelo_inurba_marseille","lat":43.2694,"lon":5.38937,"is_reserved":false,"is_disabled":false,"rental_uris":{"android":"levelo://app?vid=a5ade55b-5452-4494-b856-af187b8bde8f","ios":"levelo://app?vid=a5ade55b-5452-4494-b856-af187b8bde8f"},"vehicle_type_id":"4","last_reported":1752063707,"current_range_meters":10000,"station_id":"ce4bhhh2rcd13ifvqfl0","pricing_plan_id":"cebpf4jnsgd1na2vs0mg"},{"bike_id":"87c2d236-4978-4760-be77-27d7f5a212e4","system_id":"levelo_inurba_marseille","lat":43.29644,"lon":5.36205,"is_reserved":false,"is_disabled":false,"rental_uris":{"android":"levelo://app?vid=87c2d236-4978-4760-be77-27d7f5a212e4","ios":"levelo://app?vid=87c2d236-4978-4760-be77-27d7f5a212e4"},"vehicle_type_id":"4","last_reported":1752063707,"current_range_meters":10800,"station_id":"","pricing_plan_id":"cebpf4jnsgd1na2vs0mg"},{"bike_id":"bd7d9eb4-eb2a-400e-9d15-74235b12002f","system_id":"levelo_inurba_marseille","lat":43.30782,"lon":5.37639,"is_reserved":false,"is_disabled":false,"rental_uris":{"android":"levelo://app?vid=bd7d9eb4-eb2a-400e-9d15-74235b12002f","ios":"levelo://app?vid=bd7d9eb4-eb2a-400e-9d15-74235b12002f"},"vehicle_type_id":"4","last_reported":1752063707,"current_range_meters":10800,"station_id":"ce4bgv92rcd13ifvqcq0","pricing_plan_id":"cebpf4jnsgd1na2vs0mg"},{"bike_id":"88d7c337-2a38-438a-a1e1-c3b17982e1cc","system_id":"levelo_inurba_marseille","lat":43.27377,"lon":5.36266,"is_reserved":false,"is_disabled":false,"rental_uris":{"android":"levelo://app?vid=88d7c337-2a38-438a-a1e1-c3b17982e1cc","ios":"levelo://app?vid=88d7c337-2a38-438a-a1e1-c3b17982e1cc"},"vehicle_type_id":"4","last_reported":1752063707,"current_range_meters":10800,"station_id":"ce4bhbh2rcd13ifvqeo0","pricing_plan_id":"cebpf4jnsgd1na2vs0mg"},{"bike_id":"685e076d-e78d-47f2-9691-f184b1c50742","system_id":"levelo_inurba_marseille","lat":43.25582,"lon":5.38233,"is_reserved":false,"is_disabled":false,"rental_uris":{"android":"levelo://app?vid=685e076d-e78d-47f2-9691-f184b1c50742","ios":"levelo://app?vid=685e076d-e78d-47f2-9691-f184b1c50742"},"vehicle_type_id":"4","last_reported":1752063707,"current_range_meters":10800,"station_id":"ce4bhih2rcd13ifvqfs0","pricing_plan_id":"cebpf4jnsgd1na2vs0mg"},{"bike_id":"4327d4db-60ea-4c75-b771-5267cb0500da","system_id":"levelo_inurba_marseille","lat":43.29969,"lon":5.41326,"is_reserved":false,"is_disabled":false,"rental_uris":{"android":"levelo://app?vid=4327d4db-60ea-4c75-b771-5267cb0500da","ios":"levelo://app?vid=4327d4db-60ea-4c75-b771-5267cb0500da"},"vehicle_type_id":"4","last_reported":1752063707,"current_range_meters":11200,"station_id":"ce4bhp12rcd13ifvqh9g","pricing_plan_id":"cebpf4jnsgd1na2vs0mg"},{"bike_id":"d28bb38a-dd5c-4f1f-b896-a538964b2b49","system_id":"levelo_inurba_marseille","lat":43.32046,"lon":5.41549,"is_reserved":false,"is_disabled":false,"rental_uris":{"android":"levelo://app?vid=d28bb38a-dd5c-4f1f-b896-a538964b2b49","ios":"levelo://app?vid=d28bb38a-dd5c-4f1f-b896-a538964b2b49"},"vehicle_type_id":"4","last_reported":1752063707,"current_range_meters":11200,"station_id":"ce4bhq92rcd13ifvqhkg","pricing_plan_id":"cebpf4jnsgd1na2vs0mg"},{"bike_id":"20904a9f-6955-47a0-a760-4d70dd099470","system_id":"levelo_inurba_marseille","lat":43.23302,"lon":5.40053,"is_reserved":false,"is_disabled":false,"rental_uris":{"android":"levelo://app?vid=20904a9f-6955-47a0-a760-4d70dd099470","ios":"levelo://app?vid=20904a9f-6955-47a0-a760-4d70dd099470"},"vehicle_type_id":"4","last_reported":1752063707,"current_range_meters":11600,"station_id":"","pricing_plan_id":"cebpf4jnsgd1na2vs0mg"},{"bike_id":"3bd8b8a3-512e-4c45-8839-c2f9349ff4ec","system_id":"levelo_inurba_marseille","lat":43.21747,"lon":5.34608,"is_reserved":false,"is_disabled":false,"rental_uris":{"android":"levelo://app?vid=3bd8b8a3-512e-4c45-8839-c2f9349ff4ec","ios":"levelo://app?vid=3bd8b8a3-512e-4c45-8839-c2f9349ff4ec"},"vehicle_type_id":"4","last_reported":1752063707,"current_range_meters":11600,"station_id":"","pricing_plan_id":"cebpf4jnsgd1na2vs0mg"},{"bike_id":"8aa56a6a-b6ff-4a94-9380-680f03852d53","system_id":"levelo_inurba_marseille","lat":43.337699,"lon":5.374282,"is_reserved":false,"is_disabled":false,"rental_uris":{"android":"levelo://app?vid=8aa56a6a-b6ff-4a94-9380-680f03852d53","ios":"levelo://app?vid=8aa56a6a-b6ff-4a94-9380-680f03852d53"},"vehicle_type_id":"4","last_reported":1752063707,"current_range_meters":11600,"station_id":"","pricing_plan_id":"cebpf4jnsgd1na2vs0mg"},{"bike_id":"0b2e9309-cc45-4c40-88a8-e4827677cf5a","system_id":"levelo_inurba_marseille","lat":43.292587,"lon":5.365446,"is_reserved":false,"is_disabled":false,"rental_uris":{"android":"levelo://app?vid=0b2e9309-cc45-4c40-88a8-e4827677cf5a","ios":"levelo://app?vid=0b2e9309-cc45-4c40-88a8-e4827677cf5a"},"vehicle_type_id":"4","last_reported":1752063707,"current_range_meters":11600,"station_id":"ce4bhbp2rcd13ifvqesg","pricing_plan_id":"cebpf4jnsgd1na2vs0mg"},{"bike_id":"a74d1421-7a37-499b-b1c4-5e1394842b7e","system_id":"levelo_inurba_marseille","lat":43.337181,"lon":5.391761,"is_reserved":false,"is_disabled":false,"rental_uris":{"android":"levelo://app?vid=a74d1421-7a37-499b-b1c4-5e1394842b7e","ios":"levelo://app?vid=a74d1421-7a37-499b-b1c4-5e1394842b7e"},"vehicle_type_id":"4","last_reported":1752063707,"current_range_meters":11600,"station_id":"ce4bhr92rcd13ifvqhsg","pricing_plan_id":"cebpf4jnsgd1na2vs0mg"},{"bike_id":"34775ba0-ef64-446b-a197-fa80cd394d2b","system_id":"levelo_inurba_marseille","lat":43.21187,"lon":5.35077,"is_reserved":false,"is_disabled":false,"rental_uris":{"android":"levelo://app?vid=34775ba0-ef64-446b-a197-fa80cd394d2b","ios":"levelo://app?vid=34775ba0-ef64-446b-a197-fa80cd394d2b"},"vehicle_type_id":"4","last_reported":1752063707,"current_range_meters":11600,"station_id":"st_cvj6sg6p6f1abm77japg","pricing_plan_id":"cebpf4jnsgd1na2vs0mg"},{"bike_id":"f14db3f3-58d1-4920-88dc-f29ae9bcb72e","system_id":"levelo_inurba_marseille","lat":43.27364,"lon":5.36251,"is_reserved":false,"is_disabled":false,"rental_uris":{"android":"levelo://app?vid=f14db3f3-58d1-4920-88dc-f29ae9bcb72e","ios":"levelo://app?vid=f14db3f3-58d1-4920-88dc-f29ae9bcb72e"},"vehicle_type_id":"4","last_reported":1752063707,"current_range_meters":12000,"station_id":"ce4bhbh2rcd13ifvqeo0","pricing_plan_id":"cebpf4jnsgd1na2vs0mg"},{"bike_id":"b5275804-ca34-4a96-b4b1-b33ba434982e","system_id":"levelo_inurba_marseille","lat":43.289395,"lon":5.364005,"is_reserved":false,"is_disabled":false,"rental_uris":{"android":"levelo://app?vid=b5275804-ca34-4a96-b4b1-b33ba434982e","ios":"levelo://app?vid=b5275804-ca34-4a96-b4b1-b33ba434982e"},"vehicle_type_id":"4","last_reported":1752063707,"current_range_meters":12000,"station_id":"ce4bhc92rcd13ifvqetg","pricing_plan_id":"cebpf4jnsgd1na2vs0mg"},{"bike_id":"ca2bab86-416f-413e-81b0-5002099ee069","system_id":"levelo_inurba_marseille","lat":43.27625,"lon":5.41966,"is_reserved":false,"is_disabled":false,"rental_uris":{"android":"levelo://app?vid=ca2bab86-416f-413e-81b0-5002099ee069","ios":"levelo://app?vid=ca2bab86-416f-413e-81b0-5002099ee069"},"vehicle_type_id":"4","last_reported":1752063707,"current_range_meters":12400,"station_id":"","pricing_plan_id":"cebpf4jnsgd1na2vs0mg"},{"bike_id":"840281e7-03cf-4e27-8ab0-ed5dcfb45157","system_id":"levelo_inurba_marseille","lat":43.30903,"lon":5.36864,"is_reserved":false,"is_disabled":false,"rental_uris":{"android":"levelo://app?vid=840281e7-03cf-4e27-8ab0-ed5dcfb45157","ios":"levelo://app?vid=840281e7-03cf-4e27-8ab0-ed5dcfb45157"},"vehicle_type_id":"4","last_reported":1752063707,"current_range_meters":12400,"station_id":"ce4bgn92rcd13ifvqbvg","pricing_plan_id":"cebpf4jnsgd1na2vs0mg"},{"bike_id":"84e7e709-4e4f-4764-818c-af719435bfca","system_id":"levelo_inurba_marseille","lat":43.31782,"lon":5.37459,"is_reserved":false,"is_disabled":false,"rental_uris":{"android":"levelo://app?vid=84e7e709-4e4f-4764-818c-af719435bfca","ios":"levelo://app?vid=84e7e709-4e4f-4764-818c-af719435bfca"},"vehicle_type_id":"4","last_reported":1752063707,"current_range_meters":12800,"station_id":"","pricing_plan_id":"cebpf4jnsgd1na2vs0mg"},{"bike_id":"82bab17e-29a0-4592-9ae8-9d79eb052225","system_id":"levelo_inurba_marseille","lat":43.2668,"lon":5.38269,"is_reserved":false,"is_disabled":false,"rental_uris":{"android":"levelo://app?vid=82bab17e-29a0-4592-9ae8-9d79eb052225","ios":"levelo://app?vid=82bab17e-29a0-4592-9ae8-9d79eb052225"},"vehicle_type_id":"4","last_reported":1752063707,"current_range_meters":12800,"station_id":"ce4bhg92rcd13ifvqf90","pricing_plan_id":"cebpf4jnsgd1na2vs0mg"},{"bike_id":"a5a1db4c-4dcc-46e5-a84f-c0fb8283b97a","system_id":"levelo_inurba_marseille","lat":43.24085,"lon":5.37765,"is_reserved":false,"is_disabled":false,"rental_uris":{"android":"levelo://app?vid=a5a1db4c-4dcc-46e5-a84f-c0fb8283b97a","ios":"levelo://app?vid=a5a1db4c-4dcc-46e5-a84f-c0fb8283b97a"},"vehicle_type_id":"4","last_reported":1752063707,"current_range_meters":12800,"station_id":"ce4bhnp2rcd13ifvqgvg","pricing_plan_id":"cebpf4jnsgd1na2vs0mg"},{"bike_id":"641fa15e-cfec-46f9-86be-6bc5c2530962","system_id":"levelo_inurba_marseille","lat":43.32069,"lon":5.4155,"is_reserved":false,"is_disabled":false,"rental_uris":{"android":"levelo://app?vid=641fa15e-cfec-46f9-86be-6bc5c2530962","ios":"levelo://app?vid=641fa15e-cfec-46f9-86be-6bc5c2530962"},"vehicle_type_id":"4","last_reported":1752063707,"current_range_meters":12800,"station_id":"ce4bhq92rcd13ifvqhkg","pricing_plan_id":"cebpf4jnsgd1na2vs0mg"},{"bike_id":"0818bffc-8329-40b4-975d-b89bc0e88ee0","system_id":"levelo_inurba_marseille","lat":43.30314,"lon":5.36904,"is_reserved":false,"is_disabled":false,"rental_uris":{"android":"levelo://app?vid=0818bffc-8329-40b4-975d-b89bc0e88ee0","ios":"levelo://app?vid=0818bffc-8329-40b4-975d-b89bc0e88ee0"},"vehicle_type_id":"4","last_reported":1752063707,"current_range_meters":13600,"station_id":"ce4bgqh2rcd13ifvqc5g","pricing_plan_id":"cebpf4jnsgd1na2vs0mg"},{"bike_id":"db809e37-3097-4853-a0a7-f5c4fd265e11","system_id":"levelo_inurba_marseille","lat":43.24375,"lon":5.37069,"is_reserved":false,"is_disabled":false,"rental_uris":{"android":"levelo://app?vid=db809e37-3097-4853-a0a7-f5c4fd265e11","ios":"levelo://app?vid=db809e37-3097-4853-a0a7-f5c4fd265e11"},"vehicle_type_id":"4","last_reported":1752063707,"current_range_meters":13600,"station_id":"ce4bhhh2rcd13ifvqfk0","pricing_plan_id":"cebpf4jnsgd1na2vs0mg"},{"bike_id":"34b55799-542c-46b7-822d-1daf5f1fbae9","system_id":"levelo_inurba_marseille","lat":43.24193,"lon":5.39755,"is_reserved":false,"is_disabled":false,"rental_uris":{"android":"levelo://app?vid=34b55799-542c-46b7-822d-1daf5f1fbae9","ios":"levelo://app?vid=34b55799-542c-46b7-822d-1daf5f1fbae9"},"vehicle_type_id":"4","last_reported":1752063707,"current_range_meters":13600,"station_id":"ce4bhn12rcd13ifvqgpg","pricing_plan_id":"cebpf4jnsgd1na2vs0mg"},{"bike_id":"308997f7-9cfd-4afe-9fb5-3237642119ea","system_id":"levelo_inurba_marseille","lat":43.217465,"lon":5.346028,"is_reserved":false,"is_disabled":false,"rental_uris":{"android":"levelo://app?vid=308997f7-9cfd-4afe-9fb5-3237642119ea","ios":"levelo://app?vid=308997f7-9cfd-4afe-9fb5-3237642119ea"},"vehicle_type_id":"4","last_reported":1752063707,"current_range_meters":13600,"station_id":"st_cvj6r9ubvosntc0bgbag","pricing_plan_id":"cebpf4jnsgd1na2vs0mg"},{"bike_id":"7e865697-badc-47e7-9029-aa4579105f60","system_id":"levelo_inurba_marseille","lat":43.313443,"lon":5.367255,"is_reserved":false,"is_disabled":false,"rental_uris":{"android":"levelo://app?vid=7e865697-badc-47e7-9029-aa4579105f60","ios":"levelo://app?vid=7e865697-badc-47e7-9029-aa4579105f60"},"vehicle_type_id":"4","last_reported":1752063707,"current_range_meters":14000,"station_id":"ce4bgr92rcd13ifvqc6g","pricing_plan_id":"cebpf4jnsgd1na2vs0mg"},{"bike_id":"421200e2-9629-4c28-965b-323d48741a9f","system_id":"levelo_inurba_marseille","lat":43.30563,"lon":5.36542,"is_reserved":false,"is_disabled":false,"rental_uris":{"android":"levelo://app?vid=421200e2-9629-4c28-965b-323d48741a9f","ios":"levelo://app?vid=421200e2-9629-4c28-965b-323d48741a9f"},"vehicle_type_id":"4","last_reported":1752063707,"current_range_meters":14000,"station_id":"ce4bgs12rcd13ifvqcag","pricing_plan_id":"cebpf4jnsgd1na2vs0mg"},{"bike_id":"55740308-bfe8-4441-a963-d74ab931ccf7","system_id":"levelo_inurba_marseille","lat":43.28726,"lon":5.37936,"is_reserved":false,"is_disabled":false,"rental_uris":{"android":"levelo://app?vid=55740308-bfe8-4441-a963-d74ab931ccf7","ios":"levelo://app?vid=55740308-bfe8-4441-a963-d74ab931ccf7"},"vehicle_type_id":"4","last_reported":1752063707,"current_range_meters":14000,"station_id":"ce4bh9p2rcd13ifvqec0","pricing_plan_id":"cebpf4jnsgd1na2vs0mg"},{"bike_id":"4d0d3830-c9ab-42f3-a9e9-f7537f407d61","system_id":"levelo_inurba_marseille","lat":43.28946,"lon":5.36389,"is_reserved":false,"is_disabled":false,"rental_uris":{"android":"levelo://app?vid=4d0d3830-c9ab-42f3-a9e9-f7537f407d61","ios":"levelo://app?vid=4d0d3830-c9ab-42f3-a9e9-f7537f407d61"},"vehicle_type_id":"4","last_reported":1752063707,"current_range_meters":14000,"station_id":"ce4bhc92rcd13ifvqetg","pricing_plan_id":"cebpf4jnsgd1na2vs0mg"},{"bike_id":"ac39d365-5643-4610-bf4b-0e5167a77f88","system_id":"levelo_inurba_marseille","lat":43.33729,"lon":5.39187,"is_reserved":false,"is_disabled":false,"rental_uris":{"android":"levelo://app?vid=ac39d365-5643-4610-bf4b-0e5167a77f88","ios":"levelo://app?vid=ac39d365-5643-4610-bf4b-0e5167a77f88"},"vehicle_type_id":"4","last_reported":1752063707,"current_range_meters":14000,"station_id":"ce4bhr92rcd13ifvqhsg","pricing_plan_id":"cebpf4jnsgd1na2vs0mg"},{"bike_id":"4975b22d-8c48-452f-bd19-7a9d3ed7c378","system_id":"levelo_inurba_marseille","lat":43.29676,"lon":5.37424,"is_reserved":false,"is_disabled":false,"rental_uris":{"android":"levelo://app?vid=4975b22d-8c48-452f-bd19-7a9d3ed7c378","ios":"levelo://app?vid=4975b22d-8c48-452f-bd19-7a9d3ed7c378"},"vehicle_type_id":"4","last_reported":1752063707,"current_range_meters":14400,"station_id":"","pricing_plan_id":"cebpf4jnsgd1na2vs0mg"},{"bike_id":"f573a8fb-f1f8-47c4-901e-ddf2739a5cca","system_id":"levelo_inurba_marseille","lat":43.35999,"lon":5.32485,"is_reserved":false,"is_disabled":false,"rental_uris":{"android":"levelo://app?vid=f573a8fb-f1f8-47c4-901e-ddf2739a5cca","ios":"levelo://app?vid=f573a8fb-f1f8-47c4-901e-ddf2739a5cca"},"vehicle_type_id":"4","last_reported":1752063707,"current_range_meters":14400,"station_id":"","pricing_plan_id":"cebpf4jnsgd1na2vs0mg"},{"bike_id":"4c870498-63c3-4b47-a4eb-c53212d2fead","system_id":"levelo_inurba_marseille","lat":43.29959,"lon":5.384884,"is_reserved":false,"is_disabled":false,"rental_uris":{"android":"levelo://app?vid=4c870498-63c3-4b47-a4eb-c53212d2fead","ios":"levelo://app?vid=4c870498-63c3-4b47-a4eb-c53212d2fead"},"vehicle_type_id":"4","last_reported":1752063707,"current_range_meters":14400,"station_id":"ce4bgj92rcd13ifvqbd0","pricing_plan_id":"cebpf4jnsgd1na2vs0mg"},{"bike_id":"c2b72fe0-bae6-4c7b-ad48-9e771b203dc8","system_id":"levelo_inurba_marseille","lat":43.313662,"lon":5.384726,"is_reserved":false,"is_disabled":false,"rental_uris":{"android":"levelo://app?vid=c2b72fe0-bae6-4c7b-ad48-9e771b203dc8","ios":"levelo://app?vid=c2b72fe0-bae6-4c7b-ad48-9e771b203dc8"},"vehicle_type_id":"4","last_reported":1752063707,"current_range_meters":14400,"station_id":"ce4bgt92rcd13ifvqcf0","pricing_plan_id":"cebpf4jnsgd1na2vs0mg"},{"bike_id":"def393e8-113f-4e78-9ad2-c13312db0c80","system_id":"levelo_inurba_marseille","lat":43.289539,"lon":5.363917,"is_reserved":false,"is_disabled":false,"rental_uris":{"android":"levelo://app?vid=def393e8-113f-4e78-9ad2-c13312db0c80","ios":"levelo://app?vid=def393e8-113f-4e78-9ad2-c13312db0c80"},"vehicle_type_id":"4","last_reported":1752063707,"current_range_meters":14400,"station_id":"ce4bhc92rcd13ifvqetg","pricing_plan_id":"cebpf4jnsgd1na2vs0mg"},{"bike_id":"dd5e8d86-8239-450c-9766-d3049badf889","system_id":"levelo_inurba_marseille","lat":43.2668,"lon":5.38269,"is_reserved":false,"is_disabled":false,"rental_uris":{"android":"levelo://app?vid=dd5e8d86-8239-450c-9766-d3049badf889","ios":"levelo://app?vid=dd5e8d86-8239-450c-9766-d3049badf889"},"vehicle_type_id":"4","last_reported":1752063707,"current_range_meters":14400,"station_id":"ce4bhg92rcd13ifvqf90","pricing_plan_id":"cebpf4jnsgd1na2vs0mg"},{"bike_id":"aa407cd2-3187-4c9f-a878-5597653f12b8","system_id":"levelo_inurba_marseille","lat":43.26786,"lon":5.39428,"is_reserved":false,"is_disabled":false,"rental_uris":{"android":"levelo://app?vid=aa407cd2-3187-4c9f-a878-5597653f12b8","ios":"levelo://app?vid=aa407cd2-3187-4c9f-a878-5597653f12b8"},"vehicle_type_id":"4","last_reported":1752063707,"current_range_meters":14400,"station_id":"ce4bhh12rcd13ifvqfg0","pricing_plan_id":"cebpf4jnsgd1na2vs0mg"},{"bike_id":"ffeb38c5-c0f3-49b6-b568-21b80dfd5945","system_id":"levelo_inurba_marseille","lat":43.25012,"lon":5.38937,"is_reserved":false,"is_disabled":false,"rental_uris":{"android":"levelo://app?vid=ffeb38c5-c0f3-49b6-b568-21b80dfd5945","ios":"levelo://app?vid=ffeb38c5-c0f3-49b6-b568-21b80dfd5945"},"vehicle_type_id":"4","last_reported":1752063707,"current_range_meters":14800,"station_id":"ce4bhgp2rcd13ifvqfd0","pricing_plan_id":"cebpf4jnsgd1na2vs0mg"},{"bike_id":"680e7fe5-1fc7-41e4-be3a-7c68cd315ba3","system_id":"levelo_inurba_marseille","lat":43.255,"lon":5.37654,"is_reserved":false,"is_disabled":false,"rental_uris":{"android":"levelo://app?vid=680e7fe5-1fc7-41e4-be3a-7c68cd315ba3","ios":"levelo://app?vid=680e7fe5-1fc7-41e4-be3a-7c68cd315ba3"},"vehicle_type_id":"4","last_reported":1752063707,"current_range_meters":14800,"station_id":"ce4bhh12rcd13ifvqff0","pricing_plan_id":"cebpf4jnsgd1na2vs0mg"},{"bike_id":"b62a261c-d8c1-4551-8d77-d43d14e1b099","system_id":"levelo_inurba_marseille","lat":43.27813,"lon":5.40717,"is_reserved":false,"is_disabled":false,"rental_uris":{"android":"levelo://app?vid=b62a261c-d8c1-4551-8d77-d43d14e1b099","ios":"levelo://app?vid=b62a261c-d8c1-4551-8d77-d43d14e1b099"},"vehicle_type_id":"4","last_reported":1752063707,"current_range_meters":14800,"station_id":"ce4bhnh2rcd13ifvqgtg","pricing_plan_id":"cebpf4jnsgd1na2vs0mg"},{"bike_id":"57365d80-ff03-48b3-937f-65bdaac2d3ec","system_id":"levelo_inurba_marseille","lat":43.32475,"lon":5.36577,"is_reserved":false,"is_disabled":false,"rental_uris":{"android":"levelo://app?vid=57365d80-ff03-48b3-937f-65bdaac2d3ec","ios":"levelo://app?vid=57365d80-ff03-48b3-937f-65bdaac2d3ec"},"vehicle_type_id":"4","last_reported":1752063707,"current_range_meters":14800,"station_id":"ce4bhs12rcd13ifvqhvg","pricing_plan_id":"cebpf4jnsgd1na2vs0mg"},{"bike_id":"b2caa530-bb19-4cc6-a6bd-61e3e1d7432e","system_id":"levelo_inurba_marseille","lat":43.33763,"lon":5.37461,"is_reserved":false,"is_disabled":false,"rental_uris":{"android":"levelo://app?vid=b2caa530-bb19-4cc6-a6bd-61e3e1d7432e","ios":"levelo://app?vid=b2caa530-bb19-4cc6-a6bd-61e3e1d7432e"},"vehicle_type_id":"4","last_reported":1752063707,"current_range_meters":15200,"station_id":"","pricing_plan_id":"cebpf4jnsgd1na2vs0mg"},{"bike_id":"4fdbd943-48f6-4df8-be61-4fa82b20b8f5","system_id":"levelo_inurba_marseille","lat":43.29039,"lon":5.38654,"is_reserved":false,"is_disabled":false,"rental_uris":{"android":"levelo://app?vid=4fdbd943-48f6-4df8-be61-4fa82b20b8f5","ios":"levelo://app?vid=4fdbd943-48f6-4df8-be61-4fa82b20b8f5"},"vehicle_type_id":"4","last_reported":1752063707,"current_range_meters":15200,"station_id":"ce4bh4p2rcd13ifvqe0g","pricing_plan_id":"cebpf4jnsgd1na2vs0mg"},{"bike_id":"ebbfad88-e2d3-4aa9-8df0-fee8430c89a6","system_id":"levelo_inurba_marseille","lat":43.28609,"lon":5.35101,"is_reserved":false,"is_disabled":false,"rental_uris":{"android":"levelo://app?vid=ebbfad88-e2d3-4aa9-8df0-fee8430c89a6","ios":"levelo://app?vid=ebbfad88-e2d3-4aa9-8df0-fee8430c89a6"},"vehicle_type_id":"4","last_reported":1752063707,"current_range_meters":15200,"station_id":"ce4bhch2rcd13ifvqeug","pricing_plan_id":"cebpf4jnsgd1na2vs0mg"},{"bike_id":"e3b1ce06-2eb1-4464-bdfe-b6547a23d4a6","system_id":"levelo_inurba_marseille","lat":43.265512,"lon":5.372935,"is_reserved":false,"is_disabled":false,"rental_uris":{"android":"levelo://app?vid=e3b1ce06-2eb1-4464-bdfe-b6547a23d4a6","ios":"levelo://app?vid=e3b1ce06-2eb1-4464-bdfe-b6547a23d4a6"},"vehicle_type_id":"4","last_reported":1752063707,"current_range_meters":15200,"station_id":"ce4bhg12rcd13ifvqf70","pricing_plan_id":"cebpf4jnsgd1na2vs0mg"},{"bike_id":"b6d9b946-f66a-4c6f-96e5-5d23e176360c","system_id":"levelo_inurba_marseille","lat":43.31315,"lon":5.38172,"is_reserved":false,"is_disabled":false,"rental_uris":{"android":"levelo://app?vid=b6d9b946-f66a-4c6f-96e5-5d23e176360c","ios":"levelo://app?vid=b6d9b946-f66a-4c6f-96e5-5d23e176360c"},"vehicle_type_id":"4","last_reported":1752063707,"current_range_meters":16000,"station_id":"","pricing_plan_id":"cebpf4jnsgd1na2vs0mg"},{"bike_id":"8b52e051-4e83-4103-a98d-28f12690ba46","system_id":"levelo_inurba_marseille","lat":43.305,"lon":5.3947,"is_reserved":false,"is_disabled":false,"rental_uris":{"android":"levelo://app?vid=8b52e051-4e83-4103-a98d-28f12690ba46","ios":"levelo://app?vid=8b52e051-4e83-4103-a98d-28f12690ba46"},"vehicle_type_id":"4","last_reported":1752063707,"current_range_meters":16000,"station_id":"","pricing_plan_id":"cebpf4jnsgd1na2vs0mg"},{"bike_id":"f5c16f07-bc6f-4121-91a7-5ad90eec4f34","system_id":"levelo_inurba_marseille","lat":43.3119,"lon":5.37311,"is_reserved":false,"is_disabled":false,"rental_uris":{"android":"levelo://app?vid=f5c16f07-bc6f-4121-91a7-5ad90eec4f34","ios":"levelo://app?vid=f5c16f07-bc6f-4121-91a7-5ad90eec4f34"},"vehicle_type_id":"4","last_reported":1752063707,"current_range_meters":16000,"station_id":"","pricing_plan_id":"cebpf4jnsgd1na2vs0mg"},{"bike_id":"258d3464-2f08-484e-bc18-1ca1d7899c33","system_id":"levelo_inurba_marseille","lat":43.29715,"lon":5.37725,"is_reserved":false,"is_disabled":false,"rental_uris":{"android":"levelo://app?vid=258d3464-2f08-484e-bc18-1ca1d7899c33","ios":"levelo://app?vid=258d3464-2f08-484e-bc18-1ca1d7899c33"},"vehicle_type_id":"4","last_reported":1752063707,"current_range_meters":16000,"station_id":"ce4bgkh2rcd13ifvqbl0","pricing_plan_id":"cebpf4jnsgd1na2vs0mg"},{"bike_id":"e597028a-451b-4e97-ba41-77c248cc2363","system_id":"levelo_inurba_marseille","lat":43.28616,"lon":5.35106,"is_reserved":false,"is_disabled":false,"rental_uris":{"android":"levelo://app?vid=e597028a-451b-4e97-ba41-77c248cc2363","ios":"levelo://app?vid=e597028a-451b-4e97-ba41-77c248cc2363"},"vehicle_type_id":"4","last_reported":1752063707,"current_range_meters":16000,"station_id":"ce4bhch2rcd13ifvqeug","pricing_plan_id":"cebpf4jnsgd1na2vs0mg"},{"bike_id":"7dc48cb7-b742-4446-8d3e-f56bc6d6cf97","system_id":"levelo_inurba_marseille","lat":43.26207,"lon":5.3747,"is_reserved":false,"is_disabled":false,"rental_uris":{"android":"levelo://app?vid=7dc48cb7-b742-4446-8d3e-f56bc6d6cf97","ios":"levelo://app?vid=7dc48cb7-b742-4446-8d3e-f56bc6d6cf97"},"vehicle_type_id":"4","last_reported":1752063707,"current_range_meters":16000,"station_id":"ce4bhgp2rcd13ifvqfc0","pricing_plan_id":"cebpf4jnsgd1na2vs0mg"},{"bike_id":"787512f5-7d91-4e8f-abdc-6333f6ccf085","system_id":"levelo_inurba_marseille","lat":43.27937,"lon":5.41038,"is_reserved":false,"is_disabled":false,"rental_uris":{"android":"levelo://app?vid=787512f5-7d91-4e8f-abdc-6333f6ccf085","ios":"levelo://app?vid=787512f5-7d91-4e8f-abdc-6333f6ccf085"},"vehicle_type_id":"4","last_reported":1752063707,"current_range_meters":16000,"station_id":"ce4bhnp2rcd13ifvqh0g","pricing_plan_id":"cebpf4jnsgd1na2vs0mg"},{"bike_id":"b757ffbb-2b71-4330-9f60-5f8a9d46d16e","system_id":"levelo_inurba_marseille","lat":43.2966,"lon":5.37145,"is_reserved":false,"is_disabled":false,"rental_uris":{"android":"levelo://app?vid=b757ffbb-2b71-4330-9f60-5f8a9d46d16e","ios":"levelo://app?vid=b757ffbb-2b71-4330-9f60-5f8a9d46d16e"},"vehicle_type_id":"4","last_reported":1752063707,"current_range_meters":16400,"station_id":"","pricing_plan_id":"cebpf4jnsgd1na2vs0mg"},{"bike_id":"93d6be08-2471-48d7-9948-c35dc9626201","system_id":"levelo_inurba_marseille","lat":43.31714,"lon":5.37647,"is_reserved":false,"is_disabled":false,"rental_uris":{"android":"levelo://app?vid=93d6be08-2471-48d7-9948-c35dc9626201","ios":"levelo://app?vid=93d6be08-2471-48d7-9948-c35dc9626201"},"vehicle_type_id":"4","last_reported":1752063707,"current_range_meters":16400,"station_id":"","pricing_plan_id":"cebpf4jnsgd1na2vs0mg"},{"bike_id":"1bc63c58-183e-4688-9173-e004e373962b","system_id":"levelo_inurba_marseille","lat":43.22977,"lon":5.35433,"is_reserved":false,"is_disabled":false,"rental_uris":{"android":"levelo://app?vid=1bc63c58-183e-4688-9173-e004e373962b","ios":"levelo://app?vid=1bc63c58-183e-4688-9173-e004e373962b"},"vehicle_type_id":"4","last_reported":1752063707,"current_range_meters":16400,"station_id":"","pricing_plan_id":"cebpf4jnsgd1na2vs0mg"},{"bike_id":"f6d3b86c-1268-41b4-ac36-98ff52fe4b18","system_id":"levelo_inurba_marseille","lat":43.29527,"lon":5.37508,"is_reserved":false,"is_disabled":false,"rental_uris":{"android":"levelo://app?vid=f6d3b86c-1268-41b4-ac36-98ff52fe4b18","ios":"levelo://app?vid=f6d3b86c-1268-41b4-ac36-98ff52fe4b18"},"vehicle_type_id":"4","last_reported":1752063707,"current_range_meters":16400,"station_id":"ce4bgkp2rcd13ifvqbmg","pricing_plan_id":"cebpf4jnsgd1na2vs0mg"},{"bike_id":"26451734-1e77-4115-96a8-5d69f863c869","system_id":"levelo_inurba_marseille","lat":43.30783,"lon":5.37642,"is_reserved":false,"is_disabled":false,"rental_uris":{"android":"levelo://app?vid=26451734-1e77-4115-96a8-5d69f863c869","ios":"levelo://app?vid=26451734-1e77-4115-96a8-5d69f863c869"},"vehicle_type_id":"4","last_reported":1752063707,"current_range_meters":16400,"station_id":"ce4bgv92rcd13ifvqcq0","pricing_plan_id":"cebpf4jnsgd1na2vs0mg"},{"bike_id":"65ad5f56-9134-4f81-8739-8a81249ab227","system_id":"levelo_inurba_marseille","lat":43.31343,"lon":5.39728,"is_reserved":false,"is_disabled":false,"rental_uris":{"android":"levelo://app?vid=65ad5f56-9134-4f81-8739-8a81249ab227","ios":"levelo://app?vid=65ad5f56-9134-4f81-8739-8a81249ab227"},"vehicle_type_id":"4","last_reported":1752063707,"current_range_meters":16400,"station_id":"ce4bgvp2rcd13ifvqcu0","pricing_plan_id":"cebpf4jnsgd1na2vs0mg"},{"bike_id":"3a846b67-4c38-47f5-9c05-3041e08aa886","system_id":"levelo_inurba_marseille","lat":43.28936,"lon":5.36646,"is_reserved":false,"is_disabled":false,"rental_uris":{"android":"levelo://app?vid=3a846b67-4c38-47f5-9c05-3041e08aa886","ios":"levelo://app?vid=3a846b67-4c38-47f5-9c05-3041e08aa886"},"vehicle_type_id":"4","last_reported":1752063707,"current_range_meters":16400,"station_id":"ce4bhap2rcd13ifvqek0","pricing_plan_id":"cebpf4jnsgd1na2vs0mg"},{"bike_id":"02faac68-6c48-46c8-ab61-df3ab25b267f","system_id":"levelo_inurba_marseille","lat":43.28614,"lon":5.35107,"is_reserved":false,"is_disabled":false,"rental_uris":{"android":"levelo://app?vid=02faac68-6c48-46c8-ab61-df3ab25b267f","ios":"levelo://app?vid=02faac68-6c48-46c8-ab61-df3ab25b267f"},"vehicle_type_id":"4","last_reported":1752063707,"current_range_meters":16400,"station_id":"ce4bhch2rcd13ifvqeug","pricing_plan_id":"cebpf4jnsgd1na2vs0mg"},{"bike_id":"e724a286-195b-440b-912f-b7fda4d63c59","system_id":"levelo_inurba_marseille","lat":43.25573,"lon":5.38262,"is_reserved":false,"is_disabled":false,"rental_uris":{"android":"levelo://app?vid=e724a286-195b-440b-912f-b7fda4d63c59","ios":"levelo://app?vid=e724a286-195b-440b-912f-b7fda4d63c59"},"vehicle_type_id":"4","last_reported":1752063707,"current_range_meters":16400,"station_id":"ce4bhih2rcd13ifvqfs0","pricing_plan_id":"cebpf4jnsgd1na2vs0mg"},{"bike_id":"2dc1f5c8-26fe-4e87-bcea-d5f6d3c1c40c","system_id":"levelo_inurba_marseille","lat":43.31728,"lon":5.42403,"is_reserved":false,"is_disabled":false,"rental_uris":{"android":"levelo://app?vid=2dc1f5c8-26fe-4e87-bcea-d5f6d3c1c40c","ios":"levelo://app?vid=2dc1f5c8-26fe-4e87-bcea-d5f6d3c1c40c"},"vehicle_type_id":"4","last_reported":1752063707,"current_range_meters":16400,"station_id":"ce4bhp92rcd13ifvqhbg","pricing_plan_id":"cebpf4jnsgd1na2vs0mg"},{"bike_id":"6e5c2657-ccb8-4153-8b94-2143bc427a03","system_id":"levelo_inurba_marseille","lat":43.22518,"lon":5.34782,"is_reserved":false,"is_disabled":false,"rental_uris":{"android":"levelo://app?vid=6e5c2657-ccb8-4153-8b94-2143bc427a03","ios":"levelo://app?vid=6e5c2657-ccb8-4153-8b94-2143bc427a03"},"vehicle_type_id":"4","last_reported":1752063707,"current_range_meters":16400,"station_id":"st_cvj5dfep6f1abm77gieg","pricing_plan_id":"cebpf4jnsgd1na2vs0mg"},{"bike_id":"b28aa0a0-791c-4a08-9a16-c7bf6ea0ed5a","system_id":"levelo_inurba_marseille","lat":43.22511,"lon":5.34782,"is_reserved":false,"is_disabled":false,"rental_uris":{"android":"levelo://app?vid=b28aa0a0-791c-4a08-9a16-c7bf6ea0ed5a","ios":"levelo://app?vid=b28aa0a0-791c-4a08-9a16-c7bf6ea0ed5a"},"vehicle_type_id":"4","last_reported":1752063707,"current_range_meters":16400,"station_id":"st_cvj5dfep6f1abm77gieg","pricing_plan_id":"cebpf4jnsgd1na2vs0mg"},{"bike_id":"1be39311-cfa5-4cbb-b93d-fb0870d6e611","system_id":"levelo_inurba_marseille","lat":43.212,"lon":5.35083,"is_reserved":false,"is_disabled":false,"rental_uris":{"android":"levelo://app?vid=1be39311-cfa5-4cbb-b93d-fb0870d6e611","ios":"levelo://app?vid=1be39311-cfa5-4cbb-b93d-fb0870d6e611"},"vehicle_type_id":"4","last_reported":1752063707,"current_range_meters":16400,"station_id":"st_cvj6sg6p6f1abm77japg","pricing_plan_id":"cebpf4jnsgd1na2vs0mg"},{"bike_id":"8d1bb6c9-4632-44ec-b54b-ffc7f30aee0b","system_id":"levelo_inurba_marseille","lat":43.313484,"lon":5.367115,"is_reserved":false,"is_disabled":false,"rental_uris":{"android":"levelo://app?vid=8d1bb6c9-4632-44ec-b54b-ffc7f30aee0b","ios":"levelo://app?vid=8d1bb6c9-4632-44ec-b54b-ffc7f30aee0b"},"vehicle_type_id":"4","last_reported":1752063707,"current_range_meters":16800,"station_id":"ce4bgr92rcd13ifvqc6g","pricing_plan_id":"cebpf4jnsgd1na2vs0mg"},{"bike_id":"baf30b8c-ee23-432e-a136-ad07ae77374d","system_id":"levelo_inurba_marseille","lat":43.28263,"lon":5.35063,"is_reserved":false,"is_disabled":false,"rental_uris":{"android":"levelo://app?vid=baf30b8c-ee23-432e-a136-ad07ae77374d","ios":"levelo://app?vid=baf30b8c-ee23-432e-a136-ad07ae77374d"},"vehicle_type_id":"4","last_reported":1752063707,"current_range_meters":16800,"station_id":"ce4bhbp2rcd13ifvqerg","pricing_plan_id":"cebpf4jnsgd1na2vs0mg"},{"bike_id":"8e91adc0-5419-476b-9505-4a2ef9f05354","system_id":"levelo_inurba_marseille","lat":43.26941,"lon":5.3892,"is_reserved":false,"is_disabled":false,"rental_uris":{"android":"levelo://app?vid=8e91adc0-5419-476b-9505-4a2ef9f05354","ios":"levelo://app?vid=8e91adc0-5419-476b-9505-4a2ef9f05354"},"vehicle_type_id":"4","last_reported":1752063707,"current_range_meters":16800,"station_id":"ce4bhhh2rcd13ifvqfl0","pricing_plan_id":"cebpf4jnsgd1na2vs0mg"},{"bike_id":"71550107-3ae4-4b92-a23e-86c52eb52c32","system_id":"levelo_inurba_marseille","lat":43.27837,"lon":5.39213,"is_reserved":false,"is_disabled":false,"rental_uris":{"android":"levelo://app?vid=71550107-3ae4-4b92-a23e-86c52eb52c32","ios":"levelo://app?vid=71550107-3ae4-4b92-a23e-86c52eb52c32"},"vehicle_type_id":"4","last_reported":1752063707,"current_range_meters":16800,"station_id":"ce4bhjp2rcd13ifvqga0","pricing_plan_id":"cebpf4jnsgd1na2vs0mg"},{"bike_id":"04e7b77f-3ec2-407c-9a46-7e17b706e799","system_id":"levelo_inurba_marseille","lat":43.24175,"lon":5.39742,"is_reserved":false,"is_disabled":false,"rental_uris":{"android":"levelo://app?vid=04e7b77f-3ec2-407c-9a46-7e17b706e799","ios":"levelo://app?vid=04e7b77f-3ec2-407c-9a46-7e17b706e799"},"vehicle_type_id":"4","last_reported":1752063707,"current_range_meters":16800,"station_id":"ce4bhn12rcd13ifvqgpg","pricing_plan_id":"cebpf4jnsgd1na2vs0mg"},{"bike_id":"57698598-17d2-4895-9ebc-edd8a1a13f51","system_id":"levelo_inurba_marseille","lat":43.32404,"lon":5.36785,"is_reserved":false,"is_disabled":false,"rental_uris":{"android":"levelo://app?vid=57698598-17d2-4895-9ebc-edd8a1a13f51","ios":"levelo://app?vid=57698598-17d2-4895-9ebc-edd8a1a13f51"},"vehicle_type_id":"4","last_reported":1752063707,"current_range_meters":16800,"station_id":"ce4bhsh2rcd13ifvqi2g","pricing_plan_id":"cebpf4jnsgd1na2vs0mg"},{"bike_id":"999f2a33-af15-4ca0-853a-d2550f2d6574","system_id":"levelo_inurba_marseille","lat":43.234403,"lon":5.359291,"is_reserved":false,"is_disabled":false,"rental_uris":{"android":"levelo://app?vid=999f2a33-af15-4ca0-853a-d2550f2d6574","ios":"levelo://app?vid=999f2a33-af15-4ca0-853a-d2550f2d6574"},"vehicle_type_id":"4","last_reported":1752063707,"current_range_meters":17200,"station_id":"","pricing_plan_id":"cebpf4jnsgd1na2vs0mg"},{"bike_id":"320f2a33-deaa-4e0a-a3d5-c39ce8ad680a","system_id":"levelo_inurba_marseille","lat":43.31576,"lon":5.37435,"is_reserved":false,"is_disabled":false,"rental_uris":{"android":"levelo://app?vid=320f2a33-deaa-4e0a-a3d5-c39ce8ad680a","ios":"levelo://app?vid=320f2a33-deaa-4e0a-a3d5-c39ce8ad680a"},"vehicle_type_id":"4","last_reported":1752063707,"current_range_meters":17200,"station_id":"","pricing_plan_id":"cebpf4jnsgd1na2vs0mg"},{"bike_id":"a443e824-b364-4874-850c-3d51c9448eb3","system_id":"levelo_inurba_marseille","lat":43.309014,"lon":5.368559,"is_reserved":false,"is_disabled":false,"rental_uris":{"android":"levelo://app?vid=a443e824-b364-4874-850c-3d51c9448eb3","ios":"levelo://app?vid=a443e824-b364-4874-850c-3d51c9448eb3"},"vehicle_type_id":"4","last_reported":1752063707,"current_range_meters":17200,"station_id":"ce4bgn92rcd13ifvqbvg","pricing_plan_id":"cebpf4jnsgd1na2vs0mg"},{"bike_id":"a21a1ef5-4bf5-48f8-9c15-f46ff462ebe8","system_id":"levelo_inurba_marseille","lat":43.21752,"lon":5.34612,"is_reserved":false,"is_disabled":false,"rental_uris":{"android":"levelo://app?vid=a21a1ef5-4bf5-48f8-9c15-f46ff462ebe8","ios":"levelo://app?vid=a21a1ef5-4bf5-48f8-9c15-f46ff462ebe8"},"vehicle_type_id":"4","last_reported":1752063707,"current_range_meters":17200,"station_id":"st_cvj6r9ubvosntc0bgbag","pricing_plan_id":"cebpf4jnsgd1na2vs0mg"},{"bike_id":"cd1196aa-2423-4797-ac17-6f5a7a5c0564","system_id":"levelo_inurba_marseille","lat":43.31211,"lon":5.36808,"is_reserved":false,"is_disabled":false,"rental_uris":{"android":"levelo://app?vid=cd1196aa-2423-4797-ac17-6f5a7a5c0564","ios":"levelo://app?vid=cd1196aa-2423-4797-ac17-6f5a7a5c0564"},"vehicle_type_id":"4","last_reported":1752063707,"current_range_meters":17600,"station_id":"ce4bgl92rcd13ifvqbq0","pricing_plan_id":"cebpf4jnsgd1na2vs0mg"},{"bike_id":"03a57c0f-5735-408d-a37d-b33505fbf860","system_id":"levelo_inurba_marseille","lat":43.30165,"lon":5.36641,"is_reserved":false,"is_disabled":false,"rental_uris":{"android":"levelo://app?vid=03a57c0f-5735-408d-a37d-b33505fbf860","ios":"levelo://app?vid=03a57c0f-5735-408d-a37d-b33505fbf860"},"vehicle_type_id":"4","last_reported":1752063707,"current_range_meters":17600,"station_id":"ce4bgrh2rcd13ifvqc8g","pricing_plan_id":"cebpf4jnsgd1na2vs0mg"},{"bike_id":"b9aad953-9bed-4824-834b-f3f50fd8c58d","system_id":"levelo_inurba_marseille","lat":43.28416,"lon":5.34993,"is_reserved":false,"is_disabled":false,"rental_uris":{"android":"levelo://app?vid=b9aad953-9bed-4824-834b-f3f50fd8c58d","ios":"levelo://app?vid=b9aad953-9bed-4824-834b-f3f50fd8c58d"},"vehicle_type_id":"4","last_reported":1752063707,"current_range_meters":17600,"station_id":"ce4bhbh2rcd13ifvqepg","pricing_plan_id":"cebpf4jnsgd1na2vs0mg"},{"bike_id":"191da7b9-bed7-4843-89f5-6df19e076b49","system_id":"levelo_inurba_marseille","lat":43.28614,"lon":5.351114,"is_reserved":false,"is_disabled":false,"rental_uris":{"android":"levelo://app?vid=191da7b9-bed7-4843-89f5-6df19e076b49","ios":"levelo://app?vid=191da7b9-bed7-4843-89f5-6df19e076b49"},"vehicle_type_id":"4","last_reported":1752063707,"current_range_meters":17600,"station_id":"ce4bhch2rcd13ifvqeug","pricing_plan_id":"cebpf4jnsgd1na2vs0mg"},{"bike_id":"03300d87-497c-4e85-8bf2-8891fc52f05a","system_id":"levelo_inurba_marseille","lat":43.26213,"lon":5.37442,"is_reserved":false,"is_disabled":false,"rental_uris":{"android":"levelo://app?vid=03300d87-497c-4e85-8bf2-8891fc52f05a","ios":"levelo://app?vid=03300d87-497c-4e85-8bf2-8891fc52f05a"},"vehicle_type_id":"4","last_reported":1752063707,"current_range_meters":17600,"station_id":"ce4bhgp2rcd13ifvqfc0","pricing_plan_id":"cebpf4jnsgd1na2vs0mg"},{"bike_id":"08f0d7fb-aa28-426a-8d80-c22cf408ee7c","system_id":"levelo_inurba_marseille","lat":43.25937,"lon":5.40936,"is_reserved":false,"is_disabled":false,"rental_uris":{"android":"levelo://app?vid=08f0d7fb-aa28-426a-8d80-c22cf408ee7c","ios":"levelo://app?vid=08f0d7fb-aa28-426a-8d80-c22cf408ee7c"},"vehicle_type_id":"4","last_reported":1752063707,"current_range_meters":17600,"station_id":"ce4bhm92rcd13ifvqglg","pricing_plan_id":"cebpf4jnsgd1na2vs0mg"},{"bike_id":"31d89142-be75-4fdb-a293-5afbdcea5d3b","system_id":"levelo_inurba_marseille","lat":43.32054,"lon":5.4154,"is_reserved":false,"is_disabled":false,"rental_uris":{"android":"levelo://app?vid=31d89142-be75-4fdb-a293-5afbdcea5d3b","ios":"levelo://app?vid=31d89142-be75-4fdb-a293-5afbdcea5d3b"},"vehicle_type_id":"4","last_reported":1752063707,"current_range_meters":17600,"station_id":"ce4bhq92rcd13ifvqhkg","pricing_plan_id":"cebpf4jnsgd1na2vs0mg"},{"bike_id":"0853f569-b026-4ee9-a3b9-c7b87c80bc6f","system_id":"levelo_inurba_marseille","lat":43.2866,"lon":5.36355,"is_reserved":false,"is_disabled":false,"rental_uris":{"android":"levelo://app?vid=0853f569-b026-4ee9-a3b9-c7b87c80bc6f","ios":"levelo://app?vid=0853f569-b026-4ee9-a3b9-c7b87c80bc6f"},"vehicle_type_id":"4","last_reported":1752063707,"current_range_meters":18000,"station_id":"ce4bhah2rcd13ifvqej0","pricing_plan_id":"cebpf4jnsgd1na2vs0mg"},{"bike_id":"9d2e056a-5a76-483e-bd70-1ba4cc8582d9","system_id":"levelo_inurba_marseille","lat":43.28273,"lon":5.35081,"is_reserved":false,"is_disabled":false,"rental_uris":{"android":"levelo://app?vid=9d2e056a-5a76-483e-bd70-1ba4cc8582d9","ios":"levelo://app?vid=9d2e056a-5a76-483e-bd70-1ba4cc8582d9"},"vehicle_type_id":"4","last_reported":1752063707,"current_range_meters":18000,"station_id":"ce4bhbp2rcd13ifvqerg","pricing_plan_id":"cebpf4jnsgd1na2vs0mg"},{"bike_id":"749370c6-54e1-4cc8-942a-7921a4b8fb09","system_id":"levelo_inurba_marseille","lat":43.28271,"lon":5.35086,"is_reserved":false,"is_disabled":false,"rental_uris":{"android":"levelo://app?vid=749370c6-54e1-4cc8-942a-7921a4b8fb09","ios":"levelo://app?vid=749370c6-54e1-4cc8-942a-7921a4b8fb09"},"vehicle_type_id":"4","last_reported":1752063707,"current_range_meters":18000,"station_id":"ce4bhbp2rcd13ifvqerg","pricing_plan_id":"cebpf4jnsgd1na2vs0mg"},{"bike_id":"032a14ce-e367-40e6-a795-74d0ad4487ac","system_id":"levelo_inurba_marseille","lat":43.25921,"lon":5.40893,"is_reserved":false,"is_disabled":false,"rental_uris":{"android":"levelo://app?vid=032a14ce-e367-40e6-a795-74d0ad4487ac","ios":"levelo://app?vid=032a14ce-e367-40e6-a795-74d0ad4487ac"},"vehicle_type_id":"4","last_reported":1752063707,"current_range_meters":18000,"station_id":"ce4bhm92rcd13ifvqglg","pricing_plan_id":"cebpf4jnsgd1na2vs0mg"},{"bike_id":"0dde599a-9e49-4424-bf17-46b64f156432","system_id":"levelo_inurba_marseille","lat":43.24076,"lon":5.37765,"is_reserved":false,"is_disabled":false,"rental_uris":{"android":"levelo://app?vid=0dde599a-9e49-4424-bf17-46b64f156432","ios":"levelo://app?vid=0dde599a-9e49-4424-bf17-46b64f156432"},"vehicle_type_id":"4","last_reported":1752063707,"current_range_meters":18000,"station_id":"ce4bhnp2rcd13ifvqgvg","pricing_plan_id":"cebpf4jnsgd1na2vs0mg"},{"bike_id":"42ddf1de-52a6-47b1-8606-f9f2c373dc80","system_id":"levelo_inurba_marseille","lat":43.21752,"lon":5.34604,"is_reserved":false,"is_disabled":false,"rental_uris":{"android":"levelo://app?vid=42ddf1de-52a6-47b1-8606-f9f2c373dc80","ios":"levelo://app?vid=42ddf1de-52a6-47b1-8606-f9f2c373dc80"},"vehicle_type_id":"4","last_reported":1752063707,"current_range_meters":18000,"station_id":"st_cvj6r9ubvosntc0bgbag","pricing_plan_id":"cebpf4jnsgd1na2vs0mg"},{"bike_id":"e9c52e2e-1391-4329-8438-e4f2c2348935","system_id":"levelo_inurba_marseille","lat":43.25213,"lon":5.39437,"is_reserved":false,"is_disabled":false,"rental_uris":{"android":"levelo://app?vid=e9c52e2e-1391-4329-8438-e4f2c2348935","ios":"levelo://app?vid=e9c52e2e-1391-4329-8438-e4f2c2348935"},"vehicle_type_id":"4","last_reported":1752063707,"current_range_meters":18800,"station_id":"","pricing_plan_id":"cebpf4jnsgd1na2vs0mg"},{"bike_id":"80ace3d5-dcd0-4776-b975-4d088816cb36","system_id":"levelo_inurba_marseille","lat":43.31325,"lon":5.39694,"is_reserved":false,"is_disabled":false,"rental_uris":{"android":"levelo://app?vid=80ace3d5-dcd0-4776-b975-4d088816cb36","ios":"levelo://app?vid=80ace3d5-dcd0-4776-b975-4d088816cb36"},"vehicle_type_id":"4","last_reported":1752063707,"current_range_meters":18800,"station_id":"ce4bgvp2rcd13ifvqcu0","pricing_plan_id":"cebpf4jnsgd1na2vs0mg"},{"bike_id":"7c1ac00f-9550-4218-9ee5-dd9d8cb43880","system_id":"levelo_inurba_marseille","lat":43.24411,"lon":5.37087,"is_reserved":false,"is_disabled":false,"rental_uris":{"android":"levelo://app?vid=7c1ac00f-9550-4218-9ee5-dd9d8cb43880","ios":"levelo://app?vid=7c1ac00f-9550-4218-9ee5-dd9d8cb43880"},"vehicle_type_id":"4","last_reported":1752063707,"current_range_meters":18800,"station_id":"ce4bhhh2rcd13ifvqfk0","pricing_plan_id":"cebpf4jnsgd1na2vs0mg"},{"bike_id":"bc79cf22-9600-43f9-855f-d2516f160b65","system_id":"levelo_inurba_marseille","lat":43.31383,"lon":5.37628,"is_reserved":false,"is_disabled":false,"rental_uris":{"android":"levelo://app?vid=bc79cf22-9600-43f9-855f-d2516f160b65","ios":"levelo://app?vid=bc79cf22-9600-43f9-855f-d2516f160b65"},"vehicle_type_id":"4","last_reported":1752063707,"current_range_meters":19200,"station_id":"","pricing_plan_id":"cebpf4jnsgd1na2vs0mg"},{"bike_id":"36c387ea-be50-4028-8ecc-21605fe3e879","system_id":"levelo_inurba_marseille","lat":43.29356,"lon":5.42839,"is_reserved":false,"is_disabled":false,"rental_uris":{"android":"levelo://app?vid=36c387ea-be50-4028-8ecc-21605fe3e879","ios":"levelo://app?vid=36c387ea-be50-4028-8ecc-21605fe3e879"},"vehicle_type_id":"4","last_reported":1752063707,"current_range_meters":19200,"station_id":"","pricing_plan_id":"cebpf4jnsgd1na2vs0mg"},{"bike_id":"87d13c3c-9453-4492-8a8f-f2b4c8e828c6","system_id":"levelo_inurba_marseille","lat":43.26177,"lon":5.37049,"is_reserved":false,"is_disabled":false,"rental_uris":{"android":"levelo://app?vid=87d13c3c-9453-4492-8a8f-f2b4c8e828c6","ios":"levelo://app?vid=87d13c3c-9453-4492-8a8f-f2b4c8e828c6"},"vehicle_type_id":"4","last_reported":1752063707,"current_range_meters":19200,"station_id":"","pricing_plan_id":"cebpf4jnsgd1na2vs0mg"},{"bike_id":"9ea57149-720f-4c01-998c-3707a9fbc725","system_id":"levelo_inurba_marseille","lat":43.285145,"lon":5.391465,"is_reserved":false,"is_disabled":false,"rental_uris":{"android":"levelo://app?vid=9ea57149-720f-4c01-998c-3707a9fbc725","ios":"levelo://app?vid=9ea57149-720f-4c01-998c-3707a9fbc725"},"vehicle_type_id":"4","last_reported":1752063707,"current_range_meters":19200,"station_id":"","pricing_plan_id":"cebpf4jnsgd1na2vs0mg"},{"bike_id":"feaa7e3a-cbe4-4489-be11-8a12d7eec173","system_id":"levelo_inurba_marseille","lat":43.2526,"lon":5.4261,"is_reserved":false,"is_disabled":false,"rental_uris":{"android":"levelo://app?vid=feaa7e3a-cbe4-4489-be11-8a12d7eec173","ios":"levelo://app?vid=feaa7e3a-cbe4-4489-be11-8a12d7eec173"},"vehicle_type_id":"4","last_reported":1752063707,"current_range_meters":19200,"station_id":"","pricing_plan_id":"cebpf4jnsgd1na2vs0mg"},{"bike_id":"b086a275-937a-42df-90d1-c8164627358d","system_id":"levelo_inurba_marseille","lat":43.27377,"lon":5.36268,"is_reserved":false,"is_disabled":false,"rental_uris":{"android":"levelo://app?vid=b086a275-937a-42df-90d1-c8164627358d","ios":"levelo://app?vid=b086a275-937a-42df-90d1-c8164627358d"},"vehicle_type_id":"4","last_reported":1752063707,"current_range_meters":19200,"station_id":"ce4bhbh2rcd13ifvqeo0","pricing_plan_id":"cebpf4jnsgd1na2vs0mg"},{"bike_id":"3c2be974-f10a-47a0-ae30-b9e120db49ce","system_id":"levelo_inurba_marseille","lat":43.2549,"lon":5.37653,"is_reserved":false,"is_disabled":false,"rental_uris":{"android":"levelo://app?vid=3c2be974-f10a-47a0-ae30-b9e120db49ce","ios":"levelo://app?vid=3c2be974-f10a-47a0-ae30-b9e120db49ce"},"vehicle_type_id":"4","last_reported":1752063707,"current_range_meters":19200,"station_id":"ce4bhh12rcd13ifvqff0","pricing_plan_id":"cebpf4jnsgd1na2vs0mg"},{"bike_id":"ef6311b9-c394-4e85-b3f2-bf62d7fa6877","system_id":"levelo_inurba_marseille","lat":43.245477,"lon":5.395235,"is_reserved":false,"is_disabled":false,"rental_uris":{"android":"levelo://app?vid=ef6311b9-c394-4e85-b3f2-bf62d7fa6877","ios":"levelo://app?vid=ef6311b9-c394-4e85-b3f2-bf62d7fa6877"},"vehicle_type_id":"4","last_reported":1752063707,"current_range_meters":19200,"station_id":"ce4bhlp2rcd13ifvqgjg","pricing_plan_id":"cebpf4jnsgd1na2vs0mg"},{"bike_id":"e0973b47-aa25-4308-a3d7-9c79b6a106be","system_id":"levelo_inurba_marseille","lat":43.32101,"lon":5.36757,"is_reserved":false,"is_disabled":false,"rental_uris":{"android":"levelo://app?vid=e0973b47-aa25-4308-a3d7-9c79b6a106be","ios":"levelo://app?vid=e0973b47-aa25-4308-a3d7-9c79b6a106be"},"vehicle_type_id":"4","last_reported":1752063707,"current_range_meters":19200,"station_id":"ce4bhrh2rcd13ifvqhug","pricing_plan_id":"cebpf4jnsgd1na2vs0mg"},{"bike_id":"dfa9107f-6b51-4140-873d-540e5c00b3a9","system_id":"levelo_inurba_marseille","lat":43.22511,"lon":5.34787,"is_reserved":false,"is_disabled":false,"rental_uris":{"android":"levelo://app?vid=dfa9107f-6b51-4140-873d-540e5c00b3a9","ios":"levelo://app?vid=dfa9107f-6b51-4140-873d-540e5c00b3a9"},"vehicle_type_id":"4","last_reported":1752063707,"current_range_meters":19200,"station_id":"st_cvj5dfep6f1abm77gieg","pricing_plan_id":"cebpf4jnsgd1na2vs0mg"},{"bike_id":"9f5e74ce-2459-4c6f-a171-f6d1e8a1ed83","system_id":"levelo_inurba_marseille","lat":43.31872,"lon":5.37538,"is_reserved":false,"is_disabled":false,"rental_uris":{"android":"levelo://app?vid=9f5e74ce-2459-4c6f-a171-f6d1e8a1ed83","ios":"levelo://app?vid=9f5e74ce-2459-4c6f-a171-f6d1e8a1ed83"},"vehicle_type_id":"4","last_reported":1752063707,"current_range_meters":19600,"station_id":"","pricing_plan_id":"cebpf4jnsgd1na2vs0mg"},{"bike_id":"178620b3-e80f-4c11-90fe-b0c778968faa","system_id":"levelo_inurba_marseille","lat":43.27603,"lon":5.36124,"is_reserved":false,"is_disabled":false,"rental_uris":{"android":"levelo://app?vid=178620b3-e80f-4c11-90fe-b0c778968faa","ios":"levelo://app?vid=178620b3-e80f-4c11-90fe-b0c778968faa"},"vehicle_type_id":"4","last_reported":1752063707,"current_range_meters":19600,"station_id":"ce4bgj92rcd13ifvqbe0","pricing_plan_id":"cebpf4jnsgd1na2vs0mg"},{"bike_id":"e76c2932-3101-46dc-9dff-48ceb5242600","system_id":"levelo_inurba_marseille","lat":43.28568,"lon":5.3951,"is_reserved":false,"is_disabled":false,"rental_uris":{"android":"levelo://app?vid=e76c2932-3101-46dc-9dff-48ceb5242600","ios":"levelo://app?vid=e76c2932-3101-46dc-9dff-48ceb5242600"},"vehicle_type_id":"4","last_reported":1752063707,"current_range_meters":19600,"station_id":"ce4bh292rcd13ifvqdg0","pricing_plan_id":"cebpf4jnsgd1na2vs0mg"},{"bike_id":"fe393e70-3017-4f74-9643-ce2ab31a2adc","system_id":"levelo_inurba_marseille","lat":43.28632,"lon":5.35109,"is_reserved":false,"is_disabled":false,"rental_uris":{"android":"levelo://app?vid=fe393e70-3017-4f74-9643-ce2ab31a2adc","ios":"levelo://app?vid=fe393e70-3017-4f74-9643-ce2ab31a2adc"},"vehicle_type_id":"4","last_reported":1752063707,"current_range_meters":19600,"station_id":"ce4bhch2rcd13ifvqeug","pricing_plan_id":"cebpf4jnsgd1na2vs0mg"},{"bike_id":"7725683b-3883-4cb7-b23c-591c9a76b7b2","system_id":"levelo_inurba_marseille","lat":43.25576,"lon":5.38243,"is_reserved":false,"is_disabled":false,"rental_uris":{"android":"levelo://app?vid=7725683b-3883-4cb7-b23c-591c9a76b7b2","ios":"levelo://app?vid=7725683b-3883-4cb7-b23c-591c9a76b7b2"},"vehicle_type_id":"4","last_reported":1752063707,"current_range_meters":19600,"station_id":"ce4bhih2rcd13ifvqfs0","pricing_plan_id":"cebpf4jnsgd1na2vs0mg"},{"bike_id":"e704c01a-5fb7-4541-861b-7f153f9b6454","system_id":"levelo_inurba_marseille","lat":43.321,"lon":5.36798,"is_reserved":false,"is_disabled":false,"rental_uris":{"android":"levelo://app?vid=e704c01a-5fb7-4541-861b-7f153f9b6454","ios":"levelo://app?vid=e704c01a-5fb7-4541-861b-7f153f9b6454"},"vehicle_type_id":"4","last_reported":1752063707,"current_range_meters":19600,"station_id":"ce4bhrh2rcd13ifvqhug","pricing_plan_id":"cebpf4jnsgd1na2vs0mg"},{"bike_id":"2ada968f-15ea-4bdf-9cd7-d4fa0c5665b2","system_id":"levelo_inurba_marseille","lat":43.24157,"lon":5.36387,"is_reserved":false,"is_disabled":false,"rental_uris":{"android":"levelo://app?vid=2ada968f-15ea-4bdf-9cd7-d4fa0c5665b2","ios":"levelo://app?vid=2ada968f-15ea-4bdf-9cd7-d4fa0c5665b2"},"vehicle_type_id":"4","last_reported":1752063707,"current_range_meters":19600,"station_id":"cpo36qri1sfpv3e86is0","pricing_plan_id":"cebpf4jnsgd1na2vs0mg"},{"bike_id":"fde530d0-eeed-4692-bb9c-2c65ba0cdd9f","system_id":"levelo_inurba_marseille","lat":43.30843,"lon":5.42594,"is_reserved":false,"is_disabled":false,"rental_uris":{"android":"levelo://app?vid=fde530d0-eeed-4692-bb9c-2c65ba0cdd9f","ios":"levelo://app?vid=fde530d0-eeed-4692-bb9c-2c65ba0cdd9f"},"vehicle_type_id":"4","last_reported":1752063707,"current_range_meters":20000,"station_id":"","pricing_plan_id":"cebpf4jnsgd1na2vs0mg"},{"bike_id":"373ac157-9b1c-4583-adbe-521fc30054b9","system_id":"levelo_inurba_marseille","lat":43.30177,"lon":5.36641,"is_reserved":false,"is_disabled":false,"rental_uris":{"android":"levelo://app?vid=373ac157-9b1c-4583-adbe-521fc30054b9","ios":"levelo://app?vid=373ac157-9b1c-4583-adbe-521fc30054b9"},"vehicle_type_id":"4","last_reported":1752063707,"current_range_meters":20000,"station_id":"ce4bgrh2rcd13ifvqc8g","pricing_plan_id":"cebpf4jnsgd1na2vs0mg"},{"bike_id":"835dbe99-3402-47f1-9e83-8b1aaa7218c4","system_id":"levelo_inurba_marseille","lat":43.27378,"lon":5.36266,"is_reserved":false,"is_disabled":false,"rental_uris":{"android":"levelo://app?vid=835dbe99-3402-47f1-9e83-8b1aaa7218c4","ios":"levelo://app?vid=835dbe99-3402-47f1-9e83-8b1aaa7218c4"},"vehicle_type_id":"4","last_reported":1752063707,"current_range_meters":20000,"station_id":"ce4bhbh2rcd13ifvqeo0","pricing_plan_id":"cebpf4jnsgd1na2vs0mg"},{"bike_id":"3a758f26-1d85-4713-a620-d1dd8f9e403c","system_id":"levelo_inurba_marseille","lat":43.28263,"lon":5.35062,"is_reserved":false,"is_disabled":false,"rental_uris":{"android":"levelo://app?vid=3a758f26-1d85-4713-a620-d1dd8f9e403c","ios":"levelo://app?vid=3a758f26-1d85-4713-a620-d1dd8f9e403c"},"vehicle_type_id":"4","last_reported":1752063707,"current_range_meters":20000,"station_id":"ce4bhbp2rcd13ifvqerg","pricing_plan_id":"cebpf4jnsgd1na2vs0mg"},{"bike_id":"cee6d336-127f-4e82-945c-5ad937fd223e","system_id":"levelo_inurba_marseille","lat":43.2396,"lon":5.36641,"is_reserved":false,"is_disabled":false,"rental_uris":{"android":"levelo://app?vid=cee6d336-127f-4e82-945c-5ad937fd223e","ios":"levelo://app?vid=cee6d336-127f-4e82-945c-5ad937fd223e"},"vehicle_type_id":"4","last_reported":1752063707,"current_range_meters":20000,"station_id":"ce4bhi12rcd13ifvqfp0","pricing_plan_id":"cebpf4jnsgd1na2vs0mg"},{"bike_id":"f8441ac5-384c-4d39-b4b3-2bcd24cd9619","system_id":"levelo_inurba_marseille","lat":43.313342,"lon":5.367145,"is_reserved":false,"is_disabled":false,"rental_uris":{"android":"levelo://app?vid=f8441ac5-384c-4d39-b4b3-2bcd24cd9619","ios":"levelo://app?vid=f8441ac5-384c-4d39-b4b3-2bcd24cd9619"},"vehicle_type_id":"4","last_reported":1752063707,"current_range_meters":20400,"station_id":"ce4bgr92rcd13ifvqc6g","pricing_plan_id":"cebpf4jnsgd1na2vs0mg"},{"bike_id":"92be7e9f-0c62-4241-ba9b-8185c68d5343","system_id":"levelo_inurba_marseille","lat":43.241955,"lon":5.39725,"is_reserved":false,"is_disabled":false,"rental_uris":{"android":"levelo://app?vid=92be7e9f-0c62-4241-ba9b-8185c68d5343","ios":"levelo://app?vid=92be7e9f-0c62-4241-ba9b-8185c68d5343"},"vehicle_type_id":"4","last_reported":1752063707,"current_range_meters":20400,"station_id":"ce4bhn12rcd13ifvqgpg","pricing_plan_id":"cebpf4jnsgd1na2vs0mg"},{"bike_id":"51d3cab3-3bb3-4357-a3a5-f7dd39edc0c5","system_id":"levelo_inurba_marseille","lat":43.25451,"lon":5.37946,"is_reserved":false,"is_disabled":false,"rental_uris":{"android":"levelo://app?vid=51d3cab3-3bb3-4357-a3a5-f7dd39edc0c5","ios":"levelo://app?vid=51d3cab3-3bb3-4357-a3a5-f7dd39edc0c5"},"vehicle_type_id":"4","last_reported":1752063707,"current_range_meters":20800,"station_id":"","pricing_plan_id":"cebpf4jnsgd1na2vs0mg"},{"bike_id":"d6ccf0b1-3fcc-4a6a-883f-25257c08898d","system_id":"levelo_inurba_marseille","lat":43.224976,"lon":5.348346,"is_reserved":false,"is_disabled":false,"rental_uris":{"android":"levelo://app?vid=d6ccf0b1-3fcc-4a6a-883f-25257c08898d","ios":"levelo://app?vid=d6ccf0b1-3fcc-4a6a-883f-25257c08898d"},"vehicle_type_id":"4","last_reported":1752063707,"current_range_meters":20800,"station_id":"","pricing_plan_id":"cebpf4jnsgd1na2vs0mg"},{"bike_id":"fa87fcb5-aacb-41a1-a789-0296bbd02085","system_id":"levelo_inurba_marseille","lat":43.24599,"lon":5.37384,"is_reserved":false,"is_disabled":false,"rental_uris":{"android":"levelo://app?vid=fa87fcb5-aacb-41a1-a789-0296bbd02085","ios":"levelo://app?vid=fa87fcb5-aacb-41a1-a789-0296bbd02085"},"vehicle_type_id":"4","last_reported":1752063707,"current_range_meters":20800,"station_id":"","pricing_plan_id":"cebpf4jnsgd1na2vs0mg"},{"bike_id":"4e209b0c-855f-4b51-8120-2faef8673853","system_id":"levelo_inurba_marseille","lat":43.306066,"lon":5.369291,"is_reserved":false,"is_disabled":false,"rental_uris":{"android":"levelo://app?vid=4e209b0c-855f-4b51-8120-2faef8673853","ios":"levelo://app?vid=4e209b0c-855f-4b51-8120-2faef8673853"},"vehicle_type_id":"4","last_reported":1752063707,"current_range_meters":20800,"station_id":"","pricing_plan_id":"cebpf4jnsgd1na2vs0mg"},{"bike_id":"b8fb705f-c57a-4fce-a382-18375991cd0a","system_id":"levelo_inurba_marseille","lat":43.30898,"lon":5.36794,"is_reserved":false,"is_disabled":false,"rental_uris":{"android":"levelo://app?vid=b8fb705f-c57a-4fce-a382-18375991cd0a","ios":"levelo://app?vid=b8fb705f-c57a-4fce-a382-18375991cd0a"},"vehicle_type_id":"4","last_reported":1752063707,"current_range_meters":20800,"station_id":"ce4bgn92rcd13ifvqbvg","pricing_plan_id":"cebpf4jnsgd1na2vs0mg"},{"bike_id":"d529ec2c-1e77-46ec-a7c4-fba360d0a391","system_id":"levelo_inurba_marseille","lat":43.299003,"lon":5.43674,"is_reserved":false,"is_disabled":false,"rental_uris":{"android":"levelo://app?vid=d529ec2c-1e77-46ec-a7c4-fba360d0a391","ios":"levelo://app?vid=d529ec2c-1e77-46ec-a7c4-fba360d0a391"},"vehicle_type_id":"4","last_reported":1752063707,"current_range_meters":20800,"station_id":"ce4bhpp2rcd13ifvqhfg","pricing_plan_id":"cebpf4jnsgd1na2vs0mg"},{"bike_id":"b761de55-2383-4dba-a47a-e5f1f3e2e4a3","system_id":"levelo_inurba_marseille","lat":43.27997,"lon":5.40037,"is_reserved":false,"is_disabled":false,"rental_uris":{"android":"levelo://app?vid=b761de55-2383-4dba-a47a-e5f1f3e2e4a3","ios":"levelo://app?vid=b761de55-2383-4dba-a47a-e5f1f3e2e4a3"},"vehicle_type_id":"4","last_reported":1752063707,"current_range_meters":21600,"station_id":"","pricing_plan_id":"cebpf4jnsgd1na2vs0mg"},{"bike_id":"55eb3ee3-207d-45c9-a356-7e275a6ee08e","system_id":"levelo_inurba_marseille","lat":43.322208,"lon":5.407363,"is_reserved":false,"is_disabled":false,"rental_uris":{"android":"levelo://app?vid=55eb3ee3-207d-45c9-a356-7e275a6ee08e","ios":"levelo://app?vid=55eb3ee3-207d-45c9-a356-7e275a6ee08e"},"vehicle_type_id":"4","last_reported":1752063707,"current_range_meters":21600,"station_id":"ce4bh092rcd13ifvqd30","pricing_plan_id":"cebpf4jnsgd1na2vs0mg"},{"bike_id":"a8c5a27e-3e28-4666-944a-9d179ad55579","system_id":"levelo_inurba_marseille","lat":43.28325,"lon":5.38901,"is_reserved":false,"is_disabled":false,"rental_uris":{"android":"levelo://app?vid=a8c5a27e-3e28-4666-944a-9d179ad55579","ios":"levelo://app?vid=a8c5a27e-3e28-4666-944a-9d179ad55579"},"vehicle_type_id":"4","last_reported":1752063707,"current_range_meters":21600,"station_id":"ce4bh4p2rcd13ifvqe0g","pricing_plan_id":"cebpf4jnsgd1na2vs0mg"},{"bike_id":"7ecf4fab-1ec3-4909-bcfd-962981b8bdcc","system_id":"levelo_inurba_marseille","lat":43.29005,"lon":5.3561,"is_reserved":false,"is_disabled":false,"rental_uris":{"android":"levelo://app?vid=7ecf4fab-1ec3-4909-bcfd-962981b8bdcc","ios":"levelo://app?vid=7ecf4fab-1ec3-4909-bcfd-962981b8bdcc"},"vehicle_type_id":"4","last_reported":1752063707,"current_range_meters":21600,"station_id":"ce4bhb92rcd13ifvqen0","pricing_plan_id":"cebpf4jnsgd1na2vs0mg"},{"bike_id":"ae9a9b3f-e2a0-4531-806d-5eea26e4b3a7","system_id":"levelo_inurba_marseille","lat":43.28395,"lon":5.34968,"is_reserved":false,"is_disabled":false,"rental_uris":{"android":"levelo://app?vid=ae9a9b3f-e2a0-4531-806d-5eea26e4b3a7","ios":"levelo://app?vid=ae9a9b3f-e2a0-4531-806d-5eea26e4b3a7"},"vehicle_type_id":"4","last_reported":1752063707,"current_range_meters":21600,"station_id":"ce4bhbh2rcd13ifvqepg","pricing_plan_id":"cebpf4jnsgd1na2vs0mg"},{"bike_id":"39f83c83-3447-4ff4-969a-cc682f427c92","system_id":"levelo_inurba_marseille","lat":43.26063,"lon":5.3939,"is_reserved":false,"is_disabled":false,"rental_uris":{"android":"levelo://app?vid=39f83c83-3447-4ff4-969a-cc682f427c92","ios":"levelo://app?vid=39f83c83-3447-4ff4-969a-cc682f427c92"},"vehicle_type_id":"4","last_reported":1752063707,"current_range_meters":21600,"station_id":"ce4bhh92rcd13ifvqfj0","pricing_plan_id":"cebpf4jnsgd1na2vs0mg"},{"bike_id":"ee1ac907-8623-4d00-ac01-d41dd90be9fe","system_id":"levelo_inurba_marseille","lat":43.211946,"lon":5.350836,"is_reserved":false,"is_disabled":false,"rental_uris":{"android":"levelo://app?vid=ee1ac907-8623-4d00-ac01-d41dd90be9fe","ios":"levelo://app?vid=ee1ac907-8623-4d00-ac01-d41dd90be9fe"},"vehicle_type_id":"4","last_reported":1752063707,"current_range_meters":21600,"station_id":"st_cvj6sg6p6f1abm77japg","pricing_plan_id":"cebpf4jnsgd1na2vs0mg"},{"bike_id":"24b17f7b-dff1-4936-b27a-7c2c6813a894","system_id":"levelo_inurba_marseille","lat":43.24587,"lon":5.37378,"is_reserved":false,"is_disabled":false,"rental_uris":{"android":"levelo://app?vid=24b17f7b-dff1-4936-b27a-7c2c6813a894","ios":"levelo://app?vid=24b17f7b-dff1-4936-b27a-7c2c6813a894"},"vehicle_type_id":"4","last_reported":1752063707,"current_range_meters":22000,"station_id":"","pricing_plan_id":"cebpf4jnsgd1na2vs0mg"},{"bike_id":"2676d6ed-392e-4888-a2f9-53392870d491","system_id":"levelo_inurba_marseille","lat":43.3135,"lon":5.36732,"is_reserved":false,"is_disabled":false,"rental_uris":{"android":"levelo://app?vid=2676d6ed-392e-4888-a2f9-53392870d491","ios":"levelo://app?vid=2676d6ed-392e-4888-a2f9-53392870d491"},"vehicle_type_id":"4","last_reported":1752063707,"current_range_meters":22000,"station_id":"ce4bgr92rcd13ifvqc6g","pricing_plan_id":"cebpf4jnsgd1na2vs0mg"},{"bike_id":"aa4ea0b7-3e2c-42ad-9b8b-898da043f78b","system_id":"levelo_inurba_marseille","lat":43.30549,"lon":5.36694,"is_reserved":false,"is_disabled":false,"rental_uris":{"android":"levelo://app?vid=aa4ea0b7-3e2c-42ad-9b8b-898da043f78b","ios":"levelo://app?vid=aa4ea0b7-3e2c-42ad-9b8b-898da043f78b"},"vehicle_type_id":"4","last_reported":1752063707,"current_range_meters":22000,"station_id":"ce4bgrp2rcd13ifvqc9g","pricing_plan_id":"cebpf4jnsgd1na2vs0mg"},{"bike_id":"10c59449-1e22-41d8-be57-73de9f1e8e96","system_id":"levelo_inurba_marseille","lat":43.28413,"lon":5.35002,"is_reserved":false,"is_disabled":false,"rental_uris":{"android":"levelo://app?vid=10c59449-1e22-41d8-be57-73de9f1e8e96","ios":"levelo://app?vid=10c59449-1e22-41d8-be57-73de9f1e8e96"},"vehicle_type_id":"4","last_reported":1752063707,"current_range_meters":22000,"station_id":"ce4bhbh2rcd13ifvqepg","pricing_plan_id":"cebpf4jnsgd1na2vs0mg"},{"bike_id":"43ef28e7-4568-480b-b2fe-84a6b7c911e4","system_id":"levelo_inurba_marseille","lat":43.29205,"lon":5.360632,"is_reserved":false,"is_disabled":false,"rental_uris":{"android":"levelo://app?vid=43ef28e7-4568-480b-b2fe-84a6b7c911e4","ios":"levelo://app?vid=43ef28e7-4568-480b-b2fe-84a6b7c911e4"},"vehicle_type_id":"4","last_reported":1752063707,"current_range_meters":22000,"station_id":"ce4bhbh2rcd13ifvqeqg","pricing_plan_id":"cebpf4jnsgd1na2vs0mg"},{"bike_id":"c6ddba71-6347-4abd-bb1f-14afb640e266","system_id":"levelo_inurba_marseille","lat":43.24648,"lon":5.38898,"is_reserved":false,"is_disabled":false,"rental_uris":{"android":"levelo://app?vid=c6ddba71-6347-4abd-bb1f-14afb640e266","ios":"levelo://app?vid=c6ddba71-6347-4abd-bb1f-14afb640e266"},"vehicle_type_id":"4","last_reported":1752063707,"current_range_meters":22000,"station_id":"ce4bhg12rcd13ifvqf60","pricing_plan_id":"cebpf4jnsgd1na2vs0mg"},{"bike_id":"7405c651-a868-4f97-b0fd-445de387662c","system_id":"levelo_inurba_marseille","lat":43.21762,"lon":5.3464,"is_reserved":false,"is_disabled":false,"rental_uris":{"android":"levelo://app?vid=7405c651-a868-4f97-b0fd-445de387662c","ios":"levelo://app?vid=7405c651-a868-4f97-b0fd-445de387662c"},"vehicle_type_id":"4","last_reported":1752063707,"current_range_meters":22000,"station_id":"st_cvj6r9ubvosntc0bgbag","pricing_plan_id":"cebpf4jnsgd1na2vs0mg"},{"bike_id":"12671aaf-df30-48df-969a-0e8ba311c0d9","system_id":"levelo_inurba_marseille","lat":43.299257,"lon":5.374755,"is_reserved":false,"is_disabled":false,"rental_uris":{"android":"levelo://app?vid=12671aaf-df30-48df-969a-0e8ba311c0d9","ios":"levelo://app?vid=12671aaf-df30-48df-969a-0e8ba311c0d9"},"vehicle_type_id":"4","last_reported":1752063707,"current_range_meters":22400,"station_id":"","pricing_plan_id":"cebpf4jnsgd1na2vs0mg"},{"bike_id":"20df4747-36fc-464d-a074-716a7d7e95c5","system_id":"levelo_inurba_marseille","lat":43.29361,"lon":5.37836,"is_reserved":false,"is_disabled":false,"rental_uris":{"android":"levelo://app?vid=20df4747-36fc-464d-a074-716a7d7e95c5","ios":"levelo://app?vid=20df4747-36fc-464d-a074-716a7d7e95c5"},"vehicle_type_id":"4","last_reported":1752063707,"current_range_meters":22400,"station_id":"ce4bgjh2rcd13ifvqbf0","pricing_plan_id":"cebpf4jnsgd1na2vs0mg"},{"bike_id":"5a47dbc3-259f-405b-aae5-eb27140bbe63","system_id":"levelo_inurba_marseille","lat":43.31228,"lon":5.36851,"is_reserved":false,"is_disabled":false,"rental_uris":{"android":"levelo://app?vid=5a47dbc3-259f-405b-aae5-eb27140bbe63","ios":"levelo://app?vid=5a47dbc3-259f-405b-aae5-eb27140bbe63"},"vehicle_type_id":"4","last_reported":1752063707,"current_range_meters":22400,"station_id":"ce4bgl92rcd13ifvqbq0","pricing_plan_id":"cebpf4jnsgd1na2vs0mg"},{"bike_id":"8f89e4f3-495a-4317-bd6d-37a19186d65b","system_id":"levelo_inurba_marseille","lat":43.337255,"lon":5.391915,"is_reserved":false,"is_disabled":false,"rental_uris":{"android":"levelo://app?vid=8f89e4f3-495a-4317-bd6d-37a19186d65b","ios":"levelo://app?vid=8f89e4f3-495a-4317-bd6d-37a19186d65b"},"vehicle_type_id":"4","last_reported":1752063707,"current_range_meters":22400,"station_id":"ce4bhr92rcd13ifvqhsg","pricing_plan_id":"cebpf4jnsgd1na2vs0mg"},{"bike_id":"6ddbcce8-8ba0-4989-bc69-beeb790cefa2","system_id":"levelo_inurba_marseille","lat":43.28722,"lon":5.36103,"is_reserved":false,"is_disabled":false,"rental_uris":{"android":"levelo://app?vid=6ddbcce8-8ba0-4989-bc69-beeb790cefa2","ios":"levelo://app?vid=6ddbcce8-8ba0-4989-bc69-beeb790cefa2"},"vehicle_type_id":"4","last_reported":1752063707,"current_range_meters":22400,"station_id":"cki0cbj6b192h4jlfktg","pricing_plan_id":"cebpf4jnsgd1na2vs0mg"},{"bike_id":"6006a9aa-40e9-4dd0-9916-778076e2eaee","system_id":"levelo_inurba_marseille","lat":43.28416,"lon":5.34999,"is_reserved":false,"is_disabled":false,"rental_uris":{"android":"levelo://app?vid=6006a9aa-40e9-4dd0-9916-778076e2eaee","ios":"levelo://app?vid=6006a9aa-40e9-4dd0-9916-778076e2eaee"},"vehicle_type_id":"4","last_reported":1752063707,"current_range_meters":22800,"station_id":"ce4bhbh2rcd13ifvqepg","pricing_plan_id":"cebpf4jnsgd1na2vs0mg"},{"bike_id":"78bdf2ae-c0c8-4941-9fc5-53a11457f747","system_id":"levelo_inurba_marseille","lat":43.2619,"lon":5.37468,"is_reserved":false,"is_disabled":false,"rental_uris":{"android":"levelo://app?vid=78bdf2ae-c0c8-4941-9fc5-53a11457f747","ios":"levelo://app?vid=78bdf2ae-c0c8-4941-9fc5-53a11457f747"},"vehicle_type_id":"4","last_reported":1752063707,"current_range_meters":22800,"station_id":"ce4bhgp2rcd13ifvqfc0","pricing_plan_id":"cebpf4jnsgd1na2vs0mg"},{"bike_id":"7dd4e999-9183-42ea-b8ed-fdae3fc61072","system_id":"levelo_inurba_marseille","lat":43.2621,"lon":5.37443,"is_reserved":false,"is_disabled":false,"rental_uris":{"android":"levelo://app?vid=7dd4e999-9183-42ea-b8ed-fdae3fc61072","ios":"levelo://app?vid=7dd4e999-9183-42ea-b8ed-fdae3fc61072"},"vehicle_type_id":"4","last_reported":1752063707,"current_range_meters":22800,"station_id":"ce4bhgp2rcd13ifvqfc0","pricing_plan_id":"cebpf4jnsgd1na2vs0mg"},{"bike_id":"baabd2ad-3cfa-4555-9548-34992b771d51","system_id":"levelo_inurba_marseille","lat":43.2621,"lon":5.37445,"is_reserved":false,"is_disabled":false,"rental_uris":{"android":"levelo://app?vid=baabd2ad-3cfa-4555-9548-34992b771d51","ios":"levelo://app?vid=baabd2ad-3cfa-4555-9548-34992b771d51"},"vehicle_type_id":"4","last_reported":1752063707,"current_range_meters":22800,"station_id":"ce4bhgp2rcd13ifvqfc0","pricing_plan_id":"cebpf4jnsgd1na2vs0mg"},{"bike_id":"3b935dfc-179a-4512-b00d-bb8fa978bd14","system_id":"levelo_inurba_marseille","lat":43.29887,"lon":5.43615,"is_reserved":false,"is_disabled":false,"rental_uris":{"android":"levelo://app?vid=3b935dfc-179a-4512-b00d-bb8fa978bd14","ios":"levelo://app?vid=3b935dfc-179a-4512-b00d-bb8fa978bd14"},"vehicle_type_id":"4","last_reported":1752063707,"current_range_meters":22800,"station_id":"ce4bhpp2rcd13ifvqhfg","pricing_plan_id":"cebpf4jnsgd1na2vs0mg"},{"bike_id":"d08500b9-de3a-48ff-91b8-a1d08ec3b455","system_id":"levelo_inurba_marseille","lat":43.30103,"lon":5.36428,"is_reserved":false,"is_disabled":false,"rental_uris":{"android":"levelo://app?vid=d08500b9-de3a-48ff-91b8-a1d08ec3b455","ios":"levelo://app?vid=d08500b9-de3a-48ff-91b8-a1d08ec3b455"},"vehicle_type_id":"4","last_reported":1752063707,"current_range_meters":23200,"station_id":"","pricing_plan_id":"cebpf4jnsgd1na2vs0mg"},{"bike_id":"f64ea80f-2d40-46f6-af68-55052b037017","system_id":"levelo_inurba_marseille","lat":43.31868,"lon":5.37326,"is_reserved":false,"is_disabled":false,"rental_uris":{"android":"levelo://app?vid=f64ea80f-2d40-46f6-af68-55052b037017","ios":"levelo://app?vid=f64ea80f-2d40-46f6-af68-55052b037017"},