{"last_updated":1743271907,"ttl":60,"version":"2.2","data":{"bikes":[{"bike_id":"f9d7031a-488d-4f1c-b549-30e516b7bb47","system_id":"levelo_inurba_marseille","lat":43.31705,"lon":5.37728,"is_reserved":false,"is_disabled":false,"rental_uris":{"android":"levelo://app?vid=f9d7031a-488d-4f1c-b549-30e516b7bb47","ios":"levelo://app?vid=f9d7031a-488d-4f1c-b549-30e516b7bb47"},"vehicle_type_id":"4","last_reported":1743271907,"current_range_meters":2800,"station_id":"ce4bgth2rcd13ifvqch0","pricing_plan_id":"cebpf4jnsgd1na2vs0mg"},{"bike_id":"d972217a-134d-4a7e-a8ac-37e651f0f1ae","system_id":"levelo_inurba_marseille","lat":43.27211,"lon":5.39176,"is_reserved":false,"is_disabled":false,"rental_uris":{"android":"levelo://app?vid=d972217a-134d-4a7e-a8ac-37e651f0f1ae","ios":"levelo://app?vid=d972217a-134d-4a7e-a8ac-37e651f0f1ae"},"vehicle_type_id":"4","last_reported":1743271907,"current_range_meters":2800,"station_id":"ce4bhhp2rcd13ifvqfm0","pricing_plan_id":"cebpf4jnsgd1na2vs0mg"},{"bike_id":"1ef33c52-3312-4cff-97ac-ac312a2ce3b4","system_id":"levelo_inurba_marseille","lat":43.27072,"lon":5.42288,"is_reserved":false,"is_disabled":false,"rental_uris":{"android":"levelo://app?vid=1ef33c52-3312-4cff-97ac-ac312a2ce3b4","ios":"levelo://app?vid=1ef33c52-3312-4cff-97ac-ac312a2ce3b4"},"vehicle_type_id":"4","last_reported":1743271907,"current_range_meters":2000,"station_id":"ce4bhk92rcd13ifvqgb0","pricing_plan_id":"cebpf4jnsgd1na2vs0mg"},{"bike_id":"a5764246-6786-4be7-90ca-cc92e776f13c","system_id":"levelo_inurba_marseille","lat":43.31078,"lon":5.38363,"is_reserved":false,"is_disabled":false,"rental_uris":{"android":"levelo://app?vid=a5764246-6786-4be7-90ca-cc92e776f13c","ios":"levelo://app?vid=a5764246-6786-4be7-90ca-cc92e776f13c"},"vehicle_type_id":"4","last_reported":1743271907,"current_range_meters":3200,"station_id":"ce4bgv92rcd13ifvqcr0","pricing_plan_id":"cebpf4jnsgd1na2vs0mg"},{"bike_id":"fc02e96e-40ac-4464-b7ac-150d5b6d8e43","system_id":"levelo_inurba_marseille","lat":43.30595,"lon":5.37248,"is_reserved":false,"is_disabled":false,"rental_uris":{"android":"levelo://app?vid=fc02e96e-40ac-4464-b7ac-150d5b6d8e43","ios":"levelo://app?vid=fc02e96e-40ac-4464-b7ac-150d5b6d8e43"},"vehicle_type_id":"4","last_reported":1743271907,"current_range_meters":3200,"station_id":"ce4bgqh2rcd13ifvqc4g","pricing_plan_id":"cebpf4jnsgd1na2vs0mg"},{"bike_id":"eabe884e-dff1-46f8-9312-5ab1f8f15492","system_id":"levelo_inurba_marseille","lat":43.29214,"lon":5.36042,"is_reserved":false,"is_disabled":true,"rental_uris":{"android":"levelo://app?vid=eabe884e-dff1-46f8-9312-5ab1f8f15492","ios":"levelo://app?vid=eabe884e-dff1-46f8-9312-5ab1f8f15492"},"vehicle_type_id":"4","last_reported":1743271907,"current_range_meters":3200,"station_id":"ce4bhbh2rcd13ifvqeqg","pricing_plan_id":"cebpf4jnsgd1na2vs0mg"},{"bike_id":"92c4c2f8-326a-4982-9247-030b2e44924f","system_id":"levelo_inurba_marseille","lat":43.30165,"lon":5.38082,"is_reserved":false,"is_disabled":false,"rental_uris":{"android":"levelo://app?vid=92c4c2f8-326a-4982-9247-030b2e44924f","ios":"levelo://app?vid=92c4c2f8-326a-4982-9247-030b2e44924f"},"vehicle_type_id":"4","last_reported":1743271907,"current_range_meters":3200,"station_id":"ce4bgjp2rcd13ifvqbh0","pricing_plan_id":"cebpf4jnsgd1na2vs0mg"},{"bike_id":"230b6ccd-bec9-4a09-b201-c7985cc70721","system_id":"levelo_inurba_marseille","lat":43.26954,"lon":5.38622,"is_reserved":false,"is_disabled":false,"rental_uris":{"android":"levelo://app?vid=230b6ccd-bec9-4a09-b201-c7985cc70721","ios":"levelo://app?vid=230b6ccd-bec9-4a09-b201-c7985cc70721"},"vehicle_type_id":"4","last_reported":1743271907,"current_range_meters":3200,"station_id":"ce4bhh92rcd13ifvqfh0","pricing_plan_id":"cebpf4jnsgd1na2vs0mg"},{"bike_id":"d87a8764-7d47-4825-a443-276814ecef87","system_id":"levelo_inurba_marseille","lat":43.28925,"lon":5.38376,"is_reserved":false,"is_disabled":true,"rental_uris":{"android":"levelo://app?vid=d87a8764-7d47-4825-a443-276814ecef87","ios":"levelo://app?vid=d87a8764-7d47-4825-a443-276814ecef87"},"vehicle_type_id":"4","last_reported":1743271907,"current_range_meters":3600,"station_id":"ce4bh612rcd13ifvqe6g","pricing_plan_id":"cebpf4jnsgd1na2vs0mg"},{"bike_id":"bf486d29-80ae-43fc-9394-756ed3e2b73e","system_id":"levelo_inurba_marseille","lat":43.28018,"lon":5.39954,"is_reserved":false,"is_disabled":true,"rental_uris":{"android":"levelo://app?vid=bf486d29-80ae-43fc-9394-756ed3e2b73e","ios":"levelo://app?vid=bf486d29-80ae-43fc-9394-756ed3e2b73e"},"vehicle_type_id":"4","last_reported":1743271907,"current_range_meters":3600,"station_id":"","pricing_plan_id":"cebpf4jnsgd1na2vs0mg"},{"bike_id":"ba51f36b-cbcc-4127-9403-4b8821c23e1b","system_id":"levelo_inurba_marseille","lat":43.299717,"lon":5.384799,"is_reserved":false,"is_disabled":false,"rental_uris":{"android":"levelo://app?vid=ba51f36b-cbcc-4127-9403-4b8821c23e1b","ios":"levelo://app?vid=ba51f36b-cbcc-4127-9403-4b8821c23e1b"},"vehicle_type_id":"4","last_reported":1743271907,"current_range_meters":3600,"station_id":"ce4bgj92rcd13ifvqbd0","pricing_plan_id":"cebpf4jnsgd1na2vs0mg"},{"bike_id":"b47935b1-3db5-44f0-a6ea-95bf1c41a709","system_id":"levelo_inurba_marseille","lat":43.30799,"lon":5.38153,"is_reserved":false,"is_disabled":false,"rental_uris":{"android":"levelo://app?vid=b47935b1-3db5-44f0-a6ea-95bf1c41a709","ios":"levelo://app?vid=b47935b1-3db5-44f0-a6ea-95bf1c41a709"},"vehicle_type_id":"4","last_reported":1743271907,"current_range_meters":3600,"station_id":"ce4bgt12rcd13ifvqce0","pricing_plan_id":"cebpf4jnsgd1na2vs0mg"},{"bike_id":"21de5a6e-c99a-45ae-aeef-eb801debcb02","system_id":"levelo_inurba_marseille","lat":43.31281,"lon":5.383023,"is_reserved":false,"is_disabled":false,"rental_uris":{"android":"levelo://app?vid=21de5a6e-c99a-45ae-aeef-eb801debcb02","ios":"levelo://app?vid=21de5a6e-c99a-45ae-aeef-eb801debcb02"},"vehicle_type_id":"4","last_reported":1743271907,"current_range_meters":3600,"station_id":"","pricing_plan_id":"cebpf4jnsgd1na2vs0mg"},{"bike_id":"ee2588a0-8a3d-4c56-88e3-6823a90de92d","system_id":"levelo_inurba_marseille","lat":43.28087,"lon":5.38594,"is_reserved":false,"is_disabled":false,"rental_uris":{"android":"levelo://app?vid=ee2588a0-8a3d-4c56-88e3-6823a90de92d","ios":"levelo://app?vid=ee2588a0-8a3d-4c56-88e3-6823a90de92d"},"vehicle_type_id":"4","last_reported":1743271907,"current_range_meters":3600,"station_id":"","pricing_plan_id":"cebpf4jnsgd1na2vs0mg"},{"bike_id":"6c0b0148-a34d-4e4e-b13a-9d46de620801","system_id":"levelo_inurba_marseille","lat":43.29896,"lon":5.38139,"is_reserved":false,"is_disabled":false,"rental_uris":{"android":"levelo://app?vid=6c0b0148-a34d-4e4e-b13a-9d46de620801","ios":"levelo://app?vid=6c0b0148-a34d-4e4e-b13a-9d46de620801"},"vehicle_type_id":"4","last_reported":1743271907,"current_range_meters":3600,"station_id":"ce4bgj12rcd13ifvqbc0","pricing_plan_id":"cebpf4jnsgd1na2vs0mg"},{"bike_id":"c35f7468-1371-4b51-bf37-de9b928bcd7e","system_id":"levelo_inurba_marseille","lat":43.27914,"lon":5.41258,"is_reserved":false,"is_disabled":false,"rental_uris":{"android":"levelo://app?vid=c35f7468-1371-4b51-bf37-de9b928bcd7e","ios":"levelo://app?vid=c35f7468-1371-4b51-bf37-de9b928bcd7e"},"vehicle_type_id":"4","last_reported":1743271907,"current_range_meters":3600,"station_id":"","pricing_plan_id":"cebpf4jnsgd1na2vs0mg"},{"bike_id":"a92d2a51-989e-45ce-914a-1d3947c5b6f6","system_id":"levelo_inurba_marseille","lat":43.28386,"lon":5.39834,"is_reserved":false,"is_disabled":false,"rental_uris":{"android":"levelo://app?vid=a92d2a51-989e-45ce-914a-1d3947c5b6f6","ios":"levelo://app?vid=a92d2a51-989e-45ce-914a-1d3947c5b6f6"},"vehicle_type_id":"4","last_reported":1743271907,"current_range_meters":3600,"station_id":"","pricing_plan_id":"cebpf4jnsgd1na2vs0mg"},{"bike_id":"e7b896db-9c5e-420f-8349-b2c8eae053da","system_id":"levelo_inurba_marseille","lat":43.2885,"lon":5.35832,"is_reserved":false,"is_disabled":false,"rental_uris":{"android":"levelo://app?vid=e7b896db-9c5e-420f-8349-b2c8eae053da","ios":"levelo://app?vid=e7b896db-9c5e-420f-8349-b2c8eae053da"},"vehicle_type_id":"4","last_reported":1743271907,"current_range_meters":4000,"station_id":"ce4bhb12rcd13ifvqem0","pricing_plan_id":"cebpf4jnsgd1na2vs0mg"},{"bike_id":"3dc796f5-638d-4908-ab96-13ac400d8049","system_id":"levelo_inurba_marseille","lat":43.231747,"lon":5.399792,"is_reserved":false,"is_disabled":true,"rental_uris":{"android":"levelo://app?vid=3dc796f5-638d-4908-ab96-13ac400d8049","ios":"levelo://app?vid=3dc796f5-638d-4908-ab96-13ac400d8049"},"vehicle_type_id":"4","last_reported":1743271907,"current_range_meters":4000,"station_id":"ce4bhn12rcd13ifvqgqg","pricing_plan_id":"cebpf4jnsgd1na2vs0mg"},{"bike_id":"0209e0e1-f001-401d-b09b-a9b5db2a293f","system_id":"levelo_inurba_marseille","lat":43.30537,"lon":5.36556,"is_reserved":false,"is_disabled":false,"rental_uris":{"android":"levelo://app?vid=0209e0e1-f001-401d-b09b-a9b5db2a293f","ios":"levelo://app?vid=0209e0e1-f001-401d-b09b-a9b5db2a293f"},"vehicle_type_id":"4","last_reported":1743271907,"current_range_meters":6800,"station_id":"ce4bgs12rcd13ifvqcag","pricing_plan_id":"cebpf4jnsgd1na2vs0mg"},{"bike_id":"add3979b-a358-4984-ae33-821629ff2a22","system_id":"levelo_inurba_marseille","lat":43.28264,"lon":5.35053,"is_reserved":false,"is_disabled":false,"rental_uris":{"android":"levelo://app?vid=add3979b-a358-4984-ae33-821629ff2a22","ios":"levelo://app?vid=add3979b-a358-4984-ae33-821629ff2a22"},"vehicle_type_id":"4","last_reported":1743271907,"current_range_meters":4000,"station_id":"ce4bhbp2rcd13ifvqerg","pricing_plan_id":"cebpf4jnsgd1na2vs0mg"},{"bike_id":"de05e992-ebbb-4468-a131-1d7363535419","system_id":"levelo_inurba_marseille","lat":43.25574,"lon":5.38236,"is_reserved":false,"is_disabled":true,"rental_uris":{"android":"levelo://app?vid=de05e992-ebbb-4468-a131-1d7363535419","ios":"levelo://app?vid=de05e992-ebbb-4468-a131-1d7363535419"},"vehicle_type_id":"4","last_reported":1743271907,"current_range_meters":4000,"station_id":"ce4bhih2rcd13ifvqfs0","pricing_plan_id":"cebpf4jnsgd1na2vs0mg"},{"bike_id":"c5109caf-5e2e-4c1b-ac0d-fb49e59c26ae","system_id":"levelo_inurba_marseille","lat":43.29256,"lon":5.38418,"is_reserved":false,"is_disabled":false,"rental_uris":{"android":"levelo://app?vid=c5109caf-5e2e-4c1b-ac0d-fb49e59c26ae","ios":"levelo://app?vid=c5109caf-5e2e-4c1b-ac0d-fb49e59c26ae"},"vehicle_type_id":"4","last_reported":1743271907,"current_range_meters":4400,"station_id":"ce4bh692rcd13ifvqea0","pricing_plan_id":"cebpf4jnsgd1na2vs0mg"},{"bike_id":"356c03b5-6344-485f-86dc-f007aae2a03a","system_id":"levelo_inurba_marseille","lat":43.302783,"lon":5.377193,"is_reserved":false,"is_disabled":false,"rental_uris":{"android":"levelo://app?vid=356c03b5-6344-485f-86dc-f007aae2a03a","ios":"levelo://app?vid=356c03b5-6344-485f-86dc-f007aae2a03a"},"vehicle_type_id":"4","last_reported":1743271907,"current_range_meters":4400,"station_id":"ce4bguh2rcd13ifvqcj0","pricing_plan_id":"cebpf4jnsgd1na2vs0mg"},{"bike_id":"b5eb75c9-b1a1-409a-b557-ccb52926f08a","system_id":"levelo_inurba_marseille","lat":43.288696,"lon":5.361257,"is_reserved":false,"is_disabled":false,"rental_uris":{"android":"levelo://app?vid=b5eb75c9-b1a1-409a-b557-ccb52926f08a","ios":"levelo://app?vid=b5eb75c9-b1a1-409a-b557-ccb52926f08a"},"vehicle_type_id":"4","last_reported":1743271907,"current_range_meters":4400,"station_id":"ce4bhb12rcd13ifvqem0","pricing_plan_id":"cebpf4jnsgd1na2vs0mg"},{"bike_id":"755c7df7-7177-4b51-9e80-aacc9d917849","system_id":"levelo_inurba_marseille","lat":43.33723,"lon":5.39179,"is_reserved":false,"is_disabled":false,"rental_uris":{"android":"levelo://app?vid=755c7df7-7177-4b51-9e80-aacc9d917849","ios":"levelo://app?vid=755c7df7-7177-4b51-9e80-aacc9d917849"},"vehicle_type_id":"4","last_reported":1743271907,"current_range_meters":4400,"station_id":"ce4bhr92rcd13ifvqhsg","pricing_plan_id":"cebpf4jnsgd1na2vs0mg"},{"bike_id":"e8dff52f-0703-430f-a053-bbc4d96fc146","system_id":"levelo_inurba_marseille","lat":43.29528,"lon":5.39407,"is_reserved":false,"is_disabled":false,"rental_uris":{"android":"levelo://app?vid=e8dff52f-0703-430f-a053-bbc4d96fc146","ios":"levelo://app?vid=e8dff52f-0703-430f-a053-bbc4d96fc146"},"vehicle_type_id":"4","last_reported":1743271907,"current_range_meters":4400,"station_id":"ce4bh292rcd13ifvqdf0","pricing_plan_id":"cebpf4jnsgd1na2vs0mg"},{"bike_id":"071b4337-5df2-4c7f-a59a-8f0bcf02cc5c","system_id":"levelo_inurba_marseille","lat":43.283495,"lon":5.396882,"is_reserved":false,"is_disabled":false,"rental_uris":{"android":"levelo://app?vid=071b4337-5df2-4c7f-a59a-8f0bcf02cc5c","ios":"levelo://app?vid=071b4337-5df2-4c7f-a59a-8f0bcf02cc5c"},"vehicle_type_id":"4","last_reported":1743271907,"current_range_meters":4000,"station_id":"ce4bhnh2rcd13ifvqgtg","pricing_plan_id":"cebpf4jnsgd1na2vs0mg"},{"bike_id":"4b43b828-4d4b-4554-80cc-193e099cf825","system_id":"levelo_inurba_marseille","lat":43.31481,"lon":5.37306,"is_reserved":false,"is_disabled":false,"rental_uris":{"android":"levelo://app?vid=4b43b828-4d4b-4554-80cc-193e099cf825","ios":"levelo://app?vid=4b43b828-4d4b-4554-80cc-193e099cf825"},"vehicle_type_id":"4","last_reported":1743271907,"current_range_meters":4800,"station_id":"ce4bgt12rcd13ifvqcd0","pricing_plan_id":"cebpf4jnsgd1na2vs0mg"},{"bike_id":"71237082-af46-478a-b917-4f49a5342faa","system_id":"levelo_inurba_marseille","lat":43.29257,"lon":5.38436,"is_reserved":false,"is_disabled":false,"rental_uris":{"android":"levelo://app?vid=71237082-af46-478a-b917-4f49a5342faa","ios":"levelo://app?vid=71237082-af46-478a-b917-4f49a5342faa"},"vehicle_type_id":"4","last_reported":1743271907,"current_range_meters":4800,"station_id":"ce4bh692rcd13ifvqea0","pricing_plan_id":"cebpf4jnsgd1na2vs0mg"},{"bike_id":"4a42ca1e-41e4-4233-a4bb-a180f04564d6","system_id":"levelo_inurba_marseille","lat":43.29175,"lon":5.37169,"is_reserved":false,"is_disabled":false,"rental_uris":{"android":"levelo://app?vid=4a42ca1e-41e4-4233-a4bb-a180f04564d6","ios":"levelo://app?vid=4a42ca1e-41e4-4233-a4bb-a180f04564d6"},"vehicle_type_id":"4","last_reported":1743271907,"current_range_meters":4800,"station_id":"ce4bha92rcd13ifvqeh0","pricing_plan_id":"cebpf4jnsgd1na2vs0mg"},{"bike_id":"88b170fa-fd61-43ac-88c7-7d22f1b72525","system_id":"levelo_inurba_marseille","lat":43.231833,"lon":5.400176,"is_reserved":false,"is_disabled":false,"rental_uris":{"android":"levelo://app?vid=88b170fa-fd61-43ac-88c7-7d22f1b72525","ios":"levelo://app?vid=88b170fa-fd61-43ac-88c7-7d22f1b72525"},"vehicle_type_id":"4","last_reported":1743271907,"current_range_meters":4800,"station_id":"ce4bhn12rcd13ifvqgqg","pricing_plan_id":"cebpf4jnsgd1na2vs0mg"},{"bike_id":"4c9dba26-b91f-4e3e-ab26-7b2b65dfe2ed","system_id":"levelo_inurba_marseille","lat":43.29959,"lon":5.38508,"is_reserved":false,"is_disabled":false,"rental_uris":{"android":"levelo://app?vid=4c9dba26-b91f-4e3e-ab26-7b2b65dfe2ed","ios":"levelo://app?vid=4c9dba26-b91f-4e3e-ab26-7b2b65dfe2ed"},"vehicle_type_id":"4","last_reported":1743271907,"current_range_meters":4800,"station_id":"ce4bgj92rcd13ifvqbd0","pricing_plan_id":"cebpf4jnsgd1na2vs0mg"},{"bike_id":"dd11f431-8173-4ffe-9664-6ef06540dc9b","system_id":"levelo_inurba_marseille","lat":43.29277,"lon":5.3685,"is_reserved":false,"is_disabled":false,"rental_uris":{"android":"levelo://app?vid=dd11f431-8173-4ffe-9664-6ef06540dc9b","ios":"levelo://app?vid=dd11f431-8173-4ffe-9664-6ef06540dc9b"},"vehicle_type_id":"4","last_reported":1743271907,"current_range_meters":4800,"station_id":"ce4bhbp2rcd13ifvqesg","pricing_plan_id":"cebpf4jnsgd1na2vs0mg"},{"bike_id":"ad70c865-ba47-45a7-9001-d5c456a2e14c","system_id":"levelo_inurba_marseille","lat":43.29794,"lon":5.38098,"is_reserved":false,"is_disabled":false,"rental_uris":{"android":"levelo://app?vid=ad70c865-ba47-45a7-9001-d5c456a2e14c","ios":"levelo://app?vid=ad70c865-ba47-45a7-9001-d5c456a2e14c"},"vehicle_type_id":"4","last_reported":1743271907,"current_range_meters":4800,"station_id":"ce4bgip2rcd13ifvqbb0","pricing_plan_id":"cebpf4jnsgd1na2vs0mg"},{"bike_id":"0ebaba20-efde-4ca8-861e-7c71efe10c3b","system_id":"levelo_inurba_marseille","lat":43.28856,"lon":5.35849,"is_reserved":false,"is_disabled":false,"rental_uris":{"android":"levelo://app?vid=0ebaba20-efde-4ca8-861e-7c71efe10c3b","ios":"levelo://app?vid=0ebaba20-efde-4ca8-861e-7c71efe10c3b"},"vehicle_type_id":"4","last_reported":1743271907,"current_range_meters":3200,"station_id":"ce4bhb12rcd13ifvqem0","pricing_plan_id":"cebpf4jnsgd1na2vs0mg"},{"bike_id":"6145254f-f2bf-466c-86d5-66f4c642de5e","system_id":"levelo_inurba_marseille","lat":43.32957,"lon":5.39006,"is_reserved":false,"is_disabled":false,"rental_uris":{"android":"levelo://app?vid=6145254f-f2bf-466c-86d5-66f4c642de5e","ios":"levelo://app?vid=6145254f-f2bf-466c-86d5-66f4c642de5e"},"vehicle_type_id":"4","last_reported":1743271907,"current_range_meters":4800,"station_id":"","pricing_plan_id":"cebpf4jnsgd1na2vs0mg"},{"bike_id":"d7c9e49f-9da5-4b2e-bae8-8dbfb05890a7","system_id":"levelo_inurba_marseille","lat":43.33358,"lon":5.4011,"is_reserved":false,"is_disabled":false,"rental_uris":{"android":"levelo://app?vid=d7c9e49f-9da5-4b2e-bae8-8dbfb05890a7","ios":"levelo://app?vid=d7c9e49f-9da5-4b2e-bae8-8dbfb05890a7"},"vehicle_type_id":"4","last_reported":1743271907,"current_range_meters":5600,"station_id":"","pricing_plan_id":"cebpf4jnsgd1na2vs0mg"},{"bike_id":"c665550f-8aad-4598-ba63-43c7c0e6be29","system_id":"levelo_inurba_marseille","lat":43.30383,"lon":5.42479,"is_reserved":false,"is_disabled":false,"rental_uris":{"android":"levelo://app?vid=c665550f-8aad-4598-ba63-43c7c0e6be29","ios":"levelo://app?vid=c665550f-8aad-4598-ba63-43c7c0e6be29"},"vehicle_type_id":"4","last_reported":1743271907,"current_range_meters":5600,"station_id":"ce4bhoh2rcd13ifvqh6g","pricing_plan_id":"cebpf4jnsgd1na2vs0mg"},{"bike_id":"22d7e5c5-7213-4082-999f-8fcbd614b2c4","system_id":"levelo_inurba_marseille","lat":43.25113,"lon":5.40319,"is_reserved":false,"is_disabled":false,"rental_uris":{"android":"levelo://app?vid=22d7e5c5-7213-4082-999f-8fcbd614b2c4","ios":"levelo://app?vid=22d7e5c5-7213-4082-999f-8fcbd614b2c4"},"vehicle_type_id":"4","last_reported":1743271907,"current_range_meters":4800,"station_id":"ce4bhlh2rcd13ifvqgig","pricing_plan_id":"cebpf4jnsgd1na2vs0mg"},{"bike_id":"85f89756-c979-4611-a646-ebc0d34023f1","system_id":"levelo_inurba_marseille","lat":43.29262,"lon":5.38434,"is_reserved":false,"is_disabled":false,"rental_uris":{"android":"levelo://app?vid=85f89756-c979-4611-a646-ebc0d34023f1","ios":"levelo://app?vid=85f89756-c979-4611-a646-ebc0d34023f1"},"vehicle_type_id":"4","last_reported":1743271907,"current_range_meters":5600,"station_id":"ce4bh692rcd13ifvqea0","pricing_plan_id":"cebpf4jnsgd1na2vs0mg"},{"bike_id":"861ae205-c318-4688-ac53-947993e1b65f","system_id":"levelo_inurba_marseille","lat":43.24169,"lon":5.36392,"is_reserved":false,"is_disabled":false,"rental_uris":{"android":"levelo://app?vid=861ae205-c318-4688-ac53-947993e1b65f","ios":"levelo://app?vid=861ae205-c318-4688-ac53-947993e1b65f"},"vehicle_type_id":"4","last_reported":1743271907,"current_range_meters":5600,"station_id":"cpo36qri1sfpv3e86is0","pricing_plan_id":"cebpf4jnsgd1na2vs0mg"},{"bike_id":"b9bafa4e-7259-45d7-8720-b6f02159b105","system_id":"levelo_inurba_marseille","lat":43.28043,"lon":5.36941,"is_reserved":false,"is_disabled":false,"rental_uris":{"android":"levelo://app?vid=b9bafa4e-7259-45d7-8720-b6f02159b105","ios":"levelo://app?vid=b9bafa4e-7259-45d7-8720-b6f02159b105"},"vehicle_type_id":"4","last_reported":1743271907,"current_range_meters":5600,"station_id":"ce4bha12rcd13ifvqef0","pricing_plan_id":"cebpf4jnsgd1na2vs0mg"},{"bike_id":"f83a4256-8c0a-4971-9f7b-419710aa8c24","system_id":"levelo_inurba_marseille","lat":43.28467,"lon":5.35898,"is_reserved":false,"is_disabled":false,"rental_uris":{"android":"levelo://app?vid=f83a4256-8c0a-4971-9f7b-419710aa8c24","ios":"levelo://app?vid=f83a4256-8c0a-4971-9f7b-419710aa8c24"},"vehicle_type_id":"4","last_reported":1743271907,"current_range_meters":4800,"station_id":"ce4bhah2rcd13ifvqei0","pricing_plan_id":"cebpf4jnsgd1na2vs0mg"},{"bike_id":"73247472-1c18-47eb-88e1-210766c2c118","system_id":"levelo_inurba_marseille","lat":43.30466,"lon":5.37902,"is_reserved":false,"is_disabled":false,"rental_uris":{"android":"levelo://app?vid=73247472-1c18-47eb-88e1-210766c2c118","ios":"levelo://app?vid=73247472-1c18-47eb-88e1-210766c2c118"},"vehicle_type_id":"4","last_reported":1743271907,"current_range_meters":5600,"station_id":"ce4bgup2rcd13ifvqcn0","pricing_plan_id":"cebpf4jnsgd1na2vs0mg"},{"bike_id":"20ba61ad-8be5-4e4a-b53c-23c18e074fb3","system_id":"levelo_inurba_marseille","lat":43.29602,"lon":5.38104,"is_reserved":false,"is_disabled":false,"rental_uris":{"android":"levelo://app?vid=20ba61ad-8be5-4e4a-b53c-23c18e074fb3","ios":"levelo://app?vid=20ba61ad-8be5-4e4a-b53c-23c18e074fb3"},"vehicle_type_id":"4","last_reported":1743271907,"current_range_meters":5600,"station_id":"ce4bgl12rcd13ifvqbo0","pricing_plan_id":"cebpf4jnsgd1na2vs0mg"},{"bike_id":"5360093f-5102-4f6a-88a8-58cc9d940a17","system_id":"levelo_inurba_marseille","lat":43.30132,"lon":5.38793,"is_reserved":false,"is_disabled":false,"rental_uris":{"android":"levelo://app?vid=5360093f-5102-4f6a-88a8-58cc9d940a17","ios":"levelo://app?vid=5360093f-5102-4f6a-88a8-58cc9d940a17"},"vehicle_type_id":"4","last_reported":1743271907,"current_range_meters":6000,"station_id":"ce4bghh2rcd13ifvqb60","pricing_plan_id":"cebpf4jnsgd1na2vs0mg"},{"bike_id":"b07712b0-9a88-4b1d-84aa-8d38df1fe721","system_id":"levelo_inurba_marseille","lat":43.28616,"lon":5.35103,"is_reserved":false,"is_disabled":false,"rental_uris":{"android":"levelo://app?vid=b07712b0-9a88-4b1d-84aa-8d38df1fe721","ios":"levelo://app?vid=b07712b0-9a88-4b1d-84aa-8d38df1fe721"},"vehicle_type_id":"4","last_reported":1743271907,"current_range_meters":6000,"station_id":"ce4bhch2rcd13ifvqeug","pricing_plan_id":"cebpf4jnsgd1na2vs0mg"},{"bike_id":"971c92cb-66df-438d-9a85-e63af939e6ff","system_id":"levelo_inurba_marseille","lat":43.28616,"lon":5.3513,"is_reserved":false,"is_disabled":true,"rental_uris":{"android":"levelo://app?vid=971c92cb-66df-438d-9a85-e63af939e6ff","ios":"levelo://app?vid=971c92cb-66df-438d-9a85-e63af939e6ff"},"vehicle_type_id":"4","last_reported":1743271907,"current_range_meters":6000,"station_id":"ce4bhch2rcd13ifvqeug","pricing_plan_id":"cebpf4jnsgd1na2vs0mg"},{"bike_id":"c2250cd5-e4e0-4ff6-a99d-a6d28e2ab626","system_id":"levelo_inurba_marseille","lat":43.30133,"lon":5.3987,"is_reserved":false,"is_disabled":false,"rental_uris":{"android":"levelo://app?vid=c2250cd5-e4e0-4ff6-a99d-a6d28e2ab626","ios":"levelo://app?vid=c2250cd5-e4e0-4ff6-a99d-a6d28e2ab626"},"vehicle_type_id":"4","last_reported":1743271907,"current_range_meters":6000,"station_id":"ce4bh0h2rcd13ifvqd40","pricing_plan_id":"cebpf4jnsgd1na2vs0mg"},{"bike_id":"432cd699-fc3a-4e41-9430-43bda79cfa07","system_id":"levelo_inurba_marseille","lat":43.28446,"lon":5.39199,"is_reserved":false,"is_disabled":false,"rental_uris":{"android":"levelo://app?vid=432cd699-fc3a-4e41-9430-43bda79cfa07","ios":"levelo://app?vid=432cd699-fc3a-4e41-9430-43bda79cfa07"},"vehicle_type_id":"4","last_reported":1743271907,"current_range_meters":6000,"station_id":"ce4bhoh2rcd13ifvqh5g","pricing_plan_id":"cebpf4jnsgd1na2vs0mg"},{"bike_id":"87c36c80-4852-43a7-a1ce-36cf91ee0663","system_id":"levelo_inurba_marseille","lat":43.29258,"lon":5.40907,"is_reserved":false,"is_disabled":false,"rental_uris":{"android":"levelo://app?vid=87c36c80-4852-43a7-a1ce-36cf91ee0663","ios":"levelo://app?vid=87c36c80-4852-43a7-a1ce-36cf91ee0663"},"vehicle_type_id":"4","last_reported":1743271907,"current_range_meters":6000,"station_id":"ce4bh192rcd13ifvqdc0","pricing_plan_id":"cebpf4jnsgd1na2vs0mg"},{"bike_id":"fad9551c-e027-4517-b92b-aae6db00f065","system_id":"levelo_inurba_marseille","lat":43.33738,"lon":5.39185,"is_reserved":false,"is_disabled":false,"rental_uris":{"android":"levelo://app?vid=fad9551c-e027-4517-b92b-aae6db00f065","ios":"levelo://app?vid=fad9551c-e027-4517-b92b-aae6db00f065"},"vehicle_type_id":"4","last_reported":1743271907,"current_range_meters":6400,"station_id":"ce4bhr92rcd13ifvqhsg","pricing_plan_id":"cebpf4jnsgd1na2vs0mg"},{"bike_id":"2039ecbe-7df2-4a33-af56-7ae6216f7bb0","system_id":"levelo_inurba_marseille","lat":43.302996,"lon":5.392086,"is_reserved":false,"is_disabled":false,"rental_uris":{"android":"levelo://app?vid=2039ecbe-7df2-4a33-af56-7ae6216f7bb0","ios":"levelo://app?vid=2039ecbe-7df2-4a33-af56-7ae6216f7bb0"},"vehicle_type_id":"4","last_reported":1743271907,"current_range_meters":6400,"station_id":"ce4bgkh2rcd13ifvqbk0","pricing_plan_id":"cebpf4jnsgd1na2vs0mg"},{"bike_id":"90df0f14-f996-423e-b605-53c2c708242e","system_id":"levelo_inurba_marseille","lat":43.31676,"lon":5.40514,"is_reserved":false,"is_disabled":false,"rental_uris":{"android":"levelo://app?vid=90df0f14-f996-423e-b605-53c2c708242e","ios":"levelo://app?vid=90df0f14-f996-423e-b605-53c2c708242e"},"vehicle_type_id":"4","last_reported":1743271907,"current_range_meters":6400,"station_id":"ce4bh012rcd13ifvqd00","pricing_plan_id":"cebpf4jnsgd1na2vs0mg"},{"bike_id":"e154b2ca-d874-444e-9725-b61b6b36d92d","system_id":"levelo_inurba_marseille","lat":43.28874,"lon":5.35895,"is_reserved":false,"is_disabled":false,"rental_uris":{"android":"levelo://app?vid=e154b2ca-d874-444e-9725-b61b6b36d92d","ios":"levelo://app?vid=e154b2ca-d874-444e-9725-b61b6b36d92d"},"vehicle_type_id":"4","last_reported":1743271907,"current_range_meters":6400,"station_id":"ce4bhb12rcd13ifvqem0","pricing_plan_id":"cebpf4jnsgd1na2vs0mg"},{"bike_id":"ae98c926-47a7-4da7-84f4-fb33256b7792","system_id":"levelo_inurba_marseille","lat":43.34152,"lon":5.4089,"is_reserved":false,"is_disabled":false,"rental_uris":{"android":"levelo://app?vid=ae98c926-47a7-4da7-84f4-fb33256b7792","ios":"levelo://app?vid=ae98c926-47a7-4da7-84f4-fb33256b7792"},"vehicle_type_id":"4","last_reported":1743271907,"current_range_meters":6000,"station_id":"ce4bhqh2rcd13ifvqhlg","pricing_plan_id":"cebpf4jnsgd1na2vs0mg"},{"bike_id":"408746d3-99e0-43d2-8d1c-35bbc13c2d96","system_id":"levelo_inurba_marseille","lat":43.31707,"lon":5.40462,"is_reserved":false,"is_disabled":false,"rental_uris":{"android":"levelo://app?vid=408746d3-99e0-43d2-8d1c-35bbc13c2d96","ios":"levelo://app?vid=408746d3-99e0-43d2-8d1c-35bbc13c2d96"},"vehicle_type_id":"4","last_reported":1743271907,"current_range_meters":6000,"station_id":"ce4bh012rcd13ifvqd00","pricing_plan_id":"cebpf4jnsgd1na2vs0mg"},{"bike_id":"1d68de24-3566-4984-b7c7-c119d95d7bb2","system_id":"levelo_inurba_marseille","lat":43.29002,"lon":5.35612,"is_reserved":false,"is_disabled":false,"rental_uris":{"android":"levelo://app?vid=1d68de24-3566-4984-b7c7-c119d95d7bb2","ios":"levelo://app?vid=1d68de24-3566-4984-b7c7-c119d95d7bb2"},"vehicle_type_id":"4","last_reported":1743271907,"current_range_meters":8000,"station_id":"ce4bhb92rcd13ifvqen0","pricing_plan_id":"cebpf4jnsgd1na2vs0mg"},{"bike_id":"113b913c-aa32-4d09-925d-3ea89b6a3608","system_id":"levelo_inurba_marseille","lat":43.30163,"lon":5.38072,"is_reserved":false,"is_disabled":false,"rental_uris":{"android":"levelo://app?vid=113b913c-aa32-4d09-925d-3ea89b6a3608","ios":"levelo://app?vid=113b913c-aa32-4d09-925d-3ea89b6a3608"},"vehicle_type_id":"4","last_reported":1743271907,"current_range_meters":6800,"station_id":"ce4bgjp2rcd13ifvqbh0","pricing_plan_id":"cebpf4jnsgd1na2vs0mg"},{"bike_id":"e9955cbd-8972-449f-9c21-0178c408157b","system_id":"levelo_inurba_marseille","lat":43.30222,"lon":5.39485,"is_reserved":false,"is_disabled":false,"rental_uris":{"android":"levelo://app?vid=e9955cbd-8972-449f-9c21-0178c408157b","ios":"levelo://app?vid=e9955cbd-8972-449f-9c21-0178c408157b"},"vehicle_type_id":"4","last_reported":1743271907,"current_range_meters":6800,"station_id":"ce4bh0p2rcd13ifvqd70","pricing_plan_id":"cebpf4jnsgd1na2vs0mg"},{"bike_id":"b01eadf9-6c12-4938-82bd-1012a3ee7698","system_id":"levelo_inurba_marseille","lat":43.32071,"lon":5.41537,"is_reserved":false,"is_disabled":false,"rental_uris":{"android":"levelo://app?vid=b01eadf9-6c12-4938-82bd-1012a3ee7698","ios":"levelo://app?vid=b01eadf9-6c12-4938-82bd-1012a3ee7698"},"vehicle_type_id":"4","last_reported":1743271907,"current_range_meters":6800,"station_id":"ce4bhq92rcd13ifvqhkg","pricing_plan_id":"cebpf4jnsgd1na2vs0mg"},{"bike_id":"c76b0198-9b9f-40e7-830d-b0be7cf92d98","system_id":"levelo_inurba_marseille","lat":43.29097,"lon":5.37582,"is_reserved":false,"is_disabled":false,"rental_uris":{"android":"levelo://app?vid=c76b0198-9b9f-40e7-830d-b0be7cf92d98","ios":"levelo://app?vid=c76b0198-9b9f-40e7-830d-b0be7cf92d98"},"vehicle_type_id":"4","last_reported":1743271907,"current_range_meters":6800,"station_id":"","pricing_plan_id":"cebpf4jnsgd1na2vs0mg"},{"bike_id":"7015c5b8-2c45-467c-ad50-2d2a093084b7","system_id":"levelo_inurba_marseille","lat":43.29254,"lon":5.40901,"is_reserved":false,"is_disabled":false,"rental_uris":{"android":"levelo://app?vid=7015c5b8-2c45-467c-ad50-2d2a093084b7","ios":"levelo://app?vid=7015c5b8-2c45-467c-ad50-2d2a093084b7"},"vehicle_type_id":"4","last_reported":1743271907,"current_range_meters":6800,"station_id":"ce4bh192rcd13ifvqdc0","pricing_plan_id":"cebpf4jnsgd1na2vs0mg"},{"bike_id":"067b4f1d-9103-4472-9d36-15c7ffd463e7","system_id":"levelo_inurba_marseille","lat":43.25501,"lon":5.37639,"is_reserved":false,"is_disabled":false,"rental_uris":{"android":"levelo://app?vid=067b4f1d-9103-4472-9d36-15c7ffd463e7","ios":"levelo://app?vid=067b4f1d-9103-4472-9d36-15c7ffd463e7"},"vehicle_type_id":"4","last_reported":1743271907,"current_range_meters":6800,"station_id":"ce4bhh12rcd13ifvqff0","pricing_plan_id":"cebpf4jnsgd1na2vs0mg"},{"bike_id":"43d3f610-2ea9-4eda-a4c8-e3f9706bb87c","system_id":"levelo_inurba_marseille","lat":43.30387,"lon":5.37348,"is_reserved":false,"is_disabled":false,"rental_uris":{"android":"levelo://app?vid=43d3f610-2ea9-4eda-a4c8-e3f9706bb87c","ios":"levelo://app?vid=43d3f610-2ea9-4eda-a4c8-e3f9706bb87c"},"vehicle_type_id":"4","last_reported":1743271907,"current_range_meters":6800,"station_id":"","pricing_plan_id":"cebpf4jnsgd1na2vs0mg"},{"bike_id":"0320938d-ec5f-4c6a-ad92-1585e7cdafe6","system_id":"levelo_inurba_marseille","lat":43.30298,"lon":5.39208,"is_reserved":false,"is_disabled":false,"rental_uris":{"android":"levelo://app?vid=0320938d-ec5f-4c6a-ad92-1585e7cdafe6","ios":"levelo://app?vid=0320938d-ec5f-4c6a-ad92-1585e7cdafe6"},"vehicle_type_id":"4","last_reported":1743271907,"current_range_meters":6800,"station_id":"ce4bgkh2rcd13ifvqbk0","pricing_plan_id":"cebpf4jnsgd1na2vs0mg"},{"bike_id":"52bda2ec-e966-4ff3-a424-9226525f05f6","system_id":"levelo_inurba_marseille","lat":43.299176,"lon":5.374677,"is_reserved":false,"is_disabled":false,"rental_uris":{"android":"levelo://app?vid=52bda2ec-e966-4ff3-a424-9226525f05f6","ios":"levelo://app?vid=52bda2ec-e966-4ff3-a424-9226525f05f6"},"vehicle_type_id":"4","last_reported":1743271907,"current_range_meters":7200,"station_id":"ce4bgjh2rcd13ifvqbg0","pricing_plan_id":"cebpf4jnsgd1na2vs0mg"},{"bike_id":"f47eba55-a588-4033-a3dc-992c836c995d","system_id":"levelo_inurba_marseille","lat":43.31686,"lon":5.40522,"is_reserved":false,"is_disabled":false,"rental_uris":{"android":"levelo://app?vid=f47eba55-a588-4033-a3dc-992c836c995d","ios":"levelo://app?vid=f47eba55-a588-4033-a3dc-992c836c995d"},"vehicle_type_id":"4","last_reported":1743271907,"current_range_meters":7200,"station_id":"ce4bh012rcd13ifvqd00","pricing_plan_id":"cebpf4jnsgd1na2vs0mg"},{"bike_id":"5e155769-3669-4e19-8755-737b0b400b78","system_id":"levelo_inurba_marseille","lat":43.27073,"lon":5.42276,"is_reserved":false,"is_disabled":false,"rental_uris":{"android":"levelo://app?vid=5e155769-3669-4e19-8755-737b0b400b78","ios":"levelo://app?vid=5e155769-3669-4e19-8755-737b0b400b78"},"vehicle_type_id":"4","last_reported":1743271907,"current_range_meters":7200,"station_id":"ce4bhk92rcd13ifvqgb0","pricing_plan_id":"cebpf4jnsgd1na2vs0mg"},{"bike_id":"a92649bc-3f1a-44b8-bf48-759e76b18395","system_id":"levelo_inurba_marseille","lat":43.30463,"lon":5.379117,"is_reserved":false,"is_disabled":false,"rental_uris":{"android":"levelo://app?vid=a92649bc-3f1a-44b8-bf48-759e76b18395","ios":"levelo://app?vid=a92649bc-3f1a-44b8-bf48-759e76b18395"},"vehicle_type_id":"4","last_reported":1743271907,"current_range_meters":7200,"station_id":"ce4bgrh2rcd13ifvqc8g","pricing_plan_id":"cebpf4jnsgd1na2vs0mg"},{"bike_id":"c0505e84-5853-41d3-8f65-c0d8ffa64981","system_id":"levelo_inurba_marseille","lat":43.31076,"lon":5.38353,"is_reserved":false,"is_disabled":false,"rental_uris":{"android":"levelo://app?vid=c0505e84-5853-41d3-8f65-c0d8ffa64981","ios":"levelo://app?vid=c0505e84-5853-41d3-8f65-c0d8ffa64981"},"vehicle_type_id":"4","last_reported":1743271907,"current_range_meters":7200,"station_id":"ce4bgv92rcd13ifvqcr0","pricing_plan_id":"cebpf4jnsgd1na2vs0mg"},{"bike_id":"2bd2d2e0-1dfb-4cbc-990f-1007a1f6e7a6","system_id":"levelo_inurba_marseille","lat":43.26947,"lon":5.38667,"is_reserved":false,"is_disabled":false,"rental_uris":{"android":"levelo://app?vid=2bd2d2e0-1dfb-4cbc-990f-1007a1f6e7a6","ios":"levelo://app?vid=2bd2d2e0-1dfb-4cbc-990f-1007a1f6e7a6"},"vehicle_type_id":"4","last_reported":1743271907,"current_range_meters":7200,"station_id":"ce4bhh92rcd13ifvqfh0","pricing_plan_id":"cebpf4jnsgd1na2vs0mg"},{"bike_id":"d5ffff0a-47db-470d-a1ce-99a37bfcd090","system_id":"levelo_inurba_marseille","lat":43.28684,"lon":5.35102,"is_reserved":false,"is_disabled":false,"rental_uris":{"android":"levelo://app?vid=d5ffff0a-47db-470d-a1ce-99a37bfcd090","ios":"levelo://app?vid=d5ffff0a-47db-470d-a1ce-99a37bfcd090"},"vehicle_type_id":"4","last_reported":1743271907,"current_range_meters":7200,"station_id":"","pricing_plan_id":"cebpf4jnsgd1na2vs0mg"},{"bike_id":"8c0e80af-527e-4531-8c12-b2dd1d7d0e01","system_id":"levelo_inurba_marseille","lat":43.28411,"lon":5.37512,"is_reserved":false,"is_disabled":false,"rental_uris":{"android":"levelo://app?vid=8c0e80af-527e-4531-8c12-b2dd1d7d0e01","ios":"levelo://app?vid=8c0e80af-527e-4531-8c12-b2dd1d7d0e01"},"vehicle_type_id":"4","last_reported":1743271907,"current_range_meters":7200,"station_id":"ce4bh412rcd13ifvqds0","pricing_plan_id":"cebpf4jnsgd1na2vs0mg"},{"bike_id":"cd2dc4de-70a1-432b-8900-303cf935d2f7","system_id":"levelo_inurba_marseille","lat":43.24817,"lon":5.37466,"is_reserved":false,"is_disabled":false,"rental_uris":{"android":"levelo://app?vid=cd2dc4de-70a1-432b-8900-303cf935d2f7","ios":"levelo://app?vid=cd2dc4de-70a1-432b-8900-303cf935d2f7"},"vehicle_type_id":"4","last_reported":1743271907,"current_range_meters":7200,"station_id":"ce4bhgh2rcd13ifvqfb0","pricing_plan_id":"cebpf4jnsgd1na2vs0mg"},{"bike_id":"4777850e-a840-44f2-a6a5-fd44a1ac41d3","system_id":"levelo_inurba_marseille","lat":43.28705,"lon":5.4,"is_reserved":false,"is_disabled":true,"rental_uris":{"android":"levelo://app?vid=4777850e-a840-44f2-a6a5-fd44a1ac41d3","ios":"levelo://app?vid=4777850e-a840-44f2-a6a5-fd44a1ac41d3"},"vehicle_type_id":"4","last_reported":1743271907,"current_range_meters":8000,"station_id":"ce4bho92rcd13ifvqh3g","pricing_plan_id":"cebpf4jnsgd1na2vs0mg"},{"bike_id":"983c4c9f-ee1a-4d13-8ce7-bfd36c479f46","system_id":"levelo_inurba_marseille","lat":43.241701,"lon":5.364008,"is_reserved":false,"is_disabled":false,"rental_uris":{"android":"levelo://app?vid=983c4c9f-ee1a-4d13-8ce7-bfd36c479f46","ios":"levelo://app?vid=983c4c9f-ee1a-4d13-8ce7-bfd36c479f46"},"vehicle_type_id":"4","last_reported":1743271907,"current_range_meters":8000,"station_id":"cpo36qri1sfpv3e86is0","pricing_plan_id":"cebpf4jnsgd1na2vs0mg"},{"bike_id":"1b4e5c48-f3b8-4ca5-9244-3815d3918bd4","system_id":"levelo_inurba_marseille","lat":43.32333,"lon":5.38866,"is_reserved":false,"is_disabled":false,"rental_uris":{"android":"levelo://app?vid=1b4e5c48-f3b8-4ca5-9244-3815d3918bd4","ios":"levelo://app?vid=1b4e5c48-f3b8-4ca5-9244-3815d3918bd4"},"vehicle_type_id":"4","last_reported":1743271907,"current_range_meters":8000,"station_id":"ce4bhqp2rcd13ifvqhog","pricing_plan_id":"cebpf4jnsgd1na2vs0mg"},{"bike_id":"6082a6d8-29f3-4441-bd82-d0f95ead75d7","system_id":"levelo_inurba_marseille","lat":43.23191,"lon":5.35551,"is_reserved":false,"is_disabled":false,"rental_uris":{"android":"levelo://app?vid=6082a6d8-29f3-4441-bd82-d0f95ead75d7","ios":"levelo://app?vid=6082a6d8-29f3-4441-bd82-d0f95ead75d7"},"vehicle_type_id":"4","last_reported":1743271907,"current_range_meters":8000,"station_id":"ce4bhu92rcd13ifvqi70","pricing_plan_id":"cebpf4jnsgd1na2vs0mg"},{"bike_id":"590dcfc6-21a3-4493-99b8-0fb3b760ef55","system_id":"levelo_inurba_marseille","lat":43.278122,"lon":5.407127,"is_reserved":false,"is_disabled":false,"rental_uris":{"android":"levelo://app?vid=590dcfc6-21a3-4493-99b8-0fb3b760ef55","ios":"levelo://app?vid=590dcfc6-21a3-4493-99b8-0fb3b760ef55"},"vehicle_type_id":"4","last_reported":1743271907,"current_range_meters":8000,"station_id":"ce4bhnh2rcd13ifvqgtg","pricing_plan_id":"cebpf4jnsgd1na2vs0mg"},{"bike_id":"41c1e1a7-5974-4fd9-af8d-5e6b9bb19660","system_id":"levelo_inurba_marseille","lat":43.28075,"lon":5.39653,"is_reserved":false,"is_disabled":false,"rental_uris":{"android":"levelo://app?vid=41c1e1a7-5974-4fd9-af8d-5e6b9bb19660","ios":"levelo://app?vid=41c1e1a7-5974-4fd9-af8d-5e6b9bb19660"},"vehicle_type_id":"4","last_reported":1743271907,"current_range_meters":8000,"station_id":"ce4bho12rcd13ifvqh2g","pricing_plan_id":"cebpf4jnsgd1na2vs0mg"},{"bike_id":"0558bc66-2825-46b4-8c35-dfa19eca05b8","system_id":"levelo_inurba_marseille","lat":43.24445,"lon":5.37055,"is_reserved":false,"is_disabled":false,"rental_uris":{"android":"levelo://app?vid=0558bc66-2825-46b4-8c35-dfa19eca05b8","ios":"levelo://app?vid=0558bc66-2825-46b4-8c35-dfa19eca05b8"},"vehicle_type_id":"4","last_reported":1743271907,"current_range_meters":8000,"station_id":"","pricing_plan_id":"cebpf4jnsgd1na2vs0mg"},{"bike_id":"3ba3cd30-08db-4689-bff7-cf254cddab4f","system_id":"levelo_inurba_marseille","lat":43.2621,"lon":5.37423,"is_reserved":false,"is_disabled":false,"rental_uris":{"android":"levelo://app?vid=3ba3cd30-08db-4689-bff7-cf254cddab4f","ios":"levelo://app?vid=3ba3cd30-08db-4689-bff7-cf254cddab4f"},"vehicle_type_id":"4","last_reported":1743271907,"current_range_meters":8000,"station_id":"ce4bhgp2rcd13ifvqfc0","pricing_plan_id":"cebpf4jnsgd1na2vs0mg"},{"bike_id":"f0c94876-4d0d-4ad3-b840-262f0e18580e","system_id":"levelo_inurba_marseille","lat":43.32117,"lon":5.36775,"is_reserved":false,"is_disabled":false,"rental_uris":{"android":"levelo://app?vid=f0c94876-4d0d-4ad3-b840-262f0e18580e","ios":"levelo://app?vid=f0c94876-4d0d-4ad3-b840-262f0e18580e"},"vehicle_type_id":"4","last_reported":1743271907,"current_range_meters":8000,"station_id":"ce4bhrh2rcd13ifvqhug","pricing_plan_id":"cebpf4jnsgd1na2vs0mg"},{"bike_id":"8636753c-793a-4788-872b-3fef2cc432a9","system_id":"levelo_inurba_marseille","lat":43.24687,"lon":5.38172,"is_reserved":false,"is_disabled":false,"rental_uris":{"android":"levelo://app?vid=8636753c-793a-4788-872b-3fef2cc432a9","ios":"levelo://app?vid=8636753c-793a-4788-872b-3fef2cc432a9"},"vehicle_type_id":"4","last_reported":1743271907,"current_range_meters":8000,"station_id":"ce4bhih2rcd13ifvqfr0","pricing_plan_id":"cebpf4jnsgd1na2vs0mg"},{"bike_id":"746d2ee9-4208-491b-85f9-8de8faf7b7a5","system_id":"levelo_inurba_marseille","lat":43.29015,"lon":5.35613,"is_reserved":false,"is_disabled":false,"rental_uris":{"android":"levelo://app?vid=746d2ee9-4208-491b-85f9-8de8faf7b7a5","ios":"levelo://app?vid=746d2ee9-4208-491b-85f9-8de8faf7b7a5"},"vehicle_type_id":"4","last_reported":1743271907,"current_range_meters":8000,"station_id":"ce4bhb92rcd13ifvqen0","pricing_plan_id":"cebpf4jnsgd1na2vs0mg"},{"bike_id":"8114a869-6088-43d6-b57f-983654d4a95e","system_id":"levelo_inurba_marseille","lat":43.2931,"lon":5.37134,"is_reserved":false,"is_disabled":false,"rental_uris":{"android":"levelo://app?vid=8114a869-6088-43d6-b57f-983654d4a95e","ios":"levelo://app?vid=8114a869-6088-43d6-b57f-983654d4a95e"},"vehicle_type_id":"4","last_reported":1743271907,"current_range_meters":8000,"station_id":"ce4bgh92rcd13ifvqb40","pricing_plan_id":"cebpf4jnsgd1na2vs0mg"},{"bike_id":"0444bef2-e4fb-4e4f-8c38-55e593b39c2d","system_id":"levelo_inurba_marseille","lat":43.28565,"lon":5.39501,"is_reserved":false,"is_disabled":false,"rental_uris":{"android":"levelo://app?vid=0444bef2-e4fb-4e4f-8c38-55e593b39c2d","ios":"levelo://app?vid=0444bef2-e4fb-4e4f-8c38-55e593b39c2d"},"vehicle_type_id":"4","last_reported":1743271907,"current_range_meters":8400,"station_id":"ce4bh292rcd13ifvqdg0","pricing_plan_id":"cebpf4jnsgd1na2vs0mg"},{"bike_id":"683035c9-e4ff-4bec-aff9-ad2aa501d202","system_id":"levelo_inurba_marseille","lat":43.27963,"lon":5.387215,"is_reserved":false,"is_disabled":false,"rental_uris":{"android":"levelo://app?vid=683035c9-e4ff-4bec-aff9-ad2aa501d202","ios":"levelo://app?vid=683035c9-e4ff-4bec-aff9-ad2aa501d202"},"vehicle_type_id":"4","last_reported":1743271907,"current_range_meters":8400,"station_id":"ce4bhg12rcd13ifvqf80","pricing_plan_id":"cebpf4jnsgd1na2vs0mg"},{"bike_id":"8c3fe895-0be7-419a-85e6-caae842c5f28","system_id":"levelo_inurba_marseille","lat":43.29003,"lon":5.35616,"is_reserved":false,"is_disabled":false,"rental_uris":{"android":"levelo://app?vid=8c3fe895-0be7-419a-85e6-caae842c5f28","ios":"levelo://app?vid=8c3fe895-0be7-419a-85e6-caae842c5f28"},"vehicle_type_id":"4","last_reported":1743271907,"current_range_meters":8800,"station_id":"ce4bhb92rcd13ifvqen0","pricing_plan_id":"cebpf4jnsgd1na2vs0mg"},{"bike_id":"270e7dcd-93c5-4392-af0f-37c3851ce5cf","system_id":"levelo_inurba_marseille","lat":43.295258,"lon":5.385539,"is_reserved":false,"is_disabled":false,"rental_uris":{"android":"levelo://app?vid=270e7dcd-93c5-4392-af0f-37c3851ce5cf","ios":"levelo://app?vid=270e7dcd-93c5-4392-af0f-37c3851ce5cf"},"vehicle_type_id":"4","last_reported":1743271907,"current_range_meters":8400,"station_id":"ce4bgih2rcd13ifvqba0","pricing_plan_id":"cebpf4jnsgd1na2vs0mg"},{"bike_id":"3d99ed13-e834-4c1e-ba63-4ec50462908a","system_id":"levelo_inurba_marseille","lat":43.307739,"lon":5.381723,"is_reserved":false,"is_disabled":false,"rental_uris":{"android":"levelo://app?vid=3d99ed13-e834-4c1e-ba63-4ec50462908a","ios":"levelo://app?vid=3d99ed13-e834-4c1e-ba63-4ec50462908a"},"vehicle_type_id":"4","last_reported":1743271907,"current_range_meters":8400,"station_id":"ce4bgt12rcd13ifvqce0","pricing_plan_id":"cebpf4jnsgd1na2vs0mg"},{"bike_id":"e812804b-b97f-41d4-b7c6-5e8311d071c7","system_id":"levelo_inurba_marseille","lat":43.29542,"lon":5.38557,"is_reserved":false,"is_disabled":false,"rental_uris":{"android":"levelo://app?vid=e812804b-b97f-41d4-b7c6-5e8311d071c7","ios":"levelo://app?vid=e812804b-b97f-41d4-b7c6-5e8311d071c7"},"vehicle_type_id":"4","last_reported":1743271907,"current_range_meters":8400,"station_id":"ce4bgih2rcd13ifvqba0","pricing_plan_id":"cebpf4jnsgd1na2vs0mg"},{"bike_id":"d110ea9c-afe8-47f1-b008-e66bc6e44a55","system_id":"levelo_inurba_marseille","lat":43.28416,"lon":5.35008,"is_reserved":false,"is_disabled":false,"rental_uris":{"android":"levelo://app?vid=d110ea9c-afe8-47f1-b008-e66bc6e44a55","ios":"levelo://app?vid=d110ea9c-afe8-47f1-b008-e66bc6e44a55"},"vehicle_type_id":"4","last_reported":1743271907,"current_range_meters":8400,"station_id":"ce4bhbh2rcd13ifvqepg","pricing_plan_id":"cebpf4jnsgd1na2vs0mg"},{"bike_id":"40c3b99a-0d48-40a0-b932-25260edf1b1b","system_id":"levelo_inurba_marseille","lat":43.29003,"lon":5.35614,"is_reserved":false,"is_disabled":false,"rental_uris":{"android":"levelo://app?vid=40c3b99a-0d48-40a0-b932-25260edf1b1b","ios":"levelo://app?vid=40c3b99a-0d48-40a0-b932-25260edf1b1b"},"vehicle_type_id":"4","last_reported":1743271907,"current_range_meters":11600,"station_id":"ce4bhb92rcd13ifvqen0","pricing_plan_id":"cebpf4jnsgd1na2vs0mg"},{"bike_id":"a7f86642-0a17-487b-94a1-168f7ad53c8d","system_id":"levelo_inurba_marseille","lat":43.25593,"lon":5.38242,"is_reserved":false,"is_disabled":false,"rental_uris":{"android":"levelo://app?vid=a7f86642-0a17-487b-94a1-168f7ad53c8d","ios":"levelo://app?vid=a7f86642-0a17-487b-94a1-168f7ad53c8d"},"vehicle_type_id":"4","last_reported":1743271907,"current_range_meters":8400,"station_id":"ce4bhih2rcd13ifvqfs0","pricing_plan_id":"cebpf4jnsgd1na2vs0mg"},{"bike_id":"c935aede-f69f-442e-99d1-f28d5fe975ab","system_id":"levelo_inurba_marseille","lat":43.28275,"lon":5.35068,"is_reserved":false,"is_disabled":false,"rental_uris":{"android":"levelo://app?vid=c935aede-f69f-442e-99d1-f28d5fe975ab","ios":"levelo://app?vid=c935aede-f69f-442e-99d1-f28d5fe975ab"},"vehicle_type_id":"4","last_reported":1743271907,"current_range_meters":8400,"station_id":"ce4bhbp2rcd13ifvqerg","pricing_plan_id":"cebpf4jnsgd1na2vs0mg"},{"bike_id":"821be4ec-407d-4c14-8854-046c9d2d6588","system_id":"levelo_inurba_marseille","lat":43.30877,"lon":5.37192,"is_reserved":false,"is_disabled":false,"rental_uris":{"android":"levelo://app?vid=821be4ec-407d-4c14-8854-046c9d2d6588","ios":"levelo://app?vid=821be4ec-407d-4c14-8854-046c9d2d6588"},"vehicle_type_id":"4","last_reported":1743271907,"current_range_meters":8400,"station_id":"ce4bguh2rcd13ifvqckg","pricing_plan_id":"cebpf4jnsgd1na2vs0mg"},{"bike_id":"b5ace6c6-32e3-486d-9744-efb1ce0dfa9d","system_id":"levelo_inurba_marseille","lat":43.28912,"lon":5.37112,"is_reserved":false,"is_disabled":true,"rental_uris":{"android":"levelo://app?vid=b5ace6c6-32e3-486d-9744-efb1ce0dfa9d","ios":"levelo://app?vid=b5ace6c6-32e3-486d-9744-efb1ce0dfa9d"},"vehicle_type_id":"4","last_reported":1743271907,"current_range_meters":8400,"station_id":"","pricing_plan_id":"cebpf4jnsgd1na2vs0mg"},{"bike_id":"1a8ec8fe-cd0f-44f4-9a76-dfc354a60ccc","system_id":"levelo_inurba_marseille","lat":43.23956,"lon":5.36641,"is_reserved":false,"is_disabled":false,"rental_uris":{"android":"levelo://app?vid=1a8ec8fe-cd0f-44f4-9a76-dfc354a60ccc","ios":"levelo://app?vid=1a8ec8fe-cd0f-44f4-9a76-dfc354a60ccc"},"vehicle_type_id":"4","last_reported":1743271907,"current_range_meters":8400,"station_id":"ce4bhi12rcd13ifvqfp0","pricing_plan_id":"cebpf4jnsgd1na2vs0mg"},{"bike_id":"897c0b50-c5d1-426a-8708-0401c90fc4df","system_id":"levelo_inurba_marseille","lat":43.26685,"lon":5.38272,"is_reserved":false,"is_disabled":false,"rental_uris":{"android":"levelo://app?vid=897c0b50-c5d1-426a-8708-0401c90fc4df","ios":"levelo://app?vid=897c0b50-c5d1-426a-8708-0401c90fc4df"},"vehicle_type_id":"4","last_reported":1743271907,"current_range_meters":8400,"station_id":"ce4bhg92rcd13ifvqf90","pricing_plan_id":"cebpf4jnsgd1na2vs0mg"},{"bike_id":"d14cdd1e-f0b3-48a5-be5e-77128af69a2d","system_id":"levelo_inurba_marseille","lat":43.2864,"lon":5.35116,"is_reserved":false,"is_disabled":false,"rental_uris":{"android":"levelo://app?vid=d14cdd1e-f0b3-48a5-be5e-77128af69a2d","ios":"levelo://app?vid=d14cdd1e-f0b3-48a5-be5e-77128af69a2d"},"vehicle_type_id":"4","last_reported":1743271907,"current_range_meters":8400,"station_id":"ce4bhch2rcd13ifvqeug","pricing_plan_id":"cebpf4jnsgd1na2vs0mg"},{"bike_id":"e4614adf-59ca-49c9-9f29-fb2629aacd37","system_id":"levelo_inurba_marseille","lat":43.28583,"lon":5.35181,"is_reserved":false,"is_disabled":false,"rental_uris":{"android":"levelo://app?vid=e4614adf-59ca-49c9-9f29-fb2629aacd37","ios":"levelo://app?vid=e4614adf-59ca-49c9-9f29-fb2629aacd37"},"vehicle_type_id":"4","last_reported":1743271907,"current_range_meters":8400,"station_id":"","pricing_plan_id":"cebpf4jnsgd1na2vs0mg"},{"bike_id":"86402da5-f9ef-43b6-a281-06ce7c4c3160","system_id":"levelo_inurba_marseille","lat":43.28655,"lon":5.35123,"is_reserved":false,"is_disabled":false,"rental_uris":{"android":"levelo://app?vid=86402da5-f9ef-43b6-a281-06ce7c4c3160","ios":"levelo://app?vid=86402da5-f9ef-43b6-a281-06ce7c4c3160"},"vehicle_type_id":"4","last_reported":1743271907,"current_range_meters":8800,"station_id":"ce4bhch2rcd13ifvqeug","pricing_plan_id":"cebpf4jnsgd1na2vs0mg"},{"bike_id":"0a80dc0a-a569-48bd-83da-b82ad02e59ad","system_id":"levelo_inurba_marseille","lat":43.28716,"lon":5.36101,"is_reserved":false,"is_disabled":false,"rental_uris":{"android":"levelo://app?vid=0a80dc0a-a569-48bd-83da-b82ad02e59ad","ios":"levelo://app?vid=0a80dc0a-a569-48bd-83da-b82ad02e59ad"},"vehicle_type_id":"4","last_reported":1743271907,"current_range_meters":8800,"station_id":"cki0cbj6b192h4jlfktg","pricing_plan_id":"cebpf4jnsgd1na2vs0mg"},{"bike_id":"b1ecd358-38ec-4753-8af1-9b87454b444a","system_id":"levelo_inurba_marseille","lat":43.28615,"lon":5.35133,"is_reserved":false,"is_disabled":false,"rental_uris":{"android":"levelo://app?vid=b1ecd358-38ec-4753-8af1-9b87454b444a","ios":"levelo://app?vid=b1ecd358-38ec-4753-8af1-9b87454b444a"},"vehicle_type_id":"4","last_reported":1743271907,"current_range_meters":8800,"station_id":"ce4bhch2rcd13ifvqeug","pricing_plan_id":"cebpf4jnsgd1na2vs0mg"},{"bike_id":"296d0da0-4cc4-40ab-acd1-7c240f5eee02","system_id":"levelo_inurba_marseille","lat":43.30601,"lon":5.37587,"is_reserved":false,"is_disabled":false,"rental_uris":{"android":"levelo://app?vid=296d0da0-4cc4-40ab-acd1-7c240f5eee02","ios":"levelo://app?vid=296d0da0-4cc4-40ab-acd1-7c240f5eee02"},"vehicle_type_id":"4","last_reported":1743271907,"current_range_meters":8800,"station_id":"","pricing_plan_id":"cebpf4jnsgd1na2vs0mg"},{"bike_id":"a36a9ec1-537e-4091-9d7a-dd0444d14e10","system_id":"levelo_inurba_marseille","lat":43.2481,"lon":5.37478,"is_reserved":false,"is_disabled":false,"rental_uris":{"android":"levelo://app?vid=a36a9ec1-537e-4091-9d7a-dd0444d14e10","ios":"levelo://app?vid=a36a9ec1-537e-4091-9d7a-dd0444d14e10"},"vehicle_type_id":"4","last_reported":1743271907,"current_range_meters":8800,"station_id":"ce4bhgh2rcd13ifvqfb0","pricing_plan_id":"cebpf4jnsgd1na2vs0mg"},{"bike_id":"c0c6b7d9-b0f8-43a2-83f3-7697b375a332","system_id":"levelo_inurba_marseille","lat":43.25085,"lon":5.39536,"is_reserved":false,"is_disabled":false,"rental_uris":{"android":"levelo://app?vid=c0c6b7d9-b0f8-43a2-83f3-7697b375a332","ios":"levelo://app?vid=c0c6b7d9-b0f8-43a2-83f3-7697b375a332"},"vehicle_type_id":"4","last_reported":1743271907,"current_range_meters":8800,"station_id":"ce4bhm12rcd13ifvqgkg","pricing_plan_id":"cebpf4jnsgd1na2vs0mg"},{"bike_id":"193b8b6c-db73-4715-b1c2-558e7d9e7f2f","system_id":"levelo_inurba_marseille","lat":43.30429,"lon":5.39746,"is_reserved":false,"is_disabled":false,"rental_uris":{"android":"levelo://app?vid=193b8b6c-db73-4715-b1c2-558e7d9e7f2f","ios":"levelo://app?vid=193b8b6c-db73-4715-b1c2-558e7d9e7f2f"},"vehicle_type_id":"4","last_reported":1743271907,"current_range_meters":8800,"station_id":"ce4bh092rcd13ifvqd20","pricing_plan_id":"cebpf4jnsgd1na2vs0mg"},{"bike_id":"8d667689-328c-4537-b0a0-648bc0f3ddab","system_id":"levelo_inurba_marseille","lat":43.30146,"lon":5.37412,"is_reserved":false,"is_disabled":false,"rental_uris":{"android":"levelo://app?vid=8d667689-328c-4537-b0a0-648bc0f3ddab","ios":"levelo://app?vid=8d667689-328c-4537-b0a0-648bc0f3ddab"},"vehicle_type_id":"4","last_reported":1743271907,"current_range_meters":8800,"station_id":"ce4bgs92rcd13ifvqcc0","pricing_plan_id":"cebpf4jnsgd1na2vs0mg"},{"bike_id":"d7d4fbc0-2011-46d7-921e-b96eec2b67a3","system_id":"levelo_inurba_marseille","lat":43.29274,"lon":5.36844,"is_reserved":false,"is_disabled":false,"rental_uris":{"android":"levelo://app?vid=d7d4fbc0-2011-46d7-921e-b96eec2b67a3","ios":"levelo://app?vid=d7d4fbc0-2011-46d7-921e-b96eec2b67a3"},"vehicle_type_id":"4","last_reported":1743271907,"current_range_meters":9200,"station_id":"ce4bhbp2rcd13ifvqesg","pricing_plan_id":"cebpf4jnsgd1na2vs0mg"},{"bike_id":"96fa1290-e699-40b9-9109-379d3b77c6fb","system_id":"levelo_inurba_marseille","lat":43.33745,"lon":5.3919,"is_reserved":false,"is_disabled":false,"rental_uris":{"android":"levelo://app?vid=96fa1290-e699-40b9-9109-379d3b77c6fb","ios":"levelo://app?vid=96fa1290-e699-40b9-9109-379d3b77c6fb"},"vehicle_type_id":"4","last_reported":1743271907,"current_range_meters":9200,"station_id":"ce4bhr92rcd13ifvqhsg","pricing_plan_id":"cebpf4jnsgd1na2vs0mg"},{"bike_id":"3ebec30b-3321-422a-b912-1c4632fda65e","system_id":"levelo_inurba_marseille","lat":43.25584,"lon":5.38245,"is_reserved":false,"is_disabled":false,"rental_uris":{"android":"levelo://app?vid=3ebec30b-3321-422a-b912-1c4632fda65e","ios":"levelo://app?vid=3ebec30b-3321-422a-b912-1c4632fda65e"},"vehicle_type_id":"4","last_reported":1743271907,"current_range_meters":9200,"station_id":"ce4bhih2rcd13ifvqfs0","pricing_plan_id":"cebpf4jnsgd1na2vs0mg"},{"bike_id":"ae516dbe-50bb-4367-b29e-342bcabe0cbe","system_id":"levelo_inurba_marseille","lat":43.27176,"lon":5.40999,"is_reserved":false,"is_disabled":false,"rental_uris":{"android":"levelo://app?vid=ae516dbe-50bb-4367-b29e-342bcabe0cbe","ios":"levelo://app?vid=ae516dbe-50bb-4367-b29e-342bcabe0cbe"},"vehicle_type_id":"4","last_reported":1743271907,"current_range_meters":9200,"station_id":"ce4bhl12rcd13ifvqgf0","pricing_plan_id":"cebpf4jnsgd1na2vs0mg"},{"bike_id":"71bf147a-9d24-46c6-898e-a59e12032d5b","system_id":"levelo_inurba_marseille","lat":43.299164,"lon":5.381503,"is_reserved":false,"is_disabled":false,"rental_uris":{"android":"levelo://app?vid=71bf147a-9d24-46c6-898e-a59e12032d5b","ios":"levelo://app?vid=71bf147a-9d24-46c6-898e-a59e12032d5b"},"vehicle_type_id":"4","last_reported":1743271907,"current_range_meters":11600,"station_id":"ce4bhap2rcd13ifvqek0","pricing_plan_id":"cebpf4jnsgd1na2vs0mg"},{"bike_id":"4b2323ae-94b8-41f7-9062-4d9bd4bd549e","system_id":"levelo_inurba_marseille","lat":43.24167,"lon":5.36415,"is_reserved":false,"is_disabled":false,"rental_uris":{"android":"levelo://app?vid=4b2323ae-94b8-41f7-9062-4d9bd4bd549e","ios":"levelo://app?vid=4b2323ae-94b8-41f7-9062-4d9bd4bd549e"},"vehicle_type_id":"4","last_reported":1743271907,"current_range_meters":9200,"station_id":"cpo36qri1sfpv3e86is0","pricing_plan_id":"cebpf4jnsgd1na2vs0mg"},{"bike_id":"626d2136-a31c-4224-ba68-9a83c069cd7e","system_id":"levelo_inurba_marseille","lat":43.23185,"lon":5.39994,"is_reserved":false,"is_disabled":false,"rental_uris":{"android":"levelo://app?vid=626d2136-a31c-4224-ba68-9a83c069cd7e","ios":"levelo://app?vid=626d2136-a31c-4224-ba68-9a83c069cd7e"},"vehicle_type_id":"4","last_reported":1743271907,"current_range_meters":8800,"station_id":"ce4bhn12rcd13ifvqgqg","pricing_plan_id":"cebpf4jnsgd1na2vs0mg"},{"bike_id":"fd7e18e3-01a9-4166-a535-751f0bc4fdc5","system_id":"levelo_inurba_marseille","lat":43.30229,"lon":5.39475,"is_reserved":false,"is_disabled":false,"rental_uris":{"android":"levelo://app?vid=fd7e18e3-01a9-4166-a535-751f0bc4fdc5","ios":"levelo://app?vid=fd7e18e3-01a9-4166-a535-751f0bc4fdc5"},"vehicle_type_id":"4","last_reported":1743271907,"current_range_meters":9200,"station_id":"ce4bh0p2rcd13ifvqd70","pricing_plan_id":"cebpf4jnsgd1na2vs0mg"},{"bike_id":"4586e23a-2d77-446c-8e8c-a15b6ae5de02","system_id":"levelo_inurba_marseille","lat":43.28603,"lon":5.38142,"is_reserved":false,"is_disabled":false,"rental_uris":{"android":"levelo://app?vid=4586e23a-2d77-446c-8e8c-a15b6ae5de02","ios":"levelo://app?vid=4586e23a-2d77-446c-8e8c-a15b6ae5de02"},"vehicle_type_id":"4","last_reported":1743271907,"current_range_meters":9200,"station_id":"","pricing_plan_id":"cebpf4jnsgd1na2vs0mg"},{"bike_id":"4dff4336-74f0-4558-8bf3-04d21c83b0a8","system_id":"levelo_inurba_marseille","lat":43.29783,"lon":5.40399,"is_reserved":false,"is_disabled":false,"rental_uris":{"android":"levelo://app?vid=4dff4336-74f0-4558-8bf3-04d21c83b0a8","ios":"levelo://app?vid=4dff4336-74f0-4558-8bf3-04d21c83b0a8"},"vehicle_type_id":"4","last_reported":1743271907,"current_range_meters":9200,"station_id":"ce4bh112rcd13ifvqd90","pricing_plan_id":"cebpf4jnsgd1na2vs0mg"},{"bike_id":"c2f179b1-a0c6-4c12-bc8c-9ea5f0e3919c","system_id":"levelo_inurba_marseille","lat":43.31532,"lon":5.38042,"is_reserved":false,"is_disabled":false,"rental_uris":{"android":"levelo://app?vid=c2f179b1-a0c6-4c12-bc8c-9ea5f0e3919c","ios":"levelo://app?vid=c2f179b1-a0c6-4c12-bc8c-9ea5f0e3919c"},"vehicle_type_id":"4","last_reported":1743271907,"current_range_meters":9200,"station_id":"ce4bhsp2rcd13ifvqi50","pricing_plan_id":"cebpf4jnsgd1na2vs0mg"},{"bike_id":"3b9e2dbb-dda4-4ed5-8aef-7e67e6437f0d","system_id":"levelo_inurba_marseille","lat":43.33362,"lon":5.40115,"is_reserved":false,"is_disabled":false,"rental_uris":{"android":"levelo://app?vid=3b9e2dbb-dda4-4ed5-8aef-7e67e6437f0d","ios":"levelo://app?vid=3b9e2dbb-dda4-4ed5-8aef-7e67e6437f0d"},"vehicle_type_id":"4","last_reported":1743271907,"current_range_meters":9200,"station_id":"","pricing_plan_id":"cebpf4jnsgd1na2vs0mg"},{"bike_id":"4b32355b-7cb2-4761-ac10-e7e10aa3ec76","system_id":"levelo_inurba_marseille","lat":43.24805,"lon":5.37452,"is_reserved":false,"is_disabled":false,"rental_uris":{"android":"levelo://app?vid=4b32355b-7cb2-4761-ac10-e7e10aa3ec76","ios":"levelo://app?vid=4b32355b-7cb2-4761-ac10-e7e10aa3ec76"},"vehicle_type_id":"4","last_reported":1743271907,"current_range_meters":9600,"station_id":"ce4bhgh2rcd13ifvqfb0","pricing_plan_id":"cebpf4jnsgd1na2vs0mg"},{"bike_id":"c06e3e1a-3eb1-4be6-893e-535efcc93e69","system_id":"levelo_inurba_marseille","lat":43.309,"lon":5.37207,"is_reserved":false,"is_disabled":false,"rental_uris":{"android":"levelo://app?vid=c06e3e1a-3eb1-4be6-893e-535efcc93e69","ios":"levelo://app?vid=c06e3e1a-3eb1-4be6-893e-535efcc93e69"},"vehicle_type_id":"4","last_reported":1743271907,"current_range_meters":9600,"station_id":"ce4bguh2rcd13ifvqckg","pricing_plan_id":"cebpf4jnsgd1na2vs0mg"},{"bike_id":"24565657-e482-4932-93db-e35fe49c2025","system_id":"levelo_inurba_marseille","lat":43.26708,"lon":5.38265,"is_reserved":false,"is_disabled":false,"rental_uris":{"android":"levelo://app?vid=24565657-e482-4932-93db-e35fe49c2025","ios":"levelo://app?vid=24565657-e482-4932-93db-e35fe49c2025"},"vehicle_type_id":"4","last_reported":1743271907,"current_range_meters":9600,"station_id":"ce4bhg92rcd13ifvqf90","pricing_plan_id":"cebpf4jnsgd1na2vs0mg"},{"bike_id":"22bb6ef9-1998-48ac-a0fd-ebc2dacb111b","system_id":"levelo_inurba_marseille","lat":43.29634,"lon":5.40597,"is_reserved":false,"is_disabled":false,"rental_uris":{"android":"levelo://app?vid=22bb6ef9-1998-48ac-a0fd-ebc2dacb111b","ios":"levelo://app?vid=22bb6ef9-1998-48ac-a0fd-ebc2dacb111b"},"vehicle_type_id":"4","last_reported":1743271907,"current_range_meters":9600,"station_id":"ce4bh0h2rcd13ifvqd60","pricing_plan_id":"cebpf4jnsgd1na2vs0mg"},{"bike_id":"ff16c06a-137e-48a5-96ce-6f6545e1669c","system_id":"levelo_inurba_marseille","lat":43.250819,"lon":5.395264,"is_reserved":false,"is_disabled":false,"rental_uris":{"android":"levelo://app?vid=ff16c06a-137e-48a5-96ce-6f6545e1669c","ios":"levelo://app?vid=ff16c06a-137e-48a5-96ce-6f6545e1669c"},"vehicle_type_id":"4","last_reported":1743271907,"current_range_meters":9200,"station_id":"ce4bhm12rcd13ifvqgkg","pricing_plan_id":"cebpf4jnsgd1na2vs0mg"},{"bike_id":"3364ea88-bbe8-42aa-9cf9-428a698127a7","system_id":"levelo_inurba_marseille","lat":43.311761,"lon":5.387205,"is_reserved":false,"is_disabled":false,"rental_uris":{"android":"levelo://app?vid=3364ea88-bbe8-42aa-9cf9-428a698127a7","ios":"levelo://app?vid=3364ea88-bbe8-42aa-9cf9-428a698127a7"},"vehicle_type_id":"4","last_reported":1743271907,"current_range_meters":9600,"station_id":"ce4bh692rcd13ifvqea0","pricing_plan_id":"cebpf4jnsgd1na2vs0mg"},{"bike_id":"0ac38957-13db-4993-8705-a2c070e0bc23","system_id":"levelo_inurba_marseille","lat":43.245755,"lon":5.394832,"is_reserved":false,"is_disabled":false,"rental_uris":{"android":"levelo://app?vid=0ac38957-13db-4993-8705-a2c070e0bc23","ios":"levelo://app?vid=0ac38957-13db-4993-8705-a2c070e0bc23"},"vehicle_type_id":"4","last_reported":1743271907,"current_range_meters":9600,"station_id":"ce4bhn12rcd13ifvqgpg","pricing_plan_id":"cebpf4jnsgd1na2vs0mg"},{"bike_id":"02f19c5c-cd34-4cb8-bffb-0ecaa6d7c30a","system_id":"levelo_inurba_marseille","lat":43.26933,"lon":5.38919,"is_reserved":false,"is_disabled":false,"rental_uris":{"android":"levelo://app?vid=02f19c5c-cd34-4cb8-bffb-0ecaa6d7c30a","ios":"levelo://app?vid=02f19c5c-cd34-4cb8-bffb-0ecaa6d7c30a"},"vehicle_type_id":"4","last_reported":1743271907,"current_range_meters":10800,"station_id":"ce4bhhh2rcd13ifvqfl0","pricing_plan_id":"cebpf4jnsgd1na2vs0mg"},{"bike_id":"ff1b67a3-b49a-4ce0-82a3-b82201b223ff","system_id":"levelo_inurba_marseille","lat":43.31123,"lon":5.37771,"is_reserved":false,"is_disabled":false,"rental_uris":{"android":"levelo://app?vid=ff1b67a3-b49a-4ce0-82a3-b82201b223ff","ios":"levelo://app?vid=ff1b67a3-b49a-4ce0-82a3-b82201b223ff"},"vehicle_type_id":"4","last_reported":1743271907,"current_range_meters":9600,"station_id":"ce4bgt92rcd13ifvqcg0","pricing_plan_id":"cebpf4jnsgd1na2vs0mg"},{"bike_id":"050d458d-cce9-44b3-9d16-b8a5c2076354","system_id":"levelo_inurba_marseille","lat":43.31753,"lon":5.39055,"is_reserved":false,"is_disabled":false,"rental_uris":{"android":"levelo://app?vid=050d458d-cce9-44b3-9d16-b8a5c2076354","ios":"levelo://app?vid=050d458d-cce9-44b3-9d16-b8a5c2076354"},"vehicle_type_id":"4","last_reported":1743271907,"current_range_meters":9600,"station_id":"ce4bhqp2rcd13ifvqhng","pricing_plan_id":"cebpf4jnsgd1na2vs0mg"},{"bike_id":"5a3307a6-54ca-44bc-a5fd-ab80751e6464","system_id":"levelo_inurba_marseille","lat":43.23191,"lon":5.40034,"is_reserved":false,"is_disabled":true,"rental_uris":{"android":"levelo://app?vid=5a3307a6-54ca-44bc-a5fd-ab80751e6464","ios":"levelo://app?vid=5a3307a6-54ca-44bc-a5fd-ab80751e6464"},"vehicle_type_id":"4","last_reported":1743271907,"current_range_meters":9600,"station_id":"ce4bhn12rcd13ifvqgqg","pricing_plan_id":"cebpf4jnsgd1na2vs0mg"},{"bike_id":"78314390-7a2e-459a-8666-aa0aea1e1776","system_id":"levelo_inurba_marseille","lat":43.30431,"lon":5.39752,"is_reserved":false,"is_disabled":false,"rental_uris":{"android":"levelo://app?vid=78314390-7a2e-459a-8666-aa0aea1e1776","ios":"levelo://app?vid=78314390-7a2e-459a-8666-aa0aea1e1776"},"vehicle_type_id":"4","last_reported":1743271907,"current_range_meters":10000,"station_id":"ce4bh092rcd13ifvqd20","pricing_plan_id":"cebpf4jnsgd1na2vs0mg"},{"bike_id":"b2ff6919-4216-4137-9bc6-648cc9badaee","system_id":"levelo_inurba_marseille","lat":43.29705,"lon":5.36598,"is_reserved":false,"is_disabled":false,"rental_uris":{"android":"levelo://app?vid=b2ff6919-4216-4137-9bc6-648cc9badaee","ios":"levelo://app?vid=b2ff6919-4216-4137-9bc6-648cc9badaee"},"vehicle_type_id":"4","last_reported":1743271907,"current_range_meters":10000,"station_id":"ce4bgn12rcd13ifvqbt0","pricing_plan_id":"cebpf4jnsgd1na2vs0mg"},{"bike_id":"a49a8a5d-ba66-4303-bc13-425f2fd8bf14","system_id":"levelo_inurba_marseille","lat":43.27432,"lon":5.39424,"is_reserved":false,"is_disabled":false,"rental_uris":{"android":"levelo://app?vid=a49a8a5d-ba66-4303-bc13-425f2fd8bf14","ios":"levelo://app?vid=a49a8a5d-ba66-4303-bc13-425f2fd8bf14"},"vehicle_type_id":"4","last_reported":1743271907,"current_range_meters":14800,"station_id":"ce4bhdp2rcd13ifvqf20","pricing_plan_id":"cebpf4jnsgd1na2vs0mg"},{"bike_id":"6f3e1fb6-c211-4493-b031-50e1998b7f1e","system_id":"levelo_inurba_marseille","lat":43.30796,"lon":5.3815,"is_reserved":false,"is_disabled":false,"rental_uris":{"android":"levelo://app?vid=6f3e1fb6-c211-4493-b031-50e1998b7f1e","ios":"levelo://app?vid=6f3e1fb6-c211-4493-b031-50e1998b7f1e"},"vehicle_type_id":"4","last_reported":1743271907,"current_range_meters":13600,"station_id":"ce4bgt12rcd13ifvqce0","pricing_plan_id":"cebpf4jnsgd1na2vs0mg"},{"bike_id":"e872a3cf-148f-4dc2-b37d-72163caaaf50","system_id":"levelo_inurba_marseille","lat":43.25483,"lon":5.37653,"is_reserved":false,"is_disabled":true,"rental_uris":{"android":"levelo://app?vid=e872a3cf-148f-4dc2-b37d-72163caaaf50","ios":"levelo://app?vid=e872a3cf-148f-4dc2-b37d-72163caaaf50"},"vehicle_type_id":"4","last_reported":1743271907,"current_range_meters":10000,"station_id":"ce4bhh12rcd13ifvqff0","pricing_plan_id":"cebpf4jnsgd1na2vs0mg"},{"bike_id":"1b8250ac-2ce0-436b-b711-dd370fe42032","system_id":"levelo_inurba_marseille","lat":43.29785,"lon":5.38116,"is_reserved":false,"is_disabled":false,"rental_uris":{"android":"levelo://app?vid=1b8250ac-2ce0-436b-b711-dd370fe42032","ios":"levelo://app?vid=1b8250ac-2ce0-436b-b711-dd370fe42032"},"vehicle_type_id":"4","last_reported":1743271907,"current_range_meters":10000,"station_id":"ce4bgip2rcd13ifvqbb0","pricing_plan_id":"cebpf4jnsgd1na2vs0mg"},{"bike_id":"b6edce2b-74d6-4c13-8cf0-2c0f212df55d","system_id":"levelo_inurba_marseille","lat":43.25492,"lon":5.37646,"is_reserved":false,"is_disabled":false,"rental_uris":{"android":"levelo://app?vid=b6edce2b-74d6-4c13-8cf0-2c0f212df55d","ios":"levelo://app?vid=b6edce2b-74d6-4c13-8cf0-2c0f212df55d"},"vehicle_type_id":"4","last_reported":1743271907,"current_range_meters":10000,"station_id":"ce4bhh12rcd13ifvqff0","pricing_plan_id":"cebpf4jnsgd1na2vs0mg"},{"bike_id":"e7fec9a6-cd95-4f16-8cfb-a6b6753dc2c8","system_id":"levelo_inurba_marseille","lat":43.29268,"lon":5.38438,"is_reserved":false,"is_disabled":false,"rental_uris":{"android":"levelo://app?vid=e7fec9a6-cd95-4f16-8cfb-a6b6753dc2c8","ios":"levelo://app?vid=e7fec9a6-cd95-4f16-8cfb-a6b6753dc2c8"},"vehicle_type_id":"4","last_reported":1743271907,"current_range_meters":9600,"station_id":"ce4bh692rcd13ifvqea0","pricing_plan_id":"cebpf4jnsgd1na2vs0mg"},{"bike_id":"da5d4f94-b802-4dad-8972-7c2b2e42437f","system_id":"levelo_inurba_marseille","lat":43.28037,"lon":5.36937,"is_reserved":false,"is_disabled":false,"rental_uris":{"android":"levelo://app?vid=da5d4f94-b802-4dad-8972-7c2b2e42437f","ios":"levelo://app?vid=da5d4f94-b802-4dad-8972-7c2b2e42437f"},"vehicle_type_id":"4","last_reported":1743271907,"current_range_meters":10000,"station_id":"ce4bha12rcd13ifvqef0","pricing_plan_id":"cebpf4jnsgd1na2vs0mg"},{"bike_id":"a1b5a514-f0ef-42eb-b1a4-22dd30a86324","system_id":"levelo_inurba_marseille","lat":43.317505,"lon":5.390067,"is_reserved":false,"is_disabled":false,"rental_uris":{"android":"levelo://app?vid=a1b5a514-f0ef-42eb-b1a4-22dd30a86324","ios":"levelo://app?vid=a1b5a514-f0ef-42eb-b1a4-22dd30a86324"},"vehicle_type_id":"4","last_reported":1743271907,"current_range_meters":10000,"station_id":"ce4bhqp2rcd13ifvqhng","pricing_plan_id":"cebpf4jnsgd1na2vs0mg"},{"bike_id":"fef73d98-66a1-489f-a9bd-f63c09d31f5f","system_id":"levelo_inurba_marseille","lat":43.30883,"lon":5.39656,"is_reserved":false,"is_disabled":false,"rental_uris":{"android":"levelo://app?vid=fef73d98-66a1-489f-a9bd-f63c09d31f5f","ios":"levelo://app?vid=fef73d98-66a1-489f-a9bd-f63c09d31f5f"},"vehicle_type_id":"4","last_reported":1743271907,"current_range_meters":10800,"station_id":"ce4bh012rcd13ifvqcv0","pricing_plan_id":"cebpf4jnsgd1na2vs0mg"},{"bike_id":"a2125f88-60fd-44dc-b2ba-af0b77cc0670","system_id":"levelo_inurba_marseille","lat":43.26199,"lon":5.37928,"is_reserved":false,"is_disabled":false,"rental_uris":{"android":"levelo://app?vid=a2125f88-60fd-44dc-b2ba-af0b77cc0670","ios":"levelo://app?vid=a2125f88-60fd-44dc-b2ba-af0b77cc0670"},"vehicle_type_id":"4","last_reported":1743271907,"current_range_meters":10800,"station_id":"ce4bhjp2rcd13ifvqg90","pricing_plan_id":"cebpf4jnsgd1na2vs0mg"},{"bike_id":"7efbe09c-8a18-4a42-8b4b-2dde8574b755","system_id":"levelo_inurba_marseille","lat":43.32535,"lon":5.41447,"is_reserved":false,"is_disabled":false,"rental_uris":{"android":"levelo://app?vid=7efbe09c-8a18-4a42-8b4b-2dde8574b755","ios":"levelo://app?vid=7efbe09c-8a18-4a42-8b4b-2dde8574b755"},"vehicle_type_id":"4","last_reported":1743271907,"current_range_meters":10000,"station_id":"ce4bhqh2rcd13ifvqhmg","pricing_plan_id":"cebpf4jnsgd1na2vs0mg"},{"bike_id":"fe25e75a-5400-40ec-b445-ba198e5452b3","system_id":"levelo_inurba_marseille","lat":43.28702,"lon":5.3738,"is_reserved":false,"is_disabled":false,"rental_uris":{"android":"levelo://app?vid=fe25e75a-5400-40ec-b445-ba198e5452b3","ios":"levelo://app?vid=fe25e75a-5400-40ec-b445-ba198e5452b3"},"vehicle_type_id":"4","last_reported":1743271907,"current_range_meters":10800,"station_id":"ce4bh3p2rcd13ifvqdq0","pricing_plan_id":"cebpf4jnsgd1na2vs0mg"},{"bike_id":"d0ed36b4-3c5a-4da6-8fb4-955c321dd03a","system_id":"levelo_inurba_marseille","lat":43.2752,"lon":5.41014,"is_reserved":false,"is_disabled":false,"rental_uris":{"android":"levelo://app?vid=d0ed36b4-3c5a-4da6-8fb4-955c321dd03a","ios":"levelo://app?vid=d0ed36b4-3c5a-4da6-8fb4-955c321dd03a"},"vehicle_type_id":"4","last_reported":1743271907,"current_range_meters":10800,"station_id":"","pricing_plan_id":"cebpf4jnsgd1na2vs0mg"},{"bike_id":"10365f62-ee2b-4687-92a1-782d737acef1","system_id":"levelo_inurba_marseille","lat":43.25963,"lon":5.40863,"is_reserved":false,"is_disabled":false,"rental_uris":{"android":"levelo://app?vid=10365f62-ee2b-4687-92a1-782d737acef1","ios":"levelo://app?vid=10365f62-ee2b-4687-92a1-782d737acef1"},"vehicle_type_id":"4","last_reported":1743271907,"current_range_meters":10800,"station_id":"ce4bhm92rcd13ifvqglg","pricing_plan_id":"cebpf4jnsgd1na2vs0mg"},{"bike_id":"e6967797-29d0-4947-88e5-61bc42de65df","system_id":"levelo_inurba_marseille","lat":43.28617,"lon":5.3509,"is_reserved":false,"is_disabled":false,"rental_uris":{"android":"levelo://app?vid=e6967797-29d0-4947-88e5-61bc42de65df","ios":"levelo://app?vid=e6967797-29d0-4947-88e5-61bc42de65df"},"vehicle_type_id":"4","last_reported":1743271907,"current_range_meters":10800,"station_id":"ce4bhch2rcd13ifvqeug","pricing_plan_id":"cebpf4jnsgd1na2vs0mg"},{"bike_id":"96ac20e8-5840-4579-b371-184ec6253952","system_id":"levelo_inurba_marseille","lat":43.27491,"lon":5.41141,"is_reserved":false,"is_disabled":false,"rental_uris":{"android":"levelo://app?vid=96ac20e8-5840-4579-b371-184ec6253952","ios":"levelo://app?vid=96ac20e8-5840-4579-b371-184ec6253952"},"vehicle_type_id":"4","last_reported":1743271907,"current_range_meters":10800,"station_id":"","pricing_plan_id":"cebpf4jnsgd1na2vs0mg"},{"bike_id":"c84282f9-0e94-46f6-a3ee-68da449c7e4d","system_id":"levelo_inurba_marseille","lat":43.29255,"lon":5.38453,"is_reserved":false,"is_disabled":false,"rental_uris":{"android":"levelo://app?vid=c84282f9-0e94-46f6-a3ee-68da449c7e4d","ios":"levelo://app?vid=c84282f9-0e94-46f6-a3ee-68da449c7e4d"},"vehicle_type_id":"4","last_reported":1743271907,"current_range_meters":10800,"station_id":"ce4bh692rcd13ifvqea0","pricing_plan_id":"cebpf4jnsgd1na2vs0mg"},{"bike_id":"7fb8c394-4b57-4905-8986-2e4392265d88","system_id":"levelo_inurba_marseille","lat":43.24065,"lon":5.37737,"is_reserved":false,"is_disabled":false,"rental_uris":{"android":"levelo://app?vid=7fb8c394-4b57-4905-8986-2e4392265d88","ios":"levelo://app?vid=7fb8c394-4b57-4905-8986-2e4392265d88"},"vehicle_type_id":"4","last_reported":1743271907,"current_range_meters":10800,"station_id":"ce4bhnp2rcd13ifvqgvg","pricing_plan_id":"cebpf4jnsgd1na2vs0mg"},{"bike_id":"ead84735-1991-4501-b506-2229ced7058a","system_id":"levelo_inurba_marseille","lat":43.23059,"lon":5.35495,"is_reserved":false,"is_disabled":false,"rental_uris":{"android":"levelo://app?vid=ead84735-1991-4501-b506-2229ced7058a","ios":"levelo://app?vid=ead84735-1991-4501-b506-2229ced7058a"},"vehicle_type_id":"4","last_reported":1743271907,"current_range_meters":10800,"station_id":"cpo3342slgdg3j2ifvpg","pricing_plan_id":"cebpf4jnsgd1na2vs0mg"},{"bike_id":"89b372e0-e34b-4448-a651-9f0d9816c98e","system_id":"levelo_inurba_marseille","lat":43.24164,"lon":5.36428,"is_reserved":false,"is_disabled":false,"rental_uris":{"android":"levelo://app?vid=89b372e0-e34b-4448-a651-9f0d9816c98e","ios":"levelo://app?vid=89b372e0-e34b-4448-a651-9f0d9816c98e"},"vehicle_type_id":"4","last_reported":1743271907,"current_range_meters":10800,"station_id":"cpo36qri1sfpv3e86is0","pricing_plan_id":"cebpf4jnsgd1na2vs0mg"},{"bike_id":"3f2bcfca-c616-4059-a95b-b1ee7948eb41","system_id":"levelo_inurba_marseille","lat":43.29878,"lon":5.39747,"is_reserved":false,"is_disabled":false,"rental_uris":{"android":"levelo://app?vid=3f2bcfca-c616-4059-a95b-b1ee7948eb41","ios":"levelo://app?vid=3f2bcfca-c616-4059-a95b-b1ee7948eb41"},"vehicle_type_id":"4","last_reported":1743271907,"current_range_meters":10800,"station_id":"ce4bh0h2rcd13ifvqd50","pricing_plan_id":"cebpf4jnsgd1na2vs0mg"},{"bike_id":"699cb6a9-80bb-4d7b-8f84-b25847471872","system_id":"levelo_inurba_marseille","lat":43.28944,"lon":5.36411,"is_reserved":false,"is_disabled":false,"rental_uris":{"android":"levelo://app?vid=699cb6a9-80bb-4d7b-8f84-b25847471872","ios":"levelo://app?vid=699cb6a9-80bb-4d7b-8f84-b25847471872"},"vehicle_type_id":"4","last_reported":1743271907,"current_range_meters":10800,"station_id":"ce4bhc92rcd13ifvqetg","pricing_plan_id":"cebpf4jnsgd1na2vs0mg"},{"bike_id":"5dca16b0-0836-4d29-a112-b6ae5585b009","system_id":"levelo_inurba_marseille","lat":43.28618,"lon":5.35115,"is_reserved":false,"is_disabled":false,"rental_uris":{"android":"levelo://app?vid=5dca16b0-0836-4d29-a112-b6ae5585b009","ios":"levelo://app?vid=5dca16b0-0836-4d29-a112-b6ae5585b009"},"vehicle_type_id":"4","last_reported":1743271907,"current_range_meters":10800,"station_id":"ce4bhch2rcd13ifvqeug","pricing_plan_id":"cebpf4jnsgd1na2vs0mg"},{"bike_id":"004ed55f-f985-4268-b523-9ed16ba4ea3b","system_id":"levelo_inurba_marseille","lat":43.29263,"lon":5.36873,"is_reserved":false,"is_disabled":true,"rental_uris":{"android":"levelo://app?vid=004ed55f-f985-4268-b523-9ed16ba4ea3b","ios":"levelo://app?vid=004ed55f-f985-4268-b523-9ed16ba4ea3b"},"vehicle_type_id":"4","last_reported":1743271907,"current_range_meters":11200,"station_id":"ce4bhbp2rcd13ifvqesg","pricing_plan_id":"cebpf4jnsgd1na2vs0mg"},{"bike_id":"1c4fe866-d11c-4dbc-ad2c-0c7afccac5e6","system_id":"levelo_inurba_marseille","lat":43.31166,"lon":5.38704,"is_reserved":false,"is_disabled":false,"rental_uris":{"android":"levelo://app?vid=1c4fe866-d11c-4dbc-ad2c-0c7afccac5e6","ios":"levelo://app?vid=1c4fe866-d11c-4dbc-ad2c-0c7afccac5e6"},"vehicle_type_id":"4","last_reported":1743271907,"current_range_meters":11200,"station_id":"ce4bgv12rcd13ifvqcp0","pricing_plan_id":"cebpf4jnsgd1na2vs0mg"},{"bike_id":"d603c160-14d0-4459-a49c-fbd4ae1f2b8d","system_id":"levelo_inurba_marseille","lat":43.28289,"lon":5.35056,"is_reserved":false,"is_disabled":false,"rental_uris":{"android":"levelo://app?vid=d603c160-14d0-4459-a49c-fbd4ae1f2b8d","ios":"levelo://app?vid=d603c160-14d0-4459-a49c-fbd4ae1f2b8d"},"vehicle_type_id":"4","last_reported":1743271907,"current_range_meters":11200,"station_id":"ce4bhb92rcd13ifvqen0","pricing_plan_id":"cebpf4jnsgd1na2vs0mg"},{"bike_id":"2418c0c9-21de-46eb-91a1-45dd35d387f2","system_id":"levelo_inurba_marseille","lat":43.30898,"lon":5.37209,"is_reserved":false,"is_disabled":false,"rental_uris":{"android":"levelo://app?vid=2418c0c9-21de-46eb-91a1-45dd35d387f2","ios":"levelo://app?vid=2418c0c9-21de-46eb-91a1-45dd35d387f2"},"vehicle_type_id":"4","last_reported":1743271907,"current_range_meters":11200,"station_id":"ce4bguh2rcd13ifvqckg","pricing_plan_id":"cebpf4jnsgd1na2vs0mg"},{"bike_id":"200b7d31-2db8-45cc-b36d-b9d670de9728","system_id":"levelo_inurba_marseille","lat":43.31248,"lon":5.37176,"is_reserved":false,"is_disabled":false,"rental_uris":{"android":"levelo://app?vid=200b7d31-2db8-45cc-b36d-b9d670de9728","ios":"levelo://app?vid=200b7d31-2db8-45cc-b36d-b9d670de9728"},"vehicle_type_id":"4","last_reported":1743271907,"current_range_meters":11200,"station_id":"","pricing_plan_id":"cebpf4jnsgd1na2vs0mg"},{"bike_id":"747d2bc2-6706-42d9-8381-8fcc8fac62bd","system_id":"levelo_inurba_marseille","lat":43.28681,"lon":5.37014,"is_reserved":false,"is_disabled":true,"rental_uris":{"android":"levelo://app?vid=747d2bc2-6706-42d9-8381-8fcc8fac62bd","ios":"levelo://app?vid=747d2bc2-6706-42d9-8381-8fcc8fac62bd"},"vehicle_type_id":"4","last_reported":1743271907,"current_range_meters":11200,"station_id":"","pricing_plan_id":"cebpf4jnsgd1na2vs0mg"},{"bike_id":"cecc1c11-2fdb-4403-85b5-b7e1ad411935","system_id":"levelo_inurba_marseille","lat":43.258655,"lon":5.398926,"is_reserved":false,"is_disabled":false,"rental_uris":{"android":"levelo://app?vid=cecc1c11-2fdb-4403-85b5-b7e1ad411935","ios":"levelo://app?vid=cecc1c11-2fdb-4403-85b5-b7e1ad411935"},"vehicle_type_id":"4","last_reported":1743271907,"current_range_meters":10800,"station_id":"ce4bhb92rcd13ifvqen0","pricing_plan_id":"cebpf4jnsgd1na2vs0mg"},{"bike_id":"80ce0489-af96-4bef-97ff-91c9db8d19ca","system_id":"levelo_inurba_marseille","lat":43.24647,"lon":5.3816,"is_reserved":false,"is_disabled":false,"rental_uris":{"android":"levelo://app?vid=80ce0489-af96-4bef-97ff-91c9db8d19ca","ios":"levelo://app?vid=80ce0489-af96-4bef-97ff-91c9db8d19ca"},"vehicle_type_id":"4","last_reported":1743271907,"current_range_meters":11200,"station_id":"ce4bhih2rcd13ifvqfr0","pricing_plan_id":"cebpf4jnsgd1na2vs0mg"},{"bike_id":"acf1e1c3-a629-4c7b-a838-cba3f3b54603","system_id":"levelo_inurba_marseille","lat":43.31863,"lon":5.37657,"is_reserved":false,"is_disabled":false,"rental_uris":{"android":"levelo://app?vid=acf1e1c3-a629-4c7b-a838-cba3f3b54603","ios":"levelo://app?vid=acf1e1c3-a629-4c7b-a838-cba3f3b54603"},"vehicle_type_id":"4","last_reported":1743271907,"current_range_meters":11200,"station_id":"","pricing_plan_id":"cebpf4jnsgd1na2vs0mg"},{"bike_id":"25bb5fbc-8229-4010-b703-31f5ee6ac141","system_id":"levelo_inurba_marseille","lat":43.30619,"lon":5.36585,"is_reserved":false,"is_disabled":false,"rental_uris":{"android":"levelo://app?vid=25bb5fbc-8229-4010-b703-31f5ee6ac141","ios":"levelo://app?vid=25bb5fbc-8229-4010-b703-31f5ee6ac141"},"vehicle_type_id":"4","last_reported":1743271907,"current_range_meters":11600,"station_id":"","pricing_plan_id":"cebpf4jnsgd1na2vs0mg"},{"bike_id":"ffe8c000-d0cb-42ac-8c20-9086cb7365a8","system_id":"levelo_inurba_marseille","lat":43.29932,"lon":5.36547,"is_reserved":false,"is_disabled":false,"rental_uris":{"android":"levelo://app?vid=ffe8c000-d0cb-42ac-8c20-9086cb7365a8","ios":"levelo://app?vid=ffe8c000-d0cb-42ac-8c20-9086cb7365a8"},"vehicle_type_id":"4","last_reported":1743271907,"current_range_meters":11600,"station_id":"ce4bgm92rcd13ifvqbr0","pricing_plan_id":"cebpf4jnsgd1na2vs0mg"},{"bike_id":"906b540e-e920-417f-92b5-0ef35349f644","system_id":"levelo_inurba_marseille","lat":43.31543,"lon":5.3971,"is_reserved":false,"is_disabled":false,"rental_uris":{"android":"levelo://app?vid=906b540e-e920-417f-92b5-0ef35349f644","ios":"levelo://app?vid=906b540e-e920-417f-92b5-0ef35349f644"},"vehicle_type_id":"4","last_reported":1743271907,"current_range_meters":11600,"station_id":"","pricing_plan_id":"cebpf4jnsgd1na2vs0mg"},{"bike_id":"92bfecbf-789d-4c73-ae76-0e5a1e2a6e8a","system_id":"levelo_inurba_marseille","lat":43.25581,"lon":5.3827,"is_reserved":false,"is_disabled":false,"rental_uris":{"android":"levelo://app?vid=92bfecbf-789d-4c73-ae76-0e5a1e2a6e8a","ios":"levelo://app?vid=92bfecbf-789d-4c73-ae76-0e5a1e2a6e8a"},"vehicle_type_id":"4","last_reported":1743271907,"current_range_meters":11600,"station_id":"ce4bhih2rcd13ifvqfs0","pricing_plan_id":"cebpf4jnsgd1na2vs0mg"},{"bike_id":"b5c9aef2-c317-4782-8535-52725045f999","system_id":"levelo_inurba_marseille","lat":43.30811,"lon":5.38134,"is_reserved":false,"is_disabled":false,"rental_uris":{"android":"levelo://app?vid=b5c9aef2-c317-4782-8535-52725045f999","ios":"levelo://app?vid=b5c9aef2-c317-4782-8535-52725045f999"},"vehicle_type_id":"4","last_reported":1743271907,"current_range_meters":11600,"station_id":"ce4bgt12rcd13ifvqce0","pricing_plan_id":"cebpf4jnsgd1na2vs0mg"},{"bike_id":"b2e2de8c-fed5-41cd-b4ae-24737182ff6b","system_id":"levelo_inurba_marseille","lat":43.29963,"lon":5.38479,"is_reserved":false,"is_disabled":false,"rental_uris":{"android":"levelo://app?vid=b2e2de8c-fed5-41cd-b4ae-24737182ff6b","ios":"levelo://app?vid=b2e2de8c-fed5-41cd-b4ae-24737182ff6b"},"vehicle_type_id":"4","last_reported":1743271907,"current_range_meters":11600,"station_id":"ce4bgj92rcd13ifvqbd0","pricing_plan_id":"cebpf4jnsgd1na2vs0mg"},{"bike_id":"8de6efcf-d784-40e1-9652-a30427cb38f3","system_id":"levelo_inurba_marseille","lat":43.30147,"lon":5.38815,"is_reserved":false,"is_disabled":false,"rental_uris":{"android":"levelo://app?vid=8de6efcf-d784-40e1-9652-a30427cb38f3","ios":"levelo://app?vid=8de6efcf-d784-40e1-9652-a30427cb38f3"},"vehicle_type_id":"4","last_reported":1743271907,"current_range_meters":14800,"station_id":"ce4bghh2rcd13ifvqb60","pricing_plan_id":"cebpf4jnsgd1na2vs0mg"},{"bike_id":"a10d8014-be8b-488c-962a-9e1870054719","system_id":"levelo_inurba_marseille","lat":43.265625,"lon":5.390114,"is_reserved":false,"is_disabled":false,"rental_uris":{"android":"levelo://app?vid=a10d8014-be8b-488c-962a-9e1870054719","ios":"levelo://app?vid=a10d8014-be8b-488c-962a-9e1870054719"},"vehicle_type_id":"4","last_reported":1743271907,"current_range_meters":11600,"station_id":"ce4bhe12rcd13ifvqf30","pricing_plan_id":"cebpf4jnsgd1na2vs0mg"},{"bike_id":"f3bf0ea4-0a7f-4d4d-ba53-b8a401f1388e","system_id":"levelo_inurba_marseille","lat":43.31279,"lon":5.40171,"is_reserved":false,"is_disabled":false,"rental_uris":{"android":"levelo://app?vid=f3bf0ea4-0a7f-4d4d-ba53-b8a401f1388e","ios":"levelo://app?vid=f3bf0ea4-0a7f-4d4d-ba53-b8a401f1388e"},"vehicle_type_id":"4","last_reported":1743271907,"current_range_meters":11600,"station_id":"ce4bh092rcd13ifvqd30","pricing_plan_id":"cebpf4jnsgd1na2vs0mg"},{"bike_id":"d2aa55bb-b165-4bb1-adb0-82726733318a","system_id":"levelo_inurba_marseille","lat":43.22938,"lon":5.35377,"is_reserved":false,"is_disabled":false,"rental_uris":{"android":"levelo://app?vid=d2aa55bb-b165-4bb1-adb0-82726733318a","ios":"levelo://app?vid=d2aa55bb-b165-4bb1-adb0-82726733318a"},"vehicle_type_id":"4","last_reported":1743271907,"current_range_meters":11600,"station_id":"cpo3532slgdg3j2ikp40","pricing_plan_id":"cebpf4jnsgd1na2vs0mg"},{"bike_id":"6be8e813-f0ce-4cc3-9a7d-0d37c5d1a24f","system_id":"levelo_inurba_marseille","lat":43.30799,"lon":5.38164,"is_reserved":false,"is_disabled":false,"rental_uris":{"android":"levelo://app?vid=6be8e813-f0ce-4cc3-9a7d-0d37c5d1a24f","ios":"levelo://app?vid=6be8e813-f0ce-4cc3-9a7d-0d37c5d1a24f"},"vehicle_type_id":"4","last_reported":1743271907,"current_range_meters":12000,"station_id":"ce4bgt12rcd13ifvqce0","pricing_plan_id":"cebpf4jnsgd1na2vs0mg"},{"bike_id":"1bd3a9b6-ec9b-45a9-a68a-4189389c5ba8","system_id":"levelo_inurba_marseille","lat":43.31762,"lon":5.39016,"is_reserved":false,"is_disabled":false,"rental_uris":{"android":"levelo://app?vid=1bd3a9b6-ec9b-45a9-a68a-4189389c5ba8","ios":"levelo://app?vid=1bd3a9b6-ec9b-45a9-a68a-4189389c5ba8"},"vehicle_type_id":"4","last_reported":1743271907,"current_range_meters":12000,"station_id":"ce4bhqp2rcd13ifvqhng","pricing_plan_id":"cebpf4jnsgd1na2vs0mg"},{"bike_id":"76d4ed16-8625-4a14-a5f1-d28ac2574c13","system_id":"levelo_inurba_marseille","lat":43.24547,"lon":5.3952,"is_reserved":false,"is_disabled":false,"rental_uris":{"android":"levelo://app?vid=76d4ed16-8625-4a14-a5f1-d28ac2574c13","ios":"levelo://app?vid=76d4ed16-8625-4a14-a5f1-d28ac2574c13"},"vehicle_type_id":"4","last_reported":1743271907,"current_range_meters":12000,"station_id":"","pricing_plan_id":"cebpf4jnsgd1na2vs0mg"},{"bike_id":"1bf928b2-7ac9-41a7-adcc-77e0f5608510","system_id":"levelo_inurba_marseille","lat":43.32447,"lon":5.36393,"is_reserved":false,"is_disabled":false,"rental_uris":{"android":"levelo://app?vid=1bf928b2-7ac9-41a7-adcc-77e0f5608510","ios":"levelo://app?vid=1bf928b2-7ac9-41a7-adcc-77e0f5608510"},"vehicle_type_id":"4","last_reported":1743271907,"current_range_meters":12000,"station_id":"","pricing_plan_id":"cebpf4jnsgd1na2vs0mg"},{"bike_id":"9e6169ef-5f71-4a72-b3c2-effde3fb2783","system_id":"levelo_inurba_marseille","lat":43.30423,"lon":5.41289,"is_reserved":false,"is_disabled":false,"rental_uris":{"android":"levelo://app?vid=9e6169ef-5f71-4a72-b3c2-effde3fb2783","ios":"levelo://app?vid=9e6169ef-5f71-4a72-b3c2-effde3fb2783"},"vehicle_type_id":"4","last_reported":1743271907,"current_range_meters":12000,"station_id":"ce4bhop2rcd13ifvqh8g","pricing_plan_id":"cebpf4jnsgd1na2vs0mg"},{"bike_id":"27e2702a-a16b-4b68-b934-f1c0ae2217b5","system_id":"levelo_inurba_marseille","lat":43.32063,"lon":5.41543,"is_reserved":false,"is_disabled":false,"rental_uris":{"android":"levelo://app?vid=27e2702a-a16b-4b68-b934-f1c0ae2217b5","ios":"levelo://app?vid=27e2702a-a16b-4b68-b934-f1c0ae2217b5"},"vehicle_type_id":"4","last_reported":1743271907,"current_range_meters":12000,"station_id":"ce4bhq92rcd13ifvqhkg","pricing_plan_id":"cebpf4jnsgd1na2vs0mg"},{"bike_id":"17f2b0b4-2a0d-4dd4-a6e7-8d06fc9cc69a","system_id":"levelo_inurba_marseille","lat":43.2318,"lon":5.3998,"is_reserved":false,"is_disabled":false,"rental_uris":{"android":"levelo://app?vid=17f2b0b4-2a0d-4dd4-a6e7-8d06fc9cc69a","ios":"levelo://app?vid=17f2b0b4-2a0d-4dd4-a6e7-8d06fc9cc69a"},"vehicle_type_id":"4","last_reported":1743271907,"current_range_meters":11600,"station_id":"ce4bhn12rcd13ifvqgqg","pricing_plan_id":"cebpf4jnsgd1na2vs0mg"},{"bike_id":"fb1f9942-b9fe-4852-81e0-8884a77b743c","system_id":"levelo_inurba_marseille","lat":43.31183,"lon":5.38711,"is_reserved":false,"is_disabled":false,"rental_uris":{"android":"levelo://app?vid=fb1f9942-b9fe-4852-81e0-8884a77b743c","ios":"levelo://app?vid=fb1f9942-b9fe-4852-81e0-8884a77b743c"},"vehicle_type_id":"4","last_reported":1743271907,"current_range_meters":12000,"station_id":"ce4bgv12rcd13ifvqcp0","pricing_plan_id":"cebpf4jnsgd1na2vs0mg"},{"bike_id":"dd1a4ead-1c0d-4def-8143-a2ac54a6d29c","system_id":"levelo_inurba_marseille","lat":43.22936,"lon":5.35388,"is_reserved":false,"is_disabled":false,"rental_uris":{"android":"levelo://app?vid=dd1a4ead-1c0d-4def-8143-a2ac54a6d29c","ios":"levelo://app?vid=dd1a4ead-1c0d-4def-8143-a2ac54a6d29c"},"vehicle_type_id":"4","last_reported":1743271907,"current_range_meters":12000,"station_id":"cpo3532slgdg3j2ikp40","pricing_plan_id":"cebpf4jnsgd1na2vs0mg"},{"bike_id":"99e1c800-74de-488b-9bb3-45374e45acf9","system_id":"levelo_inurba_marseille","lat":43.31756,"lon":5.39021,"is_reserved":false,"is_disabled":false,"rental_uris":{"android":"levelo://app?vid=99e1c800-74de-488b-9bb3-45374e45acf9","ios":"levelo://app?vid=99e1c800-74de-488b-9bb3-45374e45acf9"},"vehicle_type_id":"4","last_reported":1743271907,"current_range_meters":11600,"station_id":"ce4bhqp2rcd13ifvqhng","pricing_plan_id":"cebpf4jnsgd1na2vs0mg"},{"bike_id":"211e02b6-c381-4993-a223-66dc669f8c37","system_id":"levelo_inurba_marseille","lat":43.30143,"lon":5.37434,"is_reserved":false,"is_disabled":false,"rental_uris":{"android":"levelo://app?vid=211e02b6-c381-4993-a223-66dc669f8c37","ios":"levelo://app?vid=211e02b6-c381-4993-a223-66dc669f8c37"},"vehicle_type_id":"4","last_reported":1743271907,"current_range_meters":12400,"station_id":"ce4bgs92rcd13ifvqcc0","pricing_plan_id":"cebpf4jnsgd1na2vs0mg"},{"bike_id":"01985f1d-8875-4eaf-ac6c-7e43f99f6202","system_id":"levelo_inurba_marseille","lat":43.31708,"lon":5.37722,"is_reserved":false,"is_disabled":false,"rental_uris":{"android":"levelo://app?vid=01985f1d-8875-4eaf-ac6c-7e43f99f6202","ios":"levelo://app?vid=01985f1d-8875-4eaf-ac6c-7e43f99f6202"},"vehicle_type_id":"4","last_reported":1743271907,"current_range_meters":12400,"station_id":"ce4bgth2rcd13ifvqch0","pricing_plan_id":"cebpf4jnsgd1na2vs0mg"},{"bike_id":"b8041aaf-0982-46a6-92dc-ce9f9afba287","system_id":"levelo_inurba_marseille","lat":43.29585,"lon":5.36745,"is_reserved":false,"is_disabled":false,"rental_uris":{"android":"levelo://app?vid=b8041aaf-0982-46a6-92dc-ce9f9afba287","ios":"levelo://app?vid=b8041aaf-0982-46a6-92dc-ce9f9afba287"},"vehicle_type_id":"4","last_reported":1743271907,"current_range_meters":12400,"station_id":"ce4bgph2rcd13ifvqc2g","pricing_plan_id":"cebpf4jnsgd1na2vs0mg"},{"bike_id":"42bc7b23-0e2f-4d72-b583-40bcdabb28c7","system_id":"levelo_inurba_marseille","lat":43.29539,"lon":5.37363,"is_reserved":false,"is_disabled":false,"rental_uris":{"android":"levelo://app?vid=42bc7b23-0e2f-4d72-b583-40bcdabb28c7","ios":"levelo://app?vid=42bc7b23-0e2f-4d72-b583-40bcdabb28c7"},"vehicle_type_id":"4","last_reported":1743271907,"current_range_meters":12400,"station_id":"","pricing_plan_id":"cebpf4jnsgd1na2vs0mg"},{"bike_id":"e53fb0b6-4828-47af-a0d0-116bdf650cf4","system_id":"levelo_inurba_marseille","lat":43.26684,"lon":5.38302,"is_reserved":false,"is_disabled":false,"rental_uris":{"android":"levelo://app?vid=e53fb0b6-4828-47af-a0d0-116bdf650cf4","ios":"levelo://app?vid=e53fb0b6-4828-47af-a0d0-116bdf650cf4"},"vehicle_type_id":"4","last_reported":1743271907,"current_range_meters":12400,"station_id":"ce4bhg92rcd13ifvqf90","pricing_plan_id":"cebpf4jnsgd1na2vs0mg"},{"bike_id":"9f50066e-01fa-4519-9f61-8109fe65f5d9","system_id":"levelo_inurba_marseille","lat":43.2971,"lon":5.37146,"is_reserved":false,"is_disabled":false,"rental_uris":{"android":"levelo://app?vid=9f50066e-01fa-4519-9f61-8109fe65f5d9","ios":"levelo://app?vid=9f50066e-01fa-4519-9f61-8109fe65f5d9"},"vehicle_type_id":"4","last_reported":1743271907,"current_range_meters":12400,"station_id":"","pricing_plan_id":"cebpf4jnsgd1na2vs0mg"},{"bike_id":"c7350a1f-d86f-4385-8b12-cae308c4f1d2","system_id":"levelo_inurba_marseille","lat":43.29097,"lon":5.3814,"is_reserved":false,"is_disabled":false,"rental_uris":{"android":"levelo://app?vid=c7350a1f-d86f-4385-8b12-cae308c4f1d2","ios":"levelo://app?vid=c7350a1f-d86f-4385-8b12-cae308c4f1d2"},"vehicle_type_id":"4","last_reported":1743271907,"current_range_meters":12000,"station_id":"ce4bh512rcd13ifvqe2g","pricing_plan_id":"cebpf4jnsgd1na2vs0mg"},{"bike_id":"5932aea2-ca7e-4bf0-a5fc-30c0ac341a24","system_id":"levelo_inurba_marseille","lat":43.28158,"lon":5.42643,"is_reserved":false,"is_disabled":false,"rental_uris":{"android":"levelo://app?vid=5932aea2-ca7e-4bf0-a5fc-30c0ac341a24","ios":"levelo://app?vid=5932aea2-ca7e-4bf0-a5fc-30c0ac341a24"},"vehicle_type_id":"4","last_reported":1743271907,"current_range_meters":12400,"station_id":"ce4bhnh2rcd13ifvqgug","pricing_plan_id":"cebpf4jnsgd1na2vs0mg"},{"bike_id":"dd38dd9d-7577-4b3c-9599-1a2bd5b97904","system_id":"levelo_inurba_marseille","lat":43.30299,"lon":5.39227,"is_reserved":false,"is_disabled":false,"rental_uris":{"android":"levelo://app?vid=dd38dd9d-7577-4b3c-9599-1a2bd5b97904","ios":"levelo://app?vid=dd38dd9d-7577-4b3c-9599-1a2bd5b97904"},"vehicle_type_id":"4","last_reported":1743271907,"current_range_meters":12400,"station_id":"ce4bgkh2rcd13ifvqbk0","pricing_plan_id":"cebpf4jnsgd1na2vs0mg"},{"bike_id":"43c9e1d6-20cb-43ba-9de5-d452efc88fdf","system_id":"levelo_inurba_marseille","lat":43.30537,"lon":5.36692,"is_reserved":false,"is_disabled":false,"rental_uris":{"android":"levelo://app?vid=43c9e1d6-20cb-43ba-9de5-d452efc88fdf","ios":"levelo://app?vid=43c9e1d6-20cb-43ba-9de5-d452efc88fdf"},"vehicle_type_id":"4","last_reported":1743271907,"current_range_meters":12000,"station_id":"ce4bgrp2rcd13ifvqc9g","pricing_plan_id":"cebpf4jnsgd1na2vs0mg"},{"bike_id":"2dd88066-6fcb-490e-85b8-341590006c9b","system_id":"levelo_inurba_marseille","lat":43.29792,"lon":5.38148,"is_reserved":false,"is_disabled":false,"rental_uris":{"android":"levelo://app?vid=2dd88066-6fcb-490e-85b8-341590006c9b","ios":"levelo://app?vid=2dd88066-6fcb-490e-85b8-341590006c9b"},"vehicle_type_id":"4","last_reported":1743271907,"current_range_meters":12400,"station_id":"ce4bgip2rcd13ifvqbb0","pricing_plan_id":"cebpf4jnsgd1na2vs0mg"},{"bike_id":"8cf4f201-930c-4d9c-9146-38a1c2c66eff","system_id":"levelo_inurba_marseille","lat":43.28398,"lon":5.34985,"is_reserved":false,"is_disabled":false,"rental_uris":{"android":"levelo://app?vid=8cf4f201-930c-4d9c-9146-38a1c2c66eff","ios":"levelo://app?vid=8cf4f201-930c-4d9c-9146-38a1c2c66eff"},"vehicle_type_id":"4","last_reported":1743271907,"current_range_meters":12400,"station_id":"ce4bhbh2rcd13ifvqepg","pricing_plan_id":"cebpf4jnsgd1na2vs0mg"},{"bike_id":"21b7dfed-4bf3-42a6-9071-9b2b5259da3c","system_id":"levelo_inurba_marseille","lat":43.29649,"lon":5.37144,"is_reserved":false,"is_disabled":true,"rental_uris":{"android":"levelo://app?vid=21b7dfed-4bf3-42a6-9071-9b2b5259da3c","ios":"levelo://app?vid=21b7dfed-4bf3-42a6-9071-9b2b5259da3c"},"vehicle_type_id":"4","last_reported":1743271907,"current_range_meters":12400,"station_id":"ce4bgnh2rcd13ifvqc0g","pricing_plan_id":"cebpf4jnsgd1na2vs0mg"},{"bike_id":"336d8d9a-0043-40a6-813c-8b0fb3516273","system_id":"levelo_inurba_marseille","lat":43.34139,"lon":5.40905,"is_reserved":false,"is_disabled":false,"rental_uris":{"android":"levelo://app?vid=336d8d9a-0043-40a6-813c-8b0fb3516273","ios":"levelo://app?vid=336d8d9a-0043-40a6-813c-8b0fb3516273"},"vehicle_type_id":"4","last_reported":1743271907,"current_range_meters":12400,"station_id":"ce4bhqh2rcd13ifvqhlg","pricing_plan_id":"cebpf4jnsgd1na2vs0mg"},{"bike_id":"ac0a9cfb-3db5-4d98-9594-f5fc24a0bb06","system_id":"levelo_inurba_marseille","lat":43.304536,"lon":5.39894,"is_reserved":false,"is_disabled":false,"rental_uris":{"android":"levelo://app?vid=ac0a9cfb-3db5-4d98-9594-f5fc24a0bb06","ios":"levelo://app?vid=ac0a9cfb-3db5-4d98-9594-f5fc24a0bb06"},"vehicle_type_id":"4","last_reported":1743271907,"current_range_meters":12800,"station_id":"ce4bh092rcd13ifvqd20","pricing_plan_id":"cebpf4jnsgd1na2vs0mg"},{"bike_id":"ec758dd7-494a-4007-bde3-9f98e30480d1","system_id":"levelo_inurba_marseille","lat":43.29561,"lon":5.42271,"is_reserved":false,"is_disabled":false,"rental_uris":{"android":"levelo://app?vid=ec758dd7-494a-4007-bde3-9f98e30480d1","ios":"levelo://app?vid=ec758dd7-494a-4007-bde3-9f98e30480d1"},"vehicle_type_id":"4","last_reported":1743271907,"current_range_meters":12800,"station_id":"ce4bhph2rcd13ifvqhdg","pricing_plan_id":"cebpf4jnsgd1na2vs0mg"},{"bike_id":"653ea6de-a177-4007-9cfa-5f3f77e975f6","system_id":"levelo_inurba_marseille","lat":43.24834,"lon":5.37447,"is_reserved":false,"is_disabled":false,"rental_uris":{"android":"levelo://app?vid=653ea6de-a177-4007-9cfa-5f3f77e975f6","ios":"levelo://app?vid=653ea6de-a177-4007-9cfa-5f3f77e975f6"},"vehicle_type_id":"4","last_reported":1743271907,"current_range_meters":12800,"station_id":"ce4bhgh2rcd13ifvqfb0","pricing_plan_id":"cebpf4jnsgd1na2vs0mg"},{"bike_id":"fddb4f31-596f-40cd-83f2-ab56f114b60a","system_id":"levelo_inurba_marseille","lat":43.289359,"lon":5.366467,"is_reserved":false,"is_disabled":false,"rental_uris":{"android":"levelo://app?vid=fddb4f31-596f-40cd-83f2-ab56f114b60a","ios":"levelo://app?vid=fddb4f31-596f-40cd-83f2-ab56f114b60a"},"vehicle_type_id":"4","last_reported":1743271907,"current_range_meters":14400,"station_id":"ce4bhb92rcd13ifvqen0","pricing_plan_id":"cebpf4jnsgd1na2vs0mg"},{"bike_id":"33d82c42-d308-4dac-aa24-b1ef4c4427be","system_id":"levelo_inurba_marseille","lat":43.24177,"lon":5.39722,"is_reserved":false,"is_disabled":false,"rental_uris":{"android":"levelo://app?vid=33d82c42-d308-4dac-aa24-b1ef4c4427be","ios":"levelo://app?vid=33d82c42-d308-4dac-aa24-b1ef4c4427be"},"vehicle_type_id":"4","last_reported":1743271907,"current_range_meters":12800,"station_id":"ce4bhn12rcd13ifvqgpg","pricing_plan_id":"cebpf4jnsgd1na2vs0mg"},{"bike_id":"86217e00-02b3-4f5a-9527-a1ee460fbdca","system_id":"levelo_inurba_marseille","lat":43.30211,"lon":5.39469,"is_reserved":false,"is_disabled":false,"rental_uris":{"android":"levelo://app?vid=86217e00-02b3-4f5a-9527-a1ee460fbdca","ios":"levelo://app?vid=86217e00-02b3-4f5a-9527-a1ee460fbdca"},"vehicle_type_id":"4","last_reported":1743271907,"current_range_meters":13600,"station_id":"ce4bh0p2rcd13ifvqd70","pricing_plan_id":"cebpf4jnsgd1na2vs0mg"},{"bike_id":"632a303c-3504-4fd3-b83a-b8162fb457bd","system_id":"levelo_inurba_marseille","lat":43.31122,"lon":5.3776,"is_reserved":false,"is_disabled":false,"rental_uris":{"android":"levelo://app?vid=632a303c-3504-4fd3-b83a-b8162fb457bd","ios":"levelo://app?vid=632a303c-3504-4fd3-b83a-b8162fb457bd"},"vehicle_type_id":"4","last_reported":1743271907,"current_range_meters":13600,"station_id":"ce4bgt92rcd13ifvqcg0","pricing_plan_id":"cebpf4jnsgd1na2vs0mg"},{"bike_id":"6e76cf33-f6d5-489f-a920-561507233122","system_id":"levelo_inurba_marseille","lat":43.31762,"lon":5.39026,"is_reserved":false,"is_disabled":false,"rental_uris":{"android":"levelo://app?vid=6e76cf33-f6d5-489f-a920-561507233122","ios":"levelo://app?vid=6e76cf33-f6d5-489f-a920-561507233122"},"vehicle_type_id":"4","last_reported":1743271907,"current_range_meters":13600,"station_id":"ce4bhqp2rcd13ifvqhng","pricing_plan_id":"cebpf4jnsgd1na2vs0mg"},{"bike_id":"1194d893-debc-41d7-b347-816267570776","system_id":"levelo_inurba_marseille","lat":43.33698,"lon":5.39194,"is_reserved":false,"is_disabled":false,"rental_uris":{"android":"levelo://app?vid=1194d893-debc-41d7-b347-816267570776","ios":"levelo://app?vid=1194d893-debc-41d7-b347-816267570776"},"vehicle_type_id":"4","last_reported":1743271907,"current_range_meters":13600,"station_id":"ce4bhr92rcd13ifvqhsg","pricing_plan_id":"cebpf4jnsgd1na2vs0mg"},{"bike_id":"a90d481a-7039-457f-a5b9-3dabbed904f5","system_id":"levelo_inurba_marseille","lat":43.27935,"lon":5.41051,"is_reserved":false,"is_disabled":false,"rental_uris":{"android":"levelo://app?vid=a90d481a-7039-457f-a5b9-3dabbed904f5","ios":"levelo://app?vid=a90d481a-7039-457f-a5b9-3dabbed904f5"},"vehicle_type_id":"4","last_reported":1743271907,"current_range_meters":13600,"station_id":"ce4bhnp2rcd13ifvqh0g","pricing_plan_id":"cebpf4jnsgd1na2vs0mg"},{"bike_id":"5b813016-d36a-46e8-9e3c-82cf0ac14cd4","system_id":"levelo_inurba_marseille","lat":43.29847,"lon":5.36282,"is_reserved":false,"is_disabled":false,"rental_uris":{"android":"levelo://app?vid=5b813016-d36a-46e8-9e3c-82cf0ac14cd4","ios":"levelo://app?vid=5b813016-d36a-46e8-9e3c-82cf0ac14cd4"},"vehicle_type_id":"4","last_reported":1743271907,"current_range_meters":13600,"station_id":"ce4bgpp2rcd13ifvqc3g","pricing_plan_id":"cebpf4jnsgd1na2vs0mg"},{"bike_id":"6c66ee48-9e02-417a-9585-78d2d3cf2abc","system_id":"levelo_inurba_marseille","lat":43.29008,"lon":5.35613,"is_reserved":false,"is_disabled":false,"rental_uris":{"android":"levelo://app?vid=6c66ee48-9e02-417a-9585-78d2d3cf2abc","ios":"levelo://app?vid=6c66ee48-9e02-417a-9585-78d2d3cf2abc"},"vehicle_type_id":"4","last_reported":1743271907,"current_range_meters":14000,"station_id":"ce4bhb92rcd13ifvqen0","pricing_plan_id":"cebpf4jnsgd1na2vs0mg"},{"bike_id":"dda21622-4dfa-46ca-ae17-a8a9aa2d1d31","system_id":"levelo_inurba_marseille","lat":43.26937,"lon":5.4025,"is_reserved":false,"is_disabled":false,"rental_uris":{"android":"levelo://app?vid=dda21622-4dfa-46ca-ae17-a8a9aa2d1d31","ios":"levelo://app?vid=dda21622-4dfa-46ca-ae17-a8a9aa2d1d31"},"vehicle_type_id":"4","last_reported":1743271907,"current_range_meters":13600,"station_id":"cjm6bp8fraef2m0cb0m0","pricing_plan_id":"cebpf4jnsgd1na2vs0mg"},{"bike_id":"56850dcd-2119-4808-9074-f7790712794c","system_id":"levelo_inurba_marseille","lat":43.28411,"lon":5.37514,"is_reserved":false,"is_disabled":false,"rental_uris":{"android":"levelo://app?vid=56850dcd-2119-4808-9074-f7790712794c","ios":"levelo://app?vid=56850dcd-2119-4808-9074-f7790712794c"},"vehicle_type_id":"4","last_reported":1743271907,"current_range_meters":14000,"station_id":"ce4bh412rcd13ifvqds0","pricing_plan_id":"cebpf4jnsgd1na2vs0mg"},{"bike_id":"bd90bf75-9c99-4619-93c2-7a5fd83388b5","system_id":"levelo_inurba_marseille","lat":43.313603,"lon":5.388284,"is_reserved":false,"is_disabled":false,"rental_uris":{"android":"levelo://app?vid=bd90bf75-9c99-4619-93c2-7a5fd83388b5","ios":"levelo://app?vid=bd90bf75-9c99-4619-93c2-7a5fd83388b5"},"vehicle_type_id":"4","last_reported":1743271907,"current_range_meters":14000,"station_id":"ce4bgt92rcd13ifvqcf0","pricing_plan_id":"cebpf4jnsgd1na2vs0mg"},{"bike_id":"e1f39489-366e-4c51-a52d-46e1e2648fdc","system_id":"levelo_inurba_marseille","lat":43.23208,"lon":5.35546,"is_reserved":false,"is_disabled":false,"rental_uris":{"android":"levelo://app?vid=e1f39489-366e-4c51-a52d-46e1e2648fdc","ios":"levelo://app?vid=e1f39489-366e-4c51-a52d-46e1e2648fdc"},"vehicle_type_id":"4","last_reported":1743271907,"current_range_meters":14000,"station_id":"ce4bhu92rcd13ifvqi70","pricing_plan_id":"cebpf4jnsgd1na2vs0mg"},{"bike_id":"177bb932-986a-4d14-a8ca-413160e4ac81","system_id":"levelo_inurba_marseille","lat":43.29529,"lon":5.38543,"is_reserved":false,"is_disabled":false,"rental_uris":{"android":"levelo://app?vid=177bb932-986a-4d14-a8ca-413160e4ac81","ios":"levelo://app?vid=177bb932-986a-4d14-a8ca-413160e4ac81"},"vehicle_type_id":"4","last_reported":1743271907,"current_range_meters":13600,"station_id":"ce4bgih2rcd13ifvqba0","pricing_plan_id":"cebpf4jnsgd1na2vs0mg"},