{"last_updated":1738671452,"ttl":60,"version":"2.2","data":{"bikes":[{"bike_id":"a6accd57-54cf-4d44-87f9-766d1013e2f7","system_id":"levelo_inurba_marseille","lat":43.26035,"lon":5.37573,"is_reserved":false,"is_disabled":false,"rental_uris":{"android":"levelo://app?vid=a6accd57-54cf-4d44-87f9-766d1013e2f7","ios":"levelo://app?vid=a6accd57-54cf-4d44-87f9-766d1013e2f7"},"vehicle_type_id":"4","last_reported":1738671452,"current_range_meters":36800,"station_id":"ce4bhgh2rcd13ifvqfa0","pricing_plan_id":"cebpf4jnsgd1na2vs0mg"},{"bike_id":"5de6f6e1-3eb6-4936-9461-f12693c42397","system_id":"levelo_inurba_marseille","lat":43.27383,"lon":5.3626,"is_reserved":false,"is_disabled":false,"rental_uris":{"android":"levelo://app?vid=5de6f6e1-3eb6-4936-9461-f12693c42397","ios":"levelo://app?vid=5de6f6e1-3eb6-4936-9461-f12693c42397"},"vehicle_type_id":"4","last_reported":1738671452,"current_range_meters":18800,"station_id":"ce4bhbh2rcd13ifvqeo0","pricing_plan_id":"cebpf4jnsgd1na2vs0mg"},{"bike_id":"41ab9220-c5cd-4360-8e13-84bb0d5ce82a","system_id":"levelo_inurba_marseille","lat":43.30112,"lon":5.39069,"is_reserved":false,"is_disabled":false,"rental_uris":{"android":"levelo://app?vid=41ab9220-c5cd-4360-8e13-84bb0d5ce82a","ios":"levelo://app?vid=41ab9220-c5cd-4360-8e13-84bb0d5ce82a"},"vehicle_type_id":"4","last_reported":1738671452,"current_range_meters":26000,"station_id":"ce4bh192rcd13ifvqdb0","pricing_plan_id":"cebpf4jnsgd1na2vs0mg"},{"bike_id":"53a9d8da-5f7e-48a8-b489-8866ab88b092","system_id":"levelo_inurba_marseille","lat":43.28266,"lon":5.35063,"is_reserved":false,"is_disabled":false,"rental_uris":{"android":"levelo://app?vid=53a9d8da-5f7e-48a8-b489-8866ab88b092","ios":"levelo://app?vid=53a9d8da-5f7e-48a8-b489-8866ab88b092"},"vehicle_type_id":"4","last_reported":1738671452,"current_range_meters":38800,"station_id":"ce4bhbp2rcd13ifvqerg","pricing_plan_id":"cebpf4jnsgd1na2vs0mg"},{"bike_id":"c3d081d5-4d92-46ae-b635-182bf30c7a9e","system_id":"levelo_inurba_marseille","lat":43.30547,"lon":5.36568,"is_reserved":false,"is_disabled":false,"rental_uris":{"android":"levelo://app?vid=c3d081d5-4d92-46ae-b635-182bf30c7a9e","ios":"levelo://app?vid=c3d081d5-4d92-46ae-b635-182bf30c7a9e"},"vehicle_type_id":"4","last_reported":1738671452,"current_range_meters":27600,"station_id":"ce4bgs12rcd13ifvqcag","pricing_plan_id":"cebpf4jnsgd1na2vs0mg"},{"bike_id":"fe44c7f8-24e4-4cec-a2a3-4df4dd9b6403","system_id":"levelo_inurba_marseille","lat":43.30424,"lon":5.3975,"is_reserved":false,"is_disabled":false,"rental_uris":{"android":"levelo://app?vid=fe44c7f8-24e4-4cec-a2a3-4df4dd9b6403","ios":"levelo://app?vid=fe44c7f8-24e4-4cec-a2a3-4df4dd9b6403"},"vehicle_type_id":"4","last_reported":1738671452,"current_range_meters":24800,"station_id":"ce4bh092rcd13ifvqd20","pricing_plan_id":"cebpf4jnsgd1na2vs0mg"},{"bike_id":"218cf88c-674f-46a7-9455-3b01fdb97c07","system_id":"levelo_inurba_marseille","lat":43.23134,"lon":5.43721,"is_reserved":false,"is_disabled":false,"rental_uris":{"android":"levelo://app?vid=218cf88c-674f-46a7-9455-3b01fdb97c07","ios":"levelo://app?vid=218cf88c-674f-46a7-9455-3b01fdb97c07"},"vehicle_type_id":"4","last_reported":1738671452,"current_range_meters":38800,"station_id":"ce4bhmp2rcd13ifvqgog","pricing_plan_id":"cebpf4jnsgd1na2vs0mg"},{"bike_id":"4adc5aab-b210-4641-aba5-160a4e23aeb0","system_id":"levelo_inurba_marseille","lat":43.2961,"lon":5.37171,"is_reserved":false,"is_disabled":false,"rental_uris":{"android":"levelo://app?vid=4adc5aab-b210-4641-aba5-160a4e23aeb0","ios":"levelo://app?vid=4adc5aab-b210-4641-aba5-160a4e23aeb0"},"vehicle_type_id":"4","last_reported":1738671452,"current_range_meters":38000,"station_id":"ce4bgnh2rcd13ifvqc0g","pricing_plan_id":"cebpf4jnsgd1na2vs0mg"},{"bike_id":"03e56226-a4a2-447a-b0ef-d77b2ac074e2","system_id":"levelo_inurba_marseille","lat":43.24078,"lon":5.3776,"is_reserved":false,"is_disabled":false,"rental_uris":{"android":"levelo://app?vid=03e56226-a4a2-447a-b0ef-d77b2ac074e2","ios":"levelo://app?vid=03e56226-a4a2-447a-b0ef-d77b2ac074e2"},"vehicle_type_id":"4","last_reported":1738671452,"current_range_meters":27200,"station_id":"ce4bhnp2rcd13ifvqgvg","pricing_plan_id":"cebpf4jnsgd1na2vs0mg"},{"bike_id":"a6b915c2-5538-4577-9ae9-57d3c8e63de6","system_id":"levelo_inurba_marseille","lat":43.29317,"lon":5.37171,"is_reserved":false,"is_disabled":false,"rental_uris":{"android":"levelo://app?vid=a6b915c2-5538-4577-9ae9-57d3c8e63de6","ios":"levelo://app?vid=a6b915c2-5538-4577-9ae9-57d3c8e63de6"},"vehicle_type_id":"4","last_reported":1738671452,"current_range_meters":37600,"station_id":"ce4bgh92rcd13ifvqb40","pricing_plan_id":"cebpf4jnsgd1na2vs0mg"},{"bike_id":"c835a4f7-cc05-45bd-a5f6-1bed625cc89d","system_id":"levelo_inurba_marseille","lat":43.24081,"lon":5.37754,"is_reserved":false,"is_disabled":false,"rental_uris":{"android":"levelo://app?vid=c835a4f7-cc05-45bd-a5f6-1bed625cc89d","ios":"levelo://app?vid=c835a4f7-cc05-45bd-a5f6-1bed625cc89d"},"vehicle_type_id":"4","last_reported":1738671452,"current_range_meters":38800,"station_id":"ce4bhnp2rcd13ifvqgvg","pricing_plan_id":"cebpf4jnsgd1na2vs0mg"},{"bike_id":"dafd10ed-96a4-4fae-a2bc-6ff46c93b8d6","system_id":"levelo_inurba_marseille","lat":43.26215,"lon":5.3744,"is_reserved":false,"is_disabled":true,"rental_uris":{"android":"levelo://app?vid=dafd10ed-96a4-4fae-a2bc-6ff46c93b8d6","ios":"levelo://app?vid=dafd10ed-96a4-4fae-a2bc-6ff46c93b8d6"},"vehicle_type_id":"4","last_reported":1738671452,"current_range_meters":0,"station_id":"ce4bhgp2rcd13ifvqfc0","pricing_plan_id":"cebpf4jnsgd1na2vs0mg"},{"bike_id":"4c74461c-7371-4e45-9a90-d40bca093523","system_id":"levelo_inurba_marseille","lat":43.3093,"lon":5.40141,"is_reserved":false,"is_disabled":false,"rental_uris":{"android":"levelo://app?vid=4c74461c-7371-4e45-9a90-d40bca093523","ios":"levelo://app?vid=4c74461c-7371-4e45-9a90-d40bca093523"},"vehicle_type_id":"4","last_reported":1738671452,"current_range_meters":38000,"station_id":"ce4bgvp2rcd13ifvqct0","pricing_plan_id":"cebpf4jnsgd1na2vs0mg"},{"bike_id":"c5bc887f-937a-4827-8fcd-0e5d0dcc3dcb","system_id":"levelo_inurba_marseille","lat":43.305448,"lon":5.365218,"is_reserved":false,"is_disabled":false,"rental_uris":{"android":"levelo://app?vid=c5bc887f-937a-4827-8fcd-0e5d0dcc3dcb","ios":"levelo://app?vid=c5bc887f-937a-4827-8fcd-0e5d0dcc3dcb"},"vehicle_type_id":"4","last_reported":1738671452,"current_range_meters":34000,"station_id":"ce4bgs12rcd13ifvqcag","pricing_plan_id":"cebpf4jnsgd1na2vs0mg"},{"bike_id":"211868e5-6706-41ac-a0cd-c9cea4e3d108","system_id":"levelo_inurba_marseille","lat":43.29006,"lon":5.35607,"is_reserved":false,"is_disabled":false,"rental_uris":{"android":"levelo://app?vid=211868e5-6706-41ac-a0cd-c9cea4e3d108","ios":"levelo://app?vid=211868e5-6706-41ac-a0cd-c9cea4e3d108"},"vehicle_type_id":"4","last_reported":1738671452,"current_range_meters":6800,"station_id":"ce4bhb92rcd13ifvqen0","pricing_plan_id":"cebpf4jnsgd1na2vs0mg"},{"bike_id":"b011ebf9-c847-456d-877a-df15c2d17a06","system_id":"levelo_inurba_marseille","lat":43.28073,"lon":5.39659,"is_reserved":false,"is_disabled":false,"rental_uris":{"android":"levelo://app?vid=b011ebf9-c847-456d-877a-df15c2d17a06","ios":"levelo://app?vid=b011ebf9-c847-456d-877a-df15c2d17a06"},"vehicle_type_id":"4","last_reported":1738671452,"current_range_meters":39200,"station_id":"ce4bho12rcd13ifvqh2g","pricing_plan_id":"cebpf4jnsgd1na2vs0mg"},{"bike_id":"820e8ef9-125b-498e-aafa-fafccb5e57f1","system_id":"levelo_inurba_marseille","lat":43.30531,"lon":5.36711,"is_reserved":false,"is_disabled":false,"rental_uris":{"android":"levelo://app?vid=820e8ef9-125b-498e-aafa-fafccb5e57f1","ios":"levelo://app?vid=820e8ef9-125b-498e-aafa-fafccb5e57f1"},"vehicle_type_id":"4","last_reported":1738671452,"current_range_meters":24400,"station_id":"ce4bgrp2rcd13ifvqc9g","pricing_plan_id":"cebpf4jnsgd1na2vs0mg"},{"bike_id":"bebf4271-6eed-4bfb-a9aa-078a9ef8c114","system_id":"levelo_inurba_marseille","lat":43.27975,"lon":5.38742,"is_reserved":false,"is_disabled":false,"rental_uris":{"android":"levelo://app?vid=bebf4271-6eed-4bfb-a9aa-078a9ef8c114","ios":"levelo://app?vid=bebf4271-6eed-4bfb-a9aa-078a9ef8c114"},"vehicle_type_id":"4","last_reported":1738671452,"current_range_meters":27600,"station_id":"ce4bhg12rcd13ifvqf80","pricing_plan_id":"cebpf4jnsgd1na2vs0mg"},{"bike_id":"c92d27b3-011a-4b9b-85d3-c7a68cdf0054","system_id":"levelo_inurba_marseille","lat":43.324777,"lon":5.365669,"is_reserved":false,"is_disabled":true,"rental_uris":{"android":"levelo://app?vid=c92d27b3-011a-4b9b-85d3-c7a68cdf0054","ios":"levelo://app?vid=c92d27b3-011a-4b9b-85d3-c7a68cdf0054"},"vehicle_type_id":"4","last_reported":1738671452,"current_range_meters":17200,"station_id":"","pricing_plan_id":"cebpf4jnsgd1na2vs0mg"},{"bike_id":"3e574816-3754-460d-8072-f6ebe3757ea0","system_id":"levelo_inurba_marseille","lat":43.32368,"lon":5.36764,"is_reserved":false,"is_disabled":false,"rental_uris":{"android":"levelo://app?vid=3e574816-3754-460d-8072-f6ebe3757ea0","ios":"levelo://app?vid=3e574816-3754-460d-8072-f6ebe3757ea0"},"vehicle_type_id":"4","last_reported":1738671452,"current_range_meters":18000,"station_id":"ce4bhsh2rcd13ifvqi2g","pricing_plan_id":"cebpf4jnsgd1na2vs0mg"},{"bike_id":"46f85741-547f-4c61-ad56-e23bee10013f","system_id":"levelo_inurba_marseille","lat":43.28485,"lon":5.38544,"is_reserved":false,"is_disabled":false,"rental_uris":{"android":"levelo://app?vid=46f85741-547f-4c61-ad56-e23bee10013f","ios":"levelo://app?vid=46f85741-547f-4c61-ad56-e23bee10013f"},"vehicle_type_id":"4","last_reported":1738671452,"current_range_meters":24000,"station_id":"ce4bh8p2rcd13ifvqeb0","pricing_plan_id":"cebpf4jnsgd1na2vs0mg"},{"bike_id":"14876a3c-4373-4da8-9e4d-2d9f970b8fca","system_id":"levelo_inurba_marseille","lat":43.28355,"lon":5.38645,"is_reserved":false,"is_disabled":false,"rental_uris":{"android":"levelo://app?vid=14876a3c-4373-4da8-9e4d-2d9f970b8fca","ios":"levelo://app?vid=14876a3c-4373-4da8-9e4d-2d9f970b8fca"},"vehicle_type_id":"4","last_reported":1738671452,"current_range_meters":33200,"station_id":"ce4bh492rcd13ifvqdvg","pricing_plan_id":"cebpf4jnsgd1na2vs0mg"},{"bike_id":"a1a7079b-68b5-45ca-9af8-b6bc9f7cd559","system_id":"levelo_inurba_marseille","lat":43.22933,"lon":5.35375,"is_reserved":false,"is_disabled":false,"rental_uris":{"android":"levelo://app?vid=a1a7079b-68b5-45ca-9af8-b6bc9f7cd559","ios":"levelo://app?vid=a1a7079b-68b5-45ca-9af8-b6bc9f7cd559"},"vehicle_type_id":"4","last_reported":1738671452,"current_range_meters":39200,"station_id":"cpo3532slgdg3j2ikp40","pricing_plan_id":"cebpf4jnsgd1na2vs0mg"},{"bike_id":"391156ab-23e6-4087-9fff-4d00554806c8","system_id":"levelo_inurba_marseille","lat":43.27569,"lon":5.38413,"is_reserved":false,"is_disabled":false,"rental_uris":{"android":"levelo://app?vid=391156ab-23e6-4087-9fff-4d00554806c8","ios":"levelo://app?vid=391156ab-23e6-4087-9fff-4d00554806c8"},"vehicle_type_id":"4","last_reported":1738671452,"current_range_meters":33200,"station_id":"ce4bhh92rcd13ifvqfi0","pricing_plan_id":"cebpf4jnsgd1na2vs0mg"},{"bike_id":"c5d244f0-0f80-49dd-80ea-357f59117f57","system_id":"levelo_inurba_marseille","lat":43.30448,"lon":5.36917,"is_reserved":false,"is_disabled":false,"rental_uris":{"android":"levelo://app?vid=c5d244f0-0f80-49dd-80ea-357f59117f57","ios":"levelo://app?vid=c5d244f0-0f80-49dd-80ea-357f59117f57"},"vehicle_type_id":"4","last_reported":1738671452,"current_range_meters":23200,"station_id":"","pricing_plan_id":"cebpf4jnsgd1na2vs0mg"},{"bike_id":"cc6882dc-c292-40fb-8164-0c7aad10a6e6","system_id":"levelo_inurba_marseille","lat":43.31355,"lon":5.36719,"is_reserved":false,"is_disabled":false,"rental_uris":{"android":"levelo://app?vid=cc6882dc-c292-40fb-8164-0c7aad10a6e6","ios":"levelo://app?vid=cc6882dc-c292-40fb-8164-0c7aad10a6e6"},"vehicle_type_id":"4","last_reported":1738671452,"current_range_meters":39200,"station_id":"ce4bgr92rcd13ifvqc6g","pricing_plan_id":"cebpf4jnsgd1na2vs0mg"},{"bike_id":"7a2d1c7c-697f-41e7-9a56-3b4fb1b139f2","system_id":"levelo_inurba_marseille","lat":43.23154,"lon":5.43713,"is_reserved":false,"is_disabled":false,"rental_uris":{"android":"levelo://app?vid=7a2d1c7c-697f-41e7-9a56-3b4fb1b139f2","ios":"levelo://app?vid=7a2d1c7c-697f-41e7-9a56-3b4fb1b139f2"},"vehicle_type_id":"4","last_reported":1738671452,"current_range_meters":38800,"station_id":"ce4bhmp2rcd13ifvqgog","pricing_plan_id":"cebpf4jnsgd1na2vs0mg"},{"bike_id":"dbf7072a-7876-4e1d-a586-d51c7ff2c81e","system_id":"levelo_inurba_marseille","lat":43.31326,"lon":5.3968,"is_reserved":false,"is_disabled":false,"rental_uris":{"android":"levelo://app?vid=dbf7072a-7876-4e1d-a586-d51c7ff2c81e","ios":"levelo://app?vid=dbf7072a-7876-4e1d-a586-d51c7ff2c81e"},"vehicle_type_id":"4","last_reported":1738671452,"current_range_meters":29600,"station_id":"ce4bgvp2rcd13ifvqcu0","pricing_plan_id":"cebpf4jnsgd1na2vs0mg"},{"bike_id":"fff747a3-bd82-458d-baaa-d1987fbbf2c0","system_id":"levelo_inurba_marseille","lat":43.24548,"lon":5.3952,"is_reserved":false,"is_disabled":true,"rental_uris":{"android":"levelo://app?vid=fff747a3-bd82-458d-baaa-d1987fbbf2c0","ios":"levelo://app?vid=fff747a3-bd82-458d-baaa-d1987fbbf2c0"},"vehicle_type_id":"4","last_reported":1738671452,"current_range_meters":2000,"station_id":"ce4bhlp2rcd13ifvqgjg","pricing_plan_id":"cebpf4jnsgd1na2vs0mg"},{"bike_id":"38d9c123-c80e-4d99-abd9-1554da4e609f","system_id":"levelo_inurba_marseille","lat":43.25068,"lon":5.38933,"is_reserved":false,"is_disabled":false,"rental_uris":{"android":"levelo://app?vid=38d9c123-c80e-4d99-abd9-1554da4e609f","ios":"levelo://app?vid=38d9c123-c80e-4d99-abd9-1554da4e609f"},"vehicle_type_id":"4","last_reported":1738671452,"current_range_meters":27200,"station_id":"","pricing_plan_id":"cebpf4jnsgd1na2vs0mg"},{"bike_id":"b2a6436f-4c95-46dd-a3bd-6af91e9591d2","system_id":"levelo_inurba_marseille","lat":43.25575,"lon":5.3826,"is_reserved":false,"is_disabled":false,"rental_uris":{"android":"levelo://app?vid=b2a6436f-4c95-46dd-a3bd-6af91e9591d2","ios":"levelo://app?vid=b2a6436f-4c95-46dd-a3bd-6af91e9591d2"},"vehicle_type_id":"4","last_reported":1738671452,"current_range_meters":19200,"station_id":"ce4bhih2rcd13ifvqfs0","pricing_plan_id":"cebpf4jnsgd1na2vs0mg"},{"bike_id":"70c43ef0-f8f3-466d-be2e-a027d55cb645","system_id":"levelo_inurba_marseille","lat":43.27326,"lon":5.39107,"is_reserved":false,"is_disabled":false,"rental_uris":{"android":"levelo://app?vid=70c43ef0-f8f3-466d-be2e-a027d55cb645","ios":"levelo://app?vid=70c43ef0-f8f3-466d-be2e-a027d55cb645"},"vehicle_type_id":"4","last_reported":1738671452,"current_range_meters":9200,"station_id":"ce4bhgp2rcd13ifvqfe0","pricing_plan_id":"cebpf4jnsgd1na2vs0mg"},{"bike_id":"36aab991-c8ad-4b9b-9159-cf5af6e561ef","system_id":"levelo_inurba_marseille","lat":43.32538,"lon":5.41432,"is_reserved":false,"is_disabled":false,"rental_uris":{"android":"levelo://app?vid=36aab991-c8ad-4b9b-9159-cf5af6e561ef","ios":"levelo://app?vid=36aab991-c8ad-4b9b-9159-cf5af6e561ef"},"vehicle_type_id":"4","last_reported":1738671452,"current_range_meters":18000,"station_id":"ce4bhq12rcd13ifvqhhg","pricing_plan_id":"cebpf4jnsgd1na2vs0mg"},{"bike_id":"f49399e3-6204-4840-b71d-d4fdec09f64b","system_id":"levelo_inurba_marseille","lat":43.25938,"lon":5.4092,"is_reserved":false,"is_disabled":false,"rental_uris":{"android":"levelo://app?vid=f49399e3-6204-4840-b71d-d4fdec09f64b","ios":"levelo://app?vid=f49399e3-6204-4840-b71d-d4fdec09f64b"},"vehicle_type_id":"4","last_reported":1738671452,"current_range_meters":28400,"station_id":"ce4bhm92rcd13ifvqglg","pricing_plan_id":"cebpf4jnsgd1na2vs0mg"},{"bike_id":"51de4b4b-7e16-48b2-8ffa-5affb26aec9b","system_id":"levelo_inurba_marseille","lat":43.287239,"lon":5.379399,"is_reserved":false,"is_disabled":false,"rental_uris":{"android":"levelo://app?vid=51de4b4b-7e16-48b2-8ffa-5affb26aec9b","ios":"levelo://app?vid=51de4b4b-7e16-48b2-8ffa-5affb26aec9b"},"vehicle_type_id":"4","last_reported":1738671452,"current_range_meters":5600,"station_id":"ce4bh9p2rcd13ifvqec0","pricing_plan_id":"cebpf4jnsgd1na2vs0mg"},{"bike_id":"3c8e5445-cf86-469e-9c11-4a5caaef9b7e","system_id":"levelo_inurba_marseille","lat":43.24643,"lon":5.38922,"is_reserved":false,"is_disabled":false,"rental_uris":{"android":"levelo://app?vid=3c8e5445-cf86-469e-9c11-4a5caaef9b7e","ios":"levelo://app?vid=3c8e5445-cf86-469e-9c11-4a5caaef9b7e"},"vehicle_type_id":"4","last_reported":1738671452,"current_range_meters":38400,"station_id":"ce4bhg12rcd13ifvqf60","pricing_plan_id":"cebpf4jnsgd1na2vs0mg"},{"bike_id":"86dbfce9-da2e-4102-b41d-b78c10cbdd73","system_id":"levelo_inurba_marseille","lat":43.28492,"lon":5.38545,"is_reserved":false,"is_disabled":false,"rental_uris":{"android":"levelo://app?vid=86dbfce9-da2e-4102-b41d-b78c10cbdd73","ios":"levelo://app?vid=86dbfce9-da2e-4102-b41d-b78c10cbdd73"},"vehicle_type_id":"4","last_reported":1738671452,"current_range_meters":38800,"station_id":"ce4bh8p2rcd13ifvqeb0","pricing_plan_id":"cebpf4jnsgd1na2vs0mg"},{"bike_id":"ed6ec31a-7620-4f4e-86ad-56e4a27be307","system_id":"levelo_inurba_marseille","lat":43.32285,"lon":5.38275,"is_reserved":false,"is_disabled":false,"rental_uris":{"android":"levelo://app?vid=ed6ec31a-7620-4f4e-86ad-56e4a27be307","ios":"levelo://app?vid=ed6ec31a-7620-4f4e-86ad-56e4a27be307"},"vehicle_type_id":"4","last_reported":1738671452,"current_range_meters":38000,"station_id":"ce4bhr12rcd13ifvqhqg","pricing_plan_id":"cebpf4jnsgd1na2vs0mg"},{"bike_id":"50cba2af-76b9-4895-83d8-d408fbb15cea","system_id":"levelo_inurba_marseille","lat":43.30951,"lon":5.39056,"is_reserved":false,"is_disabled":false,"rental_uris":{"android":"levelo://app?vid=50cba2af-76b9-4895-83d8-d408fbb15cea","ios":"levelo://app?vid=50cba2af-76b9-4895-83d8-d408fbb15cea"},"vehicle_type_id":"4","last_reported":1738671452,"current_range_meters":29600,"station_id":"ce4bgup2rcd13ifvqco0","pricing_plan_id":"cebpf4jnsgd1na2vs0mg"},{"bike_id":"e39786fb-c2ce-4222-8cc4-8de06ae89fae","system_id":"levelo_inurba_marseille","lat":43.30531,"lon":5.3843,"is_reserved":false,"is_disabled":false,"rental_uris":{"android":"levelo://app?vid=e39786fb-c2ce-4222-8cc4-8de06ae89fae","ios":"levelo://app?vid=e39786fb-c2ce-4222-8cc4-8de06ae89fae"},"vehicle_type_id":"4","last_reported":1738671452,"current_range_meters":28400,"station_id":"ce4bgg92rcd13ifvqb30","pricing_plan_id":"cebpf4jnsgd1na2vs0mg"},{"bike_id":"30d68ac6-7ba6-4749-8154-bf914e372a6a","system_id":"levelo_inurba_marseille","lat":43.3236,"lon":5.38894,"is_reserved":false,"is_disabled":false,"rental_uris":{"android":"levelo://app?vid=30d68ac6-7ba6-4749-8154-bf914e372a6a","ios":"levelo://app?vid=30d68ac6-7ba6-4749-8154-bf914e372a6a"},"vehicle_type_id":"4","last_reported":1738671452,"current_range_meters":37600,"station_id":"ce4bhqp2rcd13ifvqhog","pricing_plan_id":"cebpf4jnsgd1na2vs0mg"},{"bike_id":"70db77fa-5101-4cc3-b5ef-7ecd27e20697","system_id":"levelo_inurba_marseille","lat":43.23051,"lon":5.35491,"is_reserved":false,"is_disabled":false,"rental_uris":{"android":"levelo://app?vid=70db77fa-5101-4cc3-b5ef-7ecd27e20697","ios":"levelo://app?vid=70db77fa-5101-4cc3-b5ef-7ecd27e20697"},"vehicle_type_id":"4","last_reported":1738671452,"current_range_meters":24400,"station_id":"cpo3342slgdg3j2ifvpg","pricing_plan_id":"cebpf4jnsgd1na2vs0mg"},{"bike_id":"47835302-4051-4ddc-bf72-ddbdf3a013d2","system_id":"levelo_inurba_marseille","lat":43.29711,"lon":5.36589,"is_reserved":false,"is_disabled":false,"rental_uris":{"android":"levelo://app?vid=47835302-4051-4ddc-bf72-ddbdf3a013d2","ios":"levelo://app?vid=47835302-4051-4ddc-bf72-ddbdf3a013d2"},"vehicle_type_id":"4","last_reported":1738671452,"current_range_meters":14800,"station_id":"ce4bgn12rcd13ifvqbt0","pricing_plan_id":"cebpf4jnsgd1na2vs0mg"},{"bike_id":"e33c097b-83d0-40ec-9fbf-364e5b0a9ef8","system_id":"levelo_inurba_marseille","lat":43.231935,"lon":5.3555,"is_reserved":false,"is_disabled":false,"rental_uris":{"android":"levelo://app?vid=e33c097b-83d0-40ec-9fbf-364e5b0a9ef8","ios":"levelo://app?vid=e33c097b-83d0-40ec-9fbf-364e5b0a9ef8"},"vehicle_type_id":"4","last_reported":1738671452,"current_range_meters":39200,"station_id":"ce4bhu92rcd13ifvqi70","pricing_plan_id":"cebpf4jnsgd1na2vs0mg"},{"bike_id":"80061fe9-c71d-4313-9d2c-36d6b62edcb3","system_id":"levelo_inurba_marseille","lat":43.29034,"lon":5.39948,"is_reserved":false,"is_disabled":true,"rental_uris":{"android":"levelo://app?vid=80061fe9-c71d-4313-9d2c-36d6b62edcb3","ios":"levelo://app?vid=80061fe9-c71d-4313-9d2c-36d6b62edcb3"},"vehicle_type_id":"4","last_reported":1738671452,"current_range_meters":22000,"station_id":"ce4bh392rcd13ifvqdm0","pricing_plan_id":"cebpf4jnsgd1na2vs0mg"},{"bike_id":"206da775-068b-44b2-9a02-54f9619e5b13","system_id":"levelo_inurba_marseille","lat":43.31277,"lon":5.40167,"is_reserved":false,"is_disabled":false,"rental_uris":{"android":"levelo://app?vid=206da775-068b-44b2-9a02-54f9619e5b13","ios":"levelo://app?vid=206da775-068b-44b2-9a02-54f9619e5b13"},"vehicle_type_id":"4","last_reported":1738671452,"current_range_meters":19200,"station_id":"ce4bh092rcd13ifvqd30","pricing_plan_id":"cebpf4jnsgd1na2vs0mg"},{"bike_id":"e54520c5-718e-4e37-ae87-8d31457c1f83","system_id":"levelo_inurba_marseille","lat":43.29934,"lon":5.36547,"is_reserved":false,"is_disabled":false,"rental_uris":{"android":"levelo://app?vid=e54520c5-718e-4e37-ae87-8d31457c1f83","ios":"levelo://app?vid=e54520c5-718e-4e37-ae87-8d31457c1f83"},"vehicle_type_id":"4","last_reported":1738671452,"current_range_meters":25600,"station_id":"ce4bgm92rcd13ifvqbr0","pricing_plan_id":"cebpf4jnsgd1na2vs0mg"},{"bike_id":"0e775c38-7145-4e54-8c6f-1ded1dd2ad0f","system_id":"levelo_inurba_marseille","lat":43.2454,"lon":5.39532,"is_reserved":false,"is_disabled":false,"rental_uris":{"android":"levelo://app?vid=0e775c38-7145-4e54-8c6f-1ded1dd2ad0f","ios":"levelo://app?vid=0e775c38-7145-4e54-8c6f-1ded1dd2ad0f"},"vehicle_type_id":"4","last_reported":1738671452,"current_range_meters":38800,"station_id":"ce4bhlp2rcd13ifvqgjg","pricing_plan_id":"cebpf4jnsgd1na2vs0mg"},{"bike_id":"087030d9-e5e2-496a-a083-b7c401a9076d","system_id":"levelo_inurba_marseille","lat":43.26211,"lon":5.37455,"is_reserved":false,"is_disabled":false,"rental_uris":{"android":"levelo://app?vid=087030d9-e5e2-496a-a083-b7c401a9076d","ios":"levelo://app?vid=087030d9-e5e2-496a-a083-b7c401a9076d"},"vehicle_type_id":"4","last_reported":1738671452,"current_range_meters":38800,"station_id":"ce4bhgp2rcd13ifvqfc0","pricing_plan_id":"cebpf4jnsgd1na2vs0mg"},{"bike_id":"89e0fb27-5f26-4cfe-9f61-e8651117733f","system_id":"levelo_inurba_marseille","lat":43.22928,"lon":5.35379,"is_reserved":false,"is_disabled":false,"rental_uris":{"android":"levelo://app?vid=89e0fb27-5f26-4cfe-9f61-e8651117733f","ios":"levelo://app?vid=89e0fb27-5f26-4cfe-9f61-e8651117733f"},"vehicle_type_id":"4","last_reported":1738671452,"current_range_meters":37600,"station_id":"cpo3532slgdg3j2ikp40","pricing_plan_id":"cebpf4jnsgd1na2vs0mg"},{"bike_id":"94686783-8591-40a0-8ae9-9b25892b1952","system_id":"levelo_inurba_marseille","lat":43.28665,"lon":5.38664,"is_reserved":false,"is_disabled":false,"rental_uris":{"android":"levelo://app?vid=94686783-8591-40a0-8ae9-9b25892b1952","ios":"levelo://app?vid=94686783-8591-40a0-8ae9-9b25892b1952"},"vehicle_type_id":"4","last_reported":1738671452,"current_range_meters":36400,"station_id":"ce4bh492rcd13ifvqdug","pricing_plan_id":"cebpf4jnsgd1na2vs0mg"},{"bike_id":"6846d311-cf4e-49ca-b886-d8a890f4e12d","system_id":"levelo_inurba_marseille","lat":43.29629,"lon":5.40596,"is_reserved":false,"is_disabled":false,"rental_uris":{"android":"levelo://app?vid=6846d311-cf4e-49ca-b886-d8a890f4e12d","ios":"levelo://app?vid=6846d311-cf4e-49ca-b886-d8a890f4e12d"},"vehicle_type_id":"4","last_reported":1738671452,"current_range_meters":38400,"station_id":"ce4bh0h2rcd13ifvqd60","pricing_plan_id":"cebpf4jnsgd1na2vs0mg"},{"bike_id":"8ac1558d-0555-4a8d-b781-be28b178c777","system_id":"levelo_inurba_marseille","lat":43.25116,"lon":5.40318,"is_reserved":false,"is_disabled":true,"rental_uris":{"android":"levelo://app?vid=8ac1558d-0555-4a8d-b781-be28b178c777","ios":"levelo://app?vid=8ac1558d-0555-4a8d-b781-be28b178c777"},"vehicle_type_id":"4","last_reported":1738671452,"current_range_meters":400,"station_id":"ce4bhlh2rcd13ifvqgig","pricing_plan_id":"cebpf4jnsgd1na2vs0mg"},{"bike_id":"73ce5867-64af-413e-8de7-68ce3423aed3","system_id":"levelo_inurba_marseille","lat":43.24073,"lon":5.37754,"is_reserved":false,"is_disabled":false,"rental_uris":{"android":"levelo://app?vid=73ce5867-64af-413e-8de7-68ce3423aed3","ios":"levelo://app?vid=73ce5867-64af-413e-8de7-68ce3423aed3"},"vehicle_type_id":"4","last_reported":1738671452,"current_range_meters":24800,"station_id":"ce4bhnp2rcd13ifvqgvg","pricing_plan_id":"cebpf4jnsgd1na2vs0mg"},{"bike_id":"87a26786-60ab-480d-a7d8-4e8f28c08237","system_id":"levelo_inurba_marseille","lat":43.27072,"lon":5.4228,"is_reserved":false,"is_disabled":false,"rental_uris":{"android":"levelo://app?vid=87a26786-60ab-480d-a7d8-4e8f28c08237","ios":"levelo://app?vid=87a26786-60ab-480d-a7d8-4e8f28c08237"},"vehicle_type_id":"4","last_reported":1738671452,"current_range_meters":28400,"station_id":"ce4bhk92rcd13ifvqgb0","pricing_plan_id":"cebpf4jnsgd1na2vs0mg"},{"bike_id":"c396eb06-957b-49ea-b13d-0d9626b31ec9","system_id":"levelo_inurba_marseille","lat":43.29908,"lon":5.38147,"is_reserved":false,"is_disabled":false,"rental_uris":{"android":"levelo://app?vid=c396eb06-957b-49ea-b13d-0d9626b31ec9","ios":"levelo://app?vid=c396eb06-957b-49ea-b13d-0d9626b31ec9"},"vehicle_type_id":"4","last_reported":1738671452,"current_range_meters":32000,"station_id":"ce4bgj12rcd13ifvqbc0","pricing_plan_id":"cebpf4jnsgd1na2vs0mg"},{"bike_id":"9a246337-8b93-40ac-8041-a37c41945aaf","system_id":"levelo_inurba_marseille","lat":43.26942,"lon":5.40255,"is_reserved":false,"is_disabled":false,"rental_uris":{"android":"levelo://app?vid=9a246337-8b93-40ac-8041-a37c41945aaf","ios":"levelo://app?vid=9a246337-8b93-40ac-8041-a37c41945aaf"},"vehicle_type_id":"4","last_reported":1738671452,"current_range_meters":14400,"station_id":"cjm6bp8fraef2m0cb0m0","pricing_plan_id":"cebpf4jnsgd1na2vs0mg"},{"bike_id":"7c8b5db2-a7e4-491a-b7d5-94dc69c11823","system_id":"levelo_inurba_marseille","lat":43.32292,"lon":5.38296,"is_reserved":false,"is_disabled":false,"rental_uris":{"android":"levelo://app?vid=7c8b5db2-a7e4-491a-b7d5-94dc69c11823","ios":"levelo://app?vid=7c8b5db2-a7e4-491a-b7d5-94dc69c11823"},"vehicle_type_id":"4","last_reported":1738671452,"current_range_meters":24800,"station_id":"ce4bhr12rcd13ifvqhqg","pricing_plan_id":"cebpf4jnsgd1na2vs0mg"},{"bike_id":"278902b4-7b50-4f46-8ac1-6d0f29cc8638","system_id":"levelo_inurba_marseille","lat":43.24388,"lon":5.37055,"is_reserved":false,"is_disabled":false,"rental_uris":{"android":"levelo://app?vid=278902b4-7b50-4f46-8ac1-6d0f29cc8638","ios":"levelo://app?vid=278902b4-7b50-4f46-8ac1-6d0f29cc8638"},"vehicle_type_id":"4","last_reported":1738671452,"current_range_meters":37600,"station_id":"ce4bhhh2rcd13ifvqfk0","pricing_plan_id":"cebpf4jnsgd1na2vs0mg"},{"bike_id":"892d3765-5c4a-4b7c-80bb-37a8d91fb9fc","system_id":"levelo_inurba_marseille","lat":43.27321,"lon":5.3907,"is_reserved":false,"is_disabled":false,"rental_uris":{"android":"levelo://app?vid=892d3765-5c4a-4b7c-80bb-37a8d91fb9fc","ios":"levelo://app?vid=892d3765-5c4a-4b7c-80bb-37a8d91fb9fc"},"vehicle_type_id":"4","last_reported":1738671452,"current_range_meters":8800,"station_id":"ce4bhgp2rcd13ifvqfe0","pricing_plan_id":"cebpf4jnsgd1na2vs0mg"},{"bike_id":"7d0fcbc1-8e57-4689-bb0a-077351afa51d","system_id":"levelo_inurba_marseille","lat":43.29185,"lon":5.35813,"is_reserved":false,"is_disabled":false,"rental_uris":{"android":"levelo://app?vid=7d0fcbc1-8e57-4689-bb0a-077351afa51d","ios":"levelo://app?vid=7d0fcbc1-8e57-4689-bb0a-077351afa51d"},"vehicle_type_id":"4","last_reported":1738671452,"current_range_meters":16400,"station_id":"ce4bhb12rcd13ifvqel0","pricing_plan_id":"cebpf4jnsgd1na2vs0mg"},{"bike_id":"3ab0ceb6-cd89-477f-8038-1be761eb4bda","system_id":"levelo_inurba_marseille","lat":43.29223,"lon":5.36032,"is_reserved":false,"is_disabled":false,"rental_uris":{"android":"levelo://app?vid=3ab0ceb6-cd89-477f-8038-1be761eb4bda","ios":"levelo://app?vid=3ab0ceb6-cd89-477f-8038-1be761eb4bda"},"vehicle_type_id":"4","last_reported":1738671452,"current_range_meters":13600,"station_id":"ce4bhbh2rcd13ifvqeqg","pricing_plan_id":"cebpf4jnsgd1na2vs0mg"},{"bike_id":"40f1392b-3cee-4210-9d6f-118ec1de76f8","system_id":"levelo_inurba_marseille","lat":43.2397,"lon":5.36642,"is_reserved":false,"is_disabled":false,"rental_uris":{"android":"levelo://app?vid=40f1392b-3cee-4210-9d6f-118ec1de76f8","ios":"levelo://app?vid=40f1392b-3cee-4210-9d6f-118ec1de76f8"},"vehicle_type_id":"4","last_reported":1738671452,"current_range_meters":10800,"station_id":"ce4bhi12rcd13ifvqfp0","pricing_plan_id":"cebpf4jnsgd1na2vs0mg"},{"bike_id":"f876c5f4-d351-4f17-9695-ad6fce8ba38c","system_id":"levelo_inurba_marseille","lat":43.24071,"lon":5.37765,"is_reserved":false,"is_disabled":false,"rental_uris":{"android":"levelo://app?vid=f876c5f4-d351-4f17-9695-ad6fce8ba38c","ios":"levelo://app?vid=f876c5f4-d351-4f17-9695-ad6fce8ba38c"},"vehicle_type_id":"4","last_reported":1738671452,"current_range_meters":25200,"station_id":"ce4bhnp2rcd13ifvqgvg","pricing_plan_id":"cebpf4jnsgd1na2vs0mg"},{"bike_id":"e40f9edb-09d6-4f03-aa3e-db6a097a5060","system_id":"levelo_inurba_marseille","lat":43.23058,"lon":5.35489,"is_reserved":false,"is_disabled":false,"rental_uris":{"android":"levelo://app?vid=e40f9edb-09d6-4f03-aa3e-db6a097a5060","ios":"levelo://app?vid=e40f9edb-09d6-4f03-aa3e-db6a097a5060"},"vehicle_type_id":"4","last_reported":1738671452,"current_range_meters":26000,"station_id":"cpo3342slgdg3j2ifvpg","pricing_plan_id":"cebpf4jnsgd1na2vs0mg"},{"bike_id":"a7707bf1-29c6-4f48-976f-2880303742fc","system_id":"levelo_inurba_marseille","lat":43.29515,"lon":5.3903,"is_reserved":false,"is_disabled":true,"rental_uris":{"android":"levelo://app?vid=a7707bf1-29c6-4f48-976f-2880303742fc","ios":"levelo://app?vid=a7707bf1-29c6-4f48-976f-2880303742fc"},"vehicle_type_id":"4","last_reported":1738671452,"current_range_meters":14000,"station_id":"ce4bh3p2rcd13ifvqdp0","pricing_plan_id":"cebpf4jnsgd1na2vs0mg"},{"bike_id":"4ba0208b-a237-4fb4-9d2e-1d8063b17b57","system_id":"levelo_inurba_marseille","lat":43.25929,"lon":5.40912,"is_reserved":false,"is_disabled":false,"rental_uris":{"android":"levelo://app?vid=4ba0208b-a237-4fb4-9d2e-1d8063b17b57","ios":"levelo://app?vid=4ba0208b-a237-4fb4-9d2e-1d8063b17b57"},"vehicle_type_id":"4","last_reported":1738671452,"current_range_meters":22800,"station_id":"ce4bhm92rcd13ifvqglg","pricing_plan_id":"cebpf4jnsgd1na2vs0mg"},{"bike_id":"8e67169b-95f3-4591-9f28-56245d8afc74","system_id":"levelo_inurba_marseille","lat":43.29002,"lon":5.35613,"is_reserved":false,"is_disabled":false,"rental_uris":{"android":"levelo://app?vid=8e67169b-95f3-4591-9f28-56245d8afc74","ios":"levelo://app?vid=8e67169b-95f3-4591-9f28-56245d8afc74"},"vehicle_type_id":"4","last_reported":1738671452,"current_range_meters":36000,"station_id":"ce4bhb92rcd13ifvqen0","pricing_plan_id":"cebpf4jnsgd1na2vs0mg"},{"bike_id":"664e27b5-bf62-4659-8fe9-d95f6f65432d","system_id":"levelo_inurba_marseille","lat":43.29966,"lon":5.38497,"is_reserved":false,"is_disabled":false,"rental_uris":{"android":"levelo://app?vid=664e27b5-bf62-4659-8fe9-d95f6f65432d","ios":"levelo://app?vid=664e27b5-bf62-4659-8fe9-d95f6f65432d"},"vehicle_type_id":"4","last_reported":1738671452,"current_range_meters":18800,"station_id":"ce4bgj92rcd13ifvqbd0","pricing_plan_id":"cebpf4jnsgd1na2vs0mg"},{"bike_id":"8b27a232-3a6b-4a44-8a28-a8544f3e1726","system_id":"levelo_inurba_marseille","lat":43.26684,"lon":5.38269,"is_reserved":false,"is_disabled":false,"rental_uris":{"android":"levelo://app?vid=8b27a232-3a6b-4a44-8a28-a8544f3e1726","ios":"levelo://app?vid=8b27a232-3a6b-4a44-8a28-a8544f3e1726"},"vehicle_type_id":"4","last_reported":1738671452,"current_range_meters":38000,"station_id":"ce4bhg92rcd13ifvqf90","pricing_plan_id":"cebpf4jnsgd1na2vs0mg"},{"bike_id":"5105e794-8f56-4998-b5ce-9b5937c2a99c","system_id":"levelo_inurba_marseille","lat":43.32593,"lon":5.40958,"is_reserved":false,"is_disabled":false,"rental_uris":{"android":"levelo://app?vid=5105e794-8f56-4998-b5ce-9b5937c2a99c","ios":"levelo://app?vid=5105e794-8f56-4998-b5ce-9b5937c2a99c"},"vehicle_type_id":"4","last_reported":1738671452,"current_range_meters":15200,"station_id":"ce4bhpp2rcd13ifvqhgg","pricing_plan_id":"cebpf4jnsgd1na2vs0mg"},{"bike_id":"abfef716-ff8e-455a-bfdf-1757c8e08e3b","system_id":"levelo_inurba_marseille","lat":43.30601,"lon":5.37218,"is_reserved":false,"is_disabled":false,"rental_uris":{"android":"levelo://app?vid=abfef716-ff8e-455a-bfdf-1757c8e08e3b","ios":"levelo://app?vid=abfef716-ff8e-455a-bfdf-1757c8e08e3b"},"vehicle_type_id":"4","last_reported":1738671452,"current_range_meters":39200,"station_id":"ce4bgqh2rcd13ifvqc4g","pricing_plan_id":"cebpf4jnsgd1na2vs0mg"},{"bike_id":"f99c2d6a-f6bd-43c9-9b5e-96aec13e4155","system_id":"levelo_inurba_marseille","lat":43.31304,"lon":5.36718,"is_reserved":false,"is_disabled":false,"rental_uris":{"android":"levelo://app?vid=f99c2d6a-f6bd-43c9-9b5e-96aec13e4155","ios":"levelo://app?vid=f99c2d6a-f6bd-43c9-9b5e-96aec13e4155"},"vehicle_type_id":"4","last_reported":1738671452,"current_range_meters":39200,"station_id":"ce4bgr92rcd13ifvqc6g","pricing_plan_id":"cebpf4jnsgd1na2vs0mg"},{"bike_id":"3797bc06-ff81-4715-9f34-fb809228549a","system_id":"levelo_inurba_marseille","lat":43.29274,"lon":5.40131,"is_reserved":false,"is_disabled":false,"rental_uris":{"android":"levelo://app?vid=3797bc06-ff81-4715-9f34-fb809228549a","ios":"levelo://app?vid=3797bc06-ff81-4715-9f34-fb809228549a"},"vehicle_type_id":"4","last_reported":1738671452,"current_range_meters":22800,"station_id":"ce4bh312rcd13ifvqdk0","pricing_plan_id":"cebpf4jnsgd1na2vs0mg"},{"bike_id":"28bb841b-94b3-4842-8d56-4fd8bc4ce1ed","system_id":"levelo_inurba_marseille","lat":43.24542,"lon":5.39524,"is_reserved":false,"is_disabled":false,"rental_uris":{"android":"levelo://app?vid=28bb841b-94b3-4842-8d56-4fd8bc4ce1ed","ios":"levelo://app?vid=28bb841b-94b3-4842-8d56-4fd8bc4ce1ed"},"vehicle_type_id":"4","last_reported":1738671452,"current_range_meters":11200,"station_id":"ce4bhlp2rcd13ifvqgjg","pricing_plan_id":"cebpf4jnsgd1na2vs0mg"},{"bike_id":"19c7a087-c6ce-48e8-b53a-d3b89213b68d","system_id":"levelo_inurba_marseille","lat":43.27311,"lon":5.39089,"is_reserved":false,"is_disabled":true,"rental_uris":{"android":"levelo://app?vid=19c7a087-c6ce-48e8-b53a-d3b89213b68d","ios":"levelo://app?vid=19c7a087-c6ce-48e8-b53a-d3b89213b68d"},"vehicle_type_id":"4","last_reported":1738671452,"current_range_meters":2000,"station_id":"ce4bhgp2rcd13ifvqfe0","pricing_plan_id":"cebpf4jnsgd1na2vs0mg"},{"bike_id":"f7b27116-dd62-4f1b-995b-2135a8693209","system_id":"levelo_inurba_marseille","lat":43.29023,"lon":5.38644,"is_reserved":false,"is_disabled":false,"rental_uris":{"android":"levelo://app?vid=f7b27116-dd62-4f1b-995b-2135a8693209","ios":"levelo://app?vid=f7b27116-dd62-4f1b-995b-2135a8693209"},"vehicle_type_id":"4","last_reported":1738671452,"current_range_meters":28400,"station_id":"ce4bh4p2rcd13ifvqe0g","pricing_plan_id":"cebpf4jnsgd1na2vs0mg"},{"bike_id":"63b760b1-09b7-4898-acf4-fee9736d3ba7","system_id":"levelo_inurba_marseille","lat":43.2794,"lon":5.38749,"is_reserved":false,"is_disabled":false,"rental_uris":{"android":"levelo://app?vid=63b760b1-09b7-4898-acf4-fee9736d3ba7","ios":"levelo://app?vid=63b760b1-09b7-4898-acf4-fee9736d3ba7"},"vehicle_type_id":"4","last_reported":1738671452,"current_range_meters":34800,"station_id":"ce4bhg12rcd13ifvqf80","pricing_plan_id":"cebpf4jnsgd1na2vs0mg"},{"bike_id":"e270e9c9-c637-4eec-85ca-20047cef130b","system_id":"levelo_inurba_marseille","lat":43.23144,"lon":5.43724,"is_reserved":false,"is_disabled":false,"rental_uris":{"android":"levelo://app?vid=e270e9c9-c637-4eec-85ca-20047cef130b","ios":"levelo://app?vid=e270e9c9-c637-4eec-85ca-20047cef130b"},"vehicle_type_id":"4","last_reported":1738671452,"current_range_meters":38400,"station_id":"ce4bhmp2rcd13ifvqgog","pricing_plan_id":"cebpf4jnsgd1na2vs0mg"},{"bike_id":"dfe4a7c7-0508-43ad-a0c0-ea841f1a5151","system_id":"levelo_inurba_marseille","lat":43.31161,"lon":5.36862,"is_reserved":false,"is_disabled":false,"rental_uris":{"android":"levelo://app?vid=dfe4a7c7-0508-43ad-a0c0-ea841f1a5151","ios":"levelo://app?vid=dfe4a7c7-0508-43ad-a0c0-ea841f1a5151"},"vehicle_type_id":"4","last_reported":1738671452,"current_range_meters":34800,"station_id":"","pricing_plan_id":"cebpf4jnsgd1na2vs0mg"},{"bike_id":"2596d18e-5a51-415d-81d9-dda15ef753ca","system_id":"levelo_inurba_marseille","lat":43.2963,"lon":5.37178,"is_reserved":false,"is_disabled":false,"rental_uris":{"android":"levelo://app?vid=2596d18e-5a51-415d-81d9-dda15ef753ca","ios":"levelo://app?vid=2596d18e-5a51-415d-81d9-dda15ef753ca"},"vehicle_type_id":"4","last_reported":1738671452,"current_range_meters":38000,"station_id":"ce4bgnh2rcd13ifvqc0g","pricing_plan_id":"cebpf4jnsgd1na2vs0mg"},{"bike_id":"5b1a6511-8556-40e5-9f97-582da24f1b50","system_id":"levelo_inurba_marseille","lat":43.29305,"lon":5.37174,"is_reserved":false,"is_disabled":false,"rental_uris":{"android":"levelo://app?vid=5b1a6511-8556-40e5-9f97-582da24f1b50","ios":"levelo://app?vid=5b1a6511-8556-40e5-9f97-582da24f1b50"},"vehicle_type_id":"4","last_reported":1738671452,"current_range_meters":38800,"station_id":"ce4bgh92rcd13ifvqb40","pricing_plan_id":"cebpf4jnsgd1na2vs0mg"},{"bike_id":"8d459711-65a0-4171-8ad9-26b701276cc6","system_id":"levelo_inurba_marseille","lat":43.26783,"lon":5.39416,"is_reserved":false,"is_disabled":false,"rental_uris":{"android":"levelo://app?vid=8d459711-65a0-4171-8ad9-26b701276cc6","ios":"levelo://app?vid=8d459711-65a0-4171-8ad9-26b701276cc6"},"vehicle_type_id":"4","last_reported":1738671452,"current_range_meters":38000,"station_id":"ce4bhh12rcd13ifvqfg0","pricing_plan_id":"cebpf4jnsgd1na2vs0mg"},{"bike_id":"005249ad-a5ba-4e73-997c-32d7121f7635","system_id":"levelo_inurba_marseille","lat":43.27911,"lon":5.39591,"is_reserved":false,"is_disabled":false,"rental_uris":{"android":"levelo://app?vid=005249ad-a5ba-4e73-997c-32d7121f7635","ios":"levelo://app?vid=005249ad-a5ba-4e73-997c-32d7121f7635"},"vehicle_type_id":"4","last_reported":1738671452,"current_range_meters":29600,"station_id":"ce4bhf92rcd13ifvqf40","pricing_plan_id":"cebpf4jnsgd1na2vs0mg"},{"bike_id":"284984b1-0b04-4286-8de9-da966b43349a","system_id":"levelo_inurba_marseille","lat":43.24663,"lon":5.38164,"is_reserved":false,"is_disabled":false,"rental_uris":{"android":"levelo://app?vid=284984b1-0b04-4286-8de9-da966b43349a","ios":"levelo://app?vid=284984b1-0b04-4286-8de9-da966b43349a"},"vehicle_type_id":"4","last_reported":1738671452,"current_range_meters":33200,"station_id":"ce4bhih2rcd13ifvqfr0","pricing_plan_id":"cebpf4jnsgd1na2vs0mg"},{"bike_id":"49043dcc-dc87-4f32-9b9e-584978211017","system_id":"levelo_inurba_marseille","lat":43.30133,"lon":5.37421,"is_reserved":false,"is_disabled":false,"rental_uris":{"android":"levelo://app?vid=49043dcc-dc87-4f32-9b9e-584978211017","ios":"levelo://app?vid=49043dcc-dc87-4f32-9b9e-584978211017"},"vehicle_type_id":"4","last_reported":1738671452,"current_range_meters":38800,"station_id":"ce4bgs92rcd13ifvqcc0","pricing_plan_id":"cebpf4jnsgd1na2vs0mg"},{"bike_id":"88f6ec14-1047-428a-bfc8-ed7564b679d3","system_id":"levelo_inurba_marseille","lat":43.244,"lon":5.37058,"is_reserved":false,"is_disabled":false,"rental_uris":{"android":"levelo://app?vid=88f6ec14-1047-428a-bfc8-ed7564b679d3","ios":"levelo://app?vid=88f6ec14-1047-428a-bfc8-ed7564b679d3"},"vehicle_type_id":"4","last_reported":1738671452,"current_range_meters":38800,"station_id":"ce4bhhh2rcd13ifvqfk0","pricing_plan_id":"cebpf4jnsgd1na2vs0mg"},{"bike_id":"9560758e-cba7-460c-b061-2bc13d6a6670","system_id":"levelo_inurba_marseille","lat":43.28939,"lon":5.3664,"is_reserved":false,"is_disabled":false,"rental_uris":{"android":"levelo://app?vid=9560758e-cba7-460c-b061-2bc13d6a6670","ios":"levelo://app?vid=9560758e-cba7-460c-b061-2bc13d6a6670"},"vehicle_type_id":"4","last_reported":1738671452,"current_range_meters":22800,"station_id":"ce4bhap2rcd13ifvqek0","pricing_plan_id":"cebpf4jnsgd1na2vs0mg"},{"bike_id":"58e2b45d-b20b-43f4-9f4f-a94ac967c456","system_id":"levelo_inurba_marseille","lat":43.29697,"lon":5.37705,"is_reserved":false,"is_disabled":false,"rental_uris":{"android":"levelo://app?vid=58e2b45d-b20b-43f4-9f4f-a94ac967c456","ios":"levelo://app?vid=58e2b45d-b20b-43f4-9f4f-a94ac967c456"},"vehicle_type_id":"4","last_reported":1738671452,"current_range_meters":30000,"station_id":"ce4bgkh2rcd13ifvqbl0","pricing_plan_id":"cebpf4jnsgd1na2vs0mg"},{"bike_id":"352d595e-1fe6-4582-beb8-01e7d677d0ed","system_id":"levelo_inurba_marseille","lat":43.23953,"lon":5.36647,"is_reserved":false,"is_disabled":false,"rental_uris":{"android":"levelo://app?vid=352d595e-1fe6-4582-beb8-01e7d677d0ed","ios":"levelo://app?vid=352d595e-1fe6-4582-beb8-01e7d677d0ed"},"vehicle_type_id":"4","last_reported":1738671452,"current_range_meters":3600,"station_id":"ce4bhi12rcd13ifvqfp0","pricing_plan_id":"cebpf4jnsgd1na2vs0mg"},{"bike_id":"d236b23f-174d-4fff-af81-c971b0017636","system_id":"levelo_inurba_marseille","lat":43.28566,"lon":5.39501,"is_reserved":false,"is_disabled":false,"rental_uris":{"android":"levelo://app?vid=d236b23f-174d-4fff-af81-c971b0017636","ios":"levelo://app?vid=d236b23f-174d-4fff-af81-c971b0017636"},"vehicle_type_id":"4","last_reported":1738671452,"current_range_meters":27600,"station_id":"ce4bh292rcd13ifvqdg0","pricing_plan_id":"cebpf4jnsgd1na2vs0mg"},{"bike_id":"03215b30-aa65-4b10-b451-ed50967ec88e","system_id":"levelo_inurba_marseille","lat":43.34448,"lon":5.35959,"is_reserved":false,"is_disabled":true,"rental_uris":{"android":"levelo://app?vid=03215b30-aa65-4b10-b451-ed50967ec88e","ios":"levelo://app?vid=03215b30-aa65-4b10-b451-ed50967ec88e"},"vehicle_type_id":"4","last_reported":1738671452,"current_range_meters":0,"station_id":"","pricing_plan_id":"cebpf4jnsgd1na2vs0mg"},{"bike_id":"362b8e1d-c9e1-490d-a4e0-861ce9907193","system_id":"levelo_inurba_marseille","lat":43.24811,"lon":5.37449,"is_reserved":false,"is_disabled":false,"rental_uris":{"android":"levelo://app?vid=362b8e1d-c9e1-490d-a4e0-861ce9907193","ios":"levelo://app?vid=362b8e1d-c9e1-490d-a4e0-861ce9907193"},"vehicle_type_id":"4","last_reported":1738671452,"current_range_meters":8800,"station_id":"ce4bhgh2rcd13ifvqfb0","pricing_plan_id":"cebpf4jnsgd1na2vs0mg"},{"bike_id":"d1d51ec2-e1ab-4b92-9a4b-f935b04ef436","system_id":"levelo_inurba_marseille","lat":43.250027,"lon":5.38908,"is_reserved":false,"is_disabled":false,"rental_uris":{"android":"levelo://app?vid=d1d51ec2-e1ab-4b92-9a4b-f935b04ef436","ios":"levelo://app?vid=d1d51ec2-e1ab-4b92-9a4b-f935b04ef436"},"vehicle_type_id":"4","last_reported":1738671452,"current_range_meters":24400,"station_id":"ce4bhgp2rcd13ifvqfd0","pricing_plan_id":"cebpf4jnsgd1na2vs0mg"},{"bike_id":"102b9f2d-4c9c-4720-8aef-3f4ab487e1a0","system_id":"levelo_inurba_marseille","lat":43.32342,"lon":5.38889,"is_reserved":false,"is_disabled":false,"rental_uris":{"android":"levelo://app?vid=102b9f2d-4c9c-4720-8aef-3f4ab487e1a0","ios":"levelo://app?vid=102b9f2d-4c9c-4720-8aef-3f4ab487e1a0"},"vehicle_type_id":"4","last_reported":1738671452,"current_range_meters":11600,"station_id":"ce4bhqp2rcd13ifvqhog","pricing_plan_id":"cebpf4jnsgd1na2vs0mg"},{"bike_id":"7a2080c9-d44a-471c-9acd-526428e8e5dc","system_id":"levelo_inurba_marseille","lat":43.22942,"lon":5.35378,"is_reserved":false,"is_disabled":false,"rental_uris":{"android":"levelo://app?vid=7a2080c9-d44a-471c-9acd-526428e8e5dc","ios":"levelo://app?vid=7a2080c9-d44a-471c-9acd-526428e8e5dc"},"vehicle_type_id":"4","last_reported":1738671452,"current_range_meters":39200,"station_id":"cpo3532slgdg3j2ikp40","pricing_plan_id":"cebpf4jnsgd1na2vs0mg"},{"bike_id":"c2736774-348e-49bc-b573-eb3d7c5e8d0f","system_id":"levelo_inurba_marseille","lat":43.26057,"lon":5.39398,"is_reserved":false,"is_disabled":false,"rental_uris":{"android":"levelo://app?vid=c2736774-348e-49bc-b573-eb3d7c5e8d0f","ios":"levelo://app?vid=c2736774-348e-49bc-b573-eb3d7c5e8d0f"},"vehicle_type_id":"4","last_reported":1738671452,"current_range_meters":36400,"station_id":"ce4bhh92rcd13ifvqfj0","pricing_plan_id":"cebpf4jnsgd1na2vs0mg"},{"bike_id":"63048f82-d2f8-4892-b5b3-d703ed24ef1c","system_id":"levelo_inurba_marseille","lat":43.29004,"lon":5.356055,"is_reserved":false,"is_disabled":false,"rental_uris":{"android":"levelo://app?vid=63048f82-d2f8-4892-b5b3-d703ed24ef1c","ios":"levelo://app?vid=63048f82-d2f8-4892-b5b3-d703ed24ef1c"},"vehicle_type_id":"4","last_reported":1738671452,"current_range_meters":38800,"station_id":"ce4bhb92rcd13ifvqen0","pricing_plan_id":"cebpf4jnsgd1na2vs0mg"},{"bike_id":"abafacbc-f330-4045-83f4-a4d449f86546","system_id":"levelo_inurba_marseille","lat":43.30908,"lon":5.3685,"is_reserved":false,"is_disabled":false,"rental_uris":{"android":"levelo://app?vid=abafacbc-f330-4045-83f4-a4d449f86546","ios":"levelo://app?vid=abafacbc-f330-4045-83f4-a4d449f86546"},"vehicle_type_id":"4","last_reported":1738671452,"current_range_meters":37600,"station_id":"ce4bgn92rcd13ifvqbvg","pricing_plan_id":"cebpf4jnsgd1na2vs0mg"},{"bike_id":"2e7b128a-dc33-4ab0-9b89-9ebee51f67c7","system_id":"levelo_inurba_marseille","lat":43.29192,"lon":5.39315,"is_reserved":false,"is_disabled":false,"rental_uris":{"android":"levelo://app?vid=2e7b128a-dc33-4ab0-9b89-9ebee51f67c7","ios":"levelo://app?vid=2e7b128a-dc33-4ab0-9b89-9ebee51f67c7"},"vehicle_type_id":"4","last_reported":1738671452,"current_range_meters":38400,"station_id":"ce4bh192rcd13ifvqdd0","pricing_plan_id":"cebpf4jnsgd1na2vs0mg"},{"bike_id":"1bdf073d-c097-4150-87c6-187750a9dea9","system_id":"levelo_inurba_marseille","lat":43.26205,"lon":5.37443,"is_reserved":false,"is_disabled":false,"rental_uris":{"android":"levelo://app?vid=1bdf073d-c097-4150-87c6-187750a9dea9","ios":"levelo://app?vid=1bdf073d-c097-4150-87c6-187750a9dea9"},"vehicle_type_id":"4","last_reported":1738671452,"current_range_meters":38800,"station_id":"ce4bhgp2rcd13ifvqfc0","pricing_plan_id":"cebpf4jnsgd1na2vs0mg"},{"bike_id":"bc64b96b-be70-456e-9082-3b18c2349324","system_id":"levelo_inurba_marseille","lat":43.29773,"lon":5.37098,"is_reserved":false,"is_disabled":false,"rental_uris":{"android":"levelo://app?vid=bc64b96b-be70-456e-9082-3b18c2349324","ios":"levelo://app?vid=bc64b96b-be70-456e-9082-3b18c2349324"},"vehicle_type_id":"4","last_reported":1738671452,"current_range_meters":33200,"station_id":"ce4bgop2rcd13ifvqc1g","pricing_plan_id":"cebpf4jnsgd1na2vs0mg"},{"bike_id":"43d88c9c-d0eb-4b4f-b95e-e1d05d1ad7b8","system_id":"levelo_inurba_marseille","lat":43.29621,"lon":5.37166,"is_reserved":false,"is_disabled":false,"rental_uris":{"android":"levelo://app?vid=43d88c9c-d0eb-4b4f-b95e-e1d05d1ad7b8","ios":"levelo://app?vid=43d88c9c-d0eb-4b4f-b95e-e1d05d1ad7b8"},"vehicle_type_id":"4","last_reported":1738671452,"current_range_meters":28400,"station_id":"ce4bgnh2rcd13ifvqc0g","pricing_plan_id":"cebpf4jnsgd1na2vs0mg"},{"bike_id":"7fbea1ed-9953-4891-b9fe-ad84cdd12b3a","system_id":"levelo_inurba_marseille","lat":43.28942,"lon":5.38382,"is_reserved":false,"is_disabled":false,"rental_uris":{"android":"levelo://app?vid=7fbea1ed-9953-4891-b9fe-ad84cdd12b3a","ios":"levelo://app?vid=7fbea1ed-9953-4891-b9fe-ad84cdd12b3a"},"vehicle_type_id":"4","last_reported":1738671452,"current_range_meters":32400,"station_id":"ce4bh612rcd13ifvqe6g","pricing_plan_id":"cebpf4jnsgd1na2vs0mg"},{"bike_id":"6dfe34ee-89dc-4687-a40b-bb003e3c18c6","system_id":"levelo_inurba_marseille","lat":43.28098,"lon":5.37849,"is_reserved":false,"is_disabled":true,"rental_uris":{"android":"levelo://app?vid=6dfe34ee-89dc-4687-a40b-bb003e3c18c6","ios":"levelo://app?vid=6dfe34ee-89dc-4687-a40b-bb003e3c18c6"},"vehicle_type_id":"4","last_reported":1738671452,"current_range_meters":38800,"station_id":"ce4bha12rcd13ifvqee0","pricing_plan_id":"cebpf4jnsgd1na2vs0mg"},{"bike_id":"0bb638d0-2838-47fa-8a2d-f175e9aec41a","system_id":"levelo_inurba_marseille","lat":43.23958,"lon":5.36639,"is_reserved":false,"is_disabled":false,"rental_uris":{"android":"levelo://app?vid=0bb638d0-2838-47fa-8a2d-f175e9aec41a","ios":"levelo://app?vid=0bb638d0-2838-47fa-8a2d-f175e9aec41a"},"vehicle_type_id":"4","last_reported":1738671452,"current_range_meters":14800,"station_id":"ce4bhi12rcd13ifvqfp0","pricing_plan_id":"cebpf4jnsgd1na2vs0mg"},{"bike_id":"527225ef-7ea1-4609-aded-699f77a699d2","system_id":"levelo_inurba_marseille","lat":43.30536,"lon":5.3671,"is_reserved":false,"is_disabled":false,"rental_uris":{"android":"levelo://app?vid=527225ef-7ea1-4609-aded-699f77a699d2","ios":"levelo://app?vid=527225ef-7ea1-4609-aded-699f77a699d2"},"vehicle_type_id":"4","last_reported":1738671452,"current_range_meters":28000,"station_id":"ce4bgrp2rcd13ifvqc9g","pricing_plan_id":"cebpf4jnsgd1na2vs0mg"},{"bike_id":"4303ed51-f7da-450f-b179-33715c6c513e","system_id":"levelo_inurba_marseille","lat":43.28486,"lon":5.38542,"is_reserved":false,"is_disabled":false,"rental_uris":{"android":"levelo://app?vid=4303ed51-f7da-450f-b179-33715c6c513e","ios":"levelo://app?vid=4303ed51-f7da-450f-b179-33715c6c513e"},"vehicle_type_id":"4","last_reported":1738671452,"current_range_meters":20000,"station_id":"ce4bh8p2rcd13ifvqeb0","pricing_plan_id":"cebpf4jnsgd1na2vs0mg"},{"bike_id":"2fed9ba3-3909-423b-8e60-69abd9978d73","system_id":"levelo_inurba_marseille","lat":43.26804,"lon":5.40247,"is_reserved":false,"is_disabled":false,"rental_uris":{"android":"levelo://app?vid=2fed9ba3-3909-423b-8e60-69abd9978d73","ios":"levelo://app?vid=2fed9ba3-3909-423b-8e60-69abd9978d73"},"vehicle_type_id":"4","last_reported":1738671452,"current_range_meters":38800,"station_id":"ce501612rcd8frsf0b60","pricing_plan_id":"cebpf4jnsgd1na2vs0mg"},{"bike_id":"d83008f8-7777-4dc5-a56b-8434cb6a396f","system_id":"levelo_inurba_marseille","lat":43.28479,"lon":5.3855,"is_reserved":false,"is_disabled":false,"rental_uris":{"android":"levelo://app?vid=d83008f8-7777-4dc5-a56b-8434cb6a396f","ios":"levelo://app?vid=d83008f8-7777-4dc5-a56b-8434cb6a396f"},"vehicle_type_id":"4","last_reported":1738671452,"current_range_meters":27600,"station_id":"ce4bh8p2rcd13ifvqeb0","pricing_plan_id":"cebpf4jnsgd1na2vs0mg"},{"bike_id":"a2360890-da0d-437a-916b-04e787d9f58a","system_id":"levelo_inurba_marseille","lat":43.32453,"lon":5.36596,"is_reserved":false,"is_disabled":false,"rental_uris":{"android":"levelo://app?vid=a2360890-da0d-437a-916b-04e787d9f58a","ios":"levelo://app?vid=a2360890-da0d-437a-916b-04e787d9f58a"},"vehicle_type_id":"4","last_reported":1738671452,"current_range_meters":34800,"station_id":"ce4bhs12rcd13ifvqhvg","pricing_plan_id":"cebpf4jnsgd1na2vs0mg"},{"bike_id":"965aa94f-8efc-437f-9bb6-910ab1ca1cac","system_id":"levelo_inurba_marseille","lat":43.2931,"lon":5.37178,"is_reserved":false,"is_disabled":false,"rental_uris":{"android":"levelo://app?vid=965aa94f-8efc-437f-9bb6-910ab1ca1cac","ios":"levelo://app?vid=965aa94f-8efc-437f-9bb6-910ab1ca1cac"},"vehicle_type_id":"4","last_reported":1738671452,"current_range_meters":8400,"station_id":"ce4bgh92rcd13ifvqb40","pricing_plan_id":"cebpf4jnsgd1na2vs0mg"},{"bike_id":"6e7c1ac2-e791-43c7-8c36-9db37854d07d","system_id":"levelo_inurba_marseille","lat":43.28617,"lon":5.35102,"is_reserved":false,"is_disabled":true,"rental_uris":{"android":"levelo://app?vid=6e7c1ac2-e791-43c7-8c36-9db37854d07d","ios":"levelo://app?vid=6e7c1ac2-e791-43c7-8c36-9db37854d07d"},"vehicle_type_id":"4","last_reported":1738671452,"current_range_meters":26000,"station_id":"ce4bhch2rcd13ifvqeug","pricing_plan_id":"cebpf4jnsgd1na2vs0mg"},{"bike_id":"dc7046c0-2c32-461f-9598-e9cad1a0e646","system_id":"levelo_inurba_marseille","lat":43.27047,"lon":5.40268,"is_reserved":false,"is_disabled":false,"rental_uris":{"android":"levelo://app?vid=dc7046c0-2c32-461f-9598-e9cad1a0e646","ios":"levelo://app?vid=dc7046c0-2c32-461f-9598-e9cad1a0e646"},"vehicle_type_id":"4","last_reported":1738671452,"current_range_meters":10800,"station_id":"ce4bhk92rcd13ifvqgc0","pricing_plan_id":"cebpf4jnsgd1na2vs0mg"},{"bike_id":"639b8337-8bd0-4ac1-8ff5-117dd1fb6e62","system_id":"levelo_inurba_marseille","lat":43.27208,"lon":5.39169,"is_reserved":false,"is_disabled":false,"rental_uris":{"android":"levelo://app?vid=639b8337-8bd0-4ac1-8ff5-117dd1fb6e62","ios":"levelo://app?vid=639b8337-8bd0-4ac1-8ff5-117dd1fb6e62"},"vehicle_type_id":"4","last_reported":1738671452,"current_range_meters":3200,"station_id":"ce4bhhp2rcd13ifvqfm0","pricing_plan_id":"cebpf4jnsgd1na2vs0mg"},{"bike_id":"22ea25ca-29f2-48ad-9e1a-7e10e4543ee2","system_id":"levelo_inurba_marseille","lat":43.25114,"lon":5.40321,"is_reserved":false,"is_disabled":false,"rental_uris":{"android":"levelo://app?vid=22ea25ca-29f2-48ad-9e1a-7e10e4543ee2","ios":"levelo://app?vid=22ea25ca-29f2-48ad-9e1a-7e10e4543ee2"},"vehicle_type_id":"4","last_reported":1738671452,"current_range_meters":24400,"station_id":"ce4bhlh2rcd13ifvqgig","pricing_plan_id":"cebpf4jnsgd1na2vs0mg"},{"bike_id":"c1965bd4-dc90-4199-9fc9-49f7e295bbe0","system_id":"levelo_inurba_marseille","lat":43.28565,"lon":5.39507,"is_reserved":false,"is_disabled":false,"rental_uris":{"android":"levelo://app?vid=c1965bd4-dc90-4199-9fc9-49f7e295bbe0","ios":"levelo://app?vid=c1965bd4-dc90-4199-9fc9-49f7e295bbe0"},"vehicle_type_id":"4","last_reported":1738671452,"current_range_meters":6800,"station_id":"ce4bh292rcd13ifvqdg0","pricing_plan_id":"cebpf4jnsgd1na2vs0mg"},{"bike_id":"a2293492-f143-4690-be9e-769f9f84c6ee","system_id":"levelo_inurba_marseille","lat":43.29191,"lon":5.35806,"is_reserved":false,"is_disabled":false,"rental_uris":{"android":"levelo://app?vid=a2293492-f143-4690-be9e-769f9f84c6ee","ios":"levelo://app?vid=a2293492-f143-4690-be9e-769f9f84c6ee"},"vehicle_type_id":"4","last_reported":1738671452,"current_range_meters":38800,"station_id":"ce4bhb12rcd13ifvqel0","pricing_plan_id":"cebpf4jnsgd1na2vs0mg"},{"bike_id":"a899eaa9-71fe-4442-a41e-b8c77cee7499","system_id":"levelo_inurba_marseille","lat":43.29969,"lon":5.38498,"is_reserved":false,"is_disabled":false,"rental_uris":{"android":"levelo://app?vid=a899eaa9-71fe-4442-a41e-b8c77cee7499","ios":"levelo://app?vid=a899eaa9-71fe-4442-a41e-b8c77cee7499"},"vehicle_type_id":"4","last_reported":1738671452,"current_range_meters":17200,"station_id":"ce4bgj92rcd13ifvqbd0","pricing_plan_id":"cebpf4jnsgd1na2vs0mg"},{"bike_id":"c62b1d29-885a-4388-a03f-a40f4bafbdc1","system_id":"levelo_inurba_marseille","lat":43.29704,"lon":5.37696,"is_reserved":false,"is_disabled":false,"rental_uris":{"android":"levelo://app?vid=c62b1d29-885a-4388-a03f-a40f4bafbdc1","ios":"levelo://app?vid=c62b1d29-885a-4388-a03f-a40f4bafbdc1"},"vehicle_type_id":"4","last_reported":1738671452,"current_range_meters":38800,"station_id":"ce4bgkh2rcd13ifvqbl0","pricing_plan_id":"cebpf4jnsgd1na2vs0mg"},{"bike_id":"72cb84f5-89c8-4d02-a722-7f939d1ef282","system_id":"levelo_inurba_marseille","lat":43.29436,"lon":5.39759,"is_reserved":false,"is_disabled":false,"rental_uris":{"android":"levelo://app?vid=72cb84f5-89c8-4d02-a722-7f939d1ef282","ios":"levelo://app?vid=72cb84f5-89c8-4d02-a722-7f939d1ef282"},"vehicle_type_id":"4","last_reported":1738671452,"current_range_meters":18000,"station_id":"ce4bh3h2rcd13ifvqdo0","pricing_plan_id":"cebpf4jnsgd1na2vs0mg"},{"bike_id":"f8fb3883-e95e-42e6-be20-3d44997fd90a","system_id":"levelo_inurba_marseille","lat":43.25578,"lon":5.38235,"is_reserved":false,"is_disabled":false,"rental_uris":{"android":"levelo://app?vid=f8fb3883-e95e-42e6-be20-3d44997fd90a","ios":"levelo://app?vid=f8fb3883-e95e-42e6-be20-3d44997fd90a"},"vehicle_type_id":"4","last_reported":1738671452,"current_range_meters":34000,"station_id":"ce4bhih2rcd13ifvqfs0","pricing_plan_id":"cebpf4jnsgd1na2vs0mg"},{"bike_id":"b84e2cc9-4f11-4e17-9715-7523dcaac7d6","system_id":"levelo_inurba_marseille","lat":43.2559,"lon":5.38233,"is_reserved":false,"is_disabled":false,"rental_uris":{"android":"levelo://app?vid=b84e2cc9-4f11-4e17-9715-7523dcaac7d6","ios":"levelo://app?vid=b84e2cc9-4f11-4e17-9715-7523dcaac7d6"},"vehicle_type_id":"4","last_reported":1738671452,"current_range_meters":16800,"station_id":"ce4bhih2rcd13ifvqfs0","pricing_plan_id":"cebpf4jnsgd1na2vs0mg"},{"bike_id":"8a24c8d9-2c91-4996-8e85-7adae68fd668","system_id":"levelo_inurba_marseille","lat":43.30551,"lon":5.36482,"is_reserved":false,"is_disabled":false,"rental_uris":{"android":"levelo://app?vid=8a24c8d9-2c91-4996-8e85-7adae68fd668","ios":"levelo://app?vid=8a24c8d9-2c91-4996-8e85-7adae68fd668"},"vehicle_type_id":"4","last_reported":1738671452,"current_range_meters":18000,"station_id":"ce4bgs12rcd13ifvqcag","pricing_plan_id":"cebpf4jnsgd1na2vs0mg"},{"bike_id":"ba9659b0-1bff-4bf9-aec7-272758d875e8","system_id":"levelo_inurba_marseille","lat":43.29617,"lon":5.37176,"is_reserved":false,"is_disabled":false,"rental_uris":{"android":"levelo://app?vid=ba9659b0-1bff-4bf9-aec7-272758d875e8","ios":"levelo://app?vid=ba9659b0-1bff-4bf9-aec7-272758d875e8"},"vehicle_type_id":"4","last_reported":1738671452,"current_range_meters":32400,"station_id":"ce4bgnh2rcd13ifvqc0g","pricing_plan_id":"cebpf4jnsgd1na2vs0mg"},{"bike_id":"07f0f501-8b4c-456f-8436-4462371d84b7","system_id":"levelo_inurba_marseille","lat":43.25712,"lon":5.41108,"is_reserved":false,"is_disabled":false,"rental_uris":{"android":"levelo://app?vid=07f0f501-8b4c-456f-8436-4462371d84b7","ios":"levelo://app?vid=07f0f501-8b4c-456f-8436-4462371d84b7"},"vehicle_type_id":"4","last_reported":1738671452,"current_range_meters":20800,"station_id":"ce4bhkp2rcd13ifvqgd0","pricing_plan_id":"cebpf4jnsgd1na2vs0mg"},{"bike_id":"d017a21b-7b58-4514-bf06-3b19fe96541c","system_id":"levelo_inurba_marseille","lat":43.28271,"lon":5.35061,"is_reserved":false,"is_disabled":false,"rental_uris":{"android":"levelo://app?vid=d017a21b-7b58-4514-bf06-3b19fe96541c","ios":"levelo://app?vid=d017a21b-7b58-4514-bf06-3b19fe96541c"},"vehicle_type_id":"4","last_reported":1738671452,"current_range_meters":27600,"station_id":"ce4bhbp2rcd13ifvqerg","pricing_plan_id":"cebpf4jnsgd1na2vs0mg"},{"bike_id":"48457462-e2e5-4b0c-9657-da77fe2191e8","system_id":"levelo_inurba_marseille","lat":43.30553,"lon":5.365373,"is_reserved":false,"is_disabled":false,"rental_uris":{"android":"levelo://app?vid=48457462-e2e5-4b0c-9657-da77fe2191e8","ios":"levelo://app?vid=48457462-e2e5-4b0c-9657-da77fe2191e8"},"vehicle_type_id":"4","last_reported":1738671452,"current_range_meters":24800,"station_id":"ce4bgs12rcd13ifvqcag","pricing_plan_id":"cebpf4jnsgd1na2vs0mg"},{"bike_id":"c31e34cb-81c0-4ad0-82fb-ef4f487ed713","system_id":"levelo_inurba_marseille","lat":43.27829,"lon":5.40733,"is_reserved":false,"is_disabled":false,"rental_uris":{"android":"levelo://app?vid=c31e34cb-81c0-4ad0-82fb-ef4f487ed713","ios":"levelo://app?vid=c31e34cb-81c0-4ad0-82fb-ef4f487ed713"},"vehicle_type_id":"4","last_reported":1738671452,"current_range_meters":38800,"station_id":"ce4bhnh2rcd13ifvqgtg","pricing_plan_id":"cebpf4jnsgd1na2vs0mg"},{"bike_id":"d2fbd47d-3a23-4a2b-8dce-41b42b58af9a","system_id":"levelo_inurba_marseille","lat":43.3055,"lon":5.38438,"is_reserved":false,"is_disabled":false,"rental_uris":{"android":"levelo://app?vid=d2fbd47d-3a23-4a2b-8dce-41b42b58af9a","ios":"levelo://app?vid=d2fbd47d-3a23-4a2b-8dce-41b42b58af9a"},"vehicle_type_id":"4","last_reported":1738671452,"current_range_meters":38000,"station_id":"ce4bgg92rcd13ifvqb30","pricing_plan_id":"cebpf4jnsgd1na2vs0mg"},{"bike_id":"630dd466-e4dd-4ada-8a39-01e92abf0818","system_id":"levelo_inurba_marseille","lat":43.26188,"lon":5.37459,"is_reserved":false,"is_disabled":false,"rental_uris":{"android":"levelo://app?vid=630dd466-e4dd-4ada-8a39-01e92abf0818","ios":"levelo://app?vid=630dd466-e4dd-4ada-8a39-01e92abf0818"},"vehicle_type_id":"4","last_reported":1738671452,"current_range_meters":34000,"station_id":"ce4bhgp2rcd13ifvqfc0","pricing_plan_id":"cebpf4jnsgd1na2vs0mg"},{"bike_id":"5df9bf08-43fe-4acc-898a-9db2002f38bc","system_id":"levelo_inurba_marseille","lat":43.25859,"lon":5.39904,"is_reserved":false,"is_disabled":true,"rental_uris":{"android":"levelo://app?vid=5df9bf08-43fe-4acc-898a-9db2002f38bc","ios":"levelo://app?vid=5df9bf08-43fe-4acc-898a-9db2002f38bc"},"vehicle_type_id":"4","last_reported":1738671452,"current_range_meters":16000,"station_id":"ce4bhl92rcd13ifvqghg","pricing_plan_id":"cebpf4jnsgd1na2vs0mg"},{"bike_id":"08c19970-75cb-4188-81ad-4945b02ae0e5","system_id":"levelo_inurba_marseille","lat":43.28723,"lon":5.37375,"is_reserved":false,"is_disabled":false,"rental_uris":{"android":"levelo://app?vid=08c19970-75cb-4188-81ad-4945b02ae0e5","ios":"levelo://app?vid=08c19970-75cb-4188-81ad-4945b02ae0e5"},"vehicle_type_id":"4","last_reported":1738671452,"current_range_meters":20400,"station_id":"ce4bh3p2rcd13ifvqdq0","pricing_plan_id":"cebpf4jnsgd1na2vs0mg"},{"bike_id":"03a2f8cd-fd42-4e09-8828-25e34eae3871","system_id":"levelo_inurba_marseille","lat":43.29081,"lon":5.35918,"is_reserved":false,"is_disabled":false,"rental_uris":{"android":"levelo://app?vid=03a2f8cd-fd42-4e09-8828-25e34eae3871","ios":"levelo://app?vid=03a2f8cd-fd42-4e09-8828-25e34eae3871"},"vehicle_type_id":"4","last_reported":1738671452,"current_range_meters":37600,"station_id":"ce4bha92rcd13ifvqeg0","pricing_plan_id":"cebpf4jnsgd1na2vs0mg"},{"bike_id":"3034d64e-f78e-468c-b4d6-2520a053438f","system_id":"levelo_inurba_marseille","lat":43.2319,"lon":5.40004,"is_reserved":false,"is_disabled":false,"rental_uris":{"android":"levelo://app?vid=3034d64e-f78e-468c-b4d6-2520a053438f","ios":"levelo://app?vid=3034d64e-f78e-468c-b4d6-2520a053438f"},"vehicle_type_id":"4","last_reported":1738671452,"current_range_meters":38800,"station_id":"ce4bhn12rcd13ifvqgqg","pricing_plan_id":"cebpf4jnsgd1na2vs0mg"},{"bike_id":"5c0541ca-b9b7-4c02-8577-2fe67000a305","system_id":"levelo_inurba_marseille","lat":43.29262,"lon":5.36853,"is_reserved":false,"is_disabled":false,"rental_uris":{"android":"levelo://app?vid=5c0541ca-b9b7-4c02-8577-2fe67000a305","ios":"levelo://app?vid=5c0541ca-b9b7-4c02-8577-2fe67000a305"},"vehicle_type_id":"4","last_reported":1738671452,"current_range_meters":38000,"station_id":"ce4bhbp2rcd13ifvqesg","pricing_plan_id":"cebpf4jnsgd1na2vs0mg"},{"bike_id":"343ee9fa-65bc-44d7-b41c-f81f2cce2b1a","system_id":"levelo_inurba_marseille","lat":43.23174,"lon":5.43736,"is_reserved":false,"is_disabled":false,"rental_uris":{"android":"levelo://app?vid=343ee9fa-65bc-44d7-b41c-f81f2cce2b1a","ios":"levelo://app?vid=343ee9fa-65bc-44d7-b41c-f81f2cce2b1a"},"vehicle_type_id":"4","last_reported":1738671452,"current_range_meters":16800,"station_id":"ce4bhmp2rcd13ifvqgog","pricing_plan_id":"cebpf4jnsgd1na2vs0mg"},{"bike_id":"7f87d5fc-9445-41df-bd3e-5287cb6adb70","system_id":"levelo_inurba_marseille","lat":43.268079,"lon":5.402632,"is_reserved":false,"is_disabled":false,"rental_uris":{"android":"levelo://app?vid=7f87d5fc-9445-41df-bd3e-5287cb6adb70","ios":"levelo://app?vid=7f87d5fc-9445-41df-bd3e-5287cb6adb70"},"vehicle_type_id":"4","last_reported":1738671452,"current_range_meters":10000,"station_id":"ce501612rcd8frsf0b60","pricing_plan_id":"cebpf4jnsgd1na2vs0mg"},{"bike_id":"26d50996-2c19-48f1-bdd6-eba75f8cc07f","system_id":"levelo_inurba_marseille","lat":43.28497,"lon":5.38528,"is_reserved":false,"is_disabled":false,"rental_uris":{"android":"levelo://app?vid=26d50996-2c19-48f1-bdd6-eba75f8cc07f","ios":"levelo://app?vid=26d50996-2c19-48f1-bdd6-eba75f8cc07f"},"vehicle_type_id":"4","last_reported":1738671452,"current_range_meters":10800,"station_id":"ce4bh8p2rcd13ifvqeb0","pricing_plan_id":"cebpf4jnsgd1na2vs0mg"},{"bike_id":"e214cb68-bd90-4283-80e9-951f93a1751c","system_id":"levelo_inurba_marseille","lat":43.32324,"lon":5.40613,"is_reserved":false,"is_disabled":false,"rental_uris":{"android":"levelo://app?vid=e214cb68-bd90-4283-80e9-951f93a1751c","ios":"levelo://app?vid=e214cb68-bd90-4283-80e9-951f93a1751c"},"vehicle_type_id":"4","last_reported":1738671452,"current_range_meters":30000,"station_id":"ce4bhq92rcd13ifvqhjg","pricing_plan_id":"cebpf4jnsgd1na2vs0mg"},{"bike_id":"649599e3-9252-4d00-ad77-a8ea70e06ee9","system_id":"levelo_inurba_marseille","lat":43.29203,"lon":5.36065,"is_reserved":false,"is_disabled":false,"rental_uris":{"android":"levelo://app?vid=649599e3-9252-4d00-ad77-a8ea70e06ee9","ios":"levelo://app?vid=649599e3-9252-4d00-ad77-a8ea70e06ee9"},"vehicle_type_id":"4","last_reported":1738671452,"current_range_meters":37600,"station_id":"ce4bhbh2rcd13ifvqeqg","pricing_plan_id":"cebpf4jnsgd1na2vs0mg"},{"bike_id":"a7dc0848-081a-4438-bce6-7e161a91f066","system_id":"levelo_inurba_marseille","lat":43.28158,"lon":5.42636,"is_reserved":false,"is_disabled":false,"rental_uris":{"android":"levelo://app?vid=a7dc0848-081a-4438-bce6-7e161a91f066","ios":"levelo://app?vid=a7dc0848-081a-4438-bce6-7e161a91f066"},"vehicle_type_id":"4","last_reported":1738671452,"current_range_meters":34800,"station_id":"ce4bhnh2rcd13ifvqgug","pricing_plan_id":"cebpf4jnsgd1na2vs0mg"},{"bike_id":"42f120ba-92d8-47aa-8324-9dd51555edde","system_id":"levelo_inurba_marseille","lat":43.26942,"lon":5.4025,"is_reserved":false,"is_disabled":false,"rental_uris":{"android":"levelo://app?vid=42f120ba-92d8-47aa-8324-9dd51555edde","ios":"levelo://app?vid=42f120ba-92d8-47aa-8324-9dd51555edde"},"vehicle_type_id":"4","last_reported":1738671452,"current_range_meters":34800,"station_id":"cjm6bp8fraef2m0cb0m0","pricing_plan_id":"cebpf4jnsgd1na2vs0mg"},{"bike_id":"efb4e0c5-012a-40d5-b751-7a0e28f587ae","system_id":"levelo_inurba_marseille","lat":43.28269,"lon":5.35058,"is_reserved":false,"is_disabled":false,"rental_uris":{"android":"levelo://app?vid=efb4e0c5-012a-40d5-b751-7a0e28f587ae","ios":"levelo://app?vid=efb4e0c5-012a-40d5-b751-7a0e28f587ae"},"vehicle_type_id":"4","last_reported":1738671452,"current_range_meters":3600,"station_id":"ce4bhbp2rcd13ifvqerg","pricing_plan_id":"cebpf4jnsgd1na2vs0mg"},{"bike_id":"2055a81d-8e5e-4bf5-b5e1-2fc40f396b7c","system_id":"levelo_inurba_marseille","lat":43.3056,"lon":5.38438,"is_reserved":false,"is_disabled":true,"rental_uris":{"android":"levelo://app?vid=2055a81d-8e5e-4bf5-b5e1-2fc40f396b7c","ios":"levelo://app?vid=2055a81d-8e5e-4bf5-b5e1-2fc40f396b7c"},"vehicle_type_id":"4","last_reported":1738671452,"current_range_meters":32800,"station_id":"ce4bgg92rcd13ifvqb30","pricing_plan_id":"cebpf4jnsgd1na2vs0mg"},{"bike_id":"4e115706-dda5-4286-b487-8f0777838c31","system_id":"levelo_inurba_marseille","lat":43.25083,"lon":5.3953,"is_reserved":false,"is_disabled":false,"rental_uris":{"android":"levelo://app?vid=4e115706-dda5-4286-b487-8f0777838c31","ios":"levelo://app?vid=4e115706-dda5-4286-b487-8f0777838c31"},"vehicle_type_id":"4","last_reported":1738671452,"current_range_meters":30800,"station_id":"ce4bhm12rcd13ifvqgkg","pricing_plan_id":"cebpf4jnsgd1na2vs0mg"},{"bike_id":"c8bd1d84-2291-473f-ab82-361f165fe1db","system_id":"levelo_inurba_marseille","lat":43.241673,"lon":5.36405,"is_reserved":false,"is_disabled":false,"rental_uris":{"android":"levelo://app?vid=c8bd1d84-2291-473f-ab82-361f165fe1db","ios":"levelo://app?vid=c8bd1d84-2291-473f-ab82-361f165fe1db"},"vehicle_type_id":"4","last_reported":1738671452,"current_range_meters":38800,"station_id":"cpo36qri1sfpv3e86is0","pricing_plan_id":"cebpf4jnsgd1na2vs0mg"},{"bike_id":"da05f112-ffb2-4f41-a3cb-99544f3f7f0e","system_id":"levelo_inurba_marseille","lat":43.30529,"lon":5.36716,"is_reserved":false,"is_disabled":false,"rental_uris":{"android":"levelo://app?vid=da05f112-ffb2-4f41-a3cb-99544f3f7f0e","ios":"levelo://app?vid=da05f112-ffb2-4f41-a3cb-99544f3f7f0e"},"vehicle_type_id":"4","last_reported":1738671452,"current_range_meters":33200,"station_id":"ce4bgrp2rcd13ifvqc9g","pricing_plan_id":"cebpf4jnsgd1na2vs0mg"},{"bike_id":"bb846df9-2969-480a-aed6-edbcf9c326fb","system_id":"levelo_inurba_marseille","lat":43.24821,"lon":5.37455,"is_reserved":false,"is_disabled":false,"rental_uris":{"android":"levelo://app?vid=bb846df9-2969-480a-aed6-edbcf9c326fb","ios":"levelo://app?vid=bb846df9-2969-480a-aed6-edbcf9c326fb"},"vehicle_type_id":"4","last_reported":1738671452,"current_range_meters":25200,"station_id":"ce4bhgh2rcd13ifvqfb0","pricing_plan_id":"cebpf4jnsgd1na2vs0mg"},{"bike_id":"78b66fb5-e64b-44d6-bd05-2291d7092b06","system_id":"levelo_inurba_marseille","lat":43.29169,"lon":5.37153,"is_reserved":false,"is_disabled":false,"rental_uris":{"android":"levelo://app?vid=78b66fb5-e64b-44d6-bd05-2291d7092b06","ios":"levelo://app?vid=78b66fb5-e64b-44d6-bd05-2291d7092b06"},"vehicle_type_id":"4","last_reported":1738671452,"current_range_meters":12800,"station_id":"ce4bha92rcd13ifvqeh0","pricing_plan_id":"cebpf4jnsgd1na2vs0mg"},{"bike_id":"cd07e062-2af1-406e-bcb9-5f1ec4730937","system_id":"levelo_inurba_marseille","lat":43.230624,"lon":5.354931,"is_reserved":false,"is_disabled":false,"rental_uris":{"android":"levelo://app?vid=cd07e062-2af1-406e-bcb9-5f1ec4730937","ios":"levelo://app?vid=cd07e062-2af1-406e-bcb9-5f1ec4730937"},"vehicle_type_id":"4","last_reported":1738671452,"current_range_meters":9200,"station_id":"cpo3342slgdg3j2ifvpg","pricing_plan_id":"cebpf4jnsgd1na2vs0mg"},{"bike_id":"6d93c457-3ddd-4cec-9816-ca38730af33b","system_id":"levelo_inurba_marseille","lat":43.27066,"lon":5.40262,"is_reserved":false,"is_disabled":false,"rental_uris":{"android":"levelo://app?vid=6d93c457-3ddd-4cec-9816-ca38730af33b","ios":"levelo://app?vid=6d93c457-3ddd-4cec-9816-ca38730af33b"},"vehicle_type_id":"4","last_reported":1738671452,"current_range_meters":38800,"station_id":"ce4bhk92rcd13ifvqgc0","pricing_plan_id":"cebpf4jnsgd1na2vs0mg"},{"bike_id":"516f2549-79cf-4297-a0ad-3d3f06a71f80","system_id":"levelo_inurba_marseille","lat":43.3171,"lon":5.42404,"is_reserved":false,"is_disabled":true,"rental_uris":{"android":"levelo://app?vid=516f2549-79cf-4297-a0ad-3d3f06a71f80","ios":"levelo://app?vid=516f2549-79cf-4297-a0ad-3d3f06a71f80"},"vehicle_type_id":"4","last_reported":1738671452,"current_range_meters":3200,"station_id":"ce4bhp92rcd13ifvqhbg","pricing_plan_id":"cebpf4jnsgd1na2vs0mg"},{"bike_id":"ece5a7a7-0c3a-4600-8727-69efc53f1d45","system_id":"levelo_inurba_marseille","lat":43.2705,"lon":5.40265,"is_reserved":false,"is_disabled":false,"rental_uris":{"android":"levelo://app?vid=ece5a7a7-0c3a-4600-8727-69efc53f1d45","ios":"levelo://app?vid=ece5a7a7-0c3a-4600-8727-69efc53f1d45"},"vehicle_type_id":"4","last_reported":1738671452,"current_range_meters":32800,"station_id":"ce4bhk92rcd13ifvqgc0","pricing_plan_id":"cebpf4jnsgd1na2vs0mg"},{"bike_id":"7d369b59-9e87-4651-8e01-4a70bae58c40","system_id":"levelo_inurba_marseille","lat":43.23194,"lon":5.35567,"is_reserved":false,"is_disabled":false,"rental_uris":{"android":"levelo://app?vid=7d369b59-9e87-4651-8e01-4a70bae58c40","ios":"levelo://app?vid=7d369b59-9e87-4651-8e01-4a70bae58c40"},"vehicle_type_id":"4","last_reported":1738671452,"current_range_meters":14800,"station_id":"ce4bhu92rcd13ifvqi70","pricing_plan_id":"cebpf4jnsgd1na2vs0mg"},{"bike_id":"473dc738-2184-4c96-a388-d3c1ef9e6829","system_id":"levelo_inurba_marseille","lat":43.23994,"lon":5.36272,"is_reserved":false,"is_disabled":false,"rental_uris":{"android":"levelo://app?vid=473dc738-2184-4c96-a388-d3c1ef9e6829","ios":"levelo://app?vid=473dc738-2184-4c96-a388-d3c1ef9e6829"},"vehicle_type_id":"4","last_reported":1738671452,"current_range_meters":14400,"station_id":"","pricing_plan_id":"cebpf4jnsgd1na2vs0mg"},{"bike_id":"45a7daa2-2a2e-4454-90c3-1009aaecc5bd","system_id":"levelo_inurba_marseille","lat":43.23192,"lon":5.35553,"is_reserved":false,"is_disabled":false,"rental_uris":{"android":"levelo://app?vid=45a7daa2-2a2e-4454-90c3-1009aaecc5bd","ios":"levelo://app?vid=45a7daa2-2a2e-4454-90c3-1009aaecc5bd"},"vehicle_type_id":"4","last_reported":1738671452,"current_range_meters":9200,"station_id":"ce4bhu92rcd13ifvqi70","pricing_plan_id":"cebpf4jnsgd1na2vs0mg"},{"bike_id":"15b72a17-6480-4f6d-86fc-355e39e8992c","system_id":"levelo_inurba_marseille","lat":43.27056,"lon":5.40265,"is_reserved":false,"is_disabled":false,"rental_uris":{"android":"levelo://app?vid=15b72a17-6480-4f6d-86fc-355e39e8992c","ios":"levelo://app?vid=15b72a17-6480-4f6d-86fc-355e39e8992c"},"vehicle_type_id":"4","last_reported":1738671452,"current_range_meters":26800,"station_id":"ce4bhk92rcd13ifvqgc0","pricing_plan_id":"cebpf4jnsgd1na2vs0mg"},{"bike_id":"9b68fc2b-4da0-4d12-b12e-c45597b2afb4","system_id":"levelo_inurba_marseille","lat":43.24797,"lon":5.37454,"is_reserved":false,"is_disabled":false,"rental_uris":{"android":"levelo://app?vid=9b68fc2b-4da0-4d12-b12e-c45597b2afb4","ios":"levelo://app?vid=9b68fc2b-4da0-4d12-b12e-c45597b2afb4"},"vehicle_type_id":"4","last_reported":1738671452,"current_range_meters":38800,"station_id":"ce4bhgh2rcd13ifvqfb0","pricing_plan_id":"cebpf4jnsgd1na2vs0mg"},{"bike_id":"12532859-bf52-4817-8f12-c36049fad790","system_id":"levelo_inurba_marseille","lat":43.29002,"lon":5.35618,"is_reserved":false,"is_disabled":false,"rental_uris":{"android":"levelo://app?vid=12532859-bf52-4817-8f12-c36049fad790","ios":"levelo://app?vid=12532859-bf52-4817-8f12-c36049fad790"},"vehicle_type_id":"4","last_reported":1738671452,"current_range_meters":16400,"station_id":"ce4bhb92rcd13ifvqen0","pricing_plan_id":"cebpf4jnsgd1na2vs0mg"},{"bike_id":"42d532fb-e64c-427c-9e64-99ec207e1560","system_id":"levelo_inurba_marseille","lat":43.24546,"lon":5.39524,"is_reserved":false,"is_disabled":false,"rental_uris":{"android":"levelo://app?vid=42d532fb-e64c-427c-9e64-99ec207e1560","ios":"levelo://app?vid=42d532fb-e64c-427c-9e64-99ec207e1560"},"vehicle_type_id":"4","last_reported":1738671452,"current_range_meters":34800,"station_id":"ce4bhlp2rcd13ifvqgjg","pricing_plan_id":"cebpf4jnsgd1na2vs0mg"},{"bike_id":"cb360eae-9e0a-4706-ac77-865a26f70022","system_id":"levelo_inurba_marseille","lat":43.23134,"lon":5.43746,"is_reserved":false,"is_disabled":false,"rental_uris":{"android":"levelo://app?vid=cb360eae-9e0a-4706-ac77-865a26f70022","ios":"levelo://app?vid=cb360eae-9e0a-4706-ac77-865a26f70022"},"vehicle_type_id":"4","last_reported":1738671452,"current_range_meters":10000,"station_id":"ce4bhmp2rcd13ifvqgog","pricing_plan_id":"cebpf4jnsgd1na2vs0mg"},{"bike_id":"35798297-b936-47d1-8a98-bfdb50e14c75","system_id":"levelo_inurba_marseille","lat":43.32084,"lon":5.43318,"is_reserved":false,"is_disabled":true,"rental_uris":{"android":"levelo://app?vid=35798297-b936-47d1-8a98-bfdb50e14c75","ios":"levelo://app?vid=35798297-b936-47d1-8a98-bfdb50e14c75"},"vehicle_type_id":"4","last_reported":1738671452,"current_range_meters":37600,"station_id":"","pricing_plan_id":"cebpf4jnsgd1na2vs0mg"},{"bike_id":"e6dc612f-7f56-4634-8aac-2cfefb7b3910","system_id":"levelo_inurba_marseille","lat":43.28265,"lon":5.35077,"is_reserved":false,"is_disabled":true,"rental_uris":{"android":"levelo://app?vid=e6dc612f-7f56-4634-8aac-2cfefb7b3910","ios":"levelo://app?vid=e6dc612f-7f56-4634-8aac-2cfefb7b3910"},"vehicle_type_id":"4","last_reported":1738671452,"current_range_meters":32000,"station_id":"ce4bhbp2rcd13ifvqerg","pricing_plan_id":"cebpf4jnsgd1na2vs0mg"},{"bike_id":"6fecf467-446e-41a8-bb24-95bfd5de9fcd","system_id":"levelo_inurba_marseille","lat":43.29092,"lon":5.38129,"is_reserved":false,"is_disabled":false,"rental_uris":{"android":"levelo://app?vid=6fecf467-446e-41a8-bb24-95bfd5de9fcd","ios":"levelo://app?vid=6fecf467-446e-41a8-bb24-95bfd5de9fcd"},"vehicle_type_id":"4","last_reported":1738671452,"current_range_meters":25600,"station_id":"ce4bh512rcd13ifvqe2g","pricing_plan_id":"cebpf4jnsgd1na2vs0mg"},{"bike_id":"7faeb041-5c80-40d1-b867-551acc99be14","system_id":"levelo_inurba_marseille","lat":43.30554,"lon":5.36536,"is_reserved":false,"is_disabled":false,"rental_uris":{"android":"levelo://app?vid=7faeb041-5c80-40d1-b867-551acc99be14","ios":"levelo://app?vid=7faeb041-5c80-40d1-b867-551acc99be14"},"vehicle_type_id":"4","last_reported":1738671452,"current_range_meters":11600,"station_id":"ce4bgs12rcd13ifvqcag","pricing_plan_id":"cebpf4jnsgd1na2vs0mg"},{"bike_id":"cd65a618-318e-432f-958e-701a50dd9da8","system_id":"levelo_inurba_marseille","lat":43.27918,"lon":5.3959,"is_reserved":false,"is_disabled":false,"rental_uris":{"android":"levelo://app?vid=cd65a618-318e-432f-958e-701a50dd9da8","ios":"levelo://app?vid=cd65a618-318e-432f-958e-701a50dd9da8"},"vehicle_type_id":"4","last_reported":1738671452,"current_range_meters":3200,"station_id":"ce4bhf92rcd13ifvqf40","pricing_plan_id":"cebpf4jnsgd1na2vs0mg"},{"bike_id":"2ba16976-e007-4ad1-ac6e-04c97d20b2d5","system_id":"levelo_inurba_marseille","lat":43.30075,"lon":5.39095,"is_reserved":false,"is_disabled":false,"rental_uris":{"android":"levelo://app?vid=2ba16976-e007-4ad1-ac6e-04c97d20b2d5","ios":"levelo://app?vid=2ba16976-e007-4ad1-ac6e-04c97d20b2d5"},"vehicle_type_id":"4","last_reported":1738671452,"current_range_meters":30800,"station_id":"ce4bh192rcd13ifvqdb0","pricing_plan_id":"cebpf4jnsgd1na2vs0mg"},{"bike_id":"b33a36d4-9a6c-4b95-8224-aed4770c4627","system_id":"levelo_inurba_marseille","lat":43.27491,"lon":5.42454,"is_reserved":false,"is_disabled":true,"rental_uris":{"android":"levelo://app?vid=b33a36d4-9a6c-4b95-8224-aed4770c4627","ios":"levelo://app?vid=b33a36d4-9a6c-4b95-8224-aed4770c4627"},"vehicle_type_id":"4","last_reported":1738671452,"current_range_meters":8000,"station_id":"ce4bhn92rcd13ifvqgrg","pricing_plan_id":"cebpf4jnsgd1na2vs0mg"},{"bike_id":"070f0b27-0b2f-4f16-aced-78655828d7b9","system_id":"levelo_inurba_marseille","lat":43.24805,"lon":5.37457,"is_reserved":false,"is_disabled":false,"rental_uris":{"android":"levelo://app?vid=070f0b27-0b2f-4f16-aced-78655828d7b9","ios":"levelo://app?vid=070f0b27-0b2f-4f16-aced-78655828d7b9"},"vehicle_type_id":"4","last_reported":1738671452,"current_range_meters":26800,"station_id":"ce4bhgh2rcd13ifvqfb0","pricing_plan_id":"cebpf4jnsgd1na2vs0mg"},{"bike_id":"72683267-a842-4c1d-866d-ba68ffa6f68e","system_id":"levelo_inurba_marseille","lat":43.29582,"lon":5.36745,"is_reserved":false,"is_disabled":false,"rental_uris":{"android":"levelo://app?vid=72683267-a842-4c1d-866d-ba68ffa6f68e","ios":"levelo://app?vid=72683267-a842-4c1d-866d-ba68ffa6f68e"},"vehicle_type_id":"4","last_reported":1738671452,"current_range_meters":38800,"station_id":"ce4bgph2rcd13ifvqc2g","pricing_plan_id":"cebpf4jnsgd1na2vs0mg"},{"bike_id":"8d9b1c91-4ed7-4896-ac42-6580fe26e862","system_id":"levelo_inurba_marseille","lat":43.27971,"lon":5.38715,"is_reserved":false,"is_disabled":false,"rental_uris":{"android":"levelo://app?vid=8d9b1c91-4ed7-4896-ac42-6580fe26e862","ios":"levelo://app?vid=8d9b1c91-4ed7-4896-ac42-6580fe26e862"},"vehicle_type_id":"4","last_reported":1738671452,"current_range_meters":27200,"station_id":"ce4bhg12rcd13ifvqf80","pricing_plan_id":"cebpf4jnsgd1na2vs0mg"},{"bike_id":"dd6d90c3-35a0-41aa-b551-c5db13d1a11c","system_id":"levelo_inurba_marseille","lat":43.28935,"lon":5.36413,"is_reserved":false,"is_disabled":false,"rental_uris":{"android":"levelo://app?vid=dd6d90c3-35a0-41aa-b551-c5db13d1a11c","ios":"levelo://app?vid=dd6d90c3-35a0-41aa-b551-c5db13d1a11c"},"vehicle_type_id":"4","last_reported":1738671452,"current_range_meters":28000,"station_id":"ce4bhc92rcd13ifvqetg","pricing_plan_id":"cebpf4jnsgd1na2vs0mg"},{"bike_id":"e11c3af5-fb35-498f-a093-3fe6be9be13e","system_id":"levelo_inurba_marseille","lat":43.30428,"lon":5.39743,"is_reserved":false,"is_disabled":false,"rental_uris":{"android":"levelo://app?vid=e11c3af5-fb35-498f-a093-3fe6be9be13e","ios":"levelo://app?vid=e11c3af5-fb35-498f-a093-3fe6be9be13e"},"vehicle_type_id":"4","last_reported":1738671452,"current_range_meters":10800,"station_id":"ce4bh092rcd13ifvqd20","pricing_plan_id":"cebpf4jnsgd1na2vs0mg"},{"bike_id":"6bb18b6b-35db-4080-8375-2a2e83c6fc4b","system_id":"levelo_inurba_marseille","lat":43.23156,"lon":5.43707,"is_reserved":false,"is_disabled":true,"rental_uris":{"android":"levelo://app?vid=6bb18b6b-35db-4080-8375-2a2e83c6fc4b","ios":"levelo://app?vid=6bb18b6b-35db-4080-8375-2a2e83c6fc4b"},"vehicle_type_id":"4","last_reported":1738671452,"current_range_meters":38800,"station_id":"ce4bhmp2rcd13ifvqgog","pricing_plan_id":"cebpf4jnsgd1na2vs0mg"},{"bike_id":"b2d70adb-bb37-4cac-92dc-1c86d83c8ee3","system_id":"levelo_inurba_marseille","lat":43.27939,"lon":5.41045,"is_reserved":false,"is_disabled":false,"rental_uris":{"android":"levelo://app?vid=b2d70adb-bb37-4cac-92dc-1c86d83c8ee3","ios":"levelo://app?vid=b2d70adb-bb37-4cac-92dc-1c86d83c8ee3"},"vehicle_type_id":"4","last_reported":1738671452,"current_range_meters":6400,"station_id":"ce4bhnp2rcd13ifvqh0g","pricing_plan_id":"cebpf4jnsgd1na2vs0mg"},{"bike_id":"2231b496-3309-40b4-a7a4-5b9ee48fd4c2","system_id":"levelo_inurba_marseille","lat":43.30129,"lon":5.39855,"is_reserved":false,"is_disabled":false,"rental_uris":{"android":"levelo://app?vid=2231b496-3309-40b4-a7a4-5b9ee48fd4c2","ios":"levelo://app?vid=2231b496-3309-40b4-a7a4-5b9ee48fd4c2"},"vehicle_type_id":"4","last_reported":1738671452,"current_range_meters":17600,"station_id":"ce4bh0h2rcd13ifvqd40","pricing_plan_id":"cebpf4jnsgd1na2vs0mg"},{"bike_id":"787b7837-f258-4886-bbf5-841ee39c0166","system_id":"levelo_inurba_marseille","lat":43.28281,"lon":5.35108,"is_reserved":false,"is_disabled":true,"rental_uris":{"android":"levelo://app?vid=787b7837-f258-4886-bbf5-841ee39c0166","ios":"levelo://app?vid=787b7837-f258-4886-bbf5-841ee39c0166"},"vehicle_type_id":"4","last_reported":1738671452,"current_range_meters":37600,"station_id":"ce4bhbp2rcd13ifvqerg","pricing_plan_id":"cebpf4jnsgd1na2vs0mg"},{"bike_id":"35e9be92-813b-4a24-804a-34341a2b466d","system_id":"levelo_inurba_marseille","lat":43.26489,"lon":5.39551,"is_reserved":false,"is_disabled":false,"rental_uris":{"android":"levelo://app?vid=35e9be92-813b-4a24-804a-34341a2b466d","ios":"levelo://app?vid=35e9be92-813b-4a24-804a-34341a2b466d"},"vehicle_type_id":"4","last_reported":1738671452,"current_range_meters":38800,"station_id":"ce4bhi12rcd13ifvqfq0","pricing_plan_id":"cebpf4jnsgd1na2vs0mg"},{"bike_id":"f554b947-83c1-4903-8d42-99f15d0817e7","system_id":"levelo_inurba_marseille","lat":43.28486,"lon":5.38548,"is_reserved":false,"is_disabled":false,"rental_uris":{"android":"levelo://app?vid=f554b947-83c1-4903-8d42-99f15d0817e7","ios":"levelo://app?vid=f554b947-83c1-4903-8d42-99f15d0817e7"},"vehicle_type_id":"4","last_reported":1738671452,"current_range_meters":16400,"station_id":"ce4bh8p2rcd13ifvqeb0","pricing_plan_id":"cebpf4jnsgd1na2vs0mg"},{"bike_id":"e3c6399d-b2a8-46bb-92d8-89ae30f82186","system_id":"levelo_inurba_marseille","lat":43.25585,"lon":5.38243,"is_reserved":false,"is_disabled":true,"rental_uris":{"android":"levelo://app?vid=e3c6399d-b2a8-46bb-92d8-89ae30f82186","ios":"levelo://app?vid=e3c6399d-b2a8-46bb-92d8-89ae30f82186"},"vehicle_type_id":"4","last_reported":1738671452,"current_range_meters":0,"station_id":"ce4bhih2rcd13ifvqfs0","pricing_plan_id":"cebpf4jnsgd1na2vs0mg"},{"bike_id":"d42ab506-242e-49de-93ba-15e047f78824","system_id":"levelo_inurba_marseille","lat":43.29839,"lon":5.36276,"is_reserved":false,"is_disabled":false,"rental_uris":{"android":"levelo://app?vid=d42ab506-242e-49de-93ba-15e047f78824","ios":"levelo://app?vid=d42ab506-242e-49de-93ba-15e047f78824"},"vehicle_type_id":"4","last_reported":1738671452,"current_range_meters":38000,"station_id":"ce4bgpp2rcd13ifvqc3g","pricing_plan_id":"cebpf4jnsgd1na2vs0mg"},{"bike_id":"7abb2d48-2f13-4d6d-991f-410034d4efbb","system_id":"levelo_inurba_marseille","lat":43.30277,"lon":5.37734,"is_reserved":false,"is_disabled":false,"rental_uris":{"android":"levelo://app?vid=7abb2d48-2f13-4d6d-991f-410034d4efbb","ios":"levelo://app?vid=7abb2d48-2f13-4d6d-991f-410034d4efbb"},"vehicle_type_id":"4","last_reported":1738671452,"current_range_meters":34000,"station_id":"ce4bguh2rcd13ifvqcj0","pricing_plan_id":"cebpf4jnsgd1na2vs0mg"},{"bike_id":"a86e8d0b-2a73-4043-860a-1bdfba535b1a","system_id":"levelo_inurba_marseille","lat":43.28418,"lon":5.34975,"is_reserved":false,"is_disabled":false,"rental_uris":{"android":"levelo://app?vid=a86e8d0b-2a73-4043-860a-1bdfba535b1a","ios":"levelo://app?vid=a86e8d0b-2a73-4043-860a-1bdfba535b1a"},"vehicle_type_id":"4","last_reported":1738671452,"current_range_meters":8800,"station_id":"ce4bhbh2rcd13ifvqepg","pricing_plan_id":"cebpf4jnsgd1na2vs0mg"},{"bike_id":"eac8e106-76e0-4f1b-81af-4eaefecd2501","system_id":"levelo_inurba_marseille","lat":43.25007,"lon":5.38922,"is_reserved":false,"is_disabled":false,"rental_uris":{"android":"levelo://app?vid=eac8e106-76e0-4f1b-81af-4eaefecd2501","ios":"levelo://app?vid=eac8e106-76e0-4f1b-81af-4eaefecd2501"},"vehicle_type_id":"4","last_reported":1738671452,"current_range_meters":16400,"station_id":"ce4bhgp2rcd13ifvqfd0","pricing_plan_id":"cebpf4jnsgd1na2vs0mg"},{"bike_id":"2c8ef165-395d-4b1a-839b-d3ab00e529c0","system_id":"levelo_inurba_marseille","lat":43.28939,"lon":5.36634,"is_reserved":false,"is_disabled":false,"rental_uris":{"android":"levelo://app?vid=2c8ef165-395d-4b1a-839b-d3ab00e529c0","ios":"levelo://app?vid=2c8ef165-395d-4b1a-839b-d3ab00e529c0"},"vehicle_type_id":"4","last_reported":1738671452,"current_range_meters":32000,"station_id":"ce4bhap2rcd13ifvqek0","pricing_plan_id":"cebpf4jnsgd1na2vs0mg"},{"bike_id":"31fd5316-6699-4a20-a1ec-d33428eaf5e7","system_id":"levelo_inurba_marseille","lat":43.30548,"lon":5.36699,"is_reserved":false,"is_disabled":false,"rental_uris":{"android":"levelo://app?vid=31fd5316-6699-4a20-a1ec-d33428eaf5e7","ios":"levelo://app?vid=31fd5316-6699-4a20-a1ec-d33428eaf5e7"},"vehicle_type_id":"4","last_reported":1738671452,"current_range_meters":26800,"station_id":"ce4bgrp2rcd13ifvqc9g","pricing_plan_id":"cebpf4jnsgd1na2vs0mg"},{"bike_id":"25f2077a-d569-4e6a-93b0-8c971d939cf0","system_id":"levelo_inurba_marseille","lat":43.27056,"lon":5.40261,"is_reserved":false,"is_disabled":false,"rental_uris":{"android":"levelo://app?vid=25f2077a-d569-4e6a-93b0-8c971d939cf0","ios":"levelo://app?vid=25f2077a-d569-4e6a-93b0-8c971d939cf0"},"vehicle_type_id":"4","last_reported":1738671452,"current_range_meters":38800,"station_id":"ce4bhk92rcd13ifvqgc0","pricing_plan_id":"cebpf4jnsgd1na2vs0mg"},{"bike_id":"cd05ce3e-6103-43f2-a0e7-5ece70ef950a","system_id":"levelo_inurba_marseille","lat":43.29044,"lon":5.359127,"is_reserved":false,"is_disabled":false,"rental_uris":{"android":"levelo://app?vid=cd05ce3e-6103-43f2-a0e7-5ece70ef950a","ios":"levelo://app?vid=cd05ce3e-6103-43f2-a0e7-5ece70ef950a"},"vehicle_type_id":"4","last_reported":1738671452,"current_range_meters":37600,"station_id":"ce4bha92rcd13ifvqeg0","pricing_plan_id":"cebpf4jnsgd1na2vs0mg"},{"bike_id":"d81dc98d-acf4-49a8-8e45-cf9e3bebd020","system_id":"levelo_inurba_marseille","lat":43.27615,"lon":5.36127,"is_reserved":false,"is_disabled":false,"rental_uris":{"android":"levelo://app?vid=d81dc98d-acf4-49a8-8e45-cf9e3bebd020","ios":"levelo://app?vid=d81dc98d-acf4-49a8-8e45-cf9e3bebd020"},"vehicle_type_id":"4","last_reported":1738671452,"current_range_meters":36000,"station_id":"ce4bgj92rcd13ifvqbe0","pricing_plan_id":"cebpf4jnsgd1na2vs0mg"},{"bike_id":"61ceb31b-03f6-4213-9b34-0374ee45b479","system_id":"levelo_inurba_marseille","lat":43.32106,"lon":5.36765,"is_reserved":false,"is_disabled":false,"rental_uris":{"android":"levelo://app?vid=61ceb31b-03f6-4213-9b34-0374ee45b479","ios":"levelo://app?vid=61ceb31b-03f6-4213-9b34-0374ee45b479"},"vehicle_type_id":"4","last_reported":1738671452,"current_range_meters":25200,"station_id":"ce4bhrh2rcd13ifvqhug","pricing_plan_id":"cebpf4jnsgd1na2vs0mg"},{"bike_id":"0326a45c-d736-4ba1-9c08-6c8540d7373e","system_id":"levelo_inurba_marseille","lat":43.29588,"lon":5.37511,"is_reserved":false,"is_disabled":false,"rental_uris":{"android":"levelo://app?vid=0326a45c-d736-4ba1-9c08-6c8540d7373e","ios":"levelo://app?vid=0326a45c-d736-4ba1-9c08-6c8540d7373e"},"vehicle_type_id":"4","last_reported":1738671452,"current_range_meters":37600,"station_id":"ce4bgh92rcd13ifvqb50","pricing_plan_id":"cebpf4jnsgd1na2vs0mg"},{"bike_id":"98735df7-dada-4a29-abfe-5277a4c69117","system_id":"levelo_inurba_marseille","lat":43.28349,"lon":5.3811,"is_reserved":false,"is_disabled":false,"rental_uris":{"android":"levelo://app?vid=98735df7-dada-4a29-abfe-5277a4c69117","ios":"levelo://app?vid=98735df7-dada-4a29-abfe-5277a4c69117"},"vehicle_type_id":"4","last_reported":1738671452,"current_range_meters":5600,"station_id":"ce4bh412rcd13ifvqdr0","pricing_plan_id":"cebpf4jnsgd1na2vs0mg"},{"bike_id":"5bc6287f-5ed6-4b7e-a064-4a574b583e66","system_id":"levelo_inurba_marseille","lat":43.30172,"lon":5.37407,"is_reserved":false,"is_disabled":false,"rental_uris":{"android":"levelo://app?vid=5bc6287f-5ed6-4b7e-a064-4a574b583e66","ios":"levelo://app?vid=5bc6287f-5ed6-4b7e-a064-4a574b583e66"},"vehicle_type_id":"4","last_reported":1738671452,"current_range_meters":26800,"station_id":"ce4bgs92rcd13ifvqcc0","pricing_plan_id":"cebpf4jnsgd1na2vs0mg"},{"bike_id":"aca7f856-95b0-4e97-8a0a-cf9d567272bd","system_id":"levelo_inurba_marseille","lat":43.23078,"lon":5.35491,"is_reserved":false,"is_disabled":false,"rental_uris":{"android":"levelo://app?vid=aca7f856-95b0-4e97-8a0a-cf9d567272bd","ios":"levelo://app?vid=aca7f856-95b0-4e97-8a0a-cf9d567272bd"},"vehicle_type_id":"4","last_reported":1738671452,"current_range_meters":34000,"station_id":"cpo3342slgdg3j2ifvpg","pricing_plan_id":"cebpf4jnsgd1na2vs0mg"},{"bike_id":"ccd879e3-fbb4-4bbd-9c01-d06277293c4b","system_id":"levelo_inurba_marseille","lat":43.262,"lon":5.37931,"is_reserved":false,"is_disabled":true,"rental_uris":{"android":"levelo://app?vid=ccd879e3-fbb4-4bbd-9c01-d06277293c4b","ios":"levelo://app?vid=ccd879e3-fbb4-4bbd-9c01-d06277293c4b"},"vehicle_type_id":"4","last_reported":1738671452,"current_range_meters":35600,"station_id":"ce4bhjp2rcd13ifvqg90","pricing_plan_id":"cebpf4jnsgd1na2vs0mg"},{"bike_id":"e5f34f7c-c503-40c2-aeb7-a92c676b8443","system_id":"levelo_inurba_marseille","lat":43.28707,"lon":5.39994,"is_reserved":false,"is_disabled":true,"rental_uris":{"android":"levelo://app?vid=e5f34f7c-c503-40c2-aeb7-a92c676b8443","ios":"levelo://app?vid=e5f34f7c-c503-40c2-aeb7-a92c676b8443"},"vehicle_type_id":"4","last_reported":1738671452,"current_range_meters":0,"station_id":"ce4bho92rcd13ifvqh3g","pricing_plan_id":"cebpf4jnsgd1na2vs0mg"},{"bike_id":"c5595c85-2ae6-4257-bfcb-88905482d83e","system_id":"levelo_inurba_marseille","lat":43.30523,"lon":5.36704,"is_reserved":false,"is_disabled":true,"rental_uris":{"android":"levelo://app?vid=c5595c85-2ae6-4257-bfcb-88905482d83e","ios":"levelo://app?vid=c5595c85-2ae6-4257-bfcb-88905482d83e"},"vehicle_type_id":"4","last_reported":1738671452,"current_range_meters":0,"station_id":"ce4bgrp2rcd13ifvqc9g","pricing_plan_id":"cebpf4jnsgd1na2vs0mg"},{"bike_id":"982759eb-b654-4e86-8e5f-84ccdf0fd4f4","system_id":"levelo_inurba_marseille","lat":43.3078,"lon":5.37652,"is_reserved":false,"is_disabled":false,"rental_uris":{"android":"levelo://app?vid=982759eb-b654-4e86-8e5f-84ccdf0fd4f4","ios":"levelo://app?vid=982759eb-b654-4e86-8e5f-84ccdf0fd4f4"},"vehicle_type_id":"4","last_reported":1738671452,"current_range_meters":28800,"station_id":"ce4bgv92rcd13ifvqcq0","pricing_plan_id":"cebpf4jnsgd1na2vs0mg"},{"bike_id":"40bdcfb2-751b-4558-b6d4-3ac74ace0aab","system_id":"levelo_inurba_marseille","lat":43.32105,"lon":5.36787,"is_reserved":false,"is_disabled":true,"rental_uris":{"android":"levelo://app?vid=40bdcfb2-751b-4558-b6d4-3ac74ace0aab","ios":"levelo://app?vid=40bdcfb2-751b-4558-b6d4-3ac74ace0aab"},"vehicle_type_id":"4","last_reported":1738671452,"current_range_meters":400,"station_id":"ce4bhrh2rcd13ifvqhug","pricing_plan_id":"cebpf4jnsgd1na2vs0mg"},{"bike_id":"f22ab9c4-4472-465c-9846-9bcae534d3af","system_id":"levelo_inurba_marseille","lat":43.32355,"lon":5.3675,"is_reserved":false,"is_disabled":false,"rental_uris":{"android":"levelo://app?vid=f22ab9c4-4472-465c-9846-9bcae534d3af","ios":"levelo://app?vid=f22ab9c4-4472-465c-9846-9bcae534d3af"},"vehicle_type_id":"4","last_reported":1738671452,"current_range_meters":30400,"station_id":"ce4bhsh2rcd13ifvqi2g","pricing_plan_id":"cebpf4jnsgd1na2vs0mg"},{"bike_id":"4f0d7afb-7919-4d92-a699-5b52ab930452","system_id":"levelo_inurba_marseille","lat":43.2583,"lon":5.39421,"is_reserved":false,"is_disabled":false,"rental_uris":{"android":"levelo://app?vid=4f0d7afb-7919-4d92-a699-5b52ab930452","ios":"levelo://app?vid=4f0d7afb-7919-4d92-a699-5b52ab930452"},"vehicle_type_id":"4","last_reported":1738671452,"current_range_meters":38000,"station_id":"ce4bhip2rcd13ifvqft0","pricing_plan_id":"cebpf4jnsgd1na2vs0mg"},{"bike_id":"7b39ed00-86df-4303-bda1-bfc0fee1e7e2","system_id":"levelo_inurba_marseille","lat":43.32453,"lon":5.45549,"is_reserved":false,"is_disabled":false,"rental_uris":{"android":"levelo://app?vid=7b39ed00-86df-4303-bda1-bfc0fee1e7e2","ios":"levelo://app?vid=7b39ed00-86df-4303-bda1-bfc0fee1e7e2"},"vehicle_type_id":"4","last_reported":1738671452,"current_range_meters":24800,"station_id":"","pricing_plan_id":"cebpf4jnsgd1na2vs0mg"},{"bike_id":"2d6767c0-1313-4ab9-90d1-1691bd24bfe9","system_id":"levelo_inurba_marseille","lat":43.28937,"lon":5.36631,"is_reserved":false,"is_disabled":false,"rental_uris":{"android":"levelo://app?vid=2d6767c0-1313-4ab9-90d1-1691bd24bfe9","ios":"levelo://app?vid=2d6767c0-1313-4ab9-90d1-1691bd24bfe9"},"vehicle_type_id":"4","last_reported":1738671452,"current_range_meters":32000,"station_id":"ce4bhap2rcd13ifvqek0","pricing_plan_id":"cebpf4jnsgd1na2vs0mg"},{"bike_id":"771e725a-d615-420e-82e0-db8d4144a910","system_id":"levelo_inurba_marseille","lat":43.32474,"lon":5.36561,"is_reserved":false,"is_disabled":false,"rental_uris":{"android":"levelo://app?vid=771e725a-d615-420e-82e0-db8d4144a910","ios":"levelo://app?vid=771e725a-d615-420e-82e0-db8d4144a910"},"vehicle_type_id":"4","last_reported":1738671452,"current_range_meters":24400,"station_id":"ce4bhs12rcd13ifvqhvg","pricing_plan_id":"cebpf4jnsgd1na2vs0mg"},{"bike_id":"edbbb982-1b47-4a32-a728-95be045ac446","system_id":"levelo_inurba_marseille","lat":43.29968,"lon":5.37172,"is_reserved":false,"is_disabled":false,"rental_uris":{"android":"levelo://app?vid=edbbb982-1b47-4a32-a728-95be045ac446","ios":"levelo://app?vid=edbbb982-1b47-4a32-a728-95be045ac446"},"vehicle_type_id":"4","last_reported":1738671452,"current_range_meters":37600,"station_id":"ce4bgr92rcd13ifvqc7g","pricing_plan_id":"cebpf4jnsgd1na2vs0mg"},{"bike_id":"31534464-a915-4d39-b204-d521bb2268b2","system_id":"levelo_inurba_marseille","lat":43.26695,"lon":5.3825,"is_reserved":false,"is_disabled":false,"rental_uris":{"android":"levelo://app?vid=31534464-a915-4d39-b204-d521bb2268b2","ios":"levelo://app?vid=31534464-a915-4d39-b204-d521bb2268b2"},"vehicle_type_id":"4","last_reported":1738671452,"current_range_meters":2800,"station_id":"ce4bhg92rcd13ifvqf90","pricing_plan_id":"cebpf4jnsgd1na2vs0mg"},{"bike_id":"06d53856-6963-4380-9724-132560d8f796","system_id":"levelo_inurba_marseille","lat":43.25826,"lon":5.39442,"is_reserved":false,"is_disabled":false,"rental_uris":{"android":"levelo://app?vid=06d53856-6963-4380-9724-132560d8f796","ios":"levelo://app?vid=06d53856-6963-4380-9724-132560d8f796"},"vehicle_type_id":"4","last_reported":1738671452,"current_range_meters":38800,"station_id":"ce4bhip2rcd13ifvqft0","pricing_plan_id":"cebpf4jnsgd1na2vs0mg"},{"bike_id":"c7efea0b-41ab-47c4-93f0-43a53000a63b","system_id":"levelo_inurba_marseille","lat":43.23081,"lon":5.35504,"is_reserved":false,"is_disabled":false,"rental_uris":{"android":"levelo://app?vid=c7efea0b-41ab-47c4-93f0-43a53000a63b","ios":"levelo://app?vid=c7efea0b-41ab-47c4-93f0-43a53000a63b"},"vehicle_type_id":"4","last_reported":1738671452,"current_range_meters":36000,"station_id":"cpo3342slgdg3j2ifvpg","pricing_plan_id":"cebpf4jnsgd1na2vs0mg"},{"bike_id":"b31cd24f-c975-4777-8280-7c6c0f248857","system_id":"levelo_inurba_marseille","lat":43.231505,"lon":5.43695,"is_reserved":false,"is_disabled":false,"rental_uris":{"android":"levelo://app?vid=b31cd24f-c975-4777-8280-7c6c0f248857","ios":"levelo://app?vid=b31cd24f-c975-4777-8280-7c6c0f248857"},"vehicle_type_id":"4","last_reported":1738671452,"current_range_meters":38800,"station_id":"ce4bhmp2rcd13ifvqgog","pricing_plan_id":"cebpf4jnsgd1na2vs0mg"},{"bike_id":"ac3727c3-ade4-4055-b399-6cfe8071692e","system_id":"levelo_inurba_marseille","lat":43.24393,"lon":5.3706,"is_reserved":false,"is_disabled":false,"rental_uris":{"android":"levelo://app?vid=ac3727c3-ade4-4055-b399-6cfe8071692e","ios":"levelo://app?vid=ac3727c3-ade4-4055-b399-6cfe8071692e"},"vehicle_type_id":"4","last_reported":1738671452,"current_range_meters":36800,"station_id":"ce4bhhh2rcd13ifvqfk0","pricing_plan_id":"cebpf4jnsgd1na2vs0mg"},{"bike_id":"a77a9a6c-b378-460c-a5de-189df965cc3c","system_id":"levelo_inurba_marseille","lat":43.29841,"lon":5.36273,"is_reserved":false,"is_disabled":false,"rental_uris":{"android":"levelo://app?vid=a77a9a6c-b378-460c-a5de-189df965cc3c","ios":"levelo://app?vid=a77a9a6c-b378-460c-a5de-189df965cc3c"},"vehicle_type_id":"4","last_reported":1738671452,"current_range_meters":27200,"station_id":"ce4bgpp2rcd13ifvqc3g","pricing_plan_id":"cebpf4jnsgd1na2vs0mg"},{"bike_id":"c8a44c9f-02c0-47dd-912d-4a5743d6e002","system_id":"levelo_inurba_marseille","lat":43.23963,"lon":5.3663,"is_reserved":false,"is_disabled":false,"rental_uris":{"android":"levelo://app?vid=c8a44c9f-02c0-47dd-912d-4a5743d6e002","ios":"levelo://app?vid=c8a44c9f-02c0-47dd-912d-4a5743d6e002"},"vehicle_type_id":"4","last_reported":1738671452,"current_range_meters":8400,"station_id":"ce4bhi12rcd13ifvqfp0","pricing_plan_id":"cebpf4jnsgd1na2vs0mg"},{"bike_id":"a542093b-9a90-4044-9a2f-c04c765fe7cc","system_id":"levelo_inurba_marseille","lat":43.25914,"lon":5.40924,"is_reserved":false,"is_disabled":false,"rental_uris":{"android":"levelo://app?vid=a542093b-9a90-4044-9a2f-c04c765fe7cc","ios":"levelo://app?vid=a542093b-9a90-4044-9a2f-c04c765fe7cc"},"vehicle_type_id":"4","last_reported":1738671452,"current_range_meters":18800,"station_id":"ce4bhm92rcd13ifvqglg","pricing_plan_id":"cebpf4jnsgd1na2vs0mg"},{"bike_id":"92864f94-f33f-4d51-bc0d-89ffa0e02f40","system_id":"levelo_inurba_marseille","lat":43.30782,"lon":5.37652,"is_reserved":false,"is_disabled":false,"rental_uris":{"android":"levelo://app?vid=92864f94-f33f-4d51-bc0d-89ffa0e02f40","ios":"levelo://app?vid=92864f94-f33f-4d51-bc0d-89ffa0e02f40"},"vehicle_type_id":"4","last_reported":1738671452,"current_range_meters":36800,"station_id":"ce4bgv92rcd13ifvqcq0","pricing_plan_id":"cebpf4jnsgd1na2vs0mg"},{"bike_id":"4f1417c0-b684-4c46-8a8d-c64bcdf76d89","system_id":"levelo_inurba_marseille","lat":43.30533,"lon":5.38429,"is_reserved":false,"is_disabled":false,"rental_uris":{"android":"levelo://app?vid=4f1417c0-b684-4c46-8a8d-c64bcdf76d89","ios":"levelo://app?vid=4f1417c0-b684-4c46-8a8d-c64bcdf76d89"},"vehicle_type_id":"4","last_reported":1738671452,"current_range_meters":38800,"station_id":"ce4bgg92rcd13ifvqb30","pricing_plan_id":"cebpf4jnsgd1na2vs0mg"},{"bike_id":"3b11ed72-b559-44df-b0a4-77c895112d40","system_id":"levelo_inurba_marseille","lat":43.23961,"lon":5.36663,"is_reserved":false,"is_disabled":false,"rental_uris":{"android":"levelo://app?vid=3b11ed72-b559-44df-b0a4-77c895112d40","ios":"levelo://app?vid=3b11ed72-b559-44df-b0a4-77c895112d40"},"vehicle_type_id":"4","last_reported":1738671452,"current_range_meters":19600,"station_id":"ce4bhi12rcd13ifvqfp0","pricing_plan_id":"cebpf4jnsgd1na2vs0mg"},{"bike_id":"1f50ddff-e4e7-446e-b193-5ab5dd53bb6f","system_id":"levelo_inurba_marseille","lat":43.25944,"lon":5.40902,"is_reserved":false,"is_disabled":false,"rental_uris":{"android":"levelo://app?vid=1f50ddff-e4e7-446e-b193-5ab5dd53bb6f","ios":"levelo://app?vid=1f50ddff-e4e7-446e-b193-5ab5dd53bb6f"},"vehicle_type_id":"4","last_reported":1738671452,"current_range_meters":14400,"station_id":"ce4bhm92rcd13ifvqglg","pricing_plan_id":"cebpf4jnsgd1na2vs0mg"},{"bike_id":"983c387d-71a2-48cc-9af7-95dd8df7209d","system_id":"levelo_inurba_marseille","lat":43.27974,"lon":5.38711,"is_reserved":false,"is_disabled":false,"rental_uris":{"android":"levelo://app?vid=983c387d-71a2-48cc-9af7-95dd8df7209d","ios":"levelo://app?vid=983c387d-71a2-48cc-9af7-95dd8df7209d"},"vehicle_type_id":"4","last_reported":1738671452,"current_range_meters":39200,"station_id":"ce4bhg12rcd13ifvqf80","pricing_plan_id":"cebpf4jnsgd1na2vs0mg"},