{"last_updated":1708258263,"ttl":30,"version":"2.2","data":{"bikes":[{"bike_id":"fc2c1d5e-c6b9-422f-bbfe-7c2b0ff06365","system_id":"levelo_inurba_marseille","lat":43.31341,"lon":5.367098,"is_reserved":false,"is_disabled":false,"rental_uris":{"android":"levelo://app?vid=fc2c1d5e-c6b9-422f-bbfe-7c2b0ff06365","ios":"levelo://app?vid=fc2c1d5e-c6b9-422f-bbfe-7c2b0ff06365"},"vehicle_type_id":"4","last_reported":1708258263,"current_range_meters":9200,"station_id":"ce4bgr92rcd13ifvqc6g","pricing_plan_id":"cebpf4jnsgd1na2vs0mg"},{"bike_id":"2fc242d5-7adc-4d67-b8b5-979ee24d78bc","system_id":"levelo_inurba_marseille","lat":43.31341,"lon":5.367098,"is_reserved":false,"is_disabled":false,"rental_uris":{"android":"levelo://app?vid=2fc242d5-7adc-4d67-b8b5-979ee24d78bc","ios":"levelo://app?vid=2fc242d5-7adc-4d67-b8b5-979ee24d78bc"},"vehicle_type_id":"4","last_reported":1708258263,"current_range_meters":31200,"station_id":"ce4bgr92rcd13ifvqc6g","pricing_plan_id":"cebpf4jnsgd1na2vs0mg"},{"bike_id":"edc88e72-67df-4d68-a209-1cbce694fa46","system_id":"levelo_inurba_marseille","lat":43.31341,"lon":5.367098,"is_reserved":false,"is_disabled":false,"rental_uris":{"android":"levelo://app?vid=edc88e72-67df-4d68-a209-1cbce694fa46","ios":"levelo://app?vid=edc88e72-67df-4d68-a209-1cbce694fa46"},"vehicle_type_id":"4","last_reported":1708258263,"current_range_meters":25200,"station_id":"ce4bgr92rcd13ifvqc6g","pricing_plan_id":"cebpf4jnsgd1na2vs0mg"},{"bike_id":"f67d0e38-1e39-4e74-b63e-b326a9645345","system_id":"levelo_inurba_marseille","lat":43.312239,"lon":5.368562,"is_reserved":false,"is_disabled":false,"rental_uris":{"android":"levelo://app?vid=f67d0e38-1e39-4e74-b63e-b326a9645345","ios":"levelo://app?vid=f67d0e38-1e39-4e74-b63e-b326a9645345"},"vehicle_type_id":"4","last_reported":1708258263,"current_range_meters":2000,"station_id":"ce4bgl92rcd13ifvqbq0","pricing_plan_id":"cebpf4jnsgd1na2vs0mg"},{"bike_id":"27fdf1c9-a102-4a6a-9729-6fee705f0252","system_id":"levelo_inurba_marseille","lat":43.312187,"lon":5.368497,"is_reserved":false,"is_disabled":false,"rental_uris":{"android":"levelo://app?vid=27fdf1c9-a102-4a6a-9729-6fee705f0252","ios":"levelo://app?vid=27fdf1c9-a102-4a6a-9729-6fee705f0252"},"vehicle_type_id":"4","last_reported":1708258263,"current_range_meters":20000,"station_id":"ce4bgl92rcd13ifvqbq0","pricing_plan_id":"cebpf4jnsgd1na2vs0mg"},{"bike_id":"1a459968-a4e5-457d-ac6d-16595ea5f058","system_id":"levelo_inurba_marseille","lat":43.312239,"lon":5.368562,"is_reserved":false,"is_disabled":false,"rental_uris":{"android":"levelo://app?vid=1a459968-a4e5-457d-ac6d-16595ea5f058","ios":"levelo://app?vid=1a459968-a4e5-457d-ac6d-16595ea5f058"},"vehicle_type_id":"4","last_reported":1708258263,"current_range_meters":0,"station_id":"ce4bgl92rcd13ifvqbq0","pricing_plan_id":"cebpf4jnsgd1na2vs0mg"},{"bike_id":"42341d75-c2f4-4a12-8c96-74e01ac8fcad","system_id":"levelo_inurba_marseille","lat":43.312239,"lon":5.368562,"is_reserved":false,"is_disabled":false,"rental_uris":{"android":"levelo://app?vid=42341d75-c2f4-4a12-8c96-74e01ac8fcad","ios":"levelo://app?vid=42341d75-c2f4-4a12-8c96-74e01ac8fcad"},"vehicle_type_id":"4","last_reported":1708258263,"current_range_meters":30400,"station_id":"ce4bgl92rcd13ifvqbq0","pricing_plan_id":"cebpf4jnsgd1na2vs0mg"},{"bike_id":"143a4a22-22ae-42a6-8408-511e6dcf5878","system_id":"levelo_inurba_marseille","lat":43.309076,"lon":5.368465,"is_reserved":false,"is_disabled":false,"rental_uris":{"android":"levelo://app?vid=143a4a22-22ae-42a6-8408-511e6dcf5878","ios":"levelo://app?vid=143a4a22-22ae-42a6-8408-511e6dcf5878"},"vehicle_type_id":"4","last_reported":1708258263,"current_range_meters":26400,"station_id":"ce4bgn92rcd13ifvqbvg","pricing_plan_id":"cebpf4jnsgd1na2vs0mg"},{"bike_id":"a6a76c2e-a816-4920-8e5b-a469e7a809ac","system_id":"levelo_inurba_marseille","lat":43.314811,"lon":5.373103,"is_reserved":false,"is_disabled":false,"rental_uris":{"android":"levelo://app?vid=a6a76c2e-a816-4920-8e5b-a469e7a809ac","ios":"levelo://app?vid=a6a76c2e-a816-4920-8e5b-a469e7a809ac"},"vehicle_type_id":"4","last_reported":1708258263,"current_range_meters":30000,"station_id":"ce4bgt12rcd13ifvqcd0","pricing_plan_id":"cebpf4jnsgd1na2vs0mg"},{"bike_id":"ff59d9af-d22e-44fc-abd7-8d69dca55ac2","system_id":"levelo_inurba_marseille","lat":43.314836,"lon":5.373045,"is_reserved":false,"is_disabled":false,"rental_uris":{"android":"levelo://app?vid=ff59d9af-d22e-44fc-abd7-8d69dca55ac2","ios":"levelo://app?vid=ff59d9af-d22e-44fc-abd7-8d69dca55ac2"},"vehicle_type_id":"4","last_reported":1708258263,"current_range_meters":0,"station_id":"ce4bgt12rcd13ifvqcd0","pricing_plan_id":"cebpf4jnsgd1na2vs0mg"},{"bike_id":"67b0a4a8-3623-4275-8afc-eff6e765e136","system_id":"levelo_inurba_marseille","lat":43.314898,"lon":5.373015,"is_reserved":false,"is_disabled":false,"rental_uris":{"android":"levelo://app?vid=67b0a4a8-3623-4275-8afc-eff6e765e136","ios":"levelo://app?vid=67b0a4a8-3623-4275-8afc-eff6e765e136"},"vehicle_type_id":"4","last_reported":1708258263,"current_range_meters":0,"station_id":"ce4bgt12rcd13ifvqcd0","pricing_plan_id":"cebpf4jnsgd1na2vs0mg"},{"bike_id":"7b4b2a42-0421-49af-b5b0-6d9380b66497","system_id":"levelo_inurba_marseille","lat":43.3149,"lon":5.37303,"is_reserved":false,"is_disabled":false,"rental_uris":{"android":"levelo://app?vid=7b4b2a42-0421-49af-b5b0-6d9380b66497","ios":"levelo://app?vid=7b4b2a42-0421-49af-b5b0-6d9380b66497"},"vehicle_type_id":"4","last_reported":1708258263,"current_range_meters":4800,"station_id":"ce4bgt12rcd13ifvqcd0","pricing_plan_id":"cebpf4jnsgd1na2vs0mg"},{"bike_id":"dfff29cf-c672-41f6-8058-b9b6db29cc9c","system_id":"levelo_inurba_marseille","lat":43.31486,"lon":5.37306,"is_reserved":false,"is_disabled":false,"rental_uris":{"android":"levelo://app?vid=dfff29cf-c672-41f6-8058-b9b6db29cc9c","ios":"levelo://app?vid=dfff29cf-c672-41f6-8058-b9b6db29cc9c"},"vehicle_type_id":"4","last_reported":1708258263,"current_range_meters":11600,"station_id":"ce4bgt12rcd13ifvqcd0","pricing_plan_id":"cebpf4jnsgd1na2vs0mg"},{"bike_id":"9f4461e5-b334-4918-9f7c-f0cb2e327c64","system_id":"levelo_inurba_marseille","lat":43.314811,"lon":5.373104,"is_reserved":false,"is_disabled":false,"rental_uris":{"android":"levelo://app?vid=9f4461e5-b334-4918-9f7c-f0cb2e327c64","ios":"levelo://app?vid=9f4461e5-b334-4918-9f7c-f0cb2e327c64"},"vehicle_type_id":"4","last_reported":1708258263,"current_range_meters":2000,"station_id":"ce4bgt12rcd13ifvqcd0","pricing_plan_id":"cebpf4jnsgd1na2vs0mg"},{"bike_id":"d1a4d71f-901f-424c-9fa4-8e4277e4520f","system_id":"levelo_inurba_marseille","lat":43.314811,"lon":5.373104,"is_reserved":false,"is_disabled":false,"rental_uris":{"android":"levelo://app?vid=d1a4d71f-901f-424c-9fa4-8e4277e4520f","ios":"levelo://app?vid=d1a4d71f-901f-424c-9fa4-8e4277e4520f"},"vehicle_type_id":"4","last_reported":1708258263,"current_range_meters":14800,"station_id":"ce4bgt12rcd13ifvqcd0","pricing_plan_id":"cebpf4jnsgd1na2vs0mg"},{"bike_id":"69f716fc-49e0-42d8-9b96-1cde865d424a","system_id":"levelo_inurba_marseille","lat":43.31492,"lon":5.37304,"is_reserved":false,"is_disabled":false,"rental_uris":{"android":"levelo://app?vid=69f716fc-49e0-42d8-9b96-1cde865d424a","ios":"levelo://app?vid=69f716fc-49e0-42d8-9b96-1cde865d424a"},"vehicle_type_id":"4","last_reported":1708258263,"current_range_meters":10800,"station_id":"ce4bgt12rcd13ifvqcd0","pricing_plan_id":"cebpf4jnsgd1na2vs0mg"},{"bike_id":"01f36d29-5d5c-4118-b53b-a7a7bb365cc0","system_id":"levelo_inurba_marseille","lat":43.31492,"lon":5.37305,"is_reserved":false,"is_disabled":false,"rental_uris":{"android":"levelo://app?vid=01f36d29-5d5c-4118-b53b-a7a7bb365cc0","ios":"levelo://app?vid=01f36d29-5d5c-4118-b53b-a7a7bb365cc0"},"vehicle_type_id":"4","last_reported":1708258263,"current_range_meters":17200,"station_id":"ce4bgt12rcd13ifvqcd0","pricing_plan_id":"cebpf4jnsgd1na2vs0mg"},{"bike_id":"98a39b91-2071-4721-a638-8099ddd8e4b1","system_id":"levelo_inurba_marseille","lat":43.314811,"lon":5.373104,"is_reserved":false,"is_disabled":false,"rental_uris":{"android":"levelo://app?vid=98a39b91-2071-4721-a638-8099ddd8e4b1","ios":"levelo://app?vid=98a39b91-2071-4721-a638-8099ddd8e4b1"},"vehicle_type_id":"4","last_reported":1708258263,"current_range_meters":30400,"station_id":"ce4bgt12rcd13ifvqcd0","pricing_plan_id":"cebpf4jnsgd1na2vs0mg"},{"bike_id":"8015cc05-d254-40c9-b7df-695bad8fa8a7","system_id":"levelo_inurba_marseille","lat":43.31487,"lon":5.37309,"is_reserved":false,"is_disabled":false,"rental_uris":{"android":"levelo://app?vid=8015cc05-d254-40c9-b7df-695bad8fa8a7","ios":"levelo://app?vid=8015cc05-d254-40c9-b7df-695bad8fa8a7"},"vehicle_type_id":"4","last_reported":1708258263,"current_range_meters":9200,"station_id":"ce4bgt12rcd13ifvqcd0","pricing_plan_id":"cebpf4jnsgd1na2vs0mg"},{"bike_id":"9d89642d-87cc-467c-8987-97e2fb96367c","system_id":"levelo_inurba_marseille","lat":43.314811,"lon":5.373103,"is_reserved":false,"is_disabled":false,"rental_uris":{"android":"levelo://app?vid=9d89642d-87cc-467c-8987-97e2fb96367c","ios":"levelo://app?vid=9d89642d-87cc-467c-8987-97e2fb96367c"},"vehicle_type_id":"4","last_reported":1708258263,"current_range_meters":31600,"station_id":"ce4bgt12rcd13ifvqcd0","pricing_plan_id":"cebpf4jnsgd1na2vs0mg"},{"bike_id":"39f3aeff-4a4d-44f9-a4bb-1cbcb2634c1b","system_id":"levelo_inurba_marseille","lat":43.31485,"lon":5.37313,"is_reserved":false,"is_disabled":false,"rental_uris":{"android":"levelo://app?vid=39f3aeff-4a4d-44f9-a4bb-1cbcb2634c1b","ios":"levelo://app?vid=39f3aeff-4a4d-44f9-a4bb-1cbcb2634c1b"},"vehicle_type_id":"4","last_reported":1708258263,"current_range_meters":27200,"station_id":"ce4bgt12rcd13ifvqcd0","pricing_plan_id":"cebpf4jnsgd1na2vs0mg"},{"bike_id":"0eee4871-674e-4ad6-99bf-fa6f92b80c0c","system_id":"levelo_inurba_marseille","lat":43.31493,"lon":5.37309,"is_reserved":false,"is_disabled":false,"rental_uris":{"android":"levelo://app?vid=0eee4871-674e-4ad6-99bf-fa6f92b80c0c","ios":"levelo://app?vid=0eee4871-674e-4ad6-99bf-fa6f92b80c0c"},"vehicle_type_id":"4","last_reported":1708258263,"current_range_meters":3600,"station_id":"ce4bgt12rcd13ifvqcd0","pricing_plan_id":"cebpf4jnsgd1na2vs0mg"},{"bike_id":"08fa8022-feb4-46a7-9fc5-10381dcad4c4","system_id":"levelo_inurba_marseille","lat":43.314811,"lon":5.373104,"is_reserved":false,"is_disabled":false,"rental_uris":{"android":"levelo://app?vid=08fa8022-feb4-46a7-9fc5-10381dcad4c4","ios":"levelo://app?vid=08fa8022-feb4-46a7-9fc5-10381dcad4c4"},"vehicle_type_id":"4","last_reported":1708258263,"current_range_meters":5200,"station_id":"ce4bgt12rcd13ifvqcd0","pricing_plan_id":"cebpf4jnsgd1na2vs0mg"},{"bike_id":"a760be62-657f-4868-b0fc-0c9d5682c06e","system_id":"levelo_inurba_marseille","lat":43.314811,"lon":5.373104,"is_reserved":false,"is_disabled":false,"rental_uris":{"android":"levelo://app?vid=a760be62-657f-4868-b0fc-0c9d5682c06e","ios":"levelo://app?vid=a760be62-657f-4868-b0fc-0c9d5682c06e"},"vehicle_type_id":"4","last_reported":1708258263,"current_range_meters":16800,"station_id":"ce4bgt12rcd13ifvqcd0","pricing_plan_id":"cebpf4jnsgd1na2vs0mg"},{"bike_id":"6ed3b603-47f7-4c02-9850-88a354d439cf","system_id":"levelo_inurba_marseille","lat":43.314811,"lon":5.373104,"is_reserved":false,"is_disabled":false,"rental_uris":{"android":"levelo://app?vid=6ed3b603-47f7-4c02-9850-88a354d439cf","ios":"levelo://app?vid=6ed3b603-47f7-4c02-9850-88a354d439cf"},"vehicle_type_id":"4","last_reported":1708258263,"current_range_meters":22400,"station_id":"ce4bgt12rcd13ifvqcd0","pricing_plan_id":"cebpf4jnsgd1na2vs0mg"},{"bike_id":"c81d5075-00a2-417c-92c2-90b719081569","system_id":"levelo_inurba_marseille","lat":43.309039,"lon":5.371797,"is_reserved":false,"is_disabled":false,"rental_uris":{"android":"levelo://app?vid=c81d5075-00a2-417c-92c2-90b719081569","ios":"levelo://app?vid=c81d5075-00a2-417c-92c2-90b719081569"},"vehicle_type_id":"4","last_reported":1708258263,"current_range_meters":15600,"station_id":"ce4bguh2rcd13ifvqckg","pricing_plan_id":"cebpf4jnsgd1na2vs0mg"},{"bike_id":"b320dfca-fc6a-4198-988b-4169ff5636bd","system_id":"levelo_inurba_marseille","lat":43.305989,"lon":5.37225,"is_reserved":false,"is_disabled":false,"rental_uris":{"android":"levelo://app?vid=b320dfca-fc6a-4198-988b-4169ff5636bd","ios":"levelo://app?vid=b320dfca-fc6a-4198-988b-4169ff5636bd"},"vehicle_type_id":"4","last_reported":1708258263,"current_range_meters":15200,"station_id":"ce4bgqh2rcd13ifvqc4g","pricing_plan_id":"cebpf4jnsgd1na2vs0mg"},{"bike_id":"754c09a5-3b68-41de-911c-b61fbecbfd52","system_id":"levelo_inurba_marseille","lat":43.305989,"lon":5.37225,"is_reserved":false,"is_disabled":false,"rental_uris":{"android":"levelo://app?vid=754c09a5-3b68-41de-911c-b61fbecbfd52","ios":"levelo://app?vid=754c09a5-3b68-41de-911c-b61fbecbfd52"},"vehicle_type_id":"4","last_reported":1708258263,"current_range_meters":17200,"station_id":"ce4bgqh2rcd13ifvqc4g","pricing_plan_id":"cebpf4jnsgd1na2vs0mg"},{"bike_id":"015d67e7-9fdc-4f81-a243-d47e7ead27e2","system_id":"levelo_inurba_marseille","lat":43.311218,"lon":5.377588,"is_reserved":false,"is_disabled":false,"rental_uris":{"android":"levelo://app?vid=015d67e7-9fdc-4f81-a243-d47e7ead27e2","ios":"levelo://app?vid=015d67e7-9fdc-4f81-a243-d47e7ead27e2"},"vehicle_type_id":"4","last_reported":1708258263,"current_range_meters":22400,"station_id":"ce4bgt92rcd13ifvqcg0","pricing_plan_id":"cebpf4jnsgd1na2vs0mg"},{"bike_id":"a430919c-6b1e-4237-82ca-81ed56dc6de3","system_id":"levelo_inurba_marseille","lat":43.311162,"lon":5.377706,"is_reserved":false,"is_disabled":false,"rental_uris":{"android":"levelo://app?vid=a430919c-6b1e-4237-82ca-81ed56dc6de3","ios":"levelo://app?vid=a430919c-6b1e-4237-82ca-81ed56dc6de3"},"vehicle_type_id":"4","last_reported":1708258263,"current_range_meters":0,"station_id":"ce4bgt92rcd13ifvqcg0","pricing_plan_id":"cebpf4jnsgd1na2vs0mg"},{"bike_id":"cfa1ab6b-5b88-47df-98a2-2583bd6d1002","system_id":"levelo_inurba_marseille","lat":43.311178,"lon":5.377734,"is_reserved":false,"is_disabled":false,"rental_uris":{"android":"levelo://app?vid=cfa1ab6b-5b88-47df-98a2-2583bd6d1002","ios":"levelo://app?vid=cfa1ab6b-5b88-47df-98a2-2583bd6d1002"},"vehicle_type_id":"4","last_reported":1708258263,"current_range_meters":24800,"station_id":"ce4bgt92rcd13ifvqcg0","pricing_plan_id":"cebpf4jnsgd1na2vs0mg"},{"bike_id":"6b1941f1-ba8b-4cb9-9f70-6ba89fa48a9f","system_id":"levelo_inurba_marseille","lat":43.30776,"lon":5.37655,"is_reserved":false,"is_disabled":false,"rental_uris":{"android":"levelo://app?vid=6b1941f1-ba8b-4cb9-9f70-6ba89fa48a9f","ios":"levelo://app?vid=6b1941f1-ba8b-4cb9-9f70-6ba89fa48a9f"},"vehicle_type_id":"4","last_reported":1708258263,"current_range_meters":26000,"station_id":"ce4bgv92rcd13ifvqcq0","pricing_plan_id":"cebpf4jnsgd1na2vs0mg"},{"bike_id":"b6579e27-9948-4641-a834-a849228b24af","system_id":"levelo_inurba_marseille","lat":43.317075,"lon":5.377367,"is_reserved":false,"is_disabled":false,"rental_uris":{"android":"levelo://app?vid=b6579e27-9948-4641-a834-a849228b24af","ios":"levelo://app?vid=b6579e27-9948-4641-a834-a849228b24af"},"vehicle_type_id":"4","last_reported":1708258263,"current_range_meters":28400,"station_id":"ce4bgth2rcd13ifvqch0","pricing_plan_id":"cebpf4jnsgd1na2vs0mg"},{"bike_id":"ae8903fe-0f19-404e-bc26-6e79ec7bd41a","system_id":"levelo_inurba_marseille","lat":43.30304,"lon":5.368987,"is_reserved":false,"is_disabled":false,"rental_uris":{"android":"levelo://app?vid=ae8903fe-0f19-404e-bc26-6e79ec7bd41a","ios":"levelo://app?vid=ae8903fe-0f19-404e-bc26-6e79ec7bd41a"},"vehicle_type_id":"4","last_reported":1708258263,"current_range_meters":15600,"station_id":"ce4bgqh2rcd13ifvqc5g","pricing_plan_id":"cebpf4jnsgd1na2vs0mg"},{"bike_id":"02914792-567d-481e-9974-46ab1477619c","system_id":"levelo_inurba_marseille","lat":43.303046,"lon":5.368981,"is_reserved":false,"is_disabled":false,"rental_uris":{"android":"levelo://app?vid=02914792-567d-481e-9974-46ab1477619c","ios":"levelo://app?vid=02914792-567d-481e-9974-46ab1477619c"},"vehicle_type_id":"4","last_reported":1708258263,"current_range_meters":20400,"station_id":"ce4bgqh2rcd13ifvqc5g","pricing_plan_id":"cebpf4jnsgd1na2vs0mg"},{"bike_id":"933097eb-646b-44ae-9d90-9c5b0953c67e","system_id":"levelo_inurba_marseille","lat":43.303046,"lon":5.368981,"is_reserved":false,"is_disabled":false,"rental_uris":{"android":"levelo://app?vid=933097eb-646b-44ae-9d90-9c5b0953c67e","ios":"levelo://app?vid=933097eb-646b-44ae-9d90-9c5b0953c67e"},"vehicle_type_id":"4","last_reported":1708258263,"current_range_meters":15600,"station_id":"ce4bgqh2rcd13ifvqc5g","pricing_plan_id":"cebpf4jnsgd1na2vs0mg"},{"bike_id":"e0789f46-a673-4011-bcf9-bc84e0c923ca","system_id":"levelo_inurba_marseille","lat":43.301939,"lon":5.366286,"is_reserved":false,"is_disabled":false,"rental_uris":{"android":"levelo://app?vid=e0789f46-a673-4011-bcf9-bc84e0c923ca","ios":"levelo://app?vid=e0789f46-a673-4011-bcf9-bc84e0c923ca"},"vehicle_type_id":"4","last_reported":1708258263,"current_range_meters":27200,"station_id":"ce4bgrh2rcd13ifvqc8g","pricing_plan_id":"cebpf4jnsgd1na2vs0mg"},{"bike_id":"16e7cc0d-2d57-4138-977e-0f8febd19323","system_id":"levelo_inurba_marseille","lat":43.304606,"lon":5.379026,"is_reserved":false,"is_disabled":false,"rental_uris":{"android":"levelo://app?vid=16e7cc0d-2d57-4138-977e-0f8febd19323","ios":"levelo://app?vid=16e7cc0d-2d57-4138-977e-0f8febd19323"},"vehicle_type_id":"4","last_reported":1708258263,"current_range_meters":12400,"station_id":"ce4bgup2rcd13ifvqcn0","pricing_plan_id":"cebpf4jnsgd1na2vs0mg"},{"bike_id":"217136aa-9e34-497d-9fab-88219cec4724","system_id":"levelo_inurba_marseille","lat":43.304606,"lon":5.379026,"is_reserved":false,"is_disabled":false,"rental_uris":{"android":"levelo://app?vid=217136aa-9e34-497d-9fab-88219cec4724","ios":"levelo://app?vid=217136aa-9e34-497d-9fab-88219cec4724"},"vehicle_type_id":"4","last_reported":1708258263,"current_range_meters":29600,"station_id":"ce4bgup2rcd13ifvqcn0","pricing_plan_id":"cebpf4jnsgd1na2vs0mg"},{"bike_id":"52c7d0c2-438e-4f7d-9db4-ea70d4682f97","system_id":"levelo_inurba_marseille","lat":43.324771,"lon":5.36557,"is_reserved":false,"is_disabled":false,"rental_uris":{"android":"levelo://app?vid=52c7d0c2-438e-4f7d-9db4-ea70d4682f97","ios":"levelo://app?vid=52c7d0c2-438e-4f7d-9db4-ea70d4682f97"},"vehicle_type_id":"4","last_reported":1708258263,"current_range_meters":7600,"station_id":"ce4bhs12rcd13ifvqhvg","pricing_plan_id":"cebpf4jnsgd1na2vs0mg"},{"bike_id":"6df69321-e57f-4bee-bb51-cba2b9c09fae","system_id":"levelo_inurba_marseille","lat":43.324771,"lon":5.36557,"is_reserved":false,"is_disabled":false,"rental_uris":{"android":"levelo://app?vid=6df69321-e57f-4bee-bb51-cba2b9c09fae","ios":"levelo://app?vid=6df69321-e57f-4bee-bb51-cba2b9c09fae"},"vehicle_type_id":"4","last_reported":1708258263,"current_range_meters":20800,"station_id":"ce4bhs12rcd13ifvqhvg","pricing_plan_id":"cebpf4jnsgd1na2vs0mg"},{"bike_id":"63bc16d4-b7f9-4b45-a0c3-b9a2c2b94897","system_id":"levelo_inurba_marseille","lat":43.324771,"lon":5.36557,"is_reserved":false,"is_disabled":false,"rental_uris":{"android":"levelo://app?vid=63bc16d4-b7f9-4b45-a0c3-b9a2c2b94897","ios":"levelo://app?vid=63bc16d4-b7f9-4b45-a0c3-b9a2c2b94897"},"vehicle_type_id":"4","last_reported":1708258263,"current_range_meters":22800,"station_id":"ce4bhs12rcd13ifvqhvg","pricing_plan_id":"cebpf4jnsgd1na2vs0mg"},{"bike_id":"5a8b3651-7632-4f03-9b34-20ed3840f302","system_id":"levelo_inurba_marseille","lat":43.324771,"lon":5.36557,"is_reserved":false,"is_disabled":false,"rental_uris":{"android":"levelo://app?vid=5a8b3651-7632-4f03-9b34-20ed3840f302","ios":"levelo://app?vid=5a8b3651-7632-4f03-9b34-20ed3840f302"},"vehicle_type_id":"4","last_reported":1708258263,"current_range_meters":12400,"station_id":"ce4bhs12rcd13ifvqhvg","pricing_plan_id":"cebpf4jnsgd1na2vs0mg"},{"bike_id":"66c512bf-acab-4702-ba43-f4af8a53fc57","system_id":"levelo_inurba_marseille","lat":43.324771,"lon":5.36557,"is_reserved":false,"is_disabled":false,"rental_uris":{"android":"levelo://app?vid=66c512bf-acab-4702-ba43-f4af8a53fc57","ios":"levelo://app?vid=66c512bf-acab-4702-ba43-f4af8a53fc57"},"vehicle_type_id":"4","last_reported":1708258263,"current_range_meters":0,"station_id":"ce4bhs12rcd13ifvqhvg","pricing_plan_id":"cebpf4jnsgd1na2vs0mg"},{"bike_id":"138afc56-0818-4fe3-b774-75066fa1c3a6","system_id":"levelo_inurba_marseille","lat":43.302784,"lon":5.377158,"is_reserved":false,"is_disabled":false,"rental_uris":{"android":"levelo://app?vid=138afc56-0818-4fe3-b774-75066fa1c3a6","ios":"levelo://app?vid=138afc56-0818-4fe3-b774-75066fa1c3a6"},"vehicle_type_id":"4","last_reported":1708258263,"current_range_meters":24800,"station_id":"ce4bguh2rcd13ifvqcj0","pricing_plan_id":"cebpf4jnsgd1na2vs0mg"},{"bike_id":"bdd4add7-5781-485e-814e-0d8183891de5","system_id":"levelo_inurba_marseille","lat":43.30288,"lon":5.377,"is_reserved":false,"is_disabled":false,"rental_uris":{"android":"levelo://app?vid=bdd4add7-5781-485e-814e-0d8183891de5","ios":"levelo://app?vid=bdd4add7-5781-485e-814e-0d8183891de5"},"vehicle_type_id":"4","last_reported":1708258263,"current_range_meters":24000,"station_id":"ce4bguh2rcd13ifvqcj0","pricing_plan_id":"cebpf4jnsgd1na2vs0mg"},{"bike_id":"ae6d477f-cfc3-48d6-a4b4-33959153e5fc","system_id":"levelo_inurba_marseille","lat":43.310804,"lon":5.38359,"is_reserved":false,"is_disabled":false,"rental_uris":{"android":"levelo://app?vid=ae6d477f-cfc3-48d6-a4b4-33959153e5fc","ios":"levelo://app?vid=ae6d477f-cfc3-48d6-a4b4-33959153e5fc"},"vehicle_type_id":"4","last_reported":1708258263,"current_range_meters":0,"station_id":"ce4bgv92rcd13ifvqcr0","pricing_plan_id":"cebpf4jnsgd1na2vs0mg"},{"bike_id":"66dc135f-54c6-482e-800a-7b50c3afda60","system_id":"levelo_inurba_marseille","lat":43.30284,"lon":5.37698,"is_reserved":false,"is_disabled":false,"rental_uris":{"android":"levelo://app?vid=66dc135f-54c6-482e-800a-7b50c3afda60","ios":"levelo://app?vid=66dc135f-54c6-482e-800a-7b50c3afda60"},"vehicle_type_id":"4","last_reported":1708258263,"current_range_meters":19600,"station_id":"ce4bguh2rcd13ifvqcj0","pricing_plan_id":"cebpf4jnsgd1na2vs0mg"},{"bike_id":"05fb6379-9be3-4a0a-8a2c-108def9f0c2b","system_id":"levelo_inurba_marseille","lat":43.30279,"lon":5.37698,"is_reserved":false,"is_disabled":false,"rental_uris":{"android":"levelo://app?vid=05fb6379-9be3-4a0a-8a2c-108def9f0c2b","ios":"levelo://app?vid=05fb6379-9be3-4a0a-8a2c-108def9f0c2b"},"vehicle_type_id":"4","last_reported":1708258263,"current_range_meters":30000,"station_id":"ce4bguh2rcd13ifvqcj0","pricing_plan_id":"cebpf4jnsgd1na2vs0mg"},{"bike_id":"c360be01-94d5-4d44-a768-3114f3250b37","system_id":"levelo_inurba_marseille","lat":43.302827,"lon":5.377057,"is_reserved":false,"is_disabled":false,"rental_uris":{"android":"levelo://app?vid=c360be01-94d5-4d44-a768-3114f3250b37","ios":"levelo://app?vid=c360be01-94d5-4d44-a768-3114f3250b37"},"vehicle_type_id":"4","last_reported":1708258263,"current_range_meters":30800,"station_id":"ce4bguh2rcd13ifvqcj0","pricing_plan_id":"cebpf4jnsgd1na2vs0mg"},{"bike_id":"63e68e27-b8b4-4749-b4f1-014c699b4ee7","system_id":"levelo_inurba_marseille","lat":43.301429,"lon":5.37413,"is_reserved":false,"is_disabled":false,"rental_uris":{"android":"levelo://app?vid=63e68e27-b8b4-4749-b4f1-014c699b4ee7","ios":"levelo://app?vid=63e68e27-b8b4-4749-b4f1-014c699b4ee7"},"vehicle_type_id":"4","last_reported":1708258263,"current_range_meters":24000,"station_id":"ce4bgs92rcd13ifvqcc0","pricing_plan_id":"cebpf4jnsgd1na2vs0mg"},{"bike_id":"b966d316-a40f-4dd3-8e43-9f85576511d6","system_id":"levelo_inurba_marseille","lat":43.319935,"lon":5.381699,"is_reserved":false,"is_disabled":false,"rental_uris":{"android":"levelo://app?vid=b966d316-a40f-4dd3-8e43-9f85576511d6","ios":"levelo://app?vid=b966d316-a40f-4dd3-8e43-9f85576511d6"},"vehicle_type_id":"4","last_reported":1708258263,"current_range_meters":2000,"station_id":"ce4bhr12rcd13ifvqhpg","pricing_plan_id":"cebpf4jnsgd1na2vs0mg"},{"bike_id":"489cfb45-de45-4298-b12d-b265b7486fa0","system_id":"levelo_inurba_marseille","lat":43.313571,"lon":5.384829,"is_reserved":false,"is_disabled":false,"rental_uris":{"android":"levelo://app?vid=489cfb45-de45-4298-b12d-b265b7486fa0","ios":"levelo://app?vid=489cfb45-de45-4298-b12d-b265b7486fa0"},"vehicle_type_id":"4","last_reported":1708258263,"current_range_meters":9200,"station_id":"ce4bgt92rcd13ifvqcf0","pricing_plan_id":"cebpf4jnsgd1na2vs0mg"},{"bike_id":"b1a6e933-383b-42ef-ab94-50007e4d407a","system_id":"levelo_inurba_marseille","lat":43.313571,"lon":5.384829,"is_reserved":false,"is_disabled":false,"rental_uris":{"android":"levelo://app?vid=b1a6e933-383b-42ef-ab94-50007e4d407a","ios":"levelo://app?vid=b1a6e933-383b-42ef-ab94-50007e4d407a"},"vehicle_type_id":"4","last_reported":1708258263,"current_range_meters":3600,"station_id":"ce4bgt92rcd13ifvqcf0","pricing_plan_id":"cebpf4jnsgd1na2vs0mg"},{"bike_id":"e3de7e16-4951-4b98-ad96-49c07bc7190f","system_id":"levelo_inurba_marseille","lat":43.31364,"lon":5.3849,"is_reserved":false,"is_disabled":false,"rental_uris":{"android":"levelo://app?vid=e3de7e16-4951-4b98-ad96-49c07bc7190f","ios":"levelo://app?vid=e3de7e16-4951-4b98-ad96-49c07bc7190f"},"vehicle_type_id":"4","last_reported":1708258263,"current_range_meters":0,"station_id":"ce4bgt92rcd13ifvqcf0","pricing_plan_id":"cebpf4jnsgd1na2vs0mg"},{"bike_id":"d0d58667-e6ce-4a93-8fc9-3a74bd814f09","system_id":"levelo_inurba_marseille","lat":43.313571,"lon":5.384829,"is_reserved":false,"is_disabled":false,"rental_uris":{"android":"levelo://app?vid=d0d58667-e6ce-4a93-8fc9-3a74bd814f09","ios":"levelo://app?vid=d0d58667-e6ce-4a93-8fc9-3a74bd814f09"},"vehicle_type_id":"4","last_reported":1708258263,"current_range_meters":30800,"station_id":"ce4bgt92rcd13ifvqcf0","pricing_plan_id":"cebpf4jnsgd1na2vs0mg"},{"bike_id":"b4924d67-32ba-4354-8b21-66b54b5dcfb5","system_id":"levelo_inurba_marseille","lat":43.299222,"lon":5.365554,"is_reserved":false,"is_disabled":false,"rental_uris":{"android":"levelo://app?vid=b4924d67-32ba-4354-8b21-66b54b5dcfb5","ios":"levelo://app?vid=b4924d67-32ba-4354-8b21-66b54b5dcfb5"},"vehicle_type_id":"4","last_reported":1708258263,"current_range_meters":23600,"station_id":"ce4bgm92rcd13ifvqbr0","pricing_plan_id":"cebpf4jnsgd1na2vs0mg"},{"bike_id":"53d14a0c-b6c4-4d31-aa86-200fc779ef29","system_id":"levelo_inurba_marseille","lat":43.299724,"lon":5.371829,"is_reserved":false,"is_disabled":false,"rental_uris":{"android":"levelo://app?vid=53d14a0c-b6c4-4d31-aa86-200fc779ef29","ios":"levelo://app?vid=53d14a0c-b6c4-4d31-aa86-200fc779ef29"},"vehicle_type_id":"4","last_reported":1708258263,"current_range_meters":14800,"station_id":"ce4bgr92rcd13ifvqc7g","pricing_plan_id":"cebpf4jnsgd1na2vs0mg"},{"bike_id":"e1ddae80-ef22-41f3-8779-fd40228c463f","system_id":"levelo_inurba_marseille","lat":43.298433,"lon":5.362774,"is_reserved":false,"is_disabled":false,"rental_uris":{"android":"levelo://app?vid=e1ddae80-ef22-41f3-8779-fd40228c463f","ios":"levelo://app?vid=e1ddae80-ef22-41f3-8779-fd40228c463f"},"vehicle_type_id":"4","last_reported":1708258263,"current_range_meters":21600,"station_id":"ce4bgpp2rcd13ifvqc3g","pricing_plan_id":"cebpf4jnsgd1na2vs0mg"},{"bike_id":"6c258785-c9bf-44ba-9c7a-100a70258bb2","system_id":"levelo_inurba_marseille","lat":43.305364,"lon":5.384119,"is_reserved":false,"is_disabled":false,"rental_uris":{"android":"levelo://app?vid=6c258785-c9bf-44ba-9c7a-100a70258bb2","ios":"levelo://app?vid=6c258785-c9bf-44ba-9c7a-100a70258bb2"},"vehicle_type_id":"4","last_reported":1708258263,"current_range_meters":30400,"station_id":"ce4bgg92rcd13ifvqb30","pricing_plan_id":"cebpf4jnsgd1na2vs0mg"},{"bike_id":"29a5e929-1a69-46b0-aaac-56b62b0ab09d","system_id":"levelo_inurba_marseille","lat":43.305364,"lon":5.384119,"is_reserved":false,"is_disabled":false,"rental_uris":{"android":"levelo://app?vid=29a5e929-1a69-46b0-aaac-56b62b0ab09d","ios":"levelo://app?vid=29a5e929-1a69-46b0-aaac-56b62b0ab09d"},"vehicle_type_id":"4","last_reported":1708258263,"current_range_meters":30000,"station_id":"ce4bgg92rcd13ifvqb30","pricing_plan_id":"cebpf4jnsgd1na2vs0mg"},{"bike_id":"5cd81360-393d-4d40-921d-919861a56098","system_id":"levelo_inurba_marseille","lat":43.311722,"lon":5.387247,"is_reserved":false,"is_disabled":false,"rental_uris":{"android":"levelo://app?vid=5cd81360-393d-4d40-921d-919861a56098","ios":"levelo://app?vid=5cd81360-393d-4d40-921d-919861a56098"},"vehicle_type_id":"4","last_reported":1708258263,"current_range_meters":1600,"station_id":"ce4bgv12rcd13ifvqcp0","pricing_plan_id":"cebpf4jnsgd1na2vs0mg"},{"bike_id":"a24692c7-7f30-4c78-8333-214b5642378c","system_id":"levelo_inurba_marseille","lat":43.297794,"lon":5.370888,"is_reserved":false,"is_disabled":false,"rental_uris":{"android":"levelo://app?vid=a24692c7-7f30-4c78-8333-214b5642378c","ios":"levelo://app?vid=a24692c7-7f30-4c78-8333-214b5642378c"},"vehicle_type_id":"4","last_reported":1708258263,"current_range_meters":6000,"station_id":"ce4bgop2rcd13ifvqc1g","pricing_plan_id":"cebpf4jnsgd1na2vs0mg"},{"bike_id":"70fe7047-25f5-4921-82cd-938fed021886","system_id":"levelo_inurba_marseille","lat":43.322872,"lon":5.382756,"is_reserved":false,"is_disabled":false,"rental_uris":{"android":"levelo://app?vid=70fe7047-25f5-4921-82cd-938fed021886","ios":"levelo://app?vid=70fe7047-25f5-4921-82cd-938fed021886"},"vehicle_type_id":"4","last_reported":1708258263,"current_range_meters":20000,"station_id":"ce4bhr12rcd13ifvqhqg","pricing_plan_id":"cebpf4jnsgd1na2vs0mg"},{"bike_id":"410a532b-f4d9-44b0-bece-5fd8115e2fc4","system_id":"levelo_inurba_marseille","lat":43.322872,"lon":5.382756,"is_reserved":false,"is_disabled":false,"rental_uris":{"android":"levelo://app?vid=410a532b-f4d9-44b0-bece-5fd8115e2fc4","ios":"levelo://app?vid=410a532b-f4d9-44b0-bece-5fd8115e2fc4"},"vehicle_type_id":"4","last_reported":1708258263,"current_range_meters":20800,"station_id":"ce4bhr12rcd13ifvqhqg","pricing_plan_id":"cebpf4jnsgd1na2vs0mg"},{"bike_id":"9af28949-3abe-4ee4-a57a-c236655c3362","system_id":"levelo_inurba_marseille","lat":43.322872,"lon":5.382756,"is_reserved":false,"is_disabled":false,"rental_uris":{"android":"levelo://app?vid=9af28949-3abe-4ee4-a57a-c236655c3362","ios":"levelo://app?vid=9af28949-3abe-4ee4-a57a-c236655c3362"},"vehicle_type_id":"4","last_reported":1708258263,"current_range_meters":31200,"station_id":"ce4bhr12rcd13ifvqhqg","pricing_plan_id":"cebpf4jnsgd1na2vs0mg"},{"bike_id":"1a827012-09b8-464b-93b8-f30d31207867","system_id":"levelo_inurba_marseille","lat":43.322872,"lon":5.382756,"is_reserved":false,"is_disabled":false,"rental_uris":{"android":"levelo://app?vid=1a827012-09b8-464b-93b8-f30d31207867","ios":"levelo://app?vid=1a827012-09b8-464b-93b8-f30d31207867"},"vehicle_type_id":"4","last_reported":1708258263,"current_range_meters":31200,"station_id":"ce4bhr12rcd13ifvqhqg","pricing_plan_id":"cebpf4jnsgd1na2vs0mg"},{"bike_id":"56e39d4e-cf47-4284-9a5f-c7eda237067f","system_id":"levelo_inurba_marseille","lat":43.32819,"lon":5.36688,"is_reserved":false,"is_disabled":false,"rental_uris":{"android":"levelo://app?vid=56e39d4e-cf47-4284-9a5f-c7eda237067f","ios":"levelo://app?vid=56e39d4e-cf47-4284-9a5f-c7eda237067f"},"vehicle_type_id":"4","last_reported":1708258263,"current_range_meters":26400,"station_id":"ce4bhs92rcd13ifvqi0g","pricing_plan_id":"cebpf4jnsgd1na2vs0mg"},{"bike_id":"d125619a-6ae6-4def-8c67-f1352fae5a27","system_id":"levelo_inurba_marseille","lat":43.32825,"lon":5.36693,"is_reserved":false,"is_disabled":false,"rental_uris":{"android":"levelo://app?vid=d125619a-6ae6-4def-8c67-f1352fae5a27","ios":"levelo://app?vid=d125619a-6ae6-4def-8c67-f1352fae5a27"},"vehicle_type_id":"4","last_reported":1708258263,"current_range_meters":15200,"station_id":"ce4bhs92rcd13ifvqi0g","pricing_plan_id":"cebpf4jnsgd1na2vs0mg"},{"bike_id":"5195dc94-0b55-41c8-9198-580992dd67c5","system_id":"levelo_inurba_marseille","lat":43.32826,"lon":5.3669,"is_reserved":false,"is_disabled":false,"rental_uris":{"android":"levelo://app?vid=5195dc94-0b55-41c8-9198-580992dd67c5","ios":"levelo://app?vid=5195dc94-0b55-41c8-9198-580992dd67c5"},"vehicle_type_id":"4","last_reported":1708258263,"current_range_meters":16800,"station_id":"ce4bhs92rcd13ifvqi0g","pricing_plan_id":"cebpf4jnsgd1na2vs0mg"},{"bike_id":"2459963a-9a41-477a-9f46-310730d184fe","system_id":"levelo_inurba_marseille","lat":43.32826,"lon":5.36686,"is_reserved":false,"is_disabled":false,"rental_uris":{"android":"levelo://app?vid=2459963a-9a41-477a-9f46-310730d184fe","ios":"levelo://app?vid=2459963a-9a41-477a-9f46-310730d184fe"},"vehicle_type_id":"4","last_reported":1708258263,"current_range_meters":14400,"station_id":"ce4bhs92rcd13ifvqi0g","pricing_plan_id":"cebpf4jnsgd1na2vs0mg"},{"bike_id":"85a36e5b-6015-49e9-8ce2-bd78d546dff8","system_id":"levelo_inurba_marseille","lat":43.32826,"lon":5.36685,"is_reserved":false,"is_disabled":false,"rental_uris":{"android":"levelo://app?vid=85a36e5b-6015-49e9-8ce2-bd78d546dff8","ios":"levelo://app?vid=85a36e5b-6015-49e9-8ce2-bd78d546dff8"},"vehicle_type_id":"4","last_reported":1708258263,"current_range_meters":25600,"station_id":"ce4bhs92rcd13ifvqi0g","pricing_plan_id":"cebpf4jnsgd1na2vs0mg"},{"bike_id":"45fe6c6c-2569-4aee-9c18-3f3586004f23","system_id":"levelo_inurba_marseille","lat":43.32827,"lon":5.36687,"is_reserved":false,"is_disabled":false,"rental_uris":{"android":"levelo://app?vid=45fe6c6c-2569-4aee-9c18-3f3586004f23","ios":"levelo://app?vid=45fe6c6c-2569-4aee-9c18-3f3586004f23"},"vehicle_type_id":"4","last_reported":1708258263,"current_range_meters":19200,"station_id":"ce4bhs92rcd13ifvqi0g","pricing_plan_id":"cebpf4jnsgd1na2vs0mg"},{"bike_id":"cc924a54-60e4-4421-b12c-5aa0bb659927","system_id":"levelo_inurba_marseille","lat":43.32827,"lon":5.36677,"is_reserved":false,"is_disabled":false,"rental_uris":{"android":"levelo://app?vid=cc924a54-60e4-4421-b12c-5aa0bb659927","ios":"levelo://app?vid=cc924a54-60e4-4421-b12c-5aa0bb659927"},"vehicle_type_id":"4","last_reported":1708258263,"current_range_meters":0,"station_id":"ce4bhs92rcd13ifvqi0g","pricing_plan_id":"cebpf4jnsgd1na2vs0mg"},{"bike_id":"55f2d4b0-8802-4bd2-8697-0f012dcc25c1","system_id":"levelo_inurba_marseille","lat":43.32828,"lon":5.36682,"is_reserved":false,"is_disabled":false,"rental_uris":{"android":"levelo://app?vid=55f2d4b0-8802-4bd2-8697-0f012dcc25c1","ios":"levelo://app?vid=55f2d4b0-8802-4bd2-8697-0f012dcc25c1"},"vehicle_type_id":"4","last_reported":1708258263,"current_range_meters":30400,"station_id":"ce4bhs92rcd13ifvqi0g","pricing_plan_id":"cebpf4jnsgd1na2vs0mg"},{"bike_id":"3fb36c4d-f19c-4f06-af1b-b8ac121320bd","system_id":"levelo_inurba_marseille","lat":43.32829,"lon":5.36691,"is_reserved":false,"is_disabled":false,"rental_uris":{"android":"levelo://app?vid=3fb36c4d-f19c-4f06-af1b-b8ac121320bd","ios":"levelo://app?vid=3fb36c4d-f19c-4f06-af1b-b8ac121320bd"},"vehicle_type_id":"4","last_reported":1708258263,"current_range_meters":21600,"station_id":"ce4bhs92rcd13ifvqi0g","pricing_plan_id":"cebpf4jnsgd1na2vs0mg"},{"bike_id":"7147a1ee-3d42-406f-908a-817f7c4e88b4","system_id":"levelo_inurba_marseille","lat":43.32829,"lon":5.36678,"is_reserved":false,"is_disabled":false,"rental_uris":{"android":"levelo://app?vid=7147a1ee-3d42-406f-908a-817f7c4e88b4","ios":"levelo://app?vid=7147a1ee-3d42-406f-908a-817f7c4e88b4"},"vehicle_type_id":"4","last_reported":1708258263,"current_range_meters":18400,"station_id":"ce4bhs92rcd13ifvqi0g","pricing_plan_id":"cebpf4jnsgd1na2vs0mg"},{"bike_id":"c9ca704a-95d9-467c-ad5a-5403d53c76ed","system_id":"levelo_inurba_marseille","lat":43.328295,"lon":5.366915,"is_reserved":false,"is_disabled":false,"rental_uris":{"android":"levelo://app?vid=c9ca704a-95d9-467c-ad5a-5403d53c76ed","ios":"levelo://app?vid=c9ca704a-95d9-467c-ad5a-5403d53c76ed"},"vehicle_type_id":"4","last_reported":1708258263,"current_range_meters":3600,"station_id":"ce4bhs92rcd13ifvqi0g","pricing_plan_id":"cebpf4jnsgd1na2vs0mg"},{"bike_id":"0c35a0a7-ef87-411a-89ed-fbe37a1a4729","system_id":"levelo_inurba_marseille","lat":43.3283,"lon":5.36686,"is_reserved":false,"is_disabled":false,"rental_uris":{"android":"levelo://app?vid=0c35a0a7-ef87-411a-89ed-fbe37a1a4729","ios":"levelo://app?vid=0c35a0a7-ef87-411a-89ed-fbe37a1a4729"},"vehicle_type_id":"4","last_reported":1708258263,"current_range_meters":23600,"station_id":"ce4bhs92rcd13ifvqi0g","pricing_plan_id":"cebpf4jnsgd1na2vs0mg"},{"bike_id":"3ce3bf05-0e26-4ba4-9a11-4781ff3d0eb6","system_id":"levelo_inurba_marseille","lat":43.328306,"lon":5.366816,"is_reserved":false,"is_disabled":false,"rental_uris":{"android":"levelo://app?vid=3ce3bf05-0e26-4ba4-9a11-4781ff3d0eb6","ios":"levelo://app?vid=3ce3bf05-0e26-4ba4-9a11-4781ff3d0eb6"},"vehicle_type_id":"4","last_reported":1708258263,"current_range_meters":0,"station_id":"ce4bhs92rcd13ifvqi0g","pricing_plan_id":"cebpf4jnsgd1na2vs0mg"},{"bike_id":"fcbb72e3-aeee-4031-b1db-dc05c41736e9","system_id":"levelo_inurba_marseille","lat":43.32831,"lon":5.36686,"is_reserved":false,"is_disabled":false,"rental_uris":{"android":"levelo://app?vid=fcbb72e3-aeee-4031-b1db-dc05c41736e9","ios":"levelo://app?vid=fcbb72e3-aeee-4031-b1db-dc05c41736e9"},"vehicle_type_id":"4","last_reported":1708258263,"current_range_meters":10400,"station_id":"ce4bhs92rcd13ifvqi0g","pricing_plan_id":"cebpf4jnsgd1na2vs0mg"},{"bike_id":"6a4afac0-6bf5-49e1-bc28-a2022e672910","system_id":"levelo_inurba_marseille","lat":43.32832,"lon":5.36689,"is_reserved":false,"is_disabled":false,"rental_uris":{"android":"levelo://app?vid=6a4afac0-6bf5-49e1-bc28-a2022e672910","ios":"levelo://app?vid=6a4afac0-6bf5-49e1-bc28-a2022e672910"},"vehicle_type_id":"4","last_reported":1708258263,"current_range_meters":22400,"station_id":"ce4bhs92rcd13ifvqi0g","pricing_plan_id":"cebpf4jnsgd1na2vs0mg"},{"bike_id":"b1a6d03f-e2ff-45bb-b890-788276a09a82","system_id":"levelo_inurba_marseille","lat":43.32832,"lon":5.3668,"is_reserved":false,"is_disabled":false,"rental_uris":{"android":"levelo://app?vid=b1a6d03f-e2ff-45bb-b890-788276a09a82","ios":"levelo://app?vid=b1a6d03f-e2ff-45bb-b890-788276a09a82"},"vehicle_type_id":"4","last_reported":1708258263,"current_range_meters":24800,"station_id":"ce4bhs92rcd13ifvqi0g","pricing_plan_id":"cebpf4jnsgd1na2vs0mg"},{"bike_id":"c63f5776-29a6-4124-856b-96d9c7ed370b","system_id":"levelo_inurba_marseille","lat":43.32833,"lon":5.36692,"is_reserved":false,"is_disabled":false,"rental_uris":{"android":"levelo://app?vid=c63f5776-29a6-4124-856b-96d9c7ed370b","ios":"levelo://app?vid=c63f5776-29a6-4124-856b-96d9c7ed370b"},"vehicle_type_id":"4","last_reported":1708258263,"current_range_meters":21600,"station_id":"ce4bhs92rcd13ifvqi0g","pricing_plan_id":"cebpf4jnsgd1na2vs0mg"},{"bike_id":"798e1c77-cdb6-49fb-b2e4-2a646e449b0a","system_id":"levelo_inurba_marseille","lat":43.328371,"lon":5.366909,"is_reserved":false,"is_disabled":false,"rental_uris":{"android":"levelo://app?vid=798e1c77-cdb6-49fb-b2e4-2a646e449b0a","ios":"levelo://app?vid=798e1c77-cdb6-49fb-b2e4-2a646e449b0a"},"vehicle_type_id":"4","last_reported":1708258263,"current_range_meters":2000,"station_id":"ce4bhs92rcd13ifvqi0g","pricing_plan_id":"cebpf4jnsgd1na2vs0mg"},{"bike_id":"45a7a14e-9b1e-4a1b-ad54-93a32f013a67","system_id":"levelo_inurba_marseille","lat":43.328334,"lon":5.366832,"is_reserved":false,"is_disabled":false,"rental_uris":{"android":"levelo://app?vid=45a7a14e-9b1e-4a1b-ad54-93a32f013a67","ios":"levelo://app?vid=45a7a14e-9b1e-4a1b-ad54-93a32f013a67"},"vehicle_type_id":"4","last_reported":1708258263,"current_range_meters":8000,"station_id":"ce4bhs92rcd13ifvqi0g","pricing_plan_id":"cebpf4jnsgd1na2vs0mg"},{"bike_id":"d059372d-713e-4306-a0dc-ef5b2b5ad059","system_id":"levelo_inurba_marseille","lat":43.32834,"lon":5.36678,"is_reserved":false,"is_disabled":false,"rental_uris":{"android":"levelo://app?vid=d059372d-713e-4306-a0dc-ef5b2b5ad059","ios":"levelo://app?vid=d059372d-713e-4306-a0dc-ef5b2b5ad059"},"vehicle_type_id":"4","last_reported":1708258263,"current_range_meters":18400,"station_id":"ce4bhs92rcd13ifvqi0g","pricing_plan_id":"cebpf4jnsgd1na2vs0mg"},{"bike_id":"34c418a9-2de1-4506-9cfb-db50a686c83b","system_id":"levelo_inurba_marseille","lat":43.29715,"lon":5.36614,"is_reserved":false,"is_disabled":false,"rental_uris":{"android":"levelo://app?vid=34c418a9-2de1-4506-9cfb-db50a686c83b","ios":"levelo://app?vid=34c418a9-2de1-4506-9cfb-db50a686c83b"},"vehicle_type_id":"4","last_reported":1708258263,"current_range_meters":0,"station_id":"ce4bgn12rcd13ifvqbt0","pricing_plan_id":"cebpf4jnsgd1na2vs0mg"},{"bike_id":"f285de6f-f3b6-4473-8f11-8b185e6b93a5","system_id":"levelo_inurba_marseille","lat":43.297163,"lon":5.365866,"is_reserved":false,"is_disabled":false,"rental_uris":{"android":"levelo://app?vid=f285de6f-f3b6-4473-8f11-8b185e6b93a5","ios":"levelo://app?vid=f285de6f-f3b6-4473-8f11-8b185e6b93a5"},"vehicle_type_id":"4","last_reported":1708258263,"current_range_meters":15600,"station_id":"ce4bgn12rcd13ifvqbt0","pricing_plan_id":"cebpf4jnsgd1na2vs0mg"},{"bike_id":"2d896d1d-d2a6-4c07-9563-73bb1db984ce","system_id":"levelo_inurba_marseille","lat":43.32835,"lon":5.3669,"is_reserved":false,"is_disabled":false,"rental_uris":{"android":"levelo://app?vid=2d896d1d-d2a6-4c07-9563-73bb1db984ce","ios":"levelo://app?vid=2d896d1d-d2a6-4c07-9563-73bb1db984ce"},"vehicle_type_id":"4","last_reported":1708258263,"current_range_meters":30400,"station_id":"ce4bhs92rcd13ifvqi0g","pricing_plan_id":"cebpf4jnsgd1na2vs0mg"},{"bike_id":"3833ec15-b081-4b20-84c5-72daf8aa7006","system_id":"levelo_inurba_marseille","lat":43.328355,"lon":5.366873,"is_reserved":false,"is_disabled":false,"rental_uris":{"android":"levelo://app?vid=3833ec15-b081-4b20-84c5-72daf8aa7006","ios":"levelo://app?vid=3833ec15-b081-4b20-84c5-72daf8aa7006"},"vehicle_type_id":"4","last_reported":1708258263,"current_range_meters":18400,"station_id":"ce4bhs92rcd13ifvqi0g","pricing_plan_id":"cebpf4jnsgd1na2vs0mg"},{"bike_id":"fb682bad-e8c4-4a15-a0de-b6751204f763","system_id":"levelo_inurba_marseille","lat":43.297163,"lon":5.365866,"is_reserved":false,"is_disabled":false,"rental_uris":{"android":"levelo://app?vid=fb682bad-e8c4-4a15-a0de-b6751204f763","ios":"levelo://app?vid=fb682bad-e8c4-4a15-a0de-b6751204f763"},"vehicle_type_id":"4","last_reported":1708258263,"current_range_meters":26000,"station_id":"ce4bgn12rcd13ifvqbt0","pricing_plan_id":"cebpf4jnsgd1na2vs0mg"},{"bike_id":"c88020d8-9e54-4ada-9c13-218f39829cc6","system_id":"levelo_inurba_marseille","lat":43.297163,"lon":5.365866,"is_reserved":false,"is_disabled":false,"rental_uris":{"android":"levelo://app?vid=c88020d8-9e54-4ada-9c13-218f39829cc6","ios":"levelo://app?vid=c88020d8-9e54-4ada-9c13-218f39829cc6"},"vehicle_type_id":"4","last_reported":1708258263,"current_range_meters":14000,"station_id":"ce4bgn12rcd13ifvqbt0","pricing_plan_id":"cebpf4jnsgd1na2vs0mg"},{"bike_id":"5b4c25d8-104a-46ff-a5d0-154f3fcb71fc","system_id":"levelo_inurba_marseille","lat":43.2968,"lon":5.37291,"is_reserved":false,"is_disabled":false,"rental_uris":{"android":"levelo://app?vid=5b4c25d8-104a-46ff-a5d0-154f3fcb71fc","ios":"levelo://app?vid=5b4c25d8-104a-46ff-a5d0-154f3fcb71fc"},"vehicle_type_id":"4","last_reported":1708258263,"current_range_meters":10800,"station_id":"ce4bgk12rcd13ifvqbj0","pricing_plan_id":"cebpf4jnsgd1na2vs0mg"},{"bike_id":"c49680d2-ae7e-4baf-8362-aeee1519d225","system_id":"levelo_inurba_marseille","lat":43.296131,"lon":5.370773,"is_reserved":false,"is_disabled":false,"rental_uris":{"android":"levelo://app?vid=c49680d2-ae7e-4baf-8362-aeee1519d225","ios":"levelo://app?vid=c49680d2-ae7e-4baf-8362-aeee1519d225"},"vehicle_type_id":"4","last_reported":1708258263,"current_range_meters":24000,"station_id":"ce4bgnh2rcd13ifvqc0g","pricing_plan_id":"cebpf4jnsgd1na2vs0mg"},{"bike_id":"46b8cb4c-55d2-4f0b-b5bc-ee0d8089a1d1","system_id":"levelo_inurba_marseille","lat":43.29573,"lon":5.367355,"is_reserved":false,"is_disabled":false,"rental_uris":{"android":"levelo://app?vid=46b8cb4c-55d2-4f0b-b5bc-ee0d8089a1d1","ios":"levelo://app?vid=46b8cb4c-55d2-4f0b-b5bc-ee0d8089a1d1"},"vehicle_type_id":"4","last_reported":1708258263,"current_range_meters":20400,"station_id":"ce4bgph2rcd13ifvqc2g","pricing_plan_id":"cebpf4jnsgd1na2vs0mg"},{"bike_id":"dac94dc6-25a1-4c5a-9ca7-2ea575be32a5","system_id":"levelo_inurba_marseille","lat":43.296921,"lon":5.376579,"is_reserved":false,"is_disabled":false,"rental_uris":{"android":"levelo://app?vid=dac94dc6-25a1-4c5a-9ca7-2ea575be32a5","ios":"levelo://app?vid=dac94dc6-25a1-4c5a-9ca7-2ea575be32a5"},"vehicle_type_id":"4","last_reported":1708258263,"current_range_meters":29600,"station_id":"ce4bgkh2rcd13ifvqbl0","pricing_plan_id":"cebpf4jnsgd1na2vs0mg"},{"bike_id":"28e195f3-c9f6-49f4-9bb1-2f2dacc2b2cb","system_id":"levelo_inurba_marseille","lat":43.309589,"lon":5.390258,"is_reserved":false,"is_disabled":false,"rental_uris":{"android":"levelo://app?vid=28e195f3-c9f6-49f4-9bb1-2f2dacc2b2cb","ios":"levelo://app?vid=28e195f3-c9f6-49f4-9bb1-2f2dacc2b2cb"},"vehicle_type_id":"4","last_reported":1708258263,"current_range_meters":31200,"station_id":"ce4bgup2rcd13ifvqco0","pricing_plan_id":"cebpf4jnsgd1na2vs0mg"},{"bike_id":"23254cff-f9a5-43f1-b870-41eda2c1e9da","system_id":"levelo_inurba_marseille","lat":43.309589,"lon":5.390258,"is_reserved":false,"is_disabled":false,"rental_uris":{"android":"levelo://app?vid=23254cff-f9a5-43f1-b870-41eda2c1e9da","ios":"levelo://app?vid=23254cff-f9a5-43f1-b870-41eda2c1e9da"},"vehicle_type_id":"4","last_reported":1708258263,"current_range_meters":24000,"station_id":"ce4bgup2rcd13ifvqco0","pricing_plan_id":"cebpf4jnsgd1na2vs0mg"},{"bike_id":"60389100-552a-4b6f-8237-b94d8e7088c8","system_id":"levelo_inurba_marseille","lat":43.309589,"lon":5.390258,"is_reserved":false,"is_disabled":false,"rental_uris":{"android":"levelo://app?vid=60389100-552a-4b6f-8237-b94d8e7088c8","ios":"levelo://app?vid=60389100-552a-4b6f-8237-b94d8e7088c8"},"vehicle_type_id":"4","last_reported":1708258263,"current_range_meters":4000,"station_id":"ce4bgup2rcd13ifvqco0","pricing_plan_id":"cebpf4jnsgd1na2vs0mg"},{"bike_id":"1432822e-a5df-41d6-8dbf-2ed23f0320d0","system_id":"levelo_inurba_marseille","lat":43.299707,"lon":5.384859,"is_reserved":false,"is_disabled":false,"rental_uris":{"android":"levelo://app?vid=1432822e-a5df-41d6-8dbf-2ed23f0320d0","ios":"levelo://app?vid=1432822e-a5df-41d6-8dbf-2ed23f0320d0"},"vehicle_type_id":"4","last_reported":1708258263,"current_range_meters":15600,"station_id":"ce4bgj92rcd13ifvqbd0","pricing_plan_id":"cebpf4jnsgd1na2vs0mg"},{"bike_id":"b3dcb9ba-bf07-48c1-aada-2fbdb761a352","system_id":"levelo_inurba_marseille","lat":43.317557,"lon":5.390173,"is_reserved":false,"is_disabled":false,"rental_uris":{"android":"levelo://app?vid=b3dcb9ba-bf07-48c1-aada-2fbdb761a352","ios":"levelo://app?vid=b3dcb9ba-bf07-48c1-aada-2fbdb761a352"},"vehicle_type_id":"4","last_reported":1708258263,"current_range_meters":31200,"station_id":"ce4bhqp2rcd13ifvqhng","pricing_plan_id":"cebpf4jnsgd1na2vs0mg"},{"bike_id":"ed87d69f-71e3-4a80-a6a0-6a1355afd957","system_id":"levelo_inurba_marseille","lat":43.31758,"lon":5.39015,"is_reserved":false,"is_disabled":false,"rental_uris":{"android":"levelo://app?vid=ed87d69f-71e3-4a80-a6a0-6a1355afd957","ios":"levelo://app?vid=ed87d69f-71e3-4a80-a6a0-6a1355afd957"},"vehicle_type_id":"4","last_reported":1708258263,"current_range_meters":6400,"station_id":"ce4bhqp2rcd13ifvqhng","pricing_plan_id":"cebpf4jnsgd1na2vs0mg"},{"bike_id":"e71aad95-e785-4fac-9d74-e2b56468f77a","system_id":"levelo_inurba_marseille","lat":43.317557,"lon":5.390173,"is_reserved":false,"is_disabled":false,"rental_uris":{"android":"levelo://app?vid=e71aad95-e785-4fac-9d74-e2b56468f77a","ios":"levelo://app?vid=e71aad95-e785-4fac-9d74-e2b56468f77a"},"vehicle_type_id":"4","last_reported":1708258263,"current_range_meters":30400,"station_id":"ce4bhqp2rcd13ifvqhng","pricing_plan_id":"cebpf4jnsgd1na2vs0mg"},{"bike_id":"3961f50a-b400-4e23-b319-78b066a5f978","system_id":"levelo_inurba_marseille","lat":43.317557,"lon":5.390173,"is_reserved":false,"is_disabled":false,"rental_uris":{"android":"levelo://app?vid=3961f50a-b400-4e23-b319-78b066a5f978","ios":"levelo://app?vid=3961f50a-b400-4e23-b319-78b066a5f978"},"vehicle_type_id":"4","last_reported":1708258263,"current_range_meters":26800,"station_id":"ce4bhqp2rcd13ifvqhng","pricing_plan_id":"cebpf4jnsgd1na2vs0mg"},{"bike_id":"71c417ba-5d01-44d6-b2b1-27e959f8f6fb","system_id":"levelo_inurba_marseille","lat":43.317557,"lon":5.390173,"is_reserved":false,"is_disabled":false,"rental_uris":{"android":"levelo://app?vid=71c417ba-5d01-44d6-b2b1-27e959f8f6fb","ios":"levelo://app?vid=71c417ba-5d01-44d6-b2b1-27e959f8f6fb"},"vehicle_type_id":"4","last_reported":1708258263,"current_range_meters":31200,"station_id":"ce4bhqp2rcd13ifvqhng","pricing_plan_id":"cebpf4jnsgd1na2vs0mg"},{"bike_id":"d0900a97-9841-4533-b2b2-28666d6a98a2","system_id":"levelo_inurba_marseille","lat":43.304278,"lon":5.388868,"is_reserved":false,"is_disabled":false,"rental_uris":{"android":"levelo://app?vid=d0900a97-9841-4533-b2b2-28666d6a98a2","ios":"levelo://app?vid=d0900a97-9841-4533-b2b2-28666d6a98a2"},"vehicle_type_id":"4","last_reported":1708258263,"current_range_meters":13200,"station_id":"ce4bgk12rcd13ifvqbi0","pricing_plan_id":"cebpf4jnsgd1na2vs0mg"},{"bike_id":"f4e2bec3-44fb-4b59-9a2c-01792bda75c7","system_id":"levelo_inurba_marseille","lat":43.29533,"lon":5.374437,"is_reserved":false,"is_disabled":false,"rental_uris":{"android":"levelo://app?vid=f4e2bec3-44fb-4b59-9a2c-01792bda75c7","ios":"levelo://app?vid=f4e2bec3-44fb-4b59-9a2c-01792bda75c7"},"vehicle_type_id":"4","last_reported":1708258263,"current_range_meters":0,"station_id":"ce4bgkp2rcd13ifvqbmg","pricing_plan_id":"cebpf4jnsgd1na2vs0mg"},{"bike_id":"28172f57-7391-4f6a-90ec-073853fe43e1","system_id":"levelo_inurba_marseille","lat":43.299707,"lon":5.384859,"is_reserved":false,"is_disabled":false,"rental_uris":{"android":"levelo://app?vid=28172f57-7391-4f6a-90ec-073853fe43e1","ios":"levelo://app?vid=28172f57-7391-4f6a-90ec-073853fe43e1"},"vehicle_type_id":"4","last_reported":1708258263,"current_range_meters":10400,"station_id":"ce4bgj92rcd13ifvqbd0","pricing_plan_id":"cebpf4jnsgd1na2vs0mg"},{"bike_id":"6cf6325a-94ed-4216-9b6b-051c8f90cc84","system_id":"levelo_inurba_marseille","lat":43.299724,"lon":5.384848,"is_reserved":false,"is_disabled":false,"rental_uris":{"android":"levelo://app?vid=6cf6325a-94ed-4216-9b6b-051c8f90cc84","ios":"levelo://app?vid=6cf6325a-94ed-4216-9b6b-051c8f90cc84"},"vehicle_type_id":"4","last_reported":1708258263,"current_range_meters":0,"station_id":"ce4bgj92rcd13ifvqbd0","pricing_plan_id":"cebpf4jnsgd1na2vs0mg"},{"bike_id":"0fe22605-f634-4408-8c86-a82602e30acf","system_id":"levelo_inurba_marseille","lat":43.299724,"lon":5.384848,"is_reserved":false,"is_disabled":false,"rental_uris":{"android":"levelo://app?vid=0fe22605-f634-4408-8c86-a82602e30acf","ios":"levelo://app?vid=0fe22605-f634-4408-8c86-a82602e30acf"},"vehicle_type_id":"4","last_reported":1708258263,"current_range_meters":26400,"station_id":"ce4bgj92rcd13ifvqbd0","pricing_plan_id":"cebpf4jnsgd1na2vs0mg"},{"bike_id":"13401729-ae07-4edb-ac21-d9d61a6255c0","system_id":"levelo_inurba_marseille","lat":43.323621,"lon":5.388829,"is_reserved":false,"is_disabled":false,"rental_uris":{"android":"levelo://app?vid=13401729-ae07-4edb-ac21-d9d61a6255c0","ios":"levelo://app?vid=13401729-ae07-4edb-ac21-d9d61a6255c0"},"vehicle_type_id":"4","last_reported":1708258263,"current_range_meters":26000,"station_id":"ce4bhqp2rcd13ifvqhog","pricing_plan_id":"cebpf4jnsgd1na2vs0mg"},{"bike_id":"6af73b7c-3333-47f9-9c52-fb4e2c063bc2","system_id":"levelo_inurba_marseille","lat":43.32367,"lon":5.388836,"is_reserved":false,"is_disabled":false,"rental_uris":{"android":"levelo://app?vid=6af73b7c-3333-47f9-9c52-fb4e2c063bc2","ios":"levelo://app?vid=6af73b7c-3333-47f9-9c52-fb4e2c063bc2"},"vehicle_type_id":"4","last_reported":1708258263,"current_range_meters":7200,"station_id":"ce4bhqp2rcd13ifvqhog","pricing_plan_id":"cebpf4jnsgd1na2vs0mg"},{"bike_id":"0098d705-b974-41dc-a726-5e5b8f8af6cf","system_id":"levelo_inurba_marseille","lat":43.32367,"lon":5.388836,"is_reserved":false,"is_disabled":false,"rental_uris":{"android":"levelo://app?vid=0098d705-b974-41dc-a726-5e5b8f8af6cf","ios":"levelo://app?vid=0098d705-b974-41dc-a726-5e5b8f8af6cf"},"vehicle_type_id":"4","last_reported":1708258263,"current_range_meters":13200,"station_id":"ce4bhqp2rcd13ifvqhog","pricing_plan_id":"cebpf4jnsgd1na2vs0mg"},{"bike_id":"16222e41-bedc-4938-8698-45374df9cdf7","system_id":"levelo_inurba_marseille","lat":43.32367,"lon":5.388836,"is_reserved":false,"is_disabled":false,"rental_uris":{"android":"levelo://app?vid=16222e41-bedc-4938-8698-45374df9cdf7","ios":"levelo://app?vid=16222e41-bedc-4938-8698-45374df9cdf7"},"vehicle_type_id":"4","last_reported":1708258263,"current_range_meters":6800,"station_id":"ce4bhqp2rcd13ifvqhog","pricing_plan_id":"cebpf4jnsgd1na2vs0mg"},{"bike_id":"9d993f1a-927d-4286-879b-ac09dc01bad2","system_id":"levelo_inurba_marseille","lat":43.32367,"lon":5.388836,"is_reserved":false,"is_disabled":false,"rental_uris":{"android":"levelo://app?vid=9d993f1a-927d-4286-879b-ac09dc01bad2","ios":"levelo://app?vid=9d993f1a-927d-4286-879b-ac09dc01bad2"},"vehicle_type_id":"4","last_reported":1708258263,"current_range_meters":400,"station_id":"ce4bhqp2rcd13ifvqhog","pricing_plan_id":"cebpf4jnsgd1na2vs0mg"},{"bike_id":"cf13079a-fab6-41b5-bea9-346ba446f154","system_id":"levelo_inurba_marseille","lat":43.32367,"lon":5.388836,"is_reserved":false,"is_disabled":false,"rental_uris":{"android":"levelo://app?vid=cf13079a-fab6-41b5-bea9-346ba446f154","ios":"levelo://app?vid=cf13079a-fab6-41b5-bea9-346ba446f154"},"vehicle_type_id":"4","last_reported":1708258263,"current_range_meters":26800,"station_id":"ce4bhqp2rcd13ifvqhog","pricing_plan_id":"cebpf4jnsgd1na2vs0mg"},{"bike_id":"85b7d3f5-0fa2-43f3-a410-8e41ce1cabfc","system_id":"levelo_inurba_marseille","lat":43.32365,"lon":5.38888,"is_reserved":false,"is_disabled":false,"rental_uris":{"android":"levelo://app?vid=85b7d3f5-0fa2-43f3-a410-8e41ce1cabfc","ios":"levelo://app?vid=85b7d3f5-0fa2-43f3-a410-8e41ce1cabfc"},"vehicle_type_id":"4","last_reported":1708258263,"current_range_meters":4000,"station_id":"ce4bhqp2rcd13ifvqhog","pricing_plan_id":"cebpf4jnsgd1na2vs0mg"},{"bike_id":"097fbc68-0e12-4cda-a32c-f9f7e74ee0ed","system_id":"levelo_inurba_marseille","lat":43.323696,"lon":5.388863,"is_reserved":false,"is_disabled":false,"rental_uris":{"android":"levelo://app?vid=097fbc68-0e12-4cda-a32c-f9f7e74ee0ed","ios":"levelo://app?vid=097fbc68-0e12-4cda-a32c-f9f7e74ee0ed"},"vehicle_type_id":"4","last_reported":1708258263,"current_range_meters":2000,"station_id":"ce4bhqp2rcd13ifvqhog","pricing_plan_id":"cebpf4jnsgd1na2vs0mg"},{"bike_id":"9d871f50-0327-4348-a9da-d10b72178825","system_id":"levelo_inurba_marseille","lat":43.32371,"lon":5.38889,"is_reserved":false,"is_disabled":false,"rental_uris":{"android":"levelo://app?vid=9d871f50-0327-4348-a9da-d10b72178825","ios":"levelo://app?vid=9d871f50-0327-4348-a9da-d10b72178825"},"vehicle_type_id":"4","last_reported":1708258263,"current_range_meters":20400,"station_id":"ce4bhqp2rcd13ifvqhog","pricing_plan_id":"cebpf4jnsgd1na2vs0mg"},{"bike_id":"e30b5766-139a-4ca3-8c44-a91808c842c6","system_id":"levelo_inurba_marseille","lat":43.29401,"lon":5.37623,"is_reserved":false,"is_disabled":false,"rental_uris":{"android":"levelo://app?vid=e30b5766-139a-4ca3-8c44-a91808c842c6","ios":"levelo://app?vid=e30b5766-139a-4ca3-8c44-a91808c842c6"},"vehicle_type_id":"4","last_reported":1708258263,"current_range_meters":19600,"station_id":"","pricing_plan_id":"cebpf4jnsgd1na2vs0mg"},{"bike_id":"5c91768d-a97c-4d4c-8652-d0eb2d3c53ab","system_id":"levelo_inurba_marseille","lat":43.292749,"lon":5.368402,"is_reserved":false,"is_disabled":false,"rental_uris":{"android":"levelo://app?vid=5c91768d-a97c-4d4c-8652-d0eb2d3c53ab","ios":"levelo://app?vid=5c91768d-a97c-4d4c-8652-d0eb2d3c53ab"},"vehicle_type_id":"4","last_reported":1708258263,"current_range_meters":11600,"station_id":"ce4bhbp2rcd13ifvqesg","pricing_plan_id":"cebpf4jnsgd1na2vs0mg"},{"bike_id":"e9027e12-17c0-4e2b-8fce-bf134783bec5","system_id":"levelo_inurba_marseille","lat":43.29276,"lon":5.36855,"is_reserved":false,"is_disabled":false,"rental_uris":{"android":"levelo://app?vid=e9027e12-17c0-4e2b-8fce-bf134783bec5","ios":"levelo://app?vid=e9027e12-17c0-4e2b-8fce-bf134783bec5"},"vehicle_type_id":"4","last_reported":1708258263,"current_range_meters":30400,"station_id":"ce4bhbp2rcd13ifvqesg","pricing_plan_id":"cebpf4jnsgd1na2vs0mg"},{"bike_id":"40ee531a-3011-4a74-b47f-dee5e57f4f9a","system_id":"levelo_inurba_marseille","lat":43.293259,"lon":5.371586,"is_reserved":false,"is_disabled":false,"rental_uris":{"android":"levelo://app?vid=40ee531a-3011-4a74-b47f-dee5e57f4f9a","ios":"levelo://app?vid=40ee531a-3011-4a74-b47f-dee5e57f4f9a"},"vehicle_type_id":"4","last_reported":1708258263,"current_range_meters":5600,"station_id":"ce4bgh92rcd13ifvqb40","pricing_plan_id":"cebpf4jnsgd1na2vs0mg"},{"bike_id":"2a512a99-3f77-4566-a909-fd390dc2a4ce","system_id":"levelo_inurba_marseille","lat":43.293259,"lon":5.371586,"is_reserved":false,"is_disabled":false,"rental_uris":{"android":"levelo://app?vid=2a512a99-3f77-4566-a909-fd390dc2a4ce","ios":"levelo://app?vid=2a512a99-3f77-4566-a909-fd390dc2a4ce"},"vehicle_type_id":"4","last_reported":1708258263,"current_range_meters":6400,"station_id":"ce4bgh92rcd13ifvqb40","pricing_plan_id":"cebpf4jnsgd1na2vs0mg"},{"bike_id":"96fcd841-0268-4ca8-be04-a772f7b91cb1","system_id":"levelo_inurba_marseille","lat":43.2936,"lon":5.37835,"is_reserved":false,"is_disabled":false,"rental_uris":{"android":"levelo://app?vid=96fcd841-0268-4ca8-be04-a772f7b91cb1","ios":"levelo://app?vid=96fcd841-0268-4ca8-be04-a772f7b91cb1"},"vehicle_type_id":"4","last_reported":1708258263,"current_range_meters":4400,"station_id":"ce4bgjh2rcd13ifvqbf0","pricing_plan_id":"cebpf4jnsgd1na2vs0mg"},{"bike_id":"0177a835-234c-4f2c-8484-3dcd757e2226","system_id":"levelo_inurba_marseille","lat":43.291994,"lon":5.357886,"is_reserved":false,"is_disabled":false,"rental_uris":{"android":"levelo://app?vid=0177a835-234c-4f2c-8484-3dcd757e2226","ios":"levelo://app?vid=0177a835-234c-4f2c-8484-3dcd757e2226"},"vehicle_type_id":"4","last_reported":1708258263,"current_range_meters":0,"station_id":"ce4bhb12rcd13ifvqel0","pricing_plan_id":"cebpf4jnsgd1na2vs0mg"},{"bike_id":"23e7d2ef-17bc-4e07-85a8-e419683045ec","system_id":"levelo_inurba_marseille","lat":43.291994,"lon":5.357886,"is_reserved":false,"is_disabled":false,"rental_uris":{"android":"levelo://app?vid=23e7d2ef-17bc-4e07-85a8-e419683045ec","ios":"levelo://app?vid=23e7d2ef-17bc-4e07-85a8-e419683045ec"},"vehicle_type_id":"4","last_reported":1708258263,"current_range_meters":12000,"station_id":"ce4bhb12rcd13ifvqel0","pricing_plan_id":"cebpf4jnsgd1na2vs0mg"},{"bike_id":"b4b7a067-9c1e-4020-80e1-9e5441a4d0f0","system_id":"levelo_inurba_marseille","lat":43.302008,"lon":5.394694,"is_reserved":false,"is_disabled":false,"rental_uris":{"android":"levelo://app?vid=b4b7a067-9c1e-4020-80e1-9e5441a4d0f0","ios":"levelo://app?vid=b4b7a067-9c1e-4020-80e1-9e5441a4d0f0"},"vehicle_type_id":"4","last_reported":1708258263,"current_range_meters":26800,"station_id":"ce4bh0p2rcd13ifvqd70","pricing_plan_id":"cebpf4jnsgd1na2vs0mg"},{"bike_id":"10b62bf1-2278-4a9c-a43c-7efda7997d54","system_id":"levelo_inurba_marseille","lat":43.294162,"lon":5.386292,"is_reserved":false,"is_disabled":false,"rental_uris":{"android":"levelo://app?vid=10b62bf1-2278-4a9c-a43c-7efda7997d54","ios":"levelo://app?vid=10b62bf1-2278-4a9c-a43c-7efda7997d54"},"vehicle_type_id":"4","last_reported":1708258263,"current_range_meters":23200,"station_id":"ce4bh2h2rcd13ifvqdh0","pricing_plan_id":"cebpf4jnsgd1na2vs0mg"},{"bike_id":"2ab1c243-0dcd-44c5-b4cd-2d5f1175b5a2","system_id":"levelo_inurba_marseille","lat":43.289468,"lon":5.363719,"is_reserved":false,"is_disabled":false,"rental_uris":{"android":"levelo://app?vid=2ab1c243-0dcd-44c5-b4cd-2d5f1175b5a2","ios":"levelo://app?vid=2ab1c243-0dcd-44c5-b4cd-2d5f1175b5a2"},"vehicle_type_id":"4","last_reported":1708258263,"current_range_meters":28000,"station_id":"ce4bhc92rcd13ifvqetg","pricing_plan_id":"cebpf4jnsgd1na2vs0mg"},{"bike_id":"5473c32c-95c2-4bf4-9537-ae0ed91b84d9","system_id":"levelo_inurba_marseille","lat":43.289184,"lon":5.366408,"is_reserved":false,"is_disabled":false,"rental_uris":{"android":"levelo://app?vid=5473c32c-95c2-4bf4-9537-ae0ed91b84d9","ios":"levelo://app?vid=5473c32c-95c2-4bf4-9537-ae0ed91b84d9"},"vehicle_type_id":"4","last_reported":1708258263,"current_range_meters":13600,"station_id":"ce4bhap2rcd13ifvqek0","pricing_plan_id":"cebpf4jnsgd1na2vs0mg"},{"bike_id":"ac013f6a-115e-46d4-b39c-ee9932da0875","system_id":"levelo_inurba_marseille","lat":43.289743,"lon":5.378304,"is_reserved":false,"is_disabled":false,"rental_uris":{"android":"levelo://app?vid=ac013f6a-115e-46d4-b39c-ee9932da0875","ios":"levelo://app?vid=ac013f6a-115e-46d4-b39c-ee9932da0875"},"vehicle_type_id":"4","last_reported":1708258263,"current_range_meters":16400,"station_id":"ce4bh9p2rcd13ifvqed0","pricing_plan_id":"cebpf4jnsgd1na2vs0mg"},{"bike_id":"34edfb9f-d1ec-481a-afff-145ef3867ce6","system_id":"levelo_inurba_marseille","lat":43.30421,"lon":5.39746,"is_reserved":false,"is_disabled":false,"rental_uris":{"android":"levelo://app?vid=34edfb9f-d1ec-481a-afff-145ef3867ce6","ios":"levelo://app?vid=34edfb9f-d1ec-481a-afff-145ef3867ce6"},"vehicle_type_id":"4","last_reported":1708258263,"current_range_meters":23200,"station_id":"ce4bh092rcd13ifvqd20","pricing_plan_id":"cebpf4jnsgd1na2vs0mg"},{"bike_id":"ecac5869-551b-44d4-8031-a723c51f545b","system_id":"levelo_inurba_marseille","lat":43.304274,"lon":5.397513,"is_reserved":false,"is_disabled":false,"rental_uris":{"android":"levelo://app?vid=ecac5869-551b-44d4-8031-a723c51f545b","ios":"levelo://app?vid=ecac5869-551b-44d4-8031-a723c51f545b"},"vehicle_type_id":"4","last_reported":1708258263,"current_range_meters":31200,"station_id":"ce4bh092rcd13ifvqd20","pricing_plan_id":"cebpf4jnsgd1na2vs0mg"},{"bike_id":"64c8a977-e817-4529-bbbf-d54830de4873","system_id":"levelo_inurba_marseille","lat":43.29103,"lon":5.38085,"is_reserved":false,"is_disabled":false,"rental_uris":{"android":"levelo://app?vid=64c8a977-e817-4529-bbbf-d54830de4873","ios":"levelo://app?vid=64c8a977-e817-4529-bbbf-d54830de4873"},"vehicle_type_id":"4","last_reported":1708258263,"current_range_meters":20800,"station_id":"","pricing_plan_id":"cebpf4jnsgd1na2vs0mg"},{"bike_id":"7acfc725-0b14-4b16-aafb-d87867498226","system_id":"levelo_inurba_marseille","lat":43.33021,"lon":5.39034,"is_reserved":false,"is_disabled":false,"rental_uris":{"android":"levelo://app?vid=7acfc725-0b14-4b16-aafb-d87867498226","ios":"levelo://app?vid=7acfc725-0b14-4b16-aafb-d87867498226"},"vehicle_type_id":"4","last_reported":1708258263,"current_range_meters":25600,"station_id":"ce4bhr92rcd13ifvqhrg","pricing_plan_id":"cebpf4jnsgd1na2vs0mg"},{"bike_id":"e0d5a1d2-829e-4d91-b595-1674c238ce3f","system_id":"levelo_inurba_marseille","lat":43.330442,"lon":5.389148,"is_reserved":false,"is_disabled":false,"rental_uris":{"android":"levelo://app?vid=e0d5a1d2-829e-4d91-b595-1674c238ce3f","ios":"levelo://app?vid=e0d5a1d2-829e-4d91-b595-1674c238ce3f"},"vehicle_type_id":"4","last_reported":1708258263,"current_range_meters":30800,"station_id":"ce4bhr92rcd13ifvqhrg","pricing_plan_id":"cebpf4jnsgd1na2vs0mg"},{"bike_id":"5e41f08a-9bbf-4049-bf02-288f1eff97e3","system_id":"levelo_inurba_marseille","lat":43.330442,"lon":5.389148,"is_reserved":false,"is_disabled":false,"rental_uris":{"android":"levelo://app?vid=5e41f08a-9bbf-4049-bf02-288f1eff97e3","ios":"levelo://app?vid=5e41f08a-9bbf-4049-bf02-288f1eff97e3"},"vehicle_type_id":"4","last_reported":1708258263,"current_range_meters":20400,"station_id":"ce4bhr92rcd13ifvqhrg","pricing_plan_id":"cebpf4jnsgd1na2vs0mg"},{"bike_id":"7dba249c-45b1-4893-a095-9a8144f638b5","system_id":"levelo_inurba_marseille","lat":43.330442,"lon":5.389148,"is_reserved":false,"is_disabled":false,"rental_uris":{"android":"levelo://app?vid=7dba249c-45b1-4893-a095-9a8144f638b5","ios":"levelo://app?vid=7dba249c-45b1-4893-a095-9a8144f638b5"},"vehicle_type_id":"4","last_reported":1708258263,"current_range_meters":31200,"station_id":"ce4bhr92rcd13ifvqhrg","pricing_plan_id":"cebpf4jnsgd1na2vs0mg"},{"bike_id":"31fbdc05-02c0-4d08-9e5d-c421b2d9e931","system_id":"levelo_inurba_marseille","lat":43.29018,"lon":5.38128,"is_reserved":false,"is_disabled":false,"rental_uris":{"android":"levelo://app?vid=31fbdc05-02c0-4d08-9e5d-c421b2d9e931","ios":"levelo://app?vid=31fbdc05-02c0-4d08-9e5d-c421b2d9e931"},"vehicle_type_id":"4","last_reported":1708258263,"current_range_meters":0,"station_id":"ce4bh4p2rcd13ifvqe1g","pricing_plan_id":"cebpf4jnsgd1na2vs0mg"},{"bike_id":"4041a659-90e3-4922-a9b4-5b29bb3bfd2a","system_id":"levelo_inurba_marseille","lat":43.312609,"lon":5.401662,"is_reserved":false,"is_disabled":false,"rental_uris":{"android":"levelo://app?vid=4041a659-90e3-4922-a9b4-5b29bb3bfd2a","ios":"levelo://app?vid=4041a659-90e3-4922-a9b4-5b29bb3bfd2a"},"vehicle_type_id":"4","last_reported":1708258263,"current_range_meters":18400,"station_id":"ce4bh092rcd13ifvqd30","pricing_plan_id":"cebpf4jnsgd1na2vs0mg"},{"bike_id":"7aae4f93-fe26-4182-88ba-5ec9587c8fef","system_id":"levelo_inurba_marseille","lat":43.312665,"lon":5.40171,"is_reserved":false,"is_disabled":false,"rental_uris":{"android":"levelo://app?vid=7aae4f93-fe26-4182-88ba-5ec9587c8fef","ios":"levelo://app?vid=7aae4f93-fe26-4182-88ba-5ec9587c8fef"},"vehicle_type_id":"4","last_reported":1708258263,"current_range_meters":30000,"station_id":"ce4bh092rcd13ifvqd30","pricing_plan_id":"cebpf4jnsgd1na2vs0mg"},{"bike_id":"c824b3df-300d-4cad-a8f8-737768589e7f","system_id":"levelo_inurba_marseille","lat":43.33744,"lon":5.37458,"is_reserved":false,"is_disabled":false,"rental_uris":{"android":"levelo://app?vid=c824b3df-300d-4cad-a8f8-737768589e7f","ios":"levelo://app?vid=c824b3df-300d-4cad-a8f8-737768589e7f"},"vehicle_type_id":"4","last_reported":1708258263,"current_range_meters":20400,"station_id":"","pricing_plan_id":"cebpf4jnsgd1na2vs0mg"},{"bike_id":"e7bf2623-a2ee-40f0-95da-5f4499f91b2a","system_id":"levelo_inurba_marseille","lat":43.306593,"lon":5.40097,"is_reserved":false,"is_disabled":false,"rental_uris":{"android":"levelo://app?vid=e7bf2623-a2ee-40f0-95da-5f4499f91b2a","ios":"levelo://app?vid=e7bf2623-a2ee-40f0-95da-5f4499f91b2a"},"vehicle_type_id":"4","last_reported":1708258263,"current_range_meters":0,"station_id":"ce4bh112rcd13ifvqda0","pricing_plan_id":"cebpf4jnsgd1na2vs0mg"},{"bike_id":"ad8d8712-58f3-4d4e-8a60-0e1e3154a9a1","system_id":"levelo_inurba_marseille","lat":43.301286,"lon":5.398632,"is_reserved":false,"is_disabled":false,"rental_uris":{"android":"levelo://app?vid=ad8d8712-58f3-4d4e-8a60-0e1e3154a9a1","ios":"levelo://app?vid=ad8d8712-58f3-4d4e-8a60-0e1e3154a9a1"},"vehicle_type_id":"4","last_reported":1708258263,"current_range_meters":24800,"station_id":"ce4bh0h2rcd13ifvqd40","pricing_plan_id":"cebpf4jnsgd1na2vs0mg"},{"bike_id":"fe6bf883-a866-4d63-b6ed-bbd3739b01f1","system_id":"levelo_inurba_marseille","lat":43.312312,"lon":5.402388,"is_reserved":false,"is_disabled":false,"rental_uris":{"android":"levelo://app?vid=fe6bf883-a866-4d63-b6ed-bbd3739b01f1","ios":"levelo://app?vid=fe6bf883-a866-4d63-b6ed-bbd3739b01f1"},"vehicle_type_id":"4","last_reported":1708258263,"current_range_meters":0,"station_id":"","pricing_plan_id":"cebpf4jnsgd1na2vs0mg"},{"bike_id":"45243fe0-94a8-4b74-bc6f-c971cefa03e3","system_id":"levelo_inurba_marseille","lat":43.295194,"lon":5.39397,"is_reserved":false,"is_disabled":false,"rental_uris":{"android":"levelo://app?vid=45243fe0-94a8-4b74-bc6f-c971cefa03e3","ios":"levelo://app?vid=45243fe0-94a8-4b74-bc6f-c971cefa03e3"},"vehicle_type_id":"4","last_reported":1708258263,"current_range_meters":5200,"station_id":"ce4bh292rcd13ifvqdf0","pricing_plan_id":"cebpf4jnsgd1na2vs0mg"},{"bike_id":"b3ba6a05-cccb-4a5b-858b-ffa4888e5201","system_id":"levelo_inurba_marseille","lat":43.28727,"lon":5.36078,"is_reserved":false,"is_disabled":false,"rental_uris":{"android":"levelo://app?vid=b3ba6a05-cccb-4a5b-858b-ffa4888e5201","ios":"levelo://app?vid=b3ba6a05-cccb-4a5b-858b-ffa4888e5201"},"vehicle_type_id":"4","last_reported":1708258263,"current_range_meters":14800,"station_id":"cki0cbj6b192h4jlfktg","pricing_plan_id":"cebpf4jnsgd1na2vs0mg"},{"bike_id":"48a09439-4ef1-449a-b807-07f404912f67","system_id":"levelo_inurba_marseille","lat":43.298681,"lon":5.397225,"is_reserved":false,"is_disabled":false,"rental_uris":{"android":"levelo://app?vid=48a09439-4ef1-449a-b807-07f404912f67","ios":"levelo://app?vid=48a09439-4ef1-449a-b807-07f404912f67"},"vehicle_type_id":"4","last_reported":1708258263,"current_range_meters":16000,"station_id":"ce4bh0h2rcd13ifvqd50","pricing_plan_id":"cebpf4jnsgd1na2vs0mg"},{"bike_id":"613d8001-18d5-404d-aa9d-4b78346a643d","system_id":"levelo_inurba_marseille","lat":43.286961,"lon":5.373785,"is_reserved":false,"is_disabled":false,"rental_uris":{"android":"levelo://app?vid=613d8001-18d5-404d-aa9d-4b78346a643d","ios":"levelo://app?vid=613d8001-18d5-404d-aa9d-4b78346a643d"},"vehicle_type_id":"4","last_reported":1708258263,"current_range_meters":27600,"station_id":"ce4bh3p2rcd13ifvqdq0","pricing_plan_id":"cebpf4jnsgd1na2vs0mg"},{"bike_id":"2810b45d-d2c1-4525-a790-d7333abc40d7","system_id":"levelo_inurba_marseille","lat":43.295196,"lon":5.39397,"is_reserved":false,"is_disabled":false,"rental_uris":{"android":"levelo://app?vid=2810b45d-d2c1-4525-a790-d7333abc40d7","ios":"levelo://app?vid=2810b45d-d2c1-4525-a790-d7333abc40d7"},"vehicle_type_id":"4","last_reported":1708258263,"current_range_meters":8800,"station_id":"ce4bh292rcd13ifvqdf0","pricing_plan_id":"cebpf4jnsgd1na2vs0mg"},{"bike_id":"a8ef8dff-c8a6-43bc-8f46-90d6c5df8767","system_id":"levelo_inurba_marseille","lat":43.286593,"lon":5.363346,"is_reserved":false,"is_disabled":false,"rental_uris":{"android":"levelo://app?vid=a8ef8dff-c8a6-43bc-8f46-90d6c5df8767","ios":"levelo://app?vid=a8ef8dff-c8a6-43bc-8f46-90d6c5df8767"},"vehicle_type_id":"4","last_reported":1708258263,"current_range_meters":20000,"station_id":"ce4bhah2rcd13ifvqej0","pricing_plan_id":"cebpf4jnsgd1na2vs0mg"},{"bike_id":"95b535f4-f9f9-4370-95c6-0d853c3e8833","system_id":"levelo_inurba_marseille","lat":43.290336,"lon":5.386425,"is_reserved":false,"is_disabled":false,"rental_uris":{"android":"levelo://app?vid=95b535f4-f9f9-4370-95c6-0d853c3e8833","ios":"levelo://app?vid=95b535f4-f9f9-4370-95c6-0d853c3e8833"},"vehicle_type_id":"4","last_reported":1708258263,"current_range_meters":6000,"station_id":"ce4bh4p2rcd13ifvqe0g","pricing_plan_id":"cebpf4jnsgd1na2vs0mg"},{"bike_id":"7acaab54-324b-4a12-87dc-c5a918ba763f","system_id":"levelo_inurba_marseille","lat":43.286039,"lon":5.370679,"is_reserved":false,"is_disabled":false,"rental_uris":{"android":"levelo://app?vid=7acaab54-324b-4a12-87dc-c5a918ba763f","ios":"levelo://app?vid=7acaab54-324b-4a12-87dc-c5a918ba763f"},"vehicle_type_id":"4","last_reported":1708258263,"current_range_meters":18800,"station_id":"ce4bht12rcd13ifvqi60","pricing_plan_id":"cebpf4jnsgd1na2vs0mg"},{"bike_id":"4750699b-783c-4f49-b189-c4a1f1c8164d","system_id":"levelo_inurba_marseille","lat":43.287153,"lon":5.379311,"is_reserved":false,"is_disabled":false,"rental_uris":{"android":"levelo://app?vid=4750699b-783c-4f49-b189-c4a1f1c8164d","ios":"levelo://app?vid=4750699b-783c-4f49-b189-c4a1f1c8164d"},"vehicle_type_id":"4","last_reported":1708258263,"current_range_meters":0,"station_id":"","pricing_plan_id":"cebpf4jnsgd1na2vs0mg"},{"bike_id":"ef2b8d0d-bfe0-4c5b-afb1-499e47cecd21","system_id":"levelo_inurba_marseille","lat":43.316828,"lon":5.404723,"is_reserved":false,"is_disabled":false,"rental_uris":{"android":"levelo://app?vid=ef2b8d0d-bfe0-4c5b-afb1-499e47cecd21","ios":"levelo://app?vid=ef2b8d0d-bfe0-4c5b-afb1-499e47cecd21"},"vehicle_type_id":"4","last_reported":1708258263,"current_range_meters":14400,"station_id":"ce4bh012rcd13ifvqd00","pricing_plan_id":"cebpf4jnsgd1na2vs0mg"},{"bike_id":"3dedf2f8-1282-4b5f-b579-e14bfeecd574","system_id":"levelo_inurba_marseille","lat":43.284538,"lon":5.358657,"is_reserved":false,"is_disabled":false,"rental_uris":{"android":"levelo://app?vid=3dedf2f8-1282-4b5f-b579-e14bfeecd574","ios":"levelo://app?vid=3dedf2f8-1282-4b5f-b579-e14bfeecd574"},"vehicle_type_id":"4","last_reported":1708258263,"current_range_meters":14000,"station_id":"ce4bhah2rcd13ifvqei0","pricing_plan_id":"cebpf4jnsgd1na2vs0mg"},{"bike_id":"72ead606-1187-41cd-b28e-3ba262e33810","system_id":"levelo_inurba_marseille","lat":43.284538,"lon":5.358657,"is_reserved":false,"is_disabled":false,"rental_uris":{"android":"levelo://app?vid=72ead606-1187-41cd-b28e-3ba262e33810","ios":"levelo://app?vid=72ead606-1187-41cd-b28e-3ba262e33810"},"vehicle_type_id":"4","last_reported":1708258263,"current_range_meters":14400,"station_id":"ce4bhah2rcd13ifvqei0","pricing_plan_id":"cebpf4jnsgd1na2vs0mg"},{"bike_id":"c5f05afb-7ed9-42af-bcbf-a051fe254ac1","system_id":"levelo_inurba_marseille","lat":43.28621,"lon":5.35106,"is_reserved":false,"is_disabled":false,"rental_uris":{"android":"levelo://app?vid=c5f05afb-7ed9-42af-bcbf-a051fe254ac1","ios":"levelo://app?vid=c5f05afb-7ed9-42af-bcbf-a051fe254ac1"},"vehicle_type_id":"4","last_reported":1708258263,"current_range_meters":20000,"station_id":"ce4bhch2rcd13ifvqeug","pricing_plan_id":"cebpf4jnsgd1na2vs0mg"},{"bike_id":"62d33f46-a6fc-4957-8197-a43fe685270c","system_id":"levelo_inurba_marseille","lat":43.28617,"lon":5.35112,"is_reserved":false,"is_disabled":false,"rental_uris":{"android":"levelo://app?vid=62d33f46-a6fc-4957-8197-a43fe685270c","ios":"levelo://app?vid=62d33f46-a6fc-4957-8197-a43fe685270c"},"vehicle_type_id":"4","last_reported":1708258263,"current_range_meters":6400,"station_id":"ce4bhch2rcd13ifvqeug","pricing_plan_id":"cebpf4jnsgd1na2vs0mg"},{"bike_id":"6c5e5430-8349-48f2-afcb-2ec1117b3451","system_id":"levelo_inurba_marseille","lat":43.28618,"lon":5.35108,"is_reserved":false,"is_disabled":false,"rental_uris":{"android":"levelo://app?vid=6c5e5430-8349-48f2-afcb-2ec1117b3451","ios":"levelo://app?vid=6c5e5430-8349-48f2-afcb-2ec1117b3451"},"vehicle_type_id":"4","last_reported":1708258263,"current_range_meters":24800,"station_id":"ce4bhch2rcd13ifvqeug","pricing_plan_id":"cebpf4jnsgd1na2vs0mg"},{"bike_id":"8ca1229b-88ca-40c7-9f69-950ba34419cf","system_id":"levelo_inurba_marseille","lat":43.28619,"lon":5.35103,"is_reserved":false,"is_disabled":false,"rental_uris":{"android":"levelo://app?vid=8ca1229b-88ca-40c7-9f69-950ba34419cf","ios":"levelo://app?vid=8ca1229b-88ca-40c7-9f69-950ba34419cf"},"vehicle_type_id":"4","last_reported":1708258263,"current_range_meters":17600,"station_id":"ce4bhch2rcd13ifvqeug","pricing_plan_id":"cebpf4jnsgd1na2vs0mg"},{"bike_id":"c613f5b1-75d7-4e18-aed1-11e377423d89","system_id":"levelo_inurba_marseille","lat":43.28618,"lon":5.35106,"is_reserved":false,"is_disabled":false,"rental_uris":{"android":"levelo://app?vid=c613f5b1-75d7-4e18-aed1-11e377423d89","ios":"levelo://app?vid=c613f5b1-75d7-4e18-aed1-11e377423d89"},"vehicle_type_id":"4","last_reported":1708258263,"current_range_meters":22000,"station_id":"ce4bhch2rcd13ifvqeug","pricing_plan_id":"cebpf4jnsgd1na2vs0mg"},{"bike_id":"7df6b0cc-7e3a-4a06-a2f9-d7d0b3000460","system_id":"levelo_inurba_marseille","lat":43.28619,"lon":5.35101,"is_reserved":false,"is_disabled":false,"rental_uris":{"android":"levelo://app?vid=7df6b0cc-7e3a-4a06-a2f9-d7d0b3000460","ios":"levelo://app?vid=7df6b0cc-7e3a-4a06-a2f9-d7d0b3000460"},"vehicle_type_id":"4","last_reported":1708258263,"current_range_meters":25200,"station_id":"ce4bhch2rcd13ifvqeug","pricing_plan_id":"cebpf4jnsgd1na2vs0mg"},{"bike_id":"a9d53488-3bf1-4f7c-a04f-b57b3588a4c3","system_id":"levelo_inurba_marseille","lat":43.28617,"lon":5.35106,"is_reserved":false,"is_disabled":false,"rental_uris":{"android":"levelo://app?vid=a9d53488-3bf1-4f7c-a04f-b57b3588a4c3","ios":"levelo://app?vid=a9d53488-3bf1-4f7c-a04f-b57b3588a4c3"},"vehicle_type_id":"4","last_reported":1708258263,"current_range_meters":22000,"station_id":"ce4bhch2rcd13ifvqeug","pricing_plan_id":"cebpf4jnsgd1na2vs0mg"},{"bike_id":"19de492b-0f43-4129-b548-6284aba33e09","system_id":"levelo_inurba_marseille","lat":43.28615,"lon":5.35111,"is_reserved":false,"is_disabled":false,"rental_uris":{"android":"levelo://app?vid=19de492b-0f43-4129-b548-6284aba33e09","ios":"levelo://app?vid=19de492b-0f43-4129-b548-6284aba33e09"},"vehicle_type_id":"4","last_reported":1708258263,"current_range_meters":9600,"station_id":"ce4bhch2rcd13ifvqeug","pricing_plan_id":"cebpf4jnsgd1na2vs0mg"},{"bike_id":"6790a5a4-8ce9-4db0-aa9c-f49b33a50127","system_id":"levelo_inurba_marseille","lat":43.28615,"lon":5.35109,"is_reserved":false,"is_disabled":false,"rental_uris":{"android":"levelo://app?vid=6790a5a4-8ce9-4db0-aa9c-f49b33a50127","ios":"levelo://app?vid=6790a5a4-8ce9-4db0-aa9c-f49b33a50127"},"vehicle_type_id":"4","last_reported":1708258263,"current_range_meters":21200,"station_id":"ce4bhch2rcd13ifvqeug","pricing_plan_id":"cebpf4jnsgd1na2vs0mg"},{"bike_id":"f0acbc08-7836-46ee-95f2-406f46c20f6b","system_id":"levelo_inurba_marseille","lat":43.28615,"lon":5.35108,"is_reserved":false,"is_disabled":false,"rental_uris":{"android":"levelo://app?vid=f0acbc08-7836-46ee-95f2-406f46c20f6b","ios":"levelo://app?vid=f0acbc08-7836-46ee-95f2-406f46c20f6b"},"vehicle_type_id":"4","last_reported":1708258263,"current_range_meters":12000,"station_id":"ce4bhch2rcd13ifvqeug","pricing_plan_id":"cebpf4jnsgd1na2vs0mg"},{"bike_id":"1448c00f-6692-4a6b-b12f-ba5a463c8069","system_id":"levelo_inurba_marseille","lat":43.28616,"lon":5.35104,"is_reserved":false,"is_disabled":false,"rental_uris":{"android":"levelo://app?vid=1448c00f-6692-4a6b-b12f-ba5a463c8069","ios":"levelo://app?vid=1448c00f-6692-4a6b-b12f-ba5a463c8069"},"vehicle_type_id":"4","last_reported":1708258263,"current_range_meters":22400,"station_id":"ce4bhch2rcd13ifvqeug","pricing_plan_id":"cebpf4jnsgd1na2vs0mg"},{"bike_id":"882a33a0-b604-402b-abf1-dc61c6086bba","system_id":"levelo_inurba_marseille","lat":43.28617,"lon":5.35099,"is_reserved":false,"is_disabled":false,"rental_uris":{"android":"levelo://app?vid=882a33a0-b604-402b-abf1-dc61c6086bba","ios":"levelo://app?vid=882a33a0-b604-402b-abf1-dc61c6086bba"},"vehicle_type_id":"4","last_reported":1708258263,"current_range_meters":22800,"station_id":"ce4bhch2rcd13ifvqeug","pricing_plan_id":"cebpf4jnsgd1na2vs0mg"},{"bike_id":"e4a5b21e-9590-4521-91ff-c25032274968","system_id":"levelo_inurba_marseille","lat":43.28615,"lon":5.35105,"is_reserved":false,"is_disabled":false,"rental_uris":{"android":"levelo://app?vid=e4a5b21e-9590-4521-91ff-c25032274968","ios":"levelo://app?vid=e4a5b21e-9590-4521-91ff-c25032274968"},"vehicle_type_id":"4","last_reported":1708258263,"current_range_meters":25200,"station_id":"ce4bhch2rcd13ifvqeug","pricing_plan_id":"cebpf4jnsgd1na2vs0mg"},{"bike_id":"dc8e7acc-efc1-4317-a04c-22b3ee2d57a4","system_id":"levelo_inurba_marseille","lat":43.28615,"lon":5.35105,"is_reserved":false,"is_disabled":false,"rental_uris":{"android":"levelo://app?vid=dc8e7acc-efc1-4317-a04c-22b3ee2d57a4","ios":"levelo://app?vid=dc8e7acc-efc1-4317-a04c-22b3ee2d57a4"},"vehicle_type_id":"4","last_reported":1708258263,"current_range_meters":28800,"station_id":"ce4bhch2rcd13ifvqeug","pricing_plan_id":"cebpf4jnsgd1na2vs0mg"},{"bike_id":"0e415aee-86e2-4aad-8fbd-4a6ec693c30d","system_id":"levelo_inurba_marseille","lat":43.28615,"lon":5.35105,"is_reserved":false,"is_disabled":false,"rental_uris":{"android":"levelo://app?vid=0e415aee-86e2-4aad-8fbd-4a6ec693c30d","ios":"levelo://app?vid=0e415aee-86e2-4aad-8fbd-4a6ec693c30d"},"vehicle_type_id":"4","last_reported":1708258263,"current_range_meters":2800,"station_id":"ce4bhch2rcd13ifvqeug","pricing_plan_id":"cebpf4jnsgd1na2vs0mg"},{"bike_id":"81f0970a-a261-4bdf-a863-1ff3a5685343","system_id":"levelo_inurba_marseille","lat":43.28612,"lon":5.35114,"is_reserved":false,"is_disabled":false,"rental_uris":{"android":"levelo://app?vid=81f0970a-a261-4bdf-a863-1ff3a5685343","ios":"levelo://app?vid=81f0970a-a261-4bdf-a863-1ff3a5685343"},"vehicle_type_id":"4","last_reported":1708258263,"current_range_meters":16000,"station_id":"ce4bhch2rcd13ifvqeug","pricing_plan_id":"cebpf4jnsgd1na2vs0mg"},{"bike_id":"7928ee18-bcbb-48e6-b1ca-b3e07ad7c1ac","system_id":"levelo_inurba_marseille","lat":43.28614,"lon":5.35107,"is_reserved":false,"is_disabled":false,"rental_uris":{"android":"levelo://app?vid=7928ee18-bcbb-48e6-b1ca-b3e07ad7c1ac","ios":"levelo://app?vid=7928ee18-bcbb-48e6-b1ca-b3e07ad7c1ac"},"vehicle_type_id":"4","last_reported":1708258263,"current_range_meters":4800,"station_id":"ce4bhch2rcd13ifvqeug","pricing_plan_id":"cebpf4jnsgd1na2vs0mg"},{"bike_id":"1e4b4726-9747-4dae-85bc-6dc4c4cd3b47","system_id":"levelo_inurba_marseille","lat":43.28615,"lon":5.35102,"is_reserved":false,"is_disabled":false,"rental_uris":{"android":"levelo://app?vid=1e4b4726-9747-4dae-85bc-6dc4c4cd3b47","ios":"levelo://app?vid=1e4b4726-9747-4dae-85bc-6dc4c4cd3b47"},"vehicle_type_id":"4","last_reported":1708258263,"current_range_meters":10800,"station_id":"ce4bhch2rcd13ifvqeug","pricing_plan_id":"cebpf4jnsgd1na2vs0mg"},{"bike_id":"16842481-fb9c-4a0e-b440-635cc6a05fb8","system_id":"levelo_inurba_marseille","lat":43.28614,"lon":5.35105,"is_reserved":false,"is_disabled":false,"rental_uris":{"android":"levelo://app?vid=16842481-fb9c-4a0e-b440-635cc6a05fb8","ios":"levelo://app?vid=16842481-fb9c-4a0e-b440-635cc6a05fb8"},"vehicle_type_id":"4","last_reported":1708258263,"current_range_meters":20800,"station_id":"ce4bhch2rcd13ifvqeug","pricing_plan_id":"cebpf4jnsgd1na2vs0mg"},{"bike_id":"530bfb86-15a5-4a0a-8a83-a96e52dfeaa8","system_id":"levelo_inurba_marseille","lat":43.28613,"lon":5.35108,"is_reserved":false,"is_disabled":false,"rental_uris":{"android":"levelo://app?vid=530bfb86-15a5-4a0a-8a83-a96e52dfeaa8","ios":"levelo://app?vid=530bfb86-15a5-4a0a-8a83-a96e52dfeaa8"},"vehicle_type_id":"4","last_reported":1708258263,"current_range_meters":0,"station_id":"ce4bhch2rcd13ifvqeug","pricing_plan_id":"cebpf4jnsgd1na2vs0mg"},{"bike_id":"529827dd-0e60-4c49-9b53-e6b9492188fc","system_id":"levelo_inurba_marseille","lat":43.28615,"lon":5.35101,"is_reserved":false,"is_disabled":false,"rental_uris":{"android":"levelo://app?vid=529827dd-0e60-4c49-9b53-e6b9492188fc","ios":"levelo://app?vid=529827dd-0e60-4c49-9b53-e6b9492188fc"},"vehicle_type_id":"4","last_reported":1708258263,"current_range_meters":19600,"station_id":"ce4bhch2rcd13ifvqeug","pricing_plan_id":"cebpf4jnsgd1na2vs0mg"},{"bike_id":"ac464893-ff36-46ca-9c05-6477a77c75d2","system_id":"levelo_inurba_marseille","lat":43.28615,"lon":5.35101,"is_reserved":false,"is_disabled":false,"rental_uris":{"android":"levelo://app?vid=ac464893-ff36-46ca-9c05-6477a77c75d2","ios":"levelo://app?vid=ac464893-ff36-46ca-9c05-6477a77c75d2"},"vehicle_type_id":"4","last_reported":1708258263,"current_range_meters":25600,"station_id":"ce4bhch2rcd13ifvqeug","pricing_plan_id":"cebpf4jnsgd1na2vs0mg"},{"bike_id":"39e8e6ca-9c06-434f-8cd4-3577a7c8b342","system_id":"levelo_inurba_marseille","lat":43.28612,"lon":5.3511,"is_reserved":false,"is_disabled":false,"rental_uris":{"android":"levelo://app?vid=39e8e6ca-9c06-434f-8cd4-3577a7c8b342","ios":"levelo://app?vid=39e8e6ca-9c06-434f-8cd4-3577a7c8b342"},"vehicle_type_id":"4","last_reported":1708258263,"current_range_meters":10800,"station_id":"ce4bhch2rcd13ifvqeug","pricing_plan_id":"cebpf4jnsgd1na2vs0mg"},{"bike_id":"e16a177c-dbbb-4b88-acf1-13eee9032e2c","system_id":"levelo_inurba_marseille","lat":43.28612,"lon":5.35108,"is_reserved":false,"is_disabled":false,"rental_uris":{"android":"levelo://app?vid=e16a177c-dbbb-4b88-acf1-13eee9032e2c","ios":"levelo://app?vid=e16a177c-dbbb-4b88-acf1-13eee9032e2c"},"vehicle_type_id":"4","last_reported":1708258263,"current_range_meters":2000,"station_id":"ce4bhch2rcd13ifvqeug","pricing_plan_id":"cebpf4jnsgd1na2vs0mg"},{"bike_id":"c6cbaa5b-d0f8-47e5-b394-20529fa14203","system_id":"levelo_inurba_marseille","lat":43.286103,"lon":5.351113,"is_reserved":false,"is_disabled":false,"rental_uris":{"android":"levelo://app?vid=c6cbaa5b-d0f8-47e5-b394-20529fa14203","ios":"levelo://app?vid=c6cbaa5b-d0f8-47e5-b394-20529fa14203"},"vehicle_type_id":"4","last_reported":1708258263,"current_range_meters":28400,"station_id":"ce4bhch2rcd13ifvqeug","pricing_plan_id":"cebpf4jnsgd1na2vs0mg"},{"bike_id":"e94f04d5-9cbd-4066-8dd7-76f989058e35","system_id":"levelo_inurba_marseille","lat":43.28612,"lon":5.35106,"is_reserved":false,"is_disabled":false,"rental_uris":{"android":"levelo://app?vid=e94f04d5-9cbd-4066-8dd7-76f989058e35","ios":"levelo://app?vid=e94f04d5-9cbd-4066-8dd7-76f989058e35"},"vehicle_type_id":"4","last_reported":1708258263,"current_range_meters":0,"station_id":"ce4bhch2rcd13ifvqeug","pricing_plan_id":"cebpf4jnsgd1na2vs0mg"},{"bike_id":"736ed48c-431c-4780-8bd4-c97b2fc11f6d","system_id":"levelo_inurba_marseille","lat":43.28613,"lon":5.35102,"is_reserved":false,"is_disabled":false,"rental_uris":{"android":"levelo://app?vid=736ed48c-431c-4780-8bd4-c97b2fc11f6d","ios":"levelo://app?vid=736ed48c-431c-4780-8bd4-c97b2fc11f6d"},"vehicle_type_id":"4","last_reported":1708258263,"current_range_meters":0,"station_id":"ce4bhch2rcd13ifvqeug","pricing_plan_id":"cebpf4jnsgd1na2vs0mg"},{"bike_id":"73a25f2a-b69e-46e0-acb0-5c966d0c3852","system_id":"levelo_inurba_marseille","lat":43.28612,"lon":5.35105,"is_reserved":false,"is_disabled":false,"rental_uris":{"android":"levelo://app?vid=73a25f2a-b69e-46e0-acb0-5c966d0c3852","ios":"levelo://app?vid=73a25f2a-b69e-46e0-acb0-5c966d0c3852"},"vehicle_type_id":"4","last_reported":1708258263,"current_range_meters":20800,"station_id":"ce4bhch2rcd13ifvqeug","pricing_plan_id":"cebpf4jnsgd1na2vs0mg"},{"bike_id":"57502d7c-0e9e-47c4-956c-db3105d22c01","system_id":"levelo_inurba_marseille","lat":43.28612,"lon":5.351,"is_reserved":false,"is_disabled":false,"rental_uris":{"android":"levelo://app?vid=57502d7c-0e9e-47c4-956c-db3105d22c01","ios":"levelo://app?vid=57502d7c-0e9e-47c4-956c-db3105d22c01"},"vehicle_type_id":"4","last_reported":1708258263,"current_range_meters":400,"station_id":"ce4bhch2rcd13ifvqeug","pricing_plan_id":"cebpf4jnsgd1na2vs0mg"},{"bike_id":"219e7d0c-e47b-49c4-96cd-658aba7e2c5d","system_id":"levelo_inurba_marseille","lat":43.28607,"lon":5.35108,"is_reserved":false,"is_disabled":false,"rental_uris":{"android":"levelo://app?vid=219e7d0c-e47b-49c4-96cd-658aba7e2c5d","ios":"levelo://app?vid=219e7d0c-e47b-49c4-96cd-658aba7e2c5d"},"vehicle_type_id":"4","last_reported":1708258263,"current_range_meters":6800,"station_id":"ce4bhch2rcd13ifvqeug","pricing_plan_id":"cebpf4jnsgd1na2vs0mg"},{"bike_id":"28b53f67-cd3b-4045-bec4-29102ce6732f","system_id":"levelo_inurba_marseille","lat":43.284113,"lon":5.375171,"is_reserved":false,"is_disabled":false,"rental_uris":{"android":"levelo://app?vid=28b53f67-cd3b-4045-bec4-29102ce6732f","ios":"levelo://app?vid=28b53f67-cd3b-4045-bec4-29102ce6732f"},"vehicle_type_id":"4","last_reported":1708258263,"current_range_meters":0,"station_id":"ce4bh412rcd13ifvqds0","pricing_plan_id":"cebpf4jnsgd1na2vs0mg"},{"bike_id":"c479a9cd-be37-41ca-a73a-4c24a3c31ba3","system_id":"levelo_inurba_marseille","lat":43.295713,"lon":5.399639,"is_reserved":false,"is_disabled":false,"rental_uris":{"android":"levelo://app?vid=c479a9cd-be37-41ca-a73a-4c24a3c31ba3","ios":"levelo://app?vid=c479a9cd-be37-41ca-a73a-4c24a3c31ba3"},"vehicle_type_id":"4","last_reported":1708258263,"current_range_meters":400,"station_id":"ce4bh312rcd13ifvqdj0","pricing_plan_id":"cebpf4jnsgd1na2vs0mg"},{"bike_id":"06bcc11d-e215-4418-931f-7851359353c0","system_id":"levelo_inurba_marseille","lat":43.283998,"lon":5.375062,"is_reserved":false,"is_disabled":false,"rental_uris":{"android":"levelo://app?vid=06bcc11d-e215-4418-931f-7851359353c0","ios":"levelo://app?vid=06bcc11d-e215-4418-931f-7851359353c0"},"vehicle_type_id":"4","last_reported":1708258263,"current_range_meters":0,"station_id":"ce4bh412rcd13ifvqds0","pricing_plan_id":"cebpf4jnsgd1na2vs0mg"},{"bike_id":"95afed4a-8a5d-4006-b635-7fd085e23d13","system_id":"levelo_inurba_marseille","lat":43.286595,"lon":5.386795,"is_reserved":false,"is_disabled":false,"rental_uris":{"android":"levelo://app?vid=95afed4a-8a5d-4006-b635-7fd085e23d13","ios":"levelo://app?vid=95afed4a-8a5d-4006-b635-7fd085e23d13"},"vehicle_type_id":"4","last_reported":1708258263,"current_range_meters":18800,"station_id":"ce4bh492rcd13ifvqdug","pricing_plan_id":"cebpf4jnsgd1na2vs0mg"},{"bike_id":"6cc77a78-fa5f-4fdc-ac34-93f2fd8131ec","system_id":"levelo_inurba_marseille","lat":43.31884,"lon":5.40736,"is_reserved":false,"is_disabled":false,"rental_uris":{"android":"levelo://app?vid=6cc77a78-fa5f-4fdc-ac34-93f2fd8131ec","ios":"levelo://app?vid=6cc77a78-fa5f-4fdc-ac34-93f2fd8131ec"},"vehicle_type_id":"4","last_reported":1708258263,"current_range_meters":4800,"station_id":"ce4bhq12rcd13ifvqhig","pricing_plan_id":"cebpf4jnsgd1na2vs0mg"},{"bike_id":"db8d03b5-3f76-40d2-87a2-5cf2f4c25844","system_id":"levelo_inurba_marseille","lat":43.33716,"lon":5.3918,"is_reserved":false,"is_disabled":false,"rental_uris":{"android":"levelo://app?vid=db8d03b5-3f76-40d2-87a2-5cf2f4c25844","ios":"levelo://app?vid=db8d03b5-3f76-40d2-87a2-5cf2f4c25844"},"vehicle_type_id":"4","last_reported":1708258263,"current_range_meters":6400,"station_id":"ce4bhr92rcd13ifvqhsg","pricing_plan_id":"cebpf4jnsgd1na2vs0mg"},{"bike_id":"d3891c37-96f6-470b-9578-ba50f59cc466","system_id":"levelo_inurba_marseille","lat":43.337205,"lon":5.391776,"is_reserved":false,"is_disabled":false,"rental_uris":{"android":"levelo://app?vid=d3891c37-96f6-470b-9578-ba50f59cc466","ios":"levelo://app?vid=d3891c37-96f6-470b-9578-ba50f59cc466"},"vehicle_type_id":"4","last_reported":1708258263,"current_range_meters":14800,"station_id":"ce4bhr92rcd13ifvqhsg","pricing_plan_id":"cebpf4jnsgd1na2vs0mg"},{"bike_id":"81421012-561a-45b1-b8b2-9b18559a56db","system_id":"levelo_inurba_marseille","lat":43.33719,"lon":5.391828,"is_reserved":false,"is_disabled":false,"rental_uris":{"android":"levelo://app?vid=81421012-561a-45b1-b8b2-9b18559a56db","ios":"levelo://app?vid=81421012-561a-45b1-b8b2-9b18559a56db"},"vehicle_type_id":"4","last_reported":1708258263,"current_range_meters":14400,"station_id":"ce4bhr92rcd13ifvqhsg","pricing_plan_id":"cebpf4jnsgd1na2vs0mg"},{"bike_id":"c90e1de2-a680-4ee3-b9b3-8b80202b10da","system_id":"levelo_inurba_marseille","lat":43.337218,"lon":5.39178,"is_reserved":false,"is_disabled":false,"rental_uris":{"android":"levelo://app?vid=c90e1de2-a680-4ee3-b9b3-8b80202b10da","ios":"levelo://app?vid=c90e1de2-a680-4ee3-b9b3-8b80202b10da"},"vehicle_type_id":"4","last_reported":1708258263,"current_range_meters":0,"station_id":"ce4bhr92rcd13ifvqhsg","pricing_plan_id":"cebpf4jnsgd1na2vs0mg"},{"bike_id":"bb068a02-9360-4908-9f26-c34bebbfb287","system_id":"levelo_inurba_marseille","lat":43.33724,"lon":5.3919,"is_reserved":false,"is_disabled":false,"rental_uris":{"android":"levelo://app?vid=bb068a02-9360-4908-9f26-c34bebbfb287","ios":"levelo://app?vid=bb068a02-9360-4908-9f26-c34bebbfb287"},"vehicle_type_id":"4","last_reported":1708258263,"current_range_meters":25200,"station_id":"ce4bhr92rcd13ifvqhsg","pricing_plan_id":"cebpf4jnsgd1na2vs0mg"},{"bike_id":"8cee963b-18d2-4280-ba7c-dcc7212dd015","system_id":"levelo_inurba_marseille","lat":43.297946,"lon":5.404063,"is_reserved":false,"is_disabled":false,"rental_uris":{"android":"levelo://app?vid=8cee963b-18d2-4280-ba7c-dcc7212dd015","ios":"levelo://app?vid=8cee963b-18d2-4280-ba7c-dcc7212dd015"},"vehicle_type_id":"4","last_reported":1708258263,"current_range_meters":16400,"station_id":"ce4bh112rcd13ifvqd90","pricing_plan_id":"cebpf4jnsgd1na2vs0mg"},{"bike_id":"15ff5bec-6947-42c7-a643-4a3e210e7322","system_id":"levelo_inurba_marseille","lat":43.28852,"lon":5.39321,"is_reserved":false,"is_disabled":false,"rental_uris":{"android":"levelo://app?vid=15ff5bec-6947-42c7-a643-4a3e210e7322","ios":"levelo://app?vid=15ff5bec-6947-42c7-a643-4a3e210e7322"},"vehicle_type_id":"4","last_reported":1708258263,"current_range_meters":0,"station_id":"ce4bh2p2rcd13ifvqdi0","pricing_plan_id":"cebpf4jnsgd1na2vs0mg"},{"bike_id":"3a4ad94b-7651-4485-95ec-b3de55080366","system_id":"levelo_inurba_marseille","lat":43.32394,"lon":5.40657,"is_reserved":false,"is_disabled":false,"rental_uris":{"android":"levelo://app?vid=3a4ad94b-7651-4485-95ec-b3de55080366","ios":"levelo://app?vid=3a4ad94b-7651-4485-95ec-b3de55080366"},"vehicle_type_id":"4","last_reported":1708258263,"current_range_meters":12400,"station_id":"","pricing_plan_id":"cebpf4jnsgd1na2vs0mg"},{"bike_id":"9cda23e4-0d49-43c9-b2ee-b52754443287","system_id":"levelo_inurba_marseille","lat":43.283494,"lon":5.380945,"is_reserved":false,"is_disabled":false,"rental_uris":{"android":"levelo://app?vid=9cda23e4-0d49-43c9-b2ee-b52754443287","ios":"levelo://app?vid=9cda23e4-0d49-43c9-b2ee-b52754443287"},"vehicle_type_id":"4","last_reported":1708258263,"current_range_meters":0,"station_id":"ce4bh412rcd13ifvqdr0","pricing_plan_id":"cebpf4jnsgd1na2vs0mg"},{"bike_id":"7184f236-1af8-427a-9755-86bff0e2517b","system_id":"levelo_inurba_marseille","lat":43.284219,"lon":5.3497,"is_reserved":false,"is_disabled":false,"rental_uris":{"android":"levelo://app?vid=7184f236-1af8-427a-9755-86bff0e2517b","ios":"levelo://app?vid=7184f236-1af8-427a-9755-86bff0e2517b"},"vehicle_type_id":"4","last_reported":1708258263,"current_range_meters":0,"station_id":"ce4bhbh2rcd13ifvqepg","pricing_plan_id":"cebpf4jnsgd1na2vs0mg"},{"bike_id":"fbf41d03-0209-46f4-9308-27c3b03c8839","system_id":"levelo_inurba_marseille","lat":43.284313,"lon":5.349902,"is_reserved":false,"is_disabled":false,"rental_uris":{"android":"levelo://app?vid=fbf41d03-0209-46f4-9308-27c3b03c8839","ios":"levelo://app?vid=fbf41d03-0209-46f4-9308-27c3b03c8839"},"vehicle_type_id":"4","last_reported":1708258263,"current_range_meters":30000,"station_id":"ce4bhbh2rcd13ifvqepg","pricing_plan_id":"cebpf4jnsgd1na2vs0mg"},{"bike_id":"a013a2aa-2c75-413d-b3b9-67b80e52dfdb","system_id":"levelo_inurba_marseille","lat":43.284219,"lon":5.3497,"is_reserved":false,"is_disabled":false,"rental_uris":{"android":"levelo://app?vid=a013a2aa-2c75-413d-b3b9-67b80e52dfdb","ios":"levelo://app?vid=a013a2aa-2c75-413d-b3b9-67b80e52dfdb"},"vehicle_type_id":"4","last_reported":1708258263,"current_range_meters":22800,"station_id":"ce4bhbh2rcd13ifvqepg","pricing_plan_id":"cebpf4jnsgd1na2vs0mg"},{"bike_id":"d8728e74-5666-4d7b-b209-21516055e6c8","system_id":"levelo_inurba_marseille","lat":43.283494,"lon":5.380945,"is_reserved":false,"is_disabled":false,"rental_uris":{"android":"levelo://app?vid=d8728e74-5666-4d7b-b209-21516055e6c8","ios":"levelo://app?vid=d8728e74-5666-4d7b-b209-21516055e6c8"},"vehicle_type_id":"4","last_reported":1708258263,"current_range_meters":17200,"station_id":"ce4bh412rcd13ifvqdr0","pricing_plan_id":"cebpf4jnsgd1na2vs0mg"},{"bike_id":"d7550baa-24fc-4ead-9104-c12a17f09fd3","system_id":"levelo_inurba_marseille","lat":43.284219,"lon":5.3497,"is_reserved":false,"is_disabled":false,"rental_uris":{"android":"levelo://app?vid=d7550baa-24fc-4ead-9104-c12a17f09fd3","ios":"levelo://app?vid=d7550baa-24fc-4ead-9104-c12a17f09fd3"},"vehicle_type_id":"4","last_reported":1708258263,"current_range_meters":12400,"station_id":"ce4bhbh2rcd13ifvqepg","pricing_plan_id":"cebpf4jnsgd1na2vs0mg"},{"bike_id":"02b290e9-dab8-4a3b-8866-c342cf96021f","system_id":"levelo_inurba_marseille","lat":43.284219,"lon":5.3497,"is_reserved":false,"is_disabled":false,"rental_uris":{"android":"levelo://app?vid=02b290e9-dab8-4a3b-8866-c342cf96021f","ios":"levelo://app?vid=02b290e9-dab8-4a3b-8866-c342cf96021f"},"vehicle_type_id":"4","last_reported":1708258263,"current_range_meters":17600,"station_id":"ce4bhbh2rcd13ifvqepg","pricing_plan_id":"cebpf4jnsgd1na2vs0mg"},{"bike_id":"6f0725f2-4b18-4c97-88b0-ac1097cc4450","system_id":"levelo_inurba_marseille","lat":43.28424,"lon":5.34997,"is_reserved":false,"is_disabled":false,"rental_uris":{"android":"levelo://app?vid=6f0725f2-4b18-4c97-88b0-ac1097cc4450","ios":"levelo://app?vid=6f0725f2-4b18-4c97-88b0-ac1097cc4450"},"vehicle_type_id":"4","last_reported":1708258263,"current_range_meters":16000,"station_id":"ce4bhbh2rcd13ifvqepg","pricing_plan_id":"cebpf4jnsgd1na2vs0mg"},{"bike_id":"0c7d3bd0-8143-498e-8cab-fbd9f32bddbe","system_id":"levelo_inurba_marseille","lat":43.284217,"lon":5.349697,"is_reserved":false,"is_disabled":false,"rental_uris":{"android":"levelo://app?vid=0c7d3bd0-8143-498e-8cab-fbd9f32bddbe","ios":"levelo://app?vid=0c7d3bd0-8143-498e-8cab-fbd9f32bddbe"},"vehicle_type_id":"4","last_reported":1708258263,"current_range_meters":19600,"station_id":"ce4bhbh2rcd13ifvqepg","pricing_plan_id":"cebpf4jnsgd1na2vs0mg"},{"bike_id":"ff728e5f-37e4-41d8-b80a-848010c26ef9","system_id":"levelo_inurba_marseille","lat":43.284217,"lon":5.349697,"is_reserved":false,"is_disabled":false,"rental_uris":{"android":"levelo://app?vid=ff728e5f-37e4-41d8-b80a-848010c26ef9","ios":"levelo://app?vid=ff728e5f-37e4-41d8-b80a-848010c26ef9"},"vehicle_type_id":"4","last_reported":1708258263,"current_range_meters":21200,"station_id":"ce4bhbh2rcd13ifvqepg","pricing_plan_id":"cebpf4jnsgd1na2vs0mg"},{"bike_id":"3652f096-1b99-4132-888d-ea3882814930","system_id":"levelo_inurba_marseille","lat":43.284219,"lon":5.3497,"is_reserved":false,"is_disabled":false,"rental_uris":{"android":"levelo://app?vid=3652f096-1b99-4132-888d-ea3882814930","ios":"levelo://app?vid=3652f096-1b99-4132-888d-ea3882814930"},"vehicle_type_id":"4","last_reported":1708258263,"current_range_meters":22000,"station_id":"ce4bhbh2rcd13ifvqepg","pricing_plan_id":"cebpf4jnsgd1na2vs0mg"},{"bike_id":"471583c0-51c9-4dc4-881a-3702b6d5ed8e","system_id":"levelo_inurba_marseille","lat":43.28423,"lon":5.3498,"is_reserved":false,"is_disabled":false,"rental_uris":{"android":"levelo://app?vid=471583c0-51c9-4dc4-881a-3702b6d5ed8e","ios":"levelo://app?vid=471583c0-51c9-4dc4-881a-3702b6d5ed8e"},"vehicle_type_id":"4","last_reported":1708258263,"current_range_meters":4400,"station_id":"ce4bhbh2rcd13ifvqepg","pricing_plan_id":"cebpf4jnsgd1na2vs0mg"},{"bike_id":"ac2f45d9-eb28-4d87-9eab-08356c46e733","system_id":"levelo_inurba_marseille","lat":43.284214,"lon":5.349706,"is_reserved":false,"is_disabled":false,"rental_uris":{"android":"levelo://app?vid=ac2f45d9-eb28-4d87-9eab-08356c46e733","ios":"levelo://app?vid=ac2f45d9-eb28-4d87-9eab-08356c46e733"},"vehicle_type_id":"4","last_reported":1708258263,"current_range_meters":15600,"station_id":"ce4bhbh2rcd13ifvqepg","pricing_plan_id":"cebpf4jnsgd1na2vs0mg"},{"bike_id":"751a258b-48c5-4edf-b570-195889e41052","system_id":"levelo_inurba_marseille","lat":43.284214,"lon":5.349706,"is_reserved":false,"is_disabled":false,"rental_uris":{"android":"levelo://app?vid=751a258b-48c5-4edf-b570-195889e41052","ios":"levelo://app?vid=751a258b-48c5-4edf-b570-195889e41052"},"vehicle_type_id":"4","last_reported":1708258263,"current_range_meters":28000,"station_id":"ce4bhbh2rcd13ifvqepg","pricing_plan_id":"cebpf4jnsgd1na2vs0mg"},{"bike_id":"ae54c40c-fd4b-49a1-bd1b-1b690e5216a5","system_id":"levelo_inurba_marseille","lat":43.284219,"lon":5.3497,"is_reserved":false,"is_disabled":false,"rental_uris":{"android":"levelo://app?vid=ae54c40c-fd4b-49a1-bd1b-1b690e5216a5","ios":"levelo://app?vid=ae54c40c-fd4b-49a1-bd1b-1b690e5216a5"},"vehicle_type_id":"4","last_reported":1708258263,"current_range_meters":26000,"station_id":"ce4bhbh2rcd13ifvqepg","pricing_plan_id":"cebpf4jnsgd1na2vs0mg"},{"bike_id":"aa96e053-018c-442b-8eb1-c61f77bd3674","system_id":"levelo_inurba_marseille","lat":43.284219,"lon":5.3497,"is_reserved":false,"is_disabled":false,"rental_uris":{"android":"levelo://app?vid=aa96e053-018c-442b-8eb1-c61f77bd3674","ios":"levelo://app?vid=aa96e053-018c-442b-8eb1-c61f77bd3674"},"vehicle_type_id":"4","last_reported":1708258263,"current_range_meters":10800,"station_id":"ce4bhbh2rcd13ifvqepg","pricing_plan_id":"cebpf4jnsgd1na2vs0mg"},{"bike_id":"69d03a92-e334-4ce3-ae43-b5fd13ebaaf1","system_id":"levelo_inurba_marseille","lat":43.284217,"lon":5.349697,"is_reserved":false,"is_disabled":false,"rental_uris":{"android":"levelo://app?vid=69d03a92-e334-4ce3-ae43-b5fd13ebaaf1","ios":"levelo://app?vid=69d03a92-e334-4ce3-ae43-b5fd13ebaaf1"},