{"last_updated":1746029529,"ttl":60,"version":"2.2","data":{"bikes":[{"bike_id":"3ad48726-8c5b-4be3-a77e-579f9a44b449","system_id":"levelo_inurba_marseille","lat":43.31034,"lon":5.37902,"is_reserved":false,"is_disabled":false,"rental_uris":{"android":"levelo://app?vid=3ad48726-8c5b-4be3-a77e-579f9a44b449","ios":"levelo://app?vid=3ad48726-8c5b-4be3-a77e-579f9a44b449"},"vehicle_type_id":"4","last_reported":1746029529,"current_range_meters":2800,"station_id":"","pricing_plan_id":"cebpf4jnsgd1na2vs0mg"},{"bike_id":"af9a48e2-1028-4021-8da6-7fca0530b855","system_id":"levelo_inurba_marseille","lat":43.286805,"lon":5.386606,"is_reserved":false,"is_disabled":false,"rental_uris":{"android":"levelo://app?vid=af9a48e2-1028-4021-8da6-7fca0530b855","ios":"levelo://app?vid=af9a48e2-1028-4021-8da6-7fca0530b855"},"vehicle_type_id":"4","last_reported":1746029529,"current_range_meters":2800,"station_id":"ce4bh492rcd13ifvqdug","pricing_plan_id":"cebpf4jnsgd1na2vs0mg"},{"bike_id":"3ede1b88-e5fa-4274-8729-5167fb236efb","system_id":"levelo_inurba_marseille","lat":43.27905,"lon":5.38014,"is_reserved":false,"is_disabled":false,"rental_uris":{"android":"levelo://app?vid=3ede1b88-e5fa-4274-8729-5167fb236efb","ios":"levelo://app?vid=3ede1b88-e5fa-4274-8729-5167fb236efb"},"vehicle_type_id":"4","last_reported":1746029529,"current_range_meters":2800,"station_id":"ce4bhf92rcd13ifvqf50","pricing_plan_id":"cebpf4jnsgd1na2vs0mg"},{"bike_id":"0ecb4927-bf50-454d-952f-05b96f797145","system_id":"levelo_inurba_marseille","lat":43.25825,"lon":5.39466,"is_reserved":false,"is_disabled":false,"rental_uris":{"android":"levelo://app?vid=0ecb4927-bf50-454d-952f-05b96f797145","ios":"levelo://app?vid=0ecb4927-bf50-454d-952f-05b96f797145"},"vehicle_type_id":"4","last_reported":1746029529,"current_range_meters":2800,"station_id":"ce4bhip2rcd13ifvqft0","pricing_plan_id":"cebpf4jnsgd1na2vs0mg"},{"bike_id":"5b2903b0-98d4-4a2a-b4dc-097157a1121f","system_id":"levelo_inurba_marseille","lat":43.23963,"lon":5.36626,"is_reserved":false,"is_disabled":false,"rental_uris":{"android":"levelo://app?vid=5b2903b0-98d4-4a2a-b4dc-097157a1121f","ios":"levelo://app?vid=5b2903b0-98d4-4a2a-b4dc-097157a1121f"},"vehicle_type_id":"4","last_reported":1746029529,"current_range_meters":2800,"station_id":"ce4bhi12rcd13ifvqfp0","pricing_plan_id":"cebpf4jnsgd1na2vs0mg"},{"bike_id":"606de47a-af8b-4ef4-a05c-c3be080d43d0","system_id":"levelo_inurba_marseille","lat":43.28009,"lon":5.41652,"is_reserved":false,"is_disabled":false,"rental_uris":{"android":"levelo://app?vid=606de47a-af8b-4ef4-a05c-c3be080d43d0","ios":"levelo://app?vid=606de47a-af8b-4ef4-a05c-c3be080d43d0"},"vehicle_type_id":"4","last_reported":1746029529,"current_range_meters":2800,"station_id":"ce4bho12rcd13ifvqh1g","pricing_plan_id":"cebpf4jnsgd1na2vs0mg"},{"bike_id":"1ca5888f-821e-41db-adb7-971ef783f8d3","system_id":"levelo_inurba_marseille","lat":43.27214,"lon":5.39188,"is_reserved":false,"is_disabled":false,"rental_uris":{"android":"levelo://app?vid=1ca5888f-821e-41db-adb7-971ef783f8d3","ios":"levelo://app?vid=1ca5888f-821e-41db-adb7-971ef783f8d3"},"vehicle_type_id":"4","last_reported":1746029529,"current_range_meters":2800,"station_id":"ce4bhhp2rcd13ifvqfm0","pricing_plan_id":"cebpf4jnsgd1na2vs0mg"},{"bike_id":"f1e3c12a-02a3-4893-b9e1-1aacd74f3f49","system_id":"levelo_inurba_marseille","lat":43.321125,"lon":5.36768,"is_reserved":false,"is_disabled":true,"rental_uris":{"android":"levelo://app?vid=f1e3c12a-02a3-4893-b9e1-1aacd74f3f49","ios":"levelo://app?vid=f1e3c12a-02a3-4893-b9e1-1aacd74f3f49"},"vehicle_type_id":"4","last_reported":1746029529,"current_range_meters":3200,"station_id":"ce4bhrh2rcd13ifvqhug","pricing_plan_id":"cebpf4jnsgd1na2vs0mg"},{"bike_id":"31da7cd4-e000-4643-8d20-243e3d20f854","system_id":"levelo_inurba_marseille","lat":43.2958,"lon":5.36739,"is_reserved":false,"is_disabled":false,"rental_uris":{"android":"levelo://app?vid=31da7cd4-e000-4643-8d20-243e3d20f854","ios":"levelo://app?vid=31da7cd4-e000-4643-8d20-243e3d20f854"},"vehicle_type_id":"4","last_reported":1746029529,"current_range_meters":3200,"station_id":"ce4bgph2rcd13ifvqc2g","pricing_plan_id":"cebpf4jnsgd1na2vs0mg"},{"bike_id":"e5b4b90d-e268-4de2-98f4-f6d0513f8801","system_id":"levelo_inurba_marseille","lat":43.26544,"lon":5.42216,"is_reserved":false,"is_disabled":false,"rental_uris":{"android":"levelo://app?vid=e5b4b90d-e268-4de2-98f4-f6d0513f8801","ios":"levelo://app?vid=e5b4b90d-e268-4de2-98f4-f6d0513f8801"},"vehicle_type_id":"4","last_reported":1746029529,"current_range_meters":3200,"station_id":"","pricing_plan_id":"cebpf4jnsgd1na2vs0mg"},{"bike_id":"60db4952-1cbe-4836-8931-958a70c97da9","system_id":"levelo_inurba_marseille","lat":43.29893,"lon":5.38154,"is_reserved":false,"is_disabled":false,"rental_uris":{"android":"levelo://app?vid=60db4952-1cbe-4836-8931-958a70c97da9","ios":"levelo://app?vid=60db4952-1cbe-4836-8931-958a70c97da9"},"vehicle_type_id":"4","last_reported":1746029529,"current_range_meters":3200,"station_id":"ce4bgj12rcd13ifvqbc0","pricing_plan_id":"cebpf4jnsgd1na2vs0mg"},{"bike_id":"cab713af-c5d7-4a24-9575-73d969339424","system_id":"levelo_inurba_marseille","lat":43.300903,"lon":5.390802,"is_reserved":false,"is_disabled":false,"rental_uris":{"android":"levelo://app?vid=cab713af-c5d7-4a24-9575-73d969339424","ios":"levelo://app?vid=cab713af-c5d7-4a24-9575-73d969339424"},"vehicle_type_id":"4","last_reported":1746029529,"current_range_meters":2800,"station_id":"ce4bh192rcd13ifvqdb0","pricing_plan_id":"cebpf4jnsgd1na2vs0mg"},{"bike_id":"d714f707-0915-445e-8011-f81cc7f40265","system_id":"levelo_inurba_marseille","lat":43.29622,"lon":5.3715,"is_reserved":false,"is_disabled":false,"rental_uris":{"android":"levelo://app?vid=d714f707-0915-445e-8011-f81cc7f40265","ios":"levelo://app?vid=d714f707-0915-445e-8011-f81cc7f40265"},"vehicle_type_id":"4","last_reported":1746029529,"current_range_meters":3600,"station_id":"ce4bgnh2rcd13ifvqc0g","pricing_plan_id":"cebpf4jnsgd1na2vs0mg"},{"bike_id":"b01a7e2b-c9f1-4ac2-a255-3ec190f6b2dc","system_id":"levelo_inurba_marseille","lat":43.241795,"lon":5.363955,"is_reserved":false,"is_disabled":false,"rental_uris":{"android":"levelo://app?vid=b01a7e2b-c9f1-4ac2-a255-3ec190f6b2dc","ios":"levelo://app?vid=b01a7e2b-c9f1-4ac2-a255-3ec190f6b2dc"},"vehicle_type_id":"4","last_reported":1746029529,"current_range_meters":3600,"station_id":"cpo36qri1sfpv3e86is0","pricing_plan_id":"cebpf4jnsgd1na2vs0mg"},{"bike_id":"3aebe754-ce42-42eb-9279-e789af79ffb5","system_id":"levelo_inurba_marseille","lat":43.29676,"lon":5.37276,"is_reserved":false,"is_disabled":false,"rental_uris":{"android":"levelo://app?vid=3aebe754-ce42-42eb-9279-e789af79ffb5","ios":"levelo://app?vid=3aebe754-ce42-42eb-9279-e789af79ffb5"},"vehicle_type_id":"4","last_reported":1746029529,"current_range_meters":3600,"station_id":"ce4bgk12rcd13ifvqbj0","pricing_plan_id":"cebpf4jnsgd1na2vs0mg"},{"bike_id":"8e9e3654-7ff1-4452-aa72-44c08418f7e9","system_id":"levelo_inurba_marseille","lat":43.29639,"lon":5.406,"is_reserved":false,"is_disabled":false,"rental_uris":{"android":"levelo://app?vid=8e9e3654-7ff1-4452-aa72-44c08418f7e9","ios":"levelo://app?vid=8e9e3654-7ff1-4452-aa72-44c08418f7e9"},"vehicle_type_id":"4","last_reported":1746029529,"current_range_meters":3600,"station_id":"ce4bh0h2rcd13ifvqd60","pricing_plan_id":"cebpf4jnsgd1na2vs0mg"},{"bike_id":"481b13a3-a016-4a71-99a0-6a0c0606526d","system_id":"levelo_inurba_marseille","lat":43.29622,"lon":5.37152,"is_reserved":false,"is_disabled":false,"rental_uris":{"android":"levelo://app?vid=481b13a3-a016-4a71-99a0-6a0c0606526d","ios":"levelo://app?vid=481b13a3-a016-4a71-99a0-6a0c0606526d"},"vehicle_type_id":"4","last_reported":1746029529,"current_range_meters":3600,"station_id":"ce4bgnh2rcd13ifvqc0g","pricing_plan_id":"cebpf4jnsgd1na2vs0mg"},{"bike_id":"efe3108e-102d-447a-9162-39596fcb474e","system_id":"levelo_inurba_marseille","lat":43.27172,"lon":5.41002,"is_reserved":false,"is_disabled":false,"rental_uris":{"android":"levelo://app?vid=efe3108e-102d-447a-9162-39596fcb474e","ios":"levelo://app?vid=efe3108e-102d-447a-9162-39596fcb474e"},"vehicle_type_id":"4","last_reported":1746029529,"current_range_meters":4000,"station_id":"ce4bhl12rcd13ifvqgf0","pricing_plan_id":"cebpf4jnsgd1na2vs0mg"},{"bike_id":"580af21a-060f-4902-abbe-e1e6a788abfb","system_id":"levelo_inurba_marseille","lat":43.31528,"lon":5.38033,"is_reserved":false,"is_disabled":false,"rental_uris":{"android":"levelo://app?vid=580af21a-060f-4902-abbe-e1e6a788abfb","ios":"levelo://app?vid=580af21a-060f-4902-abbe-e1e6a788abfb"},"vehicle_type_id":"4","last_reported":1746029529,"current_range_meters":4000,"station_id":"ce4bhsp2rcd13ifvqi50","pricing_plan_id":"cebpf4jnsgd1na2vs0mg"},{"bike_id":"7edb3a6e-6020-4047-859f-4c81ec458d86","system_id":"levelo_inurba_marseille","lat":43.33022,"lon":5.39039,"is_reserved":false,"is_disabled":false,"rental_uris":{"android":"levelo://app?vid=7edb3a6e-6020-4047-859f-4c81ec458d86","ios":"levelo://app?vid=7edb3a6e-6020-4047-859f-4c81ec458d86"},"vehicle_type_id":"4","last_reported":1746029529,"current_range_meters":4400,"station_id":"ce4bhr92rcd13ifvqhrg","pricing_plan_id":"cebpf4jnsgd1na2vs0mg"},{"bike_id":"d828880f-7186-4236-99d1-e9b0e6485b62","system_id":"levelo_inurba_marseille","lat":43.29199,"lon":5.35816,"is_reserved":false,"is_disabled":false,"rental_uris":{"android":"levelo://app?vid=d828880f-7186-4236-99d1-e9b0e6485b62","ios":"levelo://app?vid=d828880f-7186-4236-99d1-e9b0e6485b62"},"vehicle_type_id":"4","last_reported":1746029529,"current_range_meters":4400,"station_id":"ce4bhb12rcd13ifvqel0","pricing_plan_id":"cebpf4jnsgd1na2vs0mg"},{"bike_id":"beccd19b-2f60-41f2-be89-e5b67b89f53e","system_id":"levelo_inurba_marseille","lat":43.30728,"lon":5.42453,"is_reserved":false,"is_disabled":false,"rental_uris":{"android":"levelo://app?vid=beccd19b-2f60-41f2-be89-e5b67b89f53e","ios":"levelo://app?vid=beccd19b-2f60-41f2-be89-e5b67b89f53e"},"vehicle_type_id":"4","last_reported":1746029529,"current_range_meters":4400,"station_id":"st_cvj6ca6bvosntc0bfgr0","pricing_plan_id":"cebpf4jnsgd1na2vs0mg"},{"bike_id":"7003e1d5-1463-4fa2-b5ec-2ff4ec6f5e3f","system_id":"levelo_inurba_marseille","lat":43.31381,"lon":5.3672,"is_reserved":false,"is_disabled":true,"rental_uris":{"android":"levelo://app?vid=7003e1d5-1463-4fa2-b5ec-2ff4ec6f5e3f","ios":"levelo://app?vid=7003e1d5-1463-4fa2-b5ec-2ff4ec6f5e3f"},"vehicle_type_id":"4","last_reported":1746029529,"current_range_meters":4400,"station_id":"ce4bgr92rcd13ifvqc6g","pricing_plan_id":"cebpf4jnsgd1na2vs0mg"},{"bike_id":"c3ccb954-ced3-4163-9867-7cfff0ce2aa6","system_id":"levelo_inurba_marseille","lat":43.31494,"lon":5.37198,"is_reserved":false,"is_disabled":false,"rental_uris":{"android":"levelo://app?vid=c3ccb954-ced3-4163-9867-7cfff0ce2aa6","ios":"levelo://app?vid=c3ccb954-ced3-4163-9867-7cfff0ce2aa6"},"vehicle_type_id":"4","last_reported":1746029529,"current_range_meters":4800,"station_id":"","pricing_plan_id":"cebpf4jnsgd1na2vs0mg"},{"bike_id":"eb7ccd8d-6355-4d55-8863-97338fd311f7","system_id":"levelo_inurba_marseille","lat":43.28427,"lon":5.34983,"is_reserved":false,"is_disabled":false,"rental_uris":{"android":"levelo://app?vid=eb7ccd8d-6355-4d55-8863-97338fd311f7","ios":"levelo://app?vid=eb7ccd8d-6355-4d55-8863-97338fd311f7"},"vehicle_type_id":"4","last_reported":1746029529,"current_range_meters":4800,"station_id":"ce4bhbh2rcd13ifvqepg","pricing_plan_id":"cebpf4jnsgd1na2vs0mg"},{"bike_id":"74546961-69fb-40ce-99e7-0f29579f287a","system_id":"levelo_inurba_marseille","lat":43.30556,"lon":5.36568,"is_reserved":false,"is_disabled":false,"rental_uris":{"android":"levelo://app?vid=74546961-69fb-40ce-99e7-0f29579f287a","ios":"levelo://app?vid=74546961-69fb-40ce-99e7-0f29579f287a"},"vehicle_type_id":"4","last_reported":1746029529,"current_range_meters":6800,"station_id":"ce4bgs12rcd13ifvqcag","pricing_plan_id":"cebpf4jnsgd1na2vs0mg"},{"bike_id":"18f85f3e-d187-4724-bcac-7774bf71a783","system_id":"levelo_inurba_marseille","lat":43.224991,"lon":5.348042,"is_reserved":false,"is_disabled":false,"rental_uris":{"android":"levelo://app?vid=18f85f3e-d187-4724-bcac-7774bf71a783","ios":"levelo://app?vid=18f85f3e-d187-4724-bcac-7774bf71a783"},"vehicle_type_id":"4","last_reported":1746029529,"current_range_meters":4800,"station_id":"","pricing_plan_id":"cebpf4jnsgd1na2vs0mg"},{"bike_id":"71924328-ac09-4bfd-b88a-c6aa543fe473","system_id":"levelo_inurba_marseille","lat":43.23963,"lon":5.36633,"is_reserved":false,"is_disabled":false,"rental_uris":{"android":"levelo://app?vid=71924328-ac09-4bfd-b88a-c6aa543fe473","ios":"levelo://app?vid=71924328-ac09-4bfd-b88a-c6aa543fe473"},"vehicle_type_id":"4","last_reported":1746029529,"current_range_meters":4800,"station_id":"ce4bhi12rcd13ifvqfp0","pricing_plan_id":"cebpf4jnsgd1na2vs0mg"},{"bike_id":"d4e91ba0-b3cd-47a5-a684-98bb6acf1fec","system_id":"levelo_inurba_marseille","lat":43.24664,"lon":5.3817,"is_reserved":false,"is_disabled":false,"rental_uris":{"android":"levelo://app?vid=d4e91ba0-b3cd-47a5-a684-98bb6acf1fec","ios":"levelo://app?vid=d4e91ba0-b3cd-47a5-a684-98bb6acf1fec"},"vehicle_type_id":"4","last_reported":1746029529,"current_range_meters":4400,"station_id":"ce4bhih2rcd13ifvqfr0","pricing_plan_id":"cebpf4jnsgd1na2vs0mg"},{"bike_id":"64d63222-012a-4317-890d-d12ab4aae1ad","system_id":"levelo_inurba_marseille","lat":43.28108,"lon":5.37841,"is_reserved":false,"is_disabled":false,"rental_uris":{"android":"levelo://app?vid=64d63222-012a-4317-890d-d12ab4aae1ad","ios":"levelo://app?vid=64d63222-012a-4317-890d-d12ab4aae1ad"},"vehicle_type_id":"4","last_reported":1746029529,"current_range_meters":5600,"station_id":"ce4bha12rcd13ifvqee0","pricing_plan_id":"cebpf4jnsgd1na2vs0mg"},{"bike_id":"e5a16adc-0a08-44fe-aad8-b63f28d92ad4","system_id":"levelo_inurba_marseille","lat":43.217515,"lon":5.346002,"is_reserved":false,"is_disabled":false,"rental_uris":{"android":"levelo://app?vid=e5a16adc-0a08-44fe-aad8-b63f28d92ad4","ios":"levelo://app?vid=e5a16adc-0a08-44fe-aad8-b63f28d92ad4"},"vehicle_type_id":"4","last_reported":1746029529,"current_range_meters":5600,"station_id":"","pricing_plan_id":"cebpf4jnsgd1na2vs0mg"},{"bike_id":"379710c0-f530-46fa-b4f3-2d5d8192c18d","system_id":"levelo_inurba_marseille","lat":43.30905,"lon":5.36839,"is_reserved":false,"is_disabled":false,"rental_uris":{"android":"levelo://app?vid=379710c0-f530-46fa-b4f3-2d5d8192c18d","ios":"levelo://app?vid=379710c0-f530-46fa-b4f3-2d5d8192c18d"},"vehicle_type_id":"4","last_reported":1746029529,"current_range_meters":4800,"station_id":"ce4bgn92rcd13ifvqbvg","pricing_plan_id":"cebpf4jnsgd1na2vs0mg"},{"bike_id":"f0bf2327-ec78-4dac-a478-2a9b32ef8fae","system_id":"levelo_inurba_marseille","lat":43.28568,"lon":5.39507,"is_reserved":false,"is_disabled":false,"rental_uris":{"android":"levelo://app?vid=f0bf2327-ec78-4dac-a478-2a9b32ef8fae","ios":"levelo://app?vid=f0bf2327-ec78-4dac-a478-2a9b32ef8fae"},"vehicle_type_id":"4","last_reported":1746029529,"current_range_meters":5600,"station_id":"ce4bh292rcd13ifvqdg0","pricing_plan_id":"cebpf4jnsgd1na2vs0mg"},{"bike_id":"3d40daaf-a0fa-40ce-8872-2b084d61588b","system_id":"levelo_inurba_marseille","lat":43.29793,"lon":5.38094,"is_reserved":false,"is_disabled":true,"rental_uris":{"android":"levelo://app?vid=3d40daaf-a0fa-40ce-8872-2b084d61588b","ios":"levelo://app?vid=3d40daaf-a0fa-40ce-8872-2b084d61588b"},"vehicle_type_id":"4","last_reported":1746029529,"current_range_meters":5600,"station_id":"ce4bgip2rcd13ifvqbb0","pricing_plan_id":"cebpf4jnsgd1na2vs0mg"},{"bike_id":"2b30dc8b-94a9-436f-9c6d-e5edb12c2103","system_id":"levelo_inurba_marseille","lat":43.30817,"lon":5.38166,"is_reserved":false,"is_disabled":false,"rental_uris":{"android":"levelo://app?vid=2b30dc8b-94a9-436f-9c6d-e5edb12c2103","ios":"levelo://app?vid=2b30dc8b-94a9-436f-9c6d-e5edb12c2103"},"vehicle_type_id":"4","last_reported":1746029529,"current_range_meters":5600,"station_id":"ce4bgt12rcd13ifvqce0","pricing_plan_id":"cebpf4jnsgd1na2vs0mg"},{"bike_id":"94af7832-3f72-461f-ad66-95fd839ef8ab","system_id":"levelo_inurba_marseille","lat":43.29518,"lon":5.3903,"is_reserved":false,"is_disabled":false,"rental_uris":{"android":"levelo://app?vid=94af7832-3f72-461f-ad66-95fd839ef8ab","ios":"levelo://app?vid=94af7832-3f72-461f-ad66-95fd839ef8ab"},"vehicle_type_id":"4","last_reported":1746029529,"current_range_meters":6000,"station_id":"ce4bh3p2rcd13ifvqdp0","pricing_plan_id":"cebpf4jnsgd1na2vs0mg"},{"bike_id":"af197976-147b-4722-88b5-c85e3c75729b","system_id":"levelo_inurba_marseille","lat":43.268055,"lon":5.402583,"is_reserved":false,"is_disabled":false,"rental_uris":{"android":"levelo://app?vid=af197976-147b-4722-88b5-c85e3c75729b","ios":"levelo://app?vid=af197976-147b-4722-88b5-c85e3c75729b"},"vehicle_type_id":"4","last_reported":1746029529,"current_range_meters":6000,"station_id":"ce501612rcd8frsf0b60","pricing_plan_id":"cebpf4jnsgd1na2vs0mg"},{"bike_id":"0965daad-3f57-4661-8dc0-1010ff7ebcf2","system_id":"levelo_inurba_marseille","lat":43.28475,"lon":5.38425,"is_reserved":false,"is_disabled":false,"rental_uris":{"android":"levelo://app?vid=0965daad-3f57-4661-8dc0-1010ff7ebcf2","ios":"levelo://app?vid=0965daad-3f57-4661-8dc0-1010ff7ebcf2"},"vehicle_type_id":"4","last_reported":1746029529,"current_range_meters":6400,"station_id":"ce4bh512rcd13ifvqe3g","pricing_plan_id":"cebpf4jnsgd1na2vs0mg"},{"bike_id":"dba6a57d-a770-4ee9-b599-f66d2e594983","system_id":"levelo_inurba_marseille","lat":43.28083,"lon":5.39655,"is_reserved":false,"is_disabled":false,"rental_uris":{"android":"levelo://app?vid=dba6a57d-a770-4ee9-b599-f66d2e594983","ios":"levelo://app?vid=dba6a57d-a770-4ee9-b599-f66d2e594983"},"vehicle_type_id":"4","last_reported":1746029529,"current_range_meters":6400,"station_id":"ce4bho12rcd13ifvqh2g","pricing_plan_id":"cebpf4jnsgd1na2vs0mg"},{"bike_id":"7783e9c0-a683-4d26-b3cb-5d2cbeb3bb81","system_id":"levelo_inurba_marseille","lat":43.24178,"lon":5.36408,"is_reserved":false,"is_disabled":true,"rental_uris":{"android":"levelo://app?vid=7783e9c0-a683-4d26-b3cb-5d2cbeb3bb81","ios":"levelo://app?vid=7783e9c0-a683-4d26-b3cb-5d2cbeb3bb81"},"vehicle_type_id":"4","last_reported":1746029529,"current_range_meters":6400,"station_id":"cpo36qri1sfpv3e86is0","pricing_plan_id":"cebpf4jnsgd1na2vs0mg"},{"bike_id":"da10cc5e-c5c4-40ca-808d-a00858d3765d","system_id":"levelo_inurba_marseille","lat":43.2756,"lon":5.38435,"is_reserved":false,"is_disabled":false,"rental_uris":{"android":"levelo://app?vid=da10cc5e-c5c4-40ca-808d-a00858d3765d","ios":"levelo://app?vid=da10cc5e-c5c4-40ca-808d-a00858d3765d"},"vehicle_type_id":"4","last_reported":1746029529,"current_range_meters":6400,"station_id":"ce4bhh92rcd13ifvqfi0","pricing_plan_id":"cebpf4jnsgd1na2vs0mg"},{"bike_id":"48c5b23a-48c8-416c-bd93-0d6f5735bdac","system_id":"levelo_inurba_marseille","lat":43.24809,"lon":5.37456,"is_reserved":false,"is_disabled":false,"rental_uris":{"android":"levelo://app?vid=48c5b23a-48c8-416c-bd93-0d6f5735bdac","ios":"levelo://app?vid=48c5b23a-48c8-416c-bd93-0d6f5735bdac"},"vehicle_type_id":"4","last_reported":1746029529,"current_range_meters":3600,"station_id":"ce4bhgh2rcd13ifvqfb0","pricing_plan_id":"cebpf4jnsgd1na2vs0mg"},{"bike_id":"a0c7ce86-65a2-4a62-8cfd-c127666e82a9","system_id":"levelo_inurba_marseille","lat":43.31333,"lon":5.39695,"is_reserved":false,"is_disabled":false,"rental_uris":{"android":"levelo://app?vid=a0c7ce86-65a2-4a62-8cfd-c127666e82a9","ios":"levelo://app?vid=a0c7ce86-65a2-4a62-8cfd-c127666e82a9"},"vehicle_type_id":"4","last_reported":1746029529,"current_range_meters":6800,"station_id":"ce4bgvp2rcd13ifvqcu0","pricing_plan_id":"cebpf4jnsgd1na2vs0mg"},{"bike_id":"4025acd0-e416-4102-bc24-531ea8f2170b","system_id":"levelo_inurba_marseille","lat":43.2625,"lon":5.40457,"is_reserved":false,"is_disabled":false,"rental_uris":{"android":"levelo://app?vid=4025acd0-e416-4102-bc24-531ea8f2170b","ios":"levelo://app?vid=4025acd0-e416-4102-bc24-531ea8f2170b"},"vehicle_type_id":"4","last_reported":1746029529,"current_range_meters":6800,"station_id":"ce4bhmh2rcd13ifvqgmg","pricing_plan_id":"cebpf4jnsgd1na2vs0mg"},{"bike_id":"65b2c87d-5809-45aa-a364-ac35170591b8","system_id":"levelo_inurba_marseille","lat":43.30945,"lon":5.39013,"is_reserved":false,"is_disabled":true,"rental_uris":{"android":"levelo://app?vid=65b2c87d-5809-45aa-a364-ac35170591b8","ios":"levelo://app?vid=65b2c87d-5809-45aa-a364-ac35170591b8"},"vehicle_type_id":"4","last_reported":1746029529,"current_range_meters":6800,"station_id":"ce4bgup2rcd13ifvqco0","pricing_plan_id":"cebpf4jnsgd1na2vs0mg"},{"bike_id":"92807273-137d-4682-8075-00b5e29b9131","system_id":"levelo_inurba_marseille","lat":43.30355,"lon":5.41895,"is_reserved":false,"is_disabled":false,"rental_uris":{"android":"levelo://app?vid=92807273-137d-4682-8075-00b5e29b9131","ios":"levelo://app?vid=92807273-137d-4682-8075-00b5e29b9131"},"vehicle_type_id":"4","last_reported":1746029529,"current_range_meters":6800,"station_id":"ce4bhop2rcd13ifvqh7g","pricing_plan_id":"cebpf4jnsgd1na2vs0mg"},{"bike_id":"a2b2460e-26b9-48c4-b293-968eabe97011","system_id":"levelo_inurba_marseille","lat":43.27044,"lon":5.40281,"is_reserved":false,"is_disabled":false,"rental_uris":{"android":"levelo://app?vid=a2b2460e-26b9-48c4-b293-968eabe97011","ios":"levelo://app?vid=a2b2460e-26b9-48c4-b293-968eabe97011"},"vehicle_type_id":"4","last_reported":1746029529,"current_range_meters":7200,"station_id":"ce4bhk92rcd13ifvqgc0","pricing_plan_id":"cebpf4jnsgd1na2vs0mg"},{"bike_id":"3a099ec1-7990-4038-9313-3c1f2562a259","system_id":"levelo_inurba_marseille","lat":43.26208,"lon":5.375505,"is_reserved":false,"is_disabled":false,"rental_uris":{"android":"levelo://app?vid=3a099ec1-7990-4038-9313-3c1f2562a259","ios":"levelo://app?vid=3a099ec1-7990-4038-9313-3c1f2562a259"},"vehicle_type_id":"4","last_reported":1746029529,"current_range_meters":7200,"station_id":"","pricing_plan_id":"cebpf4jnsgd1na2vs0mg"},{"bike_id":"8dafa9e1-ad55-4268-b4fd-7cc2c02ad5c8","system_id":"levelo_inurba_marseille","lat":43.28469,"lon":5.3841,"is_reserved":false,"is_disabled":false,"rental_uris":{"android":"levelo://app?vid=8dafa9e1-ad55-4268-b4fd-7cc2c02ad5c8","ios":"levelo://app?vid=8dafa9e1-ad55-4268-b4fd-7cc2c02ad5c8"},"vehicle_type_id":"4","last_reported":1746029529,"current_range_meters":7200,"station_id":"ce4bh512rcd13ifvqe3g","pricing_plan_id":"cebpf4jnsgd1na2vs0mg"},{"bike_id":"529f381f-3b4b-4c13-84f2-4af0ce7ed8e8","system_id":"levelo_inurba_marseille","lat":43.28671,"lon":5.38654,"is_reserved":false,"is_disabled":false,"rental_uris":{"android":"levelo://app?vid=529f381f-3b4b-4c13-84f2-4af0ce7ed8e8","ios":"levelo://app?vid=529f381f-3b4b-4c13-84f2-4af0ce7ed8e8"},"vehicle_type_id":"4","last_reported":1746029529,"current_range_meters":11200,"station_id":"ce4bh492rcd13ifvqdug","pricing_plan_id":"cebpf4jnsgd1na2vs0mg"},{"bike_id":"4fc36c2a-9c73-4ed4-aebe-102bf4e2ca74","system_id":"levelo_inurba_marseille","lat":43.28158,"lon":5.42656,"is_reserved":false,"is_disabled":false,"rental_uris":{"android":"levelo://app?vid=4fc36c2a-9c73-4ed4-aebe-102bf4e2ca74","ios":"levelo://app?vid=4fc36c2a-9c73-4ed4-aebe-102bf4e2ca74"},"vehicle_type_id":"4","last_reported":1746029529,"current_range_meters":8000,"station_id":"ce4bhnh2rcd13ifvqgug","pricing_plan_id":"cebpf4jnsgd1na2vs0mg"},{"bike_id":"0a19ca40-4a02-4e22-9bec-423128a19875","system_id":"levelo_inurba_marseille","lat":43.30159,"lon":5.39911,"is_reserved":false,"is_disabled":false,"rental_uris":{"android":"levelo://app?vid=0a19ca40-4a02-4e22-9bec-423128a19875","ios":"levelo://app?vid=0a19ca40-4a02-4e22-9bec-423128a19875"},"vehicle_type_id":"4","last_reported":1746029529,"current_range_meters":8000,"station_id":"ce4bh0h2rcd13ifvqd40","pricing_plan_id":"cebpf4jnsgd1na2vs0mg"},{"bike_id":"d73fce28-70c1-457c-bfca-fc635424fc3e","system_id":"levelo_inurba_marseille","lat":43.29272,"lon":5.36829,"is_reserved":false,"is_disabled":false,"rental_uris":{"android":"levelo://app?vid=d73fce28-70c1-457c-bfca-fc635424fc3e","ios":"levelo://app?vid=d73fce28-70c1-457c-bfca-fc635424fc3e"},"vehicle_type_id":"4","last_reported":1746029529,"current_range_meters":8000,"station_id":"ce4bhbp2rcd13ifvqesg","pricing_plan_id":"cebpf4jnsgd1na2vs0mg"},{"bike_id":"cb1beb45-f5d1-415f-ae0d-d1e624219c50","system_id":"levelo_inurba_marseille","lat":43.2416,"lon":5.36407,"is_reserved":false,"is_disabled":false,"rental_uris":{"android":"levelo://app?vid=cb1beb45-f5d1-415f-ae0d-d1e624219c50","ios":"levelo://app?vid=cb1beb45-f5d1-415f-ae0d-d1e624219c50"},"vehicle_type_id":"4","last_reported":1746029529,"current_range_meters":8000,"station_id":"cpo36qri1sfpv3e86is0","pricing_plan_id":"cebpf4jnsgd1na2vs0mg"},{"bike_id":"f00bc5e9-1347-4518-a3a6-e439bedf6a90","system_id":"levelo_inurba_marseille","lat":43.23195,"lon":5.35551,"is_reserved":false,"is_disabled":false,"rental_uris":{"android":"levelo://app?vid=f00bc5e9-1347-4518-a3a6-e439bedf6a90","ios":"levelo://app?vid=f00bc5e9-1347-4518-a3a6-e439bedf6a90"},"vehicle_type_id":"4","last_reported":1746029529,"current_range_meters":8000,"station_id":"ce4bhu92rcd13ifvqi70","pricing_plan_id":"cebpf4jnsgd1na2vs0mg"},{"bike_id":"bebe0259-b087-44b1-8ed4-0d2fcbd49240","system_id":"levelo_inurba_marseille","lat":43.29565,"lon":5.39961,"is_reserved":false,"is_disabled":false,"rental_uris":{"android":"levelo://app?vid=bebe0259-b087-44b1-8ed4-0d2fcbd49240","ios":"levelo://app?vid=bebe0259-b087-44b1-8ed4-0d2fcbd49240"},"vehicle_type_id":"4","last_reported":1746029529,"current_range_meters":8000,"station_id":"ce4bh312rcd13ifvqdj0","pricing_plan_id":"cebpf4jnsgd1na2vs0mg"},{"bike_id":"a4f94ddd-7a3a-4482-babd-5e04f7b420f9","system_id":"levelo_inurba_marseille","lat":43.27612,"lon":5.3612,"is_reserved":false,"is_disabled":false,"rental_uris":{"android":"levelo://app?vid=a4f94ddd-7a3a-4482-babd-5e04f7b420f9","ios":"levelo://app?vid=a4f94ddd-7a3a-4482-babd-5e04f7b420f9"},"vehicle_type_id":"4","last_reported":1746029529,"current_range_meters":8000,"station_id":"ce4bgj92rcd13ifvqbe0","pricing_plan_id":"cebpf4jnsgd1na2vs0mg"},{"bike_id":"427ff64c-9532-4089-a868-726d83689f98","system_id":"levelo_inurba_marseille","lat":43.27993,"lon":5.40007,"is_reserved":false,"is_disabled":false,"rental_uris":{"android":"levelo://app?vid=427ff64c-9532-4089-a868-726d83689f98","ios":"levelo://app?vid=427ff64c-9532-4089-a868-726d83689f98"},"vehicle_type_id":"4","last_reported":1746029529,"current_range_meters":6800,"station_id":"ce4bho92rcd13ifvqh4g","pricing_plan_id":"cebpf4jnsgd1na2vs0mg"},{"bike_id":"99aacb10-8f89-4408-a365-7b63e41822a1","system_id":"levelo_inurba_marseille","lat":43.284088,"lon":5.375104,"is_reserved":false,"is_disabled":false,"rental_uris":{"android":"levelo://app?vid=99aacb10-8f89-4408-a365-7b63e41822a1","ios":"levelo://app?vid=99aacb10-8f89-4408-a365-7b63e41822a1"},"vehicle_type_id":"4","last_reported":1746029529,"current_range_meters":8400,"station_id":"ce4bh412rcd13ifvqds0","pricing_plan_id":"cebpf4jnsgd1na2vs0mg"},{"bike_id":"9ca9c766-b3dc-4c94-8691-d86234de6c73","system_id":"levelo_inurba_marseille","lat":43.27381,"lon":5.36259,"is_reserved":false,"is_disabled":false,"rental_uris":{"android":"levelo://app?vid=9ca9c766-b3dc-4c94-8691-d86234de6c73","ios":"levelo://app?vid=9ca9c766-b3dc-4c94-8691-d86234de6c73"},"vehicle_type_id":"4","last_reported":1746029529,"current_range_meters":8400,"station_id":"ce4bhbh2rcd13ifvqeo0","pricing_plan_id":"cebpf4jnsgd1na2vs0mg"},{"bike_id":"a0f4bd78-f5c4-42c9-acdf-e7276b835249","system_id":"levelo_inurba_marseille","lat":43.3318,"lon":5.38165,"is_reserved":false,"is_disabled":false,"rental_uris":{"android":"levelo://app?vid=a0f4bd78-f5c4-42c9-acdf-e7276b835249","ios":"levelo://app?vid=a0f4bd78-f5c4-42c9-acdf-e7276b835249"},"vehicle_type_id":"4","last_reported":1746029529,"current_range_meters":8400,"station_id":"","pricing_plan_id":"cebpf4jnsgd1na2vs0mg"},{"bike_id":"ea645f07-f518-4d5a-9b33-5ad6b0824795","system_id":"levelo_inurba_marseille","lat":43.25502,"lon":5.37648,"is_reserved":false,"is_disabled":false,"rental_uris":{"android":"levelo://app?vid=ea645f07-f518-4d5a-9b33-5ad6b0824795","ios":"levelo://app?vid=ea645f07-f518-4d5a-9b33-5ad6b0824795"},"vehicle_type_id":"4","last_reported":1746029529,"current_range_meters":8000,"station_id":"ce4bhh12rcd13ifvqff0","pricing_plan_id":"cebpf4jnsgd1na2vs0mg"},{"bike_id":"96ec19cb-516c-45ea-b127-d83376d73c79","system_id":"levelo_inurba_marseille","lat":43.260284,"lon":5.375484,"is_reserved":false,"is_disabled":false,"rental_uris":{"android":"levelo://app?vid=96ec19cb-516c-45ea-b127-d83376d73c79","ios":"levelo://app?vid=96ec19cb-516c-45ea-b127-d83376d73c79"},"vehicle_type_id":"4","last_reported":1746029529,"current_range_meters":8000,"station_id":"ce4bhgh2rcd13ifvqfa0","pricing_plan_id":"cebpf4jnsgd1na2vs0mg"},{"bike_id":"c06f07d3-1013-483e-a267-a905eac3630f","system_id":"levelo_inurba_marseille","lat":43.29257,"lon":5.37602,"is_reserved":false,"is_disabled":false,"rental_uris":{"android":"levelo://app?vid=c06f07d3-1013-483e-a267-a905eac3630f","ios":"levelo://app?vid=c06f07d3-1013-483e-a267-a905eac3630f"},"vehicle_type_id":"4","last_reported":1746029529,"current_range_meters":8400,"station_id":"ce4bgi12rcd13ifvqb80","pricing_plan_id":"cebpf4jnsgd1na2vs0mg"},{"bike_id":"17ca2bdf-3f94-4c95-b92a-8e712784d7aa","system_id":"levelo_inurba_marseille","lat":43.217589,"lon":5.345981,"is_reserved":false,"is_disabled":false,"rental_uris":{"android":"levelo://app?vid=17ca2bdf-3f94-4c95-b92a-8e712784d7aa","ios":"levelo://app?vid=17ca2bdf-3f94-4c95-b92a-8e712784d7aa"},"vehicle_type_id":"4","last_reported":1746029529,"current_range_meters":8400,"station_id":"st_cvj6r9ubvosntc0bgbag","pricing_plan_id":"cebpf4jnsgd1na2vs0mg"},{"bike_id":"64c8d3ea-9c6f-455a-b2d7-00a036fae7a4","system_id":"levelo_inurba_marseille","lat":43.26848,"lon":5.39144,"is_reserved":false,"is_disabled":false,"rental_uris":{"android":"levelo://app?vid=64c8d3ea-9c6f-455a-b2d7-00a036fae7a4","ios":"levelo://app?vid=64c8d3ea-9c6f-455a-b2d7-00a036fae7a4"},"vehicle_type_id":"4","last_reported":1746029529,"current_range_meters":8800,"station_id":"","pricing_plan_id":"cebpf4jnsgd1na2vs0mg"},{"bike_id":"5b177848-7130-4ed5-a4fb-b78a5ecb677e","system_id":"levelo_inurba_marseille","lat":43.29865,"lon":5.39731,"is_reserved":false,"is_disabled":false,"rental_uris":{"android":"levelo://app?vid=5b177848-7130-4ed5-a4fb-b78a5ecb677e","ios":"levelo://app?vid=5b177848-7130-4ed5-a4fb-b78a5ecb677e"},"vehicle_type_id":"4","last_reported":1746029529,"current_range_meters":9200,"station_id":"ce4bh0h2rcd13ifvqd50","pricing_plan_id":"cebpf4jnsgd1na2vs0mg"},{"bike_id":"489415b8-9254-45c1-b00c-e7554d56755c","system_id":"levelo_inurba_marseille","lat":43.245204,"lon":5.412103,"is_reserved":false,"is_disabled":false,"rental_uris":{"android":"levelo://app?vid=489415b8-9254-45c1-b00c-e7554d56755c","ios":"levelo://app?vid=489415b8-9254-45c1-b00c-e7554d56755c"},"vehicle_type_id":"4","last_reported":1746029529,"current_range_meters":9200,"station_id":"","pricing_plan_id":"cebpf4jnsgd1na2vs0mg"},{"bike_id":"590a851b-bb1a-44ef-bd46-d6cee61c7b75","system_id":"levelo_inurba_marseille","lat":43.29871,"lon":5.39732,"is_reserved":false,"is_disabled":false,"rental_uris":{"android":"levelo://app?vid=590a851b-bb1a-44ef-bd46-d6cee61c7b75","ios":"levelo://app?vid=590a851b-bb1a-44ef-bd46-d6cee61c7b75"},"vehicle_type_id":"4","last_reported":1746029529,"current_range_meters":8800,"station_id":"ce4bh0h2rcd13ifvqd50","pricing_plan_id":"cebpf4jnsgd1na2vs0mg"},{"bike_id":"d02e119d-b92f-4056-ad26-71b7c18e3a78","system_id":"levelo_inurba_marseille","lat":43.28729,"lon":5.36096,"is_reserved":false,"is_disabled":false,"rental_uris":{"android":"levelo://app?vid=d02e119d-b92f-4056-ad26-71b7c18e3a78","ios":"levelo://app?vid=d02e119d-b92f-4056-ad26-71b7c18e3a78"},"vehicle_type_id":"4","last_reported":1746029529,"current_range_meters":9200,"station_id":"cki0cbj6b192h4jlfktg","pricing_plan_id":"cebpf4jnsgd1na2vs0mg"},{"bike_id":"07edfd45-c3fa-4b57-b865-cf1bf9963264","system_id":"levelo_inurba_marseille","lat":43.23407,"lon":5.36376,"is_reserved":false,"is_disabled":false,"rental_uris":{"android":"levelo://app?vid=07edfd45-c3fa-4b57-b865-cf1bf9963264","ios":"levelo://app?vid=07edfd45-c3fa-4b57-b865-cf1bf9963264"},"vehicle_type_id":"4","last_reported":1746029529,"current_range_meters":9200,"station_id":"","pricing_plan_id":"cebpf4jnsgd1na2vs0mg"},{"bike_id":"ec4fab0f-013e-442b-9b42-c824d4e27819","system_id":"levelo_inurba_marseille","lat":43.31726,"lon":5.42394,"is_reserved":false,"is_disabled":false,"rental_uris":{"android":"levelo://app?vid=ec4fab0f-013e-442b-9b42-c824d4e27819","ios":"levelo://app?vid=ec4fab0f-013e-442b-9b42-c824d4e27819"},"vehicle_type_id":"4","last_reported":1746029529,"current_range_meters":10000,"station_id":"ce4bhp92rcd13ifvqhbg","pricing_plan_id":"cebpf4jnsgd1na2vs0mg"},{"bike_id":"196ddeab-0901-48f9-968e-2c177dbc0947","system_id":"levelo_inurba_marseille","lat":43.3171,"lon":5.37755,"is_reserved":false,"is_disabled":false,"rental_uris":{"android":"levelo://app?vid=196ddeab-0901-48f9-968e-2c177dbc0947","ios":"levelo://app?vid=196ddeab-0901-48f9-968e-2c177dbc0947"},"vehicle_type_id":"4","last_reported":1746029529,"current_range_meters":10000,"station_id":"ce4bgth2rcd13ifvqch0","pricing_plan_id":"cebpf4jnsgd1na2vs0mg"},{"bike_id":"dcb0b990-89f9-495c-a9c1-10b17ae39667","system_id":"levelo_inurba_marseille","lat":43.2346,"lon":5.38059,"is_reserved":false,"is_disabled":false,"rental_uris":{"android":"levelo://app?vid=dcb0b990-89f9-495c-a9c1-10b17ae39667","ios":"levelo://app?vid=dcb0b990-89f9-495c-a9c1-10b17ae39667"},"vehicle_type_id":"4","last_reported":1746029529,"current_range_meters":10000,"station_id":"","pricing_plan_id":"cebpf4jnsgd1na2vs0mg"},{"bike_id":"ce5b795d-b5f5-4c2f-bb50-69e2ec328996","system_id":"levelo_inurba_marseille","lat":43.3302,"lon":5.3902,"is_reserved":false,"is_disabled":false,"rental_uris":{"android":"levelo://app?vid=ce5b795d-b5f5-4c2f-bb50-69e2ec328996","ios":"levelo://app?vid=ce5b795d-b5f5-4c2f-bb50-69e2ec328996"},"vehicle_type_id":"4","last_reported":1746029529,"current_range_meters":10000,"station_id":"ce4bhr92rcd13ifvqhrg","pricing_plan_id":"cebpf4jnsgd1na2vs0mg"},{"bike_id":"167b263e-67c2-4f3c-8714-e0085b307099","system_id":"levelo_inurba_marseille","lat":43.2439,"lon":5.37052,"is_reserved":false,"is_disabled":false,"rental_uris":{"android":"levelo://app?vid=167b263e-67c2-4f3c-8714-e0085b307099","ios":"levelo://app?vid=167b263e-67c2-4f3c-8714-e0085b307099"},"vehicle_type_id":"4","last_reported":1746029529,"current_range_meters":9600,"station_id":"ce4bhhh2rcd13ifvqfk0","pricing_plan_id":"cebpf4jnsgd1na2vs0mg"},{"bike_id":"ebfe75b7-debf-4537-8dbe-902a175a08d4","system_id":"levelo_inurba_marseille","lat":43.27377,"lon":5.36264,"is_reserved":false,"is_disabled":false,"rental_uris":{"android":"levelo://app?vid=ebfe75b7-debf-4537-8dbe-902a175a08d4","ios":"levelo://app?vid=ebfe75b7-debf-4537-8dbe-902a175a08d4"},"vehicle_type_id":"4","last_reported":1746029529,"current_range_meters":10000,"station_id":"ce4bhbh2rcd13ifvqeo0","pricing_plan_id":"cebpf4jnsgd1na2vs0mg"},{"bike_id":"74750351-edda-4fd3-92da-beaaa2176dc6","system_id":"levelo_inurba_marseille","lat":43.30254,"lon":5.40065,"is_reserved":false,"is_disabled":false,"rental_uris":{"android":"levelo://app?vid=74750351-edda-4fd3-92da-beaaa2176dc6","ios":"levelo://app?vid=74750351-edda-4fd3-92da-beaaa2176dc6"},"vehicle_type_id":"4","last_reported":1746029529,"current_range_meters":10000,"station_id":"ce4bgvh2rcd13ifvqcs0","pricing_plan_id":"cebpf4jnsgd1na2vs0mg"},{"bike_id":"8025b9f6-e3fe-4d7f-b343-eff444a38a61","system_id":"levelo_inurba_marseille","lat":43.30123,"lon":5.38039,"is_reserved":false,"is_disabled":false,"rental_uris":{"android":"levelo://app?vid=8025b9f6-e3fe-4d7f-b343-eff444a38a61","ios":"levelo://app?vid=8025b9f6-e3fe-4d7f-b343-eff444a38a61"},"vehicle_type_id":"4","last_reported":1746029529,"current_range_meters":10800,"station_id":"ce4bgjp2rcd13ifvqbh0","pricing_plan_id":"cebpf4jnsgd1na2vs0mg"},{"bike_id":"93657c27-a09e-4cff-8128-0ce42a5ac395","system_id":"levelo_inurba_marseille","lat":43.28081,"lon":5.39648,"is_reserved":false,"is_disabled":false,"rental_uris":{"android":"levelo://app?vid=93657c27-a09e-4cff-8128-0ce42a5ac395","ios":"levelo://app?vid=93657c27-a09e-4cff-8128-0ce42a5ac395"},"vehicle_type_id":"4","last_reported":1746029529,"current_range_meters":10800,"station_id":"ce4bho12rcd13ifvqh2g","pricing_plan_id":"cebpf4jnsgd1na2vs0mg"},{"bike_id":"7f770ba9-2e48-47c9-8bb4-942855273bad","system_id":"levelo_inurba_marseille","lat":43.25458,"lon":5.42481,"is_reserved":false,"is_disabled":false,"rental_uris":{"android":"levelo://app?vid=7f770ba9-2e48-47c9-8bb4-942855273bad","ios":"levelo://app?vid=7f770ba9-2e48-47c9-8bb4-942855273bad"},"vehicle_type_id":"4","last_reported":1746029529,"current_range_meters":10800,"station_id":"","pricing_plan_id":"cebpf4jnsgd1na2vs0mg"},{"bike_id":"16a1c20d-0a0f-4291-8043-d7b88ad89a44","system_id":"levelo_inurba_marseille","lat":43.28003,"lon":5.41666,"is_reserved":false,"is_disabled":false,"rental_uris":{"android":"levelo://app?vid=16a1c20d-0a0f-4291-8043-d7b88ad89a44","ios":"levelo://app?vid=16a1c20d-0a0f-4291-8043-d7b88ad89a44"},"vehicle_type_id":"4","last_reported":1746029529,"current_range_meters":10800,"station_id":"ce4bho12rcd13ifvqh1g","pricing_plan_id":"cebpf4jnsgd1na2vs0mg"},{"bike_id":"593c0d69-b896-467b-aff5-9576a5525fc0","system_id":"levelo_inurba_marseille","lat":43.26225,"lon":5.40452,"is_reserved":false,"is_disabled":false,"rental_uris":{"android":"levelo://app?vid=593c0d69-b896-467b-aff5-9576a5525fc0","ios":"levelo://app?vid=593c0d69-b896-467b-aff5-9576a5525fc0"},"vehicle_type_id":"4","last_reported":1746029529,"current_range_meters":10800,"station_id":"ce4bhmh2rcd13ifvqgmg","pricing_plan_id":"cebpf4jnsgd1na2vs0mg"},{"bike_id":"a11b66c4-07a8-4347-bf81-000f3580fcc4","system_id":"levelo_inurba_marseille","lat":43.29593,"lon":5.36763,"is_reserved":false,"is_disabled":false,"rental_uris":{"android":"levelo://app?vid=a11b66c4-07a8-4347-bf81-000f3580fcc4","ios":"levelo://app?vid=a11b66c4-07a8-4347-bf81-000f3580fcc4"},"vehicle_type_id":"4","last_reported":1746029529,"current_range_meters":10800,"station_id":"ce4bgph2rcd13ifvqc2g","pricing_plan_id":"cebpf4jnsgd1na2vs0mg"},{"bike_id":"11c14e9a-cbc0-44c4-9168-e91b64f01429","system_id":"levelo_inurba_marseille","lat":43.28829,"lon":5.39303,"is_reserved":false,"is_disabled":false,"rental_uris":{"android":"levelo://app?vid=11c14e9a-cbc0-44c4-9168-e91b64f01429","ios":"levelo://app?vid=11c14e9a-cbc0-44c4-9168-e91b64f01429"},"vehicle_type_id":"4","last_reported":1746029529,"current_range_meters":11200,"station_id":"ce4bh2p2rcd13ifvqdi0","pricing_plan_id":"cebpf4jnsgd1na2vs0mg"},{"bike_id":"3513d875-0c48-4447-8e9f-bc254aa728c7","system_id":"levelo_inurba_marseille","lat":43.301313,"lon":5.387767,"is_reserved":false,"is_disabled":false,"rental_uris":{"android":"levelo://app?vid=3513d875-0c48-4447-8e9f-bc254aa728c7","ios":"levelo://app?vid=3513d875-0c48-4447-8e9f-bc254aa728c7"},"vehicle_type_id":"4","last_reported":1746029529,"current_range_meters":11600,"station_id":"ce4bgt12rcd13ifvqce0","pricing_plan_id":"cebpf4jnsgd1na2vs0mg"},{"bike_id":"53ff2efc-3841-427e-a20e-a6e9cd692a2d","system_id":"levelo_inurba_marseille","lat":43.28158,"lon":5.42677,"is_reserved":false,"is_disabled":false,"rental_uris":{"android":"levelo://app?vid=53ff2efc-3841-427e-a20e-a6e9cd692a2d","ios":"levelo://app?vid=53ff2efc-3841-427e-a20e-a6e9cd692a2d"},"vehicle_type_id":"4","last_reported":1746029529,"current_range_meters":11200,"station_id":"ce4bhnh2rcd13ifvqgug","pricing_plan_id":"cebpf4jnsgd1na2vs0mg"},{"bike_id":"7d10dc0f-5608-4597-a62d-f4277aefdf84","system_id":"levelo_inurba_marseille","lat":43.26562,"lon":5.3728,"is_reserved":false,"is_disabled":false,"rental_uris":{"android":"levelo://app?vid=7d10dc0f-5608-4597-a62d-f4277aefdf84","ios":"levelo://app?vid=7d10dc0f-5608-4597-a62d-f4277aefdf84"},"vehicle_type_id":"4","last_reported":1746029529,"current_range_meters":11600,"station_id":"ce4bhg12rcd13ifvqf70","pricing_plan_id":"cebpf4jnsgd1na2vs0mg"},{"bike_id":"4c05bf12-6793-48b8-a50f-57bca6df3136","system_id":"levelo_inurba_marseille","lat":43.29009,"lon":5.3561,"is_reserved":false,"is_disabled":false,"rental_uris":{"android":"levelo://app?vid=4c05bf12-6793-48b8-a50f-57bca6df3136","ios":"levelo://app?vid=4c05bf12-6793-48b8-a50f-57bca6df3136"},"vehicle_type_id":"4","last_reported":1746029529,"current_range_meters":11600,"station_id":"ce4bhb92rcd13ifvqen0","pricing_plan_id":"cebpf4jnsgd1na2vs0mg"},{"bike_id":"71c5d77a-6536-4600-bd94-a65e42748f23","system_id":"levelo_inurba_marseille","lat":43.28374,"lon":5.38624,"is_reserved":false,"is_disabled":false,"rental_uris":{"android":"levelo://app?vid=71c5d77a-6536-4600-bd94-a65e42748f23","ios":"levelo://app?vid=71c5d77a-6536-4600-bd94-a65e42748f23"},"vehicle_type_id":"4","last_reported":1746029529,"current_range_meters":11600,"station_id":"ce4bh492rcd13ifvqdvg","pricing_plan_id":"cebpf4jnsgd1na2vs0mg"},{"bike_id":"2e90bcbd-c959-4af8-9dea-4001093550ec","system_id":"levelo_inurba_marseille","lat":43.29181,"lon":5.35797,"is_reserved":false,"is_disabled":false,"rental_uris":{"android":"levelo://app?vid=2e90bcbd-c959-4af8-9dea-4001093550ec","ios":"levelo://app?vid=2e90bcbd-c959-4af8-9dea-4001093550ec"},"vehicle_type_id":"4","last_reported":1746029529,"current_range_meters":11200,"station_id":"ce4bhb12rcd13ifvqel0","pricing_plan_id":"cebpf4jnsgd1na2vs0mg"},{"bike_id":"e5e92a64-e709-4b1a-a9b1-cbffe85789ca","system_id":"levelo_inurba_marseille","lat":43.255,"lon":5.38088,"is_reserved":false,"is_disabled":false,"rental_uris":{"android":"levelo://app?vid=e5e92a64-e709-4b1a-a9b1-cbffe85789ca","ios":"levelo://app?vid=e5e92a64-e709-4b1a-a9b1-cbffe85789ca"},"vehicle_type_id":"4","last_reported":1746029529,"current_range_meters":12000,"station_id":"","pricing_plan_id":"cebpf4jnsgd1na2vs0mg"},{"bike_id":"82e4f629-3733-4e06-97b9-5eb9042add4a","system_id":"levelo_inurba_marseille","lat":43.288395,"lon":5.39299,"is_reserved":false,"is_disabled":false,"rental_uris":{"android":"levelo://app?vid=82e4f629-3733-4e06-97b9-5eb9042add4a","ios":"levelo://app?vid=82e4f629-3733-4e06-97b9-5eb9042add4a"},"vehicle_type_id":"4","last_reported":1746029529,"current_range_meters":12400,"station_id":"ce4bh2p2rcd13ifvqdi0","pricing_plan_id":"cebpf4jnsgd1na2vs0mg"},{"bike_id":"a732b3d6-472a-46b2-b5fc-7d86a14ed2fc","system_id":"levelo_inurba_marseille","lat":43.330237,"lon":5.390523,"is_reserved":false,"is_disabled":false,"rental_uris":{"android":"levelo://app?vid=a732b3d6-472a-46b2-b5fc-7d86a14ed2fc","ios":"levelo://app?vid=a732b3d6-472a-46b2-b5fc-7d86a14ed2fc"},"vehicle_type_id":"4","last_reported":1746029529,"current_range_meters":12400,"station_id":"ce4bhr92rcd13ifvqhrg","pricing_plan_id":"cebpf4jnsgd1na2vs0mg"},{"bike_id":"01a51425-fad0-4150-b3db-76893a2c20f5","system_id":"levelo_inurba_marseille","lat":43.31076,"lon":5.38353,"is_reserved":false,"is_disabled":false,"rental_uris":{"android":"levelo://app?vid=01a51425-fad0-4150-b3db-76893a2c20f5","ios":"levelo://app?vid=01a51425-fad0-4150-b3db-76893a2c20f5"},"vehicle_type_id":"4","last_reported":1746029529,"current_range_meters":12400,"station_id":"ce4bgv92rcd13ifvqcr0","pricing_plan_id":"cebpf4jnsgd1na2vs0mg"},{"bike_id":"64ee4762-6c5a-4bfc-b46f-4262bd00f76e","system_id":"levelo_inurba_marseille","lat":43.29015,"lon":5.35622,"is_reserved":false,"is_disabled":false,"rental_uris":{"android":"levelo://app?vid=64ee4762-6c5a-4bfc-b46f-4262bd00f76e","ios":"levelo://app?vid=64ee4762-6c5a-4bfc-b46f-4262bd00f76e"},"vehicle_type_id":"4","last_reported":1746029529,"current_range_meters":12000,"station_id":"ce4bhb92rcd13ifvqen0","pricing_plan_id":"cebpf4jnsgd1na2vs0mg"},{"bike_id":"fca9dc8b-9c20-4eab-83ff-17d0ce9a6922","system_id":"levelo_inurba_marseille","lat":43.26045,"lon":5.41747,"is_reserved":false,"is_disabled":false,"rental_uris":{"android":"levelo://app?vid=fca9dc8b-9c20-4eab-83ff-17d0ce9a6922","ios":"levelo://app?vid=fca9dc8b-9c20-4eab-83ff-17d0ce9a6922"},"vehicle_type_id":"4","last_reported":1746029529,"current_range_meters":12800,"station_id":"","pricing_plan_id":"cebpf4jnsgd1na2vs0mg"},{"bike_id":"879c8c9b-23c2-4ce7-8490-835d16e732c9","system_id":"levelo_inurba_marseille","lat":43.292628,"lon":5.376257,"is_reserved":false,"is_disabled":false,"rental_uris":{"android":"levelo://app?vid=879c8c9b-23c2-4ce7-8490-835d16e732c9","ios":"levelo://app?vid=879c8c9b-23c2-4ce7-8490-835d16e732c9"},"vehicle_type_id":"4","last_reported":1746029529,"current_range_meters":12800,"station_id":"ce4bgi12rcd13ifvqb80","pricing_plan_id":"cebpf4jnsgd1na2vs0mg"},{"bike_id":"fc5a3cca-ee78-4104-a342-c4d0be3918c4","system_id":"levelo_inurba_marseille","lat":43.29715,"lon":5.37708,"is_reserved":false,"is_disabled":false,"rental_uris":{"android":"levelo://app?vid=fc5a3cca-ee78-4104-a342-c4d0be3918c4","ios":"levelo://app?vid=fc5a3cca-ee78-4104-a342-c4d0be3918c4"},"vehicle_type_id":"4","last_reported":1746029529,"current_range_meters":12800,"station_id":"ce4bgkh2rcd13ifvqbl0","pricing_plan_id":"cebpf4jnsgd1na2vs0mg"},{"bike_id":"77942475-b9df-43a6-af61-b22087b935d2","system_id":"levelo_inurba_marseille","lat":43.2925,"lon":5.38437,"is_reserved":false,"is_disabled":true,"rental_uris":{"android":"levelo://app?vid=77942475-b9df-43a6-af61-b22087b935d2","ios":"levelo://app?vid=77942475-b9df-43a6-af61-b22087b935d2"},"vehicle_type_id":"4","last_reported":1746029529,"current_range_meters":12800,"station_id":"ce4bh692rcd13ifvqea0","pricing_plan_id":"cebpf4jnsgd1na2vs0mg"},{"bike_id":"08ae6693-9fd7-4e42-bed6-cba9f4d7ffeb","system_id":"levelo_inurba_marseille","lat":43.29075,"lon":5.37181,"is_reserved":false,"is_disabled":false,"rental_uris":{"android":"levelo://app?vid=08ae6693-9fd7-4e42-bed6-cba9f4d7ffeb","ios":"levelo://app?vid=08ae6693-9fd7-4e42-bed6-cba9f4d7ffeb"},"vehicle_type_id":"4","last_reported":1746029529,"current_range_meters":12400,"station_id":"ce4bh5p2rcd13ifvqe4g","pricing_plan_id":"cebpf4jnsgd1na2vs0mg"},{"bike_id":"c1cbc237-cfab-474a-aa26-81a87506105a","system_id":"levelo_inurba_marseille","lat":43.21744,"lon":5.34614,"is_reserved":false,"is_disabled":false,"rental_uris":{"android":"levelo://app?vid=c1cbc237-cfab-474a-aa26-81a87506105a","ios":"levelo://app?vid=c1cbc237-cfab-474a-aa26-81a87506105a"},"vehicle_type_id":"4","last_reported":1746029529,"current_range_meters":12800,"station_id":"st_cvj6r9ubvosntc0bgbag","pricing_plan_id":"cebpf4jnsgd1na2vs0mg"},{"bike_id":"f8c4d1cf-ebaa-45a9-860f-546979d8d1b8","system_id":"levelo_inurba_marseille","lat":43.292043,"lon":5.393252,"is_reserved":false,"is_disabled":true,"rental_uris":{"android":"levelo://app?vid=f8c4d1cf-ebaa-45a9-860f-546979d8d1b8","ios":"levelo://app?vid=f8c4d1cf-ebaa-45a9-860f-546979d8d1b8"},"vehicle_type_id":"4","last_reported":1746029529,"current_range_meters":13600,"station_id":"ce4bhbh2rcd13ifvqeo0","pricing_plan_id":"cebpf4jnsgd1na2vs0mg"},{"bike_id":"00b1c7b7-94c9-4a18-9e0d-df322c7cd38b","system_id":"levelo_inurba_marseille","lat":43.29015,"lon":5.35621,"is_reserved":false,"is_disabled":true,"rental_uris":{"android":"levelo://app?vid=00b1c7b7-94c9-4a18-9e0d-df322c7cd38b","ios":"levelo://app?vid=00b1c7b7-94c9-4a18-9e0d-df322c7cd38b"},"vehicle_type_id":"4","last_reported":1746029529,"current_range_meters":13600,"station_id":"ce4bhb92rcd13ifvqen0","pricing_plan_id":"cebpf4jnsgd1na2vs0mg"},{"bike_id":"e7868136-84d2-4a09-bf52-1e2e1b75e122","system_id":"levelo_inurba_marseille","lat":43.28981,"lon":5.37847,"is_reserved":false,"is_disabled":false,"rental_uris":{"android":"levelo://app?vid=e7868136-84d2-4a09-bf52-1e2e1b75e122","ios":"levelo://app?vid=e7868136-84d2-4a09-bf52-1e2e1b75e122"},"vehicle_type_id":"4","last_reported":1746029529,"current_range_meters":14000,"station_id":"ce4bh9p2rcd13ifvqed0","pricing_plan_id":"cebpf4jnsgd1na2vs0mg"},{"bike_id":"6c12ff60-ca47-4317-8fd9-41b438c555cc","system_id":"levelo_inurba_marseille","lat":43.21769,"lon":5.34593,"is_reserved":false,"is_disabled":false,"rental_uris":{"android":"levelo://app?vid=6c12ff60-ca47-4317-8fd9-41b438c555cc","ios":"levelo://app?vid=6c12ff60-ca47-4317-8fd9-41b438c555cc"},"vehicle_type_id":"4","last_reported":1746029529,"current_range_meters":14000,"station_id":"st_cvj6r9ubvosntc0bgbag","pricing_plan_id":"cebpf4jnsgd1na2vs0mg"},{"bike_id":"083163f5-e2fd-40d2-9e4f-7b3d2d85df31","system_id":"levelo_inurba_marseille","lat":43.27015,"lon":5.3877,"is_reserved":false,"is_disabled":true,"rental_uris":{"android":"levelo://app?vid=083163f5-e2fd-40d2-9e4f-7b3d2d85df31","ios":"levelo://app?vid=083163f5-e2fd-40d2-9e4f-7b3d2d85df31"},"vehicle_type_id":"4","last_reported":1746029529,"current_range_meters":14000,"station_id":"","pricing_plan_id":"cebpf4jnsgd1na2vs0mg"},{"bike_id":"dc10a960-a2b4-4240-bd1d-abc218c5e1d4","system_id":"levelo_inurba_marseille","lat":43.28999,"lon":5.35603,"is_reserved":false,"is_disabled":false,"rental_uris":{"android":"levelo://app?vid=dc10a960-a2b4-4240-bd1d-abc218c5e1d4","ios":"levelo://app?vid=dc10a960-a2b4-4240-bd1d-abc218c5e1d4"},"vehicle_type_id":"4","last_reported":1746029529,"current_range_meters":14000,"station_id":"ce4bhb92rcd13ifvqen0","pricing_plan_id":"cebpf4jnsgd1na2vs0mg"},{"bike_id":"94660729-cd45-44dc-b0b9-255b0eaa25ed","system_id":"levelo_inurba_marseille","lat":43.276226,"lon":5.361078,"is_reserved":false,"is_disabled":false,"rental_uris":{"android":"levelo://app?vid=94660729-cd45-44dc-b0b9-255b0eaa25ed","ios":"levelo://app?vid=94660729-cd45-44dc-b0b9-255b0eaa25ed"},"vehicle_type_id":"4","last_reported":1746029529,"current_range_meters":14400,"station_id":"ce4bgj92rcd13ifvqbe0","pricing_plan_id":"cebpf4jnsgd1na2vs0mg"},{"bike_id":"c8581763-0ce2-4bab-ab9e-b4108eaa2ed7","system_id":"levelo_inurba_marseille","lat":43.323652,"lon":5.388833,"is_reserved":false,"is_disabled":false,"rental_uris":{"android":"levelo://app?vid=c8581763-0ce2-4bab-ab9e-b4108eaa2ed7","ios":"levelo://app?vid=c8581763-0ce2-4bab-ab9e-b4108eaa2ed7"},"vehicle_type_id":"4","last_reported":1746029529,"current_range_meters":14400,"station_id":"","pricing_plan_id":"cebpf4jnsgd1na2vs0mg"},{"bike_id":"6eb272be-b702-4272-921a-818a575fd541","system_id":"levelo_inurba_marseille","lat":43.29309,"lon":5.37179,"is_reserved":false,"is_disabled":false,"rental_uris":{"android":"levelo://app?vid=6eb272be-b702-4272-921a-818a575fd541","ios":"levelo://app?vid=6eb272be-b702-4272-921a-818a575fd541"},"vehicle_type_id":"4","last_reported":1746029529,"current_range_meters":14400,"station_id":"ce4bgh92rcd13ifvqb40","pricing_plan_id":"cebpf4jnsgd1na2vs0mg"},{"bike_id":"b7eb6795-9a7d-483c-844d-2635a0282ee9","system_id":"levelo_inurba_marseille","lat":43.28688,"lon":5.40024,"is_reserved":false,"is_disabled":false,"rental_uris":{"android":"levelo://app?vid=b7eb6795-9a7d-483c-844d-2635a0282ee9","ios":"levelo://app?vid=b7eb6795-9a7d-483c-844d-2635a0282ee9"},"vehicle_type_id":"4","last_reported":1746029529,"current_range_meters":14800,"station_id":"ce4bho92rcd13ifvqh3g","pricing_plan_id":"cebpf4jnsgd1na2vs0mg"},{"bike_id":"85ea9e1f-37a8-4bd5-a8e6-66e47a3d13bb","system_id":"levelo_inurba_marseille","lat":43.33037,"lon":5.39023,"is_reserved":false,"is_disabled":false,"rental_uris":{"android":"levelo://app?vid=85ea9e1f-37a8-4bd5-a8e6-66e47a3d13bb","ios":"levelo://app?vid=85ea9e1f-37a8-4bd5-a8e6-66e47a3d13bb"},"vehicle_type_id":"4","last_reported":1746029529,"current_range_meters":14800,"station_id":"ce4bhr92rcd13ifvqhrg","pricing_plan_id":"cebpf4jnsgd1na2vs0mg"},{"bike_id":"e03886e4-ac16-442d-b362-3eb5e2c40c61","system_id":"levelo_inurba_marseille","lat":43.22941,"lon":5.35381,"is_reserved":false,"is_disabled":false,"rental_uris":{"android":"levelo://app?vid=e03886e4-ac16-442d-b362-3eb5e2c40c61","ios":"levelo://app?vid=e03886e4-ac16-442d-b362-3eb5e2c40c61"},"vehicle_type_id":"4","last_reported":1746029529,"current_range_meters":14800,"station_id":"cpo3532slgdg3j2ikp40","pricing_plan_id":"cebpf4jnsgd1na2vs0mg"},{"bike_id":"8d4092cc-478b-4726-b79e-fb979565ecbb","system_id":"levelo_inurba_marseille","lat":43.29223,"lon":5.36058,"is_reserved":false,"is_disabled":false,"rental_uris":{"android":"levelo://app?vid=8d4092cc-478b-4726-b79e-fb979565ecbb","ios":"levelo://app?vid=8d4092cc-478b-4726-b79e-fb979565ecbb"},"vehicle_type_id":"4","last_reported":1746029529,"current_range_meters":14800,"station_id":"ce4bhbh2rcd13ifvqeqg","pricing_plan_id":"cebpf4jnsgd1na2vs0mg"},{"bike_id":"02f31bd0-e4d3-467c-9b8e-ca52ce887323","system_id":"levelo_inurba_marseille","lat":43.30542,"lon":5.384277,"is_reserved":false,"is_disabled":false,"rental_uris":{"android":"levelo://app?vid=02f31bd0-e4d3-467c-9b8e-ca52ce887323","ios":"levelo://app?vid=02f31bd0-e4d3-467c-9b8e-ca52ce887323"},"vehicle_type_id":"4","last_reported":1746029529,"current_range_meters":14400,"station_id":"ce4bgg92rcd13ifvqb30","pricing_plan_id":"cebpf4jnsgd1na2vs0mg"},{"bike_id":"70fc8051-16dd-4c53-8d44-ef0fd69ab984","system_id":"levelo_inurba_marseille","lat":43.306,"lon":5.39359,"is_reserved":false,"is_disabled":false,"rental_uris":{"android":"levelo://app?vid=70fc8051-16dd-4c53-8d44-ef0fd69ab984","ios":"levelo://app?vid=70fc8051-16dd-4c53-8d44-ef0fd69ab984"},"vehicle_type_id":"4","last_reported":1746029529,"current_range_meters":15200,"station_id":"ce4bh0p2rcd13ifvqd80","pricing_plan_id":"cebpf4jnsgd1na2vs0mg"},{"bike_id":"fd2f652f-7139-4689-a0e9-7cb77e856248","system_id":"levelo_inurba_marseille","lat":43.2987,"lon":5.39736,"is_reserved":false,"is_disabled":false,"rental_uris":{"android":"levelo://app?vid=fd2f652f-7139-4689-a0e9-7cb77e856248","ios":"levelo://app?vid=fd2f652f-7139-4689-a0e9-7cb77e856248"},"vehicle_type_id":"4","last_reported":1746029529,"current_range_meters":16000,"station_id":"ce4bh0h2rcd13ifvqd50","pricing_plan_id":"cebpf4jnsgd1na2vs0mg"},{"bike_id":"c9e760ae-cc19-46b2-a007-354a870133e1","system_id":"levelo_inurba_marseille","lat":43.2322,"lon":5.35551,"is_reserved":false,"is_disabled":false,"rental_uris":{"android":"levelo://app?vid=c9e760ae-cc19-46b2-a007-354a870133e1","ios":"levelo://app?vid=c9e760ae-cc19-46b2-a007-354a870133e1"},"vehicle_type_id":"4","last_reported":1746029529,"current_range_meters":16000,"station_id":"ce4bhu92rcd13ifvqi70","pricing_plan_id":"cebpf4jnsgd1na2vs0mg"},{"bike_id":"883427a2-1f3e-4247-863d-5e3c701bb7c5","system_id":"levelo_inurba_marseille","lat":43.27063,"lon":5.42253,"is_reserved":false,"is_disabled":false,"rental_uris":{"android":"levelo://app?vid=883427a2-1f3e-4247-863d-5e3c701bb7c5","ios":"levelo://app?vid=883427a2-1f3e-4247-863d-5e3c701bb7c5"},"vehicle_type_id":"4","last_reported":1746029529,"current_range_meters":16000,"station_id":"ce4bhk92rcd13ifvqgb0","pricing_plan_id":"cebpf4jnsgd1na2vs0mg"},{"bike_id":"86c2979e-8cf6-48ed-bdb1-835ff11e3adc","system_id":"levelo_inurba_marseille","lat":43.25391,"lon":5.41848,"is_reserved":false,"is_disabled":false,"rental_uris":{"android":"levelo://app?vid=86c2979e-8cf6-48ed-bdb1-835ff11e3adc","ios":"levelo://app?vid=86c2979e-8cf6-48ed-bdb1-835ff11e3adc"},"vehicle_type_id":"4","last_reported":1746029529,"current_range_meters":16000,"station_id":"","pricing_plan_id":"cebpf4jnsgd1na2vs0mg"},{"bike_id":"d4171358-7849-45ed-b759-dff003d73382","system_id":"levelo_inurba_marseille","lat":43.31119,"lon":5.37771,"is_reserved":false,"is_disabled":false,"rental_uris":{"android":"levelo://app?vid=d4171358-7849-45ed-b759-dff003d73382","ios":"levelo://app?vid=d4171358-7849-45ed-b759-dff003d73382"},"vehicle_type_id":"4","last_reported":1746029529,"current_range_meters":16000,"station_id":"ce4bgt92rcd13ifvqcg0","pricing_plan_id":"cebpf4jnsgd1na2vs0mg"},{"bike_id":"00caae1a-4a82-4e4f-a3ec-d610cce01e93","system_id":"levelo_inurba_marseille","lat":43.28101,"lon":5.37838,"is_reserved":false,"is_disabled":false,"rental_uris":{"android":"levelo://app?vid=00caae1a-4a82-4e4f-a3ec-d610cce01e93","ios":"levelo://app?vid=00caae1a-4a82-4e4f-a3ec-d610cce01e93"},"vehicle_type_id":"4","last_reported":1746029529,"current_range_meters":16400,"station_id":"ce4bha12rcd13ifvqee0","pricing_plan_id":"cebpf4jnsgd1na2vs0mg"},{"bike_id":"ca9424b7-c8b8-46cf-b127-c03e41af5c02","system_id":"levelo_inurba_marseille","lat":43.29004,"lon":5.35607,"is_reserved":false,"is_disabled":false,"rental_uris":{"android":"levelo://app?vid=ca9424b7-c8b8-46cf-b127-c03e41af5c02","ios":"levelo://app?vid=ca9424b7-c8b8-46cf-b127-c03e41af5c02"},"vehicle_type_id":"4","last_reported":1746029529,"current_range_meters":16400,"station_id":"ce4bhb92rcd13ifvqen0","pricing_plan_id":"cebpf4jnsgd1na2vs0mg"},{"bike_id":"7940bc1b-eaa7-4f49-a435-46dc9391f6a1","system_id":"levelo_inurba_marseille","lat":43.21201,"lon":5.350674,"is_reserved":false,"is_disabled":false,"rental_uris":{"android":"levelo://app?vid=7940bc1b-eaa7-4f49-a435-46dc9391f6a1","ios":"levelo://app?vid=7940bc1b-eaa7-4f49-a435-46dc9391f6a1"},"vehicle_type_id":"4","last_reported":1746029529,"current_range_meters":16400,"station_id":"st_cvj6sg6p6f1abm77japg","pricing_plan_id":"cebpf4jnsgd1na2vs0mg"},{"bike_id":"34b484ab-c0f1-4e55-b51a-e2bafdafb63e","system_id":"levelo_inurba_marseille","lat":43.23058,"lon":5.354917,"is_reserved":false,"is_disabled":false,"rental_uris":{"android":"levelo://app?vid=34b484ab-c0f1-4e55-b51a-e2bafdafb63e","ios":"levelo://app?vid=34b484ab-c0f1-4e55-b51a-e2bafdafb63e"},"vehicle_type_id":"4","last_reported":1746029529,"current_range_meters":16400,"station_id":"cpo3342slgdg3j2ifvpg","pricing_plan_id":"cebpf4jnsgd1na2vs0mg"},{"bike_id":"c13b66e8-c5fd-4b87-83a5-a0640067fff8","system_id":"levelo_inurba_marseille","lat":43.27628,"lon":5.36099,"is_reserved":false,"is_disabled":false,"rental_uris":{"android":"levelo://app?vid=c13b66e8-c5fd-4b87-83a5-a0640067fff8","ios":"levelo://app?vid=c13b66e8-c5fd-4b87-83a5-a0640067fff8"},"vehicle_type_id":"4","last_reported":1746029529,"current_range_meters":16800,"station_id":"ce4bgj92rcd13ifvqbe0","pricing_plan_id":"cebpf4jnsgd1na2vs0mg"},{"bike_id":"d6e0ecce-ec14-4035-b47d-e2dfcab122ce","system_id":"levelo_inurba_marseille","lat":43.28873,"lon":5.3934,"is_reserved":false,"is_disabled":false,"rental_uris":{"android":"levelo://app?vid=d6e0ecce-ec14-4035-b47d-e2dfcab122ce","ios":"levelo://app?vid=d6e0ecce-ec14-4035-b47d-e2dfcab122ce"},"vehicle_type_id":"4","last_reported":1746029529,"current_range_meters":16800,"station_id":"ce4bh2p2rcd13ifvqdi0","pricing_plan_id":"cebpf4jnsgd1na2vs0mg"},{"bike_id":"fd7875a1-1cd0-47f8-880b-6ef58a6b7e2e","system_id":"levelo_inurba_marseille","lat":43.22935,"lon":5.35376,"is_reserved":false,"is_disabled":false,"rental_uris":{"android":"levelo://app?vid=fd7875a1-1cd0-47f8-880b-6ef58a6b7e2e","ios":"levelo://app?vid=fd7875a1-1cd0-47f8-880b-6ef58a6b7e2e"},"vehicle_type_id":"4","last_reported":1746029529,"current_range_meters":16800,"station_id":"cpo3532slgdg3j2ikp40","pricing_plan_id":"cebpf4jnsgd1na2vs0mg"},{"bike_id":"cf12cb19-ea6a-4d33-aac6-8d19ac40528b","system_id":"levelo_inurba_marseille","lat":43.30918,"lon":5.38239,"is_reserved":false,"is_disabled":false,"rental_uris":{"android":"levelo://app?vid=cf12cb19-ea6a-4d33-aac6-8d19ac40528b","ios":"levelo://app?vid=cf12cb19-ea6a-4d33-aac6-8d19ac40528b"},"vehicle_type_id":"4","last_reported":1746029529,"current_range_meters":17200,"station_id":"","pricing_plan_id":"cebpf4jnsgd1na2vs0mg"},{"bike_id":"db64e518-228e-42ed-8e5a-268bcb87d5da","system_id":"levelo_inurba_marseille","lat":43.2956,"lon":5.42291,"is_reserved":false,"is_disabled":false,"rental_uris":{"android":"levelo://app?vid=db64e518-228e-42ed-8e5a-268bcb87d5da","ios":"levelo://app?vid=db64e518-228e-42ed-8e5a-268bcb87d5da"},"vehicle_type_id":"4","last_reported":1746029529,"current_range_meters":16800,"station_id":"ce4bhph2rcd13ifvqhdg","pricing_plan_id":"cebpf4jnsgd1na2vs0mg"},{"bike_id":"a398f988-ac2d-4dd2-85a6-d269f86b386f","system_id":"levelo_inurba_marseille","lat":43.2841,"lon":5.37506,"is_reserved":false,"is_disabled":false,"rental_uris":{"android":"levelo://app?vid=a398f988-ac2d-4dd2-85a6-d269f86b386f","ios":"levelo://app?vid=a398f988-ac2d-4dd2-85a6-d269f86b386f"},"vehicle_type_id":"4","last_reported":1746029529,"current_range_meters":16800,"station_id":"ce4bh412rcd13ifvqds0","pricing_plan_id":"cebpf4jnsgd1na2vs0mg"},{"bike_id":"c4483e11-b29e-417a-b20a-5e9e69f91950","system_id":"levelo_inurba_marseille","lat":43.29583,"lon":5.36749,"is_reserved":false,"is_disabled":false,"rental_uris":{"android":"levelo://app?vid=c4483e11-b29e-417a-b20a-5e9e69f91950","ios":"levelo://app?vid=c4483e11-b29e-417a-b20a-5e9e69f91950"},"vehicle_type_id":"4","last_reported":1746029529,"current_range_meters":16800,"station_id":"ce4bgph2rcd13ifvqc2g","pricing_plan_id":"cebpf4jnsgd1na2vs0mg"},{"bike_id":"31feb92e-8c6b-4b01-90d2-6eba2e4757fd","system_id":"levelo_inurba_marseille","lat":43.3372,"lon":5.39187,"is_reserved":false,"is_disabled":false,"rental_uris":{"android":"levelo://app?vid=31feb92e-8c6b-4b01-90d2-6eba2e4757fd","ios":"levelo://app?vid=31feb92e-8c6b-4b01-90d2-6eba2e4757fd"},"vehicle_type_id":"4","last_reported":1746029529,"current_range_meters":17200,"station_id":"ce4bhr92rcd13ifvqhsg","pricing_plan_id":"cebpf4jnsgd1na2vs0mg"},{"bike_id":"1a348c0d-f19d-460f-8d9e-32b530507a88","system_id":"levelo_inurba_marseille","lat":43.29253,"lon":5.37624,"is_reserved":false,"is_disabled":false,"rental_uris":{"android":"levelo://app?vid=1a348c0d-f19d-460f-8d9e-32b530507a88","ios":"levelo://app?vid=1a348c0d-f19d-460f-8d9e-32b530507a88"},"vehicle_type_id":"4","last_reported":1746029529,"current_range_meters":17200,"station_id":"ce4bgi12rcd13ifvqb80","pricing_plan_id":"cebpf4jnsgd1na2vs0mg"},{"bike_id":"c8dd8f8a-830e-4da3-9b55-1128751e72f2","system_id":"levelo_inurba_marseille","lat":43.29354,"lon":5.37834,"is_reserved":false,"is_disabled":false,"rental_uris":{"android":"levelo://app?vid=c8dd8f8a-830e-4da3-9b55-1128751e72f2","ios":"levelo://app?vid=c8dd8f8a-830e-4da3-9b55-1128751e72f2"},"vehicle_type_id":"4","last_reported":1746029529,"current_range_meters":17200,"station_id":"ce4bgjh2rcd13ifvqbf0","pricing_plan_id":"cebpf4jnsgd1na2vs0mg"},{"bike_id":"4b2deaf0-80b7-4201-ad8d-b9a7b88e59ec","system_id":"levelo_inurba_marseille","lat":43.25865,"lon":5.39899,"is_reserved":false,"is_disabled":false,"rental_uris":{"android":"levelo://app?vid=4b2deaf0-80b7-4201-ad8d-b9a7b88e59ec","ios":"levelo://app?vid=4b2deaf0-80b7-4201-ad8d-b9a7b88e59ec"},"vehicle_type_id":"4","last_reported":1746029529,"current_range_meters":17200,"station_id":"ce4bhl92rcd13ifvqghg","pricing_plan_id":"cebpf4jnsgd1na2vs0mg"},{"bike_id":"b346bb5c-0cf6-45d7-a7cb-b5a89cc29b4b","system_id":"levelo_inurba_marseille","lat":43.2936,"lon":5.37854,"is_reserved":false,"is_disabled":false,"rental_uris":{"android":"levelo://app?vid=b346bb5c-0cf6-45d7-a7cb-b5a89cc29b4b","ios":"levelo://app?vid=b346bb5c-0cf6-45d7-a7cb-b5a89cc29b4b"},"vehicle_type_id":"4","last_reported":1746029529,"current_range_meters":17200,"station_id":"ce4bgjh2rcd13ifvqbf0","pricing_plan_id":"cebpf4jnsgd1na2vs0mg"},{"bike_id":"7792f2e9-8ec4-4e0b-b017-06d3dc217a7f","system_id":"levelo_inurba_marseille","lat":43.28616,"lon":5.37064,"is_reserved":false,"is_disabled":false,"rental_uris":{"android":"levelo://app?vid=7792f2e9-8ec4-4e0b-b017-06d3dc217a7f","ios":"levelo://app?vid=7792f2e9-8ec4-4e0b-b017-06d3dc217a7f"},"vehicle_type_id":"4","last_reported":1746029529,"current_range_meters":17200,"station_id":"ce4bht12rcd13ifvqi60","pricing_plan_id":"cebpf4jnsgd1na2vs0mg"},{"bike_id":"68387bcf-91b9-4d94-9345-8087e5f6d466","system_id":"levelo_inurba_marseille","lat":43.31333,"lon":5.36771,"is_reserved":false,"is_disabled":false,"rental_uris":{"android":"levelo://app?vid=68387bcf-91b9-4d94-9345-8087e5f6d466","ios":"levelo://app?vid=68387bcf-91b9-4d94-9345-8087e5f6d466"},"vehicle_type_id":"4","last_reported":1746029529,"current_range_meters":17600,"station_id":"","pricing_plan_id":"cebpf4jnsgd1na2vs0mg"},{"bike_id":"bd3f9967-7e80-457f-9e8b-123aae893707","system_id":"levelo_inurba_marseille","lat":43.3007,"lon":5.39075,"is_reserved":false,"is_disabled":false,"rental_uris":{"android":"levelo://app?vid=bd3f9967-7e80-457f-9e8b-123aae893707","ios":"levelo://app?vid=bd3f9967-7e80-457f-9e8b-123aae893707"},"vehicle_type_id":"4","last_reported":1746029529,"current_range_meters":17600,"station_id":"ce4bh192rcd13ifvqdb0","pricing_plan_id":"cebpf4jnsgd1na2vs0mg"},{"bike_id":"13c22a28-9fd6-4b6a-a3a8-5b7929763e92","system_id":"levelo_inurba_marseille","lat":43.30337,"lon":5.4043,"is_reserved":false,"is_disabled":false,"rental_uris":{"android":"levelo://app?vid=13c22a28-9fd6-4b6a-a3a8-5b7929763e92","ios":"levelo://app?vid=13c22a28-9fd6-4b6a-a3a8-5b7929763e92"},"vehicle_type_id":"4","last_reported":1746029529,"current_range_meters":18000,"station_id":"ce4bh012rcd13ifvqd10","pricing_plan_id":"cebpf4jnsgd1na2vs0mg"},{"bike_id":"d83a5ebc-1f54-4199-8779-b60b5bcb4b7f","system_id":"levelo_inurba_marseille","lat":43.30275,"lon":5.36837,"is_reserved":false,"is_disabled":false,"rental_uris":{"android":"levelo://app?vid=d83a5ebc-1f54-4199-8779-b60b5bcb4b7f","ios":"levelo://app?vid=d83a5ebc-1f54-4199-8779-b60b5bcb4b7f"},"vehicle_type_id":"4","last_reported":1746029529,"current_range_meters":18000,"station_id":"ce4bgqh2rcd13ifvqc5g","pricing_plan_id":"cebpf4jnsgd1na2vs0mg"},{"bike_id":"e97db440-8b03-4e44-8c2e-1d05d7c16c02","system_id":"levelo_inurba_marseille","lat":43.28698,"lon":5.37385,"is_reserved":false,"is_disabled":false,"rental_uris":{"android":"levelo://app?vid=e97db440-8b03-4e44-8c2e-1d05d7c16c02","ios":"levelo://app?vid=e97db440-8b03-4e44-8c2e-1d05d7c16c02"},"vehicle_type_id":"4","last_reported":1746029529,"current_range_meters":18000,"station_id":"ce4bh3p2rcd13ifvqdq0","pricing_plan_id":"cebpf4jnsgd1na2vs0mg"},{"bike_id":"b58385b2-d1b2-4ecc-af75-eb7cf4772905","system_id":"levelo_inurba_marseille","lat":43.23082,"lon":5.35523,"is_reserved":false,"is_disabled":false,"rental_uris":{"android":"levelo://app?vid=b58385b2-d1b2-4ecc-af75-eb7cf4772905","ios":"levelo://app?vid=b58385b2-d1b2-4ecc-af75-eb7cf4772905"},"vehicle_type_id":"4","last_reported":1746029529,"current_range_meters":18000,"station_id":"cpo3342slgdg3j2ifvpg","pricing_plan_id":"cebpf4jnsgd1na2vs0mg"},{"bike_id":"aebdf8c5-253b-4377-a3fb-c4cb08028d37","system_id":"levelo_inurba_marseille","lat":43.31062,"lon":5.38346,"is_reserved":false,"is_disabled":false,"rental_uris":{"android":"levelo://app?vid=aebdf8c5-253b-4377-a3fb-c4cb08028d37","ios":"levelo://app?vid=aebdf8c5-253b-4377-a3fb-c4cb08028d37"},"vehicle_type_id":"4","last_reported":1746029529,"current_range_meters":18000,"station_id":"ce4bgv92rcd13ifvqcr0","pricing_plan_id":"cebpf4jnsgd1na2vs0mg"},{"bike_id":"010aef2a-f6c2-4e58-aeeb-af6928f8bb93","system_id":"levelo_inurba_marseille","lat":43.32316,"lon":5.407803,"is_reserved":false,"is_disabled":false,"rental_uris":{"android":"levelo://app?vid=010aef2a-f6c2-4e58-aeeb-af6928f8bb93","ios":"levelo://app?vid=010aef2a-f6c2-4e58-aeeb-af6928f8bb93"},"vehicle_type_id":"4","last_reported":1746029529,"current_range_meters":18800,"station_id":"","pricing_plan_id":"cebpf4jnsgd1na2vs0mg"},{"bike_id":"3a1b75c1-76a2-4ed7-8e56-ecbdc21fd9c0","system_id":"levelo_inurba_marseille","lat":43.27378,"lon":5.36261,"is_reserved":false,"is_disabled":false,"rental_uris":{"android":"levelo://app?vid=3a1b75c1-76a2-4ed7-8e56-ecbdc21fd9c0","ios":"levelo://app?vid=3a1b75c1-76a2-4ed7-8e56-ecbdc21fd9c0"},"vehicle_type_id":"4","last_reported":1746029529,"current_range_meters":18800,"station_id":"ce4bhbh2rcd13ifvqeo0","pricing_plan_id":"cebpf4jnsgd1na2vs0mg"},{"bike_id":"3661e4e9-d79c-434f-8005-c3018d08d89a","system_id":"levelo_inurba_marseille","lat":43.32707,"lon":5.3923,"is_reserved":false,"is_disabled":false,"rental_uris":{"android":"levelo://app?vid=3661e4e9-d79c-434f-8005-c3018d08d89a","ios":"levelo://app?vid=3661e4e9-d79c-434f-8005-c3018d08d89a"},"vehicle_type_id":"4","last_reported":1746029529,"current_range_meters":20000,"station_id":"","pricing_plan_id":"cebpf4jnsgd1na2vs0mg"},{"bike_id":"4ddaf700-3dab-4ea6-bc3c-6f722b5f5f8b","system_id":"levelo_inurba_marseille","lat":43.27169,"lon":5.4099,"is_reserved":false,"is_disabled":false,"rental_uris":{"android":"levelo://app?vid=4ddaf700-3dab-4ea6-bc3c-6f722b5f5f8b","ios":"levelo://app?vid=4ddaf700-3dab-4ea6-bc3c-6f722b5f5f8b"},"vehicle_type_id":"4","last_reported":1746029529,"current_range_meters":18800,"station_id":"ce4bhl12rcd13ifvqgf0","pricing_plan_id":"cebpf4jnsgd1na2vs0mg"},{"bike_id":"4733bf44-9e8e-4cd0-a7e7-1afadd421b1e","system_id":"levelo_inurba_marseille","lat":43.2439,"lon":5.3706,"is_reserved":false,"is_disabled":false,"rental_uris":{"android":"levelo://app?vid=4733bf44-9e8e-4cd0-a7e7-1afadd421b1e","ios":"levelo://app?vid=4733bf44-9e8e-4cd0-a7e7-1afadd421b1e"},"vehicle_type_id":"4","last_reported":1746029529,"current_range_meters":19200,"station_id":"ce4bhhh2rcd13ifvqfk0","pricing_plan_id":"cebpf4jnsgd1na2vs0mg"},{"bike_id":"929dc6cb-2137-4a16-96fb-073a3bd73516","system_id":"levelo_inurba_marseille","lat":43.31755,"lon":5.39027,"is_reserved":false,"is_disabled":false,"rental_uris":{"android":"levelo://app?vid=929dc6cb-2137-4a16-96fb-073a3bd73516","ios":"levelo://app?vid=929dc6cb-2137-4a16-96fb-073a3bd73516"},"vehicle_type_id":"4","last_reported":1746029529,"current_range_meters":19600,"station_id":"ce4bhqp2rcd13ifvqhng","pricing_plan_id":"cebpf4jnsgd1na2vs0mg"},{"bike_id":"97827f70-a7ba-4035-849b-e08097bbe396","system_id":"levelo_inurba_marseille","lat":43.29282,"lon":5.40116,"is_reserved":false,"is_disabled":false,"rental_uris":{"android":"levelo://app?vid=97827f70-a7ba-4035-849b-e08097bbe396","ios":"levelo://app?vid=97827f70-a7ba-4035-849b-e08097bbe396"},"vehicle_type_id":"4","last_reported":1746029529,"current_range_meters":19600,"station_id":"ce4bh312rcd13ifvqdk0","pricing_plan_id":"cebpf4jnsgd1na2vs0mg"},{"bike_id":"fdf8ea83-c086-4984-8f3b-27438162cc76","system_id":"levelo_inurba_marseille","lat":43.27381,"lon":5.36254,"is_reserved":false,"is_disabled":false,"rental_uris":{"android":"levelo://app?vid=fdf8ea83-c086-4984-8f3b-27438162cc76","ios":"levelo://app?vid=fdf8ea83-c086-4984-8f3b-27438162cc76"},"vehicle_type_id":"4","last_reported":1746029529,"current_range_meters":19600,"station_id":"ce4bhbh2rcd13ifvqeo0","pricing_plan_id":"cebpf4jnsgd1na2vs0mg"},{"bike_id":"399601ec-f0b7-4d07-aa54-9dd941e696aa","system_id":"levelo_inurba_marseille","lat":43.236565,"lon":5.399597,"is_reserved":false,"is_disabled":false,"rental_uris":{"android":"levelo://app?vid=399601ec-f0b7-4d07-aa54-9dd941e696aa","ios":"levelo://app?vid=399601ec-f0b7-4d07-aa54-9dd941e696aa"},"vehicle_type_id":"4","last_reported":1746029529,"current_range_meters":19600,"station_id":"ce4bhn12rcd13ifvqgqg","pricing_plan_id":"cebpf4jnsgd1na2vs0mg"},{"bike_id":"e7ffe102-def9-44df-ab08-bcf2bfb76907","system_id":"levelo_inurba_marseille","lat":43.296113,"lon":5.37712,"is_reserved":false,"is_disabled":true,"rental_uris":{"android":"levelo://app?vid=e7ffe102-def9-44df-ab08-bcf2bfb76907","ios":"levelo://app?vid=e7ffe102-def9-44df-ab08-bcf2bfb76907"},"vehicle_type_id":"4","last_reported":1746029529,"current_range_meters":19600,"station_id":"ce4bgi92rcd13ifvqb90","pricing_plan_id":"cebpf4jnsgd1na2vs0mg"},{"bike_id":"78bd6b36-168d-41d2-bcce-932b973e2e8d","system_id":"levelo_inurba_marseille","lat":43.281238,"lon":5.378517,"is_reserved":false,"is_disabled":false,"rental_uris":{"android":"levelo://app?vid=78bd6b36-168d-41d2-bcce-932b973e2e8d","ios":"levelo://app?vid=78bd6b36-168d-41d2-bcce-932b973e2e8d"},"vehicle_type_id":"4","last_reported":1746029529,"current_range_meters":20000,"station_id":"ce4bha12rcd13ifvqee0","pricing_plan_id":"cebpf4jnsgd1na2vs0mg"},{"bike_id":"8a108257-ba62-40f1-b151-5864796d192a","system_id":"levelo_inurba_marseille","lat":43.21746,"lon":5.34603,"is_reserved":false,"is_disabled":false,"rental_uris":{"android":"levelo://app?vid=8a108257-ba62-40f1-b151-5864796d192a","ios":"levelo://app?vid=8a108257-ba62-40f1-b151-5864796d192a"},"vehicle_type_id":"4","last_reported":1746029529,"current_range_meters":20000,"station_id":"st_cvj6r9ubvosntc0bgbag","pricing_plan_id":"cebpf4jnsgd1na2vs0mg"},{"bike_id":"26b3e617-80db-40ea-b6c0-2779e27b57ee","system_id":"levelo_inurba_marseille","lat":43.3153,"lon":5.38047,"is_reserved":false,"is_disabled":false,"rental_uris":{"android":"levelo://app?vid=26b3e617-80db-40ea-b6c0-2779e27b57ee","ios":"levelo://app?vid=26b3e617-80db-40ea-b6c0-2779e27b57ee"},"vehicle_type_id":"4","last_reported":1746029529,"current_range_meters":20000,"station_id":"ce4bhsp2rcd13ifvqi50","pricing_plan_id":"cebpf4jnsgd1na2vs0mg"},{"bike_id":"e84772cf-d4d3-46c1-a277-98145210619a","system_id":"levelo_inurba_marseille","lat":43.28157,"lon":5.42645,"is_reserved":false,"is_disabled":false,"rental_uris":{"android":"levelo://app?vid=e84772cf-d4d3-46c1-a277-98145210619a","ios":"levelo://app?vid=e84772cf-d4d3-46c1-a277-98145210619a"},"vehicle_type_id":"4","last_reported":1746029529,"current_range_meters":20000,"station_id":"ce4bhnh2rcd13ifvqgug","pricing_plan_id":"cebpf4jnsgd1na2vs0mg"},{"bike_id":"d2edf920-400d-4fd0-8b5a-b711012da590","system_id":"levelo_inurba_marseille","lat":43.32037,"lon":5.41571,"is_reserved":false,"is_disabled":false,"rental_uris":{"android":"levelo://app?vid=d2edf920-400d-4fd0-8b5a-b711012da590","ios":"levelo://app?vid=d2edf920-400d-4fd0-8b5a-b711012da590"},"vehicle_type_id":"4","last_reported":1746029529,"current_range_meters":20000,"station_id":"ce4bhq92rcd13ifvqhkg","pricing_plan_id":"cebpf4jnsgd1na2vs0mg"},{"bike_id":"dff8f879-6f10-4e98-9de2-170b8099981b","system_id":"levelo_inurba_marseille","lat":43.28929,"lon":5.36642,"is_reserved":false,"is_disabled":false,"rental_uris":{"android":"levelo://app?vid=dff8f879-6f10-4e98-9de2-170b8099981b","ios":"levelo://app?vid=dff8f879-6f10-4e98-9de2-170b8099981b"},"vehicle_type_id":"4","last_reported":1746029529,"current_range_meters":20800,"station_id":"ce4bhap2rcd13ifvqek0","pricing_plan_id":"cebpf4jnsgd1na2vs0mg"},{"bike_id":"14ad4215-57c9-4423-b3f2-3d8acf4bce45","system_id":"levelo_inurba_marseille","lat":43.27346,"lon":5.36161,"is_reserved":false,"is_disabled":false,"rental_uris":{"android":"levelo://app?vid=14ad4215-57c9-4423-b3f2-3d8acf4bce45","ios":"levelo://app?vid=14ad4215-57c9-4423-b3f2-3d8acf4bce45"},"vehicle_type_id":"4","last_reported":1746029529,"current_range_meters":20800,"station_id":"","pricing_plan_id":"cebpf4jnsgd1na2vs0mg"},{"bike_id":"379b8933-bc6e-4164-9d36-daaf2941e50f","system_id":"levelo_inurba_marseille","lat":43.3092,"lon":5.38248,"is_reserved":false,"is_disabled":false,"rental_uris":{"android":"levelo://app?vid=379b8933-bc6e-4164-9d36-daaf2941e50f","ios":"levelo://app?vid=379b8933-bc6e-4164-9d36-daaf2941e50f"},"vehicle_type_id":"4","last_reported":1746029529,"current_range_meters":20800,"station_id":"","pricing_plan_id":"cebpf4jnsgd1na2vs0mg"},{"bike_id":"a88d2e3d-9dbf-40d4-a9e0-bc489904da4b","system_id":"levelo_inurba_marseille","lat":43.29257,"lon":5.38433,"is_reserved":false,"is_disabled":true,"rental_uris":{"android":"levelo://app?vid=a88d2e3d-9dbf-40d4-a9e0-bc489904da4b","ios":"levelo://app?vid=a88d2e3d-9dbf-40d4-a9e0-bc489904da4b"},"vehicle_type_id":"4","last_reported":1746029529,"current_range_meters":20800,"station_id":"ce4bh692rcd13ifvqea0","pricing_plan_id":"cebpf4jnsgd1na2vs0mg"},{"bike_id":"347ed23a-c6d9-4358-be5e-51ffc2b76a0b","system_id":"levelo_inurba_marseille","lat":43.31574,"lon":5.38955,"is_reserved":false,"is_disabled":false,"rental_uris":{"android":"levelo://app?vid=347ed23a-c6d9-4358-be5e-51ffc2b76a0b","ios":"levelo://app?vid=347ed23a-c6d9-4358-be5e-51ffc2b76a0b"},"vehicle_type_id":"4","last_reported":1746029529,"current_range_meters":21600,"station_id":"","pricing_plan_id":"cebpf4jnsgd1na2vs0mg"},{"bike_id":"a476e7b1-6337-4da1-a8a7-24c662acd4a6","system_id":"levelo_inurba_marseille","lat":43.32344,"lon":5.40618,"is_reserved":false,"is_disabled":false,"rental_uris":{"android":"levelo://app?vid=a476e7b1-6337-4da1-a8a7-24c662acd4a6","ios":"levelo://app?vid=a476e7b1-6337-4da1-a8a7-24c662acd4a6"},"vehicle_type_id":"4","last_reported":1746029529,"current_range_meters":21600,"station_id":"ce4bhq92rcd13ifvqhjg","pricing_plan_id":"cebpf4jnsgd1na2vs0mg"},{"bike_id":"886cd3b2-acf5-4cfb-bb3b-923cd95b6e27","system_id":"levelo_inurba_marseille","lat":43.294282,"lon":5.38649,"is_reserved":false,"is_disabled":false,"rental_uris":{"android":"levelo://app?vid=886cd3b2-acf5-4cfb-bb3b-923cd95b6e27","ios":"levelo://app?vid=886cd3b2-acf5-4cfb-bb3b-923cd95b6e27"},"vehicle_type_id":"4","last_reported":1746029529,"current_range_meters":21600,"station_id":"ce4bh2h2rcd13ifvqdh0","pricing_plan_id":"cebpf4jnsgd1na2vs0mg"},{"bike_id":"d99bf105-2a68-4379-a106-5dfa667da890","system_id":"levelo_inurba_marseille","lat":43.33023,"lon":5.39048,"is_reserved":false,"is_disabled":false,"rental_uris":{"android":"levelo://app?vid=d99bf105-2a68-4379-a106-5dfa667da890","ios":"levelo://app?vid=d99bf105-2a68-4379-a106-5dfa667da890"},"vehicle_type_id":"4","last_reported":1746029529,"current_range_meters":21600,"station_id":"ce4bhr92rcd13ifvqhrg","pricing_plan_id":"cebpf4jnsgd1na2vs0mg"},{"bike_id":"a62c171c-ce2d-4e63-acb0-0c168ef364ab","system_id":"levelo_inurba_marseille","lat":43.30107,"lon":5.39848,"is_reserved":false,"is_disabled":false,"rental_uris":{"android":"levelo://app?vid=a62c171c-ce2d-4e63-acb0-0c168ef364ab","ios":"levelo://app?vid=a62c171c-ce2d-4e63-acb0-0c168ef364ab"},"vehicle_type_id":"4","last_reported":1746029529,"current_range_meters":21600,"station_id":"ce4bh0h2rcd13ifvqd40","pricing_plan_id":"cebpf4jnsgd1na2vs0mg"},{"bike_id":"356abdd6-90e0-42d8-b5fa-3d688d4e9579","system_id":"levelo_inurba_marseille","lat":43.28572,"lon":5.39493,"is_reserved":false,"is_disabled":false,"rental_uris":{"android":"levelo://app?vid=356abdd6-90e0-42d8-b5fa-3d688d4e9579","ios":"levelo://app?vid=356abdd6-90e0-42d8-b5fa-3d688d4e9579"},"vehicle_type_id":"4","last_reported":1746029529,"current_range_meters":22000,"station_id":"ce4bh292rcd13ifvqdg0","pricing_plan_id":"cebpf4jnsgd1na2vs0mg"},{"bike_id":"b4a1376a-1bdb-4521-bf0d-1db82164f18e","system_id":"levelo_inurba_marseille","lat":43.24064,"lon":5.37755,"is_reserved":false,"is_disabled":false,"rental_uris":{"android":"levelo://app?vid=b4a1376a-1bdb-4521-bf0d-1db82164f18e","ios":"levelo://app?vid=b4a1376a-1bdb-4521-bf0d-1db82164f18e"},"vehicle_type_id":"4","last_reported":1746029529,"current_range_meters":22000,"station_id":"ce4bhnp2rcd13ifvqgvg","pricing_plan_id":"cebpf4jnsgd1na2vs0mg"},{"bike_id":"92f4a1fb-5678-43ad-8c47-f3e699838d72","system_id":"levelo_inurba_marseille","lat":43.27379,"lon":5.36269,"is_reserved":false,"is_disabled":false,"rental_uris":{"android":"levelo://app?vid=92f4a1fb-5678-43ad-8c47-f3e699838d72","ios":"levelo://app?vid=92f4a1fb-5678-43ad-8c47-f3e699838d72"},"vehicle_type_id":"4","last_reported":1746029529,"current_range_meters":22000,"station_id":"ce4bhbh2rcd13ifvqeo0","pricing_plan_id":"cebpf4jnsgd1na2vs0mg"},{"bike_id":"65594688-fb60-4633-b07b-ab98dc136c36","system_id":"levelo_inurba_marseille","lat":43.27944,"lon":5.4105,"is_reserved":false,"is_disabled":false,"rental_uris":{"android":"levelo://app?vid=65594688-fb60-4633-b07b-ab98dc136c36","ios":"levelo://app?vid=65594688-fb60-4633-b07b-ab98dc136c36"},"vehicle_type_id":"4","last_reported":1746029529,"current_range_meters":22000,"station_id":"ce4bhnp2rcd13ifvqh0g","pricing_plan_id":"cebpf4jnsgd1na2vs0mg"},{"bike_id":"3aeb961f-88b6-47fd-986a-c7b2a855fefd","system_id":"levelo_inurba_marseille","lat":43.23091,"lon":5.35494,"is_reserved":false,"is_disabled":false,"rental_uris":{"android":"levelo://app?vid=3aeb961f-88b6-47fd-986a-c7b2a855fefd","ios":"levelo://app?vid=3aeb961f-88b6-47fd-986a-c7b2a855fefd"},"vehicle_type_id":"4","last_reported":1746029529,"current_range_meters":22400,"station_id":"cpo3342slgdg3j2ifvpg","pricing_plan_id":"cebpf4jnsgd1na2vs0mg"},{"bike_id":"1564e5c0-b1dc-4705-887c-2441c52729c0","system_id":"levelo_inurba_marseille","lat":43.317535,"lon":5.390219,"is_reserved":false,"is_disabled":false,"rental_uris":{"android":"levelo://app?vid=1564e5c0-b1dc-4705-887c-2441c52729c0","ios":"levelo://app?vid=1564e5c0-b1dc-4705-887c-2441c52729c0"},"vehicle_type_id":"4","last_reported":1746029529,"current_range_meters":22400,"station_id":"ce4bhqp2rcd13ifvqhng","pricing_plan_id":"cebpf4jnsgd1na2vs0mg"},{"bike_id":"4af8e51e-37bc-480f-9710-32dbe4e234d6","system_id":"levelo_inurba_marseille","lat":43.30549,"lon":5.36525,"is_reserved":false,"is_disabled":true,"rental_uris":{"android":"levelo://app?vid=4af8e51e-37bc-480f-9710-32dbe4e234d6","ios":"levelo://app?vid=4af8e51e-37bc-480f-9710-32dbe4e234d6"},"vehicle_type_id":"4","last_reported":1746029529,"current_range_meters":22400,"station_id":"ce4bgs12rcd13ifvqcag","pricing_plan_id":"cebpf4jnsgd1na2vs0mg"},{"bike_id":"2754e942-e078-4c8e-8910-f3444795273b","system_id":"levelo_inurba_marseille","lat":43.28662,"lon":5.38676,"is_reserved":false,"is_disabled":false,"rental_uris":{"android":"levelo://app?vid=2754e942-e078-4c8e-8910-f3444795273b","ios":"levelo://app?vid=2754e942-e078-4c8e-8910-f3444795273b"},"vehicle_type_id":"4","last_reported":1746029529,"current_range_meters":22400,"station_id":"ce4bh492rcd13ifvqdug","pricing_plan_id":"cebpf4jnsgd1na2vs0mg"},{"bike_id":"f709b1d1-725b-4776-9964-54f6aca05c41","system_id":"levelo_inurba_marseille","lat":43.27392,"lon":5.36285,"is_reserved":false,"is_disabled":false,"rental_uris":{"android":"levelo://app?vid=f709b1d1-725b-4776-9964-54f6aca05c41","ios":"levelo://app?vid=f709b1d1-725b-4776-9964-54f6aca05c41"},"vehicle_type_id":"4","last_reported":1746029529,"current_range_meters":22800,"station_id":"ce4bhbh2rcd13ifvqeo0","pricing_plan_id":"cebpf4jnsgd1na2vs0mg"},{"bike_id":"c0ab8b20-8523-4245-9984-c093859caa96","system_id":"levelo_inurba_marseille","lat":43.25946,"lon":5.4136,"is_reserved":false,"is_disabled":false,"rental_uris":{"android":"levelo://app?vid=c0ab8b20-8523-4245-9984-c093859caa96","ios":"levelo://app?vid=c0ab8b20-8523-4245-9984-c093859caa96"},"vehicle_type_id":"4","last_reported":1746029529,"current_range_meters":22800,"station_id":"","pricing_plan_id":"cebpf4jnsgd1na2vs0mg"},{"bike_id":"1504394b-bf58-4c06-a784-42ffc05ff14f","system_id":"levelo_inurba_marseille","lat":43.3315,"lon":5.38196,"is_reserved":false,"is_disabled":false,"rental_uris":{"android":"levelo://app?vid=1504394b-bf58-4c06-a784-42ffc05ff14f","ios":"levelo://app?vid=1504394b-bf58-4c06-a784-42ffc05ff14f"},"vehicle_type_id":"4","last_reported":1746029529,"current_range_meters":22800,"station_id":"","pricing_plan_id":"cebpf4jnsgd1na2vs0mg"},{"bike_id":"c695bac2-0581-4a6a-b9c9-eb8e0d8673ed","system_id":"levelo_inurba_marseille","lat":43.33803,"lon":5.39216,"is_reserved":false,"is_disabled":false,"rental_uris":{"android":"levelo://app?vid=c695bac2-0581-4a6a-b9c9-eb8e0d8673ed","ios":"levelo://app?vid=c695bac2-0581-4a6a-b9c9-eb8e0d8673ed"},"vehicle_type_id":"4","last_reported":1746029529,"current_range_meters":22800,"station_id":"","pricing_plan_id":"cebpf4jnsgd1na2vs0mg"},{"bike_id":"fc862b84-2827-4476-9e64-58a20dd60a80","system_id":"levelo_inurba_marseille","lat":43.255018,"lon":5.376467,"is_reserved":false,"is_disabled":true,"rental_uris":{"android":"levelo://app?vid=fc862b84-2827-4476-9e64-58a20dd60a80","ios":"levelo://app?vid=fc862b84-2827-4476-9e64-58a20dd60a80"},"vehicle_type_id":"4","last_reported":1746029529,"current_range_meters":22800,"station_id":"ce4bhh12rcd13ifvqff0","pricing_plan_id":"cebpf4jnsgd1na2vs0mg"},{"bike_id":"08dbb33e-bdab-4fd7-b7dd-43d4d76e3448","system_id":"levelo_inurba_marseille","lat":43.25494,"lon":5.37644,"is_reserved":false,"is_disabled":false,"rental_uris":{"android":"levelo://app?vid=08dbb33e-bdab-4fd7-b7dd-43d4d76e3448","ios":"levelo://app?vid=08dbb33e-bdab-4fd7-b7dd-43d4d76e3448"},"vehicle_type_id":"4","last_reported":1746029529,"current_range_meters":22800,"station_id":"ce4bhh12rcd13ifvqff0","pricing_plan_id":"cebpf4jnsgd1na2vs0mg"},{"bike_id":"7d446915-d5b2-4c07-bd27-af8dcdd82e4a","system_id":"levelo_inurba_marseille","lat":43.27998,"lon":5.4001,"is_reserved":false,"is_disabled":false,"rental_uris":{"android":"levelo://app?vid=7d446915-d5b2-4c07-bd27-af8dcdd82e4a","ios":"levelo://app?vid=7d446915-d5b2-4c07-bd27-af8dcdd82e4a"},"vehicle_type_id":"4","last_reported":1746029529,"current_range_meters":23200,"station_id":"ce4bho92rcd13ifvqh4g","pricing_plan_id":"cebpf4jnsgd1na2vs0mg"},{"bike_id":"96a2abf1-0c47-41b2-97e4-9811c9ee74df","system_id":"levelo_inurba_marseille","lat":43.29422,"lon":5.38629,"is_reserved":false,"is_disabled":false,"rental_uris":{"android":"levelo://app?vid=96a2abf1-0c47-41b2-97e4-9811c9ee74df","ios":"levelo://app?vid=96a2abf1-0c47-41b2-97e4-9811c9ee74df"},"vehicle_type_id":"4","last_reported":1746029529,"current_range_meters":23200,"station_id":"ce4bh2h2rcd13ifvqdh0","pricing_plan_id":"cebpf4jnsgd1na2vs0mg"},{"bike_id":"348ea699-dfcd-4a4a-8d8c-047a9f8833c4","system_id":"levelo_inurba_marseille","lat":43.30603,"lon":5.3721,"is_reserved":false,"is_disabled":false,"rental_uris":{"android":"levelo://app?vid=348ea699-dfcd-4a4a-8d8c-047a9f8833c4","ios":"levelo://app?vid=348ea699-dfcd-4a4a-8d8c-047a9f8833c4"},"vehicle_type_id":"4","last_reported":1746029529,"current_range_meters":22800,"station_id":"ce4bgqh2rcd13ifvqc4g","pricing_plan_id":"cebpf4jnsgd1na2vs0mg"},{"bike_id":"f60708b7-1a39-4dc9-be1a-c0efeb9d1f20","system_id":"levelo_inurba_marseille","lat":43.24534,"lon":5.39512,"is_reserved":false,"is_disabled":false,"rental_uris":{"android":"levelo://app?vid=f60708b7-1a39-4dc9-be1a-c0efeb9d1f20","ios":"levelo://app?vid=f60708b7-1a39-4dc9-be1a-c0efeb9d1f20"},"vehicle_type_id":"4","last_reported":1746029529,"current_range_meters":23200,"station_id":"ce4bhlp2rcd13ifvqgjg","pricing_plan_id":"cebpf4jnsgd1na2vs0mg"},{"bike_id":"c9283a8b-fbb1-4bb4-969f-c26401e58854","system_id":"levelo_inurba_marseille","lat":43.32339,"lon":5.40643,"is_reserved":false,"is_disabled":false,"rental_uris":{"android":"levelo://app?vid=c9283a8b-fbb1-4bb4-969f-c26401e58854","ios":"levelo://app?vid=c9283a8b-fbb1-4bb4-969f-c26401e58854"},"vehicle_type_id":"4","last_reported":1746029529,"current_range_meters":23200,"station_id":"ce4bhq92rcd13ifvqhjg","pricing_plan_id":"cebpf4jnsgd1na2vs0mg"},{"bike_id":"fbfc2562-25dd-4894-bb50-99589a57ff26","system_id":"levelo_inurba_marseille","lat":43.28378,"lon":5.37497,"is_reserved":false,"is_disabled":false,"rental_uris":{"android":"levelo://app?vid=fbfc2562-25dd-4894-bb50-99589a57ff26","ios":"levelo://app?vid=fbfc2562-25dd-4894-bb50-99589a57ff26"},"vehicle_type_id":"4","last_reported":1746029529,"current_range_meters":23200,"station_id":"ce4bh412rcd13ifvqds0","pricing_plan_id":"cebpf4jnsgd1na2vs0mg"},{"bike_id":"2cc9bd1a-ed07-4efe-9012-00cc5ca4d7f0","system_id":"levelo_inurba_marseille","lat":43.31713,"lon":5.43702,"is_reserved":false,"is_disabled":false,"rental_uris":{"android":"levelo://app?vid=2cc9bd1a-ed07-4efe-9012-00cc5ca4d7f0","ios":"levelo://app?vid=2cc9bd1a-ed07-4efe-9012-00cc5ca4d7f0"},"vehicle_type_id":"4","last_reported":1746029529,"current_range_meters":22800,"station_id":"ce4bhp92rcd13ifvqhcg","pricing_plan_id":"cebpf4jnsgd1na2vs0mg"},{"bike_id":"fc20a267-e909-4f57-a6eb-d2e129ae9103","system_id":"levelo_inurba_marseille","lat":43.29051,"lon":5.37154,"is_reserved":false,"is_disabled":false,"rental_uris":{"android":"levelo://app?vid=fc20a267-e909-4f57-a6eb-d2e129ae9103","ios":"levelo://app?vid=fc20a267-e909-4f57-a6eb-d2e129ae9103"},"vehicle_type_id":"4","last_reported":1746029529,"current_range_meters":22800,"station_id":"ce4bh5p2rcd13ifvqe4g","pricing_plan_id":"cebpf4jnsgd1na2vs0mg"},{"bike_id":"ffc417ed-aad3-4a66-bd32-7823ec5a6e22","system_id":"levelo_inurba_marseille","lat":43.23969,"lon":5.36634,"is_reserved":false,"is_disabled":false,"rental_uris":{"android":"levelo://app?vid=ffc417ed-aad3-4a66-bd32-7823ec5a6e22","ios":"levelo://app?vid=ffc417ed-aad3-4a66-bd32-7823ec5a6e22"},"vehicle_type_id":"4","last_reported":1746029529,"current_range_meters":23200,"station_id":"ce4bhi12rcd13ifvqfp0","pricing_plan_id":"cebpf4jnsgd1na2vs0mg"},{"bike_id":"58f91dac-5370-4fb5-96d5-a180bb430d53","system_id":"levelo_inurba_marseille","lat":43.29952,"lon":5.37969,"is_reserved":false,"is_disabled":false,"rental_uris":{"android":"levelo://app?vid=58f91dac-5370-4fb5-96d5-a180bb430d53","ios":"levelo://app?vid=58f91dac-5370-4fb5-96d5-a180bb430d53"},"vehicle_type_id":"4","last_reported":1746029529,"current_range_meters":24000,"station_id":"","pricing_plan_id":"cebpf4jnsgd1na2vs0mg"},{"bike_id":"10fe5799-109b-4d80-885d-3358ac5a1648","system_id":"levelo_inurba_marseille","lat":43.30564,"lon":5.36913,"is_reserved":false,"is_disabled":true,"rental_uris":{"android":"levelo://app?vid=10fe5799-109b-4d80-885d-3358ac5a1648","ios":"levelo://app?vid=10fe5799-109b-4d80-885d-3358ac5a1648"},"vehicle_type_id":"4","last_reported":1746029529,"current_range_meters":24000,"station_id":"","pricing_plan_id":"cebpf4jnsgd1na2vs0mg"},{"bike_id":"489818e9-78b0-44be-bd10-43ac72f44bd8","system_id":"levelo_inurba_marseille","lat":43.25123,"lon":5.40325,"is_reserved":false,"is_disabled":false,"rental_uris":{"android":"levelo://app?vid=489818e9-78b0-44be-bd10-43ac72f44bd8","ios":"levelo://app?vid=489818e9-78b0-44be-bd10-43ac72f44bd8"},"vehicle_type_id":"4","last_reported":1746029529,"current_range_meters":23200,"station_id":"ce4bhlh2rcd13ifvqgig","pricing_plan_id":"cebpf4jnsgd1na2vs0mg"},{"bike_id":"5ad8279e-81a3-44b7-82f1-d66b60aaf63b","system_id":"levelo_inurba_marseille","lat":43.27177,"lon":5.41001,"is_reserved":false,"is_disabled":false,"rental_uris":{"android":"levelo://app?vid=5ad8279e-81a3-44b7-82f1-d66b60aaf63b","ios":"levelo://app?vid=5ad8279e-81a3-44b7-82f1-d66b60aaf63b"},"vehicle_type_id":"4","last_reported":1746029529,"current_range_meters":24000,"station_id":"ce4bhl12rcd13ifvqgf0","pricing_plan_id":"cebpf4jnsgd1na2vs0mg"},{"bike_id":"5e0868e4-e498-43a1-92c1-b93f6b92c8ea","system_id":"levelo_inurba_marseille","lat":43.294202,"lon":5.386237,"is_reserved":false,"is_disabled":false,"rental_uris":{"android":"levelo://app?vid=5e0868e4-e498-43a1-92c1-b93f6b92c8ea","ios":"levelo://app?vid=5e0868e4-e498-43a1-92c1-b93f6b92c8ea"},"vehicle_type_id":"4","last_reported":1746029529,"current_range_meters":24000,"station_id":"ce4bh2h2rcd13ifvqdh0","pricing_plan_id":"cebpf4jnsgd1na2vs0mg"},{"bike_id":"341ca93b-b8ea-44f1-87c3-945ae977c774","system_id":"levelo_inurba_marseille","lat":43.2973,"lon":5.37715,"is_reserved":false,"is_disabled":true,"rental_uris":{"android":"levelo://app?vid=341ca93b-b8ea-44f1-87c3-945ae977c774","ios":"levelo://app?vid=341ca93b-b8ea-44f1-87c3-945ae977c774"},"vehicle_type_id":"4","last_reported":1746029529,"current_range_meters":24000,"station_id":"ce4bgkh2rcd13ifvqbl0","pricing_plan_id":"cebpf4jnsgd1na2vs0mg"},{"bike_id":"a638b0a9-0512-478f-97d6-1bde0bbc73cd","system_id":"levelo_inurba_marseille","lat":43.28924,"lon":5.38392,"is_reserved":false,"is_disabled":false,"rental_uris":{"android":"levelo://app?vid=a638b0a9-0512-478f-97d6-1bde0bbc73cd","ios":"levelo://app?vid=a638b0a9-0512-478f-97d6-1bde0bbc73cd"},"vehicle_type_id":"4","last_reported":1746029529,"current_range_meters":24000,"station_id":"ce4bh612rcd13ifvqe6g","pricing_plan_id":"cebpf4jnsgd1na2vs0mg"},{"bike_id":"c62c5cb0-625d-4906-bf6f-49c7c91641bd","system_id":"levelo_inurba_marseille","lat":43.30142,"lon":5.38074,"is_reserved":false,"is_disabled":false,"rental_uris":{"android":"levelo://app?vid=c62c5cb0-625d-4906-bf6f-49c7c91641bd","ios":"levelo://app?vid=c62c5cb0-625d-4906-bf6f-49c7c91641bd"},"vehicle_type_id":"4","last_reported":1746029529,"current_range_meters":24400,"station_id":"ce4bgjp2rcd13ifvqbh0","pricing_plan_id":"cebpf4jnsgd1na2vs0mg"},{"bike_id":"21daa196-33b5-405b-ad33-2e864d9b7a53","system_id":"levelo_inurba_marseille","lat":43.31719,"lon":5.42393,"is_reserved":false,"is_disabled":false,"rental_uris":{"android":"levelo://app?vid=21daa196-33b5-405b-ad33-2e864d9b7a53","ios":"levelo://app?vid=21daa196-33b5-405b-ad33-2e864d9b7a53"},"vehicle_type_id":"4","last_reported":1746029529,"current_range_meters":24400,"station_id":"ce4bhp92rcd13ifvqhbg","pricing_plan_id":"cebpf4jnsgd1na2vs0mg"},{"bike_id":"e4c827cd-d846-4f3d-852d-70c7ae41c297","system_id":"levelo_inurba_marseille","lat":43.316663,"lon":5.382367,"is_reserved":false,"is_disabled":false,"rental_uris":{"android":"levelo://app?vid=e4c827cd-d846-4f3d-852d-70c7ae41c297","ios":"levelo://app?vid=e4c827cd-d846-4f3d-852d-70c7ae41c297"},"vehicle_type_id":"4","last_reported":1746029529,"current_range_meters":24400,"station_id":"","pricing_plan_id":"cebpf4jnsgd1na2vs0mg"},{"bike_id":"4e8a230c-6730-4c71-96e8-640984cd60b4","system_id":"levelo_inurba_marseille","lat":43.32013,"lon":5.38152,"is_reserved":false,"is_disabled":true,"rental_uris":{"android":"levelo://app?vid=4e8a230c-6730-4c71-96e8-640984cd60b4","ios":"levelo://app?vid=4e8a230c-6730-4c71-96e8-640984cd60b4"},"vehicle_type_id":"4","last_reported":1746029529,"current_range_meters":24800,"station_id":"ce4bhr12rcd13ifvqhpg","pricing_plan_id":"cebpf4jnsgd1na2vs0mg"},{"bike_id":"0656f44d-72f1-4b72-86dc-c15a837e8cb2","system_id":"levelo_inurba_marseille","lat":43.27175,"lon":5.4099,"is_reserved":false,"is_disabled":false,"rental_uris":{"android":"levelo://app?vid=0656f44d-72f1-4b72-86dc-c15a837e8cb2","ios":"levelo://app?vid=0656f44d-72f1-4b72-86dc-c15a837e8cb2"},"vehicle_type_id":"4","last_reported":1746029529,"current_range_meters":24800,"station_id":"ce4bhl12rcd13ifvqgf0","pricing_plan_id":"cebpf4jnsgd1na2vs0mg"},{"bike_id":"3cc59bf7-d3c5-4822-b2c1-f195fe30e1f3","system_id":"levelo_inurba_marseille","lat":43.28409,"lon":5.37527,"is_reserved":false,"is_disabled":false,"rental_uris":{"android":"levelo://app?vid=3cc59bf7-d3c5-4822-b2c1-f195fe30e1f3","ios":"levelo://app?vid=3cc59bf7-d3c5-4822-b2c1-f195fe30e1f3"},"vehicle_type_id":"4","last_reported":1746029529,"current_range_meters":24800,"station_id":"ce4bh412rcd13ifvqds0","pricing_plan_id":"cebpf4jnsgd1na2vs0mg"},{"bike_id":"5e21d7d5-2c48-4205-9e3b-6b8b5cf0849d","system_id":"levelo_inurba_marseille","lat":43.28418,"lon":5.37516,"is_reserved":false,"is_disabled":false,"rental_uris":{"android":"levelo://app?vid=5e21d7d5-2c48-4205-9e3b-6b8b5cf0849d","ios":"levelo://app?vid=5e21d7d5-2c48-4205-9e3b-6b8b5cf0849d"},"vehicle_type_id":"4","last_reported":1746029529,"current_range_meters":24000,"station_id":"ce4bh412rcd13ifvqds0","pricing_plan_id":"cebpf4jnsgd1na2vs0mg"},{"bike_id":"4a31c4cc-821a-415b-a480-cfc00adaad20","system_id":"levelo_inurba_marseille","lat":43.29311,"lon":5.37084,"is_reserved":false,"is_disabled":true,"rental_uris":{"android":"levelo://app?vid=4a31c4cc-821a-415b-a480-cfc00adaad20","ios":"levelo://app?vid=4a31c4cc-821a-415b-a480-cfc00adaad20"},"vehicle_type_id":"4","last_reported":1746029529,"current_range_meters":24800,"station_id":"","pricing_plan_id":"cebpf4jnsgd1na2vs0mg"},{"bike_id":"ae316b10-ecfd-497c-9aa9-a4ebb8ec9a55","system_id":"levelo_inurba_marseille","lat":43.32722,"lon":5.3925,"is_reserved":false,"is_disabled":false,"rental_uris":{"android":"levelo://app?vid=ae316b10-ecfd-497c-9aa9-a4ebb8ec9a55","ios":"levelo://app?vid=ae316b10-ecfd-497c-9aa9-a4ebb8ec9a55"},"vehicle_type_id":"4","last_reported":1746029529,"current_range_meters":24800,"station_id":"","pricing_plan_id":"cebpf4jnsgd1na2vs0mg"},{"bike_id":"0216b7f9-3fbd-4cfc-bc89-00ef89346812","system_id":"levelo_inurba_marseille","lat":43.23967,"lon":5.36629,"is_reserved":false,"is_disabled":false,"rental_uris":{"android":"levelo://app?vid=0216b7f9-3fbd-4cfc-bc89-00ef89346812","ios":"levelo://app?vid=0216b7f9-3fbd-4cfc-bc89-00ef89346812"},"vehicle_type_id":"4","last_reported":1746029529,"current_range_meters":24400,"station_id":"ce4bhi12rcd13ifvqfp0","pricing_plan_id":"cebpf4jnsgd1na2vs0mg"},{"bike_id":"16c6084f-e663-4ce6-a887-344d31ea0204","system_id":"levelo_inurba_marseille","lat":43.28349,"lon":5.38097,"is_reserved":false,"is_disabled":false,"rental_uris":{"android":"levelo://app?vid=16c6084f-e663-4ce6-a887-344d31ea0204","ios":"levelo://app?vid=16c6084f-e663-4ce6-a887-344d31ea0204"},"vehicle_type_id":"4","last_reported":1746029529,"current_range_meters":24800,"station_id":"ce4bh412rcd13ifvqdr0","pricing_plan_id":"cebpf4jnsgd1na2vs0mg"},{"bike_id":"4452fbec-1879-4752-8623-11b615fe78d6","system_id":"levelo_inurba_marseille","lat":43.22934,"lon":5.3538,"is_reserved":false,"is_disabled":false,"rental_uris":{"android":"levelo://app?vid=4452fbec-1879-4752-8623-11b615fe78d6","ios":"levelo://app?vid=4452fbec-1879-4752-8623-11b615fe78d6"},"vehicle_type_id":"4","last_reported":1746029529,"current_range_meters":24800,"station_id":"cpo3532slgdg3j2ikp40","pricing_plan_id":"cebpf4jnsgd1na2vs0mg"},{"bike_id":"a606d383-9771-4ce5-b3e2-12f054583dfa","system_id":"levelo_inurba_marseille","lat":43.27999,"lon":5.40013,"is_reserved":false,"is_disabled":false,"rental_uris":{"android":"levelo://app?vid=a606d383-9771-4ce5-b3e2-12f054583dfa","ios":"levelo://app?vid=a606d383-9771-4ce5-b3e2-12f054583dfa"},"vehicle_type_id":"4","last_reported":1746029529,"current_range_meters":24800,"station_id":"ce4bho92rcd13ifvqh4g","pricing_plan_id":"cebpf4jnsgd1na2vs0mg"},{"bike_id":"830be8f0-b813-4d59-b2f2-d4033b104b18","system_id":"levelo_inurba_marseille","lat":43.21762,"lon":5.34584,"is_reserved":false,"is_disabled":false,"rental_uris":{"android":"levelo://app?vid=830be8f0-b813-4d59-b2f2-d4033b104b18","ios":"levelo://app?vid=830be8f0-b813-4d59-b2f2-d4033b104b18"},"vehicle_type_id":"4","last_reported":1746029529,"current_range_meters":24800,"station_id":"st_cvj6r9ubvosntc0bgbag","pricing_plan_id":"cebpf4jnsgd1na2vs0mg"},{"bike_id":"a88ed632-926c-43ab-a502-42777c9325f4","system_id":"levelo_inurba_marseille","lat":43.31332,"lon":5.39685,"is_reserved":false,"is_disabled":false,"rental_uris":{"android":"levelo://app?vid=a88ed632-926c-43ab-a502-42777c9325f4","ios":"levelo://app?vid=a88ed632-926c-43ab-a502-42777c9325f4"},"vehicle_type_id":"4","last_reported":1746029529,"current_range_meters":24800,"station_id":"ce4bgvp2rcd13ifvqcu0","pricing_plan_id":"cebpf4jnsgd1na2vs0mg"},{"bike_id":"4d572c83-2fed-496a-9e48-258121a4e403","system_id":"levelo_inurba_marseille","lat":43.29197,"lon":5.35815,"is_reserved":false,"is_disabled":false,"rental_uris":{"android":"levelo://app?vid=4d572c83-2fed-496a-9e48-258121a4e403","ios":"levelo://app?vid=4d572c83-2fed-496a-9e48-258121a4e403"},"vehicle_type_id":"4","last_reported":1746029529,"current_range_meters":25200,"station_id":"ce4bhb12rcd13ifvqel0","pricing_plan_id":"cebpf4jnsgd1na2vs0mg"},{"bike_id":"394ac1f1-7513-4e6b-a38c-ec4ed9504a01","system_id":"levelo_inurba_marseille","lat":43.21762,"lon":5.34573,"is_reserved":false,"is_disabled":false,"rental_uris":{"android":"levelo://app?vid=394ac1f1-7513-4e6b-a38c-ec4ed9504a01","ios":"levelo://app?vid=394ac1f1-7513-4e6b-a38c-ec4ed9504a01"},"vehicle_type_id":"4","last_reported":1746029529,"current_range_meters":25200,"station_id":"st_cvj6r9ubvosntc0bgbag","pricing_plan_id":"cebpf4jnsgd1na2vs0mg"},{"bike_id":"37b4af9e-7fbc-429c-af1c-121987e38832","system_id":"levelo_inurba_marseille","lat":43.31689,"lon":5.37794,"is_reserved":false,"is_disabled":false,"rental_uris":{"android":"levelo://app?vid=37b4af9e-7fbc-429c-af1c-121987e38832","ios":"levelo://app?vid=37b4af9e-7fbc-429c-af1c-121987e38832"},"vehicle_type_id":"4","last_reported":1746029529,"current_range_meters":25200,"station_id":"ce4bgth2rcd13ifvqch0","pricing_plan_id":"cebpf4jnsgd1na2vs0mg"},{"bike_id":"9b587a65-c79f-43ca-bf02-c400b8565629","system_id":"levelo_inurba_marseille","lat":43.29297,"lon":5.37159,"is_reserved":false,"is_disabled":false,"rental_uris":{"android":"levelo://app?vid=9b587a65-c79f-43ca-bf02-c400b8565629","ios":"levelo://app?vid=9b587a65-c79f-43ca-bf02-c400b8565629"},"vehicle_type_id":"4","last_reported":1746029529,"current_range_meters":25200,"station_id":"ce4bgh92rcd13ifvqb40","pricing_plan_id":"cebpf4jnsgd1na2vs0mg"},{"bike_id":"25990aac-7482-40db-ae6e-bc1487fd17f4","system_id":"levelo_inurba_marseille","lat":43.29004,"lon":5.35619,"is_reserved":false,"is_disabled":false,"rental_uris":{"android":"levelo://app?vid=25990aac-7482-40db-ae6e-bc1487fd17f4","ios":"levelo://app?vid=25990aac-7482-40db-ae6e-bc1487fd17f4"},"vehicle_type_id":"4","last_reported":1746029529,"current_range_meters":25200,"station_id":"ce4bhb92rcd13ifvqen0","pricing_plan_id":"cebpf4jnsgd1na2vs0mg"},