{"last_updated":1712606879,"ttl":30,"version":"2.2","data":{"bikes":[{"bike_id":"99a2134b-199d-4c21-acab-0c7a07d6b892","system_id":"levelo_inurba_marseille","lat":43.31352,"lon":5.36726,"is_reserved":false,"is_disabled":false,"rental_uris":{"android":"levelo://app?vid=99a2134b-199d-4c21-acab-0c7a07d6b892","ios":"levelo://app?vid=99a2134b-199d-4c21-acab-0c7a07d6b892"},"vehicle_type_id":"4","last_reported":1712606879,"current_range_meters":0,"station_id":"ce4bgr92rcd13ifvqc6g","pricing_plan_id":"cebpf4jnsgd1na2vs0mg"},{"bike_id":"47e1ba14-1939-4756-a64a-a297099cc76c","system_id":"levelo_inurba_marseille","lat":43.312239,"lon":5.368562,"is_reserved":false,"is_disabled":false,"rental_uris":{"android":"levelo://app?vid=47e1ba14-1939-4756-a64a-a297099cc76c","ios":"levelo://app?vid=47e1ba14-1939-4756-a64a-a297099cc76c"},"vehicle_type_id":"4","last_reported":1712606879,"current_range_meters":18000,"station_id":"ce4bgl92rcd13ifvqbq0","pricing_plan_id":"cebpf4jnsgd1na2vs0mg"},{"bike_id":"5e25fdfb-2819-4bdb-b0f5-7e39527f56eb","system_id":"levelo_inurba_marseille","lat":43.309076,"lon":5.368465,"is_reserved":false,"is_disabled":false,"rental_uris":{"android":"levelo://app?vid=5e25fdfb-2819-4bdb-b0f5-7e39527f56eb","ios":"levelo://app?vid=5e25fdfb-2819-4bdb-b0f5-7e39527f56eb"},"vehicle_type_id":"4","last_reported":1712606879,"current_range_meters":3200,"station_id":"ce4bgn92rcd13ifvqbvg","pricing_plan_id":"cebpf4jnsgd1na2vs0mg"},{"bike_id":"73706916-b3f3-4ff0-b068-cec67895e8b1","system_id":"levelo_inurba_marseille","lat":43.308466,"lon":5.367765,"is_reserved":false,"is_disabled":false,"rental_uris":{"android":"levelo://app?vid=73706916-b3f3-4ff0-b068-cec67895e8b1","ios":"levelo://app?vid=73706916-b3f3-4ff0-b068-cec67895e8b1"},"vehicle_type_id":"4","last_reported":1712606879,"current_range_meters":3200,"station_id":"","pricing_plan_id":"cebpf4jnsgd1na2vs0mg"},{"bike_id":"017eda42-9436-4e86-b9ed-472bb2cc03e2","system_id":"levelo_inurba_marseille","lat":43.314811,"lon":5.373104,"is_reserved":false,"is_disabled":false,"rental_uris":{"android":"levelo://app?vid=017eda42-9436-4e86-b9ed-472bb2cc03e2","ios":"levelo://app?vid=017eda42-9436-4e86-b9ed-472bb2cc03e2"},"vehicle_type_id":"4","last_reported":1712606879,"current_range_meters":12800,"station_id":"ce4bgt12rcd13ifvqcd0","pricing_plan_id":"cebpf4jnsgd1na2vs0mg"},{"bike_id":"e01dcd44-f5e7-45bb-9ff9-fa8a0d142d08","system_id":"levelo_inurba_marseille","lat":43.314811,"lon":5.373103,"is_reserved":false,"is_disabled":false,"rental_uris":{"android":"levelo://app?vid=e01dcd44-f5e7-45bb-9ff9-fa8a0d142d08","ios":"levelo://app?vid=e01dcd44-f5e7-45bb-9ff9-fa8a0d142d08"},"vehicle_type_id":"4","last_reported":1712606879,"current_range_meters":0,"station_id":"ce4bgt12rcd13ifvqcd0","pricing_plan_id":"cebpf4jnsgd1na2vs0mg"},{"bike_id":"d979e516-377c-4648-99aa-a4cc267374f2","system_id":"levelo_inurba_marseille","lat":43.309039,"lon":5.371797,"is_reserved":false,"is_disabled":false,"rental_uris":{"android":"levelo://app?vid=d979e516-377c-4648-99aa-a4cc267374f2","ios":"levelo://app?vid=d979e516-377c-4648-99aa-a4cc267374f2"},"vehicle_type_id":"4","last_reported":1712606879,"current_range_meters":12000,"station_id":"ce4bguh2rcd13ifvqckg","pricing_plan_id":"cebpf4jnsgd1na2vs0mg"},{"bike_id":"95a546df-f1b6-475c-8ea0-ecbfac20a234","system_id":"levelo_inurba_marseille","lat":43.309034,"lon":5.371783,"is_reserved":false,"is_disabled":false,"rental_uris":{"android":"levelo://app?vid=95a546df-f1b6-475c-8ea0-ecbfac20a234","ios":"levelo://app?vid=95a546df-f1b6-475c-8ea0-ecbfac20a234"},"vehicle_type_id":"4","last_reported":1712606879,"current_range_meters":17600,"station_id":"ce4bguh2rcd13ifvqckg","pricing_plan_id":"cebpf4jnsgd1na2vs0mg"},{"bike_id":"59211f08-0990-4089-be8f-5fd37ba0a086","system_id":"levelo_inurba_marseille","lat":43.31542,"lon":5.37446,"is_reserved":false,"is_disabled":false,"rental_uris":{"android":"levelo://app?vid=59211f08-0990-4089-be8f-5fd37ba0a086","ios":"levelo://app?vid=59211f08-0990-4089-be8f-5fd37ba0a086"},"vehicle_type_id":"4","last_reported":1712606879,"current_range_meters":13600,"station_id":"","pricing_plan_id":"cebpf4jnsgd1na2vs0mg"},{"bike_id":"1de33b18-6f4c-44e5-8782-f7b37569fe37","system_id":"levelo_inurba_marseille","lat":43.30558,"lon":5.3653,"is_reserved":false,"is_disabled":false,"rental_uris":{"android":"levelo://app?vid=1de33b18-6f4c-44e5-8782-f7b37569fe37","ios":"levelo://app?vid=1de33b18-6f4c-44e5-8782-f7b37569fe37"},"vehicle_type_id":"4","last_reported":1712606879,"current_range_meters":22400,"station_id":"ce4bgs12rcd13ifvqcag","pricing_plan_id":"cebpf4jnsgd1na2vs0mg"},{"bike_id":"0c98d407-33b0-413a-b662-822672b73612","system_id":"levelo_inurba_marseille","lat":43.30558,"lon":5.3653,"is_reserved":false,"is_disabled":false,"rental_uris":{"android":"levelo://app?vid=0c98d407-33b0-413a-b662-822672b73612","ios":"levelo://app?vid=0c98d407-33b0-413a-b662-822672b73612"},"vehicle_type_id":"4","last_reported":1712606879,"current_range_meters":0,"station_id":"ce4bgs12rcd13ifvqcag","pricing_plan_id":"cebpf4jnsgd1na2vs0mg"},{"bike_id":"0f6d8882-7f76-41a7-bd65-70c5952de0b3","system_id":"levelo_inurba_marseille","lat":43.31048,"lon":5.376693,"is_reserved":false,"is_disabled":false,"rental_uris":{"android":"levelo://app?vid=0f6d8882-7f76-41a7-bd65-70c5952de0b3","ios":"levelo://app?vid=0f6d8882-7f76-41a7-bd65-70c5952de0b3"},"vehicle_type_id":"4","last_reported":1712606879,"current_range_meters":6000,"station_id":"","pricing_plan_id":"cebpf4jnsgd1na2vs0mg"},{"bike_id":"b3ea27d3-ce2e-47bd-9f2f-b9c26c610f3c","system_id":"levelo_inurba_marseille","lat":43.30602,"lon":5.37229,"is_reserved":false,"is_disabled":false,"rental_uris":{"android":"levelo://app?vid=b3ea27d3-ce2e-47bd-9f2f-b9c26c610f3c","ios":"levelo://app?vid=b3ea27d3-ce2e-47bd-9f2f-b9c26c610f3c"},"vehicle_type_id":"4","last_reported":1712606879,"current_range_meters":3200,"station_id":"ce4bgqh2rcd13ifvqc4g","pricing_plan_id":"cebpf4jnsgd1na2vs0mg"},{"bike_id":"4f964910-5e38-452d-bb60-e249ba3ab225","system_id":"levelo_inurba_marseille","lat":43.30602,"lon":5.3723,"is_reserved":false,"is_disabled":false,"rental_uris":{"android":"levelo://app?vid=4f964910-5e38-452d-bb60-e249ba3ab225","ios":"levelo://app?vid=4f964910-5e38-452d-bb60-e249ba3ab225"},"vehicle_type_id":"4","last_reported":1712606879,"current_range_meters":24800,"station_id":"ce4bgqh2rcd13ifvqc4g","pricing_plan_id":"cebpf4jnsgd1na2vs0mg"},{"bike_id":"fbb8da5a-9527-4456-98cd-503244152eb1","system_id":"levelo_inurba_marseille","lat":43.306,"lon":5.37232,"is_reserved":false,"is_disabled":false,"rental_uris":{"android":"levelo://app?vid=fbb8da5a-9527-4456-98cd-503244152eb1","ios":"levelo://app?vid=fbb8da5a-9527-4456-98cd-503244152eb1"},"vehicle_type_id":"4","last_reported":1712606879,"current_range_meters":12000,"station_id":"ce4bgqh2rcd13ifvqc4g","pricing_plan_id":"cebpf4jnsgd1na2vs0mg"},{"bike_id":"f42487ec-df86-4aa6-8d0d-ea611cb43051","system_id":"levelo_inurba_marseille","lat":43.31112,"lon":5.37766,"is_reserved":false,"is_disabled":false,"rental_uris":{"android":"levelo://app?vid=f42487ec-df86-4aa6-8d0d-ea611cb43051","ios":"levelo://app?vid=f42487ec-df86-4aa6-8d0d-ea611cb43051"},"vehicle_type_id":"4","last_reported":1712606879,"current_range_meters":0,"station_id":"ce4bgt92rcd13ifvqcg0","pricing_plan_id":"cebpf4jnsgd1na2vs0mg"},{"bike_id":"77c460f4-cabf-4ad3-8c2a-f634704fe794","system_id":"levelo_inurba_marseille","lat":43.30786,"lon":5.37648,"is_reserved":false,"is_disabled":false,"rental_uris":{"android":"levelo://app?vid=77c460f4-cabf-4ad3-8c2a-f634704fe794","ios":"levelo://app?vid=77c460f4-cabf-4ad3-8c2a-f634704fe794"},"vehicle_type_id":"4","last_reported":1712606879,"current_range_meters":400,"station_id":"ce4bgv92rcd13ifvqcq0","pricing_plan_id":"cebpf4jnsgd1na2vs0mg"},{"bike_id":"ac98e0ba-2c51-4089-9115-c16d8a339180","system_id":"levelo_inurba_marseille","lat":43.30783,"lon":5.37656,"is_reserved":false,"is_disabled":false,"rental_uris":{"android":"levelo://app?vid=ac98e0ba-2c51-4089-9115-c16d8a339180","ios":"levelo://app?vid=ac98e0ba-2c51-4089-9115-c16d8a339180"},"vehicle_type_id":"4","last_reported":1712606879,"current_range_meters":0,"station_id":"ce4bgv92rcd13ifvqcq0","pricing_plan_id":"cebpf4jnsgd1na2vs0mg"},{"bike_id":"de1cd848-1df6-4d77-b558-abefa8dd758d","system_id":"levelo_inurba_marseille","lat":43.317075,"lon":5.377367,"is_reserved":false,"is_disabled":false,"rental_uris":{"android":"levelo://app?vid=de1cd848-1df6-4d77-b558-abefa8dd758d","ios":"levelo://app?vid=de1cd848-1df6-4d77-b558-abefa8dd758d"},"vehicle_type_id":"4","last_reported":1712606879,"current_range_meters":26800,"station_id":"ce4bgth2rcd13ifvqch0","pricing_plan_id":"cebpf4jnsgd1na2vs0mg"},{"bike_id":"6f902fbe-47fc-4cfd-9e85-6dd4c1c94558","system_id":"levelo_inurba_marseille","lat":43.303046,"lon":5.368981,"is_reserved":false,"is_disabled":false,"rental_uris":{"android":"levelo://app?vid=6f902fbe-47fc-4cfd-9e85-6dd4c1c94558","ios":"levelo://app?vid=6f902fbe-47fc-4cfd-9e85-6dd4c1c94558"},"vehicle_type_id":"4","last_reported":1712606879,"current_range_meters":18000,"station_id":"ce4bgqh2rcd13ifvqc5g","pricing_plan_id":"cebpf4jnsgd1na2vs0mg"},{"bike_id":"c10205ff-22c3-409d-a112-710f521d028f","system_id":"levelo_inurba_marseille","lat":43.303046,"lon":5.368981,"is_reserved":false,"is_disabled":false,"rental_uris":{"android":"levelo://app?vid=c10205ff-22c3-409d-a112-710f521d028f","ios":"levelo://app?vid=c10205ff-22c3-409d-a112-710f521d028f"},"vehicle_type_id":"4","last_reported":1712606879,"current_range_meters":30000,"station_id":"ce4bgqh2rcd13ifvqc5g","pricing_plan_id":"cebpf4jnsgd1na2vs0mg"},{"bike_id":"aca00e68-699e-4e24-9c3a-ab2674a67277","system_id":"levelo_inurba_marseille","lat":43.303046,"lon":5.368981,"is_reserved":false,"is_disabled":false,"rental_uris":{"android":"levelo://app?vid=aca00e68-699e-4e24-9c3a-ab2674a67277","ios":"levelo://app?vid=aca00e68-699e-4e24-9c3a-ab2674a67277"},"vehicle_type_id":"4","last_reported":1712606879,"current_range_meters":30000,"station_id":"ce4bgqh2rcd13ifvqc5g","pricing_plan_id":"cebpf4jnsgd1na2vs0mg"},{"bike_id":"cc127cff-827c-4bba-818b-39554b2a3610","system_id":"levelo_inurba_marseille","lat":43.303046,"lon":5.368981,"is_reserved":false,"is_disabled":false,"rental_uris":{"android":"levelo://app?vid=cc127cff-827c-4bba-818b-39554b2a3610","ios":"levelo://app?vid=cc127cff-827c-4bba-818b-39554b2a3610"},"vehicle_type_id":"4","last_reported":1712606879,"current_range_meters":20800,"station_id":"ce4bgqh2rcd13ifvqc5g","pricing_plan_id":"cebpf4jnsgd1na2vs0mg"},{"bike_id":"eb01b0e6-fe31-4e71-850f-6aaf98c86b1e","system_id":"levelo_inurba_marseille","lat":43.30963,"lon":5.37964,"is_reserved":false,"is_disabled":false,"rental_uris":{"android":"levelo://app?vid=eb01b0e6-fe31-4e71-850f-6aaf98c86b1e","ios":"levelo://app?vid=eb01b0e6-fe31-4e71-850f-6aaf98c86b1e"},"vehicle_type_id":"4","last_reported":1712606879,"current_range_meters":0,"station_id":"","pricing_plan_id":"cebpf4jnsgd1na2vs0mg"},{"bike_id":"07565a6b-9f4d-4398-88c8-95d4b948f499","system_id":"levelo_inurba_marseille","lat":43.30306,"lon":5.368914,"is_reserved":false,"is_disabled":false,"rental_uris":{"android":"levelo://app?vid=07565a6b-9f4d-4398-88c8-95d4b948f499","ios":"levelo://app?vid=07565a6b-9f4d-4398-88c8-95d4b948f499"},"vehicle_type_id":"4","last_reported":1712606879,"current_range_meters":7600,"station_id":"ce4bgqh2rcd13ifvqc5g","pricing_plan_id":"cebpf4jnsgd1na2vs0mg"},{"bike_id":"c3e11a33-6c86-4b66-9a6e-4d6c0e400075","system_id":"levelo_inurba_marseille","lat":43.315289,"lon":5.380349,"is_reserved":false,"is_disabled":false,"rental_uris":{"android":"levelo://app?vid=c3e11a33-6c86-4b66-9a6e-4d6c0e400075","ios":"levelo://app?vid=c3e11a33-6c86-4b66-9a6e-4d6c0e400075"},"vehicle_type_id":"4","last_reported":1712606879,"current_range_meters":28000,"station_id":"ce4bhsp2rcd13ifvqi50","pricing_plan_id":"cebpf4jnsgd1na2vs0mg"},{"bike_id":"416293f7-3680-4904-be01-fd0673043d90","system_id":"levelo_inurba_marseille","lat":43.304606,"lon":5.379026,"is_reserved":false,"is_disabled":false,"rental_uris":{"android":"levelo://app?vid=416293f7-3680-4904-be01-fd0673043d90","ios":"levelo://app?vid=416293f7-3680-4904-be01-fd0673043d90"},"vehicle_type_id":"4","last_reported":1712606879,"current_range_meters":26000,"station_id":"ce4bgup2rcd13ifvqcn0","pricing_plan_id":"cebpf4jnsgd1na2vs0mg"},{"bike_id":"d515348e-3a54-4b96-baa7-5774c37eb21e","system_id":"levelo_inurba_marseille","lat":43.304606,"lon":5.379026,"is_reserved":false,"is_disabled":false,"rental_uris":{"android":"levelo://app?vid=d515348e-3a54-4b96-baa7-5774c37eb21e","ios":"levelo://app?vid=d515348e-3a54-4b96-baa7-5774c37eb21e"},"vehicle_type_id":"4","last_reported":1712606879,"current_range_meters":4400,"station_id":"ce4bgup2rcd13ifvqcn0","pricing_plan_id":"cebpf4jnsgd1na2vs0mg"},{"bike_id":"836f4623-2225-47ca-a21d-c74ac7e67ab4","system_id":"levelo_inurba_marseille","lat":43.32473,"lon":5.36575,"is_reserved":false,"is_disabled":false,"rental_uris":{"android":"levelo://app?vid=836f4623-2225-47ca-a21d-c74ac7e67ab4","ios":"levelo://app?vid=836f4623-2225-47ca-a21d-c74ac7e67ab4"},"vehicle_type_id":"4","last_reported":1712606879,"current_range_meters":18000,"station_id":"ce4bhs12rcd13ifvqhvg","pricing_plan_id":"cebpf4jnsgd1na2vs0mg"},{"bike_id":"dd1eeaf3-7ce5-435e-b6c8-fd616106d621","system_id":"levelo_inurba_marseille","lat":43.324771,"lon":5.36557,"is_reserved":false,"is_disabled":false,"rental_uris":{"android":"levelo://app?vid=dd1eeaf3-7ce5-435e-b6c8-fd616106d621","ios":"levelo://app?vid=dd1eeaf3-7ce5-435e-b6c8-fd616106d621"},"vehicle_type_id":"4","last_reported":1712606879,"current_range_meters":20000,"station_id":"ce4bhs12rcd13ifvqhvg","pricing_plan_id":"cebpf4jnsgd1na2vs0mg"},{"bike_id":"d453f5f1-b263-477b-864b-bf2146099cf6","system_id":"levelo_inurba_marseille","lat":43.324771,"lon":5.36557,"is_reserved":false,"is_disabled":false,"rental_uris":{"android":"levelo://app?vid=d453f5f1-b263-477b-864b-bf2146099cf6","ios":"levelo://app?vid=d453f5f1-b263-477b-864b-bf2146099cf6"},"vehicle_type_id":"4","last_reported":1712606879,"current_range_meters":19600,"station_id":"ce4bhs12rcd13ifvqhvg","pricing_plan_id":"cebpf4jnsgd1na2vs0mg"},{"bike_id":"d12e7c2e-a3f2-4647-9ec1-aad839340afa","system_id":"levelo_inurba_marseille","lat":43.324771,"lon":5.36557,"is_reserved":false,"is_disabled":false,"rental_uris":{"android":"levelo://app?vid=d12e7c2e-a3f2-4647-9ec1-aad839340afa","ios":"levelo://app?vid=d12e7c2e-a3f2-4647-9ec1-aad839340afa"},"vehicle_type_id":"4","last_reported":1712606879,"current_range_meters":14800,"station_id":"ce4bhs12rcd13ifvqhvg","pricing_plan_id":"cebpf4jnsgd1na2vs0mg"},{"bike_id":"d3b996e9-4da1-4b89-87ff-4d5a0f28982e","system_id":"levelo_inurba_marseille","lat":43.324771,"lon":5.36557,"is_reserved":false,"is_disabled":false,"rental_uris":{"android":"levelo://app?vid=d3b996e9-4da1-4b89-87ff-4d5a0f28982e","ios":"levelo://app?vid=d3b996e9-4da1-4b89-87ff-4d5a0f28982e"},"vehicle_type_id":"4","last_reported":1712606879,"current_range_meters":15600,"station_id":"ce4bhs12rcd13ifvqhvg","pricing_plan_id":"cebpf4jnsgd1na2vs0mg"},{"bike_id":"f2f0a323-f4cf-4d69-bda0-3382b45e92bd","system_id":"levelo_inurba_marseille","lat":43.324786,"lon":5.365779,"is_reserved":false,"is_disabled":false,"rental_uris":{"android":"levelo://app?vid=f2f0a323-f4cf-4d69-bda0-3382b45e92bd","ios":"levelo://app?vid=f2f0a323-f4cf-4d69-bda0-3382b45e92bd"},"vehicle_type_id":"4","last_reported":1712606879,"current_range_meters":9600,"station_id":"ce4bhs12rcd13ifvqhvg","pricing_plan_id":"cebpf4jnsgd1na2vs0mg"},{"bike_id":"b61f5fce-3370-4eb2-9cfe-757ef3a5f155","system_id":"levelo_inurba_marseille","lat":43.324771,"lon":5.36557,"is_reserved":false,"is_disabled":false,"rental_uris":{"android":"levelo://app?vid=b61f5fce-3370-4eb2-9cfe-757ef3a5f155","ios":"levelo://app?vid=b61f5fce-3370-4eb2-9cfe-757ef3a5f155"},"vehicle_type_id":"4","last_reported":1712606879,"current_range_meters":25600,"station_id":"ce4bhs12rcd13ifvqhvg","pricing_plan_id":"cebpf4jnsgd1na2vs0mg"},{"bike_id":"b7373fc7-088e-4fcb-9af9-2e8e176eee32","system_id":"levelo_inurba_marseille","lat":43.308051,"lon":5.43527,"is_reserved":false,"is_disabled":false,"rental_uris":{"android":"levelo://app?vid=b7373fc7-088e-4fcb-9af9-2e8e176eee32","ios":"levelo://app?vid=b7373fc7-088e-4fcb-9af9-2e8e176eee32"},"vehicle_type_id":"4","last_reported":1712606879,"current_range_meters":1600,"station_id":"ce4bhph2rcd13ifvqheg","pricing_plan_id":"cebpf4jnsgd1na2vs0mg"},{"bike_id":"93f39419-5cbf-400a-91d0-19b962f1e4df","system_id":"levelo_inurba_marseille","lat":43.324771,"lon":5.36557,"is_reserved":false,"is_disabled":false,"rental_uris":{"android":"levelo://app?vid=93f39419-5cbf-400a-91d0-19b962f1e4df","ios":"levelo://app?vid=93f39419-5cbf-400a-91d0-19b962f1e4df"},"vehicle_type_id":"4","last_reported":1712606879,"current_range_meters":5200,"station_id":"ce4bhs12rcd13ifvqhvg","pricing_plan_id":"cebpf4jnsgd1na2vs0mg"},{"bike_id":"7f1175c4-0172-440d-b61d-b816cff96fbc","system_id":"levelo_inurba_marseille","lat":43.324771,"lon":5.36557,"is_reserved":false,"is_disabled":false,"rental_uris":{"android":"levelo://app?vid=7f1175c4-0172-440d-b61d-b816cff96fbc","ios":"levelo://app?vid=7f1175c4-0172-440d-b61d-b816cff96fbc"},"vehicle_type_id":"4","last_reported":1712606879,"current_range_meters":21600,"station_id":"ce4bhs12rcd13ifvqhvg","pricing_plan_id":"cebpf4jnsgd1na2vs0mg"},{"bike_id":"5cd7436a-1c11-4873-af7d-baa07ac34cd8","system_id":"levelo_inurba_marseille","lat":43.324771,"lon":5.36557,"is_reserved":false,"is_disabled":false,"rental_uris":{"android":"levelo://app?vid=5cd7436a-1c11-4873-af7d-baa07ac34cd8","ios":"levelo://app?vid=5cd7436a-1c11-4873-af7d-baa07ac34cd8"},"vehicle_type_id":"4","last_reported":1712606879,"current_range_meters":21200,"station_id":"ce4bhs12rcd13ifvqhvg","pricing_plan_id":"cebpf4jnsgd1na2vs0mg"},{"bike_id":"466fa14b-daa3-4177-b540-e71b4a8e6995","system_id":"levelo_inurba_marseille","lat":43.324771,"lon":5.36557,"is_reserved":false,"is_disabled":false,"rental_uris":{"android":"levelo://app?vid=466fa14b-daa3-4177-b540-e71b4a8e6995","ios":"levelo://app?vid=466fa14b-daa3-4177-b540-e71b4a8e6995"},"vehicle_type_id":"4","last_reported":1712606879,"current_range_meters":21200,"station_id":"ce4bhs12rcd13ifvqhvg","pricing_plan_id":"cebpf4jnsgd1na2vs0mg"},{"bike_id":"8c866bc7-737e-4c29-8bba-ab56157d3a7a","system_id":"levelo_inurba_marseille","lat":43.324771,"lon":5.36557,"is_reserved":false,"is_disabled":false,"rental_uris":{"android":"levelo://app?vid=8c866bc7-737e-4c29-8bba-ab56157d3a7a","ios":"levelo://app?vid=8c866bc7-737e-4c29-8bba-ab56157d3a7a"},"vehicle_type_id":"4","last_reported":1712606879,"current_range_meters":2400,"station_id":"ce4bhs12rcd13ifvqhvg","pricing_plan_id":"cebpf4jnsgd1na2vs0mg"},{"bike_id":"28a60fa5-83d7-47ac-8e02-bbd9305ed0d8","system_id":"levelo_inurba_marseille","lat":43.32489,"lon":5.36579,"is_reserved":false,"is_disabled":false,"rental_uris":{"android":"levelo://app?vid=28a60fa5-83d7-47ac-8e02-bbd9305ed0d8","ios":"levelo://app?vid=28a60fa5-83d7-47ac-8e02-bbd9305ed0d8"},"vehicle_type_id":"4","last_reported":1712606879,"current_range_meters":14000,"station_id":"ce4bhs12rcd13ifvqhvg","pricing_plan_id":"cebpf4jnsgd1na2vs0mg"},{"bike_id":"2e733b11-0932-42ac-9897-af97dadae357","system_id":"levelo_inurba_marseille","lat":43.310804,"lon":5.38359,"is_reserved":false,"is_disabled":false,"rental_uris":{"android":"levelo://app?vid=2e733b11-0932-42ac-9897-af97dadae357","ios":"levelo://app?vid=2e733b11-0932-42ac-9897-af97dadae357"},"vehicle_type_id":"4","last_reported":1712606879,"current_range_meters":10800,"station_id":"ce4bgv92rcd13ifvqcr0","pricing_plan_id":"cebpf4jnsgd1na2vs0mg"},{"bike_id":"27c81a18-cdda-4f1a-8d82-041f4af2b280","system_id":"levelo_inurba_marseille","lat":43.310804,"lon":5.38359,"is_reserved":false,"is_disabled":false,"rental_uris":{"android":"levelo://app?vid=27c81a18-cdda-4f1a-8d82-041f4af2b280","ios":"levelo://app?vid=27c81a18-cdda-4f1a-8d82-041f4af2b280"},"vehicle_type_id":"4","last_reported":1712606879,"current_range_meters":13600,"station_id":"ce4bgv92rcd13ifvqcr0","pricing_plan_id":"cebpf4jnsgd1na2vs0mg"},{"bike_id":"e128747c-f9a0-4cc0-8919-21ef10f15135","system_id":"levelo_inurba_marseille","lat":43.310804,"lon":5.38359,"is_reserved":false,"is_disabled":false,"rental_uris":{"android":"levelo://app?vid=e128747c-f9a0-4cc0-8919-21ef10f15135","ios":"levelo://app?vid=e128747c-f9a0-4cc0-8919-21ef10f15135"},"vehicle_type_id":"4","last_reported":1712606879,"current_range_meters":28000,"station_id":"ce4bgv92rcd13ifvqcr0","pricing_plan_id":"cebpf4jnsgd1na2vs0mg"},{"bike_id":"56ebc9ba-9029-489c-a41e-d7a503d6c066","system_id":"levelo_inurba_marseille","lat":43.310804,"lon":5.38359,"is_reserved":false,"is_disabled":false,"rental_uris":{"android":"levelo://app?vid=56ebc9ba-9029-489c-a41e-d7a503d6c066","ios":"levelo://app?vid=56ebc9ba-9029-489c-a41e-d7a503d6c066"},"vehicle_type_id":"4","last_reported":1712606879,"current_range_meters":800,"station_id":"ce4bgv92rcd13ifvqcr0","pricing_plan_id":"cebpf4jnsgd1na2vs0mg"},{"bike_id":"4044e230-9ab2-4b00-bfb5-01d853d6d22f","system_id":"levelo_inurba_marseille","lat":43.310804,"lon":5.38359,"is_reserved":false,"is_disabled":false,"rental_uris":{"android":"levelo://app?vid=4044e230-9ab2-4b00-bfb5-01d853d6d22f","ios":"levelo://app?vid=4044e230-9ab2-4b00-bfb5-01d853d6d22f"},"vehicle_type_id":"4","last_reported":1712606879,"current_range_meters":3600,"station_id":"ce4bgv92rcd13ifvqcr0","pricing_plan_id":"cebpf4jnsgd1na2vs0mg"},{"bike_id":"6c98f2c1-2659-4153-aba4-686a879422ed","system_id":"levelo_inurba_marseille","lat":43.310804,"lon":5.38359,"is_reserved":false,"is_disabled":false,"rental_uris":{"android":"levelo://app?vid=6c98f2c1-2659-4153-aba4-686a879422ed","ios":"levelo://app?vid=6c98f2c1-2659-4153-aba4-686a879422ed"},"vehicle_type_id":"4","last_reported":1712606879,"current_range_meters":0,"station_id":"ce4bgv92rcd13ifvqcr0","pricing_plan_id":"cebpf4jnsgd1na2vs0mg"},{"bike_id":"eed9f50b-693e-436c-86ae-b69649481a6e","system_id":"levelo_inurba_marseille","lat":43.301429,"lon":5.37413,"is_reserved":false,"is_disabled":false,"rental_uris":{"android":"levelo://app?vid=eed9f50b-693e-436c-86ae-b69649481a6e","ios":"levelo://app?vid=eed9f50b-693e-436c-86ae-b69649481a6e"},"vehicle_type_id":"4","last_reported":1712606879,"current_range_meters":6000,"station_id":"ce4bgs92rcd13ifvqcc0","pricing_plan_id":"cebpf4jnsgd1na2vs0mg"},{"bike_id":"ab25b299-622e-4ba6-b8de-e3485120b218","system_id":"levelo_inurba_marseille","lat":43.30144,"lon":5.37416,"is_reserved":false,"is_disabled":false,"rental_uris":{"android":"levelo://app?vid=ab25b299-622e-4ba6-b8de-e3485120b218","ios":"levelo://app?vid=ab25b299-622e-4ba6-b8de-e3485120b218"},"vehicle_type_id":"4","last_reported":1712606879,"current_range_meters":0,"station_id":"ce4bgs92rcd13ifvqcc0","pricing_plan_id":"cebpf4jnsgd1na2vs0mg"},{"bike_id":"0ea74695-5577-48a6-b0c1-b4adea9f3946","system_id":"levelo_inurba_marseille","lat":43.30143,"lon":5.37413,"is_reserved":false,"is_disabled":false,"rental_uris":{"android":"levelo://app?vid=0ea74695-5577-48a6-b0c1-b4adea9f3946","ios":"levelo://app?vid=0ea74695-5577-48a6-b0c1-b4adea9f3946"},"vehicle_type_id":"4","last_reported":1712606879,"current_range_meters":21200,"station_id":"ce4bgs92rcd13ifvqcc0","pricing_plan_id":"cebpf4jnsgd1na2vs0mg"},{"bike_id":"3485b9a3-850a-4cd8-a6cd-95aca3867dee","system_id":"levelo_inurba_marseille","lat":43.302784,"lon":5.377158,"is_reserved":false,"is_disabled":false,"rental_uris":{"android":"levelo://app?vid=3485b9a3-850a-4cd8-a6cd-95aca3867dee","ios":"levelo://app?vid=3485b9a3-850a-4cd8-a6cd-95aca3867dee"},"vehicle_type_id":"4","last_reported":1712606879,"current_range_meters":29200,"station_id":"ce4bguh2rcd13ifvqcj0","pricing_plan_id":"cebpf4jnsgd1na2vs0mg"},{"bike_id":"acbd54a4-0d9c-4a98-80c8-0d983933e6f7","system_id":"levelo_inurba_marseille","lat":43.313291,"lon":5.396838,"is_reserved":false,"is_disabled":false,"rental_uris":{"android":"levelo://app?vid=acbd54a4-0d9c-4a98-80c8-0d983933e6f7","ios":"levelo://app?vid=acbd54a4-0d9c-4a98-80c8-0d983933e6f7"},"vehicle_type_id":"4","last_reported":1712606879,"current_range_meters":7600,"station_id":"ce4bgvp2rcd13ifvqcu0","pricing_plan_id":"cebpf4jnsgd1na2vs0mg"},{"bike_id":"9f0d84af-2cc9-4a6c-8b2e-1618848b7c02","system_id":"levelo_inurba_marseille","lat":43.285742,"lon":5.395004,"is_reserved":false,"is_disabled":false,"rental_uris":{"android":"levelo://app?vid=9f0d84af-2cc9-4a6c-8b2e-1618848b7c02","ios":"levelo://app?vid=9f0d84af-2cc9-4a6c-8b2e-1618848b7c02"},"vehicle_type_id":"4","last_reported":1712606879,"current_range_meters":18400,"station_id":"ce4bh292rcd13ifvqdg0","pricing_plan_id":"cebpf4jnsgd1na2vs0mg"},{"bike_id":"507057a2-9c2c-46c8-9eea-7e4653b466e6","system_id":"levelo_inurba_marseille","lat":43.31353,"lon":5.38496,"is_reserved":false,"is_disabled":false,"rental_uris":{"android":"levelo://app?vid=507057a2-9c2c-46c8-9eea-7e4653b466e6","ios":"levelo://app?vid=507057a2-9c2c-46c8-9eea-7e4653b466e6"},"vehicle_type_id":"4","last_reported":1712606879,"current_range_meters":0,"station_id":"ce4bgt92rcd13ifvqcf0","pricing_plan_id":"cebpf4jnsgd1na2vs0mg"},{"bike_id":"c4054830-584a-4c53-b39c-ce84e2fd8932","system_id":"levelo_inurba_marseille","lat":43.3136,"lon":5.38497,"is_reserved":false,"is_disabled":false,"rental_uris":{"android":"levelo://app?vid=c4054830-584a-4c53-b39c-ce84e2fd8932","ios":"levelo://app?vid=c4054830-584a-4c53-b39c-ce84e2fd8932"},"vehicle_type_id":"4","last_reported":1712606879,"current_range_meters":8800,"station_id":"ce4bgt92rcd13ifvqcf0","pricing_plan_id":"cebpf4jnsgd1na2vs0mg"},{"bike_id":"da5ef7ba-3a72-496e-846a-b1926f773235","system_id":"levelo_inurba_marseille","lat":43.299724,"lon":5.371829,"is_reserved":false,"is_disabled":false,"rental_uris":{"android":"levelo://app?vid=da5ef7ba-3a72-496e-846a-b1926f773235","ios":"levelo://app?vid=da5ef7ba-3a72-496e-846a-b1926f773235"},"vehicle_type_id":"4","last_reported":1712606879,"current_range_meters":14400,"station_id":"ce4bgr92rcd13ifvqc7g","pricing_plan_id":"cebpf4jnsgd1na2vs0mg"},{"bike_id":"b9ae6dcb-5639-403d-9fcd-743f67e523cb","system_id":"levelo_inurba_marseille","lat":43.299748,"lon":5.371849,"is_reserved":false,"is_disabled":false,"rental_uris":{"android":"levelo://app?vid=b9ae6dcb-5639-403d-9fcd-743f67e523cb","ios":"levelo://app?vid=b9ae6dcb-5639-403d-9fcd-743f67e523cb"},"vehicle_type_id":"4","last_reported":1712606879,"current_range_meters":28400,"station_id":"ce4bgr92rcd13ifvqc7g","pricing_plan_id":"cebpf4jnsgd1na2vs0mg"},{"bike_id":"6dd41630-0d30-49ba-aea5-20e574d5d65b","system_id":"levelo_inurba_marseille","lat":43.29854,"lon":5.36442,"is_reserved":false,"is_disabled":false,"rental_uris":{"android":"levelo://app?vid=6dd41630-0d30-49ba-aea5-20e574d5d65b","ios":"levelo://app?vid=6dd41630-0d30-49ba-aea5-20e574d5d65b"},"vehicle_type_id":"4","last_reported":1712606879,"current_range_meters":12800,"station_id":"","pricing_plan_id":"cebpf4jnsgd1na2vs0mg"},{"bike_id":"d213532d-a064-44c7-bd9d-11f4ae3df545","system_id":"levelo_inurba_marseille","lat":43.30535,"lon":5.38433,"is_reserved":false,"is_disabled":false,"rental_uris":{"android":"levelo://app?vid=d213532d-a064-44c7-bd9d-11f4ae3df545","ios":"levelo://app?vid=d213532d-a064-44c7-bd9d-11f4ae3df545"},"vehicle_type_id":"4","last_reported":1712606879,"current_range_meters":24000,"station_id":"ce4bgg92rcd13ifvqb30","pricing_plan_id":"cebpf4jnsgd1na2vs0mg"},{"bike_id":"d31aac9c-ea71-4a29-b01c-6cec2d97a351","system_id":"levelo_inurba_marseille","lat":43.299201,"lon":5.374832,"is_reserved":false,"is_disabled":false,"rental_uris":{"android":"levelo://app?vid=d31aac9c-ea71-4a29-b01c-6cec2d97a351","ios":"levelo://app?vid=d31aac9c-ea71-4a29-b01c-6cec2d97a351"},"vehicle_type_id":"4","last_reported":1712606879,"current_range_meters":0,"station_id":"ce4bgjh2rcd13ifvqbg0","pricing_plan_id":"cebpf4jnsgd1na2vs0mg"},{"bike_id":"5f82762d-c75c-4a18-b105-0315aeb455dc","system_id":"levelo_inurba_marseille","lat":43.29921,"lon":5.37494,"is_reserved":false,"is_disabled":false,"rental_uris":{"android":"levelo://app?vid=5f82762d-c75c-4a18-b105-0315aeb455dc","ios":"levelo://app?vid=5f82762d-c75c-4a18-b105-0315aeb455dc"},"vehicle_type_id":"4","last_reported":1712606879,"current_range_meters":400,"station_id":"ce4bgjh2rcd13ifvqbg0","pricing_plan_id":"cebpf4jnsgd1na2vs0mg"},{"bike_id":"ced12495-a9e9-4288-aebd-dcd2bb5fa3fa","system_id":"levelo_inurba_marseille","lat":43.299243,"lon":5.374807,"is_reserved":false,"is_disabled":false,"rental_uris":{"android":"levelo://app?vid=ced12495-a9e9-4288-aebd-dcd2bb5fa3fa","ios":"levelo://app?vid=ced12495-a9e9-4288-aebd-dcd2bb5fa3fa"},"vehicle_type_id":"4","last_reported":1712606879,"current_range_meters":11200,"station_id":"ce4bgjh2rcd13ifvqbg0","pricing_plan_id":"cebpf4jnsgd1na2vs0mg"},{"bike_id":"226c1f3c-3697-4bbd-87d8-49fc7f3f823a","system_id":"levelo_inurba_marseille","lat":43.29914,"lon":5.37479,"is_reserved":false,"is_disabled":false,"rental_uris":{"android":"levelo://app?vid=226c1f3c-3697-4bbd-87d8-49fc7f3f823a","ios":"levelo://app?vid=226c1f3c-3697-4bbd-87d8-49fc7f3f823a"},"vehicle_type_id":"4","last_reported":1712606879,"current_range_meters":0,"station_id":"ce4bgjh2rcd13ifvqbg0","pricing_plan_id":"cebpf4jnsgd1na2vs0mg"},{"bike_id":"e62acf2d-f92b-42d0-a9b4-22f4bd315a33","system_id":"levelo_inurba_marseille","lat":43.305994,"lon":5.393687,"is_reserved":false,"is_disabled":false,"rental_uris":{"android":"levelo://app?vid=e62acf2d-f92b-42d0-a9b4-22f4bd315a33","ios":"levelo://app?vid=e62acf2d-f92b-42d0-a9b4-22f4bd315a33"},"vehicle_type_id":"4","last_reported":1712606879,"current_range_meters":10000,"station_id":"ce4bh0p2rcd13ifvqd80","pricing_plan_id":"cebpf4jnsgd1na2vs0mg"},{"bike_id":"664b5c4f-49df-438f-92df-8761724dd155","system_id":"levelo_inurba_marseille","lat":43.29796,"lon":5.37112,"is_reserved":false,"is_disabled":false,"rental_uris":{"android":"levelo://app?vid=664b5c4f-49df-438f-92df-8761724dd155","ios":"levelo://app?vid=664b5c4f-49df-438f-92df-8761724dd155"},"vehicle_type_id":"4","last_reported":1712606879,"current_range_meters":0,"station_id":"ce4bgop2rcd13ifvqc1g","pricing_plan_id":"cebpf4jnsgd1na2vs0mg"},{"bike_id":"4ef77fec-2cf3-4cfc-9152-f906656a9686","system_id":"levelo_inurba_marseille","lat":43.297774,"lon":5.370875,"is_reserved":false,"is_disabled":false,"rental_uris":{"android":"levelo://app?vid=4ef77fec-2cf3-4cfc-9152-f906656a9686","ios":"levelo://app?vid=4ef77fec-2cf3-4cfc-9152-f906656a9686"},"vehicle_type_id":"4","last_reported":1712606879,"current_range_meters":14400,"station_id":"ce4bgop2rcd13ifvqc1g","pricing_plan_id":"cebpf4jnsgd1na2vs0mg"},{"bike_id":"ac63ec27-45a0-478a-8117-f0a1a60b5bef","system_id":"levelo_inurba_marseille","lat":43.322872,"lon":5.382756,"is_reserved":false,"is_disabled":false,"rental_uris":{"android":"levelo://app?vid=ac63ec27-45a0-478a-8117-f0a1a60b5bef","ios":"levelo://app?vid=ac63ec27-45a0-478a-8117-f0a1a60b5bef"},"vehicle_type_id":"4","last_reported":1712606879,"current_range_meters":4000,"station_id":"ce4bhr12rcd13ifvqhqg","pricing_plan_id":"cebpf4jnsgd1na2vs0mg"},{"bike_id":"4f6a2b4c-6725-485d-83c3-05cad3f78400","system_id":"levelo_inurba_marseille","lat":43.322872,"lon":5.382756,"is_reserved":false,"is_disabled":false,"rental_uris":{"android":"levelo://app?vid=4f6a2b4c-6725-485d-83c3-05cad3f78400","ios":"levelo://app?vid=4f6a2b4c-6725-485d-83c3-05cad3f78400"},"vehicle_type_id":"4","last_reported":1712606879,"current_range_meters":13200,"station_id":"ce4bhr12rcd13ifvqhqg","pricing_plan_id":"cebpf4jnsgd1na2vs0mg"},{"bike_id":"c6c56787-5af4-461a-a1fb-627309935cd3","system_id":"levelo_inurba_marseille","lat":43.322872,"lon":5.382756,"is_reserved":false,"is_disabled":false,"rental_uris":{"android":"levelo://app?vid=c6c56787-5af4-461a-a1fb-627309935cd3","ios":"levelo://app?vid=c6c56787-5af4-461a-a1fb-627309935cd3"},"vehicle_type_id":"4","last_reported":1712606879,"current_range_meters":22400,"station_id":"ce4bhr12rcd13ifvqhqg","pricing_plan_id":"cebpf4jnsgd1na2vs0mg"},{"bike_id":"ce262d47-6adc-4310-a652-b999cfa2d70d","system_id":"levelo_inurba_marseille","lat":43.322872,"lon":5.382756,"is_reserved":false,"is_disabled":false,"rental_uris":{"android":"levelo://app?vid=ce262d47-6adc-4310-a652-b999cfa2d70d","ios":"levelo://app?vid=ce262d47-6adc-4310-a652-b999cfa2d70d"},"vehicle_type_id":"4","last_reported":1712606879,"current_range_meters":14400,"station_id":"ce4bhr12rcd13ifvqhqg","pricing_plan_id":"cebpf4jnsgd1na2vs0mg"},{"bike_id":"96d52138-ce2e-44bd-be4c-0d59fc28ed5c","system_id":"levelo_inurba_marseille","lat":43.322872,"lon":5.382756,"is_reserved":false,"is_disabled":false,"rental_uris":{"android":"levelo://app?vid=96d52138-ce2e-44bd-be4c-0d59fc28ed5c","ios":"levelo://app?vid=96d52138-ce2e-44bd-be4c-0d59fc28ed5c"},"vehicle_type_id":"4","last_reported":1712606879,"current_range_meters":0,"station_id":"ce4bhr12rcd13ifvqhqg","pricing_plan_id":"cebpf4jnsgd1na2vs0mg"},{"bike_id":"79a09dc1-a136-4553-b035-ca9b20a658e5","system_id":"levelo_inurba_marseille","lat":43.30181,"lon":5.3818,"is_reserved":false,"is_disabled":false,"rental_uris":{"android":"levelo://app?vid=79a09dc1-a136-4553-b035-ca9b20a658e5","ios":"levelo://app?vid=79a09dc1-a136-4553-b035-ca9b20a658e5"},"vehicle_type_id":"4","last_reported":1712606879,"current_range_meters":0,"station_id":"","pricing_plan_id":"cebpf4jnsgd1na2vs0mg"},{"bike_id":"ce88a173-9e7d-496b-8b64-0e7815567834","system_id":"levelo_inurba_marseille","lat":43.297163,"lon":5.365866,"is_reserved":false,"is_disabled":false,"rental_uris":{"android":"levelo://app?vid=ce88a173-9e7d-496b-8b64-0e7815567834","ios":"levelo://app?vid=ce88a173-9e7d-496b-8b64-0e7815567834"},"vehicle_type_id":"4","last_reported":1712606879,"current_range_meters":4000,"station_id":"ce4bgn12rcd13ifvqbt0","pricing_plan_id":"cebpf4jnsgd1na2vs0mg"},{"bike_id":"663a9cde-87a7-4007-a764-654155315317","system_id":"levelo_inurba_marseille","lat":43.296935,"lon":5.376544,"is_reserved":false,"is_disabled":false,"rental_uris":{"android":"levelo://app?vid=663a9cde-87a7-4007-a764-654155315317","ios":"levelo://app?vid=663a9cde-87a7-4007-a764-654155315317"},"vehicle_type_id":"4","last_reported":1712606879,"current_range_meters":4000,"station_id":"ce4bgkh2rcd13ifvqbl0","pricing_plan_id":"cebpf4jnsgd1na2vs0mg"},{"bike_id":"ac0c4403-49a7-4a49-b1c5-ce2e006c29a3","system_id":"levelo_inurba_marseille","lat":43.296131,"lon":5.370773,"is_reserved":false,"is_disabled":false,"rental_uris":{"android":"levelo://app?vid=ac0c4403-49a7-4a49-b1c5-ce2e006c29a3","ios":"levelo://app?vid=ac0c4403-49a7-4a49-b1c5-ce2e006c29a3"},"vehicle_type_id":"4","last_reported":1712606879,"current_range_meters":27200,"station_id":"ce4bgnh2rcd13ifvqc0g","pricing_plan_id":"cebpf4jnsgd1na2vs0mg"},{"bike_id":"8b5f0fbe-2c1a-4a0a-be3d-a078839a7c93","system_id":"levelo_inurba_marseille","lat":43.2962,"lon":5.37154,"is_reserved":false,"is_disabled":false,"rental_uris":{"android":"levelo://app?vid=8b5f0fbe-2c1a-4a0a-be3d-a078839a7c93","ios":"levelo://app?vid=8b5f0fbe-2c1a-4a0a-be3d-a078839a7c93"},"vehicle_type_id":"4","last_reported":1712606879,"current_range_meters":15600,"station_id":"ce4bgnh2rcd13ifvqc0g","pricing_plan_id":"cebpf4jnsgd1na2vs0mg"},{"bike_id":"0f31e290-f00e-48e6-9c69-df2b84f5966e","system_id":"levelo_inurba_marseille","lat":43.29617,"lon":5.37185,"is_reserved":false,"is_disabled":false,"rental_uris":{"android":"levelo://app?vid=0f31e290-f00e-48e6-9c69-df2b84f5966e","ios":"levelo://app?vid=0f31e290-f00e-48e6-9c69-df2b84f5966e"},"vehicle_type_id":"4","last_reported":1712606879,"current_range_meters":12000,"station_id":"","pricing_plan_id":"cebpf4jnsgd1na2vs0mg"},{"bike_id":"a9747bc7-e36c-46fc-bacb-511491cdb58f","system_id":"levelo_inurba_marseille","lat":43.29616,"lon":5.3718,"is_reserved":false,"is_disabled":false,"rental_uris":{"android":"levelo://app?vid=a9747bc7-e36c-46fc-bacb-511491cdb58f","ios":"levelo://app?vid=a9747bc7-e36c-46fc-bacb-511491cdb58f"},"vehicle_type_id":"4","last_reported":1712606879,"current_range_meters":2800,"station_id":"","pricing_plan_id":"cebpf4jnsgd1na2vs0mg"},{"bike_id":"f3261959-6e46-4ad5-955c-b0e72d7a7aa8","system_id":"levelo_inurba_marseille","lat":43.29714,"lon":5.37686,"is_reserved":false,"is_disabled":false,"rental_uris":{"android":"levelo://app?vid=f3261959-6e46-4ad5-955c-b0e72d7a7aa8","ios":"levelo://app?vid=f3261959-6e46-4ad5-955c-b0e72d7a7aa8"},"vehicle_type_id":"4","last_reported":1712606879,"current_range_meters":0,"station_id":"ce4bgkh2rcd13ifvqbl0","pricing_plan_id":"cebpf4jnsgd1na2vs0mg"},{"bike_id":"4b9aa3da-7ce5-4bda-891a-a4d11ead2a36","system_id":"levelo_inurba_marseille","lat":43.299028,"lon":5.381509,"is_reserved":false,"is_disabled":false,"rental_uris":{"android":"levelo://app?vid=4b9aa3da-7ce5-4bda-891a-a4d11ead2a36","ios":"levelo://app?vid=4b9aa3da-7ce5-4bda-891a-a4d11ead2a36"},"vehicle_type_id":"4","last_reported":1712606879,"current_range_meters":25600,"station_id":"ce4bgj12rcd13ifvqbc0","pricing_plan_id":"cebpf4jnsgd1na2vs0mg"},{"bike_id":"64c6e475-34e1-4d2b-9bf6-3a45081f2ff0","system_id":"levelo_inurba_marseille","lat":43.299028,"lon":5.381509,"is_reserved":false,"is_disabled":false,"rental_uris":{"android":"levelo://app?vid=64c6e475-34e1-4d2b-9bf6-3a45081f2ff0","ios":"levelo://app?vid=64c6e475-34e1-4d2b-9bf6-3a45081f2ff0"},"vehicle_type_id":"4","last_reported":1712606879,"current_range_meters":11200,"station_id":"ce4bgj12rcd13ifvqbc0","pricing_plan_id":"cebpf4jnsgd1na2vs0mg"},{"bike_id":"e7a661c8-9276-4a53-8a60-5aa4ec1433e3","system_id":"levelo_inurba_marseille","lat":43.299028,"lon":5.381509,"is_reserved":false,"is_disabled":false,"rental_uris":{"android":"levelo://app?vid=e7a661c8-9276-4a53-8a60-5aa4ec1433e3","ios":"levelo://app?vid=e7a661c8-9276-4a53-8a60-5aa4ec1433e3"},"vehicle_type_id":"4","last_reported":1712606879,"current_range_meters":5600,"station_id":"ce4bgj12rcd13ifvqbc0","pricing_plan_id":"cebpf4jnsgd1na2vs0mg"},{"bike_id":"ecd6cdbe-7615-4c78-98cb-8c15e02d18da","system_id":"levelo_inurba_marseille","lat":43.299028,"lon":5.381509,"is_reserved":false,"is_disabled":false,"rental_uris":{"android":"levelo://app?vid=ecd6cdbe-7615-4c78-98cb-8c15e02d18da","ios":"levelo://app?vid=ecd6cdbe-7615-4c78-98cb-8c15e02d18da"},"vehicle_type_id":"4","last_reported":1712606879,"current_range_meters":0,"station_id":"ce4bgj12rcd13ifvqbc0","pricing_plan_id":"cebpf4jnsgd1na2vs0mg"},{"bike_id":"3aa51378-4a45-4e8c-a155-0ad68c37a88d","system_id":"levelo_inurba_marseille","lat":43.30958,"lon":5.390335,"is_reserved":false,"is_disabled":false,"rental_uris":{"android":"levelo://app?vid=3aa51378-4a45-4e8c-a155-0ad68c37a88d","ios":"levelo://app?vid=3aa51378-4a45-4e8c-a155-0ad68c37a88d"},"vehicle_type_id":"4","last_reported":1712606879,"current_range_meters":0,"station_id":"ce4bgup2rcd13ifvqco0","pricing_plan_id":"cebpf4jnsgd1na2vs0mg"},{"bike_id":"29f9d04b-727d-4d69-be63-d8b70ce8ff43","system_id":"levelo_inurba_marseille","lat":43.299028,"lon":5.381509,"is_reserved":false,"is_disabled":false,"rental_uris":{"android":"levelo://app?vid=29f9d04b-727d-4d69-be63-d8b70ce8ff43","ios":"levelo://app?vid=29f9d04b-727d-4d69-be63-d8b70ce8ff43"},"vehicle_type_id":"4","last_reported":1712606879,"current_range_meters":3200,"station_id":"ce4bgj12rcd13ifvqbc0","pricing_plan_id":"cebpf4jnsgd1na2vs0mg"},{"bike_id":"5a9cca58-e112-47c2-be17-3f8e709b6c80","system_id":"levelo_inurba_marseille","lat":43.30414,"lon":5.38783,"is_reserved":false,"is_disabled":false,"rental_uris":{"android":"levelo://app?vid=5a9cca58-e112-47c2-be17-3f8e709b6c80","ios":"levelo://app?vid=5a9cca58-e112-47c2-be17-3f8e709b6c80"},"vehicle_type_id":"4","last_reported":1712606879,"current_range_meters":30800,"station_id":"ce4bgk12rcd13ifvqbi0","pricing_plan_id":"cebpf4jnsgd1na2vs0mg"},{"bike_id":"af06a410-9f8e-4f24-9d3d-fa170e58df09","system_id":"levelo_inurba_marseille","lat":43.317557,"lon":5.390173,"is_reserved":false,"is_disabled":false,"rental_uris":{"android":"levelo://app?vid=af06a410-9f8e-4f24-9d3d-fa170e58df09","ios":"levelo://app?vid=af06a410-9f8e-4f24-9d3d-fa170e58df09"},"vehicle_type_id":"4","last_reported":1712606879,"current_range_meters":26000,"station_id":"ce4bhqp2rcd13ifvqhng","pricing_plan_id":"cebpf4jnsgd1na2vs0mg"},{"bike_id":"4e023382-5c51-4d1b-aa3f-527211f5ef6d","system_id":"levelo_inurba_marseille","lat":43.317557,"lon":5.390173,"is_reserved":false,"is_disabled":false,"rental_uris":{"android":"levelo://app?vid=4e023382-5c51-4d1b-aa3f-527211f5ef6d","ios":"levelo://app?vid=4e023382-5c51-4d1b-aa3f-527211f5ef6d"},"vehicle_type_id":"4","last_reported":1712606879,"current_range_meters":12000,"station_id":"ce4bhqp2rcd13ifvqhng","pricing_plan_id":"cebpf4jnsgd1na2vs0mg"},{"bike_id":"53a6f785-3940-44f4-8c8f-9da8dc178b0a","system_id":"levelo_inurba_marseille","lat":43.314811,"lon":5.373104,"is_reserved":false,"is_disabled":false,"rental_uris":{"android":"levelo://app?vid=53a6f785-3940-44f4-8c8f-9da8dc178b0a","ios":"levelo://app?vid=53a6f785-3940-44f4-8c8f-9da8dc178b0a"},"vehicle_type_id":"4","last_reported":1712606879,"current_range_meters":26400,"station_id":"ce4bgt12rcd13ifvqcd0","pricing_plan_id":"cebpf4jnsgd1na2vs0mg"},{"bike_id":"94192563-6e1e-4c9f-b28d-576ac42b79da","system_id":"levelo_inurba_marseille","lat":43.29579,"lon":5.37519,"is_reserved":false,"is_disabled":false,"rental_uris":{"android":"levelo://app?vid=94192563-6e1e-4c9f-b28d-576ac42b79da","ios":"levelo://app?vid=94192563-6e1e-4c9f-b28d-576ac42b79da"},"vehicle_type_id":"4","last_reported":1712606879,"current_range_meters":0,"station_id":"ce4bgh92rcd13ifvqb50","pricing_plan_id":"cebpf4jnsgd1na2vs0mg"},{"bike_id":"54ba20e0-445b-41f0-829a-9cba35de42bc","system_id":"levelo_inurba_marseille","lat":43.297971,"lon":5.381094,"is_reserved":false,"is_disabled":false,"rental_uris":{"android":"levelo://app?vid=54ba20e0-445b-41f0-829a-9cba35de42bc","ios":"levelo://app?vid=54ba20e0-445b-41f0-829a-9cba35de42bc"},"vehicle_type_id":"4","last_reported":1712606879,"current_range_meters":0,"station_id":"ce4bgip2rcd13ifvqbb0","pricing_plan_id":"cebpf4jnsgd1na2vs0mg"},{"bike_id":"727d6e30-ed46-4a87-8a8a-e40ecbba1d85","system_id":"levelo_inurba_marseille","lat":43.29573,"lon":5.375078,"is_reserved":false,"is_disabled":false,"rental_uris":{"android":"levelo://app?vid=727d6e30-ed46-4a87-8a8a-e40ecbba1d85","ios":"levelo://app?vid=727d6e30-ed46-4a87-8a8a-e40ecbba1d85"},"vehicle_type_id":"4","last_reported":1712606879,"current_range_meters":0,"station_id":"ce4bgh92rcd13ifvqb50","pricing_plan_id":"cebpf4jnsgd1na2vs0mg"},{"bike_id":"b273c6d3-d42f-4840-bacd-cb0e6ebfc406","system_id":"levelo_inurba_marseille","lat":43.304278,"lon":5.388868,"is_reserved":false,"is_disabled":false,"rental_uris":{"android":"levelo://app?vid=b273c6d3-d42f-4840-bacd-cb0e6ebfc406","ios":"levelo://app?vid=b273c6d3-d42f-4840-bacd-cb0e6ebfc406"},"vehicle_type_id":"4","last_reported":1712606879,"current_range_meters":31200,"station_id":"ce4bgk12rcd13ifvqbi0","pricing_plan_id":"cebpf4jnsgd1na2vs0mg"},{"bike_id":"aace2df7-16a3-452f-b09a-588ce396897f","system_id":"levelo_inurba_marseille","lat":43.304274,"lon":5.388873,"is_reserved":false,"is_disabled":false,"rental_uris":{"android":"levelo://app?vid=aace2df7-16a3-452f-b09a-588ce396897f","ios":"levelo://app?vid=aace2df7-16a3-452f-b09a-588ce396897f"},"vehicle_type_id":"4","last_reported":1712606879,"current_range_meters":29200,"station_id":"ce4bgk12rcd13ifvqbi0","pricing_plan_id":"cebpf4jnsgd1na2vs0mg"},{"bike_id":"b9c87861-5fc5-4298-9add-3793fe889f8f","system_id":"levelo_inurba_marseille","lat":43.304274,"lon":5.388873,"is_reserved":false,"is_disabled":false,"rental_uris":{"android":"levelo://app?vid=b9c87861-5fc5-4298-9add-3793fe889f8f","ios":"levelo://app?vid=b9c87861-5fc5-4298-9add-3793fe889f8f"},"vehicle_type_id":"4","last_reported":1712606879,"current_range_meters":3600,"station_id":"ce4bgk12rcd13ifvqbi0","pricing_plan_id":"cebpf4jnsgd1na2vs0mg"},{"bike_id":"e8094557-385f-4ee5-a2fd-2115919ff010","system_id":"levelo_inurba_marseille","lat":43.304274,"lon":5.388873,"is_reserved":false,"is_disabled":false,"rental_uris":{"android":"levelo://app?vid=e8094557-385f-4ee5-a2fd-2115919ff010","ios":"levelo://app?vid=e8094557-385f-4ee5-a2fd-2115919ff010"},"vehicle_type_id":"4","last_reported":1712606879,"current_range_meters":800,"station_id":"ce4bgk12rcd13ifvqbi0","pricing_plan_id":"cebpf4jnsgd1na2vs0mg"},{"bike_id":"517e850d-9c0b-4ad1-8856-96ca46ff6e85","system_id":"levelo_inurba_marseille","lat":43.304279,"lon":5.388888,"is_reserved":false,"is_disabled":false,"rental_uris":{"android":"levelo://app?vid=517e850d-9c0b-4ad1-8856-96ca46ff6e85","ios":"levelo://app?vid=517e850d-9c0b-4ad1-8856-96ca46ff6e85"},"vehicle_type_id":"4","last_reported":1712606879,"current_range_meters":14800,"station_id":"ce4bgk12rcd13ifvqbi0","pricing_plan_id":"cebpf4jnsgd1na2vs0mg"},{"bike_id":"27224be3-9039-43bb-b005-92005c418046","system_id":"levelo_inurba_marseille","lat":43.30429,"lon":5.3889,"is_reserved":false,"is_disabled":false,"rental_uris":{"android":"levelo://app?vid=27224be3-9039-43bb-b005-92005c418046","ios":"levelo://app?vid=27224be3-9039-43bb-b005-92005c418046"},"vehicle_type_id":"4","last_reported":1712606879,"current_range_meters":22000,"station_id":"ce4bgk12rcd13ifvqbi0","pricing_plan_id":"cebpf4jnsgd1na2vs0mg"},{"bike_id":"caded7d2-6678-4d2d-8ee1-3947a9c82ec5","system_id":"levelo_inurba_marseille","lat":43.292005,"lon":5.357875,"is_reserved":false,"is_disabled":false,"rental_uris":{"android":"levelo://app?vid=caded7d2-6678-4d2d-8ee1-3947a9c82ec5","ios":"levelo://app?vid=caded7d2-6678-4d2d-8ee1-3947a9c82ec5"},"vehicle_type_id":"4","last_reported":1712606879,"current_range_meters":3200,"station_id":"ce4bhb12rcd13ifvqel0","pricing_plan_id":"cebpf4jnsgd1na2vs0mg"},{"bike_id":"cd718e8c-4530-49a4-a173-3e53be6dd230","system_id":"levelo_inurba_marseille","lat":43.30423,"lon":5.38894,"is_reserved":false,"is_disabled":false,"rental_uris":{"android":"levelo://app?vid=cd718e8c-4530-49a4-a173-3e53be6dd230","ios":"levelo://app?vid=cd718e8c-4530-49a4-a173-3e53be6dd230"},"vehicle_type_id":"4","last_reported":1712606879,"current_range_meters":26000,"station_id":"ce4bgk12rcd13ifvqbi0","pricing_plan_id":"cebpf4jnsgd1na2vs0mg"},{"bike_id":"325c75af-1b6d-4835-93d0-4a7e81e56977","system_id":"levelo_inurba_marseille","lat":43.296263,"lon":5.377094,"is_reserved":false,"is_disabled":false,"rental_uris":{"android":"levelo://app?vid=325c75af-1b6d-4835-93d0-4a7e81e56977","ios":"levelo://app?vid=325c75af-1b6d-4835-93d0-4a7e81e56977"},"vehicle_type_id":"4","last_reported":1712606879,"current_range_meters":4000,"station_id":"ce4bgi92rcd13ifvqb90","pricing_plan_id":"cebpf4jnsgd1na2vs0mg"},{"bike_id":"24a9adcb-35f9-4c44-91b1-f63a0b2c5ae2","system_id":"levelo_inurba_marseille","lat":43.299707,"lon":5.384859,"is_reserved":false,"is_disabled":false,"rental_uris":{"android":"levelo://app?vid=24a9adcb-35f9-4c44-91b1-f63a0b2c5ae2","ios":"levelo://app?vid=24a9adcb-35f9-4c44-91b1-f63a0b2c5ae2"},"vehicle_type_id":"4","last_reported":1712606879,"current_range_meters":12800,"station_id":"ce4bgj92rcd13ifvqbd0","pricing_plan_id":"cebpf4jnsgd1na2vs0mg"},{"bike_id":"a5ef6257-e99b-420c-bfb6-8979b7996adf","system_id":"levelo_inurba_marseille","lat":43.299707,"lon":5.384859,"is_reserved":false,"is_disabled":false,"rental_uris":{"android":"levelo://app?vid=a5ef6257-e99b-420c-bfb6-8979b7996adf","ios":"levelo://app?vid=a5ef6257-e99b-420c-bfb6-8979b7996adf"},"vehicle_type_id":"4","last_reported":1712606879,"current_range_meters":19200,"station_id":"ce4bgj92rcd13ifvqbd0","pricing_plan_id":"cebpf4jnsgd1na2vs0mg"},{"bike_id":"31ca1575-8222-4f37-8374-c2bb5785d008","system_id":"levelo_inurba_marseille","lat":43.29977,"lon":5.38492,"is_reserved":false,"is_disabled":false,"rental_uris":{"android":"levelo://app?vid=31ca1575-8222-4f37-8374-c2bb5785d008","ios":"levelo://app?vid=31ca1575-8222-4f37-8374-c2bb5785d008"},"vehicle_type_id":"4","last_reported":1712606879,"current_range_meters":28800,"station_id":"ce4bgj92rcd13ifvqbd0","pricing_plan_id":"cebpf4jnsgd1na2vs0mg"},{"bike_id":"4ce9f445-815b-4b63-a713-1cace6a0c02b","system_id":"levelo_inurba_marseille","lat":43.304606,"lon":5.379026,"is_reserved":false,"is_disabled":false,"rental_uris":{"android":"levelo://app?vid=4ce9f445-815b-4b63-a713-1cace6a0c02b","ios":"levelo://app?vid=4ce9f445-815b-4b63-a713-1cace6a0c02b"},"vehicle_type_id":"4","last_reported":1712606879,"current_range_meters":0,"station_id":"ce4bgup2rcd13ifvqcn0","pricing_plan_id":"cebpf4jnsgd1na2vs0mg"},{"bike_id":"dec90b39-65f2-4db1-b247-ab59f24e154c","system_id":"levelo_inurba_marseille","lat":43.29525,"lon":5.37501,"is_reserved":false,"is_disabled":false,"rental_uris":{"android":"levelo://app?vid=dec90b39-65f2-4db1-b247-ab59f24e154c","ios":"levelo://app?vid=dec90b39-65f2-4db1-b247-ab59f24e154c"},"vehicle_type_id":"4","last_reported":1712606879,"current_range_meters":9200,"station_id":"","pricing_plan_id":"cebpf4jnsgd1na2vs0mg"},{"bike_id":"dfdac39e-14c0-4316-8836-230f3bc34eee","system_id":"levelo_inurba_marseille","lat":43.292749,"lon":5.368398,"is_reserved":false,"is_disabled":false,"rental_uris":{"android":"levelo://app?vid=dfdac39e-14c0-4316-8836-230f3bc34eee","ios":"levelo://app?vid=dfdac39e-14c0-4316-8836-230f3bc34eee"},"vehicle_type_id":"4","last_reported":1712606879,"current_range_meters":24800,"station_id":"ce4bhbp2rcd13ifvqesg","pricing_plan_id":"cebpf4jnsgd1na2vs0mg"},{"bike_id":"b701f075-7488-4158-b559-15b17784a103","system_id":"levelo_inurba_marseille","lat":43.295279,"lon":5.375048,"is_reserved":false,"is_disabled":false,"rental_uris":{"android":"levelo://app?vid=b701f075-7488-4158-b559-15b17784a103","ios":"levelo://app?vid=b701f075-7488-4158-b559-15b17784a103"},"vehicle_type_id":"4","last_reported":1712606879,"current_range_meters":1200,"station_id":"ce4bgkp2rcd13ifvqbmg","pricing_plan_id":"cebpf4jnsgd1na2vs0mg"},{"bike_id":"9f441b43-073d-4751-84a7-21ae295fba2c","system_id":"levelo_inurba_marseille","lat":43.32367,"lon":5.388836,"is_reserved":false,"is_disabled":false,"rental_uris":{"android":"levelo://app?vid=9f441b43-073d-4751-84a7-21ae295fba2c","ios":"levelo://app?vid=9f441b43-073d-4751-84a7-21ae295fba2c"},"vehicle_type_id":"4","last_reported":1712606879,"current_range_meters":0,"station_id":"ce4bhqp2rcd13ifvqhog","pricing_plan_id":"cebpf4jnsgd1na2vs0mg"},{"bike_id":"79ac4474-b669-4542-8fc8-a6d0381c92c0","system_id":"levelo_inurba_marseille","lat":43.32367,"lon":5.388836,"is_reserved":false,"is_disabled":false,"rental_uris":{"android":"levelo://app?vid=79ac4474-b669-4542-8fc8-a6d0381c92c0","ios":"levelo://app?vid=79ac4474-b669-4542-8fc8-a6d0381c92c0"},"vehicle_type_id":"4","last_reported":1712606879,"current_range_meters":0,"station_id":"ce4bhqp2rcd13ifvqhog","pricing_plan_id":"cebpf4jnsgd1na2vs0mg"},{"bike_id":"f7a96171-6a18-45d0-b6ed-2b9502b59f96","system_id":"levelo_inurba_marseille","lat":43.32367,"lon":5.388836,"is_reserved":false,"is_disabled":false,"rental_uris":{"android":"levelo://app?vid=f7a96171-6a18-45d0-b6ed-2b9502b59f96","ios":"levelo://app?vid=f7a96171-6a18-45d0-b6ed-2b9502b59f96"},"vehicle_type_id":"4","last_reported":1712606879,"current_range_meters":4800,"station_id":"ce4bhqp2rcd13ifvqhog","pricing_plan_id":"cebpf4jnsgd1na2vs0mg"},{"bike_id":"867a3f06-fcb1-4bf6-bb5a-d58f4faea378","system_id":"levelo_inurba_marseille","lat":43.29602,"lon":5.381084,"is_reserved":false,"is_disabled":false,"rental_uris":{"android":"levelo://app?vid=867a3f06-fcb1-4bf6-bb5a-d58f4faea378","ios":"levelo://app?vid=867a3f06-fcb1-4bf6-bb5a-d58f4faea378"},"vehicle_type_id":"4","last_reported":1712606879,"current_range_meters":24800,"station_id":"ce4bgl12rcd13ifvqbo0","pricing_plan_id":"cebpf4jnsgd1na2vs0mg"},{"bike_id":"7e77403c-d4fa-4825-9128-8f63a631667f","system_id":"levelo_inurba_marseille","lat":43.295982,"lon":5.38105,"is_reserved":false,"is_disabled":false,"rental_uris":{"android":"levelo://app?vid=7e77403c-d4fa-4825-9128-8f63a631667f","ios":"levelo://app?vid=7e77403c-d4fa-4825-9128-8f63a631667f"},"vehicle_type_id":"4","last_reported":1712606879,"current_range_meters":0,"station_id":"ce4bgl12rcd13ifvqbo0","pricing_plan_id":"cebpf4jnsgd1na2vs0mg"},{"bike_id":"e0227968-a14e-43ac-b7d6-ecd922e7e186","system_id":"levelo_inurba_marseille","lat":43.31412,"lon":5.39418,"is_reserved":false,"is_disabled":false,"rental_uris":{"android":"levelo://app?vid=e0227968-a14e-43ac-b7d6-ecd922e7e186","ios":"levelo://app?vid=e0227968-a14e-43ac-b7d6-ecd922e7e186"},"vehicle_type_id":"4","last_reported":1712606879,"current_range_meters":29200,"station_id":"","pricing_plan_id":"cebpf4jnsgd1na2vs0mg"},{"bike_id":"5d799112-49b8-4dd3-ab5a-e84755160799","system_id":"levelo_inurba_marseille","lat":43.293259,"lon":5.371586,"is_reserved":false,"is_disabled":false,"rental_uris":{"android":"levelo://app?vid=5d799112-49b8-4dd3-ab5a-e84755160799","ios":"levelo://app?vid=5d799112-49b8-4dd3-ab5a-e84755160799"},"vehicle_type_id":"4","last_reported":1712606879,"current_range_meters":0,"station_id":"ce4bgh92rcd13ifvqb40","pricing_plan_id":"cebpf4jnsgd1na2vs0mg"},{"bike_id":"023368d0-f865-4f87-8bb0-f3ad8bf65123","system_id":"levelo_inurba_marseille","lat":43.293249,"lon":5.371578,"is_reserved":false,"is_disabled":false,"rental_uris":{"android":"levelo://app?vid=023368d0-f865-4f87-8bb0-f3ad8bf65123","ios":"levelo://app?vid=023368d0-f865-4f87-8bb0-f3ad8bf65123"},"vehicle_type_id":"4","last_reported":1712606879,"current_range_meters":31200,"station_id":"ce4bgh92rcd13ifvqb40","pricing_plan_id":"cebpf4jnsgd1na2vs0mg"},{"bike_id":"96c119de-7bbe-4a12-ae65-1050454bf5c3","system_id":"levelo_inurba_marseille","lat":43.29306,"lon":5.3719,"is_reserved":false,"is_disabled":false,"rental_uris":{"android":"levelo://app?vid=96c119de-7bbe-4a12-ae65-1050454bf5c3","ios":"levelo://app?vid=96c119de-7bbe-4a12-ae65-1050454bf5c3"},"vehicle_type_id":"4","last_reported":1712606879,"current_range_meters":0,"station_id":"ce4bgh92rcd13ifvqb40","pricing_plan_id":"cebpf4jnsgd1na2vs0mg"},{"bike_id":"de4a28c7-37a9-4737-97f1-d2494e5e82bd","system_id":"levelo_inurba_marseille","lat":43.292749,"lon":5.368402,"is_reserved":false,"is_disabled":false,"rental_uris":{"android":"levelo://app?vid=de4a28c7-37a9-4737-97f1-d2494e5e82bd","ios":"levelo://app?vid=de4a28c7-37a9-4737-97f1-d2494e5e82bd"},"vehicle_type_id":"4","last_reported":1712606879,"current_range_meters":0,"station_id":"ce4bhbp2rcd13ifvqesg","pricing_plan_id":"cebpf4jnsgd1na2vs0mg"},{"bike_id":"cc9fef11-0e84-48c3-a1ed-053998f79ec5","system_id":"levelo_inurba_marseille","lat":43.293249,"lon":5.371578,"is_reserved":false,"is_disabled":false,"rental_uris":{"android":"levelo://app?vid=cc9fef11-0e84-48c3-a1ed-053998f79ec5","ios":"levelo://app?vid=cc9fef11-0e84-48c3-a1ed-053998f79ec5"},"vehicle_type_id":"4","last_reported":1712606879,"current_range_meters":0,"station_id":"ce4bgh92rcd13ifvqb40","pricing_plan_id":"cebpf4jnsgd1na2vs0mg"},{"bike_id":"631ed5ba-119a-4c1e-8ac2-c0b49a3ce3ff","system_id":"levelo_inurba_marseille","lat":43.29272,"lon":5.36839,"is_reserved":false,"is_disabled":false,"rental_uris":{"android":"levelo://app?vid=631ed5ba-119a-4c1e-8ac2-c0b49a3ce3ff","ios":"levelo://app?vid=631ed5ba-119a-4c1e-8ac2-c0b49a3ce3ff"},"vehicle_type_id":"4","last_reported":1712606879,"current_range_meters":0,"station_id":"ce4bhbp2rcd13ifvqesg","pricing_plan_id":"cebpf4jnsgd1na2vs0mg"},{"bike_id":"74012dfe-a337-4d6a-8fcb-a3071934b82a","system_id":"levelo_inurba_marseille","lat":43.29269,"lon":5.3685,"is_reserved":false,"is_disabled":false,"rental_uris":{"android":"levelo://app?vid=74012dfe-a337-4d6a-8fcb-a3071934b82a","ios":"levelo://app?vid=74012dfe-a337-4d6a-8fcb-a3071934b82a"},"vehicle_type_id":"4","last_reported":1712606879,"current_range_meters":0,"station_id":"ce4bhbp2rcd13ifvqesg","pricing_plan_id":"cebpf4jnsgd1na2vs0mg"},{"bike_id":"1ba962cc-269e-40e3-96c3-52e96873be5b","system_id":"levelo_inurba_marseille","lat":43.292749,"lon":5.368402,"is_reserved":false,"is_disabled":false,"rental_uris":{"android":"levelo://app?vid=1ba962cc-269e-40e3-96c3-52e96873be5b","ios":"levelo://app?vid=1ba962cc-269e-40e3-96c3-52e96873be5b"},"vehicle_type_id":"4","last_reported":1712606879,"current_range_meters":26400,"station_id":"ce4bhbp2rcd13ifvqesg","pricing_plan_id":"cebpf4jnsgd1na2vs0mg"},{"bike_id":"3f093314-8416-4d1e-8e93-7644c4451745","system_id":"levelo_inurba_marseille","lat":43.305994,"lon":5.393687,"is_reserved":false,"is_disabled":false,"rental_uris":{"android":"levelo://app?vid=3f093314-8416-4d1e-8e93-7644c4451745","ios":"levelo://app?vid=3f093314-8416-4d1e-8e93-7644c4451745"},"vehicle_type_id":"4","last_reported":1712606879,"current_range_meters":10000,"station_id":"ce4bh0p2rcd13ifvqd80","pricing_plan_id":"cebpf4jnsgd1na2vs0mg"},{"bike_id":"03b82d94-495f-4c0a-961b-6a6df2cb03bd","system_id":"levelo_inurba_marseille","lat":43.305994,"lon":5.393687,"is_reserved":false,"is_disabled":false,"rental_uris":{"android":"levelo://app?vid=03b82d94-495f-4c0a-961b-6a6df2cb03bd","ios":"levelo://app?vid=03b82d94-495f-4c0a-961b-6a6df2cb03bd"},"vehicle_type_id":"4","last_reported":1712606879,"current_range_meters":30800,"station_id":"ce4bh0p2rcd13ifvqd80","pricing_plan_id":"cebpf4jnsgd1na2vs0mg"},{"bike_id":"ef018fde-33e1-4fba-a006-15d5c0d6ecd1","system_id":"levelo_inurba_marseille","lat":43.29303,"lon":5.374565,"is_reserved":false,"is_disabled":false,"rental_uris":{"android":"levelo://app?vid=ef018fde-33e1-4fba-a006-15d5c0d6ecd1","ios":"levelo://app?vid=ef018fde-33e1-4fba-a006-15d5c0d6ecd1"},"vehicle_type_id":"4","last_reported":1712606879,"current_range_meters":0,"station_id":"ce4bgi12rcd13ifvqb70","pricing_plan_id":"cebpf4jnsgd1na2vs0mg"},{"bike_id":"b38d4059-78bb-4d31-96aa-ca3af7963557","system_id":"levelo_inurba_marseille","lat":43.305994,"lon":5.393687,"is_reserved":false,"is_disabled":false,"rental_uris":{"android":"levelo://app?vid=b38d4059-78bb-4d31-96aa-ca3af7963557","ios":"levelo://app?vid=b38d4059-78bb-4d31-96aa-ca3af7963557"},"vehicle_type_id":"4","last_reported":1712606879,"current_range_meters":31200,"station_id":"ce4bh0p2rcd13ifvqd80","pricing_plan_id":"cebpf4jnsgd1na2vs0mg"},{"bike_id":"083d5145-e252-47f0-bc6e-0ec656dedf9e","system_id":"levelo_inurba_marseille","lat":43.305994,"lon":5.393687,"is_reserved":false,"is_disabled":false,"rental_uris":{"android":"levelo://app?vid=083d5145-e252-47f0-bc6e-0ec656dedf9e","ios":"levelo://app?vid=083d5145-e252-47f0-bc6e-0ec656dedf9e"},"vehicle_type_id":"4","last_reported":1712606879,"current_range_meters":31200,"station_id":"ce4bh0p2rcd13ifvqd80","pricing_plan_id":"cebpf4jnsgd1na2vs0mg"},{"bike_id":"b64f18c0-dbba-421f-b4b9-ad800821fc1e","system_id":"levelo_inurba_marseille","lat":43.305994,"lon":5.393687,"is_reserved":false,"is_disabled":false,"rental_uris":{"android":"levelo://app?vid=b64f18c0-dbba-421f-b4b9-ad800821fc1e","ios":"levelo://app?vid=b64f18c0-dbba-421f-b4b9-ad800821fc1e"},"vehicle_type_id":"4","last_reported":1712606879,"current_range_meters":27200,"station_id":"ce4bh0p2rcd13ifvqd80","pricing_plan_id":"cebpf4jnsgd1na2vs0mg"},{"bike_id":"b0488016-1a72-469e-acff-218fbbbc89c4","system_id":"levelo_inurba_marseille","lat":43.305994,"lon":5.393687,"is_reserved":false,"is_disabled":false,"rental_uris":{"android":"levelo://app?vid=b0488016-1a72-469e-acff-218fbbbc89c4","ios":"levelo://app?vid=b0488016-1a72-469e-acff-218fbbbc89c4"},"vehicle_type_id":"4","last_reported":1712606879,"current_range_meters":21600,"station_id":"ce4bh0p2rcd13ifvqd80","pricing_plan_id":"cebpf4jnsgd1na2vs0mg"},{"bike_id":"561b3d48-cdda-4127-9fac-d078e6c3869e","system_id":"levelo_inurba_marseille","lat":43.305994,"lon":5.393687,"is_reserved":false,"is_disabled":false,"rental_uris":{"android":"levelo://app?vid=561b3d48-cdda-4127-9fac-d078e6c3869e","ios":"levelo://app?vid=561b3d48-cdda-4127-9fac-d078e6c3869e"},"vehicle_type_id":"4","last_reported":1712606879,"current_range_meters":23200,"station_id":"ce4bh0p2rcd13ifvqd80","pricing_plan_id":"cebpf4jnsgd1na2vs0mg"},{"bike_id":"de36ac2a-d357-44cc-8493-281c89291b64","system_id":"levelo_inurba_marseille","lat":43.305994,"lon":5.393687,"is_reserved":false,"is_disabled":false,"rental_uris":{"android":"levelo://app?vid=de36ac2a-d357-44cc-8493-281c89291b64","ios":"levelo://app?vid=de36ac2a-d357-44cc-8493-281c89291b64"},"vehicle_type_id":"4","last_reported":1712606879,"current_range_meters":0,"station_id":"ce4bh0p2rcd13ifvqd80","pricing_plan_id":"cebpf4jnsgd1na2vs0mg"},{"bike_id":"458133d1-1c5f-485b-822f-4d35f08ae737","system_id":"levelo_inurba_marseille","lat":43.306012,"lon":5.393648,"is_reserved":false,"is_disabled":false,"rental_uris":{"android":"levelo://app?vid=458133d1-1c5f-485b-822f-4d35f08ae737","ios":"levelo://app?vid=458133d1-1c5f-485b-822f-4d35f08ae737"},"vehicle_type_id":"4","last_reported":1712606879,"current_range_meters":31200,"station_id":"ce4bh0p2rcd13ifvqd80","pricing_plan_id":"cebpf4jnsgd1na2vs0mg"},{"bike_id":"75369be2-7b9c-481e-8c6c-d8a82c7dc5e2","system_id":"levelo_inurba_marseille","lat":43.29293,"lon":5.37465,"is_reserved":false,"is_disabled":false,"rental_uris":{"android":"levelo://app?vid=75369be2-7b9c-481e-8c6c-d8a82c7dc5e2","ios":"levelo://app?vid=75369be2-7b9c-481e-8c6c-d8a82c7dc5e2"},"vehicle_type_id":"4","last_reported":1712606879,"current_range_meters":0,"station_id":"ce4bgi12rcd13ifvqb70","pricing_plan_id":"cebpf4jnsgd1na2vs0mg"},{"bike_id":"360a9b4c-fdd2-46fc-9b20-92789c1e8176","system_id":"levelo_inurba_marseille","lat":43.302992,"lon":5.392136,"is_reserved":false,"is_disabled":false,"rental_uris":{"android":"levelo://app?vid=360a9b4c-fdd2-46fc-9b20-92789c1e8176","ios":"levelo://app?vid=360a9b4c-fdd2-46fc-9b20-92789c1e8176"},"vehicle_type_id":"4","last_reported":1712606879,"current_range_meters":16400,"station_id":"ce4bgkh2rcd13ifvqbk0","pricing_plan_id":"cebpf4jnsgd1na2vs0mg"},{"bike_id":"6e775b2b-cdbc-45fe-a404-77036f5ba9c3","system_id":"levelo_inurba_marseille","lat":43.297163,"lon":5.365866,"is_reserved":false,"is_disabled":false,"rental_uris":{"android":"levelo://app?vid=6e775b2b-cdbc-45fe-a404-77036f5ba9c3","ios":"levelo://app?vid=6e775b2b-cdbc-45fe-a404-77036f5ba9c3"},"vehicle_type_id":"4","last_reported":1712606879,"current_range_meters":24400,"station_id":"ce4bgn12rcd13ifvqbt0","pricing_plan_id":"cebpf4jnsgd1na2vs0mg"},{"bike_id":"39133d0d-f2c1-4b00-b9d1-e3531f33fcba","system_id":"levelo_inurba_marseille","lat":43.30085,"lon":5.390856,"is_reserved":false,"is_disabled":false,"rental_uris":{"android":"levelo://app?vid=39133d0d-f2c1-4b00-b9d1-e3531f33fcba","ios":"levelo://app?vid=39133d0d-f2c1-4b00-b9d1-e3531f33fcba"},"vehicle_type_id":"4","last_reported":1712606879,"current_range_meters":14800,"station_id":"ce4bh192rcd13ifvqdb0","pricing_plan_id":"cebpf4jnsgd1na2vs0mg"},{"bike_id":"25f85976-a77a-4a64-aa2e-1aff2cc7275c","system_id":"levelo_inurba_marseille","lat":43.30085,"lon":5.390856,"is_reserved":false,"is_disabled":false,"rental_uris":{"android":"levelo://app?vid=25f85976-a77a-4a64-aa2e-1aff2cc7275c","ios":"levelo://app?vid=25f85976-a77a-4a64-aa2e-1aff2cc7275c"},"vehicle_type_id":"4","last_reported":1712606879,"current_range_meters":31600,"station_id":"ce4bh192rcd13ifvqdb0","pricing_plan_id":"cebpf4jnsgd1na2vs0mg"},{"bike_id":"fb8f9e4f-db81-456a-aa36-57637b38aa8d","system_id":"levelo_inurba_marseille","lat":43.300852,"lon":5.390859,"is_reserved":false,"is_disabled":false,"rental_uris":{"android":"levelo://app?vid=fb8f9e4f-db81-456a-aa36-57637b38aa8d","ios":"levelo://app?vid=fb8f9e4f-db81-456a-aa36-57637b38aa8d"},"vehicle_type_id":"4","last_reported":1712606879,"current_range_meters":800,"station_id":"ce4bh192rcd13ifvqdb0","pricing_plan_id":"cebpf4jnsgd1na2vs0mg"},{"bike_id":"20803829-8354-4abc-aaca-9219874b534b","system_id":"levelo_inurba_marseille","lat":43.30085,"lon":5.390856,"is_reserved":false,"is_disabled":false,"rental_uris":{"android":"levelo://app?vid=20803829-8354-4abc-aaca-9219874b534b","ios":"levelo://app?vid=20803829-8354-4abc-aaca-9219874b534b"},"vehicle_type_id":"4","last_reported":1712606879,"current_range_meters":26000,"station_id":"ce4bh192rcd13ifvqdb0","pricing_plan_id":"cebpf4jnsgd1na2vs0mg"},{"bike_id":"7e3371ee-7845-4e49-a896-550afe534bf2","system_id":"levelo_inurba_marseille","lat":43.30085,"lon":5.390856,"is_reserved":false,"is_disabled":false,"rental_uris":{"android":"levelo://app?vid=7e3371ee-7845-4e49-a896-550afe534bf2","ios":"levelo://app?vid=7e3371ee-7845-4e49-a896-550afe534bf2"},"vehicle_type_id":"4","last_reported":1712606879,"current_range_meters":30400,"station_id":"ce4bh192rcd13ifvqdb0","pricing_plan_id":"cebpf4jnsgd1na2vs0mg"},{"bike_id":"80295071-4a1d-45ba-98bb-db5811f947ec","system_id":"levelo_inurba_marseille","lat":43.29865,"lon":5.38903,"is_reserved":false,"is_disabled":false,"rental_uris":{"android":"levelo://app?vid=80295071-4a1d-45ba-98bb-db5811f947ec","ios":"levelo://app?vid=80295071-4a1d-45ba-98bb-db5811f947ec"},"vehicle_type_id":"4","last_reported":1712606879,"current_range_meters":0,"station_id":"ce4bh392rcd13ifvqdl0","pricing_plan_id":"cebpf4jnsgd1na2vs0mg"},{"bike_id":"3e315390-0ceb-4817-9bf5-631366151c39","system_id":"levelo_inurba_marseille","lat":43.29866,"lon":5.38905,"is_reserved":false,"is_disabled":false,"rental_uris":{"android":"levelo://app?vid=3e315390-0ceb-4817-9bf5-631366151c39","ios":"levelo://app?vid=3e315390-0ceb-4817-9bf5-631366151c39"},"vehicle_type_id":"4","last_reported":1712606879,"current_range_meters":0,"station_id":"ce4bh392rcd13ifvqdl0","pricing_plan_id":"cebpf4jnsgd1na2vs0mg"},{"bike_id":"1d4bb2a6-0297-4311-8e65-a23b372657b5","system_id":"levelo_inurba_marseille","lat":43.302869,"lon":5.393005,"is_reserved":false,"is_disabled":false,"rental_uris":{"android":"levelo://app?vid=1d4bb2a6-0297-4311-8e65-a23b372657b5","ios":"levelo://app?vid=1d4bb2a6-0297-4311-8e65-a23b372657b5"},"vehicle_type_id":"4","last_reported":1712606879,"current_range_meters":27600,"station_id":"","pricing_plan_id":"cebpf4jnsgd1na2vs0mg"},{"bike_id":"a4f56b27-24ed-4a32-bd04-5e9bb1c3b0ea","system_id":"levelo_inurba_marseille","lat":43.309047,"lon":5.396551,"is_reserved":false,"is_disabled":false,"rental_uris":{"android":"levelo://app?vid=a4f56b27-24ed-4a32-bd04-5e9bb1c3b0ea","ios":"levelo://app?vid=a4f56b27-24ed-4a32-bd04-5e9bb1c3b0ea"},"vehicle_type_id":"4","last_reported":1712606879,"current_range_meters":0,"station_id":"ce4bh012rcd13ifvqcv0","pricing_plan_id":"cebpf4jnsgd1na2vs0mg"},{"bike_id":"0dd458e0-43cd-4c62-9d0b-e27f92d9be22","system_id":"levelo_inurba_marseille","lat":43.313291,"lon":5.396838,"is_reserved":false,"is_disabled":false,"rental_uris":{"android":"levelo://app?vid=0dd458e0-43cd-4c62-9d0b-e27f92d9be22","ios":"levelo://app?vid=0dd458e0-43cd-4c62-9d0b-e27f92d9be22"},"vehicle_type_id":"4","last_reported":1712606879,"current_range_meters":1600,"station_id":"ce4bgvp2rcd13ifvqcu0","pricing_plan_id":"cebpf4jnsgd1na2vs0mg"},{"bike_id":"66e7669e-0b5a-4a26-bcf2-74decee1c578","system_id":"levelo_inurba_marseille","lat":43.313291,"lon":5.396838,"is_reserved":false,"is_disabled":false,"rental_uris":{"android":"levelo://app?vid=66e7669e-0b5a-4a26-bcf2-74decee1c578","ios":"levelo://app?vid=66e7669e-0b5a-4a26-bcf2-74decee1c578"},"vehicle_type_id":"4","last_reported":1712606879,"current_range_meters":27600,"station_id":"ce4bgvp2rcd13ifvqcu0","pricing_plan_id":"cebpf4jnsgd1na2vs0mg"},{"bike_id":"4d6a1fed-c56e-484a-a372-79da3b282752","system_id":"levelo_inurba_marseille","lat":43.309038,"lon":5.396546,"is_reserved":false,"is_disabled":false,"rental_uris":{"android":"levelo://app?vid=4d6a1fed-c56e-484a-a372-79da3b282752","ios":"levelo://app?vid=4d6a1fed-c56e-484a-a372-79da3b282752"},"vehicle_type_id":"4","last_reported":1712606879,"current_range_meters":30400,"station_id":"ce4bh012rcd13ifvqcv0","pricing_plan_id":"cebpf4jnsgd1na2vs0mg"},{"bike_id":"444cddd7-2f95-4814-835c-2e817bf5fac0","system_id":"levelo_inurba_marseille","lat":43.29189,"lon":5.35801,"is_reserved":false,"is_disabled":false,"rental_uris":{"android":"levelo://app?vid=444cddd7-2f95-4814-835c-2e817bf5fac0","ios":"levelo://app?vid=444cddd7-2f95-4814-835c-2e817bf5fac0"},"vehicle_type_id":"4","last_reported":1712606879,"current_range_meters":0,"station_id":"ce4bhb12rcd13ifvqel0","pricing_plan_id":"cebpf4jnsgd1na2vs0mg"},{"bike_id":"093a4445-8fa9-4769-a22f-fc3ff883f0a4","system_id":"levelo_inurba_marseille","lat":43.309038,"lon":5.396546,"is_reserved":false,"is_disabled":false,"rental_uris":{"android":"levelo://app?vid=093a4445-8fa9-4769-a22f-fc3ff883f0a4","ios":"levelo://app?vid=093a4445-8fa9-4769-a22f-fc3ff883f0a4"},"vehicle_type_id":"4","last_reported":1712606879,"current_range_meters":23600,"station_id":"ce4bh012rcd13ifvqcv0","pricing_plan_id":"cebpf4jnsgd1na2vs0mg"},{"bike_id":"6aa6b6a0-81d1-47d4-b889-dbb19115fffb","system_id":"levelo_inurba_marseille","lat":43.309038,"lon":5.396546,"is_reserved":false,"is_disabled":false,"rental_uris":{"android":"levelo://app?vid=6aa6b6a0-81d1-47d4-b889-dbb19115fffb","ios":"levelo://app?vid=6aa6b6a0-81d1-47d4-b889-dbb19115fffb"},"vehicle_type_id":"4","last_reported":1712606879,"current_range_meters":15600,"station_id":"ce4bh012rcd13ifvqcv0","pricing_plan_id":"cebpf4jnsgd1na2vs0mg"},{"bike_id":"ed048514-7055-49f9-8b76-754cde3f3e05","system_id":"levelo_inurba_marseille","lat":43.313291,"lon":5.396838,"is_reserved":false,"is_disabled":false,"rental_uris":{"android":"levelo://app?vid=ed048514-7055-49f9-8b76-754cde3f3e05","ios":"levelo://app?vid=ed048514-7055-49f9-8b76-754cde3f3e05"},"vehicle_type_id":"4","last_reported":1712606879,"current_range_meters":2800,"station_id":"ce4bgvp2rcd13ifvqcu0","pricing_plan_id":"cebpf4jnsgd1na2vs0mg"},{"bike_id":"add27eb3-a361-43ee-afb9-d819a1f97155","system_id":"levelo_inurba_marseille","lat":43.309047,"lon":5.396551,"is_reserved":false,"is_disabled":false,"rental_uris":{"android":"levelo://app?vid=add27eb3-a361-43ee-afb9-d819a1f97155","ios":"levelo://app?vid=add27eb3-a361-43ee-afb9-d819a1f97155"},"vehicle_type_id":"4","last_reported":1712606879,"current_range_meters":19200,"station_id":"ce4bh012rcd13ifvqcv0","pricing_plan_id":"cebpf4jnsgd1na2vs0mg"},{"bike_id":"3118be01-d314-4a1c-b937-b4fd183478e2","system_id":"levelo_inurba_marseille","lat":43.313291,"lon":5.396838,"is_reserved":false,"is_disabled":false,"rental_uris":{"android":"levelo://app?vid=3118be01-d314-4a1c-b937-b4fd183478e2","ios":"levelo://app?vid=3118be01-d314-4a1c-b937-b4fd183478e2"},"vehicle_type_id":"4","last_reported":1712606879,"current_range_meters":0,"station_id":"ce4bgvp2rcd13ifvqcu0","pricing_plan_id":"cebpf4jnsgd1na2vs0mg"},{"bike_id":"7ea97165-c56d-4e12-b321-1967e8cb42c7","system_id":"levelo_inurba_marseille","lat":43.309038,"lon":5.396546,"is_reserved":false,"is_disabled":false,"rental_uris":{"android":"levelo://app?vid=7ea97165-c56d-4e12-b321-1967e8cb42c7","ios":"levelo://app?vid=7ea97165-c56d-4e12-b321-1967e8cb42c7"},"vehicle_type_id":"4","last_reported":1712606879,"current_range_meters":800,"station_id":"ce4bh012rcd13ifvqcv0","pricing_plan_id":"cebpf4jnsgd1na2vs0mg"},{"bike_id":"40f4ea5e-3a68-46bc-a9ab-e1a1e6f39c21","system_id":"levelo_inurba_marseille","lat":43.309038,"lon":5.396546,"is_reserved":false,"is_disabled":false,"rental_uris":{"android":"levelo://app?vid=40f4ea5e-3a68-46bc-a9ab-e1a1e6f39c21","ios":"levelo://app?vid=40f4ea5e-3a68-46bc-a9ab-e1a1e6f39c21"},"vehicle_type_id":"4","last_reported":1712606879,"current_range_meters":14800,"station_id":"ce4bh012rcd13ifvqcv0","pricing_plan_id":"cebpf4jnsgd1na2vs0mg"},{"bike_id":"e833fa13-8fd3-4083-97f3-cf020ba74ace","system_id":"levelo_inurba_marseille","lat":43.309047,"lon":5.396551,"is_reserved":false,"is_disabled":false,"rental_uris":{"android":"levelo://app?vid=e833fa13-8fd3-4083-97f3-cf020ba74ace","ios":"levelo://app?vid=e833fa13-8fd3-4083-97f3-cf020ba74ace"},"vehicle_type_id":"4","last_reported":1712606879,"current_range_meters":17200,"station_id":"ce4bh012rcd13ifvqcv0","pricing_plan_id":"cebpf4jnsgd1na2vs0mg"},{"bike_id":"4a06f653-43f7-453c-af4b-82be45be07be","system_id":"levelo_inurba_marseille","lat":43.29529,"lon":5.385581,"is_reserved":false,"is_disabled":false,"rental_uris":{"android":"levelo://app?vid=4a06f653-43f7-453c-af4b-82be45be07be","ios":"levelo://app?vid=4a06f653-43f7-453c-af4b-82be45be07be"},"vehicle_type_id":"4","last_reported":1712606879,"current_range_meters":4000,"station_id":"ce4bgih2rcd13ifvqba0","pricing_plan_id":"cebpf4jnsgd1na2vs0mg"},{"bike_id":"2f7ab3d2-503c-4004-ba83-e9e206b373a4","system_id":"levelo_inurba_marseille","lat":43.309038,"lon":5.396546,"is_reserved":false,"is_disabled":false,"rental_uris":{"android":"levelo://app?vid=2f7ab3d2-503c-4004-ba83-e9e206b373a4","ios":"levelo://app?vid=2f7ab3d2-503c-4004-ba83-e9e206b373a4"},"vehicle_type_id":"4","last_reported":1712606879,"current_range_meters":400,"station_id":"ce4bh012rcd13ifvqcv0","pricing_plan_id":"cebpf4jnsgd1na2vs0mg"},{"bike_id":"adb864db-508c-492f-8d0b-9eeab6d2e1ec","system_id":"levelo_inurba_marseille","lat":43.309047,"lon":5.396551,"is_reserved":false,"is_disabled":false,"rental_uris":{"android":"levelo://app?vid=adb864db-508c-492f-8d0b-9eeab6d2e1ec","ios":"levelo://app?vid=adb864db-508c-492f-8d0b-9eeab6d2e1ec"},"vehicle_type_id":"4","last_reported":1712606879,"current_range_meters":29600,"station_id":"ce4bh012rcd13ifvqcv0","pricing_plan_id":"cebpf4jnsgd1na2vs0mg"},{"bike_id":"9aa7e010-f1ca-4bd2-b02c-65382ffc1c0d","system_id":"levelo_inurba_marseille","lat":43.29535,"lon":5.38542,"is_reserved":false,"is_disabled":false,"rental_uris":{"android":"levelo://app?vid=9aa7e010-f1ca-4bd2-b02c-65382ffc1c0d","ios":"levelo://app?vid=9aa7e010-f1ca-4bd2-b02c-65382ffc1c0d"},"vehicle_type_id":"4","last_reported":1712606879,"current_range_meters":24400,"station_id":"ce4bgih2rcd13ifvqba0","pricing_plan_id":"cebpf4jnsgd1na2vs0mg"},{"bike_id":"485ad04a-fc12-453f-a883-c556f96bfa31","system_id":"levelo_inurba_marseille","lat":43.29529,"lon":5.385581,"is_reserved":false,"is_disabled":false,"rental_uris":{"android":"levelo://app?vid=485ad04a-fc12-453f-a883-c556f96bfa31","ios":"levelo://app?vid=485ad04a-fc12-453f-a883-c556f96bfa31"},"vehicle_type_id":"4","last_reported":1712606879,"current_range_meters":14000,"station_id":"ce4bgih2rcd13ifvqba0","pricing_plan_id":"cebpf4jnsgd1na2vs0mg"},{"bike_id":"7856d323-e6c1-432e-979c-d86082cf02d7","system_id":"levelo_inurba_marseille","lat":43.29529,"lon":5.385581,"is_reserved":false,"is_disabled":false,"rental_uris":{"android":"levelo://app?vid=7856d323-e6c1-432e-979c-d86082cf02d7","ios":"levelo://app?vid=7856d323-e6c1-432e-979c-d86082cf02d7"},"vehicle_type_id":"4","last_reported":1712606879,"current_range_meters":1200,"station_id":"ce4bgih2rcd13ifvqba0","pricing_plan_id":"cebpf4jnsgd1na2vs0mg"},{"bike_id":"2c6f0fb6-aa47-45ad-b1ec-f1b074d3da97","system_id":"levelo_inurba_marseille","lat":43.290779,"lon":5.371482,"is_reserved":false,"is_disabled":false,"rental_uris":{"android":"levelo://app?vid=2c6f0fb6-aa47-45ad-b1ec-f1b074d3da97","ios":"levelo://app?vid=2c6f0fb6-aa47-45ad-b1ec-f1b074d3da97"},"vehicle_type_id":"4","last_reported":1712606879,"current_range_meters":19600,"station_id":"ce4bh5p2rcd13ifvqe4g","pricing_plan_id":"cebpf4jnsgd1na2vs0mg"},{"bike_id":"5df3eee3-220f-4149-b5e5-f23700e37580","system_id":"levelo_inurba_marseille","lat":43.289184,"lon":5.366408,"is_reserved":false,"is_disabled":false,"rental_uris":{"android":"levelo://app?vid=5df3eee3-220f-4149-b5e5-f23700e37580","ios":"levelo://app?vid=5df3eee3-220f-4149-b5e5-f23700e37580"},"vehicle_type_id":"4","last_reported":1712606879,"current_range_meters":18800,"station_id":"ce4bhap2rcd13ifvqek0","pricing_plan_id":"cebpf4jnsgd1na2vs0mg"},{"bike_id":"6f14393d-b0ae-430d-9e6f-2c67b7b2bd05","system_id":"levelo_inurba_marseille","lat":43.302008,"lon":5.394694,"is_reserved":false,"is_disabled":false,"rental_uris":{"android":"levelo://app?vid=6f14393d-b0ae-430d-9e6f-2c67b7b2bd05","ios":"levelo://app?vid=6f14393d-b0ae-430d-9e6f-2c67b7b2bd05"},"vehicle_type_id":"4","last_reported":1712606879,"current_range_meters":18400,"station_id":"ce4bh0p2rcd13ifvqd70","pricing_plan_id":"cebpf4jnsgd1na2vs0mg"},{"bike_id":"fcb0483c-3386-49eb-a60e-a87a32b4727d","system_id":"levelo_inurba_marseille","lat":43.30206,"lon":5.39474,"is_reserved":false,"is_disabled":false,"rental_uris":{"android":"levelo://app?vid=fcb0483c-3386-49eb-a60e-a87a32b4727d","ios":"levelo://app?vid=fcb0483c-3386-49eb-a60e-a87a32b4727d"},"vehicle_type_id":"4","last_reported":1712606879,"current_range_meters":28800,"station_id":"ce4bh0p2rcd13ifvqd70","pricing_plan_id":"cebpf4jnsgd1na2vs0mg"},{"bike_id":"a48661bd-4319-40d7-844c-8f1618459309","system_id":"levelo_inurba_marseille","lat":43.289184,"lon":5.366408,"is_reserved":false,"is_disabled":false,"rental_uris":{"android":"levelo://app?vid=a48661bd-4319-40d7-844c-8f1618459309","ios":"levelo://app?vid=a48661bd-4319-40d7-844c-8f1618459309"},"vehicle_type_id":"4","last_reported":1712606879,"current_range_meters":0,"station_id":"ce4bhap2rcd13ifvqek0","pricing_plan_id":"cebpf4jnsgd1na2vs0mg"},{"bike_id":"4ea15f8c-9f27-4014-8b57-187a345b84d0","system_id":"levelo_inurba_marseille","lat":43.294153,"lon":5.386305,"is_reserved":false,"is_disabled":false,"rental_uris":{"android":"levelo://app?vid=4ea15f8c-9f27-4014-8b57-187a345b84d0","ios":"levelo://app?vid=4ea15f8c-9f27-4014-8b57-187a345b84d0"},"vehicle_type_id":"4","last_reported":1712606879,"current_range_meters":2800,"station_id":"ce4bh2h2rcd13ifvqdh0","pricing_plan_id":"cebpf4jnsgd1na2vs0mg"},{"bike_id":"5863cfe3-664d-485a-bbf5-cc108af128f7","system_id":"levelo_inurba_marseille","lat":43.294153,"lon":5.386305,"is_reserved":false,"is_disabled":false,"rental_uris":{"android":"levelo://app?vid=5863cfe3-664d-485a-bbf5-cc108af128f7","ios":"levelo://app?vid=5863cfe3-664d-485a-bbf5-cc108af128f7"},"vehicle_type_id":"4","last_reported":1712606879,"current_range_meters":14400,"station_id":"ce4bh2h2rcd13ifvqdh0","pricing_plan_id":"cebpf4jnsgd1na2vs0mg"},{"bike_id":"0f624b62-332b-4e94-9161-2900ce9687b5","system_id":"levelo_inurba_marseille","lat":43.2942,"lon":5.38627,"is_reserved":false,"is_disabled":false,"rental_uris":{"android":"levelo://app?vid=0f624b62-332b-4e94-9161-2900ce9687b5","ios":"levelo://app?vid=0f624b62-332b-4e94-9161-2900ce9687b5"},"vehicle_type_id":"4","last_reported":1712606879,"current_range_meters":0,"station_id":"ce4bh2h2rcd13ifvqdh0","pricing_plan_id":"cebpf4jnsgd1na2vs0mg"},{"bike_id":"bde8acf2-c297-451a-b68b-532a6991d30c","system_id":"levelo_inurba_marseille","lat":43.294153,"lon":5.386305,"is_reserved":false,"is_disabled":false,"rental_uris":{"android":"levelo://app?vid=bde8acf2-c297-451a-b68b-532a6991d30c","ios":"levelo://app?vid=bde8acf2-c297-451a-b68b-532a6991d30c"},"vehicle_type_id":"4","last_reported":1712606879,"current_range_meters":0,"station_id":"ce4bh2h2rcd13ifvqdh0","pricing_plan_id":"cebpf4jnsgd1na2vs0mg"},{"bike_id":"b806ee11-31a4-4240-9b2e-aabc9b71e096","system_id":"levelo_inurba_marseille","lat":43.294162,"lon":5.386292,"is_reserved":false,"is_disabled":false,"rental_uris":{"android":"levelo://app?vid=b806ee11-31a4-4240-9b2e-aabc9b71e096","ios":"levelo://app?vid=b806ee11-31a4-4240-9b2e-aabc9b71e096"},"vehicle_type_id":"4","last_reported":1712606879,"current_range_meters":16400,"station_id":"ce4bh2h2rcd13ifvqdh0","pricing_plan_id":"cebpf4jnsgd1na2vs0mg"},{"bike_id":"4ebfb5a7-a302-4595-a23f-80d4ff6434e4","system_id":"levelo_inurba_marseille","lat":43.294153,"lon":5.386305,"is_reserved":false,"is_disabled":false,"rental_uris":{"android":"levelo://app?vid=4ebfb5a7-a302-4595-a23f-80d4ff6434e4","ios":"levelo://app?vid=4ebfb5a7-a302-4595-a23f-80d4ff6434e4"},"vehicle_type_id":"4","last_reported":1712606879,"current_range_meters":3600,"station_id":"ce4bh2h2rcd13ifvqdh0","pricing_plan_id":"cebpf4jnsgd1na2vs0mg"},{"bike_id":"65d3a854-3fe3-40b8-a688-cd07a7025577","system_id":"levelo_inurba_marseille","lat":43.294162,"lon":5.386292,"is_reserved":false,"is_disabled":false,"rental_uris":{"android":"levelo://app?vid=65d3a854-3fe3-40b8-a688-cd07a7025577","ios":"levelo://app?vid=65d3a854-3fe3-40b8-a688-cd07a7025577"},"vehicle_type_id":"4","last_reported":1712606879,"current_range_meters":23200,"station_id":"ce4bh2h2rcd13ifvqdh0","pricing_plan_id":"cebpf4jnsgd1na2vs0mg"},{"bike_id":"69a70a41-6495-4779-9642-72d1f3ad3faa","system_id":"levelo_inurba_marseille","lat":43.294162,"lon":5.386292,"is_reserved":false,"is_disabled":false,"rental_uris":{"android":"levelo://app?vid=69a70a41-6495-4779-9642-72d1f3ad3faa","ios":"levelo://app?vid=69a70a41-6495-4779-9642-72d1f3ad3faa"},"vehicle_type_id":"4","last_reported":1712606879,"current_range_meters":13200,"station_id":"ce4bh2h2rcd13ifvqdh0","pricing_plan_id":"cebpf4jnsgd1na2vs0mg"},{"bike_id":"ad986f32-3c21-4043-b79e-ff410b77ffbf","system_id":"levelo_inurba_marseille","lat":43.294162,"lon":5.386292,"is_reserved":false,"is_disabled":false,"rental_uris":{"android":"levelo://app?vid=ad986f32-3c21-4043-b79e-ff410b77ffbf","ios":"levelo://app?vid=ad986f32-3c21-4043-b79e-ff410b77ffbf"},"vehicle_type_id":"4","last_reported":1712606879,"current_range_meters":7600,"station_id":"ce4bh2h2rcd13ifvqdh0","pricing_plan_id":"cebpf4jnsgd1na2vs0mg"},{"bike_id":"e69376cd-279b-4a15-8a0e-a6d216813622","system_id":"levelo_inurba_marseille","lat":43.294162,"lon":5.386292,"is_reserved":false,"is_disabled":false,"rental_uris":{"android":"levelo://app?vid=e69376cd-279b-4a15-8a0e-a6d216813622","ios":"levelo://app?vid=e69376cd-279b-4a15-8a0e-a6d216813622"},"vehicle_type_id":"4","last_reported":1712606879,"current_range_meters":11200,"station_id":"ce4bh2h2rcd13ifvqdh0","pricing_plan_id":"cebpf4jnsgd1na2vs0mg"},{"bike_id":"3ea76711-c89e-485f-bb18-35f8e03db0c8","system_id":"levelo_inurba_marseille","lat":43.294153,"lon":5.386305,"is_reserved":false,"is_disabled":false,"rental_uris":{"android":"levelo://app?vid=3ea76711-c89e-485f-bb18-35f8e03db0c8","ios":"levelo://app?vid=3ea76711-c89e-485f-bb18-35f8e03db0c8"},"vehicle_type_id":"4","last_reported":1712606879,"current_range_meters":0,"station_id":"ce4bh2h2rcd13ifvqdh0","pricing_plan_id":"cebpf4jnsgd1na2vs0mg"},{"bike_id":"5cc5c4cc-484b-4f74-b803-6658b9539f92","system_id":"levelo_inurba_marseille","lat":43.2894,"lon":5.3664,"is_reserved":false,"is_disabled":false,"rental_uris":{"android":"levelo://app?vid=5cc5c4cc-484b-4f74-b803-6658b9539f92","ios":"levelo://app?vid=5cc5c4cc-484b-4f74-b803-6658b9539f92"},"vehicle_type_id":"4","last_reported":1712606879,"current_range_meters":0,"station_id":"ce4bhap2rcd13ifvqek0","pricing_plan_id":"cebpf4jnsgd1na2vs0mg"},{"bike_id":"63ac70dc-2f69-4dda-8998-887a5cd6ad5f","system_id":"levelo_inurba_marseille","lat":43.28948,"lon":5.36397,"is_reserved":false,"is_disabled":false,"rental_uris":{"android":"levelo://app?vid=63ac70dc-2f69-4dda-8998-887a5cd6ad5f","ios":"levelo://app?vid=63ac70dc-2f69-4dda-8998-887a5cd6ad5f"},"vehicle_type_id":"4","last_reported":1712606879,"current_range_meters":0,"station_id":"ce4bhc92rcd13ifvqetg","pricing_plan_id":"cebpf4jnsgd1na2vs0mg"},{"bike_id":"23ab62cb-6ca2-4051-963e-b6afc4f02877","system_id":"levelo_inurba_marseille","lat":43.289184,"lon":5.366408,"is_reserved":false,"is_disabled":false,"rental_uris":{"android":"levelo://app?vid=23ab62cb-6ca2-4051-963e-b6afc4f02877","ios":"levelo://app?vid=23ab62cb-6ca2-4051-963e-b6afc4f02877"},"vehicle_type_id":"4","last_reported":1712606879,"current_range_meters":14000,"station_id":"ce4bhap2rcd13ifvqek0","pricing_plan_id":"cebpf4jnsgd1na2vs0mg"},{"bike_id":"0ca518de-0c17-4372-be23-1a3dbacd103a","system_id":"levelo_inurba_marseille","lat":43.29408,"lon":5.38635,"is_reserved":false,"is_disabled":false,"rental_uris":{"android":"levelo://app?vid=0ca518de-0c17-4372-be23-1a3dbacd103a","ios":"levelo://app?vid=0ca518de-0c17-4372-be23-1a3dbacd103a"},"vehicle_type_id":"4","last_reported":1712606879,"current_range_meters":0,"station_id":"ce4bh2h2rcd13ifvqdh0","pricing_plan_id":"cebpf4jnsgd1na2vs0mg"},{"bike_id":"f8efb249-7aff-4cf1-a88c-203d681a3112","system_id":"levelo_inurba_marseille","lat":43.289418,"lon":5.364016,"is_reserved":false,"is_disabled":false,"rental_uris":{"android":"levelo://app?vid=f8efb249-7aff-4cf1-a88c-203d681a3112","ios":"levelo://app?vid=f8efb249-7aff-4cf1-a88c-203d681a3112"},"vehicle_type_id":"4","last_reported":1712606879,"current_range_meters":0,"station_id":"ce4bhc92rcd13ifvqetg","pricing_plan_id":"cebpf4jnsgd1na2vs0mg"},{"bike_id":"2b4ae900-7bfa-4a79-a072-acc54c50dbb8","system_id":"levelo_inurba_marseille","lat":43.28931,"lon":5.36641,"is_reserved":false,"is_disabled":false,"rental_uris":{"android":"levelo://app?vid=2b4ae900-7bfa-4a79-a072-acc54c50dbb8","ios":"levelo://app?vid=2b4ae900-7bfa-4a79-a072-acc54c50dbb8"},"vehicle_type_id":"4","last_reported":1712606879,"current_range_meters":0,"station_id":"ce4bhap2rcd13ifvqek0","pricing_plan_id":"cebpf4jnsgd1na2vs0mg"},{"bike_id":"326fba55-f171-421d-aab3-233ce7de30b7","system_id":"levelo_inurba_marseille","lat":43.289468,"lon":5.363719,"is_reserved":false,"is_disabled":false,"rental_uris":{"android":"levelo://app?vid=326fba55-f171-421d-aab3-233ce7de30b7","ios":"levelo://app?vid=326fba55-f171-421d-aab3-233ce7de30b7"},"vehicle_type_id":"4","last_reported":1712606879,"current_range_meters":22000,"station_id":"ce4bhc92rcd13ifvqetg","pricing_plan_id":"cebpf4jnsgd1na2vs0mg"},{"bike_id":"194b7a4a-5025-45ef-bfe6-1ae83e1ee257","system_id":"levelo_inurba_marseille","lat":43.282744,"lon":5.350533,"is_reserved":false,"is_disabled":false,"rental_uris":{"android":"levelo://app?vid=194b7a4a-5025-45ef-bfe6-1ae83e1ee257","ios":"levelo://app?vid=194b7a4a-5025-45ef-bfe6-1ae83e1ee257"},"vehicle_type_id":"4","last_reported":1712606879,"current_range_meters":8800,"station_id":"ce4bhbp2rcd13ifvqerg","pricing_plan_id":"cebpf4jnsgd1na2vs0mg"},{"bike_id":"39cb5ce1-e527-4ae9-927e-cafd658fa45d","system_id":"levelo_inurba_marseille","lat":43.289468,"lon":5.363719,"is_reserved":false,"is_disabled":false,"rental_uris":{"android":"levelo://app?vid=39cb5ce1-e527-4ae9-927e-cafd658fa45d","ios":"levelo://app?vid=39cb5ce1-e527-4ae9-927e-cafd658fa45d"},"vehicle_type_id":"4","last_reported":1712606879,"current_range_meters":400,"station_id":"ce4bhc92rcd13ifvqetg","pricing_plan_id":"cebpf4jnsgd1na2vs0mg"},{"bike_id":"bbd1934b-b700-4571-b740-d76143490722","system_id":"levelo_inurba_marseille","lat":43.289357,"lon":5.363957,"is_reserved":false,"is_disabled":false,"rental_uris":{"android":"levelo://app?vid=bbd1934b-b700-4571-b740-d76143490722","ios":"levelo://app?vid=bbd1934b-b700-4571-b740-d76143490722"},"vehicle_type_id":"4","last_reported":1712606879,"current_range_meters":0,"station_id":"ce4bhc92rcd13ifvqetg","pricing_plan_id":"cebpf4jnsgd1na2vs0mg"},{"bike_id":"a80a954a-8c5d-4620-a43d-e845d9c28db5","system_id":"levelo_inurba_marseille","lat":43.292644,"lon":5.384257,"is_reserved":false,"is_disabled":false,"rental_uris":{"android":"levelo://app?vid=a80a954a-8c5d-4620-a43d-e845d9c28db5","ios":"levelo://app?vid=a80a954a-8c5d-4620-a43d-e845d9c28db5"},"vehicle_type_id":"4","last_reported":1712606879,"current_range_meters":4000,"station_id":"ce4bh692rcd13ifvqea0","pricing_plan_id":"cebpf4jnsgd1na2vs0mg"},{"bike_id":"d6b990cd-4dec-4bec-86f1-4db36ecdbcc8","system_id":"levelo_inurba_marseille","lat":43.292655,"lon":5.384405,"is_reserved":false,"is_disabled":false,"rental_uris":{"android":"levelo://app?vid=d6b990cd-4dec-4bec-86f1-4db36ecdbcc8","ios":"levelo://app?vid=d6b990cd-4dec-4bec-86f1-4db36ecdbcc8"},"vehicle_type_id":"4","last_reported":1712606879,"current_range_meters":0,"station_id":"ce4bh692rcd13ifvqea0","pricing_plan_id":"cebpf4jnsgd1na2vs0mg"},{"bike_id":"9464c90a-7db0-4cae-a21c-03fb3ec28825","system_id":"levelo_inurba_marseille","lat":43.30429,"lon":5.39753,"is_reserved":false,"is_disabled":false,"rental_uris":{"android":"levelo://app?vid=9464c90a-7db0-4cae-a21c-03fb3ec28825","ios":"levelo://app?vid=9464c90a-7db0-4cae-a21c-03fb3ec28825"},"vehicle_type_id":"4","last_reported":1712606879,"current_range_meters":4800,"station_id":"ce4bh092rcd13ifvqd20","pricing_plan_id":"cebpf4jnsgd1na2vs0mg"},{"bike_id":"34a3c0b1-3f51-43f3-94a3-92bcb802e19d","system_id":"levelo_inurba_marseille","lat":43.290319,"lon":5.375732,"is_reserved":false,"is_disabled":false,"rental_uris":{"android":"levelo://app?vid=34a3c0b1-3f51-43f3-94a3-92bcb802e19d","ios":"levelo://app?vid=34a3c0b1-3f51-43f3-94a3-92bcb802e19d"},"vehicle_type_id":"4","last_reported":1712606879,"current_range_meters":4800,"station_id":"ce4bh692rcd13ifvqe90","pricing_plan_id":"cebpf4jnsgd1na2vs0mg"},{"bike_id":"7fb94672-9a2a-419a-8316-fb632fa5a422","system_id":"levelo_inurba_marseille","lat":43.291,"lon":5.38136,"is_reserved":false,"is_disabled":false,"rental_uris":{"android":"levelo://app?vid=7fb94672-9a2a-419a-8316-fb632fa5a422","ios":"levelo://app?vid=7fb94672-9a2a-419a-8316-fb632fa5a422"},"vehicle_type_id":"4","last_reported":1712606879,"current_range_meters":18800,"station_id":"ce4bh512rcd13ifvqe2g","pricing_plan_id":"cebpf4jnsgd1na2vs0mg"},{"bike_id":"25bac97e-921d-4dec-89e8-6b6e09a1cd40","system_id":"levelo_inurba_marseille","lat":43.290995,"lon":5.381361,"is_reserved":false,"is_disabled":false,"rental_uris":{"android":"levelo://app?vid=25bac97e-921d-4dec-89e8-6b6e09a1cd40","ios":"levelo://app?vid=25bac97e-921d-4dec-89e8-6b6e09a1cd40"},"vehicle_type_id":"4","last_reported":1712606879,"current_range_meters":9200,"station_id":"ce4bh512rcd13ifvqe2g","pricing_plan_id":"cebpf4jnsgd1na2vs0mg"},{"bike_id":"d829c455-4e8e-484a-9455-11e2fd015ddd","system_id":"levelo_inurba_marseille","lat":43.290995,"lon":5.381361,"is_reserved":false,"is_disabled":false,"rental_uris":{"android":"levelo://app?vid=d829c455-4e8e-484a-9455-11e2fd015ddd","ios":"levelo://app?vid=d829c455-4e8e-484a-9455-11e2fd015ddd"},"vehicle_type_id":"4","last_reported":1712606879,"current_range_meters":0,"station_id":"ce4bh512rcd13ifvqe2g","pricing_plan_id":"cebpf4jnsgd1na2vs0mg"},{"bike_id":"5e31d99c-cf82-413d-8493-a58bd719f97b","system_id":"levelo_inurba_marseille","lat":43.2979,"lon":5.39338,"is_reserved":false,"is_disabled":false,"rental_uris":{"android":"levelo://app?vid=5e31d99c-cf82-413d-8493-a58bd719f97b","ios":"levelo://app?vid=5e31d99c-cf82-413d-8493-a58bd719f97b"},"vehicle_type_id":"4","last_reported":1712606879,"current_range_meters":0,"station_id":"chh1huq6cuj3fo74tm60","pricing_plan_id":"cebpf4jnsgd1na2vs0mg"},{"bike_id":"c4541802-aedf-4a1b-afef-571f7f927053","system_id":"levelo_inurba_marseille","lat":43.295169,"lon":5.390426,"is_reserved":false,"is_disabled":false,"rental_uris":{"android":"levelo://app?vid=c4541802-aedf-4a1b-afef-571f7f927053","ios":"levelo://app?vid=c4541802-aedf-4a1b-afef-571f7f927053"},"vehicle_type_id":"4","last_reported":1712606879,"current_range_meters":4800,"station_id":"ce4bh3p2rcd13ifvqdp0","pricing_plan_id":"cebpf4jnsgd1na2vs0mg"},{"bike_id":"05b6030e-8b8f-4150-a43e-3a084e8ea36f","system_id":"levelo_inurba_marseille","lat":43.289741,"lon":5.378306,"is_reserved":false,"is_disabled":false,"rental_uris":{"android":"levelo://app?vid=05b6030e-8b8f-4150-a43e-3a084e8ea36f","ios":"levelo://app?vid=05b6030e-8b8f-4150-a43e-3a084e8ea36f"},"vehicle_type_id":"4","last_reported":1712606879,"current_range_meters":14400,"station_id":"ce4bh9p2rcd13ifvqed0","pricing_plan_id":"cebpf4jnsgd1na2vs0mg"},{"bike_id":"55ab37be-ff4f-4d7a-a995-96b296ec2a47","system_id":"levelo_inurba_marseille","lat":43.29779,"lon":5.39343,"is_reserved":false,"is_disabled":false,"rental_uris":{"android":"levelo://app?vid=55ab37be-ff4f-4d7a-a995-96b296ec2a47","ios":"levelo://app?vid=55ab37be-ff4f-4d7a-a995-96b296ec2a47"},"vehicle_type_id":"4","last_reported":1712606879,"current_range_meters":0,"station_id":"chh1huq6cuj3fo74tm60","pricing_plan_id":"cebpf4jnsgd1na2vs0mg"},{"bike_id":"cb85f77f-c6fa-4330-8ab5-8d7307a81e1b","system_id":"levelo_inurba_marseille","lat":43.28981,"lon":5.37841,"is_reserved":false,"is_disabled":false,"rental_uris":{"android":"levelo://app?vid=cb85f77f-c6fa-4330-8ab5-8d7307a81e1b","ios":"levelo://app?vid=cb85f77f-c6fa-4330-8ab5-8d7307a81e1b"},"vehicle_type_id":"4","last_reported":1712606879,"current_range_meters":0,"station_id":"ce4bh9p2rcd13ifvqed0","pricing_plan_id":"cebpf4jnsgd1na2vs0mg"},{"bike_id":"27e4cf73-33c2-492e-ae46-91c52ba71937","system_id":"levelo_inurba_marseille","lat":43.295192,"lon":5.390266,"is_reserved":false,"is_disabled":false,"rental_uris":{"android":"levelo://app?vid=27e4cf73-33c2-492e-ae46-91c52ba71937","ios":"levelo://app?vid=27e4cf73-33c2-492e-ae46-91c52ba71937"},"vehicle_type_id":"4","last_reported":1712606879,"current_range_meters":0,"station_id":"ce4bh3p2rcd13ifvqdp0","pricing_plan_id":"cebpf4jnsgd1na2vs0mg"},{"bike_id":"947df8f3-dc66-4447-8f27-8045bb3c8b36","system_id":"levelo_inurba_marseille","lat":43.330442,"lon":5.389148,"is_reserved":false,"is_disabled":false,"rental_uris":{"android":"levelo://app?vid=947df8f3-dc66-4447-8f27-8045bb3c8b36","ios":"levelo://app?vid=947df8f3-dc66-4447-8f27-8045bb3c8b36"},"vehicle_type_id":"4","last_reported":1712606879,"current_range_meters":32000,"station_id":"ce4bhr92rcd13ifvqhrg","pricing_plan_id":"cebpf4jnsgd1na2vs0mg"},{"bike_id":"413db7e7-6fa2-4875-9ce8-b3d43fdc1e37","system_id":"levelo_inurba_marseille","lat":43.28978,"lon":5.37843,"is_reserved":false,"is_disabled":false,"rental_uris":{"android":"levelo://app?vid=413db7e7-6fa2-4875-9ce8-b3d43fdc1e37","ios":"levelo://app?vid=413db7e7-6fa2-4875-9ce8-b3d43fdc1e37"},"vehicle_type_id":"4","last_reported":1712606879,"current_range_meters":0,"station_id":"ce4bh9p2rcd13ifvqed0","pricing_plan_id":"cebpf4jnsgd1na2vs0mg"},{"bike_id":"833df115-212d-4b65-b996-f0340ae43926","system_id":"levelo_inurba_marseille","lat":43.29526,"lon":5.39041,"is_reserved":false,"is_disabled":false,"rental_uris":{"android":"levelo://app?vid=833df115-212d-4b65-b996-f0340ae43926","ios":"levelo://app?vid=833df115-212d-4b65-b996-f0340ae43926"},"vehicle_type_id":"4","last_reported":1712606879,"current_range_meters":10000,"station_id":"ce4bh3p2rcd13ifvqdp0","pricing_plan_id":"cebpf4jnsgd1na2vs0mg"},{"bike_id":"3e127a67-d8ff-4fcc-a7de-47f56b7bc850","system_id":"levelo_inurba_marseille","lat":43.295169,"lon":5.390426,"is_reserved":false,"is_disabled":false,"rental_uris":{"android":"levelo://app?vid=3e127a67-d8ff-4fcc-a7de-47f56b7bc850","ios":"levelo://app?vid=3e127a67-d8ff-4fcc-a7de-47f56b7bc850"},"vehicle_type_id":"4","last_reported":1712606879,"current_range_meters":28800,"station_id":"ce4bh3p2rcd13ifvqdp0","pricing_plan_id":"cebpf4jnsgd1na2vs0mg"},{"bike_id":"82d5c063-5b06-44e8-b101-a1220db0361b","system_id":"levelo_inurba_marseille","lat":43.295169,"lon":5.390426,"is_reserved":false,"is_disabled":false,"rental_uris":{"android":"levelo://app?vid=82d5c063-5b06-44e8-b101-a1220db0361b","ios":"levelo://app?vid=82d5c063-5b06-44e8-b101-a1220db0361b"},"vehicle_type_id":"4","last_reported":1712606879,"current_range_meters":400,"station_id":"ce4bh3p2rcd13ifvqdp0","pricing_plan_id":"cebpf4jnsgd1na2vs0mg"},{"bike_id":"7a9890f4-c6d8-4404-b5ea-c9cf213982c4","system_id":"levelo_inurba_marseille","lat":43.33025,"lon":5.39041,"is_reserved":false,"is_disabled":false,"rental_uris":{"android":"levelo://app?vid=7a9890f4-c6d8-4404-b5ea-c9cf213982c4","ios":"levelo://app?vid=7a9890f4-c6d8-4404-b5ea-c9cf213982c4"},"vehicle_type_id":"4","last_reported":1712606879,"current_range_meters":18800,"station_id":"ce4bhr92rcd13ifvqhrg","pricing_plan_id":"cebpf4jnsgd1na2vs0mg"},{"bike_id":"a283d2d9-0492-48e6-8559-2b3f03e91c5e","system_id":"levelo_inurba_marseille","lat":43.330442,"lon":5.389148,"is_reserved":false,"is_disabled":false,"rental_uris":{"android":"levelo://app?vid=a283d2d9-0492-48e6-8559-2b3f03e91c5e","ios":"levelo://app?vid=a283d2d9-0492-48e6-8559-2b3f03e91c5e"},"vehicle_type_id":"4","last_reported":1712606879,"current_range_meters":4000,"station_id":"ce4bhr92rcd13ifvqhrg","pricing_plan_id":"cebpf4jnsgd1na2vs0mg"},{"bike_id":"c37bda29-5ea8-4c5e-83af-dd2497e174c5","system_id":"levelo_inurba_marseille","lat":43.295169,"lon":5.390426,"is_reserved":false,"is_disabled":false,"rental_uris":{"android":"levelo://app?vid=c37bda29-5ea8-4c5e-83af-dd2497e174c5","ios":"levelo://app?vid=c37bda29-5ea8-4c5e-83af-dd2497e174c5"},"vehicle_type_id":"4","last_reported":1712606879,"current_range_meters":27200,"station_id":"ce4bh3p2rcd13ifvqdp0","pricing_plan_id":"cebpf4jnsgd1na2vs0mg"},{"bike_id":"9d72a785-c306-4bda-9322-43d754b152e4","system_id":"levelo_inurba_marseille","lat":43.295206,"lon":5.390432,"is_reserved":false,"is_disabled":false,"rental_uris":{"android":"levelo://app?vid=9d72a785-c306-4bda-9322-43d754b152e4","ios":"levelo://app?vid=9d72a785-c306-4bda-9322-43d754b152e4"},"vehicle_type_id":"4","last_reported":1712606879,"current_range_meters":1200,"station_id":"ce4bh3p2rcd13ifvqdp0","pricing_plan_id":"cebpf4jnsgd1na2vs0mg"},{"bike_id":"4200121a-ab56-4213-99b9-b27775004ee6","system_id":"levelo_inurba_marseille","lat":43.295218,"lon":5.390471,"is_reserved":false,"is_disabled":false,"rental_uris":{"android":"levelo://app?vid=4200121a-ab56-4213-99b9-b27775004ee6","ios":"levelo://app?vid=4200121a-ab56-4213-99b9-b27775004ee6"},"vehicle_type_id":"4","last_reported":1712606879,"current_range_meters":0,"station_id":"ce4bh3p2rcd13ifvqdp0","pricing_plan_id":"cebpf4jnsgd1na2vs0mg"},{"bike_id":"2c27d14f-8afa-4ff8-9e8a-aef07e454311","system_id":"levelo_inurba_marseille","lat":43.295169,"lon":5.390426,"is_reserved":false,"is_disabled":false,"rental_uris":{"android":"levelo://app?vid=2c27d14f-8afa-4ff8-9e8a-aef07e454311","ios":"levelo://app?vid=2c27d14f-8afa-4ff8-9e8a-aef07e454311"},"vehicle_type_id":"4","last_reported":1712606879,"current_range_meters":30400,"station_id":"ce4bh3p2rcd13ifvqdp0","pricing_plan_id":"cebpf4jnsgd1na2vs0mg"},{"bike_id":"1dce9aa1-5232-4b74-8ce2-5f74a5bbde23","system_id":"levelo_inurba_marseille","lat":43.33113,"lon":5.38923,"is_reserved":false,"is_disabled":false,"rental_uris":{"android":"levelo://app?vid=1dce9aa1-5232-4b74-8ce2-5f74a5bbde23","ios":"levelo://app?vid=1dce9aa1-5232-4b74-8ce2-5f74a5bbde23"},"vehicle_type_id":"4","last_reported":1712606879,"current_range_meters":8400,"station_id":"","pricing_plan_id":"cebpf4jnsgd1na2vs0mg"},{"bike_id":"ab53ab35-ca1b-48c3-8517-9b396b7ab134","system_id":"levelo_inurba_marseille","lat":43.33034,"lon":5.39044,"is_reserved":false,"is_disabled":false,"rental_uris":{"android":"levelo://app?vid=ab53ab35-ca1b-48c3-8517-9b396b7ab134","ios":"levelo://app?vid=ab53ab35-ca1b-48c3-8517-9b396b7ab134"},"vehicle_type_id":"4","last_reported":1712606879,"current_range_meters":4400,"station_id":"ce4bhr92rcd13ifvqhrg","pricing_plan_id":"cebpf4jnsgd1na2vs0mg"},{"bike_id":"6644b7ff-a469-4d8f-b1cf-77d9f1528d46","system_id":"levelo_inurba_marseille","lat":43.3303,"lon":5.3905,"is_reserved":false,"is_disabled":false,"rental_uris":{"android":"levelo://app?vid=6644b7ff-a469-4d8f-b1cf-77d9f1528d46","ios":"levelo://app?vid=6644b7ff-a469-4d8f-b1cf-77d9f1528d46"},"vehicle_type_id":"4","last_reported":1712606879,"current_range_meters":21200,"station_id":"ce4bhr92rcd13ifvqhrg","pricing_plan_id":"cebpf4jnsgd1na2vs0mg"},{"bike_id":"4507dcf5-abcb-48e2-89e5-5ce40dfdf921","system_id":"levelo_inurba_marseille","lat":43.2901,"lon":5.381269,"is_reserved":false,"is_disabled":false,"rental_uris":{"android":"levelo://app?vid=4507dcf5-abcb-48e2-89e5-5ce40dfdf921","ios":"levelo://app?vid=4507dcf5-abcb-48e2-89e5-5ce40dfdf921"},"vehicle_type_id":"4","last_reported":1712606879,"current_range_meters":27200,"station_id":"ce4bh4p2rcd13ifvqe1g","pricing_plan_id":"cebpf4jnsgd1na2vs0mg"},{"bike_id":"3425967e-afc7-4b02-8025-70e37a107245","system_id":"levelo_inurba_marseille","lat":43.290094,"lon":5.381264,"is_reserved":false,"is_disabled":false,"rental_uris":{"android":"levelo://app?vid=3425967e-afc7-4b02-8025-70e37a107245","ios":"levelo://app?vid=3425967e-afc7-4b02-8025-70e37a107245"},"vehicle_type_id":"4","last_reported":1712606879,"current_range_meters":6000,"station_id":"ce4bh4p2rcd13ifvqe1g","pricing_plan_id":"cebpf4jnsgd1na2vs0mg"},{"bike_id":"bd4eb042-9b06-455f-b64c-8039de3cda71","system_id":"levelo_inurba_marseille","lat":43.2901,"lon":5.381269,"is_reserved":false,"is_disabled":false,"rental_uris":{"android":"levelo://app?vid=bd4eb042-9b06-455f-b64c-8039de3cda71","ios":"levelo://app?vid=bd4eb042-9b06-455f-b64c-8039de3cda71"},"vehicle_type_id":"4","last_reported":1712606879,"current_range_meters":18000,"station_id":"ce4bh4p2rcd13ifvqe1g","pricing_plan_id":"cebpf4jnsgd1na2vs0mg"},