{"last_updated":1746015537,"ttl":60,"version":"2.2","data":{"bikes":[{"bike_id":"305abec6-f096-40b3-b2ef-df46120ca3ab","system_id":"levelo_inurba_marseille","lat":43.32046,"lon":5.41543,"is_reserved":false,"is_disabled":false,"rental_uris":{"android":"levelo://app?vid=305abec6-f096-40b3-b2ef-df46120ca3ab","ios":"levelo://app?vid=305abec6-f096-40b3-b2ef-df46120ca3ab"},"vehicle_type_id":"4","last_reported":1746015537,"current_range_meters":2800,"station_id":"ce4bhq92rcd13ifvqhkg","pricing_plan_id":"cebpf4jnsgd1na2vs0mg"},{"bike_id":"cb26edee-7334-47da-b508-b17a5b5785c0","system_id":"levelo_inurba_marseille","lat":43.282619,"lon":5.350623,"is_reserved":false,"is_disabled":false,"rental_uris":{"android":"levelo://app?vid=cb26edee-7334-47da-b508-b17a5b5785c0","ios":"levelo://app?vid=cb26edee-7334-47da-b508-b17a5b5785c0"},"vehicle_type_id":"4","last_reported":1746015537,"current_range_meters":2800,"station_id":"ce4bhbp2rcd13ifvqerg","pricing_plan_id":"cebpf4jnsgd1na2vs0mg"},{"bike_id":"e387d285-ec48-456f-9f30-ca6a88dc1a9c","system_id":"levelo_inurba_marseille","lat":43.27813,"lon":5.40706,"is_reserved":false,"is_disabled":false,"rental_uris":{"android":"levelo://app?vid=e387d285-ec48-456f-9f30-ca6a88dc1a9c","ios":"levelo://app?vid=e387d285-ec48-456f-9f30-ca6a88dc1a9c"},"vehicle_type_id":"4","last_reported":1746015537,"current_range_meters":2800,"station_id":"ce4bhnh2rcd13ifvqgtg","pricing_plan_id":"cebpf4jnsgd1na2vs0mg"},{"bike_id":"842df422-87e8-4d05-ae8d-ec3773ab1f5e","system_id":"levelo_inurba_marseille","lat":43.28082,"lon":5.39658,"is_reserved":false,"is_disabled":false,"rental_uris":{"android":"levelo://app?vid=842df422-87e8-4d05-ae8d-ec3773ab1f5e","ios":"levelo://app?vid=842df422-87e8-4d05-ae8d-ec3773ab1f5e"},"vehicle_type_id":"4","last_reported":1746015537,"current_range_meters":3200,"station_id":"ce4bho12rcd13ifvqh2g","pricing_plan_id":"cebpf4jnsgd1na2vs0mg"},{"bike_id":"6f1203ee-4303-4283-8be0-73b4b8f9b27d","system_id":"levelo_inurba_marseille","lat":43.27948,"lon":5.4105,"is_reserved":false,"is_disabled":false,"rental_uris":{"android":"levelo://app?vid=6f1203ee-4303-4283-8be0-73b4b8f9b27d","ios":"levelo://app?vid=6f1203ee-4303-4283-8be0-73b4b8f9b27d"},"vehicle_type_id":"4","last_reported":1746015537,"current_range_meters":3200,"station_id":"ce4bhnp2rcd13ifvqh0g","pricing_plan_id":"cebpf4jnsgd1na2vs0mg"},{"bike_id":"ef2ebcf4-4ec3-4490-a461-6675ddcda40f","system_id":"levelo_inurba_marseille","lat":43.30796,"lon":5.38168,"is_reserved":false,"is_disabled":false,"rental_uris":{"android":"levelo://app?vid=ef2ebcf4-4ec3-4490-a461-6675ddcda40f","ios":"levelo://app?vid=ef2ebcf4-4ec3-4490-a461-6675ddcda40f"},"vehicle_type_id":"4","last_reported":1746015537,"current_range_meters":3200,"station_id":"ce4bgt12rcd13ifvqce0","pricing_plan_id":"cebpf4jnsgd1na2vs0mg"},{"bike_id":"e5b4b90d-e268-4de2-98f4-f6d0513f8801","system_id":"levelo_inurba_marseille","lat":43.26543,"lon":5.42222,"is_reserved":false,"is_disabled":false,"rental_uris":{"android":"levelo://app?vid=e5b4b90d-e268-4de2-98f4-f6d0513f8801","ios":"levelo://app?vid=e5b4b90d-e268-4de2-98f4-f6d0513f8801"},"vehicle_type_id":"4","last_reported":1746015537,"current_range_meters":3600,"station_id":"","pricing_plan_id":"cebpf4jnsgd1na2vs0mg"},{"bike_id":"066e2dcc-09c7-41fa-a487-e59daf40f1ac","system_id":"levelo_inurba_marseille","lat":43.28271,"lon":5.35066,"is_reserved":false,"is_disabled":false,"rental_uris":{"android":"levelo://app?vid=066e2dcc-09c7-41fa-a487-e59daf40f1ac","ios":"levelo://app?vid=066e2dcc-09c7-41fa-a487-e59daf40f1ac"},"vehicle_type_id":"4","last_reported":1746015537,"current_range_meters":3600,"station_id":"ce4bhbp2rcd13ifvqerg","pricing_plan_id":"cebpf4jnsgd1na2vs0mg"},{"bike_id":"00735118-7a30-4a76-b256-5ef007f73438","system_id":"levelo_inurba_marseille","lat":43.26557,"lon":5.37281,"is_reserved":false,"is_disabled":false,"rental_uris":{"android":"levelo://app?vid=00735118-7a30-4a76-b256-5ef007f73438","ios":"levelo://app?vid=00735118-7a30-4a76-b256-5ef007f73438"},"vehicle_type_id":"4","last_reported":1746015537,"current_range_meters":3600,"station_id":"ce4bhg12rcd13ifvqf70","pricing_plan_id":"cebpf4jnsgd1na2vs0mg"},{"bike_id":"73c3d829-5e0c-430a-8902-3c7b3d9931eb","system_id":"levelo_inurba_marseille","lat":43.28079,"lon":5.39652,"is_reserved":false,"is_disabled":false,"rental_uris":{"android":"levelo://app?vid=73c3d829-5e0c-430a-8902-3c7b3d9931eb","ios":"levelo://app?vid=73c3d829-5e0c-430a-8902-3c7b3d9931eb"},"vehicle_type_id":"4","last_reported":1746015537,"current_range_meters":4000,"station_id":"ce4bho12rcd13ifvqh2g","pricing_plan_id":"cebpf4jnsgd1na2vs0mg"},{"bike_id":"f1e3c12a-02a3-4893-b9e1-1aacd74f3f49","system_id":"levelo_inurba_marseille","lat":43.32092,"lon":5.36787,"is_reserved":false,"is_disabled":false,"rental_uris":{"android":"levelo://app?vid=f1e3c12a-02a3-4893-b9e1-1aacd74f3f49","ios":"levelo://app?vid=f1e3c12a-02a3-4893-b9e1-1aacd74f3f49"},"vehicle_type_id":"4","last_reported":1746015537,"current_range_meters":4000,"station_id":"ce4bhrh2rcd13ifvqhug","pricing_plan_id":"cebpf4jnsgd1na2vs0mg"},{"bike_id":"872e40bd-db56-4f8d-85df-accda26fe4e0","system_id":"levelo_inurba_marseille","lat":43.298748,"lon":5.397351,"is_reserved":false,"is_disabled":false,"rental_uris":{"android":"levelo://app?vid=872e40bd-db56-4f8d-85df-accda26fe4e0","ios":"levelo://app?vid=872e40bd-db56-4f8d-85df-accda26fe4e0"},"vehicle_type_id":"4","last_reported":1746015537,"current_range_meters":4000,"station_id":"ce4bh0h2rcd13ifvqd50","pricing_plan_id":"cebpf4jnsgd1na2vs0mg"},{"bike_id":"3498ed05-fd2d-40ec-8eff-abb8aa8b0b1e","system_id":"levelo_inurba_marseille","lat":43.28614,"lon":5.35101,"is_reserved":false,"is_disabled":false,"rental_uris":{"android":"levelo://app?vid=3498ed05-fd2d-40ec-8eff-abb8aa8b0b1e","ios":"levelo://app?vid=3498ed05-fd2d-40ec-8eff-abb8aa8b0b1e"},"vehicle_type_id":"4","last_reported":1746015537,"current_range_meters":4000,"station_id":"ce4bhch2rcd13ifvqeug","pricing_plan_id":"cebpf4jnsgd1na2vs0mg"},{"bike_id":"2e4aee84-a3bb-4c8f-90a7-334c73ab185c","system_id":"levelo_inurba_marseille","lat":43.26954,"lon":5.38624,"is_reserved":false,"is_disabled":false,"rental_uris":{"android":"levelo://app?vid=2e4aee84-a3bb-4c8f-90a7-334c73ab185c","ios":"levelo://app?vid=2e4aee84-a3bb-4c8f-90a7-334c73ab185c"},"vehicle_type_id":"4","last_reported":1746015537,"current_range_meters":4000,"station_id":"ce4bhh92rcd13ifvqfh0","pricing_plan_id":"cebpf4jnsgd1na2vs0mg"},{"bike_id":"2c6d909e-6baf-4870-9f04-c36b6f60c4d6","system_id":"levelo_inurba_marseille","lat":43.29043,"lon":5.37558,"is_reserved":false,"is_disabled":true,"rental_uris":{"android":"levelo://app?vid=2c6d909e-6baf-4870-9f04-c36b6f60c4d6","ios":"levelo://app?vid=2c6d909e-6baf-4870-9f04-c36b6f60c4d6"},"vehicle_type_id":"4","last_reported":1746015537,"current_range_meters":4400,"station_id":"ce4bh692rcd13ifvqe90","pricing_plan_id":"cebpf4jnsgd1na2vs0mg"},{"bike_id":"369e23e5-2240-4e38-ac42-96c3371f4bfe","system_id":"levelo_inurba_marseille","lat":43.2842,"lon":5.34984,"is_reserved":false,"is_disabled":false,"rental_uris":{"android":"levelo://app?vid=369e23e5-2240-4e38-ac42-96c3371f4bfe","ios":"levelo://app?vid=369e23e5-2240-4e38-ac42-96c3371f4bfe"},"vehicle_type_id":"4","last_reported":1746015537,"current_range_meters":4800,"station_id":"ce4bhbh2rcd13ifvqepg","pricing_plan_id":"cebpf4jnsgd1na2vs0mg"},{"bike_id":"71b0a700-8e80-4d49-9b9a-cf3c50d5745b","system_id":"levelo_inurba_marseille","lat":43.283773,"lon":5.384701,"is_reserved":false,"is_disabled":false,"rental_uris":{"android":"levelo://app?vid=71b0a700-8e80-4d49-9b9a-cf3c50d5745b","ios":"levelo://app?vid=71b0a700-8e80-4d49-9b9a-cf3c50d5745b"},"vehicle_type_id":"4","last_reported":1746015537,"current_range_meters":4800,"station_id":"ce4bhi12rcd13ifvqfo0","pricing_plan_id":"cebpf4jnsgd1na2vs0mg"},{"bike_id":"4df50a3f-ec75-4abb-a66a-7f49c68de98b","system_id":"levelo_inurba_marseille","lat":43.299067,"lon":5.436393,"is_reserved":false,"is_disabled":false,"rental_uris":{"android":"levelo://app?vid=4df50a3f-ec75-4abb-a66a-7f49c68de98b","ios":"levelo://app?vid=4df50a3f-ec75-4abb-a66a-7f49c68de98b"},"vehicle_type_id":"4","last_reported":1746015537,"current_range_meters":4800,"station_id":"ce4bhpp2rcd13ifvqhfg","pricing_plan_id":"cebpf4jnsgd1na2vs0mg"},{"bike_id":"493d571e-77c9-421d-a9ef-a3977c937096","system_id":"levelo_inurba_marseille","lat":43.29514,"lon":5.39395,"is_reserved":false,"is_disabled":false,"rental_uris":{"android":"levelo://app?vid=493d571e-77c9-421d-a9ef-a3977c937096","ios":"levelo://app?vid=493d571e-77c9-421d-a9ef-a3977c937096"},"vehicle_type_id":"4","last_reported":1746015537,"current_range_meters":4800,"station_id":"ce4bh292rcd13ifvqdf0","pricing_plan_id":"cebpf4jnsgd1na2vs0mg"},{"bike_id":"217484bd-1b40-4ea5-980c-1afa95fddf34","system_id":"levelo_inurba_marseille","lat":43.30952,"lon":5.390267,"is_reserved":false,"is_disabled":false,"rental_uris":{"android":"levelo://app?vid=217484bd-1b40-4ea5-980c-1afa95fddf34","ios":"levelo://app?vid=217484bd-1b40-4ea5-980c-1afa95fddf34"},"vehicle_type_id":"4","last_reported":1746015537,"current_range_meters":4800,"station_id":"ce4bgup2rcd13ifvqco0","pricing_plan_id":"cebpf4jnsgd1na2vs0mg"},{"bike_id":"0ab8444f-c213-466b-9786-78fc870f2d32","system_id":"levelo_inurba_marseille","lat":43.29025,"lon":5.38639,"is_reserved":false,"is_disabled":false,"rental_uris":{"android":"levelo://app?vid=0ab8444f-c213-466b-9786-78fc870f2d32","ios":"levelo://app?vid=0ab8444f-c213-466b-9786-78fc870f2d32"},"vehicle_type_id":"4","last_reported":1746015537,"current_range_meters":5600,"station_id":"ce4bh4p2rcd13ifvqe0g","pricing_plan_id":"cebpf4jnsgd1na2vs0mg"},{"bike_id":"e7437578-5c21-459d-a9a9-162acb594aaf","system_id":"levelo_inurba_marseille","lat":43.306486,"lon":5.400981,"is_reserved":false,"is_disabled":true,"rental_uris":{"android":"levelo://app?vid=e7437578-5c21-459d-a9a9-162acb594aaf","ios":"levelo://app?vid=e7437578-5c21-459d-a9a9-162acb594aaf"},"vehicle_type_id":"4","last_reported":1746015537,"current_range_meters":5600,"station_id":"ce4bh112rcd13ifvqda0","pricing_plan_id":"cebpf4jnsgd1na2vs0mg"},{"bike_id":"dbc3b9a2-6fa8-4624-923a-50ef869739db","system_id":"levelo_inurba_marseille","lat":43.25491,"lon":5.37642,"is_reserved":false,"is_disabled":false,"rental_uris":{"android":"levelo://app?vid=dbc3b9a2-6fa8-4624-923a-50ef869739db","ios":"levelo://app?vid=dbc3b9a2-6fa8-4624-923a-50ef869739db"},"vehicle_type_id":"4","last_reported":1746015537,"current_range_meters":5600,"station_id":"ce4bhh12rcd13ifvqff0","pricing_plan_id":"cebpf4jnsgd1na2vs0mg"},{"bike_id":"db0333ed-057b-4131-bb4d-36b7cdf45d23","system_id":"levelo_inurba_marseille","lat":43.28269,"lon":5.35053,"is_reserved":false,"is_disabled":false,"rental_uris":{"android":"levelo://app?vid=db0333ed-057b-4131-bb4d-36b7cdf45d23","ios":"levelo://app?vid=db0333ed-057b-4131-bb4d-36b7cdf45d23"},"vehicle_type_id":"4","last_reported":1746015537,"current_range_meters":5600,"station_id":"ce4bhbp2rcd13ifvqerg","pricing_plan_id":"cebpf4jnsgd1na2vs0mg"},{"bike_id":"36722fc4-26e8-4a19-a5d5-9b3354ca2dd9","system_id":"levelo_inurba_marseille","lat":43.25827,"lon":5.39424,"is_reserved":false,"is_disabled":false,"rental_uris":{"android":"levelo://app?vid=36722fc4-26e8-4a19-a5d5-9b3354ca2dd9","ios":"levelo://app?vid=36722fc4-26e8-4a19-a5d5-9b3354ca2dd9"},"vehicle_type_id":"4","last_reported":1746015537,"current_range_meters":6000,"station_id":"ce4bhip2rcd13ifvqft0","pricing_plan_id":"cebpf4jnsgd1na2vs0mg"},{"bike_id":"3a099ec1-7990-4038-9313-3c1f2562a259","system_id":"levelo_inurba_marseille","lat":43.266235,"lon":5.381815,"is_reserved":false,"is_disabled":false,"rental_uris":{"android":"levelo://app?vid=3a099ec1-7990-4038-9313-3c1f2562a259","ios":"levelo://app?vid=3a099ec1-7990-4038-9313-3c1f2562a259"},"vehicle_type_id":"4","last_reported":1746015537,"current_range_meters":6000,"station_id":"","pricing_plan_id":"cebpf4jnsgd1na2vs0mg"},{"bike_id":"2ccd14c5-02f0-44ed-b4fb-c6a56e1902b4","system_id":"levelo_inurba_marseille","lat":43.27945,"lon":5.41051,"is_reserved":false,"is_disabled":false,"rental_uris":{"android":"levelo://app?vid=2ccd14c5-02f0-44ed-b4fb-c6a56e1902b4","ios":"levelo://app?vid=2ccd14c5-02f0-44ed-b4fb-c6a56e1902b4"},"vehicle_type_id":"4","last_reported":1746015537,"current_range_meters":6400,"station_id":"ce4bhnp2rcd13ifvqh0g","pricing_plan_id":"cebpf4jnsgd1na2vs0mg"},{"bike_id":"7f905396-8180-4de0-8970-7ac9aa97bee6","system_id":"levelo_inurba_marseille","lat":43.28104,"lon":5.37827,"is_reserved":false,"is_disabled":false,"rental_uris":{"android":"levelo://app?vid=7f905396-8180-4de0-8970-7ac9aa97bee6","ios":"levelo://app?vid=7f905396-8180-4de0-8970-7ac9aa97bee6"},"vehicle_type_id":"4","last_reported":1746015537,"current_range_meters":6400,"station_id":"ce4bha12rcd13ifvqee0","pricing_plan_id":"cebpf4jnsgd1na2vs0mg"},{"bike_id":"89e9553b-359a-4286-8dbe-b7ac879dcc90","system_id":"levelo_inurba_marseille","lat":43.32457,"lon":5.36518,"is_reserved":false,"is_disabled":false,"rental_uris":{"android":"levelo://app?vid=89e9553b-359a-4286-8dbe-b7ac879dcc90","ios":"levelo://app?vid=89e9553b-359a-4286-8dbe-b7ac879dcc90"},"vehicle_type_id":"4","last_reported":1746015537,"current_range_meters":6400,"station_id":"ce4bhs12rcd13ifvqhvg","pricing_plan_id":"cebpf4jnsgd1na2vs0mg"},{"bike_id":"bbdd80f0-504a-4e8a-a35e-775fe26ea4c2","system_id":"levelo_inurba_marseille","lat":43.2904,"lon":5.37572,"is_reserved":false,"is_disabled":false,"rental_uris":{"android":"levelo://app?vid=bbdd80f0-504a-4e8a-a35e-775fe26ea4c2","ios":"levelo://app?vid=bbdd80f0-504a-4e8a-a35e-775fe26ea4c2"},"vehicle_type_id":"4","last_reported":1746015537,"current_range_meters":6800,"station_id":"ce4bh692rcd13ifvqe90","pricing_plan_id":"cebpf4jnsgd1na2vs0mg"},{"bike_id":"3eee3256-924b-491b-953a-929fcc50faca","system_id":"levelo_inurba_marseille","lat":43.25822,"lon":5.39437,"is_reserved":false,"is_disabled":false,"rental_uris":{"android":"levelo://app?vid=3eee3256-924b-491b-953a-929fcc50faca","ios":"levelo://app?vid=3eee3256-924b-491b-953a-929fcc50faca"},"vehicle_type_id":"4","last_reported":1746015537,"current_range_meters":6800,"station_id":"ce4bhip2rcd13ifvqft0","pricing_plan_id":"cebpf4jnsgd1na2vs0mg"},{"bike_id":"0ac3decb-9f50-4907-a3f2-733d2d3b9717","system_id":"levelo_inurba_marseille","lat":43.28268,"lon":5.35058,"is_reserved":false,"is_disabled":false,"rental_uris":{"android":"levelo://app?vid=0ac3decb-9f50-4907-a3f2-733d2d3b9717","ios":"levelo://app?vid=0ac3decb-9f50-4907-a3f2-733d2d3b9717"},"vehicle_type_id":"4","last_reported":1746015537,"current_range_meters":6800,"station_id":"ce4bhbp2rcd13ifvqerg","pricing_plan_id":"cebpf4jnsgd1na2vs0mg"},{"bike_id":"9f22f990-1d13-45a2-bc87-ca90219f9bc0","system_id":"levelo_inurba_marseille","lat":43.2455,"lon":5.39521,"is_reserved":false,"is_disabled":false,"rental_uris":{"android":"levelo://app?vid=9f22f990-1d13-45a2-bc87-ca90219f9bc0","ios":"levelo://app?vid=9f22f990-1d13-45a2-bc87-ca90219f9bc0"},"vehicle_type_id":"4","last_reported":1746015537,"current_range_meters":6800,"station_id":"ce4bhlp2rcd13ifvqgjg","pricing_plan_id":"cebpf4jnsgd1na2vs0mg"},{"bike_id":"e1bb5aee-9e0d-415c-a464-ab62ad3ff799","system_id":"levelo_inurba_marseille","lat":43.29026,"lon":5.38644,"is_reserved":false,"is_disabled":false,"rental_uris":{"android":"levelo://app?vid=e1bb5aee-9e0d-415c-a464-ab62ad3ff799","ios":"levelo://app?vid=e1bb5aee-9e0d-415c-a464-ab62ad3ff799"},"vehicle_type_id":"4","last_reported":1746015537,"current_range_meters":7200,"station_id":"ce4bh4p2rcd13ifvqe0g","pricing_plan_id":"cebpf4jnsgd1na2vs0mg"},{"bike_id":"90937972-ea29-4b6d-a26a-1468c1ca05f3","system_id":"levelo_inurba_marseille","lat":43.27618,"lon":5.36111,"is_reserved":false,"is_disabled":false,"rental_uris":{"android":"levelo://app?vid=90937972-ea29-4b6d-a26a-1468c1ca05f3","ios":"levelo://app?vid=90937972-ea29-4b6d-a26a-1468c1ca05f3"},"vehicle_type_id":"4","last_reported":1746015537,"current_range_meters":6800,"station_id":"ce4bgj92rcd13ifvqbe0","pricing_plan_id":"cebpf4jnsgd1na2vs0mg"},{"bike_id":"ea9fec3d-8748-4e9a-a2ec-d0b2ea85f1f3","system_id":"levelo_inurba_marseille","lat":43.24169,"lon":5.36405,"is_reserved":false,"is_disabled":false,"rental_uris":{"android":"levelo://app?vid=ea9fec3d-8748-4e9a-a2ec-d0b2ea85f1f3","ios":"levelo://app?vid=ea9fec3d-8748-4e9a-a2ec-d0b2ea85f1f3"},"vehicle_type_id":"4","last_reported":1746015537,"current_range_meters":7200,"station_id":"cpo36qri1sfpv3e86is0","pricing_plan_id":"cebpf4jnsgd1na2vs0mg"},{"bike_id":"5c9cfeb7-5e81-43a6-94ad-560b23526348","system_id":"levelo_inurba_marseille","lat":43.23159,"lon":5.43693,"is_reserved":false,"is_disabled":false,"rental_uris":{"android":"levelo://app?vid=5c9cfeb7-5e81-43a6-94ad-560b23526348","ios":"levelo://app?vid=5c9cfeb7-5e81-43a6-94ad-560b23526348"},"vehicle_type_id":"4","last_reported":1746015537,"current_range_meters":7200,"station_id":"ce4bhmp2rcd13ifvqgog","pricing_plan_id":"cebpf4jnsgd1na2vs0mg"},{"bike_id":"f4f06f8e-53d4-42d1-ac43-e3898a2dbd54","system_id":"levelo_inurba_marseille","lat":43.28423,"lon":5.34983,"is_reserved":false,"is_disabled":false,"rental_uris":{"android":"levelo://app?vid=f4f06f8e-53d4-42d1-ac43-e3898a2dbd54","ios":"levelo://app?vid=f4f06f8e-53d4-42d1-ac43-e3898a2dbd54"},"vehicle_type_id":"4","last_reported":1746015537,"current_range_meters":8000,"station_id":"ce4bhbh2rcd13ifvqepg","pricing_plan_id":"cebpf4jnsgd1na2vs0mg"},{"bike_id":"1f56a938-2605-4461-b12a-733dcb6f046f","system_id":"levelo_inurba_marseille","lat":43.25935,"lon":5.4091,"is_reserved":false,"is_disabled":false,"rental_uris":{"android":"levelo://app?vid=1f56a938-2605-4461-b12a-733dcb6f046f","ios":"levelo://app?vid=1f56a938-2605-4461-b12a-733dcb6f046f"},"vehicle_type_id":"4","last_reported":1746015537,"current_range_meters":8000,"station_id":"ce4bhm92rcd13ifvqglg","pricing_plan_id":"cebpf4jnsgd1na2vs0mg"},{"bike_id":"5f9e4cf4-affb-484b-a45b-b7c5665a3f5b","system_id":"levelo_inurba_marseille","lat":43.30302,"lon":5.36864,"is_reserved":false,"is_disabled":false,"rental_uris":{"android":"levelo://app?vid=5f9e4cf4-affb-484b-a45b-b7c5665a3f5b","ios":"levelo://app?vid=5f9e4cf4-affb-484b-a45b-b7c5665a3f5b"},"vehicle_type_id":"4","last_reported":1746015537,"current_range_meters":8000,"station_id":"ce4bgqh2rcd13ifvqc5g","pricing_plan_id":"cebpf4jnsgd1na2vs0mg"},{"bike_id":"8aecdc43-ad8b-4ae9-b4a7-b65b257f59a3","system_id":"levelo_inurba_marseille","lat":43.25494,"lon":5.37641,"is_reserved":false,"is_disabled":false,"rental_uris":{"android":"levelo://app?vid=8aecdc43-ad8b-4ae9-b4a7-b65b257f59a3","ios":"levelo://app?vid=8aecdc43-ad8b-4ae9-b4a7-b65b257f59a3"},"vehicle_type_id":"4","last_reported":1746015537,"current_range_meters":8000,"station_id":"ce4bhh12rcd13ifvqff0","pricing_plan_id":"cebpf4jnsgd1na2vs0mg"},{"bike_id":"3f977889-8b72-4f3e-ac02-76abc53e01de","system_id":"levelo_inurba_marseille","lat":43.25823,"lon":5.39435,"is_reserved":false,"is_disabled":false,"rental_uris":{"android":"levelo://app?vid=3f977889-8b72-4f3e-ac02-76abc53e01de","ios":"levelo://app?vid=3f977889-8b72-4f3e-ac02-76abc53e01de"},"vehicle_type_id":"4","last_reported":1746015537,"current_range_meters":8400,"station_id":"ce4bhip2rcd13ifvqft0","pricing_plan_id":"cebpf4jnsgd1na2vs0mg"},{"bike_id":"ab2bee09-cd0f-4f9a-a348-95b1d061e92d","system_id":"levelo_inurba_marseille","lat":43.27375,"lon":5.36256,"is_reserved":false,"is_disabled":false,"rental_uris":{"android":"levelo://app?vid=ab2bee09-cd0f-4f9a-a348-95b1d061e92d","ios":"levelo://app?vid=ab2bee09-cd0f-4f9a-a348-95b1d061e92d"},"vehicle_type_id":"4","last_reported":1746015537,"current_range_meters":8400,"station_id":"ce4bhbh2rcd13ifvqeo0","pricing_plan_id":"cebpf4jnsgd1na2vs0mg"},{"bike_id":"c7d4ca92-020f-4c6f-815a-ddc6fdf77b1f","system_id":"levelo_inurba_marseille","lat":43.234788,"lon":5.380366,"is_reserved":false,"is_disabled":false,"rental_uris":{"android":"levelo://app?vid=c7d4ca92-020f-4c6f-815a-ddc6fdf77b1f","ios":"levelo://app?vid=c7d4ca92-020f-4c6f-815a-ddc6fdf77b1f"},"vehicle_type_id":"4","last_reported":1746015537,"current_range_meters":8400,"station_id":"","pricing_plan_id":"cebpf4jnsgd1na2vs0mg"},{"bike_id":"aea00bb1-3507-49ff-bbe6-c9eedeed138e","system_id":"levelo_inurba_marseille","lat":43.26213,"lon":5.37451,"is_reserved":false,"is_disabled":false,"rental_uris":{"android":"levelo://app?vid=aea00bb1-3507-49ff-bbe6-c9eedeed138e","ios":"levelo://app?vid=aea00bb1-3507-49ff-bbe6-c9eedeed138e"},"vehicle_type_id":"4","last_reported":1746015537,"current_range_meters":8400,"station_id":"ce4bhgp2rcd13ifvqfc0","pricing_plan_id":"cebpf4jnsgd1na2vs0mg"},{"bike_id":"ffa0285d-5baa-4325-94c3-07da0c2810f9","system_id":"levelo_inurba_marseille","lat":43.28408,"lon":5.375062,"is_reserved":false,"is_disabled":true,"rental_uris":{"android":"levelo://app?vid=ffa0285d-5baa-4325-94c3-07da0c2810f9","ios":"levelo://app?vid=ffa0285d-5baa-4325-94c3-07da0c2810f9"},"vehicle_type_id":"4","last_reported":1746015537,"current_range_meters":8800,"station_id":"ce4bh412rcd13ifvqds0","pricing_plan_id":"cebpf4jnsgd1na2vs0mg"},{"bike_id":"216c07b6-8d06-4510-9f25-ced2a586088c","system_id":"levelo_inurba_marseille","lat":43.26791,"lon":5.39412,"is_reserved":false,"is_disabled":false,"rental_uris":{"android":"levelo://app?vid=216c07b6-8d06-4510-9f25-ced2a586088c","ios":"levelo://app?vid=216c07b6-8d06-4510-9f25-ced2a586088c"},"vehicle_type_id":"4","last_reported":1746015537,"current_range_meters":8800,"station_id":"ce4bhh12rcd13ifvqfg0","pricing_plan_id":"cebpf4jnsgd1na2vs0mg"},{"bike_id":"4e7acd77-70ec-4d23-bb37-290687130476","system_id":"levelo_inurba_marseille","lat":43.25872,"lon":5.39891,"is_reserved":false,"is_disabled":false,"rental_uris":{"android":"levelo://app?vid=4e7acd77-70ec-4d23-bb37-290687130476","ios":"levelo://app?vid=4e7acd77-70ec-4d23-bb37-290687130476"},"vehicle_type_id":"4","last_reported":1746015537,"current_range_meters":8800,"station_id":"ce4bhl92rcd13ifvqghg","pricing_plan_id":"cebpf4jnsgd1na2vs0mg"},{"bike_id":"f7d434d6-c94a-44aa-85df-690d8ef2922e","system_id":"levelo_inurba_marseille","lat":43.324767,"lon":5.365736,"is_reserved":false,"is_disabled":false,"rental_uris":{"android":"levelo://app?vid=f7d434d6-c94a-44aa-85df-690d8ef2922e","ios":"levelo://app?vid=f7d434d6-c94a-44aa-85df-690d8ef2922e"},"vehicle_type_id":"4","last_reported":1746015537,"current_range_meters":8800,"station_id":"ce4bhs12rcd13ifvqhvg","pricing_plan_id":"cebpf4jnsgd1na2vs0mg"},{"bike_id":"a0f4bd78-f5c4-42c9-acdf-e7276b835249","system_id":"levelo_inurba_marseille","lat":43.33149,"lon":5.38165,"is_reserved":false,"is_disabled":false,"rental_uris":{"android":"levelo://app?vid=a0f4bd78-f5c4-42c9-acdf-e7276b835249","ios":"levelo://app?vid=a0f4bd78-f5c4-42c9-acdf-e7276b835249"},"vehicle_type_id":"4","last_reported":1746015537,"current_range_meters":8800,"station_id":"","pricing_plan_id":"cebpf4jnsgd1na2vs0mg"},{"bike_id":"87b1dedc-1f4b-4235-96db-e9f679755b35","system_id":"levelo_inurba_marseille","lat":43.28368,"lon":5.38645,"is_reserved":false,"is_disabled":true,"rental_uris":{"android":"levelo://app?vid=87b1dedc-1f4b-4235-96db-e9f679755b35","ios":"levelo://app?vid=87b1dedc-1f4b-4235-96db-e9f679755b35"},"vehicle_type_id":"4","last_reported":1746015537,"current_range_meters":8800,"station_id":"ce4bh492rcd13ifvqdvg","pricing_plan_id":"cebpf4jnsgd1na2vs0mg"},{"bike_id":"9167bbb5-0a9b-4b76-9bc6-fbae80632bbe","system_id":"levelo_inurba_marseille","lat":43.2843,"lon":5.37508,"is_reserved":false,"is_disabled":false,"rental_uris":{"android":"levelo://app?vid=9167bbb5-0a9b-4b76-9bc6-fbae80632bbe","ios":"levelo://app?vid=9167bbb5-0a9b-4b76-9bc6-fbae80632bbe"},"vehicle_type_id":"4","last_reported":1746015537,"current_range_meters":9200,"station_id":"ce4bh412rcd13ifvqds0","pricing_plan_id":"cebpf4jnsgd1na2vs0mg"},{"bike_id":"d268d4b8-a069-4d53-8ad6-569b22fd3149","system_id":"levelo_inurba_marseille","lat":43.25119,"lon":5.40317,"is_reserved":false,"is_disabled":false,"rental_uris":{"android":"levelo://app?vid=d268d4b8-a069-4d53-8ad6-569b22fd3149","ios":"levelo://app?vid=d268d4b8-a069-4d53-8ad6-569b22fd3149"},"vehicle_type_id":"4","last_reported":1746015537,"current_range_meters":9200,"station_id":"ce4bhlh2rcd13ifvqgig","pricing_plan_id":"cebpf4jnsgd1na2vs0mg"},{"bike_id":"90f24e48-fc7d-4da1-a0c1-8fca3e2b6cf4","system_id":"levelo_inurba_marseille","lat":43.28371,"lon":5.38626,"is_reserved":false,"is_disabled":false,"rental_uris":{"android":"levelo://app?vid=90f24e48-fc7d-4da1-a0c1-8fca3e2b6cf4","ios":"levelo://app?vid=90f24e48-fc7d-4da1-a0c1-8fca3e2b6cf4"},"vehicle_type_id":"4","last_reported":1746015537,"current_range_meters":9200,"station_id":"ce4bh492rcd13ifvqdvg","pricing_plan_id":"cebpf4jnsgd1na2vs0mg"},{"bike_id":"92b534fe-725b-4bc6-9e54-a95887c42af5","system_id":"levelo_inurba_marseille","lat":43.30256,"lon":5.40069,"is_reserved":false,"is_disabled":false,"rental_uris":{"android":"levelo://app?vid=92b534fe-725b-4bc6-9e54-a95887c42af5","ios":"levelo://app?vid=92b534fe-725b-4bc6-9e54-a95887c42af5"},"vehicle_type_id":"4","last_reported":1746015537,"current_range_meters":8800,"station_id":"ce4bgvh2rcd13ifvqcs0","pricing_plan_id":"cebpf4jnsgd1na2vs0mg"},{"bike_id":"f5c9e254-60b8-4db0-a08d-3560436a0634","system_id":"levelo_inurba_marseille","lat":43.23064,"lon":5.35477,"is_reserved":false,"is_disabled":false,"rental_uris":{"android":"levelo://app?vid=f5c9e254-60b8-4db0-a08d-3560436a0634","ios":"levelo://app?vid=f5c9e254-60b8-4db0-a08d-3560436a0634"},"vehicle_type_id":"4","last_reported":1746015537,"current_range_meters":9200,"station_id":"cpo3342slgdg3j2ifvpg","pricing_plan_id":"cebpf4jnsgd1na2vs0mg"},{"bike_id":"fdcd73d7-23cb-4c6c-b4e1-10db05236177","system_id":"levelo_inurba_marseille","lat":43.28459,"lon":5.35887,"is_reserved":false,"is_disabled":false,"rental_uris":{"android":"levelo://app?vid=fdcd73d7-23cb-4c6c-b4e1-10db05236177","ios":"levelo://app?vid=fdcd73d7-23cb-4c6c-b4e1-10db05236177"},"vehicle_type_id":"4","last_reported":1746015537,"current_range_meters":9200,"station_id":"ce4bhah2rcd13ifvqei0","pricing_plan_id":"cebpf4jnsgd1na2vs0mg"},{"bike_id":"e2902587-386b-4039-9bd9-b12f418ef69d","system_id":"levelo_inurba_marseille","lat":43.25487,"lon":5.37655,"is_reserved":false,"is_disabled":false,"rental_uris":{"android":"levelo://app?vid=e2902587-386b-4039-9bd9-b12f418ef69d","ios":"levelo://app?vid=e2902587-386b-4039-9bd9-b12f418ef69d"},"vehicle_type_id":"4","last_reported":1746015537,"current_range_meters":9200,"station_id":"ce4bhh12rcd13ifvqff0","pricing_plan_id":"cebpf4jnsgd1na2vs0mg"},{"bike_id":"9255c614-ea9c-4549-b827-3547eb478bb6","system_id":"levelo_inurba_marseille","lat":43.28719,"lon":5.36094,"is_reserved":false,"is_disabled":false,"rental_uris":{"android":"levelo://app?vid=9255c614-ea9c-4549-b827-3547eb478bb6","ios":"levelo://app?vid=9255c614-ea9c-4549-b827-3547eb478bb6"},"vehicle_type_id":"4","last_reported":1746015537,"current_range_meters":9600,"station_id":"cki0cbj6b192h4jlfktg","pricing_plan_id":"cebpf4jnsgd1na2vs0mg"},{"bike_id":"bb823fdf-9c19-43dd-8023-221b745cad6b","system_id":"levelo_inurba_marseille","lat":43.26547,"lon":5.37285,"is_reserved":false,"is_disabled":false,"rental_uris":{"android":"levelo://app?vid=bb823fdf-9c19-43dd-8023-221b745cad6b","ios":"levelo://app?vid=bb823fdf-9c19-43dd-8023-221b745cad6b"},"vehicle_type_id":"4","last_reported":1746015537,"current_range_meters":9600,"station_id":"ce4bhg12rcd13ifvqf70","pricing_plan_id":"cebpf4jnsgd1na2vs0mg"},{"bike_id":"489415b8-9254-45c1-b00c-e7554d56755c","system_id":"levelo_inurba_marseille","lat":43.245295,"lon":5.412203,"is_reserved":false,"is_disabled":false,"rental_uris":{"android":"levelo://app?vid=489415b8-9254-45c1-b00c-e7554d56755c","ios":"levelo://app?vid=489415b8-9254-45c1-b00c-e7554d56755c"},"vehicle_type_id":"4","last_reported":1746015537,"current_range_meters":9600,"station_id":"","pricing_plan_id":"cebpf4jnsgd1na2vs0mg"},{"bike_id":"dc82108c-9525-48bf-8a2c-9aab4803c159","system_id":"levelo_inurba_marseille","lat":43.305414,"lon":5.365389,"is_reserved":false,"is_disabled":false,"rental_uris":{"android":"levelo://app?vid=dc82108c-9525-48bf-8a2c-9aab4803c159","ios":"levelo://app?vid=dc82108c-9525-48bf-8a2c-9aab4803c159"},"vehicle_type_id":"4","last_reported":1746015537,"current_range_meters":9600,"station_id":"ce4bgs12rcd13ifvqcag","pricing_plan_id":"cebpf4jnsgd1na2vs0mg"},{"bike_id":"8c54ef99-21f0-4dc1-816d-987d03ac8dd7","system_id":"levelo_inurba_marseille","lat":43.27374,"lon":5.36251,"is_reserved":false,"is_disabled":false,"rental_uris":{"android":"levelo://app?vid=8c54ef99-21f0-4dc1-816d-987d03ac8dd7","ios":"levelo://app?vid=8c54ef99-21f0-4dc1-816d-987d03ac8dd7"},"vehicle_type_id":"4","last_reported":1746015537,"current_range_meters":9600,"station_id":"ce4bhbh2rcd13ifvqeo0","pricing_plan_id":"cebpf4jnsgd1na2vs0mg"},{"bike_id":"07edfd45-c3fa-4b57-b865-cf1bf9963264","system_id":"levelo_inurba_marseille","lat":43.23392,"lon":5.36416,"is_reserved":false,"is_disabled":false,"rental_uris":{"android":"levelo://app?vid=07edfd45-c3fa-4b57-b865-cf1bf9963264","ios":"levelo://app?vid=07edfd45-c3fa-4b57-b865-cf1bf9963264"},"vehicle_type_id":"4","last_reported":1746015537,"current_range_meters":9600,"station_id":"","pricing_plan_id":"cebpf4jnsgd1na2vs0mg"},{"bike_id":"7053d1c3-bf84-4199-8fff-219a9812a7e4","system_id":"levelo_inurba_marseille","lat":43.28421,"lon":5.34993,"is_reserved":false,"is_disabled":false,"rental_uris":{"android":"levelo://app?vid=7053d1c3-bf84-4199-8fff-219a9812a7e4","ios":"levelo://app?vid=7053d1c3-bf84-4199-8fff-219a9812a7e4"},"vehicle_type_id":"4","last_reported":1746015537,"current_range_meters":10000,"station_id":"ce4bhbh2rcd13ifvqepg","pricing_plan_id":"cebpf4jnsgd1na2vs0mg"},{"bike_id":"ac80e985-cfdf-4940-bf6d-bf2ebe2c2fd0","system_id":"levelo_inurba_marseille","lat":43.32115,"lon":5.36756,"is_reserved":false,"is_disabled":false,"rental_uris":{"android":"levelo://app?vid=ac80e985-cfdf-4940-bf6d-bf2ebe2c2fd0","ios":"levelo://app?vid=ac80e985-cfdf-4940-bf6d-bf2ebe2c2fd0"},"vehicle_type_id":"4","last_reported":1746015537,"current_range_meters":10800,"station_id":"ce4bhrh2rcd13ifvqhug","pricing_plan_id":"cebpf4jnsgd1na2vs0mg"},{"bike_id":"2c046ce0-3bba-418e-ba39-9e70e862dec4","system_id":"levelo_inurba_marseille","lat":43.29569,"lon":5.39979,"is_reserved":false,"is_disabled":false,"rental_uris":{"android":"levelo://app?vid=2c046ce0-3bba-418e-ba39-9e70e862dec4","ios":"levelo://app?vid=2c046ce0-3bba-418e-ba39-9e70e862dec4"},"vehicle_type_id":"4","last_reported":1746015537,"current_range_meters":10000,"station_id":"ce4bh312rcd13ifvqdj0","pricing_plan_id":"cebpf4jnsgd1na2vs0mg"},{"bike_id":"e82167c2-1f5f-4fd5-9a41-6fd765d8d7b0","system_id":"levelo_inurba_marseille","lat":43.3123,"lon":5.36858,"is_reserved":false,"is_disabled":false,"rental_uris":{"android":"levelo://app?vid=e82167c2-1f5f-4fd5-9a41-6fd765d8d7b0","ios":"levelo://app?vid=e82167c2-1f5f-4fd5-9a41-6fd765d8d7b0"},"vehicle_type_id":"4","last_reported":1746015537,"current_range_meters":10000,"station_id":"ce4bgl92rcd13ifvqbq0","pricing_plan_id":"cebpf4jnsgd1na2vs0mg"},{"bike_id":"b50579fb-0adf-4831-a107-05c8e81f5dce","system_id":"levelo_inurba_marseille","lat":43.27814,"lon":5.40716,"is_reserved":false,"is_disabled":false,"rental_uris":{"android":"levelo://app?vid=b50579fb-0adf-4831-a107-05c8e81f5dce","ios":"levelo://app?vid=b50579fb-0adf-4831-a107-05c8e81f5dce"},"vehicle_type_id":"4","last_reported":1746015537,"current_range_meters":10800,"station_id":"ce4bhnh2rcd13ifvqgtg","pricing_plan_id":"cebpf4jnsgd1na2vs0mg"},{"bike_id":"dcb0b990-89f9-495c-a9c1-10b17ae39667","system_id":"levelo_inurba_marseille","lat":43.23463,"lon":5.38056,"is_reserved":false,"is_disabled":false,"rental_uris":{"android":"levelo://app?vid=dcb0b990-89f9-495c-a9c1-10b17ae39667","ios":"levelo://app?vid=dcb0b990-89f9-495c-a9c1-10b17ae39667"},"vehicle_type_id":"4","last_reported":1746015537,"current_range_meters":10800,"station_id":"","pricing_plan_id":"cebpf4jnsgd1na2vs0mg"},{"bike_id":"f9d5357e-c88e-4fa9-8875-7fc2e3cfddd9","system_id":"levelo_inurba_marseille","lat":43.24662,"lon":5.38135,"is_reserved":false,"is_disabled":false,"rental_uris":{"android":"levelo://app?vid=f9d5357e-c88e-4fa9-8875-7fc2e3cfddd9","ios":"levelo://app?vid=f9d5357e-c88e-4fa9-8875-7fc2e3cfddd9"},"vehicle_type_id":"4","last_reported":1746015537,"current_range_meters":10800,"station_id":"ce4bhih2rcd13ifvqfr0","pricing_plan_id":"cebpf4jnsgd1na2vs0mg"},{"bike_id":"20e55f6b-97df-4450-a344-6088e41e8a6c","system_id":"levelo_inurba_marseille","lat":43.25492,"lon":5.37643,"is_reserved":false,"is_disabled":false,"rental_uris":{"android":"levelo://app?vid=20e55f6b-97df-4450-a344-6088e41e8a6c","ios":"levelo://app?vid=20e55f6b-97df-4450-a344-6088e41e8a6c"},"vehicle_type_id":"4","last_reported":1746015537,"current_range_meters":10800,"station_id":"ce4bhh12rcd13ifvqff0","pricing_plan_id":"cebpf4jnsgd1na2vs0mg"},{"bike_id":"6440a733-ebbc-4ddb-b69f-367570d41271","system_id":"levelo_inurba_marseille","lat":43.30515,"lon":5.36712,"is_reserved":false,"is_disabled":false,"rental_uris":{"android":"levelo://app?vid=6440a733-ebbc-4ddb-b69f-367570d41271","ios":"levelo://app?vid=6440a733-ebbc-4ddb-b69f-367570d41271"},"vehicle_type_id":"4","last_reported":1746015537,"current_range_meters":10800,"station_id":"ce4bgrp2rcd13ifvqc9g","pricing_plan_id":"cebpf4jnsgd1na2vs0mg"},{"bike_id":"3514bafd-5081-4db1-a716-f85b1abdf84a","system_id":"levelo_inurba_marseille","lat":43.25,"lon":5.38924,"is_reserved":false,"is_disabled":false,"rental_uris":{"android":"levelo://app?vid=3514bafd-5081-4db1-a716-f85b1abdf84a","ios":"levelo://app?vid=3514bafd-5081-4db1-a716-f85b1abdf84a"},"vehicle_type_id":"4","last_reported":1746015537,"current_range_meters":10800,"station_id":"ce4bhgp2rcd13ifvqfd0","pricing_plan_id":"cebpf4jnsgd1na2vs0mg"},{"bike_id":"1ecc8740-cbb3-4e7e-b2f3-011f095d2ac5","system_id":"levelo_inurba_marseille","lat":43.2417,"lon":5.36406,"is_reserved":false,"is_disabled":false,"rental_uris":{"android":"levelo://app?vid=1ecc8740-cbb3-4e7e-b2f3-011f095d2ac5","ios":"levelo://app?vid=1ecc8740-cbb3-4e7e-b2f3-011f095d2ac5"},"vehicle_type_id":"4","last_reported":1746015537,"current_range_meters":11200,"station_id":"cpo36qri1sfpv3e86is0","pricing_plan_id":"cebpf4jnsgd1na2vs0mg"},{"bike_id":"26ea7a36-9b01-4247-8b6d-4b02b2854334","system_id":"levelo_inurba_marseille","lat":43.28273,"lon":5.35068,"is_reserved":false,"is_disabled":false,"rental_uris":{"android":"levelo://app?vid=26ea7a36-9b01-4247-8b6d-4b02b2854334","ios":"levelo://app?vid=26ea7a36-9b01-4247-8b6d-4b02b2854334"},"vehicle_type_id":"4","last_reported":1746015537,"current_range_meters":11200,"station_id":"ce4bhbp2rcd13ifvqerg","pricing_plan_id":"cebpf4jnsgd1na2vs0mg"},{"bike_id":"ebad8aba-0a00-4589-9ea8-cb7624d8060e","system_id":"levelo_inurba_marseille","lat":43.23189,"lon":5.39976,"is_reserved":false,"is_disabled":false,"rental_uris":{"android":"levelo://app?vid=ebad8aba-0a00-4589-9ea8-cb7624d8060e","ios":"levelo://app?vid=ebad8aba-0a00-4589-9ea8-cb7624d8060e"},"vehicle_type_id":"4","last_reported":1746015537,"current_range_meters":11200,"station_id":"ce4bhn12rcd13ifvqgqg","pricing_plan_id":"cebpf4jnsgd1na2vs0mg"},{"bike_id":"7f770ba9-2e48-47c9-8bb4-942855273bad","system_id":"levelo_inurba_marseille","lat":43.25401,"lon":5.42411,"is_reserved":false,"is_disabled":false,"rental_uris":{"android":"levelo://app?vid=7f770ba9-2e48-47c9-8bb4-942855273bad","ios":"levelo://app?vid=7f770ba9-2e48-47c9-8bb4-942855273bad"},"vehicle_type_id":"4","last_reported":1746015537,"current_range_meters":11600,"station_id":"","pricing_plan_id":"cebpf4jnsgd1na2vs0mg"},{"bike_id":"e6dbf88b-a76e-4b79-b704-484109e38993","system_id":"levelo_inurba_marseille","lat":43.273804,"lon":5.362599,"is_reserved":false,"is_disabled":false,"rental_uris":{"android":"levelo://app?vid=e6dbf88b-a76e-4b79-b704-484109e38993","ios":"levelo://app?vid=e6dbf88b-a76e-4b79-b704-484109e38993"},"vehicle_type_id":"4","last_reported":1746015537,"current_range_meters":11600,"station_id":"ce4bhbh2rcd13ifvqeo0","pricing_plan_id":"cebpf4jnsgd1na2vs0mg"},{"bike_id":"92245294-51f5-4c14-aaad-fc8e9fe8a2f7","system_id":"levelo_inurba_marseille","lat":43.24663,"lon":5.38166,"is_reserved":false,"is_disabled":false,"rental_uris":{"android":"levelo://app?vid=92245294-51f5-4c14-aaad-fc8e9fe8a2f7","ios":"levelo://app?vid=92245294-51f5-4c14-aaad-fc8e9fe8a2f7"},"vehicle_type_id":"4","last_reported":1746015537,"current_range_meters":12000,"station_id":"ce4bhih2rcd13ifvqfr0","pricing_plan_id":"cebpf4jnsgd1na2vs0mg"},{"bike_id":"3bda83e3-70e7-45e0-905b-dbc87ef5eff4","system_id":"levelo_inurba_marseille","lat":43.31494,"lon":5.373095,"is_reserved":false,"is_disabled":false,"rental_uris":{"android":"levelo://app?vid=3bda83e3-70e7-45e0-905b-dbc87ef5eff4","ios":"levelo://app?vid=3bda83e3-70e7-45e0-905b-dbc87ef5eff4"},"vehicle_type_id":"4","last_reported":1746015537,"current_range_meters":12000,"station_id":"ce4bgt12rcd13ifvqcd0","pricing_plan_id":"cebpf4jnsgd1na2vs0mg"},{"bike_id":"78d35512-d565-43ab-baa3-30a84eecd323","system_id":"levelo_inurba_marseille","lat":43.266803,"lon":5.382707,"is_reserved":false,"is_disabled":true,"rental_uris":{"android":"levelo://app?vid=78d35512-d565-43ab-baa3-30a84eecd323","ios":"levelo://app?vid=78d35512-d565-43ab-baa3-30a84eecd323"},"vehicle_type_id":"4","last_reported":1746015537,"current_range_meters":12000,"station_id":"ce4bhg92rcd13ifvqf90","pricing_plan_id":"cebpf4jnsgd1na2vs0mg"},{"bike_id":"907fd730-6f7c-42e2-b234-43d83b343403","system_id":"levelo_inurba_marseille","lat":43.2808,"lon":5.39667,"is_reserved":false,"is_disabled":false,"rental_uris":{"android":"levelo://app?vid=907fd730-6f7c-42e2-b234-43d83b343403","ios":"levelo://app?vid=907fd730-6f7c-42e2-b234-43d83b343403"},"vehicle_type_id":"4","last_reported":1746015537,"current_range_meters":12000,"station_id":"ce4bho12rcd13ifvqh2g","pricing_plan_id":"cebpf4jnsgd1na2vs0mg"},{"bike_id":"2a1208f0-9c2c-4c7b-9f3c-a0fbeda4c5cf","system_id":"levelo_inurba_marseille","lat":43.27071,"lon":5.42272,"is_reserved":false,"is_disabled":false,"rental_uris":{"android":"levelo://app?vid=2a1208f0-9c2c-4c7b-9f3c-a0fbeda4c5cf","ios":"levelo://app?vid=2a1208f0-9c2c-4c7b-9f3c-a0fbeda4c5cf"},"vehicle_type_id":"4","last_reported":1746015537,"current_range_meters":12000,"station_id":"ce4bhk92rcd13ifvqgb0","pricing_plan_id":"cebpf4jnsgd1na2vs0mg"},{"bike_id":"6c31a182-f628-481e-ad9a-d00c89637ddc","system_id":"levelo_inurba_marseille","lat":43.24996,"lon":5.38934,"is_reserved":false,"is_disabled":false,"rental_uris":{"android":"levelo://app?vid=6c31a182-f628-481e-ad9a-d00c89637ddc","ios":"levelo://app?vid=6c31a182-f628-481e-ad9a-d00c89637ddc"},"vehicle_type_id":"4","last_reported":1746015537,"current_range_meters":12000,"station_id":"ce4bhgp2rcd13ifvqfd0","pricing_plan_id":"cebpf4jnsgd1na2vs0mg"},{"bike_id":"7066bf6e-1400-4942-9742-efc1607fc1cd","system_id":"levelo_inurba_marseille","lat":43.23973,"lon":5.36613,"is_reserved":false,"is_disabled":false,"rental_uris":{"android":"levelo://app?vid=7066bf6e-1400-4942-9742-efc1607fc1cd","ios":"levelo://app?vid=7066bf6e-1400-4942-9742-efc1607fc1cd"},"vehicle_type_id":"4","last_reported":1746015537,"current_range_meters":12400,"station_id":"ce4bhi12rcd13ifvqfp0","pricing_plan_id":"cebpf4jnsgd1na2vs0mg"},{"bike_id":"c1f3acbf-9d7a-4a68-a052-54ea7f77b051","system_id":"levelo_inurba_marseille","lat":43.27371,"lon":5.36256,"is_reserved":false,"is_disabled":false,"rental_uris":{"android":"levelo://app?vid=c1f3acbf-9d7a-4a68-a052-54ea7f77b051","ios":"levelo://app?vid=c1f3acbf-9d7a-4a68-a052-54ea7f77b051"},"vehicle_type_id":"4","last_reported":1746015537,"current_range_meters":12000,"station_id":"ce4bhbh2rcd13ifvqeo0","pricing_plan_id":"cebpf4jnsgd1na2vs0mg"},{"bike_id":"1d6fc954-fffe-4722-9d4a-c57f3f2dffed","system_id":"levelo_inurba_marseille","lat":43.29527,"lon":5.39051,"is_reserved":false,"is_disabled":false,"rental_uris":{"android":"levelo://app?vid=1d6fc954-fffe-4722-9d4a-c57f3f2dffed","ios":"levelo://app?vid=1d6fc954-fffe-4722-9d4a-c57f3f2dffed"},"vehicle_type_id":"4","last_reported":1746015537,"current_range_meters":12400,"station_id":"ce4bh3p2rcd13ifvqdp0","pricing_plan_id":"cebpf4jnsgd1na2vs0mg"},{"bike_id":"2b67e47e-ee8a-4e0f-804b-e357775c0a58","system_id":"levelo_inurba_marseille","lat":43.31226,"lon":5.36865,"is_reserved":false,"is_disabled":false,"rental_uris":{"android":"levelo://app?vid=2b67e47e-ee8a-4e0f-804b-e357775c0a58","ios":"levelo://app?vid=2b67e47e-ee8a-4e0f-804b-e357775c0a58"},"vehicle_type_id":"4","last_reported":1746015537,"current_range_meters":12400,"station_id":"ce4bgl92rcd13ifvqbq0","pricing_plan_id":"cebpf4jnsgd1na2vs0mg"},{"bike_id":"3a87e140-996d-45bf-ae84-074aa8bedcb8","system_id":"levelo_inurba_marseille","lat":43.26558,"lon":5.37279,"is_reserved":false,"is_disabled":false,"rental_uris":{"android":"levelo://app?vid=3a87e140-996d-45bf-ae84-074aa8bedcb8","ios":"levelo://app?vid=3a87e140-996d-45bf-ae84-074aa8bedcb8"},"vehicle_type_id":"4","last_reported":1746015537,"current_range_meters":12400,"station_id":"ce4bhg12rcd13ifvqf70","pricing_plan_id":"cebpf4jnsgd1na2vs0mg"},{"bike_id":"fc0783ad-b33a-4c8e-b994-615769b1d6f4","system_id":"levelo_inurba_marseille","lat":43.23168,"lon":5.43757,"is_reserved":false,"is_disabled":false,"rental_uris":{"android":"levelo://app?vid=fc0783ad-b33a-4c8e-b994-615769b1d6f4","ios":"levelo://app?vid=fc0783ad-b33a-4c8e-b994-615769b1d6f4"},"vehicle_type_id":"4","last_reported":1746015537,"current_range_meters":12400,"station_id":"ce4bhmp2rcd13ifvqgog","pricing_plan_id":"cebpf4jnsgd1na2vs0mg"},{"bike_id":"e5e92a64-e709-4b1a-a9b1-cbffe85789ca","system_id":"levelo_inurba_marseille","lat":43.255417,"lon":5.381397,"is_reserved":false,"is_disabled":false,"rental_uris":{"android":"levelo://app?vid=e5e92a64-e709-4b1a-a9b1-cbffe85789ca","ios":"levelo://app?vid=e5e92a64-e709-4b1a-a9b1-cbffe85789ca"},"vehicle_type_id":"4","last_reported":1746015537,"current_range_meters":12400,"station_id":"","pricing_plan_id":"cebpf4jnsgd1na2vs0mg"},{"bike_id":"e6bd403f-c66a-4a6a-b05f-5e54e6f0fb3e","system_id":"levelo_inurba_marseille","lat":43.292655,"lon":5.383401,"is_reserved":false,"is_disabled":false,"rental_uris":{"android":"levelo://app?vid=e6bd403f-c66a-4a6a-b05f-5e54e6f0fb3e","ios":"levelo://app?vid=e6bd403f-c66a-4a6a-b05f-5e54e6f0fb3e"},"vehicle_type_id":"4","last_reported":1746015537,"current_range_meters":12800,"station_id":"ce4bhbh2rcd13ifvqepg","pricing_plan_id":"cebpf4jnsgd1na2vs0mg"},{"bike_id":"663eafd5-f509-469d-9456-38b0cea4201d","system_id":"levelo_inurba_marseille","lat":43.26784,"lon":5.39417,"is_reserved":false,"is_disabled":false,"rental_uris":{"android":"levelo://app?vid=663eafd5-f509-469d-9456-38b0cea4201d","ios":"levelo://app?vid=663eafd5-f509-469d-9456-38b0cea4201d"},"vehicle_type_id":"4","last_reported":1746015537,"current_range_meters":12800,"station_id":"ce4bhh12rcd13ifvqfg0","pricing_plan_id":"cebpf4jnsgd1na2vs0mg"},{"bike_id":"776b54d7-e8c9-4c2e-8863-5be5cd8e0793","system_id":"levelo_inurba_marseille","lat":43.298826,"lon":5.389068,"is_reserved":false,"is_disabled":false,"rental_uris":{"android":"levelo://app?vid=776b54d7-e8c9-4c2e-8863-5be5cd8e0793","ios":"levelo://app?vid=776b54d7-e8c9-4c2e-8863-5be5cd8e0793"},"vehicle_type_id":"4","last_reported":1746015537,"current_range_meters":12800,"station_id":"ce4bh392rcd13ifvqdl0","pricing_plan_id":"cebpf4jnsgd1na2vs0mg"},{"bike_id":"fccf5617-bc5a-4bdf-84db-e17aa9f64749","system_id":"levelo_inurba_marseille","lat":43.23198,"lon":5.39962,"is_reserved":false,"is_disabled":false,"rental_uris":{"android":"levelo://app?vid=fccf5617-bc5a-4bdf-84db-e17aa9f64749","ios":"levelo://app?vid=fccf5617-bc5a-4bdf-84db-e17aa9f64749"},"vehicle_type_id":"4","last_reported":1746015537,"current_range_meters":12800,"station_id":"ce4bhn12rcd13ifvqgqg","pricing_plan_id":"cebpf4jnsgd1na2vs0mg"},{"bike_id":"7857d19e-3c7d-46c5-b970-82f9407e8d1e","system_id":"levelo_inurba_marseille","lat":43.30215,"lon":5.394728,"is_reserved":false,"is_disabled":false,"rental_uris":{"android":"levelo://app?vid=7857d19e-3c7d-46c5-b970-82f9407e8d1e","ios":"levelo://app?vid=7857d19e-3c7d-46c5-b970-82f9407e8d1e"},"vehicle_type_id":"4","last_reported":1746015537,"current_range_meters":12800,"station_id":"ce4bh0p2rcd13ifvqd70","pricing_plan_id":"cebpf4jnsgd1na2vs0mg"},{"bike_id":"60ead36c-2e2f-4001-a1cf-1bb10dd3622c","system_id":"levelo_inurba_marseille","lat":43.25505,"lon":5.37657,"is_reserved":false,"is_disabled":false,"rental_uris":{"android":"levelo://app?vid=60ead36c-2e2f-4001-a1cf-1bb10dd3622c","ios":"levelo://app?vid=60ead36c-2e2f-4001-a1cf-1bb10dd3622c"},"vehicle_type_id":"4","last_reported":1746015537,"current_range_meters":13600,"station_id":"ce4bhh12rcd13ifvqff0","pricing_plan_id":"cebpf4jnsgd1na2vs0mg"},{"bike_id":"ba10388e-69e6-49b6-b8eb-f8375c2b8693","system_id":"levelo_inurba_marseille","lat":43.3247,"lon":5.36563,"is_reserved":false,"is_disabled":false,"rental_uris":{"android":"levelo://app?vid=ba10388e-69e6-49b6-b8eb-f8375c2b8693","ios":"levelo://app?vid=ba10388e-69e6-49b6-b8eb-f8375c2b8693"},"vehicle_type_id":"4","last_reported":1746015537,"current_range_meters":13600,"station_id":"ce4bhs12rcd13ifvqhvg","pricing_plan_id":"cebpf4jnsgd1na2vs0mg"},{"bike_id":"d516c135-cf99-47ab-a7c1-5d635ad3d357","system_id":"levelo_inurba_marseille","lat":43.243866,"lon":5.370596,"is_reserved":false,"is_disabled":false,"rental_uris":{"android":"levelo://app?vid=d516c135-cf99-47ab-a7c1-5d635ad3d357","ios":"levelo://app?vid=d516c135-cf99-47ab-a7c1-5d635ad3d357"},"vehicle_type_id":"4","last_reported":1746015537,"current_range_meters":13600,"station_id":"ce4bhhh2rcd13ifvqfk0","pricing_plan_id":"cebpf4jnsgd1na2vs0mg"},{"bike_id":"81207d9c-24f4-48c2-8788-66eacf2a6c6d","system_id":"levelo_inurba_marseille","lat":43.23159,"lon":5.43703,"is_reserved":false,"is_disabled":false,"rental_uris":{"android":"levelo://app?vid=81207d9c-24f4-48c2-8788-66eacf2a6c6d","ios":"levelo://app?vid=81207d9c-24f4-48c2-8788-66eacf2a6c6d"},"vehicle_type_id":"4","last_reported":1746015537,"current_range_meters":13600,"station_id":"ce4bhmp2rcd13ifvqgog","pricing_plan_id":"cebpf4jnsgd1na2vs0mg"},{"bike_id":"48ee4ecb-742a-4d30-9d91-da6b6d049dd5","system_id":"levelo_inurba_marseille","lat":43.31329,"lon":5.39692,"is_reserved":false,"is_disabled":false,"rental_uris":{"android":"levelo://app?vid=48ee4ecb-742a-4d30-9d91-da6b6d049dd5","ios":"levelo://app?vid=48ee4ecb-742a-4d30-9d91-da6b6d049dd5"},"vehicle_type_id":"4","last_reported":1746015537,"current_range_meters":13600,"station_id":"ce4bgvp2rcd13ifvqcu0","pricing_plan_id":"cebpf4jnsgd1na2vs0mg"},{"bike_id":"56973c62-c000-4091-9194-64142ba8c234","system_id":"levelo_inurba_marseille","lat":43.3052,"lon":5.3651,"is_reserved":false,"is_disabled":false,"rental_uris":{"android":"levelo://app?vid=56973c62-c000-4091-9194-64142ba8c234","ios":"levelo://app?vid=56973c62-c000-4091-9194-64142ba8c234"},"vehicle_type_id":"4","last_reported":1746015537,"current_range_meters":13600,"station_id":"","pricing_plan_id":"cebpf4jnsgd1na2vs0mg"},{"bike_id":"fca9dc8b-9c20-4eab-83ff-17d0ce9a6922","system_id":"levelo_inurba_marseille","lat":43.260225,"lon":5.417425,"is_reserved":false,"is_disabled":false,"rental_uris":{"android":"levelo://app?vid=fca9dc8b-9c20-4eab-83ff-17d0ce9a6922","ios":"levelo://app?vid=fca9dc8b-9c20-4eab-83ff-17d0ce9a6922"},"vehicle_type_id":"4","last_reported":1746015537,"current_range_meters":14000,"station_id":"","pricing_plan_id":"cebpf4jnsgd1na2vs0mg"},{"bike_id":"8cf66344-01a6-4483-82ac-ee0eecc7155e","system_id":"levelo_inurba_marseille","lat":43.28689,"lon":5.38642,"is_reserved":false,"is_disabled":false,"rental_uris":{"android":"levelo://app?vid=8cf66344-01a6-4483-82ac-ee0eecc7155e","ios":"levelo://app?vid=8cf66344-01a6-4483-82ac-ee0eecc7155e"},"vehicle_type_id":"4","last_reported":1746015537,"current_range_meters":14000,"station_id":"ce4bh492rcd13ifvqdug","pricing_plan_id":"cebpf4jnsgd1na2vs0mg"},{"bike_id":"0ef033bb-1cc9-43d3-9ed0-6a0691f6e630","system_id":"levelo_inurba_marseille","lat":43.33441,"lon":5.40038,"is_reserved":false,"is_disabled":false,"rental_uris":{"android":"levelo://app?vid=0ef033bb-1cc9-43d3-9ed0-6a0691f6e630","ios":"levelo://app?vid=0ef033bb-1cc9-43d3-9ed0-6a0691f6e630"},"vehicle_type_id":"4","last_reported":1746015537,"current_range_meters":14000,"station_id":"","pricing_plan_id":"cebpf4jnsgd1na2vs0mg"},{"bike_id":"5baead1f-b860-4c4b-bcb0-fd597c61a0fd","system_id":"levelo_inurba_marseille","lat":43.27376,"lon":5.36248,"is_reserved":false,"is_disabled":false,"rental_uris":{"android":"levelo://app?vid=5baead1f-b860-4c4b-bcb0-fd597c61a0fd","ios":"levelo://app?vid=5baead1f-b860-4c4b-bcb0-fd597c61a0fd"},"vehicle_type_id":"4","last_reported":1746015537,"current_range_meters":14000,"station_id":"ce4bhbh2rcd13ifvqeo0","pricing_plan_id":"cebpf4jnsgd1na2vs0mg"},{"bike_id":"d88f1c89-45c5-49a2-9923-ca805a5fb6a9","system_id":"levelo_inurba_marseille","lat":43.30522,"lon":5.36519,"is_reserved":false,"is_disabled":false,"rental_uris":{"android":"levelo://app?vid=d88f1c89-45c5-49a2-9923-ca805a5fb6a9","ios":"levelo://app?vid=d88f1c89-45c5-49a2-9923-ca805a5fb6a9"},"vehicle_type_id":"4","last_reported":1746015537,"current_range_meters":14400,"station_id":"","pricing_plan_id":"cebpf4jnsgd1na2vs0mg"},{"bike_id":"79189cc1-270e-4291-a348-ae69d59e6918","system_id":"levelo_inurba_marseille","lat":43.33724,"lon":5.39185,"is_reserved":false,"is_disabled":false,"rental_uris":{"android":"levelo://app?vid=79189cc1-270e-4291-a348-ae69d59e6918","ios":"levelo://app?vid=79189cc1-270e-4291-a348-ae69d59e6918"},"vehicle_type_id":"4","last_reported":1746015537,"current_range_meters":14400,"station_id":"ce4bhr92rcd13ifvqhsg","pricing_plan_id":"cebpf4jnsgd1na2vs0mg"},{"bike_id":"f29f1621-0709-4a67-b1c8-51dd1051ce2b","system_id":"levelo_inurba_marseille","lat":43.284639,"lon":5.358919,"is_reserved":false,"is_disabled":false,"rental_uris":{"android":"levelo://app?vid=f29f1621-0709-4a67-b1c8-51dd1051ce2b","ios":"levelo://app?vid=f29f1621-0709-4a67-b1c8-51dd1051ce2b"},"vehicle_type_id":"4","last_reported":1746015537,"current_range_meters":14400,"station_id":"ce4bhah2rcd13ifvqei0","pricing_plan_id":"cebpf4jnsgd1na2vs0mg"},{"bike_id":"2cbe2fab-72a1-4bcd-8c44-98069ca26f60","system_id":"levelo_inurba_marseille","lat":43.309071,"lon":5.368512,"is_reserved":false,"is_disabled":false,"rental_uris":{"android":"levelo://app?vid=2cbe2fab-72a1-4bcd-8c44-98069ca26f60","ios":"levelo://app?vid=2cbe2fab-72a1-4bcd-8c44-98069ca26f60"},"vehicle_type_id":"4","last_reported":1746015537,"current_range_meters":14400,"station_id":"ce4bgn92rcd13ifvqbvg","pricing_plan_id":"cebpf4jnsgd1na2vs0mg"},{"bike_id":"c1cbc237-cfab-474a-aa26-81a87506105a","system_id":"levelo_inurba_marseille","lat":43.21759,"lon":5.34591,"is_reserved":false,"is_disabled":false,"rental_uris":{"android":"levelo://app?vid=c1cbc237-cfab-474a-aa26-81a87506105a","ios":"levelo://app?vid=c1cbc237-cfab-474a-aa26-81a87506105a"},"vehicle_type_id":"4","last_reported":1746015537,"current_range_meters":14400,"station_id":"st_cvj6r9ubvosntc0bgbag","pricing_plan_id":"cebpf4jnsgd1na2vs0mg"},{"bike_id":"70a3f063-7f49-40dc-b61e-768d1217ff91","system_id":"levelo_inurba_marseille","lat":43.28275,"lon":5.35059,"is_reserved":false,"is_disabled":false,"rental_uris":{"android":"levelo://app?vid=70a3f063-7f49-40dc-b61e-768d1217ff91","ios":"levelo://app?vid=70a3f063-7f49-40dc-b61e-768d1217ff91"},"vehicle_type_id":"4","last_reported":1746015537,"current_range_meters":14800,"station_id":"ce4bhbp2rcd13ifvqerg","pricing_plan_id":"cebpf4jnsgd1na2vs0mg"},{"bike_id":"4f4f6c2b-99b5-4cec-8e32-dd955ed2a233","system_id":"levelo_inurba_marseille","lat":43.276713,"lon":5.388681,"is_reserved":false,"is_disabled":false,"rental_uris":{"android":"levelo://app?vid=4f4f6c2b-99b5-4cec-8e32-dd955ed2a233","ios":"levelo://app?vid=4f4f6c2b-99b5-4cec-8e32-dd955ed2a233"},"vehicle_type_id":"4","last_reported":1746015537,"current_range_meters":14800,"station_id":"ce4bhi12rcd13ifvqfo0","pricing_plan_id":"cebpf4jnsgd1na2vs0mg"},{"bike_id":"6c12ff60-ca47-4317-8fd9-41b438c555cc","system_id":"levelo_inurba_marseille","lat":43.21751,"lon":5.34606,"is_reserved":false,"is_disabled":false,"rental_uris":{"android":"levelo://app?vid=6c12ff60-ca47-4317-8fd9-41b438c555cc","ios":"levelo://app?vid=6c12ff60-ca47-4317-8fd9-41b438c555cc"},"vehicle_type_id":"4","last_reported":1746015537,"current_range_meters":14800,"station_id":"st_cvj6r9ubvosntc0bgbag","pricing_plan_id":"cebpf4jnsgd1na2vs0mg"},{"bike_id":"dc68099c-e7e7-4d05-bf7b-7547823918d9","system_id":"levelo_inurba_marseille","lat":43.303,"lon":5.36887,"is_reserved":false,"is_disabled":false,"rental_uris":{"android":"levelo://app?vid=dc68099c-e7e7-4d05-bf7b-7547823918d9","ios":"levelo://app?vid=dc68099c-e7e7-4d05-bf7b-7547823918d9"},"vehicle_type_id":"4","last_reported":1746015537,"current_range_meters":14800,"station_id":"ce4bgqh2rcd13ifvqc5g","pricing_plan_id":"cebpf4jnsgd1na2vs0mg"},{"bike_id":"00ece231-89d5-4cef-8905-3e8a81f45124","system_id":"levelo_inurba_marseille","lat":43.28616,"lon":5.35091,"is_reserved":false,"is_disabled":false,"rental_uris":{"android":"levelo://app?vid=00ece231-89d5-4cef-8905-3e8a81f45124","ios":"levelo://app?vid=00ece231-89d5-4cef-8905-3e8a81f45124"},"vehicle_type_id":"4","last_reported":1746015537,"current_range_meters":14800,"station_id":"ce4bhch2rcd13ifvqeug","pricing_plan_id":"cebpf4jnsgd1na2vs0mg"},{"bike_id":"b23bfd97-cdc4-4353-bbaa-bb4a2ba8b27d","system_id":"levelo_inurba_marseille","lat":43.27168,"lon":5.40989,"is_reserved":false,"is_disabled":false,"rental_uris":{"android":"levelo://app?vid=b23bfd97-cdc4-4353-bbaa-bb4a2ba8b27d","ios":"levelo://app?vid=b23bfd97-cdc4-4353-bbaa-bb4a2ba8b27d"},"vehicle_type_id":"4","last_reported":1746015537,"current_range_meters":14800,"station_id":"ce4bhl12rcd13ifvqgf0","pricing_plan_id":"cebpf4jnsgd1na2vs0mg"},{"bike_id":"dc3ba869-8718-4888-999b-efcfb464e5c7","system_id":"levelo_inurba_marseille","lat":43.28422,"lon":5.35004,"is_reserved":false,"is_disabled":false,"rental_uris":{"android":"levelo://app?vid=dc3ba869-8718-4888-999b-efcfb464e5c7","ios":"levelo://app?vid=dc3ba869-8718-4888-999b-efcfb464e5c7"},"vehicle_type_id":"4","last_reported":1746015537,"current_range_meters":15200,"station_id":"ce4bhbh2rcd13ifvqepg","pricing_plan_id":"cebpf4jnsgd1na2vs0mg"},{"bike_id":"9cfaee50-5e8f-451a-b255-6f545f286945","system_id":"levelo_inurba_marseille","lat":43.27502,"lon":5.42449,"is_reserved":false,"is_disabled":false,"rental_uris":{"android":"levelo://app?vid=9cfaee50-5e8f-451a-b255-6f545f286945","ios":"levelo://app?vid=9cfaee50-5e8f-451a-b255-6f545f286945"},"vehicle_type_id":"4","last_reported":1746015537,"current_range_meters":15200,"station_id":"ce4bhn92rcd13ifvqgrg","pricing_plan_id":"cebpf4jnsgd1na2vs0mg"},{"bike_id":"e6ab582b-6fb3-4ef8-a9c5-39c4339aa8eb","system_id":"levelo_inurba_marseille","lat":43.27617,"lon":5.36113,"is_reserved":false,"is_disabled":false,"rental_uris":{"android":"levelo://app?vid=e6ab582b-6fb3-4ef8-a9c5-39c4339aa8eb","ios":"levelo://app?vid=e6ab582b-6fb3-4ef8-a9c5-39c4339aa8eb"},"vehicle_type_id":"4","last_reported":1746015537,"current_range_meters":15200,"station_id":"ce4bgj92rcd13ifvqbe0","pricing_plan_id":"cebpf4jnsgd1na2vs0mg"},{"bike_id":"347e8e80-c660-42cc-a851-575f053225e0","system_id":"levelo_inurba_marseille","lat":43.23154,"lon":5.43714,"is_reserved":false,"is_disabled":false,"rental_uris":{"android":"levelo://app?vid=347e8e80-c660-42cc-a851-575f053225e0","ios":"levelo://app?vid=347e8e80-c660-42cc-a851-575f053225e0"},"vehicle_type_id":"4","last_reported":1746015537,"current_range_meters":15200,"station_id":"ce4bhmp2rcd13ifvqgog","pricing_plan_id":"cebpf4jnsgd1na2vs0mg"},{"bike_id":"d25ee084-3805-4249-807d-f05d367ffaa0","system_id":"levelo_inurba_marseille","lat":43.27368,"lon":5.36248,"is_reserved":false,"is_disabled":false,"rental_uris":{"android":"levelo://app?vid=d25ee084-3805-4249-807d-f05d367ffaa0","ios":"levelo://app?vid=d25ee084-3805-4249-807d-f05d367ffaa0"},"vehicle_type_id":"4","last_reported":1746015537,"current_range_meters":16000,"station_id":"ce4bhbh2rcd13ifvqeo0","pricing_plan_id":"cebpf4jnsgd1na2vs0mg"},{"bike_id":"58780671-ac98-40b9-935f-5576b26ad904","system_id":"levelo_inurba_marseille","lat":43.23152,"lon":5.43721,"is_reserved":false,"is_disabled":false,"rental_uris":{"android":"levelo://app?vid=58780671-ac98-40b9-935f-5576b26ad904","ios":"levelo://app?vid=58780671-ac98-40b9-935f-5576b26ad904"},"vehicle_type_id":"4","last_reported":1746015537,"current_range_meters":16000,"station_id":"ce4bhmp2rcd13ifvqgog","pricing_plan_id":"cebpf4jnsgd1na2vs0mg"},{"bike_id":"b6acdfb2-96a7-4eab-9995-fffb2c029706","system_id":"levelo_inurba_marseille","lat":43.31719,"lon":5.40439,"is_reserved":false,"is_disabled":false,"rental_uris":{"android":"levelo://app?vid=b6acdfb2-96a7-4eab-9995-fffb2c029706","ios":"levelo://app?vid=b6acdfb2-96a7-4eab-9995-fffb2c029706"},"vehicle_type_id":"4","last_reported":1746015537,"current_range_meters":16000,"station_id":"ce4bh012rcd13ifvqd00","pricing_plan_id":"cebpf4jnsgd1na2vs0mg"},{"bike_id":"9530ff69-7ad5-4a7a-a053-8ae4478c3178","system_id":"levelo_inurba_marseille","lat":43.28417,"lon":5.34975,"is_reserved":false,"is_disabled":false,"rental_uris":{"android":"levelo://app?vid=9530ff69-7ad5-4a7a-a053-8ae4478c3178","ios":"levelo://app?vid=9530ff69-7ad5-4a7a-a053-8ae4478c3178"},"vehicle_type_id":"4","last_reported":1746015537,"current_range_meters":16000,"station_id":"ce4bhbh2rcd13ifvqepg","pricing_plan_id":"cebpf4jnsgd1na2vs0mg"},{"bike_id":"1a325a44-3eb5-4e4b-8d48-75476293f16a","system_id":"levelo_inurba_marseille","lat":43.28419,"lon":5.34975,"is_reserved":false,"is_disabled":false,"rental_uris":{"android":"levelo://app?vid=1a325a44-3eb5-4e4b-8d48-75476293f16a","ios":"levelo://app?vid=1a325a44-3eb5-4e4b-8d48-75476293f16a"},"vehicle_type_id":"4","last_reported":1746015537,"current_range_meters":16000,"station_id":"ce4bhbh2rcd13ifvqepg","pricing_plan_id":"cebpf4jnsgd1na2vs0mg"},{"bike_id":"9298a141-31d4-4d41-a3e5-3ba088285155","system_id":"levelo_inurba_marseille","lat":43.30142,"lon":5.37405,"is_reserved":false,"is_disabled":false,"rental_uris":{"android":"levelo://app?vid=9298a141-31d4-4d41-a3e5-3ba088285155","ios":"levelo://app?vid=9298a141-31d4-4d41-a3e5-3ba088285155"},"vehicle_type_id":"4","last_reported":1746015537,"current_range_meters":16000,"station_id":"ce4bgs92rcd13ifvqcc0","pricing_plan_id":"cebpf4jnsgd1na2vs0mg"},{"bike_id":"8d4b0c44-994f-4e6d-8e8b-83417763568a","system_id":"levelo_inurba_marseille","lat":43.28269,"lon":5.35061,"is_reserved":false,"is_disabled":false,"rental_uris":{"android":"levelo://app?vid=8d4b0c44-994f-4e6d-8e8b-83417763568a","ios":"levelo://app?vid=8d4b0c44-994f-4e6d-8e8b-83417763568a"},"vehicle_type_id":"4","last_reported":1746015537,"current_range_meters":16000,"station_id":"ce4bhbp2rcd13ifvqerg","pricing_plan_id":"cebpf4jnsgd1na2vs0mg"},{"bike_id":"b12db72c-3dea-4fb6-a379-03afa6d20383","system_id":"levelo_inurba_marseille","lat":43.2842,"lon":5.34986,"is_reserved":false,"is_disabled":false,"rental_uris":{"android":"levelo://app?vid=b12db72c-3dea-4fb6-a379-03afa6d20383","ios":"levelo://app?vid=b12db72c-3dea-4fb6-a379-03afa6d20383"},"vehicle_type_id":"4","last_reported":1746015537,"current_range_meters":16000,"station_id":"ce4bhbh2rcd13ifvqepg","pricing_plan_id":"cebpf4jnsgd1na2vs0mg"},{"bike_id":"536eb4af-6603-467c-a76b-98f5a843ca10","system_id":"levelo_inurba_marseille","lat":43.24172,"lon":5.36391,"is_reserved":false,"is_disabled":false,"rental_uris":{"android":"levelo://app?vid=536eb4af-6603-467c-a76b-98f5a843ca10","ios":"levelo://app?vid=536eb4af-6603-467c-a76b-98f5a843ca10"},"vehicle_type_id":"4","last_reported":1746015537,"current_range_meters":16000,"station_id":"cpo36qri1sfpv3e86is0","pricing_plan_id":"cebpf4jnsgd1na2vs0mg"},{"bike_id":"df1cd735-c9cc-4b5c-8919-9e900ddc2485","system_id":"levelo_inurba_marseille","lat":43.28281,"lon":5.35059,"is_reserved":false,"is_disabled":false,"rental_uris":{"android":"levelo://app?vid=df1cd735-c9cc-4b5c-8919-9e900ddc2485","ios":"levelo://app?vid=df1cd735-c9cc-4b5c-8919-9e900ddc2485"},"vehicle_type_id":"4","last_reported":1746015537,"current_range_meters":16000,"station_id":"ce4bhbp2rcd13ifvqerg","pricing_plan_id":"cebpf4jnsgd1na2vs0mg"},{"bike_id":"c472dc1a-8b91-41ca-b343-10bee7718ee6","system_id":"levelo_inurba_marseille","lat":43.29636,"lon":5.40596,"is_reserved":false,"is_disabled":false,"rental_uris":{"android":"levelo://app?vid=c472dc1a-8b91-41ca-b343-10bee7718ee6","ios":"levelo://app?vid=c472dc1a-8b91-41ca-b343-10bee7718ee6"},"vehicle_type_id":"4","last_reported":1746015537,"current_range_meters":16400,"station_id":"ce4bh0h2rcd13ifvqd60","pricing_plan_id":"cebpf4jnsgd1na2vs0mg"},{"bike_id":"9bf59388-34ac-4e44-ad48-7e234136081a","system_id":"levelo_inurba_marseille","lat":43.26556,"lon":5.37282,"is_reserved":false,"is_disabled":false,"rental_uris":{"android":"levelo://app?vid=9bf59388-34ac-4e44-ad48-7e234136081a","ios":"levelo://app?vid=9bf59388-34ac-4e44-ad48-7e234136081a"},"vehicle_type_id":"4","last_reported":1746015537,"current_range_meters":16400,"station_id":"ce4bhg12rcd13ifvqf70","pricing_plan_id":"cebpf4jnsgd1na2vs0mg"},{"bike_id":"86c2979e-8cf6-48ed-bdb1-835ff11e3adc","system_id":"levelo_inurba_marseille","lat":43.25382,"lon":5.41862,"is_reserved":false,"is_disabled":false,"rental_uris":{"android":"levelo://app?vid=86c2979e-8cf6-48ed-bdb1-835ff11e3adc","ios":"levelo://app?vid=86c2979e-8cf6-48ed-bdb1-835ff11e3adc"},"vehicle_type_id":"4","last_reported":1746015537,"current_range_meters":16400,"station_id":"","pricing_plan_id":"cebpf4jnsgd1na2vs0mg"},{"bike_id":"4e9961d8-c333-4b9a-91a8-b31a432d8821","system_id":"levelo_inurba_marseille","lat":43.30328,"lon":5.40417,"is_reserved":false,"is_disabled":false,"rental_uris":{"android":"levelo://app?vid=4e9961d8-c333-4b9a-91a8-b31a432d8821","ios":"levelo://app?vid=4e9961d8-c333-4b9a-91a8-b31a432d8821"},"vehicle_type_id":"4","last_reported":1746015537,"current_range_meters":16400,"station_id":"ce4bh012rcd13ifvqd10","pricing_plan_id":"cebpf4jnsgd1na2vs0mg"},{"bike_id":"02805d68-e8f2-4024-baca-22041848e2bd","system_id":"levelo_inurba_marseille","lat":43.31489,"lon":5.37307,"is_reserved":false,"is_disabled":false,"rental_uris":{"android":"levelo://app?vid=02805d68-e8f2-4024-baca-22041848e2bd","ios":"levelo://app?vid=02805d68-e8f2-4024-baca-22041848e2bd"},"vehicle_type_id":"4","last_reported":1746015537,"current_range_meters":16400,"station_id":"ce4bgt12rcd13ifvqcd0","pricing_plan_id":"cebpf4jnsgd1na2vs0mg"},{"bike_id":"cfb37eb1-5f14-4840-b582-3a343150fc18","system_id":"levelo_inurba_marseille","lat":43.24068,"lon":5.37751,"is_reserved":false,"is_disabled":false,"rental_uris":{"android":"levelo://app?vid=cfb37eb1-5f14-4840-b582-3a343150fc18","ios":"levelo://app?vid=cfb37eb1-5f14-4840-b582-3a343150fc18"},"vehicle_type_id":"4","last_reported":1746015537,"current_range_meters":16400,"station_id":"ce4bhnp2rcd13ifvqgvg","pricing_plan_id":"cebpf4jnsgd1na2vs0mg"},{"bike_id":"0cec9de0-aac7-4ad9-9739-144d31bba126","system_id":"levelo_inurba_marseille","lat":43.27616,"lon":5.36106,"is_reserved":false,"is_disabled":false,"rental_uris":{"android":"levelo://app?vid=0cec9de0-aac7-4ad9-9739-144d31bba126","ios":"levelo://app?vid=0cec9de0-aac7-4ad9-9739-144d31bba126"},"vehicle_type_id":"4","last_reported":1746015537,"current_range_meters":16400,"station_id":"ce4bgj92rcd13ifvqbe0","pricing_plan_id":"cebpf4jnsgd1na2vs0mg"},{"bike_id":"a1149e9c-fd50-4602-8f0f-b1511a3cc33e","system_id":"levelo_inurba_marseille","lat":43.31995,"lon":5.38164,"is_reserved":false,"is_disabled":true,"rental_uris":{"android":"levelo://app?vid=a1149e9c-fd50-4602-8f0f-b1511a3cc33e","ios":"levelo://app?vid=a1149e9c-fd50-4602-8f0f-b1511a3cc33e"},"vehicle_type_id":"4","last_reported":1746015537,"current_range_meters":16400,"station_id":"ce4bhr12rcd13ifvqhpg","pricing_plan_id":"cebpf4jnsgd1na2vs0mg"},{"bike_id":"4f5a9c54-09f8-4b2d-96f3-d901aea201cd","system_id":"levelo_inurba_marseille","lat":43.28615,"lon":5.35102,"is_reserved":false,"is_disabled":false,"rental_uris":{"android":"levelo://app?vid=4f5a9c54-09f8-4b2d-96f3-d901aea201cd","ios":"levelo://app?vid=4f5a9c54-09f8-4b2d-96f3-d901aea201cd"},"vehicle_type_id":"4","last_reported":1746015537,"current_range_meters":16400,"station_id":"ce4bhch2rcd13ifvqeug","pricing_plan_id":"cebpf4jnsgd1na2vs0mg"},{"bike_id":"e8e01fcd-be36-4bdc-84f3-f107d646aca5","system_id":"levelo_inurba_marseille","lat":43.32368,"lon":5.38887,"is_reserved":false,"is_disabled":false,"rental_uris":{"android":"levelo://app?vid=e8e01fcd-be36-4bdc-84f3-f107d646aca5","ios":"levelo://app?vid=e8e01fcd-be36-4bdc-84f3-f107d646aca5"},"vehicle_type_id":"4","last_reported":1746015537,"current_range_meters":16800,"station_id":"ce4bhqp2rcd13ifvqhog","pricing_plan_id":"cebpf4jnsgd1na2vs0mg"},{"bike_id":"f3432207-2659-4275-b679-83f38dd8a480","system_id":"levelo_inurba_marseille","lat":43.2827,"lon":5.35068,"is_reserved":false,"is_disabled":false,"rental_uris":{"android":"levelo://app?vid=f3432207-2659-4275-b679-83f38dd8a480","ios":"levelo://app?vid=f3432207-2659-4275-b679-83f38dd8a480"},"vehicle_type_id":"4","last_reported":1746015537,"current_range_meters":16800,"station_id":"ce4bhbp2rcd13ifvqerg","pricing_plan_id":"cebpf4jnsgd1na2vs0mg"},{"bike_id":"390029f3-7979-4119-a5f2-f4d437fd0cb4","system_id":"levelo_inurba_marseille","lat":43.24173,"lon":5.36398,"is_reserved":false,"is_disabled":false,"rental_uris":{"android":"levelo://app?vid=390029f3-7979-4119-a5f2-f4d437fd0cb4","ios":"levelo://app?vid=390029f3-7979-4119-a5f2-f4d437fd0cb4"},"vehicle_type_id":"4","last_reported":1746015537,"current_range_meters":16800,"station_id":"cpo36qri1sfpv3e86is0","pricing_plan_id":"cebpf4jnsgd1na2vs0mg"},{"bike_id":"7940bc1b-eaa7-4f49-a435-46dc9391f6a1","system_id":"levelo_inurba_marseille","lat":43.212,"lon":5.3506,"is_reserved":false,"is_disabled":false,"rental_uris":{"android":"levelo://app?vid=7940bc1b-eaa7-4f49-a435-46dc9391f6a1","ios":"levelo://app?vid=7940bc1b-eaa7-4f49-a435-46dc9391f6a1"},"vehicle_type_id":"4","last_reported":1746015537,"current_range_meters":16800,"station_id":"st_cvj6sg6p6f1abm77japg","pricing_plan_id":"cebpf4jnsgd1na2vs0mg"},{"bike_id":"78d5940a-0045-4b5d-b8ba-4f2bd9a054a6","system_id":"levelo_inurba_marseille","lat":43.29078,"lon":5.37158,"is_reserved":false,"is_disabled":false,"rental_uris":{"android":"levelo://app?vid=78d5940a-0045-4b5d-b8ba-4f2bd9a054a6","ios":"levelo://app?vid=78d5940a-0045-4b5d-b8ba-4f2bd9a054a6"},"vehicle_type_id":"4","last_reported":1746015537,"current_range_meters":17200,"station_id":"ce4bh5p2rcd13ifvqe4g","pricing_plan_id":"cebpf4jnsgd1na2vs0mg"},{"bike_id":"f30f6f4c-378c-461f-b191-ae6d7f6fd0eb","system_id":"levelo_inurba_marseille","lat":43.23198,"lon":5.3997,"is_reserved":false,"is_disabled":false,"rental_uris":{"android":"levelo://app?vid=f30f6f4c-378c-461f-b191-ae6d7f6fd0eb","ios":"levelo://app?vid=f30f6f4c-378c-461f-b191-ae6d7f6fd0eb"},"vehicle_type_id":"4","last_reported":1746015537,"current_range_meters":17200,"station_id":"ce4bhn12rcd13ifvqgqg","pricing_plan_id":"cebpf4jnsgd1na2vs0mg"},{"bike_id":"5222c23b-ddd1-4373-9364-9be70ad99d11","system_id":"levelo_inurba_marseille","lat":43.231993,"lon":5.355557,"is_reserved":false,"is_disabled":false,"rental_uris":{"android":"levelo://app?vid=5222c23b-ddd1-4373-9364-9be70ad99d11","ios":"levelo://app?vid=5222c23b-ddd1-4373-9364-9be70ad99d11"},"vehicle_type_id":"4","last_reported":1746015537,"current_range_meters":16800,"station_id":"ce4bhu92rcd13ifvqi70","pricing_plan_id":"cebpf4jnsgd1na2vs0mg"},{"bike_id":"34b484ab-c0f1-4e55-b51a-e2bafdafb63e","system_id":"levelo_inurba_marseille","lat":43.230616,"lon":5.354929,"is_reserved":false,"is_disabled":false,"rental_uris":{"android":"levelo://app?vid=34b484ab-c0f1-4e55-b51a-e2bafdafb63e","ios":"levelo://app?vid=34b484ab-c0f1-4e55-b51a-e2bafdafb63e"},"vehicle_type_id":"4","last_reported":1746015537,"current_range_meters":17200,"station_id":"cpo3342slgdg3j2ifvpg","pricing_plan_id":"cebpf4jnsgd1na2vs0mg"},{"bike_id":"d2696307-56f6-4240-88a6-4166a510499d","system_id":"levelo_inurba_marseille","lat":43.28343,"lon":5.38105,"is_reserved":false,"is_disabled":true,"rental_uris":{"android":"levelo://app?vid=d2696307-56f6-4240-88a6-4166a510499d","ios":"levelo://app?vid=d2696307-56f6-4240-88a6-4166a510499d"},"vehicle_type_id":"4","last_reported":1746015537,"current_range_meters":17200,"station_id":"ce4bh412rcd13ifvqdr0","pricing_plan_id":"cebpf4jnsgd1na2vs0mg"},{"bike_id":"53493dfa-2e8d-49fc-a446-0d5cbdcecb7f","system_id":"levelo_inurba_marseille","lat":43.30207,"lon":5.36636,"is_reserved":false,"is_disabled":false,"rental_uris":{"android":"levelo://app?vid=53493dfa-2e8d-49fc-a446-0d5cbdcecb7f","ios":"levelo://app?vid=53493dfa-2e8d-49fc-a446-0d5cbdcecb7f"},"vehicle_type_id":"4","last_reported":1746015537,"current_range_meters":17200,"station_id":"ce4bgrh2rcd13ifvqc8g","pricing_plan_id":"cebpf4jnsgd1na2vs0mg"},{"bike_id":"7e6d7f06-2e3c-4245-b759-995b18109dbd","system_id":"levelo_inurba_marseille","lat":43.26558,"lon":5.37282,"is_reserved":false,"is_disabled":false,"rental_uris":{"android":"levelo://app?vid=7e6d7f06-2e3c-4245-b759-995b18109dbd","ios":"levelo://app?vid=7e6d7f06-2e3c-4245-b759-995b18109dbd"},"vehicle_type_id":"4","last_reported":1746015537,"current_range_meters":17600,"station_id":"ce4bhg12rcd13ifvqf70","pricing_plan_id":"cebpf4jnsgd1na2vs0mg"},{"bike_id":"6f22906b-94c9-4d7b-9ebc-9fe65ec0611d","system_id":"levelo_inurba_marseille","lat":43.32113,"lon":5.36767,"is_reserved":false,"is_disabled":false,"rental_uris":{"android":"levelo://app?vid=6f22906b-94c9-4d7b-9ebc-9fe65ec0611d","ios":"levelo://app?vid=6f22906b-94c9-4d7b-9ebc-9fe65ec0611d"},"vehicle_type_id":"4","last_reported":1746015537,"current_range_meters":17600,"station_id":"ce4bhrh2rcd13ifvqhug","pricing_plan_id":"cebpf4jnsgd1na2vs0mg"},{"bike_id":"f193e987-a996-4daa-b87c-a4390e514fb4","system_id":"levelo_inurba_marseille","lat":43.23962,"lon":5.36627,"is_reserved":false,"is_disabled":false,"rental_uris":{"android":"levelo://app?vid=f193e987-a996-4daa-b87c-a4390e514fb4","ios":"levelo://app?vid=f193e987-a996-4daa-b87c-a4390e514fb4"},"vehicle_type_id":"4","last_reported":1746015537,"current_range_meters":17600,"station_id":"ce4bhi12rcd13ifvqfp0","pricing_plan_id":"cebpf4jnsgd1na2vs0mg"},{"bike_id":"34f6bef6-9812-42f6-9d83-56b323ffad45","system_id":"levelo_inurba_marseille","lat":43.28268,"lon":5.35054,"is_reserved":false,"is_disabled":false,"rental_uris":{"android":"levelo://app?vid=34f6bef6-9812-42f6-9d83-56b323ffad45","ios":"levelo://app?vid=34f6bef6-9812-42f6-9d83-56b323ffad45"},"vehicle_type_id":"4","last_reported":1746015537,"current_range_meters":17600,"station_id":"ce4bhbp2rcd13ifvqerg","pricing_plan_id":"cebpf4jnsgd1na2vs0mg"},{"bike_id":"243dad39-384e-4630-bcf5-8b2102d42963","system_id":"levelo_inurba_marseille","lat":43.30918,"lon":5.3685,"is_reserved":false,"is_disabled":false,"rental_uris":{"android":"levelo://app?vid=243dad39-384e-4630-bcf5-8b2102d42963","ios":"levelo://app?vid=243dad39-384e-4630-bcf5-8b2102d42963"},"vehicle_type_id":"4","last_reported":1746015537,"current_range_meters":17600,"station_id":"ce4bgn92rcd13ifvqbvg","pricing_plan_id":"cebpf4jnsgd1na2vs0mg"},{"bike_id":"3b023f2e-3000-4939-9907-c70df57343f9","system_id":"levelo_inurba_marseille","lat":43.305373,"lon":5.365506,"is_reserved":false,"is_disabled":false,"rental_uris":{"android":"levelo://app?vid=3b023f2e-3000-4939-9907-c70df57343f9","ios":"levelo://app?vid=3b023f2e-3000-4939-9907-c70df57343f9"},"vehicle_type_id":"4","last_reported":1746015537,"current_range_meters":17600,"station_id":"ce4bgs12rcd13ifvqcag","pricing_plan_id":"cebpf4jnsgd1na2vs0mg"},{"bike_id":"5a196fa1-2baa-4f11-b4f1-02a13a67ac06","system_id":"levelo_inurba_marseille","lat":43.3361,"lon":5.41035,"is_reserved":false,"is_disabled":false,"rental_uris":{"android":"levelo://app?vid=5a196fa1-2baa-4f11-b4f1-02a13a67ac06","ios":"levelo://app?vid=5a196fa1-2baa-4f11-b4f1-02a13a67ac06"},"vehicle_type_id":"4","last_reported":1746015537,"current_range_meters":17600,"station_id":"ce4bhqh2rcd13ifvqhmg","pricing_plan_id":"cebpf4jnsgd1na2vs0mg"},{"bike_id":"eeedf767-e67a-44ba-9162-0bc81783b668","system_id":"levelo_inurba_marseille","lat":43.23208,"lon":5.35557,"is_reserved":false,"is_disabled":false,"rental_uris":{"android":"levelo://app?vid=eeedf767-e67a-44ba-9162-0bc81783b668","ios":"levelo://app?vid=eeedf767-e67a-44ba-9162-0bc81783b668"},"vehicle_type_id":"4","last_reported":1746015537,"current_range_meters":18000,"station_id":"ce4bhu92rcd13ifvqi70","pricing_plan_id":"cebpf4jnsgd1na2vs0mg"},{"bike_id":"1a68eb55-dd94-41dc-b67a-074c1fa82ce2","system_id":"levelo_inurba_marseille","lat":43.30538,"lon":5.36707,"is_reserved":false,"is_disabled":false,"rental_uris":{"android":"levelo://app?vid=1a68eb55-dd94-41dc-b67a-074c1fa82ce2","ios":"levelo://app?vid=1a68eb55-dd94-41dc-b67a-074c1fa82ce2"},"vehicle_type_id":"4","last_reported":1746015537,"current_range_meters":18000,"station_id":"ce4bgrp2rcd13ifvqc9g","pricing_plan_id":"cebpf4jnsgd1na2vs0mg"},{"bike_id":"b7b5024a-d3e2-4466-92eb-4f3c1d5ad9c3","system_id":"levelo_inurba_marseille","lat":43.28421,"lon":5.34977,"is_reserved":false,"is_disabled":false,"rental_uris":{"android":"levelo://app?vid=b7b5024a-d3e2-4466-92eb-4f3c1d5ad9c3","ios":"levelo://app?vid=b7b5024a-d3e2-4466-92eb-4f3c1d5ad9c3"},"vehicle_type_id":"4","last_reported":1746015537,"current_range_meters":18000,"station_id":"","pricing_plan_id":"cebpf4jnsgd1na2vs0mg"},{"bike_id":"4d4ad819-04f4-4c60-a4a2-51e6b35d9387","system_id":"levelo_inurba_marseille","lat":43.289309,"lon":5.381909,"is_reserved":false,"is_disabled":false,"rental_uris":{"android":"levelo://app?vid=4d4ad819-04f4-4c60-a4a2-51e6b35d9387","ios":"levelo://app?vid=4d4ad819-04f4-4c60-a4a2-51e6b35d9387"},"vehicle_type_id":"4","last_reported":1746015537,"current_range_meters":18800,"station_id":"ce4bh512rcd13ifvqe3g","pricing_plan_id":"cebpf4jnsgd1na2vs0mg"},{"bike_id":"f4b73246-afac-4a27-884b-4e385d8fcdf4","system_id":"levelo_inurba_marseille","lat":43.25916,"lon":5.40877,"is_reserved":false,"is_disabled":false,"rental_uris":{"android":"levelo://app?vid=f4b73246-afac-4a27-884b-4e385d8fcdf4","ios":"levelo://app?vid=f4b73246-afac-4a27-884b-4e385d8fcdf4"},"vehicle_type_id":"4","last_reported":1746015537,"current_range_meters":18800,"station_id":"ce4bhm92rcd13ifvqglg","pricing_plan_id":"cebpf4jnsgd1na2vs0mg"},{"bike_id":"02c34c65-9e29-4adf-87ca-500c6052f434","system_id":"levelo_inurba_marseille","lat":43.215182,"lon":5.349957,"is_reserved":false,"is_disabled":false,"rental_uris":{"android":"levelo://app?vid=02c34c65-9e29-4adf-87ca-500c6052f434","ios":"levelo://app?vid=02c34c65-9e29-4adf-87ca-500c6052f434"},"vehicle_type_id":"4","last_reported":1746015537,"current_range_meters":18800,"station_id":"","pricing_plan_id":"cebpf4jnsgd1na2vs0mg"},{"bike_id":"b58385b2-d1b2-4ecc-af75-eb7cf4772905","system_id":"levelo_inurba_marseille","lat":43.23069,"lon":5.35494,"is_reserved":false,"is_disabled":false,"rental_uris":{"android":"levelo://app?vid=b58385b2-d1b2-4ecc-af75-eb7cf4772905","ios":"levelo://app?vid=b58385b2-d1b2-4ecc-af75-eb7cf4772905"},"vehicle_type_id":"4","last_reported":1746015537,"current_range_meters":18800,"station_id":"cpo3342slgdg3j2ifvpg","pricing_plan_id":"cebpf4jnsgd1na2vs0mg"},{"bike_id":"cb8e1b19-8fba-4896-a258-382f21af406d","system_id":"levelo_inurba_marseille","lat":43.2417,"lon":5.3638,"is_reserved":false,"is_disabled":false,"rental_uris":{"android":"levelo://app?vid=cb8e1b19-8fba-4896-a258-382f21af406d","ios":"levelo://app?vid=cb8e1b19-8fba-4896-a258-382f21af406d"},"vehicle_type_id":"4","last_reported":1746015537,"current_range_meters":18800,"station_id":"cpo36qri1sfpv3e86is0","pricing_plan_id":"cebpf4jnsgd1na2vs0mg"},{"bike_id":"0a5b25fa-2a04-452e-981a-fe8129fc3ad5","system_id":"levelo_inurba_marseille","lat":43.24986,"lon":5.38942,"is_reserved":false,"is_disabled":false,"rental_uris":{"android":"levelo://app?vid=0a5b25fa-2a04-452e-981a-fe8129fc3ad5","ios":"levelo://app?vid=0a5b25fa-2a04-452e-981a-fe8129fc3ad5"},"vehicle_type_id":"4","last_reported":1746015537,"current_range_meters":18800,"station_id":"ce4bhgp2rcd13ifvqfd0","pricing_plan_id":"cebpf4jnsgd1na2vs0mg"},{"bike_id":"b6f07bbf-03b0-4906-91f2-97617dca3c4a","system_id":"levelo_inurba_marseille","lat":43.23969,"lon":5.36635,"is_reserved":false,"is_disabled":false,"rental_uris":{"android":"levelo://app?vid=b6f07bbf-03b0-4906-91f2-97617dca3c4a","ios":"levelo://app?vid=b6f07bbf-03b0-4906-91f2-97617dca3c4a"},"vehicle_type_id":"4","last_reported":1746015537,"current_range_meters":18800,"station_id":"ce4bhi12rcd13ifvqfp0","pricing_plan_id":"cebpf4jnsgd1na2vs0mg"},{"bike_id":"36718457-6a21-4b59-a5e5-457246b90f80","system_id":"levelo_inurba_marseille","lat":43.30463,"lon":5.37911,"is_reserved":false,"is_disabled":false,"rental_uris":{"android":"levelo://app?vid=36718457-6a21-4b59-a5e5-457246b90f80","ios":"levelo://app?vid=36718457-6a21-4b59-a5e5-457246b90f80"},"vehicle_type_id":"4","last_reported":1746015537,"current_range_meters":18800,"station_id":"ce4bgup2rcd13ifvqcn0","pricing_plan_id":"cebpf4jnsgd1na2vs0mg"},{"bike_id":"02a42bd1-4405-40fb-9796-648c59942adb","system_id":"levelo_inurba_marseille","lat":43.28478,"lon":5.38559,"is_reserved":false,"is_disabled":false,"rental_uris":{"android":"levelo://app?vid=02a42bd1-4405-40fb-9796-648c59942adb","ios":"levelo://app?vid=02a42bd1-4405-40fb-9796-648c59942adb"},"vehicle_type_id":"4","last_reported":1746015537,"current_range_meters":18800,"station_id":"ce4bh8p2rcd13ifvqeb0","pricing_plan_id":"cebpf4jnsgd1na2vs0mg"},{"bike_id":"4937227b-fb3e-42b0-b529-83a0cdd39a4c","system_id":"levelo_inurba_marseille","lat":43.28455,"lon":5.35885,"is_reserved":false,"is_disabled":false,"rental_uris":{"android":"levelo://app?vid=4937227b-fb3e-42b0-b529-83a0cdd39a4c","ios":"levelo://app?vid=4937227b-fb3e-42b0-b529-83a0cdd39a4c"},"vehicle_type_id":"4","last_reported":1746015537,"current_range_meters":19200,"station_id":"ce4bhah2rcd13ifvqei0","pricing_plan_id":"cebpf4jnsgd1na2vs0mg"},{"bike_id":"6d514e84-bd0b-4fee-95e8-26878678602a","system_id":"levelo_inurba_marseille","lat":43.21751,"lon":5.34605,"is_reserved":false,"is_disabled":false,"rental_uris":{"android":"levelo://app?vid=6d514e84-bd0b-4fee-95e8-26878678602a","ios":"levelo://app?vid=6d514e84-bd0b-4fee-95e8-26878678602a"},"vehicle_type_id":"4","last_reported":1746015537,"current_range_meters":19200,"station_id":"st_cvj6r9ubvosntc0bgbag","pricing_plan_id":"cebpf4jnsgd1na2vs0mg"},{"bike_id":"42908026-3de0-48f1-85d7-288a20084045","system_id":"levelo_inurba_marseille","lat":43.29977,"lon":5.37161,"is_reserved":false,"is_disabled":false,"rental_uris":{"android":"levelo://app?vid=42908026-3de0-48f1-85d7-288a20084045","ios":"levelo://app?vid=42908026-3de0-48f1-85d7-288a20084045"},"vehicle_type_id":"4","last_reported":1746015537,"current_range_meters":18800,"station_id":"ce4bgr92rcd13ifvqc7g","pricing_plan_id":"cebpf4jnsgd1na2vs0mg"},{"bike_id":"1a1266bd-3bcf-4816-b0ce-bff9ab63584f","system_id":"levelo_inurba_marseille","lat":43.262206,"lon":5.37463,"is_reserved":false,"is_disabled":false,"rental_uris":{"android":"levelo://app?vid=1a1266bd-3bcf-4816-b0ce-bff9ab63584f","ios":"levelo://app?vid=1a1266bd-3bcf-4816-b0ce-bff9ab63584f"},"vehicle_type_id":"4","last_reported":1746015537,"current_range_meters":19200,"station_id":"ce4bhgp2rcd13ifvqfc0","pricing_plan_id":"cebpf4jnsgd1na2vs0mg"},{"bike_id":"908ecd90-2532-41a8-abc9-df16e5bcd010","system_id":"levelo_inurba_marseille","lat":43.29295,"lon":5.37451,"is_reserved":false,"is_disabled":false,"rental_uris":{"android":"levelo://app?vid=908ecd90-2532-41a8-abc9-df16e5bcd010","ios":"levelo://app?vid=908ecd90-2532-41a8-abc9-df16e5bcd010"},"vehicle_type_id":"4","last_reported":1746015537,"current_range_meters":19200,"station_id":"ce4bgi12rcd13ifvqb70","pricing_plan_id":"cebpf4jnsgd1na2vs0mg"},{"bike_id":"dd761f0b-a343-4069-8ed4-8566f51a6c87","system_id":"levelo_inurba_marseille","lat":43.267792,"lon":5.383597,"is_reserved":false,"is_disabled":true,"rental_uris":{"android":"levelo://app?vid=dd761f0b-a343-4069-8ed4-8566f51a6c87","ios":"levelo://app?vid=dd761f0b-a343-4069-8ed4-8566f51a6c87"},"vehicle_type_id":"4","last_reported":1746015537,"current_range_meters":19600,"station_id":"","pricing_plan_id":"cebpf4jnsgd1na2vs0mg"},{"bike_id":"9374ebd9-ff53-476a-b629-a110bd48fb00","system_id":"levelo_inurba_marseille","lat":43.27509,"lon":5.42445,"is_reserved":false,"is_disabled":true,"rental_uris":{"android":"levelo://app?vid=9374ebd9-ff53-476a-b629-a110bd48fb00","ios":"levelo://app?vid=9374ebd9-ff53-476a-b629-a110bd48fb00"},"vehicle_type_id":"4","last_reported":1746015537,"current_range_meters":19600,"station_id":"ce4bhn92rcd13ifvqgrg","pricing_plan_id":"cebpf4jnsgd1na2vs0mg"},{"bike_id":"4d151daf-88db-43ab-a993-9fc0c711bb01","system_id":"levelo_inurba_marseille","lat":43.284132,"lon":5.349712,"is_reserved":false,"is_disabled":false,"rental_uris":{"android":"levelo://app?vid=4d151daf-88db-43ab-a993-9fc0c711bb01","ios":"levelo://app?vid=4d151daf-88db-43ab-a993-9fc0c711bb01"},"vehicle_type_id":"4","last_reported":1746015537,"current_range_meters":19600,"station_id":"ce4bhbh2rcd13ifvqepg","pricing_plan_id":"cebpf4jnsgd1na2vs0mg"},{"bike_id":"2d90d92c-e010-4034-9c8a-92ec848e2a6f","system_id":"levelo_inurba_marseille","lat":43.30312,"lon":5.36896,"is_reserved":false,"is_disabled":false,"rental_uris":{"android":"levelo://app?vid=2d90d92c-e010-4034-9c8a-92ec848e2a6f","ios":"levelo://app?vid=2d90d92c-e010-4034-9c8a-92ec848e2a6f"},"vehicle_type_id":"4","last_reported":1746015537,"current_range_meters":20000,"station_id":"ce4bgqh2rcd13ifvqc5g","pricing_plan_id":"cebpf4jnsgd1na2vs0mg"},{"bike_id":"b49c6658-f712-4905-8be8-4c050243110a","system_id":"levelo_inurba_marseille","lat":43.2842,"lon":5.3498,"is_reserved":false,"is_disabled":false,"rental_uris":{"android":"levelo://app?vid=b49c6658-f712-4905-8be8-4c050243110a","ios":"levelo://app?vid=b49c6658-f712-4905-8be8-4c050243110a"},"vehicle_type_id":"4","last_reported":1746015537,"current_range_meters":20000,"station_id":"ce4bhbh2rcd13ifvqepg","pricing_plan_id":"cebpf4jnsgd1na2vs0mg"},{"bike_id":"3827674c-2c9d-48e3-a4ad-ecf939e7b109","system_id":"levelo_inurba_marseille","lat":43.2418,"lon":5.39727,"is_reserved":false,"is_disabled":false,"rental_uris":{"android":"levelo://app?vid=3827674c-2c9d-48e3-a4ad-ecf939e7b109","ios":"levelo://app?vid=3827674c-2c9d-48e3-a4ad-ecf939e7b109"},"vehicle_type_id":"4","last_reported":1746015537,"current_range_meters":20000,"station_id":"ce4bhn12rcd13ifvqgpg","pricing_plan_id":"cebpf4jnsgd1na2vs0mg"},{"bike_id":"7036e483-01b6-4940-96bb-9bb0224fb002","system_id":"levelo_inurba_marseille","lat":43.33013,"lon":5.39048,"is_reserved":false,"is_disabled":false,"rental_uris":{"android":"levelo://app?vid=7036e483-01b6-4940-96bb-9bb0224fb002","ios":"levelo://app?vid=7036e483-01b6-4940-96bb-9bb0224fb002"},"vehicle_type_id":"4","last_reported":1746015537,"current_range_meters":20000,"station_id":"ce4bhr92rcd13ifvqhrg","pricing_plan_id":"cebpf4jnsgd1na2vs0mg"},{"bike_id":"6b974cc3-0ef9-49d9-ae0e-082f8d8251a1","system_id":"levelo_inurba_marseille","lat":43.26557,"lon":5.37281,"is_reserved":false,"is_disabled":false,"rental_uris":{"android":"levelo://app?vid=6b974cc3-0ef9-49d9-ae0e-082f8d8251a1","ios":"levelo://app?vid=6b974cc3-0ef9-49d9-ae0e-082f8d8251a1"},"vehicle_type_id":"4","last_reported":1746015537,"current_range_meters":20000,"station_id":"ce4bhg12rcd13ifvqf70","pricing_plan_id":"cebpf4jnsgd1na2vs0mg"},{"bike_id":"4fb09c77-e2fe-4a0d-bfaa-c0225bd427de","system_id":"levelo_inurba_marseille","lat":43.292589,"lon":5.409147,"is_reserved":false,"is_disabled":false,"rental_uris":{"android":"levelo://app?vid=4fb09c77-e2fe-4a0d-bfaa-c0225bd427de","ios":"levelo://app?vid=4fb09c77-e2fe-4a0d-bfaa-c0225bd427de"},"vehicle_type_id":"4","last_reported":1746015537,"current_range_meters":20000,"station_id":"ce4bh192rcd13ifvqdc0","pricing_plan_id":"cebpf4jnsgd1na2vs0mg"},{"bike_id":"cc72cace-c85b-480b-b8ff-980710dfe869","system_id":"levelo_inurba_marseille","lat":43.28422,"lon":5.34978,"is_reserved":false,"is_disabled":false,"rental_uris":{"android":"levelo://app?vid=cc72cace-c85b-480b-b8ff-980710dfe869","ios":"levelo://app?vid=cc72cace-c85b-480b-b8ff-980710dfe869"},"vehicle_type_id":"4","last_reported":1746015537,"current_range_meters":20000,"station_id":"ce4bhbh2rcd13ifvqepg","pricing_plan_id":"cebpf4jnsgd1na2vs0mg"},{"bike_id":"423dd2e4-bc9d-4b36-ba85-718d413ffcf6","system_id":"levelo_inurba_marseille","lat":43.32544,"lon":5.41426,"is_reserved":false,"is_disabled":false,"rental_uris":{"android":"levelo://app?vid=423dd2e4-bc9d-4b36-ba85-718d413ffcf6","ios":"levelo://app?vid=423dd2e4-bc9d-4b36-ba85-718d413ffcf6"},"vehicle_type_id":"4","last_reported":1746015537,"current_range_meters":20000,"station_id":"ce4bhq12rcd13ifvqhhg","pricing_plan_id":"cebpf4jnsgd1na2vs0mg"},{"bike_id":"52aae6fc-bc46-4837-9a9b-cbf7dcd314c3","system_id":"levelo_inurba_marseille","lat":43.28267,"lon":5.35056,"is_reserved":false,"is_disabled":false,"rental_uris":{"android":"levelo://app?vid=52aae6fc-bc46-4837-9a9b-cbf7dcd314c3","ios":"levelo://app?vid=52aae6fc-bc46-4837-9a9b-cbf7dcd314c3"},"vehicle_type_id":"4","last_reported":1746015537,"current_range_meters":20400,"station_id":"ce4bhbp2rcd13ifvqerg","pricing_plan_id":"cebpf4jnsgd1na2vs0mg"},{"bike_id":"7c2c9bc2-f0d7-473a-aa37-49e2a10897ab","system_id":"levelo_inurba_marseille","lat":43.2997,"lon":5.37179,"is_reserved":false,"is_disabled":false,"rental_uris":{"android":"levelo://app?vid=7c2c9bc2-f0d7-473a-aa37-49e2a10897ab","ios":"levelo://app?vid=7c2c9bc2-f0d7-473a-aa37-49e2a10897ab"},"vehicle_type_id":"4","last_reported":1746015537,"current_range_meters":20400,"station_id":"ce4bgr92rcd13ifvqc7g","pricing_plan_id":"cebpf4jnsgd1na2vs0mg"},{"bike_id":"8a108257-ba62-40f1-b151-5864796d192a","system_id":"levelo_inurba_marseille","lat":43.217486,"lon":5.346064,"is_reserved":false,"is_disabled":false,"rental_uris":{"android":"levelo://app?vid=8a108257-ba62-40f1-b151-5864796d192a","ios":"levelo://app?vid=8a108257-ba62-40f1-b151-5864796d192a"},"vehicle_type_id":"4","last_reported":1746015537,"current_range_meters":20400,"station_id":"st_cvj6r9ubvosntc0bgbag","pricing_plan_id":"cebpf4jnsgd1na2vs0mg"},{"bike_id":"48fe0a61-16d8-4c4d-8014-6583682528ed","system_id":"levelo_inurba_marseille","lat":43.21754,"lon":5.34612,"is_reserved":false,"is_disabled":false,"rental_uris":{"android":"levelo://app?vid=48fe0a61-16d8-4c4d-8014-6583682528ed","ios":"levelo://app?vid=48fe0a61-16d8-4c4d-8014-6583682528ed"},"vehicle_type_id":"4","last_reported":1746015537,"current_range_meters":20400,"station_id":"st_cvj6r9ubvosntc0bgbag","pricing_plan_id":"cebpf4jnsgd1na2vs0mg"},{"bike_id":"932191c0-044f-47b1-a0ef-a8c3754f7646","system_id":"levelo_inurba_marseille","lat":43.30147,"lon":5.38079,"is_reserved":false,"is_disabled":false,"rental_uris":{"android":"levelo://app?vid=932191c0-044f-47b1-a0ef-a8c3754f7646","ios":"levelo://app?vid=932191c0-044f-47b1-a0ef-a8c3754f7646"},"vehicle_type_id":"4","last_reported":1746015537,"current_range_meters":20400,"station_id":"ce4bgjp2rcd13ifvqbh0","pricing_plan_id":"cebpf4jnsgd1na2vs0mg"},{"bike_id":"5fa141a5-4008-428d-aa29-679d32b7f67c","system_id":"levelo_inurba_marseille","lat":43.31487,"lon":5.37306,"is_reserved":false,"is_disabled":false,"rental_uris":{"android":"levelo://app?vid=5fa141a5-4008-428d-aa29-679d32b7f67c","ios":"levelo://app?vid=5fa141a5-4008-428d-aa29-679d32b7f67c"},"vehicle_type_id":"4","last_reported":1746015537,"current_range_meters":20400,"station_id":"ce4bgt12rcd13ifvqcd0","pricing_plan_id":"cebpf4jnsgd1na2vs0mg"},{"bike_id":"ec1a7320-748a-4ff5-ba83-d5d3cd77ad53","system_id":"levelo_inurba_marseille","lat":43.27364,"lon":5.36257,"is_reserved":false,"is_disabled":false,"rental_uris":{"android":"levelo://app?vid=ec1a7320-748a-4ff5-ba83-d5d3cd77ad53","ios":"levelo://app?vid=ec1a7320-748a-4ff5-ba83-d5d3cd77ad53"},"vehicle_type_id":"4","last_reported":1746015537,"current_range_meters":20800,"station_id":"ce4bhbh2rcd13ifvqeo0","pricing_plan_id":"cebpf4jnsgd1na2vs0mg"},{"bike_id":"78bd6b36-168d-41d2-bcce-932b973e2e8d","system_id":"levelo_inurba_marseille","lat":43.28147,"lon":5.37808,"is_reserved":false,"is_disabled":false,"rental_uris":{"android":"levelo://app?vid=78bd6b36-168d-41d2-bcce-932b973e2e8d","ios":"levelo://app?vid=78bd6b36-168d-41d2-bcce-932b973e2e8d"},"vehicle_type_id":"4","last_reported":1746015537,"current_range_meters":20800,"station_id":"","pricing_plan_id":"cebpf4jnsgd1na2vs0mg"},{"bike_id":"18d36a68-45b0-4bad-a21c-2c037eb9f06a","system_id":"levelo_inurba_marseille","lat":43.28268,"lon":5.35062,"is_reserved":false,"is_disabled":false,"rental_uris":{"android":"levelo://app?vid=18d36a68-45b0-4bad-a21c-2c037eb9f06a","ios":"levelo://app?vid=18d36a68-45b0-4bad-a21c-2c037eb9f06a"},"vehicle_type_id":"4","last_reported":1746015537,"current_range_meters":20800,"station_id":"ce4bhbp2rcd13ifvqerg","pricing_plan_id":"cebpf4jnsgd1na2vs0mg"},{"bike_id":"392ea205-615a-4423-9a63-0325cdbaf869","system_id":"levelo_inurba_marseille","lat":43.25823,"lon":5.39427,"is_reserved":false,"is_disabled":false,"rental_uris":{"android":"levelo://app?vid=392ea205-615a-4423-9a63-0325cdbaf869","ios":"levelo://app?vid=392ea205-615a-4423-9a63-0325cdbaf869"},"vehicle_type_id":"4","last_reported":1746015537,"current_range_meters":20800,"station_id":"ce4bhip2rcd13ifvqft0","pricing_plan_id":"cebpf4jnsgd1na2vs0mg"},{"bike_id":"041fd603-a7a7-41c8-86db-ba42ed9a763d","system_id":"levelo_inurba_marseille","lat":43.28276,"lon":5.35063,"is_reserved":false,"is_disabled":false,"rental_uris":{"android":"levelo://app?vid=041fd603-a7a7-41c8-86db-ba42ed9a763d","ios":"levelo://app?vid=041fd603-a7a7-41c8-86db-ba42ed9a763d"},"vehicle_type_id":"4","last_reported":1746015537,"current_range_meters":20800,"station_id":"ce4bhbp2rcd13ifvqerg","pricing_plan_id":"cebpf4jnsgd1na2vs0mg"},{"bike_id":"8fe52908-1d82-41e9-b9c4-30f2936b6b73","system_id":"levelo_inurba_marseille","lat":43.27841,"lon":5.39217,"is_reserved":false,"is_disabled":false,"rental_uris":{"android":"levelo://app?vid=8fe52908-1d82-41e9-b9c4-30f2936b6b73","ios":"levelo://app?vid=8fe52908-1d82-41e9-b9c4-30f2936b6b73"},"vehicle_type_id":"4","last_reported":1746015537,"current_range_meters":20400,"station_id":"ce4bhjp2rcd13ifvqga0","pricing_plan_id":"cebpf4jnsgd1na2vs0mg"},{"bike_id":"8050b584-dffd-4d53-9b7b-16cef48b7b4d","system_id":"levelo_inurba_marseille","lat":43.26561,"lon":5.39003,"is_reserved":false,"is_disabled":false,"rental_uris":{"android":"levelo://app?vid=8050b584-dffd-4d53-9b7b-16cef48b7b4d","ios":"levelo://app?vid=8050b584-dffd-4d53-9b7b-16cef48b7b4d"},"vehicle_type_id":"4","last_reported":1746015537,"current_range_meters":20800,"station_id":"ce4bhe12rcd13ifvqf30","pricing_plan_id":"cebpf4jnsgd1na2vs0mg"},{"bike_id":"ec106eaa-6a32-4c97-ae34-5a25b2dab022","system_id":"levelo_inurba_marseille","lat":43.31349,"lon":5.36705,"is_reserved":false,"is_disabled":false,"rental_uris":{"android":"levelo://app?vid=ec106eaa-6a32-4c97-ae34-5a25b2dab022","ios":"levelo://app?vid=ec106eaa-6a32-4c97-ae34-5a25b2dab022"},"vehicle_type_id":"4","last_reported":1746015537,"current_range_meters":20800,"station_id":"ce4bgr92rcd13ifvqc6g","pricing_plan_id":"cebpf4jnsgd1na2vs0mg"},{"bike_id":"5b8df32b-6bd3-46c5-92f6-95932c59353e","system_id":"levelo_inurba_marseille","lat":43.32538,"lon":5.41434,"is_reserved":false,"is_disabled":false,"rental_uris":{"android":"levelo://app?vid=5b8df32b-6bd3-46c5-92f6-95932c59353e","ios":"levelo://app?vid=5b8df32b-6bd3-46c5-92f6-95932c59353e"},"vehicle_type_id":"4","last_reported":1746015537,"current_range_meters":21600,"station_id":"ce4bhq12rcd13ifvqhhg","pricing_plan_id":"cebpf4jnsgd1na2vs0mg"},{"bike_id":"cdcb50a2-3beb-4586-94ea-c6962ac3cbe5","system_id":"levelo_inurba_marseille","lat":43.24171,"lon":5.39695,"is_reserved":false,"is_disabled":false,"rental_uris":{"android":"levelo://app?vid=cdcb50a2-3beb-4586-94ea-c6962ac3cbe5","ios":"levelo://app?vid=cdcb50a2-3beb-4586-94ea-c6962ac3cbe5"},"vehicle_type_id":"4","last_reported":1746015537,"current_range_meters":21600,"station_id":"ce4bhn12rcd13ifvqgpg","pricing_plan_id":"cebpf4jnsgd1na2vs0mg"},{"bike_id":"e2e61a8c-bdc6-4f5b-8077-037999f48fdc","system_id":"levelo_inurba_marseille","lat":43.28415,"lon":5.34983,"is_reserved":false,"is_disabled":false,"rental_uris":{"android":"levelo://app?vid=e2e61a8c-bdc6-4f5b-8077-037999f48fdc","ios":"levelo://app?vid=e2e61a8c-bdc6-4f5b-8077-037999f48fdc"},"vehicle_type_id":"4","last_reported":1746015537,"current_range_meters":21600,"station_id":"ce4bhbh2rcd13ifvqepg","pricing_plan_id":"cebpf4jnsgd1na2vs0mg"},{"bike_id":"a0b01763-5881-4aa6-b7ff-5cb4131f6c67","system_id":"levelo_inurba_marseille","lat":43.23965,"lon":5.36624,"is_reserved":false,"is_disabled":false,"rental_uris":{"android":"levelo://app?vid=a0b01763-5881-4aa6-b7ff-5cb4131f6c67","ios":"levelo://app?vid=a0b01763-5881-4aa6-b7ff-5cb4131f6c67"},"vehicle_type_id":"4","last_reported":1746015537,"current_range_meters":21600,"station_id":"ce4bhi12rcd13ifvqfp0","pricing_plan_id":"cebpf4jnsgd1na2vs0mg"},{"bike_id":"c2e40ee7-7534-4092-9d51-670c399ef876","system_id":"levelo_inurba_marseille","lat":43.3408,"lon":5.39824,"is_reserved":false,"is_disabled":false,"rental_uris":{"android":"levelo://app?vid=c2e40ee7-7534-4092-9d51-670c399ef876","ios":"levelo://app?vid=c2e40ee7-7534-4092-9d51-670c399ef876"},"vehicle_type_id":"4","last_reported":1746015537,"current_range_meters":22000,"station_id":"","pricing_plan_id":"cebpf4jnsgd1na2vs0mg"},{"bike_id":"2f3daa40-d254-42a2-8255-0bf260b9a055","system_id":"levelo_inurba_marseille","lat":43.29876,"lon":5.39733,"is_reserved":false,"is_disabled":false,"rental_uris":{"android":"levelo://app?vid=2f3daa40-d254-42a2-8255-0bf260b9a055","ios":"levelo://app?vid=2f3daa40-d254-42a2-8255-0bf260b9a055"},"vehicle_type_id":"4","last_reported":1746015537,"current_range_meters":22000,"station_id":"ce4bh0h2rcd13ifvqd50","pricing_plan_id":"cebpf4jnsgd1na2vs0mg"},{"bike_id":"cde443bb-9a98-4dfc-a82f-cbb08d6f149e","system_id":"levelo_inurba_marseille","lat":43.241913,"lon":5.397256,"is_reserved":false,"is_disabled":false,"rental_uris":{"android":"levelo://app?vid=cde443bb-9a98-4dfc-a82f-cbb08d6f149e","ios":"levelo://app?vid=cde443bb-9a98-4dfc-a82f-cbb08d6f149e"},"vehicle_type_id":"4","last_reported":1746015537,"current_range_meters":22000,"station_id":"ce4bhn12rcd13ifvqgpg","pricing_plan_id":"cebpf4jnsgd1na2vs0mg"},{"bike_id":"15d078a0-14f8-4c1b-abf1-e3281d430bf4","system_id":"levelo_inurba_marseille","lat":43.24669,"lon":5.38164,"is_reserved":false,"is_disabled":false,"rental_uris":{"android":"levelo://app?vid=15d078a0-14f8-4c1b-abf1-e3281d430bf4","ios":"levelo://app?vid=15d078a0-14f8-4c1b-abf1-e3281d430bf4"},"vehicle_type_id":"4","last_reported":1746015537,"current_range_meters":22000,"station_id":"ce4bhih2rcd13ifvqfr0","pricing_plan_id":"cebpf4jnsgd1na2vs0mg"},{"bike_id":"9a6d1a0d-0520-4c44-b0a9-74ddbe754418","system_id":"levelo_inurba_marseille","lat":43.25745,"lon":5.40995,"is_reserved":false,"is_disabled":false,"rental_uris":{"android":"levelo://app?vid=9a6d1a0d-0520-4c44-b0a9-74ddbe754418","ios":"levelo://app?vid=9a6d1a0d-0520-4c44-b0a9-74ddbe754418"},"vehicle_type_id":"4","last_reported":1746015537,"current_range_meters":22400,"station_id":"","pricing_plan_id":"cebpf4jnsgd1na2vs0mg"},{"bike_id":"b3398f43-0935-4e1d-a0f5-3ef2ffc757c9","system_id":"levelo_inurba_marseille","lat":43.27177,"lon":5.40993,"is_reserved":false,"is_disabled":false,"rental_uris":{"android":"levelo://app?vid=b3398f43-0935-4e1d-a0f5-3ef2ffc757c9","ios":"levelo://app?vid=b3398f43-0935-4e1d-a0f5-3ef2ffc757c9"},"vehicle_type_id":"4","last_reported":1746015537,"current_range_meters":22000,"station_id":"ce4bhl12rcd13ifvqgf0","pricing_plan_id":"cebpf4jnsgd1na2vs0mg"},{"bike_id":"e07d62a1-8528-4e05-9e15-828a10ab3116","system_id":"levelo_inurba_marseille","lat":43.282669,"lon":5.350647,"is_reserved":false,"is_disabled":false,"rental_uris":{"android":"levelo://app?vid=e07d62a1-8528-4e05-9e15-828a10ab3116","ios":"levelo://app?vid=e07d62a1-8528-4e05-9e15-828a10ab3116"},"vehicle_type_id":"4","last_reported":1746015537,"current_range_meters":22400,"station_id":"ce4bhbp2rcd13ifvqerg","pricing_plan_id":"cebpf4jnsgd1na2vs0mg"},{"bike_id":"fabb3696-d652-4dc8-8152-e4860f31edd7","system_id":"levelo_inurba_marseille","lat":43.23155,"lon":5.43713,"is_reserved":false,"is_disabled":false,"rental_uris":{"android":"levelo://app?vid=fabb3696-d652-4dc8-8152-e4860f31edd7","ios":"levelo://app?vid=fabb3696-d652-4dc8-8152-e4860f31edd7"},"vehicle_type_id":"4","last_reported":1746015537,"current_range_meters":19200,"station_id":"ce4bhmp2rcd13ifvqgog","pricing_plan_id":"cebpf4jnsgd1na2vs0mg"},{"bike_id":"ed38bb1e-4255-4052-b8c3-234ac98fdbb0","system_id":"levelo_inurba_marseille","lat":43.28271,"lon":5.35067,"is_reserved":false,"is_disabled":false,"rental_uris":{"android":"levelo://app?vid=ed38bb1e-4255-4052-b8c3-234ac98fdbb0","ios":"levelo://app?vid=ed38bb1e-4255-4052-b8c3-234ac98fdbb0"},"vehicle_type_id":"4","last_reported":1746015537,"current_range_meters":22400,"station_id":"ce4bhbp2rcd13ifvqerg","pricing_plan_id":"cebpf4jnsgd1na2vs0mg"},{"bike_id":"a0b52111-1059-4de8-ac81-c5fa6a89e2d3","system_id":"levelo_inurba_marseille","lat":43.2396,"lon":5.36639,"is_reserved":false,"is_disabled":false,"rental_uris":{"android":"levelo://app?vid=a0b52111-1059-4de8-ac81-c5fa6a89e2d3","ios":"levelo://app?vid=a0b52111-1059-4de8-ac81-c5fa6a89e2d3"},"vehicle_type_id":"4","last_reported":1746015537,"current_range_meters":22800,"station_id":"ce4bhi12rcd13ifvqfp0","pricing_plan_id":"cebpf4jnsgd1na2vs0mg"},{"bike_id":"00674618-d219-4ab4-9afe-375d5d9c1d63","system_id":"levelo_inurba_marseille","lat":43.32288,"lon":5.38272,"is_reserved":false,"is_disabled":false,"rental_uris":{"android":"levelo://app?vid=00674618-d219-4ab4-9afe-375d5d9c1d63","ios":"levelo://app?vid=00674618-d219-4ab4-9afe-375d5d9c1d63"},"vehicle_type_id":"4","last_reported":1746015537,"current_range_meters":22800,"station_id":"ce4bhr12rcd13ifvqhqg","pricing_plan_id":"cebpf4jnsgd1na2vs0mg"},{"bike_id":"663742c0-fc2d-4eaa-a41e-524ba80d48dc","system_id":"levelo_inurba_marseille","lat":43.248016,"lon":5.374587,"is_reserved":false,"is_disabled":false,"rental_uris":{"android":"levelo://app?vid=663742c0-fc2d-4eaa-a41e-524ba80d48dc","ios":"levelo://app?vid=663742c0-fc2d-4eaa-a41e-524ba80d48dc"},"vehicle_type_id":"4","last_reported":1746015537,"current_range_meters":22800,"station_id":"ce4bhgh2rcd13ifvqfb0","pricing_plan_id":"cebpf4jnsgd1na2vs0mg"},{"bike_id":"d03907f8-d2f4-406c-b617-c03aae77dd57","system_id":"levelo_inurba_marseille","lat":43.302513,"lon":5.393137,"is_reserved":false,"is_disabled":false,"rental_uris":{"android":"levelo://app?vid=d03907f8-d2f4-406c-b617-c03aae77dd57","ios":"levelo://app?vid=d03907f8-d2f4-406c-b617-c03aae77dd57"},"vehicle_type_id":"4","last_reported":1746015537,"current_range_meters":22400,"station_id":"ce4bgkh2rcd13ifvqbk0","pricing_plan_id":"cebpf4jnsgd1na2vs0mg"},{"bike_id":"b0d0ff7e-fb74-4f4d-a383-b3a7e57681f3","system_id":"levelo_inurba_marseille","lat":43.31509,"lon":5.3729,"is_reserved":false,"is_disabled":false,"rental_uris":{"android":"levelo://app?vid=b0d0ff7e-fb74-4f4d-a383-b3a7e57681f3","ios":"levelo://app?vid=b0d0ff7e-fb74-4f4d-a383-b3a7e57681f3"},"vehicle_type_id":"4","last_reported":1746015537,"current_range_meters":22800,"station_id":"ce4bgt12rcd13ifvqcd0","pricing_plan_id":"cebpf4jnsgd1na2vs0mg"},{"bike_id":"3a9bd96a-1d84-454e-b55b-a4ef583e3749","system_id":"levelo_inurba_marseille","lat":43.26685,"lon":5.3825,"is_reserved":false,"is_disabled":false,"rental_uris":{"android":"levelo://app?vid=3a9bd96a-1d84-454e-b55b-a4ef583e3749","ios":"levelo://app?vid=3a9bd96a-1d84-454e-b55b-a4ef583e3749"},"vehicle_type_id":"4","last_reported":1746015537,"current_range_meters":22800,"station_id":"ce4bhg92rcd13ifvqf90","pricing_plan_id":"cebpf4jnsgd1na2vs0mg"},