{"last_updated":1729843983,"ttl":60,"version":"2.2","data":{"bikes":[{"bike_id":"9f4bc889-d70f-4cc1-9597-1009308d328c","system_id":"levelo_inurba_marseille","lat":43.29313,"lon":5.37182,"is_reserved":false,"is_disabled":false,"rental_uris":{"android":"levelo://app?vid=9f4bc889-d70f-4cc1-9597-1009308d328c","ios":"levelo://app?vid=9f4bc889-d70f-4cc1-9597-1009308d328c"},"vehicle_type_id":"4","last_reported":1729843983,"current_range_meters":21600,"station_id":"ce4bgh92rcd13ifvqb40","pricing_plan_id":"cebpf4jnsgd1na2vs0mg"},{"bike_id":"1e5179d9-1912-4157-9388-b8e30315c905","system_id":"levelo_inurba_marseille","lat":43.25726,"lon":5.41107,"is_reserved":false,"is_disabled":false,"rental_uris":{"android":"levelo://app?vid=1e5179d9-1912-4157-9388-b8e30315c905","ios":"levelo://app?vid=1e5179d9-1912-4157-9388-b8e30315c905"},"vehicle_type_id":"4","last_reported":1729843983,"current_range_meters":12800,"station_id":"ce4bhkp2rcd13ifvqgd0","pricing_plan_id":"cebpf4jnsgd1na2vs0mg"},{"bike_id":"1568e98d-3e80-4d3a-913a-84af01bba11e","system_id":"levelo_inurba_marseille","lat":43.28147,"lon":5.42639,"is_reserved":false,"is_disabled":false,"rental_uris":{"android":"levelo://app?vid=1568e98d-3e80-4d3a-913a-84af01bba11e","ios":"levelo://app?vid=1568e98d-3e80-4d3a-913a-84af01bba11e"},"vehicle_type_id":"4","last_reported":1729843983,"current_range_meters":35600,"station_id":"ce4bhnh2rcd13ifvqgug","pricing_plan_id":"cebpf4jnsgd1na2vs0mg"},{"bike_id":"f9b26d82-e255-4052-af9f-86176d69233d","system_id":"levelo_inurba_marseille","lat":43.31351,"lon":5.36697,"is_reserved":false,"is_disabled":false,"rental_uris":{"android":"levelo://app?vid=f9b26d82-e255-4052-af9f-86176d69233d","ios":"levelo://app?vid=f9b26d82-e255-4052-af9f-86176d69233d"},"vehicle_type_id":"4","last_reported":1729843983,"current_range_meters":32800,"station_id":"ce4bgr92rcd13ifvqc6g","pricing_plan_id":"cebpf4jnsgd1na2vs0mg"},{"bike_id":"a225ef0d-6bb1-406a-b934-1f9162909e2d","system_id":"levelo_inurba_marseille","lat":43.31535,"lon":5.38041,"is_reserved":false,"is_disabled":false,"rental_uris":{"android":"levelo://app?vid=a225ef0d-6bb1-406a-b934-1f9162909e2d","ios":"levelo://app?vid=a225ef0d-6bb1-406a-b934-1f9162909e2d"},"vehicle_type_id":"4","last_reported":1729843983,"current_range_meters":2000,"station_id":"ce4bhsp2rcd13ifvqi50","pricing_plan_id":"cebpf4jnsgd1na2vs0mg"},{"bike_id":"54a05d7c-2ce8-4c83-a195-455b245b2e07","system_id":"levelo_inurba_marseille","lat":43.28491,"lon":5.38556,"is_reserved":false,"is_disabled":false,"rental_uris":{"android":"levelo://app?vid=54a05d7c-2ce8-4c83-a195-455b245b2e07","ios":"levelo://app?vid=54a05d7c-2ce8-4c83-a195-455b245b2e07"},"vehicle_type_id":"4","last_reported":1729843983,"current_range_meters":29600,"station_id":"ce4bh8p2rcd13ifvqeb0","pricing_plan_id":"cebpf4jnsgd1na2vs0mg"},{"bike_id":"0305f07b-3d86-40ef-b6b1-15fef9ab5479","system_id":"levelo_inurba_marseille","lat":43.23963,"lon":5.36629,"is_reserved":false,"is_disabled":false,"rental_uris":{"android":"levelo://app?vid=0305f07b-3d86-40ef-b6b1-15fef9ab5479","ios":"levelo://app?vid=0305f07b-3d86-40ef-b6b1-15fef9ab5479"},"vehicle_type_id":"4","last_reported":1729843983,"current_range_meters":36000,"station_id":"ce4bhi12rcd13ifvqfp0","pricing_plan_id":"cebpf4jnsgd1na2vs0mg"},{"bike_id":"51912353-a381-4c6d-8c3e-f868f15d3ff6","system_id":"levelo_inurba_marseille","lat":43.32042,"lon":5.41567,"is_reserved":false,"is_disabled":false,"rental_uris":{"android":"levelo://app?vid=51912353-a381-4c6d-8c3e-f868f15d3ff6","ios":"levelo://app?vid=51912353-a381-4c6d-8c3e-f868f15d3ff6"},"vehicle_type_id":"4","last_reported":1729843983,"current_range_meters":37600,"station_id":"ce4bhq92rcd13ifvqhkg","pricing_plan_id":"cebpf4jnsgd1na2vs0mg"},{"bike_id":"2ff9844e-1671-4abc-8157-c7e2cf1287d1","system_id":"levelo_inurba_marseille","lat":43.287384,"lon":5.382894,"is_reserved":false,"is_disabled":false,"rental_uris":{"android":"levelo://app?vid=2ff9844e-1671-4abc-8157-c7e2cf1287d1","ios":"levelo://app?vid=2ff9844e-1671-4abc-8157-c7e2cf1287d1"},"vehicle_type_id":"4","last_reported":1729843983,"current_range_meters":39200,"station_id":"ce4bhjp2rcd13ifvqg90","pricing_plan_id":"cebpf4jnsgd1na2vs0mg"},{"bike_id":"5dbd4e97-606f-4b8b-af2c-f584021ff0f2","system_id":"levelo_inurba_marseille","lat":43.29843,"lon":5.36271,"is_reserved":false,"is_disabled":false,"rental_uris":{"android":"levelo://app?vid=5dbd4e97-606f-4b8b-af2c-f584021ff0f2","ios":"levelo://app?vid=5dbd4e97-606f-4b8b-af2c-f584021ff0f2"},"vehicle_type_id":"4","last_reported":1729843983,"current_range_meters":38400,"station_id":"ce4bgpp2rcd13ifvqc3g","pricing_plan_id":"cebpf4jnsgd1na2vs0mg"},{"bike_id":"93995796-8921-40c3-a291-ba0a20143561","system_id":"levelo_inurba_marseille","lat":43.25106,"lon":5.40323,"is_reserved":false,"is_disabled":false,"rental_uris":{"android":"levelo://app?vid=93995796-8921-40c3-a291-ba0a20143561","ios":"levelo://app?vid=93995796-8921-40c3-a291-ba0a20143561"},"vehicle_type_id":"4","last_reported":1729843983,"current_range_meters":27600,"station_id":"ce4bhlh2rcd13ifvqgig","pricing_plan_id":"cebpf4jnsgd1na2vs0mg"},{"bike_id":"379a15da-7e2b-4340-9637-a4fc022ac03a","system_id":"levelo_inurba_marseille","lat":43.30905,"lon":5.36859,"is_reserved":false,"is_disabled":false,"rental_uris":{"android":"levelo://app?vid=379a15da-7e2b-4340-9637-a4fc022ac03a","ios":"levelo://app?vid=379a15da-7e2b-4340-9637-a4fc022ac03a"},"vehicle_type_id":"4","last_reported":1729843983,"current_range_meters":38800,"station_id":"ce4bgn92rcd13ifvqbvg","pricing_plan_id":"cebpf4jnsgd1na2vs0mg"},{"bike_id":"15a72434-6c63-4059-a6c9-0dd3a19b7eb4","system_id":"levelo_inurba_marseille","lat":43.24666,"lon":5.38162,"is_reserved":false,"is_disabled":false,"rental_uris":{"android":"levelo://app?vid=15a72434-6c63-4059-a6c9-0dd3a19b7eb4","ios":"levelo://app?vid=15a72434-6c63-4059-a6c9-0dd3a19b7eb4"},"vehicle_type_id":"4","last_reported":1729843983,"current_range_meters":16400,"station_id":"ce4bhih2rcd13ifvqfr0","pricing_plan_id":"cebpf4jnsgd1na2vs0mg"},{"bike_id":"f7cb4d3f-1921-4702-8703-5284a2844155","system_id":"levelo_inurba_marseille","lat":43.31349,"lon":5.36712,"is_reserved":false,"is_disabled":false,"rental_uris":{"android":"levelo://app?vid=f7cb4d3f-1921-4702-8703-5284a2844155","ios":"levelo://app?vid=f7cb4d3f-1921-4702-8703-5284a2844155"},"vehicle_type_id":"4","last_reported":1729843983,"current_range_meters":39200,"station_id":"ce4bgr92rcd13ifvqc6g","pricing_plan_id":"cebpf4jnsgd1na2vs0mg"},{"bike_id":"ab031a12-671a-4fc9-88c6-e03ba4c7b279","system_id":"levelo_inurba_marseille","lat":43.2958,"lon":5.37506,"is_reserved":false,"is_disabled":false,"rental_uris":{"android":"levelo://app?vid=ab031a12-671a-4fc9-88c6-e03ba4c7b279","ios":"levelo://app?vid=ab031a12-671a-4fc9-88c6-e03ba4c7b279"},"vehicle_type_id":"4","last_reported":1729843983,"current_range_meters":37600,"station_id":"ce4bgh92rcd13ifvqb50","pricing_plan_id":"cebpf4jnsgd1na2vs0mg"},{"bike_id":"076ad9f5-cfdc-453c-9d5a-d9fca730a497","system_id":"levelo_inurba_marseille","lat":43.27975,"lon":5.38743,"is_reserved":false,"is_disabled":false,"rental_uris":{"android":"levelo://app?vid=076ad9f5-cfdc-453c-9d5a-d9fca730a497","ios":"levelo://app?vid=076ad9f5-cfdc-453c-9d5a-d9fca730a497"},"vehicle_type_id":"4","last_reported":1729843983,"current_range_meters":22400,"station_id":"ce4bhg12rcd13ifvqf80","pricing_plan_id":"cebpf4jnsgd1na2vs0mg"},{"bike_id":"7a39ac62-f73e-405f-baad-436efacf2521","system_id":"levelo_inurba_marseille","lat":43.27071,"lon":5.42282,"is_reserved":false,"is_disabled":false,"rental_uris":{"android":"levelo://app?vid=7a39ac62-f73e-405f-baad-436efacf2521","ios":"levelo://app?vid=7a39ac62-f73e-405f-baad-436efacf2521"},"vehicle_type_id":"4","last_reported":1729843983,"current_range_meters":40000,"station_id":"ce4bhk92rcd13ifvqgb0","pricing_plan_id":"cebpf4jnsgd1na2vs0mg"},{"bike_id":"3d485760-1c3c-4c7e-a95a-57d189d25473","system_id":"levelo_inurba_marseille","lat":43.30152,"lon":5.38083,"is_reserved":false,"is_disabled":false,"rental_uris":{"android":"levelo://app?vid=3d485760-1c3c-4c7e-a95a-57d189d25473","ios":"levelo://app?vid=3d485760-1c3c-4c7e-a95a-57d189d25473"},"vehicle_type_id":"4","last_reported":1729843983,"current_range_meters":38800,"station_id":"ce4bgjp2rcd13ifvqbh0","pricing_plan_id":"cebpf4jnsgd1na2vs0mg"},{"bike_id":"e130cf78-8420-42ef-935c-589ad91611cf","system_id":"levelo_inurba_marseille","lat":43.3266,"lon":5.40988,"is_reserved":false,"is_disabled":false,"rental_uris":{"android":"levelo://app?vid=e130cf78-8420-42ef-935c-589ad91611cf","ios":"levelo://app?vid=e130cf78-8420-42ef-935c-589ad91611cf"},"vehicle_type_id":"4","last_reported":1729843983,"current_range_meters":37600,"station_id":"ce4bhpp2rcd13ifvqhgg","pricing_plan_id":"cebpf4jnsgd1na2vs0mg"},{"bike_id":"83b93c0d-fd1e-413e-9772-9048be31d163","system_id":"levelo_inurba_marseille","lat":43.3171,"lon":5.37755,"is_reserved":false,"is_disabled":false,"rental_uris":{"android":"levelo://app?vid=83b93c0d-fd1e-413e-9772-9048be31d163","ios":"levelo://app?vid=83b93c0d-fd1e-413e-9772-9048be31d163"},"vehicle_type_id":"4","last_reported":1729843983,"current_range_meters":38800,"station_id":"ce4bgth2rcd13ifvqch0","pricing_plan_id":"cebpf4jnsgd1na2vs0mg"},{"bike_id":"dda8d9a0-b609-4e95-95d8-4c8bccb89b10","system_id":"levelo_inurba_marseille","lat":43.24541,"lon":5.39517,"is_reserved":false,"is_disabled":false,"rental_uris":{"android":"levelo://app?vid=dda8d9a0-b609-4e95-95d8-4c8bccb89b10","ios":"levelo://app?vid=dda8d9a0-b609-4e95-95d8-4c8bccb89b10"},"vehicle_type_id":"4","last_reported":1729843983,"current_range_meters":6400,"station_id":"ce4bhlp2rcd13ifvqgjg","pricing_plan_id":"cebpf4jnsgd1na2vs0mg"},{"bike_id":"b73af2e7-f6f3-4db7-ae08-e1a5d90f3deb","system_id":"levelo_inurba_marseille","lat":43.29273,"lon":5.36844,"is_reserved":false,"is_disabled":false,"rental_uris":{"android":"levelo://app?vid=b73af2e7-f6f3-4db7-ae08-e1a5d90f3deb","ios":"levelo://app?vid=b73af2e7-f6f3-4db7-ae08-e1a5d90f3deb"},"vehicle_type_id":"4","last_reported":1729843983,"current_range_meters":12000,"station_id":"ce4bhbp2rcd13ifvqesg","pricing_plan_id":"cebpf4jnsgd1na2vs0mg"},{"bike_id":"784dd773-f509-4455-843a-8e8b8177e5e1","system_id":"levelo_inurba_marseille","lat":43.31709,"lon":5.37749,"is_reserved":false,"is_disabled":false,"rental_uris":{"android":"levelo://app?vid=784dd773-f509-4455-843a-8e8b8177e5e1","ios":"levelo://app?vid=784dd773-f509-4455-843a-8e8b8177e5e1"},"vehicle_type_id":"4","last_reported":1729843983,"current_range_meters":38800,"station_id":"ce4bgth2rcd13ifvqch0","pricing_plan_id":"cebpf4jnsgd1na2vs0mg"},{"bike_id":"ca621eda-8fdf-40e1-ab27-bd501d98f9ae","system_id":"levelo_inurba_marseille","lat":43.27377,"lon":5.36255,"is_reserved":false,"is_disabled":false,"rental_uris":{"android":"levelo://app?vid=ca621eda-8fdf-40e1-ab27-bd501d98f9ae","ios":"levelo://app?vid=ca621eda-8fdf-40e1-ab27-bd501d98f9ae"},"vehicle_type_id":"4","last_reported":1729843983,"current_range_meters":10800,"station_id":"ce4bhbh2rcd13ifvqeo0","pricing_plan_id":"cebpf4jnsgd1na2vs0mg"},{"bike_id":"b5280a4e-5993-4f8e-83ef-b79f0bc022bd","system_id":"levelo_inurba_marseille","lat":43.24651,"lon":5.38903,"is_reserved":false,"is_disabled":false,"rental_uris":{"android":"levelo://app?vid=b5280a4e-5993-4f8e-83ef-b79f0bc022bd","ios":"levelo://app?vid=b5280a4e-5993-4f8e-83ef-b79f0bc022bd"},"vehicle_type_id":"4","last_reported":1729843983,"current_range_meters":8800,"station_id":"ce4bhg12rcd13ifvqf60","pricing_plan_id":"cebpf4jnsgd1na2vs0mg"},{"bike_id":"c2801143-7c8a-4c78-918c-616d5ed87cfa","system_id":"levelo_inurba_marseille","lat":43.24172,"lon":5.39722,"is_reserved":false,"is_disabled":false,"rental_uris":{"android":"levelo://app?vid=c2801143-7c8a-4c78-918c-616d5ed87cfa","ios":"levelo://app?vid=c2801143-7c8a-4c78-918c-616d5ed87cfa"},"vehicle_type_id":"4","last_reported":1729843983,"current_range_meters":30000,"station_id":"ce4bhn12rcd13ifvqgpg","pricing_plan_id":"cebpf4jnsgd1na2vs0mg"},{"bike_id":"7969dd37-faf1-43ba-9922-f50db8b11586","system_id":"levelo_inurba_marseille","lat":43.32477,"lon":5.36572,"is_reserved":false,"is_disabled":false,"rental_uris":{"android":"levelo://app?vid=7969dd37-faf1-43ba-9922-f50db8b11586","ios":"levelo://app?vid=7969dd37-faf1-43ba-9922-f50db8b11586"},"vehicle_type_id":"4","last_reported":1729843983,"current_range_meters":22400,"station_id":"ce4bhs12rcd13ifvqhvg","pricing_plan_id":"cebpf4jnsgd1na2vs0mg"},{"bike_id":"5c79b554-ab29-4147-a940-04ea81bfab38","system_id":"levelo_inurba_marseille","lat":43.29573,"lon":5.37513,"is_reserved":false,"is_disabled":false,"rental_uris":{"android":"levelo://app?vid=5c79b554-ab29-4147-a940-04ea81bfab38","ios":"levelo://app?vid=5c79b554-ab29-4147-a940-04ea81bfab38"},"vehicle_type_id":"4","last_reported":1729843983,"current_range_meters":6800,"station_id":"ce4bgh92rcd13ifvqb50","pricing_plan_id":"cebpf4jnsgd1na2vs0mg"},{"bike_id":"46e85f9c-1bad-4940-8580-20c0eeba5600","system_id":"levelo_inurba_marseille","lat":43.32341,"lon":5.40624,"is_reserved":false,"is_disabled":false,"rental_uris":{"android":"levelo://app?vid=46e85f9c-1bad-4940-8580-20c0eeba5600","ios":"levelo://app?vid=46e85f9c-1bad-4940-8580-20c0eeba5600"},"vehicle_type_id":"4","last_reported":1729843983,"current_range_meters":37600,"station_id":"ce4bhq92rcd13ifvqhjg","pricing_plan_id":"cebpf4jnsgd1na2vs0mg"},{"bike_id":"ce3eef46-b9e3-41dc-9130-106cb5f09144","system_id":"levelo_inurba_marseille","lat":43.24651,"lon":5.38897,"is_reserved":false,"is_disabled":false,"rental_uris":{"android":"levelo://app?vid=ce3eef46-b9e3-41dc-9130-106cb5f09144","ios":"levelo://app?vid=ce3eef46-b9e3-41dc-9130-106cb5f09144"},"vehicle_type_id":"4","last_reported":1729843983,"current_range_meters":40000,"station_id":"ce4bhg12rcd13ifvqf60","pricing_plan_id":"cebpf4jnsgd1na2vs0mg"},{"bike_id":"d8c777a5-ff2f-4acd-9afb-ab01807654a6","system_id":"levelo_inurba_marseille","lat":43.30894,"lon":5.37202,"is_reserved":false,"is_disabled":false,"rental_uris":{"android":"levelo://app?vid=d8c777a5-ff2f-4acd-9afb-ab01807654a6","ios":"levelo://app?vid=d8c777a5-ff2f-4acd-9afb-ab01807654a6"},"vehicle_type_id":"4","last_reported":1729843983,"current_range_meters":39200,"station_id":"ce4bguh2rcd13ifvqckg","pricing_plan_id":"cebpf4jnsgd1na2vs0mg"},{"bike_id":"1c52b99f-e0af-41fa-bb59-27d3b16691a7","system_id":"levelo_inurba_marseille","lat":43.3133,"lon":5.39693,"is_reserved":false,"is_disabled":false,"rental_uris":{"android":"levelo://app?vid=1c52b99f-e0af-41fa-bb59-27d3b16691a7","ios":"levelo://app?vid=1c52b99f-e0af-41fa-bb59-27d3b16691a7"},"vehicle_type_id":"4","last_reported":1729843983,"current_range_meters":35600,"station_id":"ce4bgvp2rcd13ifvqcu0","pricing_plan_id":"cebpf4jnsgd1na2vs0mg"},{"bike_id":"97ce6431-cdfe-4c86-8575-534875aed7f5","system_id":"levelo_inurba_marseille","lat":43.3053,"lon":5.36659,"is_reserved":false,"is_disabled":false,"rental_uris":{"android":"levelo://app?vid=97ce6431-cdfe-4c86-8575-534875aed7f5","ios":"levelo://app?vid=97ce6431-cdfe-4c86-8575-534875aed7f5"},"vehicle_type_id":"4","last_reported":1729843983,"current_range_meters":3600,"station_id":"","pricing_plan_id":"cebpf4jnsgd1na2vs0mg"},{"bike_id":"f97ebcd7-826c-4a25-b8a0-829766385bfe","system_id":"levelo_inurba_marseille","lat":43.28463,"lon":5.35884,"is_reserved":false,"is_disabled":false,"rental_uris":{"android":"levelo://app?vid=f97ebcd7-826c-4a25-b8a0-829766385bfe","ios":"levelo://app?vid=f97ebcd7-826c-4a25-b8a0-829766385bfe"},"vehicle_type_id":"4","last_reported":1729843983,"current_range_meters":9200,"station_id":"ce4bhah2rcd13ifvqei0","pricing_plan_id":"cebpf4jnsgd1na2vs0mg"},{"bike_id":"ddf1220d-b7b8-47ef-b02e-eb813f8e3275","system_id":"levelo_inurba_marseille","lat":43.30347,"lon":5.4188,"is_reserved":false,"is_disabled":false,"rental_uris":{"android":"levelo://app?vid=ddf1220d-b7b8-47ef-b02e-eb813f8e3275","ios":"levelo://app?vid=ddf1220d-b7b8-47ef-b02e-eb813f8e3275"},"vehicle_type_id":"4","last_reported":1729843983,"current_range_meters":39200,"station_id":"ce4bhop2rcd13ifvqh7g","pricing_plan_id":"cebpf4jnsgd1na2vs0mg"},{"bike_id":"7402b623-c097-44ef-9305-adaad9aacce3","system_id":"levelo_inurba_marseille","lat":43.27818,"lon":5.40716,"is_reserved":false,"is_disabled":false,"rental_uris":{"android":"levelo://app?vid=7402b623-c097-44ef-9305-adaad9aacce3","ios":"levelo://app?vid=7402b623-c097-44ef-9305-adaad9aacce3"},"vehicle_type_id":"4","last_reported":1729843983,"current_range_meters":28800,"station_id":"ce4bhnh2rcd13ifvqgtg","pricing_plan_id":"cebpf4jnsgd1na2vs0mg"},{"bike_id":"334e9050-29c3-43a0-b2bb-4fc7f06bf291","system_id":"levelo_inurba_marseille","lat":43.24647,"lon":5.38897,"is_reserved":false,"is_disabled":false,"rental_uris":{"android":"levelo://app?vid=334e9050-29c3-43a0-b2bb-4fc7f06bf291","ios":"levelo://app?vid=334e9050-29c3-43a0-b2bb-4fc7f06bf291"},"vehicle_type_id":"4","last_reported":1729843983,"current_range_meters":40000,"station_id":"ce4bhg12rcd13ifvqf60","pricing_plan_id":"cebpf4jnsgd1na2vs0mg"},{"bike_id":"ecffdb26-7bb5-47a8-bbf2-a6ea6fbc034d","system_id":"levelo_inurba_marseille","lat":43.33614,"lon":5.41029,"is_reserved":false,"is_disabled":false,"rental_uris":{"android":"levelo://app?vid=ecffdb26-7bb5-47a8-bbf2-a6ea6fbc034d","ios":"levelo://app?vid=ecffdb26-7bb5-47a8-bbf2-a6ea6fbc034d"},"vehicle_type_id":"4","last_reported":1729843983,"current_range_meters":15200,"station_id":"ce4bhqh2rcd13ifvqhmg","pricing_plan_id":"cebpf4jnsgd1na2vs0mg"},{"bike_id":"7d51fd54-c694-4a3e-bc94-a5fdbcb939d6","system_id":"levelo_inurba_marseille","lat":43.29615,"lon":5.37177,"is_reserved":false,"is_disabled":false,"rental_uris":{"android":"levelo://app?vid=7d51fd54-c694-4a3e-bc94-a5fdbcb939d6","ios":"levelo://app?vid=7d51fd54-c694-4a3e-bc94-a5fdbcb939d6"},"vehicle_type_id":"4","last_reported":1729843983,"current_range_meters":38800,"station_id":"ce4bgnh2rcd13ifvqc0g","pricing_plan_id":"cebpf4jnsgd1na2vs0mg"},{"bike_id":"70e1a8a7-658b-4362-8767-c157d871f93b","system_id":"levelo_inurba_marseille","lat":43.22925,"lon":5.35373,"is_reserved":false,"is_disabled":false,"rental_uris":{"android":"levelo://app?vid=70e1a8a7-658b-4362-8767-c157d871f93b","ios":"levelo://app?vid=70e1a8a7-658b-4362-8767-c157d871f93b"},"vehicle_type_id":"4","last_reported":1729843983,"current_range_meters":34800,"station_id":"cpo3532slgdg3j2ikp40","pricing_plan_id":"cebpf4jnsgd1na2vs0mg"},{"bike_id":"c47ee947-2909-41a5-bbe0-603cbb5c8694","system_id":"levelo_inurba_marseille","lat":43.27952,"lon":5.41056,"is_reserved":false,"is_disabled":false,"rental_uris":{"android":"levelo://app?vid=c47ee947-2909-41a5-bbe0-603cbb5c8694","ios":"levelo://app?vid=c47ee947-2909-41a5-bbe0-603cbb5c8694"},"vehicle_type_id":"4","last_reported":1729843983,"current_range_meters":12400,"station_id":"ce4bhnp2rcd13ifvqh0g","pricing_plan_id":"cebpf4jnsgd1na2vs0mg"},{"bike_id":"8486fe9d-9ef0-4e60-ba73-6eb6a17c52a8","system_id":"levelo_inurba_marseille","lat":43.31565,"lon":5.405767,"is_reserved":false,"is_disabled":false,"rental_uris":{"android":"levelo://app?vid=8486fe9d-9ef0-4e60-ba73-6eb6a17c52a8","ios":"levelo://app?vid=8486fe9d-9ef0-4e60-ba73-6eb6a17c52a8"},"vehicle_type_id":"4","last_reported":1729843983,"current_range_meters":9600,"station_id":"","pricing_plan_id":"cebpf4jnsgd1na2vs0mg"},{"bike_id":"172208e9-70cd-4b52-b8b5-db9312e32f6a","system_id":"levelo_inurba_marseille","lat":43.24546,"lon":5.39519,"is_reserved":false,"is_disabled":false,"rental_uris":{"android":"levelo://app?vid=172208e9-70cd-4b52-b8b5-db9312e32f6a","ios":"levelo://app?vid=172208e9-70cd-4b52-b8b5-db9312e32f6a"},"vehicle_type_id":"4","last_reported":1729843983,"current_range_meters":26800,"station_id":"ce4bhlp2rcd13ifvqgjg","pricing_plan_id":"cebpf4jnsgd1na2vs0mg"},{"bike_id":"87245b32-ed6d-4b79-9975-c6a42af40b1e","system_id":"levelo_inurba_marseille","lat":43.23151,"lon":5.43722,"is_reserved":false,"is_disabled":false,"rental_uris":{"android":"levelo://app?vid=87245b32-ed6d-4b79-9975-c6a42af40b1e","ios":"levelo://app?vid=87245b32-ed6d-4b79-9975-c6a42af40b1e"},"vehicle_type_id":"4","last_reported":1729843983,"current_range_meters":13600,"station_id":"ce4bhmp2rcd13ifvqgog","pricing_plan_id":"cebpf4jnsgd1na2vs0mg"},{"bike_id":"222f03e8-7565-49de-b148-fe24b12bb6fe","system_id":"levelo_inurba_marseille","lat":43.27305,"lon":5.39103,"is_reserved":false,"is_disabled":false,"rental_uris":{"android":"levelo://app?vid=222f03e8-7565-49de-b148-fe24b12bb6fe","ios":"levelo://app?vid=222f03e8-7565-49de-b148-fe24b12bb6fe"},"vehicle_type_id":"4","last_reported":1729843983,"current_range_meters":26800,"station_id":"ce4bhgp2rcd13ifvqfe0","pricing_plan_id":"cebpf4jnsgd1na2vs0mg"},{"bike_id":"a9752b58-216a-41dc-9fe3-bbbf8796ecc3","system_id":"levelo_inurba_marseille","lat":43.30602,"lon":5.37223,"is_reserved":false,"is_disabled":false,"rental_uris":{"android":"levelo://app?vid=a9752b58-216a-41dc-9fe3-bbbf8796ecc3","ios":"levelo://app?vid=a9752b58-216a-41dc-9fe3-bbbf8796ecc3"},"vehicle_type_id":"4","last_reported":1729843983,"current_range_meters":25200,"station_id":"ce4bgqh2rcd13ifvqc4g","pricing_plan_id":"cebpf4jnsgd1na2vs0mg"},{"bike_id":"ee968113-210f-419a-bf40-264c1b0a06f8","system_id":"levelo_inurba_marseille","lat":43.25934,"lon":5.40908,"is_reserved":false,"is_disabled":false,"rental_uris":{"android":"levelo://app?vid=ee968113-210f-419a-bf40-264c1b0a06f8","ios":"levelo://app?vid=ee968113-210f-419a-bf40-264c1b0a06f8"},"vehicle_type_id":"4","last_reported":1729843983,"current_range_meters":33600,"station_id":"ce4bhm92rcd13ifvqglg","pricing_plan_id":"cebpf4jnsgd1na2vs0mg"},{"bike_id":"23bb98ea-547c-4cf8-9703-456e5cb2a026","system_id":"levelo_inurba_marseille","lat":43.3056,"lon":5.36554,"is_reserved":false,"is_disabled":false,"rental_uris":{"android":"levelo://app?vid=23bb98ea-547c-4cf8-9703-456e5cb2a026","ios":"levelo://app?vid=23bb98ea-547c-4cf8-9703-456e5cb2a026"},"vehicle_type_id":"4","last_reported":1729843983,"current_range_meters":22400,"station_id":"ce4bgs12rcd13ifvqcag","pricing_plan_id":"cebpf4jnsgd1na2vs0mg"},{"bike_id":"19ce95ff-4cb9-489d-88e8-f0dd6c1bac5d","system_id":"levelo_inurba_marseille","lat":43.24179,"lon":5.39724,"is_reserved":false,"is_disabled":false,"rental_uris":{"android":"levelo://app?vid=19ce95ff-4cb9-489d-88e8-f0dd6c1bac5d","ios":"levelo://app?vid=19ce95ff-4cb9-489d-88e8-f0dd6c1bac5d"},"vehicle_type_id":"4","last_reported":1729843983,"current_range_meters":13600,"station_id":"ce4bhn12rcd13ifvqgpg","pricing_plan_id":"cebpf4jnsgd1na2vs0mg"},{"bike_id":"74d890a1-a86b-4dbd-b58f-e4b579d4c5be","system_id":"levelo_inurba_marseille","lat":43.30946,"lon":5.39044,"is_reserved":false,"is_disabled":false,"rental_uris":{"android":"levelo://app?vid=74d890a1-a86b-4dbd-b58f-e4b579d4c5be","ios":"levelo://app?vid=74d890a1-a86b-4dbd-b58f-e4b579d4c5be"},"vehicle_type_id":"4","last_reported":1729843983,"current_range_meters":34800,"station_id":"ce4bgup2rcd13ifvqco0","pricing_plan_id":"cebpf4jnsgd1na2vs0mg"},{"bike_id":"d372bff0-66f0-4523-be0f-2ba9b8d0ec34","system_id":"levelo_inurba_marseille","lat":43.28459,"lon":5.35889,"is_reserved":false,"is_disabled":false,"rental_uris":{"android":"levelo://app?vid=d372bff0-66f0-4523-be0f-2ba9b8d0ec34","ios":"levelo://app?vid=d372bff0-66f0-4523-be0f-2ba9b8d0ec34"},"vehicle_type_id":"4","last_reported":1729843983,"current_range_meters":10000,"station_id":"ce4bhah2rcd13ifvqei0","pricing_plan_id":"cebpf4jnsgd1na2vs0mg"},{"bike_id":"1fe7a754-88e8-464c-a31c-86bf41ad4349","system_id":"levelo_inurba_marseille","lat":43.30288,"lon":5.37696,"is_reserved":false,"is_disabled":false,"rental_uris":{"android":"levelo://app?vid=1fe7a754-88e8-464c-a31c-86bf41ad4349","ios":"levelo://app?vid=1fe7a754-88e8-464c-a31c-86bf41ad4349"},"vehicle_type_id":"4","last_reported":1729843983,"current_range_meters":22800,"station_id":"ce4bguh2rcd13ifvqcj0","pricing_plan_id":"cebpf4jnsgd1na2vs0mg"},{"bike_id":"67449323-dba1-4f5f-94ad-8d67c84bea65","system_id":"levelo_inurba_marseille","lat":43.2693,"lon":5.40252,"is_reserved":false,"is_disabled":false,"rental_uris":{"android":"levelo://app?vid=67449323-dba1-4f5f-94ad-8d67c84bea65","ios":"levelo://app?vid=67449323-dba1-4f5f-94ad-8d67c84bea65"},"vehicle_type_id":"4","last_reported":1729843983,"current_range_meters":39200,"station_id":"cjm6bp8fraef2m0cb0m0","pricing_plan_id":"cebpf4jnsgd1na2vs0mg"},{"bike_id":"75ee64f1-76d9-4853-8e44-c4621da65cda","system_id":"levelo_inurba_marseille","lat":43.28618,"lon":5.35096,"is_reserved":false,"is_disabled":false,"rental_uris":{"android":"levelo://app?vid=75ee64f1-76d9-4853-8e44-c4621da65cda","ios":"levelo://app?vid=75ee64f1-76d9-4853-8e44-c4621da65cda"},"vehicle_type_id":"4","last_reported":1729843983,"current_range_meters":14000,"station_id":"ce4bhch2rcd13ifvqeug","pricing_plan_id":"cebpf4jnsgd1na2vs0mg"},{"bike_id":"3b01a3bd-a91f-4023-be02-641d14137bd6","system_id":"levelo_inurba_marseille","lat":43.30906,"lon":5.36861,"is_reserved":false,"is_disabled":false,"rental_uris":{"android":"levelo://app?vid=3b01a3bd-a91f-4023-be02-641d14137bd6","ios":"levelo://app?vid=3b01a3bd-a91f-4023-be02-641d14137bd6"},"vehicle_type_id":"4","last_reported":1729843983,"current_range_meters":28000,"station_id":"ce4bgn92rcd13ifvqbvg","pricing_plan_id":"cebpf4jnsgd1na2vs0mg"},{"bike_id":"716b360f-9353-40b4-ad62-c3b53b661c12","system_id":"levelo_inurba_marseille","lat":43.30544,"lon":5.36702,"is_reserved":false,"is_disabled":false,"rental_uris":{"android":"levelo://app?vid=716b360f-9353-40b4-ad62-c3b53b661c12","ios":"levelo://app?vid=716b360f-9353-40b4-ad62-c3b53b661c12"},"vehicle_type_id":"4","last_reported":1729843983,"current_range_meters":39200,"station_id":"ce4bgrp2rcd13ifvqc9g","pricing_plan_id":"cebpf4jnsgd1na2vs0mg"},{"bike_id":"750958e5-063a-4153-bdf2-c1c273a9f7ee","system_id":"levelo_inurba_marseille","lat":43.29363,"lon":5.37837,"is_reserved":false,"is_disabled":false,"rental_uris":{"android":"levelo://app?vid=750958e5-063a-4153-bdf2-c1c273a9f7ee","ios":"levelo://app?vid=750958e5-063a-4153-bdf2-c1c273a9f7ee"},"vehicle_type_id":"4","last_reported":1729843983,"current_range_meters":39200,"station_id":"ce4bgjh2rcd13ifvqbf0","pricing_plan_id":"cebpf4jnsgd1na2vs0mg"},{"bike_id":"baac1178-6264-4714-be4f-30295c956493","system_id":"levelo_inurba_marseille","lat":43.30946,"lon":5.39042,"is_reserved":false,"is_disabled":false,"rental_uris":{"android":"levelo://app?vid=baac1178-6264-4714-be4f-30295c956493","ios":"levelo://app?vid=baac1178-6264-4714-be4f-30295c956493"},"vehicle_type_id":"4","last_reported":1729843983,"current_range_meters":34000,"station_id":"ce4bgup2rcd13ifvqco0","pricing_plan_id":"cebpf4jnsgd1na2vs0mg"},{"bike_id":"dbdfdecd-4397-465b-82a0-666dd88db96f","system_id":"levelo_inurba_marseille","lat":43.26955,"lon":5.38631,"is_reserved":false,"is_disabled":false,"rental_uris":{"android":"levelo://app?vid=dbdfdecd-4397-465b-82a0-666dd88db96f","ios":"levelo://app?vid=dbdfdecd-4397-465b-82a0-666dd88db96f"},"vehicle_type_id":"4","last_reported":1729843983,"current_range_meters":17200,"station_id":"ce4bhh92rcd13ifvqfh0","pricing_plan_id":"cebpf4jnsgd1na2vs0mg"},{"bike_id":"d3bbf7db-dbd7-4c37-82f1-086f96c4acff","system_id":"levelo_inurba_marseille","lat":43.30908,"lon":5.36853,"is_reserved":false,"is_disabled":false,"rental_uris":{"android":"levelo://app?vid=d3bbf7db-dbd7-4c37-82f1-086f96c4acff","ios":"levelo://app?vid=d3bbf7db-dbd7-4c37-82f1-086f96c4acff"},"vehicle_type_id":"4","last_reported":1729843983,"current_range_meters":32000,"station_id":"ce4bgn92rcd13ifvqbvg","pricing_plan_id":"cebpf4jnsgd1na2vs0mg"},{"bike_id":"9435038c-1b3b-43d9-87f4-8e07cec3ad6e","system_id":"levelo_inurba_marseille","lat":43.25492,"lon":5.37653,"is_reserved":false,"is_disabled":false,"rental_uris":{"android":"levelo://app?vid=9435038c-1b3b-43d9-87f4-8e07cec3ad6e","ios":"levelo://app?vid=9435038c-1b3b-43d9-87f4-8e07cec3ad6e"},"vehicle_type_id":"4","last_reported":1729843983,"current_range_meters":38800,"station_id":"ce4bhh12rcd13ifvqff0","pricing_plan_id":"cebpf4jnsgd1na2vs0mg"},{"bike_id":"8a26f61f-b216-43c3-8409-55fc77a1e9bb","system_id":"levelo_inurba_marseille","lat":43.2917,"lon":5.37151,"is_reserved":false,"is_disabled":false,"rental_uris":{"android":"levelo://app?vid=8a26f61f-b216-43c3-8409-55fc77a1e9bb","ios":"levelo://app?vid=8a26f61f-b216-43c3-8409-55fc77a1e9bb"},"vehicle_type_id":"4","last_reported":1729843983,"current_range_meters":8800,"station_id":"ce4bha92rcd13ifvqeh0","pricing_plan_id":"cebpf4jnsgd1na2vs0mg"},{"bike_id":"756da363-02f5-4a19-9127-1187bc762e5b","system_id":"levelo_inurba_marseille","lat":43.30545,"lon":5.36541,"is_reserved":false,"is_disabled":false,"rental_uris":{"android":"levelo://app?vid=756da363-02f5-4a19-9127-1187bc762e5b","ios":"levelo://app?vid=756da363-02f5-4a19-9127-1187bc762e5b"},"vehicle_type_id":"4","last_reported":1729843983,"current_range_meters":32000,"station_id":"ce4bgs12rcd13ifvqcag","pricing_plan_id":"cebpf4jnsgd1na2vs0mg"},{"bike_id":"00b42957-ba39-4786-b155-d1d8e8166b66","system_id":"levelo_inurba_marseille","lat":43.3054,"lon":5.36546,"is_reserved":false,"is_disabled":false,"rental_uris":{"android":"levelo://app?vid=00b42957-ba39-4786-b155-d1d8e8166b66","ios":"levelo://app?vid=00b42957-ba39-4786-b155-d1d8e8166b66"},"vehicle_type_id":"4","last_reported":1729843983,"current_range_meters":38000,"station_id":"ce4bgs12rcd13ifvqcag","pricing_plan_id":"cebpf4jnsgd1na2vs0mg"},{"bike_id":"be8fbca4-3dcd-4e0e-96d2-8c570f59713c","system_id":"levelo_inurba_marseille","lat":43.32486,"lon":5.36571,"is_reserved":false,"is_disabled":false,"rental_uris":{"android":"levelo://app?vid=be8fbca4-3dcd-4e0e-96d2-8c570f59713c","ios":"levelo://app?vid=be8fbca4-3dcd-4e0e-96d2-8c570f59713c"},"vehicle_type_id":"4","last_reported":1729843983,"current_range_meters":20000,"station_id":"ce4bhs12rcd13ifvqhvg","pricing_plan_id":"cebpf4jnsgd1na2vs0mg"},{"bike_id":"24d6d7cd-f94f-4435-a8e4-e866cb1be423","system_id":"levelo_inurba_marseille","lat":43.23148,"lon":5.43726,"is_reserved":false,"is_disabled":false,"rental_uris":{"android":"levelo://app?vid=24d6d7cd-f94f-4435-a8e4-e866cb1be423","ios":"levelo://app?vid=24d6d7cd-f94f-4435-a8e4-e866cb1be423"},"vehicle_type_id":"4","last_reported":1729843983,"current_range_meters":16000,"station_id":"ce4bhmp2rcd13ifvqgog","pricing_plan_id":"cebpf4jnsgd1na2vs0mg"},{"bike_id":"2c83906e-34b2-4de1-a842-6d257980343c","system_id":"levelo_inurba_marseille","lat":43.32352,"lon":5.38883,"is_reserved":false,"is_disabled":false,"rental_uris":{"android":"levelo://app?vid=2c83906e-34b2-4de1-a842-6d257980343c","ios":"levelo://app?vid=2c83906e-34b2-4de1-a842-6d257980343c"},"vehicle_type_id":"4","last_reported":1729843983,"current_range_meters":14000,"station_id":"ce4bhqp2rcd13ifvqhog","pricing_plan_id":"cebpf4jnsgd1na2vs0mg"},{"bike_id":"830195db-82a7-4890-9663-1f161cd50a03","system_id":"levelo_inurba_marseille","lat":43.28485,"lon":5.38547,"is_reserved":false,"is_disabled":false,"rental_uris":{"android":"levelo://app?vid=830195db-82a7-4890-9663-1f161cd50a03","ios":"levelo://app?vid=830195db-82a7-4890-9663-1f161cd50a03"},"vehicle_type_id":"4","last_reported":1729843983,"current_range_meters":27200,"station_id":"ce4bh8p2rcd13ifvqeb0","pricing_plan_id":"cebpf4jnsgd1na2vs0mg"},{"bike_id":"cf28c0ba-748d-4e8a-b8af-61e44f800fb1","system_id":"levelo_inurba_marseille","lat":43.2439,"lon":5.37065,"is_reserved":false,"is_disabled":false,"rental_uris":{"android":"levelo://app?vid=cf28c0ba-748d-4e8a-b8af-61e44f800fb1","ios":"levelo://app?vid=cf28c0ba-748d-4e8a-b8af-61e44f800fb1"},"vehicle_type_id":"4","last_reported":1729843983,"current_range_meters":4800,"station_id":"ce4bhhh2rcd13ifvqfk0","pricing_plan_id":"cebpf4jnsgd1na2vs0mg"},{"bike_id":"34785b7b-54b3-4eac-90dc-5eedcb565b21","system_id":"levelo_inurba_marseille","lat":43.2845,"lon":5.39204,"is_reserved":false,"is_disabled":false,"rental_uris":{"android":"levelo://app?vid=34785b7b-54b3-4eac-90dc-5eedcb565b21","ios":"levelo://app?vid=34785b7b-54b3-4eac-90dc-5eedcb565b21"},"vehicle_type_id":"4","last_reported":1729843983,"current_range_meters":22400,"station_id":"ce4bhoh2rcd13ifvqh5g","pricing_plan_id":"cebpf4jnsgd1na2vs0mg"},{"bike_id":"5c051331-bbff-49af-8bcf-b4862262cfdd","system_id":"levelo_inurba_marseille","lat":43.30183,"lon":5.36629,"is_reserved":false,"is_disabled":false,"rental_uris":{"android":"levelo://app?vid=5c051331-bbff-49af-8bcf-b4862262cfdd","ios":"levelo://app?vid=5c051331-bbff-49af-8bcf-b4862262cfdd"},"vehicle_type_id":"4","last_reported":1729843983,"current_range_meters":30800,"station_id":"ce4bgrh2rcd13ifvqc8g","pricing_plan_id":"cebpf4jnsgd1na2vs0mg"},{"bike_id":"265b1520-2fac-4cac-ad5d-1e76bac410f4","system_id":"levelo_inurba_marseille","lat":43.26553,"lon":5.37287,"is_reserved":false,"is_disabled":false,"rental_uris":{"android":"levelo://app?vid=265b1520-2fac-4cac-ad5d-1e76bac410f4","ios":"levelo://app?vid=265b1520-2fac-4cac-ad5d-1e76bac410f4"},"vehicle_type_id":"4","last_reported":1729843983,"current_range_meters":25600,"station_id":"ce4bhg12rcd13ifvqf70","pricing_plan_id":"cebpf4jnsgd1na2vs0mg"},{"bike_id":"82d8898e-e94c-47af-b02a-d946261e7001","system_id":"levelo_inurba_marseille","lat":43.31709,"lon":5.37764,"is_reserved":false,"is_disabled":false,"rental_uris":{"android":"levelo://app?vid=82d8898e-e94c-47af-b02a-d946261e7001","ios":"levelo://app?vid=82d8898e-e94c-47af-b02a-d946261e7001"},"vehicle_type_id":"4","last_reported":1729843983,"current_range_meters":40000,"station_id":"ce4bgth2rcd13ifvqch0","pricing_plan_id":"cebpf4jnsgd1na2vs0mg"},{"bike_id":"de2bba5d-832f-4f3c-aa7a-e93abb816249","system_id":"levelo_inurba_marseille","lat":43.30535,"lon":5.36549,"is_reserved":false,"is_disabled":false,"rental_uris":{"android":"levelo://app?vid=de2bba5d-832f-4f3c-aa7a-e93abb816249","ios":"levelo://app?vid=de2bba5d-832f-4f3c-aa7a-e93abb816249"},"vehicle_type_id":"4","last_reported":1729843983,"current_range_meters":38800,"station_id":"ce4bgs12rcd13ifvqcag","pricing_plan_id":"cebpf4jnsgd1na2vs0mg"},{"bike_id":"4ad22b9e-ed83-40b4-9252-5f067305ff1a","system_id":"levelo_inurba_marseille","lat":43.27618,"lon":5.36107,"is_reserved":false,"is_disabled":false,"rental_uris":{"android":"levelo://app?vid=4ad22b9e-ed83-40b4-9252-5f067305ff1a","ios":"levelo://app?vid=4ad22b9e-ed83-40b4-9252-5f067305ff1a"},"vehicle_type_id":"4","last_reported":1729843983,"current_range_meters":36400,"station_id":"ce4bgj92rcd13ifvqbe0","pricing_plan_id":"cebpf4jnsgd1na2vs0mg"},{"bike_id":"cdf07d22-898a-4f82-95f6-ff2cd86b2ac7","system_id":"levelo_inurba_marseille","lat":43.2963,"lon":5.37721,"is_reserved":false,"is_disabled":false,"rental_uris":{"android":"levelo://app?vid=cdf07d22-898a-4f82-95f6-ff2cd86b2ac7","ios":"levelo://app?vid=cdf07d22-898a-4f82-95f6-ff2cd86b2ac7"},"vehicle_type_id":"4","last_reported":1729843983,"current_range_meters":19200,"station_id":"ce4bgi92rcd13ifvqb90","pricing_plan_id":"cebpf4jnsgd1na2vs0mg"},{"bike_id":"570ad30c-1480-4e14-a170-85263be9d189","system_id":"levelo_inurba_marseille","lat":43.30192,"lon":5.36634,"is_reserved":false,"is_disabled":false,"rental_uris":{"android":"levelo://app?vid=570ad30c-1480-4e14-a170-85263be9d189","ios":"levelo://app?vid=570ad30c-1480-4e14-a170-85263be9d189"},"vehicle_type_id":"4","last_reported":1729843983,"current_range_meters":38800,"station_id":"ce4bgrh2rcd13ifvqc8g","pricing_plan_id":"cebpf4jnsgd1na2vs0mg"},{"bike_id":"beacce13-cfcb-4737-a324-ad3de89dd7fd","system_id":"levelo_inurba_marseille","lat":43.25002,"lon":5.38922,"is_reserved":false,"is_disabled":false,"rental_uris":{"android":"levelo://app?vid=beacce13-cfcb-4737-a324-ad3de89dd7fd","ios":"levelo://app?vid=beacce13-cfcb-4737-a324-ad3de89dd7fd"},"vehicle_type_id":"4","last_reported":1729843983,"current_range_meters":32400,"station_id":"ce4bhgp2rcd13ifvqfd0","pricing_plan_id":"cebpf4jnsgd1na2vs0mg"},{"bike_id":"a678a84f-0550-4240-b17d-5b7a54ed58a5","system_id":"levelo_inurba_marseille","lat":43.27812,"lon":5.40712,"is_reserved":false,"is_disabled":false,"rental_uris":{"android":"levelo://app?vid=a678a84f-0550-4240-b17d-5b7a54ed58a5","ios":"levelo://app?vid=a678a84f-0550-4240-b17d-5b7a54ed58a5"},"vehicle_type_id":"4","last_reported":1729843983,"current_range_meters":38800,"station_id":"ce4bhnh2rcd13ifvqgtg","pricing_plan_id":"cebpf4jnsgd1na2vs0mg"},{"bike_id":"7a806c42-eaf6-450d-99fc-01cac4d802af","system_id":"levelo_inurba_marseille","lat":43.286133,"lon":5.351014,"is_reserved":false,"is_disabled":false,"rental_uris":{"android":"levelo://app?vid=7a806c42-eaf6-450d-99fc-01cac4d802af","ios":"levelo://app?vid=7a806c42-eaf6-450d-99fc-01cac4d802af"},"vehicle_type_id":"4","last_reported":1729843983,"current_range_meters":26000,"station_id":"ce4bh692rcd13ifvqea0","pricing_plan_id":"cebpf4jnsgd1na2vs0mg"},{"bike_id":"7de315cb-19de-47f3-a9a3-92def6c8cf39","system_id":"levelo_inurba_marseille","lat":43.29257,"lon":5.409,"is_reserved":false,"is_disabled":false,"rental_uris":{"android":"levelo://app?vid=7de315cb-19de-47f3-a9a3-92def6c8cf39","ios":"levelo://app?vid=7de315cb-19de-47f3-a9a3-92def6c8cf39"},"vehicle_type_id":"4","last_reported":1729843983,"current_range_meters":38000,"station_id":"ce4bh192rcd13ifvqdc0","pricing_plan_id":"cebpf4jnsgd1na2vs0mg"},{"bike_id":"47dc4271-d82f-46d3-a4ac-2d0aa82174df","system_id":"levelo_inurba_marseille","lat":43.30555,"lon":5.36549,"is_reserved":false,"is_disabled":false,"rental_uris":{"android":"levelo://app?vid=47dc4271-d82f-46d3-a4ac-2d0aa82174df","ios":"levelo://app?vid=47dc4271-d82f-46d3-a4ac-2d0aa82174df"},"vehicle_type_id":"4","last_reported":1729843983,"current_range_meters":32800,"station_id":"ce4bgs12rcd13ifvqcag","pricing_plan_id":"cebpf4jnsgd1na2vs0mg"},{"bike_id":"b85af3b3-7a60-4c70-a2e1-012a71c6422b","system_id":"levelo_inurba_marseille","lat":43.25932,"lon":5.40916,"is_reserved":false,"is_disabled":false,"rental_uris":{"android":"levelo://app?vid=b85af3b3-7a60-4c70-a2e1-012a71c6422b","ios":"levelo://app?vid=b85af3b3-7a60-4c70-a2e1-012a71c6422b"},"vehicle_type_id":"4","last_reported":1729843983,"current_range_meters":16000,"station_id":"ce4bhm92rcd13ifvqglg","pricing_plan_id":"cebpf4jnsgd1na2vs0mg"},{"bike_id":"f8c6f1bc-ea44-4ab8-b33c-f75f82cb071b","system_id":"levelo_inurba_marseille","lat":43.2319,"lon":5.39984,"is_reserved":false,"is_disabled":false,"rental_uris":{"android":"levelo://app?vid=f8c6f1bc-ea44-4ab8-b33c-f75f82cb071b","ios":"levelo://app?vid=f8c6f1bc-ea44-4ab8-b33c-f75f82cb071b"},"vehicle_type_id":"4","last_reported":1729843983,"current_range_meters":3600,"station_id":"ce4bhn12rcd13ifvqgqg","pricing_plan_id":"cebpf4jnsgd1na2vs0mg"},{"bike_id":"157b85d9-82c7-4dc7-937e-26c44eacdbb4","system_id":"levelo_inurba_marseille","lat":43.30952,"lon":5.39039,"is_reserved":false,"is_disabled":false,"rental_uris":{"android":"levelo://app?vid=157b85d9-82c7-4dc7-937e-26c44eacdbb4","ios":"levelo://app?vid=157b85d9-82c7-4dc7-937e-26c44eacdbb4"},"vehicle_type_id":"4","last_reported":1729843983,"current_range_meters":8000,"station_id":"ce4bgup2rcd13ifvqco0","pricing_plan_id":"cebpf4jnsgd1na2vs0mg"},{"bike_id":"aa0639fd-d9fb-4a56-8b3f-ee43497156b1","system_id":"levelo_inurba_marseille","lat":43.25936,"lon":5.40903,"is_reserved":false,"is_disabled":false,"rental_uris":{"android":"levelo://app?vid=aa0639fd-d9fb-4a56-8b3f-ee43497156b1","ios":"levelo://app?vid=aa0639fd-d9fb-4a56-8b3f-ee43497156b1"},"vehicle_type_id":"4","last_reported":1729843983,"current_range_meters":29600,"station_id":"ce4bhm92rcd13ifvqglg","pricing_plan_id":"cebpf4jnsgd1na2vs0mg"},{"bike_id":"3bf058f4-2b34-4cd0-9eac-aba88f91176d","system_id":"levelo_inurba_marseille","lat":43.26774,"lon":5.39425,"is_reserved":false,"is_disabled":false,"rental_uris":{"android":"levelo://app?vid=3bf058f4-2b34-4cd0-9eac-aba88f91176d","ios":"levelo://app?vid=3bf058f4-2b34-4cd0-9eac-aba88f91176d"},"vehicle_type_id":"4","last_reported":1729843983,"current_range_meters":24400,"station_id":"ce4bhh12rcd13ifvqfg0","pricing_plan_id":"cebpf4jnsgd1na2vs0mg"},{"bike_id":"f1feadf3-19b9-4cee-aa65-79f928bcdddd","system_id":"levelo_inurba_marseille","lat":43.2827,"lon":5.35064,"is_reserved":false,"is_disabled":false,"rental_uris":{"android":"levelo://app?vid=f1feadf3-19b9-4cee-aa65-79f928bcdddd","ios":"levelo://app?vid=f1feadf3-19b9-4cee-aa65-79f928bcdddd"},"vehicle_type_id":"4","last_reported":1729843983,"current_range_meters":20800,"station_id":"ce4bhbp2rcd13ifvqerg","pricing_plan_id":"cebpf4jnsgd1na2vs0mg"},{"bike_id":"108c0296-d49a-4500-a655-9dc6be1eb554","system_id":"levelo_inurba_marseille","lat":43.26948,"lon":5.38634,"is_reserved":false,"is_disabled":false,"rental_uris":{"android":"levelo://app?vid=108c0296-d49a-4500-a655-9dc6be1eb554","ios":"levelo://app?vid=108c0296-d49a-4500-a655-9dc6be1eb554"},"vehicle_type_id":"4","last_reported":1729843983,"current_range_meters":39200,"station_id":"ce4bhh92rcd13ifvqfh0","pricing_plan_id":"cebpf4jnsgd1na2vs0mg"},{"bike_id":"a8fd8402-d8b5-4dd0-aecf-7e3f8f4aab00","system_id":"levelo_inurba_marseille","lat":43.30459,"lon":5.37904,"is_reserved":false,"is_disabled":false,"rental_uris":{"android":"levelo://app?vid=a8fd8402-d8b5-4dd0-aecf-7e3f8f4aab00","ios":"levelo://app?vid=a8fd8402-d8b5-4dd0-aecf-7e3f8f4aab00"},"vehicle_type_id":"4","last_reported":1729843983,"current_range_meters":32800,"station_id":"ce4bgup2rcd13ifvqcn0","pricing_plan_id":"cebpf4jnsgd1na2vs0mg"},{"bike_id":"65811b82-c65d-48fb-98fa-aef2196293c9","system_id":"levelo_inurba_marseille","lat":43.30786,"lon":5.37642,"is_reserved":false,"is_disabled":false,"rental_uris":{"android":"levelo://app?vid=65811b82-c65d-48fb-98fa-aef2196293c9","ios":"levelo://app?vid=65811b82-c65d-48fb-98fa-aef2196293c9"},"vehicle_type_id":"4","last_reported":1729843983,"current_range_meters":4000,"station_id":"ce4bgv92rcd13ifvqcq0","pricing_plan_id":"cebpf4jnsgd1na2vs0mg"},{"bike_id":"f9127f7b-7c52-4997-b73f-3dc75b596a9c","system_id":"levelo_inurba_marseille","lat":43.34142,"lon":5.40899,"is_reserved":false,"is_disabled":false,"rental_uris":{"android":"levelo://app?vid=f9127f7b-7c52-4997-b73f-3dc75b596a9c","ios":"levelo://app?vid=f9127f7b-7c52-4997-b73f-3dc75b596a9c"},"vehicle_type_id":"4","last_reported":1729843983,"current_range_meters":38000,"station_id":"ce4bhqh2rcd13ifvqhlg","pricing_plan_id":"cebpf4jnsgd1na2vs0mg"},{"bike_id":"6e025acd-6aee-471d-9e50-7e0b5ec383c5","system_id":"levelo_inurba_marseille","lat":43.29933,"lon":5.36553,"is_reserved":false,"is_disabled":false,"rental_uris":{"android":"levelo://app?vid=6e025acd-6aee-471d-9e50-7e0b5ec383c5","ios":"levelo://app?vid=6e025acd-6aee-471d-9e50-7e0b5ec383c5"},"vehicle_type_id":"4","last_reported":1729843983,"current_range_meters":38800,"station_id":"ce4bgm92rcd13ifvqbr0","pricing_plan_id":"cebpf4jnsgd1na2vs0mg"},{"bike_id":"e598e1c8-9978-4dc0-9ea8-c0464ecf71b5","system_id":"levelo_inurba_marseille","lat":43.31357,"lon":5.36708,"is_reserved":false,"is_disabled":false,"rental_uris":{"android":"levelo://app?vid=e598e1c8-9978-4dc0-9ea8-c0464ecf71b5","ios":"levelo://app?vid=e598e1c8-9978-4dc0-9ea8-c0464ecf71b5"},"vehicle_type_id":"4","last_reported":1729843983,"current_range_meters":33600,"station_id":"","pricing_plan_id":"cebpf4jnsgd1na2vs0mg"},{"bike_id":"4468208d-a0a9-4302-976f-4b7d3cc8f418","system_id":"levelo_inurba_marseille","lat":43.26205,"lon":5.37931,"is_reserved":false,"is_disabled":false,"rental_uris":{"android":"levelo://app?vid=4468208d-a0a9-4302-976f-4b7d3cc8f418","ios":"levelo://app?vid=4468208d-a0a9-4302-976f-4b7d3cc8f418"},"vehicle_type_id":"4","last_reported":1729843983,"current_range_meters":40000,"station_id":"ce4bhjp2rcd13ifvqg90","pricing_plan_id":"cebpf4jnsgd1na2vs0mg"},{"bike_id":"7ebc9bdb-d16d-4077-bbd0-ac0bc6127ef4","system_id":"levelo_inurba_marseille","lat":43.30546,"lon":5.3671,"is_reserved":false,"is_disabled":false,"rental_uris":{"android":"levelo://app?vid=7ebc9bdb-d16d-4077-bbd0-ac0bc6127ef4","ios":"levelo://app?vid=7ebc9bdb-d16d-4077-bbd0-ac0bc6127ef4"},"vehicle_type_id":"4","last_reported":1729843983,"current_range_meters":18800,"station_id":"ce4bgrp2rcd13ifvqc9g","pricing_plan_id":"cebpf4jnsgd1na2vs0mg"},{"bike_id":"6e2598ac-0fbf-493a-9031-5b061e5ab2d3","system_id":"levelo_inurba_marseille","lat":43.29571,"lon":5.37525,"is_reserved":false,"is_disabled":false,"rental_uris":{"android":"levelo://app?vid=6e2598ac-0fbf-493a-9031-5b061e5ab2d3","ios":"levelo://app?vid=6e2598ac-0fbf-493a-9031-5b061e5ab2d3"},"vehicle_type_id":"4","last_reported":1729843983,"current_range_meters":36000,"station_id":"ce4bgh92rcd13ifvqb50","pricing_plan_id":"cebpf4jnsgd1na2vs0mg"},{"bike_id":"2e343e52-b2cb-4afc-8921-430bab7d5384","system_id":"levelo_inurba_marseille","lat":43.33017,"lon":5.39031,"is_reserved":false,"is_disabled":false,"rental_uris":{"android":"levelo://app?vid=2e343e52-b2cb-4afc-8921-430bab7d5384","ios":"levelo://app?vid=2e343e52-b2cb-4afc-8921-430bab7d5384"},"vehicle_type_id":"4","last_reported":1729843983,"current_range_meters":40000,"station_id":"ce4bhr92rcd13ifvqhrg","pricing_plan_id":"cebpf4jnsgd1na2vs0mg"},{"bike_id":"ec704ecc-fb19-4944-a166-51d2af2a0dbf","system_id":"levelo_inurba_marseille","lat":43.32109,"lon":5.36765,"is_reserved":false,"is_disabled":false,"rental_uris":{"android":"levelo://app?vid=ec704ecc-fb19-4944-a166-51d2af2a0dbf","ios":"levelo://app?vid=ec704ecc-fb19-4944-a166-51d2af2a0dbf"},"vehicle_type_id":"4","last_reported":1729843983,"current_range_meters":16800,"station_id":"ce4bhrh2rcd13ifvqhug","pricing_plan_id":"cebpf4jnsgd1na2vs0mg"},{"bike_id":"f96f2f23-8075-470e-be05-e068fa8b81e8","system_id":"levelo_inurba_marseille","lat":43.28447,"lon":5.3921,"is_reserved":false,"is_disabled":false,"rental_uris":{"android":"levelo://app?vid=f96f2f23-8075-470e-be05-e068fa8b81e8","ios":"levelo://app?vid=f96f2f23-8075-470e-be05-e068fa8b81e8"},"vehicle_type_id":"4","last_reported":1729843983,"current_range_meters":24000,"station_id":"ce4bhoh2rcd13ifvqh5g","pricing_plan_id":"cebpf4jnsgd1na2vs0mg"},{"bike_id":"18295cba-459b-4864-bdc6-9405fe3604b3","system_id":"levelo_inurba_marseille","lat":43.32484,"lon":5.36561,"is_reserved":false,"is_disabled":false,"rental_uris":{"android":"levelo://app?vid=18295cba-459b-4864-bdc6-9405fe3604b3","ios":"levelo://app?vid=18295cba-459b-4864-bdc6-9405fe3604b3"},"vehicle_type_id":"4","last_reported":1729843983,"current_range_meters":30400,"station_id":"ce4bhs12rcd13ifvqhvg","pricing_plan_id":"cebpf4jnsgd1na2vs0mg"},{"bike_id":"cbe83600-d3d4-47cf-a8e7-33e68c43cc90","system_id":"levelo_inurba_marseille","lat":43.26944,"lon":5.38631,"is_reserved":false,"is_disabled":false,"rental_uris":{"android":"levelo://app?vid=cbe83600-d3d4-47cf-a8e7-33e68c43cc90","ios":"levelo://app?vid=cbe83600-d3d4-47cf-a8e7-33e68c43cc90"},"vehicle_type_id":"4","last_reported":1729843983,"current_range_meters":37600,"station_id":"ce4bhh92rcd13ifvqfh0","pricing_plan_id":"cebpf4jnsgd1na2vs0mg"},{"bike_id":"0f3449bb-3bd0-4cfd-88af-5d53ec3e0714","system_id":"levelo_inurba_marseille","lat":43.31314,"lon":5.39718,"is_reserved":false,"is_disabled":false,"rental_uris":{"android":"levelo://app?vid=0f3449bb-3bd0-4cfd-88af-5d53ec3e0714","ios":"levelo://app?vid=0f3449bb-3bd0-4cfd-88af-5d53ec3e0714"},"vehicle_type_id":"4","last_reported":1729843983,"current_range_meters":38800,"station_id":"ce4bgvp2rcd13ifvqcu0","pricing_plan_id":"cebpf4jnsgd1na2vs0mg"},{"bike_id":"2a1e2e86-9935-4b9e-96fe-6f39bbcdc99a","system_id":"levelo_inurba_marseille","lat":43.26567,"lon":5.39012,"is_reserved":false,"is_disabled":false,"rental_uris":{"android":"levelo://app?vid=2a1e2e86-9935-4b9e-96fe-6f39bbcdc99a","ios":"levelo://app?vid=2a1e2e86-9935-4b9e-96fe-6f39bbcdc99a"},"vehicle_type_id":"4","last_reported":1729843983,"current_range_meters":30400,"station_id":"ce4bhe12rcd13ifvqf30","pricing_plan_id":"cebpf4jnsgd1na2vs0mg"},{"bike_id":"e25afe84-1b81-4ad0-89f2-0e3ca3c9dbb7","system_id":"levelo_inurba_marseille","lat":43.30565,"lon":5.36733,"is_reserved":false,"is_disabled":false,"rental_uris":{"android":"levelo://app?vid=e25afe84-1b81-4ad0-89f2-0e3ca3c9dbb7","ios":"levelo://app?vid=e25afe84-1b81-4ad0-89f2-0e3ca3c9dbb7"},"vehicle_type_id":"4","last_reported":1729843983,"current_range_meters":16000,"station_id":"ce4bgrp2rcd13ifvqc9g","pricing_plan_id":"cebpf4jnsgd1na2vs0mg"},{"bike_id":"53e930fa-62fc-4e05-9d90-817344731d2d","system_id":"levelo_inurba_marseille","lat":43.30352,"lon":5.41877,"is_reserved":false,"is_disabled":false,"rental_uris":{"android":"levelo://app?vid=53e930fa-62fc-4e05-9d90-817344731d2d","ios":"levelo://app?vid=53e930fa-62fc-4e05-9d90-817344731d2d"},"vehicle_type_id":"4","last_reported":1729843983,"current_range_meters":24400,"station_id":"ce4bhop2rcd13ifvqh7g","pricing_plan_id":"cebpf4jnsgd1na2vs0mg"},{"bike_id":"f7779137-5a4d-4b1a-84bf-28ae4d6544fc","system_id":"levelo_inurba_marseille","lat":43.3028,"lon":5.37716,"is_reserved":false,"is_disabled":false,"rental_uris":{"android":"levelo://app?vid=f7779137-5a4d-4b1a-84bf-28ae4d6544fc","ios":"levelo://app?vid=f7779137-5a4d-4b1a-84bf-28ae4d6544fc"},"vehicle_type_id":"4","last_reported":1729843983,"current_range_meters":8400,"station_id":"ce4bguh2rcd13ifvqcj0","pricing_plan_id":"cebpf4jnsgd1na2vs0mg"},{"bike_id":"97ec9672-eea4-4d9a-8a25-013f09b65b94","system_id":"levelo_inurba_marseille","lat":43.25576,"lon":5.38235,"is_reserved":false,"is_disabled":false,"rental_uris":{"android":"levelo://app?vid=97ec9672-eea4-4d9a-8a25-013f09b65b94","ios":"levelo://app?vid=97ec9672-eea4-4d9a-8a25-013f09b65b94"},"vehicle_type_id":"4","last_reported":1729843983,"current_range_meters":2000,"station_id":"ce4bhih2rcd13ifvqfs0","pricing_plan_id":"cebpf4jnsgd1na2vs0mg"},{"bike_id":"16950cf5-039d-4ec8-b235-a1b801087934","system_id":"levelo_inurba_marseille","lat":43.25866,"lon":5.39896,"is_reserved":false,"is_disabled":false,"rental_uris":{"android":"levelo://app?vid=16950cf5-039d-4ec8-b235-a1b801087934","ios":"levelo://app?vid=16950cf5-039d-4ec8-b235-a1b801087934"},"vehicle_type_id":"4","last_reported":1729843983,"current_range_meters":34800,"station_id":"ce4bhl92rcd13ifvqghg","pricing_plan_id":"cebpf4jnsgd1na2vs0mg"},{"bike_id":"1c94711f-6e8d-4080-84e2-4aabc2656ca2","system_id":"levelo_inurba_marseille","lat":43.3133,"lon":5.397,"is_reserved":false,"is_disabled":false,"rental_uris":{"android":"levelo://app?vid=1c94711f-6e8d-4080-84e2-4aabc2656ca2","ios":"levelo://app?vid=1c94711f-6e8d-4080-84e2-4aabc2656ca2"},"vehicle_type_id":"4","last_reported":1729843983,"current_range_meters":38000,"station_id":"ce4bgvp2rcd13ifvqcu0","pricing_plan_id":"cebpf4jnsgd1na2vs0mg"},{"bike_id":"7ad008f1-e2ee-4915-a6bf-90f2287f5222","system_id":"levelo_inurba_marseille","lat":43.32482,"lon":5.36557,"is_reserved":false,"is_disabled":false,"rental_uris":{"android":"levelo://app?vid=7ad008f1-e2ee-4915-a6bf-90f2287f5222","ios":"levelo://app?vid=7ad008f1-e2ee-4915-a6bf-90f2287f5222"},"vehicle_type_id":"4","last_reported":1729843983,"current_range_meters":39200,"station_id":"ce4bhs12rcd13ifvqhvg","pricing_plan_id":"cebpf4jnsgd1na2vs0mg"},{"bike_id":"6dc495b7-34c5-4379-aab1-e54f4c9868dd","system_id":"levelo_inurba_marseille","lat":43.33607,"lon":5.41035,"is_reserved":false,"is_disabled":false,"rental_uris":{"android":"levelo://app?vid=6dc495b7-34c5-4379-aab1-e54f4c9868dd","ios":"levelo://app?vid=6dc495b7-34c5-4379-aab1-e54f4c9868dd"},"vehicle_type_id":"4","last_reported":1729843983,"current_range_meters":24400,"station_id":"ce4bhqh2rcd13ifvqhmg","pricing_plan_id":"cebpf4jnsgd1na2vs0mg"},{"bike_id":"27d1e154-2f5b-4d7f-a6f7-25a97d4e7ef0","system_id":"levelo_inurba_marseille","lat":43.30196,"lon":5.36629,"is_reserved":false,"is_disabled":false,"rental_uris":{"android":"levelo://app?vid=27d1e154-2f5b-4d7f-a6f7-25a97d4e7ef0","ios":"levelo://app?vid=27d1e154-2f5b-4d7f-a6f7-25a97d4e7ef0"},"vehicle_type_id":"4","last_reported":1729843983,"current_range_meters":28800,"station_id":"ce4bgrh2rcd13ifvqc8g","pricing_plan_id":"cebpf4jnsgd1na2vs0mg"},{"bike_id":"1f760813-6c17-4d51-8beb-a8484250e39e","system_id":"levelo_inurba_marseille","lat":43.25929,"lon":5.40905,"is_reserved":false,"is_disabled":false,"rental_uris":{"android":"levelo://app?vid=1f760813-6c17-4d51-8beb-a8484250e39e","ios":"levelo://app?vid=1f760813-6c17-4d51-8beb-a8484250e39e"},"vehicle_type_id":"4","last_reported":1729843983,"current_range_meters":18800,"station_id":"ce4bhm92rcd13ifvqglg","pricing_plan_id":"cebpf4jnsgd1na2vs0mg"},{"bike_id":"1658d939-d144-44d0-8b9a-a07ba4fd155e","system_id":"levelo_inurba_marseille","lat":43.30613,"lon":5.37228,"is_reserved":false,"is_disabled":false,"rental_uris":{"android":"levelo://app?vid=1658d939-d144-44d0-8b9a-a07ba4fd155e","ios":"levelo://app?vid=1658d939-d144-44d0-8b9a-a07ba4fd155e"},"vehicle_type_id":"4","last_reported":1729843983,"current_range_meters":18000,"station_id":"ce4bgqh2rcd13ifvqc4g","pricing_plan_id":"cebpf4jnsgd1na2vs0mg"},{"bike_id":"91945423-3c91-4420-b3dc-101ac1ea4834","system_id":"levelo_inurba_marseille","lat":43.2582,"lon":5.39445,"is_reserved":false,"is_disabled":false,"rental_uris":{"android":"levelo://app?vid=91945423-3c91-4420-b3dc-101ac1ea4834","ios":"levelo://app?vid=91945423-3c91-4420-b3dc-101ac1ea4834"},"vehicle_type_id":"4","last_reported":1729843983,"current_range_meters":28400,"station_id":"ce4bhip2rcd13ifvqft0","pricing_plan_id":"cebpf4jnsgd1na2vs0mg"},{"bike_id":"40919d28-c3ca-446d-977e-cb24c985b4d2","system_id":"levelo_inurba_marseille","lat":43.3016,"lon":5.39846,"is_reserved":false,"is_disabled":false,"rental_uris":{"android":"levelo://app?vid=40919d28-c3ca-446d-977e-cb24c985b4d2","ios":"levelo://app?vid=40919d28-c3ca-446d-977e-cb24c985b4d2"},"vehicle_type_id":"4","last_reported":1729843983,"current_range_meters":38000,"station_id":"ce4bh0h2rcd13ifvqd40","pricing_plan_id":"cebpf4jnsgd1na2vs0mg"},{"bike_id":"ea49dcab-794a-4bda-8247-77371dad772a","system_id":"levelo_inurba_marseille","lat":43.30944,"lon":5.39034,"is_reserved":false,"is_disabled":false,"rental_uris":{"android":"levelo://app?vid=ea49dcab-794a-4bda-8247-77371dad772a","ios":"levelo://app?vid=ea49dcab-794a-4bda-8247-77371dad772a"},"vehicle_type_id":"4","last_reported":1729843983,"current_range_meters":15200,"station_id":"ce4bgup2rcd13ifvqco0","pricing_plan_id":"cebpf4jnsgd1na2vs0mg"},{"bike_id":"9c980766-3696-42be-8e1a-d22fb6edb5c5","system_id":"levelo_inurba_marseille","lat":43.30653,"lon":5.38182,"is_reserved":false,"is_disabled":false,"rental_uris":{"android":"levelo://app?vid=9c980766-3696-42be-8e1a-d22fb6edb5c5","ios":"levelo://app?vid=9c980766-3696-42be-8e1a-d22fb6edb5c5"},"vehicle_type_id":"4","last_reported":1729843983,"current_range_meters":24800,"station_id":"","pricing_plan_id":"cebpf4jnsgd1na2vs0mg"},{"bike_id":"e0803e35-923c-49df-a807-1c86fb265270","system_id":"levelo_inurba_marseille","lat":43.25941,"lon":5.40903,"is_reserved":false,"is_disabled":false,"rental_uris":{"android":"levelo://app?vid=e0803e35-923c-49df-a807-1c86fb265270","ios":"levelo://app?vid=e0803e35-923c-49df-a807-1c86fb265270"},"vehicle_type_id":"4","last_reported":1729843983,"current_range_meters":14800,"station_id":"ce4bhm92rcd13ifvqglg","pricing_plan_id":"cebpf4jnsgd1na2vs0mg"},{"bike_id":"6fd4971a-db3f-4826-9ddf-71b29c3b9231","system_id":"levelo_inurba_marseille","lat":43.27805,"lon":5.40725,"is_reserved":false,"is_disabled":false,"rental_uris":{"android":"levelo://app?vid=6fd4971a-db3f-4826-9ddf-71b29c3b9231","ios":"levelo://app?vid=6fd4971a-db3f-4826-9ddf-71b29c3b9231"},"vehicle_type_id":"4","last_reported":1729843983,"current_range_meters":14800,"station_id":"ce4bhnh2rcd13ifvqgtg","pricing_plan_id":"cebpf4jnsgd1na2vs0mg"},{"bike_id":"f9ec36ed-f1e8-4d39-a330-d53d339322cc","system_id":"levelo_inurba_marseille","lat":43.24943,"lon":5.39736,"is_reserved":false,"is_disabled":false,"rental_uris":{"android":"levelo://app?vid=f9ec36ed-f1e8-4d39-a330-d53d339322cc","ios":"levelo://app?vid=f9ec36ed-f1e8-4d39-a330-d53d339322cc"},"vehicle_type_id":"4","last_reported":1729843983,"current_range_meters":18000,"station_id":"","pricing_plan_id":"cebpf4jnsgd1na2vs0mg"},{"bike_id":"52f0e4a5-d535-4f96-b297-18be6815ac33","system_id":"levelo_inurba_marseille","lat":43.33724,"lon":5.39181,"is_reserved":false,"is_disabled":false,"rental_uris":{"android":"levelo://app?vid=52f0e4a5-d535-4f96-b297-18be6815ac33","ios":"levelo://app?vid=52f0e4a5-d535-4f96-b297-18be6815ac33"},"vehicle_type_id":"4","last_reported":1729843983,"current_range_meters":38800,"station_id":"ce4bhr92rcd13ifvqhsg","pricing_plan_id":"cebpf4jnsgd1na2vs0mg"},{"bike_id":"754334dc-7c77-42cd-ae7c-2bd7ea4eeedc","system_id":"levelo_inurba_marseille","lat":43.2509,"lon":5.3951,"is_reserved":false,"is_disabled":false,"rental_uris":{"android":"levelo://app?vid=754334dc-7c77-42cd-ae7c-2bd7ea4eeedc","ios":"levelo://app?vid=754334dc-7c77-42cd-ae7c-2bd7ea4eeedc"},"vehicle_type_id":"4","last_reported":1729843983,"current_range_meters":28000,"station_id":"ce4bhm12rcd13ifvqgkg","pricing_plan_id":"cebpf4jnsgd1na2vs0mg"},{"bike_id":"ddc9d34a-3a18-4656-afac-2c40e00335c6","system_id":"levelo_inurba_marseille","lat":43.26488,"lon":5.39551,"is_reserved":false,"is_disabled":false,"rental_uris":{"android":"levelo://app?vid=ddc9d34a-3a18-4656-afac-2c40e00335c6","ios":"levelo://app?vid=ddc9d34a-3a18-4656-afac-2c40e00335c6"},"vehicle_type_id":"4","last_reported":1729843983,"current_range_meters":8400,"station_id":"ce4bhi12rcd13ifvqfq0","pricing_plan_id":"cebpf4jnsgd1na2vs0mg"},{"bike_id":"8f0f310d-74cb-4740-8fea-a305341675e3","system_id":"levelo_inurba_marseille","lat":43.30663,"lon":5.37201,"is_reserved":false,"is_disabled":false,"rental_uris":{"android":"levelo://app?vid=8f0f310d-74cb-4740-8fea-a305341675e3","ios":"levelo://app?vid=8f0f310d-74cb-4740-8fea-a305341675e3"},"vehicle_type_id":"4","last_reported":1729843983,"current_range_meters":36400,"station_id":"","pricing_plan_id":"cebpf4jnsgd1na2vs0mg"},{"bike_id":"21b771f5-e12c-4d5b-be50-280d4e6da9bd","system_id":"levelo_inurba_marseille","lat":43.26684,"lon":5.38267,"is_reserved":false,"is_disabled":false,"rental_uris":{"android":"levelo://app?vid=21b771f5-e12c-4d5b-be50-280d4e6da9bd","ios":"levelo://app?vid=21b771f5-e12c-4d5b-be50-280d4e6da9bd"},"vehicle_type_id":"4","last_reported":1729843983,"current_range_meters":25600,"station_id":"ce4bhg92rcd13ifvqf90","pricing_plan_id":"cebpf4jnsgd1na2vs0mg"},{"bike_id":"682d4d1d-7338-479d-8da9-84322cdd1122","system_id":"levelo_inurba_marseille","lat":43.309906,"lon":5.379658,"is_reserved":false,"is_disabled":false,"rental_uris":{"android":"levelo://app?vid=682d4d1d-7338-479d-8da9-84322cdd1122","ios":"levelo://app?vid=682d4d1d-7338-479d-8da9-84322cdd1122"},"vehicle_type_id":"4","last_reported":1729843983,"current_range_meters":35600,"station_id":"","pricing_plan_id":"cebpf4jnsgd1na2vs0mg"},{"bike_id":"9547fe9f-7da9-478b-9033-f446ea71bb69","system_id":"levelo_inurba_marseille","lat":43.31076,"lon":5.42437,"is_reserved":false,"is_disabled":false,"rental_uris":{"android":"levelo://app?vid=9547fe9f-7da9-478b-9033-f446ea71bb69","ios":"levelo://app?vid=9547fe9f-7da9-478b-9033-f446ea71bb69"},"vehicle_type_id":"4","last_reported":1729843983,"current_range_meters":37600,"station_id":"ce4bhp92rcd13ifvqhag","pricing_plan_id":"cebpf4jnsgd1na2vs0mg"},{"bike_id":"998825e5-2e6e-4a68-bad6-c8d6020043fe","system_id":"levelo_inurba_marseille","lat":43.27058,"lon":5.40255,"is_reserved":false,"is_disabled":false,"rental_uris":{"android":"levelo://app?vid=998825e5-2e6e-4a68-bad6-c8d6020043fe","ios":"levelo://app?vid=998825e5-2e6e-4a68-bad6-c8d6020043fe"},"vehicle_type_id":"4","last_reported":1729843983,"current_range_meters":27200,"station_id":"ce4bhk92rcd13ifvqgc0","pricing_plan_id":"cebpf4jnsgd1na2vs0mg"},{"bike_id":"fe788d2e-9c7d-4417-b166-c88c2d6a5761","system_id":"levelo_inurba_marseille","lat":43.30466,"lon":5.37908,"is_reserved":false,"is_disabled":false,"rental_uris":{"android":"levelo://app?vid=fe788d2e-9c7d-4417-b166-c88c2d6a5761","ios":"levelo://app?vid=fe788d2e-9c7d-4417-b166-c88c2d6a5761"},"vehicle_type_id":"4","last_reported":1729843983,"current_range_meters":16000,"station_id":"ce4bgup2rcd13ifvqcn0","pricing_plan_id":"cebpf4jnsgd1na2vs0mg"},{"bike_id":"aa2296b3-9e48-4eb8-8736-02ee29db4f53","system_id":"levelo_inurba_marseille","lat":43.30289,"lon":5.37714,"is_reserved":false,"is_disabled":false,"rental_uris":{"android":"levelo://app?vid=aa2296b3-9e48-4eb8-8736-02ee29db4f53","ios":"levelo://app?vid=aa2296b3-9e48-4eb8-8736-02ee29db4f53"},"vehicle_type_id":"4","last_reported":1729843983,"current_range_meters":39200,"station_id":"ce4bguh2rcd13ifvqcj0","pricing_plan_id":"cebpf4jnsgd1na2vs0mg"},{"bike_id":"feda9bc1-b886-4640-ad92-201ddc16513e","system_id":"levelo_inurba_marseille","lat":43.32289,"lon":5.3827,"is_reserved":false,"is_disabled":false,"rental_uris":{"android":"levelo://app?vid=feda9bc1-b886-4640-ad92-201ddc16513e","ios":"levelo://app?vid=feda9bc1-b886-4640-ad92-201ddc16513e"},"vehicle_type_id":"4","last_reported":1729843983,"current_range_meters":40000,"station_id":"ce4bhr12rcd13ifvqhqg","pricing_plan_id":"cebpf4jnsgd1na2vs0mg"},{"bike_id":"a0db3d29-3d1d-4ca6-b459-338d53529492","system_id":"levelo_inurba_marseille","lat":43.29179,"lon":5.39282,"is_reserved":false,"is_disabled":false,"rental_uris":{"android":"levelo://app?vid=a0db3d29-3d1d-4ca6-b459-338d53529492","ios":"levelo://app?vid=a0db3d29-3d1d-4ca6-b459-338d53529492"},"vehicle_type_id":"4","last_reported":1729843983,"current_range_meters":38800,"station_id":"ce4bh192rcd13ifvqdd0","pricing_plan_id":"cebpf4jnsgd1na2vs0mg"},{"bike_id":"6819dfde-cec8-40f8-8dd0-66d3b46554d8","system_id":"levelo_inurba_marseille","lat":43.30949,"lon":5.39025,"is_reserved":false,"is_disabled":false,"rental_uris":{"android":"levelo://app?vid=6819dfde-cec8-40f8-8dd0-66d3b46554d8","ios":"levelo://app?vid=6819dfde-cec8-40f8-8dd0-66d3b46554d8"},"vehicle_type_id":"4","last_reported":1729843983,"current_range_meters":17200,"station_id":"ce4bgup2rcd13ifvqco0","pricing_plan_id":"cebpf4jnsgd1na2vs0mg"},{"bike_id":"efe0b02e-9dcd-4192-8f41-25a0bf494636","system_id":"levelo_inurba_marseille","lat":43.32482,"lon":5.36571,"is_reserved":false,"is_disabled":false,"rental_uris":{"android":"levelo://app?vid=efe0b02e-9dcd-4192-8f41-25a0bf494636","ios":"levelo://app?vid=efe0b02e-9dcd-4192-8f41-25a0bf494636"},"vehicle_type_id":"4","last_reported":1729843983,"current_range_meters":3600,"station_id":"ce4bhs12rcd13ifvqhvg","pricing_plan_id":"cebpf4jnsgd1na2vs0mg"},{"bike_id":"83813a32-8aaa-45b9-93e9-eb6e5eeb7b78","system_id":"levelo_inurba_marseille","lat":43.285014,"lon":5.385379,"is_reserved":false,"is_disabled":false,"rental_uris":{"android":"levelo://app?vid=83813a32-8aaa-45b9-93e9-eb6e5eeb7b78","ios":"levelo://app?vid=83813a32-8aaa-45b9-93e9-eb6e5eeb7b78"},"vehicle_type_id":"4","last_reported":1729843983,"current_range_meters":38800,"station_id":"ce4bh8p2rcd13ifvqeb0","pricing_plan_id":"cebpf4jnsgd1na2vs0mg"},{"bike_id":"a6372292-563d-4771-a01d-bf6771d8264b","system_id":"levelo_inurba_marseille","lat":43.29845,"lon":5.36276,"is_reserved":false,"is_disabled":false,"rental_uris":{"android":"levelo://app?vid=a6372292-563d-4771-a01d-bf6771d8264b","ios":"levelo://app?vid=a6372292-563d-4771-a01d-bf6771d8264b"},"vehicle_type_id":"4","last_reported":1729843983,"current_range_meters":14400,"station_id":"ce4bgpp2rcd13ifvqc3g","pricing_plan_id":"cebpf4jnsgd1na2vs0mg"},{"bike_id":"212337c5-c27c-4ce8-a37e-735a2e6c27ae","system_id":"levelo_inurba_marseille","lat":43.31699,"lon":5.37755,"is_reserved":false,"is_disabled":false,"rental_uris":{"android":"levelo://app?vid=212337c5-c27c-4ce8-a37e-735a2e6c27ae","ios":"levelo://app?vid=212337c5-c27c-4ce8-a37e-735a2e6c27ae"},"vehicle_type_id":"4","last_reported":1729843983,"current_range_meters":38800,"station_id":"ce4bgth2rcd13ifvqch0","pricing_plan_id":"cebpf4jnsgd1na2vs0mg"},{"bike_id":"7a86b841-3807-4574-ba92-5397b4d1c9ad","system_id":"levelo_inurba_marseille","lat":43.308,"lon":5.38149,"is_reserved":false,"is_disabled":false,"rental_uris":{"android":"levelo://app?vid=7a86b841-3807-4574-ba92-5397b4d1c9ad","ios":"levelo://app?vid=7a86b841-3807-4574-ba92-5397b4d1c9ad"},"vehicle_type_id":"4","last_reported":1729843983,"current_range_meters":20000,"station_id":"ce4bgt12rcd13ifvqce0","pricing_plan_id":"cebpf4jnsgd1na2vs0mg"},{"bike_id":"afe5413d-966e-45ad-9f32-8647798e988a","system_id":"levelo_inurba_marseille","lat":43.28656,"lon":5.39464,"is_reserved":false,"is_disabled":false,"rental_uris":{"android":"levelo://app?vid=afe5413d-966e-45ad-9f32-8647798e988a","ios":"levelo://app?vid=afe5413d-966e-45ad-9f32-8647798e988a"},"vehicle_type_id":"4","last_reported":1729843983,"current_range_meters":22000,"station_id":"ce4bh092rcd13ifvqd20","pricing_plan_id":"cebpf4jnsgd1na2vs0mg"},{"bike_id":"100759b9-44b8-4fb4-8d08-e5c88619dbba","system_id":"levelo_inurba_marseille","lat":43.29727,"lon":5.37693,"is_reserved":false,"is_disabled":false,"rental_uris":{"android":"levelo://app?vid=100759b9-44b8-4fb4-8d08-e5c88619dbba","ios":"levelo://app?vid=100759b9-44b8-4fb4-8d08-e5c88619dbba"},"vehicle_type_id":"4","last_reported":1729843983,"current_range_meters":18000,"station_id":"ce4bgkh2rcd13ifvqbl0","pricing_plan_id":"cebpf4jnsgd1na2vs0mg"},{"bike_id":"61eee6fa-5b8e-4081-a763-cb47ff01403e","system_id":"levelo_inurba_marseille","lat":43.3014,"lon":5.37418,"is_reserved":false,"is_disabled":false,"rental_uris":{"android":"levelo://app?vid=61eee6fa-5b8e-4081-a763-cb47ff01403e","ios":"levelo://app?vid=61eee6fa-5b8e-4081-a763-cb47ff01403e"},"vehicle_type_id":"4","last_reported":1729843983,"current_range_meters":25200,"station_id":"ce4bgs92rcd13ifvqcc0","pricing_plan_id":"cebpf4jnsgd1na2vs0mg"},{"bike_id":"cb918de8-bf5a-4285-9c4f-d3504e439317","system_id":"levelo_inurba_marseille","lat":43.30624,"lon":5.37197,"is_reserved":false,"is_disabled":false,"rental_uris":{"android":"levelo://app?vid=cb918de8-bf5a-4285-9c4f-d3504e439317","ios":"levelo://app?vid=cb918de8-bf5a-4285-9c4f-d3504e439317"},"vehicle_type_id":"4","last_reported":1729843983,"current_range_meters":30800,"station_id":"","pricing_plan_id":"cebpf4jnsgd1na2vs0mg"},{"bike_id":"33f3cd12-d731-4635-87bd-d537c8cccff6","system_id":"levelo_inurba_marseille","lat":43.23153,"lon":5.43711,"is_reserved":false,"is_disabled":false,"rental_uris":{"android":"levelo://app?vid=33f3cd12-d731-4635-87bd-d537c8cccff6","ios":"levelo://app?vid=33f3cd12-d731-4635-87bd-d537c8cccff6"},"vehicle_type_id":"4","last_reported":1729843983,"current_range_meters":33200,"station_id":"ce4bhmp2rcd13ifvqgog","pricing_plan_id":"cebpf4jnsgd1na2vs0mg"},{"bike_id":"27f07749-69c9-4079-9dec-2b38276cccb0","system_id":"levelo_inurba_marseille","lat":43.23154,"lon":5.43704,"is_reserved":false,"is_disabled":false,"rental_uris":{"android":"levelo://app?vid=27f07749-69c9-4079-9dec-2b38276cccb0","ios":"levelo://app?vid=27f07749-69c9-4079-9dec-2b38276cccb0"},"vehicle_type_id":"4","last_reported":1729843983,"current_range_meters":39200,"station_id":"ce4bhmp2rcd13ifvqgog","pricing_plan_id":"cebpf4jnsgd1na2vs0mg"},{"bike_id":"7691659f-eea1-4b4d-8db5-2728fcde3a23","system_id":"levelo_inurba_marseille","lat":43.29386,"lon":5.37528,"is_reserved":false,"is_disabled":false,"rental_uris":{"android":"levelo://app?vid=7691659f-eea1-4b4d-8db5-2728fcde3a23","ios":"levelo://app?vid=7691659f-eea1-4b4d-8db5-2728fcde3a23"},"vehicle_type_id":"4","last_reported":1729843983,"current_range_meters":27200,"station_id":"ce4bhr12rcd13ifvqhqg","pricing_plan_id":"cebpf4jnsgd1na2vs0mg"},{"bike_id":"caa84bac-d1bf-430d-b171-2122b116d7b2","system_id":"levelo_inurba_marseille","lat":43.29537,"lon":5.39404,"is_reserved":false,"is_disabled":false,"rental_uris":{"android":"levelo://app?vid=caa84bac-d1bf-430d-b171-2122b116d7b2","ios":"levelo://app?vid=caa84bac-d1bf-430d-b171-2122b116d7b2"},"vehicle_type_id":"4","last_reported":1729843983,"current_range_meters":30800,"station_id":"chh1huq6cuj3fo74tm60","pricing_plan_id":"cebpf4jnsgd1na2vs0mg"},{"bike_id":"2350cb5d-ff21-4b58-b0dc-ebdeffb3d9a8","system_id":"levelo_inurba_marseille","lat":43.33771,"lon":5.37465,"is_reserved":false,"is_disabled":false,"rental_uris":{"android":"levelo://app?vid=2350cb5d-ff21-4b58-b0dc-ebdeffb3d9a8","ios":"levelo://app?vid=2350cb5d-ff21-4b58-b0dc-ebdeffb3d9a8"},"vehicle_type_id":"4","last_reported":1729843983,"current_range_meters":38400,"station_id":"","pricing_plan_id":"cebpf4jnsgd1na2vs0mg"},{"bike_id":"02578664-e44d-44a9-8726-802680ea0dbf","system_id":"levelo_inurba_marseille","lat":43.25089,"lon":5.39521,"is_reserved":false,"is_disabled":false,"rental_uris":{"android":"levelo://app?vid=02578664-e44d-44a9-8726-802680ea0dbf","ios":"levelo://app?vid=02578664-e44d-44a9-8726-802680ea0dbf"},"vehicle_type_id":"4","last_reported":1729843983,"current_range_meters":38000,"station_id":"ce4bhm12rcd13ifvqgkg","pricing_plan_id":"cebpf4jnsgd1na2vs0mg"},{"bike_id":"35cb8c38-e37c-44e0-bb9f-13e05bf29192","system_id":"levelo_inurba_marseille","lat":43.24808,"lon":5.37457,"is_reserved":false,"is_disabled":false,"rental_uris":{"android":"levelo://app?vid=35cb8c38-e37c-44e0-bb9f-13e05bf29192","ios":"levelo://app?vid=35cb8c38-e37c-44e0-bb9f-13e05bf29192"},"vehicle_type_id":"4","last_reported":1729843983,"current_range_meters":30800,"station_id":"ce4bhgh2rcd13ifvqfb0","pricing_plan_id":"cebpf4jnsgd1na2vs0mg"},{"bike_id":"5066a086-1066-40d1-9082-797e2d21a279","system_id":"levelo_inurba_marseille","lat":43.26931,"lon":5.38915,"is_reserved":false,"is_disabled":false,"rental_uris":{"android":"levelo://app?vid=5066a086-1066-40d1-9082-797e2d21a279","ios":"levelo://app?vid=5066a086-1066-40d1-9082-797e2d21a279"},"vehicle_type_id":"4","last_reported":1729843983,"current_range_meters":37600,"station_id":"ce4bhhh2rcd13ifvqfl0","pricing_plan_id":"cebpf4jnsgd1na2vs0mg"},{"bike_id":"f60c9e82-d1ec-4d84-b346-c7732145b9a3","system_id":"levelo_inurba_marseille","lat":43.29304,"lon":5.3718,"is_reserved":false,"is_disabled":false,"rental_uris":{"android":"levelo://app?vid=f60c9e82-d1ec-4d84-b346-c7732145b9a3","ios":"levelo://app?vid=f60c9e82-d1ec-4d84-b346-c7732145b9a3"},"vehicle_type_id":"4","last_reported":1729843983,"current_range_meters":12400,"station_id":"ce4bgh92rcd13ifvqb40","pricing_plan_id":"cebpf4jnsgd1na2vs0mg"},{"bike_id":"7f660910-5c6f-4cea-a6d8-14e4f8ea1e75","system_id":"levelo_inurba_marseille","lat":43.27619,"lon":5.361,"is_reserved":false,"is_disabled":false,"rental_uris":{"android":"levelo://app?vid=7f660910-5c6f-4cea-a6d8-14e4f8ea1e75","ios":"levelo://app?vid=7f660910-5c6f-4cea-a6d8-14e4f8ea1e75"},"vehicle_type_id":"4","last_reported":1729843983,"current_range_meters":29600,"station_id":"ce4bgj92rcd13ifvqbe0","pricing_plan_id":"cebpf4jnsgd1na2vs0mg"},{"bike_id":"f9d1f7fc-cf8f-493b-b3b6-011275ab25ab","system_id":"levelo_inurba_marseille","lat":43.26784,"lon":5.39414,"is_reserved":false,"is_disabled":false,"rental_uris":{"android":"levelo://app?vid=f9d1f7fc-cf8f-493b-b3b6-011275ab25ab","ios":"levelo://app?vid=f9d1f7fc-cf8f-493b-b3b6-011275ab25ab"},"vehicle_type_id":"4","last_reported":1729843983,"current_range_meters":38800,"station_id":"ce4bhh12rcd13ifvqfg0","pricing_plan_id":"cebpf4jnsgd1na2vs0mg"},{"bike_id":"34788d59-8165-467d-9f8f-66b7bf82952d","system_id":"levelo_inurba_marseille","lat":43.25108,"lon":5.40325,"is_reserved":false,"is_disabled":false,"rental_uris":{"android":"levelo://app?vid=34788d59-8165-467d-9f8f-66b7bf82952d","ios":"levelo://app?vid=34788d59-8165-467d-9f8f-66b7bf82952d"},"vehicle_type_id":"4","last_reported":1729843983,"current_range_meters":30400,"station_id":"ce4bhlh2rcd13ifvqgig","pricing_plan_id":"cebpf4jnsgd1na2vs0mg"},{"bike_id":"c006d23a-0d84-499b-b2a1-2452d8146785","system_id":"levelo_inurba_marseille","lat":43.25726,"lon":5.4111,"is_reserved":false,"is_disabled":false,"rental_uris":{"android":"levelo://app?vid=c006d23a-0d84-499b-b2a1-2452d8146785","ios":"levelo://app?vid=c006d23a-0d84-499b-b2a1-2452d8146785"},"vehicle_type_id":"4","last_reported":1729843983,"current_range_meters":10000,"station_id":"ce4bhkp2rcd13ifvqgd0","pricing_plan_id":"cebpf4jnsgd1na2vs0mg"},{"bike_id":"3225153f-a0c4-43c8-aff8-3d937d83550b","system_id":"levelo_inurba_marseille","lat":43.26792,"lon":5.39415,"is_reserved":false,"is_disabled":false,"rental_uris":{"android":"levelo://app?vid=3225153f-a0c4-43c8-aff8-3d937d83550b","ios":"levelo://app?vid=3225153f-a0c4-43c8-aff8-3d937d83550b"},"vehicle_type_id":"4","last_reported":1729843983,"current_range_meters":8800,"station_id":"ce4bhh12rcd13ifvqfg0","pricing_plan_id":"cebpf4jnsgd1na2vs0mg"},{"bike_id":"b2abab08-9a8a-41c3-9da9-725fbf5fc847","system_id":"levelo_inurba_marseille","lat":43.25002,"lon":5.38925,"is_reserved":false,"is_disabled":false,"rental_uris":{"android":"levelo://app?vid=b2abab08-9a8a-41c3-9da9-725fbf5fc847","ios":"levelo://app?vid=b2abab08-9a8a-41c3-9da9-725fbf5fc847"},"vehicle_type_id":"4","last_reported":1729843983,"current_range_meters":35600,"station_id":"ce4bhgp2rcd13ifvqfd0","pricing_plan_id":"cebpf4jnsgd1na2vs0mg"},{"bike_id":"c6677351-24ed-4edc-aec3-7cbd58e2c77c","system_id":"levelo_inurba_marseille","lat":43.26476,"lon":5.39556,"is_reserved":false,"is_disabled":false,"rental_uris":{"android":"levelo://app?vid=c6677351-24ed-4edc-aec3-7cbd58e2c77c","ios":"levelo://app?vid=c6677351-24ed-4edc-aec3-7cbd58e2c77c"},"vehicle_type_id":"4","last_reported":1729843983,"current_range_meters":8000,"station_id":"ce4bhi12rcd13ifvqfq0","pricing_plan_id":"cebpf4jnsgd1na2vs0mg"},{"bike_id":"5339a15c-798e-47b4-8300-6aa7618c01f6","system_id":"levelo_inurba_marseille","lat":43.29372,"lon":5.37852,"is_reserved":false,"is_disabled":false,"rental_uris":{"android":"levelo://app?vid=5339a15c-798e-47b4-8300-6aa7618c01f6","ios":"levelo://app?vid=5339a15c-798e-47b4-8300-6aa7618c01f6"},"vehicle_type_id":"4","last_reported":1729843983,"current_range_meters":9200,"station_id":"ce4bgjh2rcd13ifvqbf0","pricing_plan_id":"cebpf4jnsgd1na2vs0mg"},{"bike_id":"66f020ae-5526-4ad0-8af9-6a968240ac52","system_id":"levelo_inurba_marseille","lat":43.32481,"lon":5.3657,"is_reserved":false,"is_disabled":false,"rental_uris":{"android":"levelo://app?vid=66f020ae-5526-4ad0-8af9-6a968240ac52","ios":"levelo://app?vid=66f020ae-5526-4ad0-8af9-6a968240ac52"},"vehicle_type_id":"4","last_reported":1729843983,"current_range_meters":38400,"station_id":"ce4bhs12rcd13ifvqhvg","pricing_plan_id":"cebpf4jnsgd1na2vs0mg"},{"bike_id":"6e490ada-941f-4a47-b70c-faae73b36f3c","system_id":"levelo_inurba_marseille","lat":43.24068,"lon":5.37757,"is_reserved":false,"is_disabled":false,"rental_uris":{"android":"levelo://app?vid=6e490ada-941f-4a47-b70c-faae73b36f3c","ios":"levelo://app?vid=6e490ada-941f-4a47-b70c-faae73b36f3c"},"vehicle_type_id":"4","last_reported":1729843983,"current_range_meters":28400,"station_id":"ce4bhnp2rcd13ifvqgvg","pricing_plan_id":"cebpf4jnsgd1na2vs0mg"},{"bike_id":"35e94745-dd9f-4662-a974-ea234f010053","system_id":"levelo_inurba_marseille","lat":43.31359,"lon":5.367,"is_reserved":false,"is_disabled":false,"rental_uris":{"android":"levelo://app?vid=35e94745-dd9f-4662-a974-ea234f010053","ios":"levelo://app?vid=35e94745-dd9f-4662-a974-ea234f010053"},"vehicle_type_id":"4","last_reported":1729843983,"current_range_meters":38800,"station_id":"ce4bgr92rcd13ifvqc6g","pricing_plan_id":"cebpf4jnsgd1na2vs0mg"},{"bike_id":"97ec344c-b798-43c2-b569-284527c7dc58","system_id":"levelo_inurba_marseille","lat":43.32488,"lon":5.36499,"is_reserved":false,"is_disabled":false,"rental_uris":{"android":"levelo://app?vid=97ec344c-b798-43c2-b569-284527c7dc58","ios":"levelo://app?vid=97ec344c-b798-43c2-b569-284527c7dc58"},"vehicle_type_id":"4","last_reported":1729843983,"current_range_meters":4000,"station_id":"ce4bhs12rcd13ifvqhvg","pricing_plan_id":"cebpf4jnsgd1na2vs0mg"},{"bike_id":"1974fe5b-0655-4267-b118-61cf8dcb3b32","system_id":"levelo_inurba_marseille","lat":43.25935,"lon":5.4091,"is_reserved":false,"is_disabled":false,"rental_uris":{"android":"levelo://app?vid=1974fe5b-0655-4267-b118-61cf8dcb3b32","ios":"levelo://app?vid=1974fe5b-0655-4267-b118-61cf8dcb3b32"},"vehicle_type_id":"4","last_reported":1729843983,"current_range_meters":16000,"station_id":"ce4bhm92rcd13ifvqglg","pricing_plan_id":"cebpf4jnsgd1na2vs0mg"},{"bike_id":"a15a0349-96ed-41fb-be35-fc59353476a5","system_id":"levelo_inurba_marseille","lat":43.32043,"lon":5.41551,"is_reserved":false,"is_disabled":false,"rental_uris":{"android":"levelo://app?vid=a15a0349-96ed-41fb-be35-fc59353476a5","ios":"levelo://app?vid=a15a0349-96ed-41fb-be35-fc59353476a5"},"vehicle_type_id":"4","last_reported":1729843983,"current_range_meters":22800,"station_id":"ce4bhq92rcd13ifvqhkg","pricing_plan_id":"cebpf4jnsgd1na2vs0mg"},{"bike_id":"32d951ce-637b-449a-9060-a9ae5b9c31fa","system_id":"levelo_inurba_marseille","lat":43.295319,"lon":5.390514,"is_reserved":false,"is_disabled":false,"rental_uris":{"android":"levelo://app?vid=32d951ce-637b-449a-9060-a9ae5b9c31fa","ios":"levelo://app?vid=32d951ce-637b-449a-9060-a9ae5b9c31fa"},"vehicle_type_id":"4","last_reported":1729843983,"current_range_meters":8800,"station_id":"ce4bh3p2rcd13ifvqdp0","pricing_plan_id":"cebpf4jnsgd1na2vs0mg"},{"bike_id":"acbfb634-9458-4521-8d39-79b36fc061b2","system_id":"levelo_inurba_marseille","lat":43.31713,"lon":5.43704,"is_reserved":false,"is_disabled":false,"rental_uris":{"android":"levelo://app?vid=acbfb634-9458-4521-8d39-79b36fc061b2","ios":"levelo://app?vid=acbfb634-9458-4521-8d39-79b36fc061b2"},"vehicle_type_id":"4","last_reported":1729843983,"current_range_meters":38400,"station_id":"ce4bhp92rcd13ifvqhcg","pricing_plan_id":"cebpf4jnsgd1na2vs0mg"},{"bike_id":"a18daa1b-bdb9-433a-add6-e3b82e182063","system_id":"levelo_inurba_marseille","lat":43.29764,"lon":5.3711,"is_reserved":false,"is_disabled":false,"rental_uris":{"android":"levelo://app?vid=a18daa1b-bdb9-433a-add6-e3b82e182063","ios":"levelo://app?vid=a18daa1b-bdb9-433a-add6-e3b82e182063"},"vehicle_type_id":"4","last_reported":1729843983,"current_range_meters":24800,"station_id":"ce4bgop2rcd13ifvqc1g","pricing_plan_id":"cebpf4jnsgd1na2vs0mg"},{"bike_id":"86edebb0-a452-4519-8985-db568b9817e6","system_id":"levelo_inurba_marseille","lat":43.27315,"lon":5.391,"is_reserved":false,"is_disabled":false,"rental_uris":{"android":"levelo://app?vid=86edebb0-a452-4519-8985-db568b9817e6","ios":"levelo://app?vid=86edebb0-a452-4519-8985-db568b9817e6"},"vehicle_type_id":"4","last_reported":1729843983,"current_range_meters":28800,"station_id":"ce4bhgp2rcd13ifvqfe0","pricing_plan_id":"cebpf4jnsgd1na2vs0mg"},{"bike_id":"8b59008c-4ef8-4665-8bee-7b4d420c2bba","system_id":"levelo_inurba_marseille","lat":43.30297,"lon":5.3687,"is_reserved":false,"is_disabled":false,"rental_uris":{"android":"levelo://app?vid=8b59008c-4ef8-4665-8bee-7b4d420c2bba","ios":"levelo://app?vid=8b59008c-4ef8-4665-8bee-7b4d420c2bba"},"vehicle_type_id":"4","last_reported":1729843983,"current_range_meters":36400,"station_id":"ce4bgqh2rcd13ifvqc5g","pricing_plan_id":"cebpf4jnsgd1na2vs0mg"},{"bike_id":"6fcb2428-d68a-4a7c-bcdc-0d507d962a65","system_id":"levelo_inurba_marseille","lat":43.245825,"lon":5.392529,"is_reserved":false,"is_disabled":false,"rental_uris":{"android":"levelo://app?vid=6fcb2428-d68a-4a7c-bcdc-0d507d962a65","ios":"levelo://app?vid=6fcb2428-d68a-4a7c-bcdc-0d507d962a65"},"vehicle_type_id":"4","last_reported":1729843983,"current_range_meters":11600,"station_id":"ce4bhlp2rcd13ifvqgjg","pricing_plan_id":"cebpf4jnsgd1na2vs0mg"},{"bike_id":"0bc90dc2-cf8c-457e-a6aa-9b91de95f992","system_id":"levelo_inurba_marseille","lat":43.2275,"lon":5.41585,"is_reserved":false,"is_disabled":false,"rental_uris":{"android":"levelo://app?vid=0bc90dc2-cf8c-457e-a6aa-9b91de95f992","ios":"levelo://app?vid=0bc90dc2-cf8c-457e-a6aa-9b91de95f992"},"vehicle_type_id":"4","last_reported":1729843983,"current_range_meters":28800,"station_id":"","pricing_plan_id":"cebpf4jnsgd1na2vs0mg"},{"bike_id":"d51e70e3-e500-4ad8-afdb-77e572148b3c","system_id":"levelo_inurba_marseille","lat":43.302803,"lon":5.37702,"is_reserved":false,"is_disabled":false,"rental_uris":{"android":"levelo://app?vid=d51e70e3-e500-4ad8-afdb-77e572148b3c","ios":"levelo://app?vid=d51e70e3-e500-4ad8-afdb-77e572148b3c"},"vehicle_type_id":"4","last_reported":1729843983,"current_range_meters":38400,"station_id":"ce4bguh2rcd13ifvqcj0","pricing_plan_id":"cebpf4jnsgd1na2vs0mg"},{"bike_id":"1597b8e6-31eb-4548-8e5c-0054dbf577c4","system_id":"levelo_inurba_marseille","lat":43.29636,"lon":5.40596,"is_reserved":false,"is_disabled":false,"rental_uris":{"android":"levelo://app?vid=1597b8e6-31eb-4548-8e5c-0054dbf577c4","ios":"levelo://app?vid=1597b8e6-31eb-4548-8e5c-0054dbf577c4"},"vehicle_type_id":"4","last_reported":1729843983,"current_range_meters":28000,"station_id":"ce4bh0h2rcd13ifvqd60","pricing_plan_id":"cebpf4jnsgd1na2vs0mg"},{"bike_id":"28709b84-b83d-46ed-8adb-237970d4384b","system_id":"levelo_inurba_marseille","lat":43.3236,"lon":5.3887,"is_reserved":false,"is_disabled":false,"rental_uris":{"android":"levelo://app?vid=28709b84-b83d-46ed-8adb-237970d4384b","ios":"levelo://app?vid=28709b84-b83d-46ed-8adb-237970d4384b"},"vehicle_type_id":"4","last_reported":1729843983,"current_range_meters":28000,"station_id":"ce4bhqp2rcd13ifvqhog","pricing_plan_id":"cebpf4jnsgd1na2vs0mg"},{"bike_id":"68de667e-134c-4385-ab76-510b0aa21c20","system_id":"levelo_inurba_marseille","lat":43.2593,"lon":5.40902,"is_reserved":false,"is_disabled":false,"rental_uris":{"android":"levelo://app?vid=68de667e-134c-4385-ab76-510b0aa21c20","ios":"levelo://app?vid=68de667e-134c-4385-ab76-510b0aa21c20"},"vehicle_type_id":"4","last_reported":1729843983,"current_range_meters":27600,"station_id":"ce4bhm92rcd13ifvqglg","pricing_plan_id":"cebpf4jnsgd1na2vs0mg"},{"bike_id":"106ffd58-5ff3-4239-b573-ce3a7d8e7a52","system_id":"levelo_inurba_marseille","lat":43.30546,"lon":5.36554,"is_reserved":false,"is_disabled":false,"rental_uris":{"android":"levelo://app?vid=106ffd58-5ff3-4239-b573-ce3a7d8e7a52","ios":"levelo://app?vid=106ffd58-5ff3-4239-b573-ce3a7d8e7a52"},"vehicle_type_id":"4","last_reported":1729843983,"current_range_meters":33600,"station_id":"ce4bgs12rcd13ifvqcag","pricing_plan_id":"cebpf4jnsgd1na2vs0mg"},{"bike_id":"ce42fb7a-0448-4758-8a74-e9e6ef4991ec","system_id":"levelo_inurba_marseille","lat":43.30355,"lon":5.41877,"is_reserved":false,"is_disabled":false,"rental_uris":{"android":"levelo://app?vid=ce42fb7a-0448-4758-8a74-e9e6ef4991ec","ios":"levelo://app?vid=ce42fb7a-0448-4758-8a74-e9e6ef4991ec"},"vehicle_type_id":"4","last_reported":1729843983,"current_range_meters":39200,"station_id":"ce4bhop2rcd13ifvqh7g","pricing_plan_id":"cebpf4jnsgd1na2vs0mg"},{"bike_id":"b56e21ab-14c0-4c6c-af8d-b6c5222088d4","system_id":"levelo_inurba_marseille","lat":43.27818,"lon":5.40724,"is_reserved":false,"is_disabled":false,"rental_uris":{"android":"levelo://app?vid=b56e21ab-14c0-4c6c-af8d-b6c5222088d4","ios":"levelo://app?vid=b56e21ab-14c0-4c6c-af8d-b6c5222088d4"},"vehicle_type_id":"4","last_reported":1729843983,"current_range_meters":30000,"station_id":"ce4bhnh2rcd13ifvqgtg","pricing_plan_id":"cebpf4jnsgd1na2vs0mg"},{"bike_id":"6cb7bb14-cfa6-4d01-855f-4627ef290e5d","system_id":"levelo_inurba_marseille","lat":43.289368,"lon":5.396313,"is_reserved":false,"is_disabled":false,"rental_uris":{"android":"levelo://app?vid=6cb7bb14-cfa6-4d01-855f-4627ef290e5d","ios":"levelo://app?vid=6cb7bb14-cfa6-4d01-855f-4627ef290e5d"},"vehicle_type_id":"4","last_reported":1729843983,"current_range_meters":31200,"station_id":"ce4bh3h2rcd13ifvqdn0","pricing_plan_id":"cebpf4jnsgd1na2vs0mg"},{"bike_id":"190b49ac-2174-4a94-a43b-6781438b16a5","system_id":"levelo_inurba_marseille","lat":43.26034,"lon":5.37543,"is_reserved":false,"is_disabled":false,"rental_uris":{"android":"levelo://app?vid=190b49ac-2174-4a94-a43b-6781438b16a5","ios":"levelo://app?vid=190b49ac-2174-4a94-a43b-6781438b16a5"},"vehicle_type_id":"4","last_reported":1729843983,"current_range_meters":39200,"station_id":"ce4bhgh2rcd13ifvqfa0","pricing_plan_id":"cebpf4jnsgd1na2vs0mg"},{"bike_id":"467bfdb6-1722-469c-9a5e-479cb9b4e1b6","system_id":"levelo_inurba_marseille","lat":43.26686,"lon":5.38274,"is_reserved":false,"is_disabled":false,"rental_uris":{"android":"levelo://app?vid=467bfdb6-1722-469c-9a5e-479cb9b4e1b6","ios":"levelo://app?vid=467bfdb6-1722-469c-9a5e-479cb9b4e1b6"},"vehicle_type_id":"4","last_reported":1729843983,"current_range_meters":25200,"station_id":"ce4bhg92rcd13ifvqf90","pricing_plan_id":"cebpf4jnsgd1na2vs0mg"},{"bike_id":"17ad3bb5-ab52-4c02-a2a4-2d9bb28cbe53","system_id":"levelo_inurba_marseille","lat":43.27812,"lon":5.40708,"is_reserved":false,"is_disabled":false,"rental_uris":{"android":"levelo://app?vid=17ad3bb5-ab52-4c02-a2a4-2d9bb28cbe53","ios":"levelo://app?vid=17ad3bb5-ab52-4c02-a2a4-2d9bb28cbe53"},"vehicle_type_id":"4","last_reported":1729843983,"current_range_meters":38800,"station_id":"ce4bhnh2rcd13ifvqgtg","pricing_plan_id":"cebpf4jnsgd1na2vs0mg"},{"bike_id":"c5aae637-d056-4d52-bb68-0734243147b2","system_id":"levelo_inurba_marseille","lat":43.29604,"lon":5.38112,"is_reserved":false,"is_disabled":false,"rental_uris":{"android":"levelo://app?vid=c5aae637-d056-4d52-bb68-0734243147b2","ios":"levelo://app?vid=c5aae637-d056-4d52-bb68-0734243147b2"},"vehicle_type_id":"4","last_reported":1729843983,"current_range_meters":36400,"station_id":"ce4bgl12rcd13ifvqbo0","pricing_plan_id":"cebpf4jnsgd1na2vs0mg"},{"bike_id":"e2959369-56e3-468a-bf79-a332235fca81","system_id":"levelo_inurba_marseille","lat":43.30466,"lon":5.37907,"is_reserved":false,"is_disabled":false,"rental_uris":{"android":"levelo://app?vid=e2959369-56e3-468a-bf79-a332235fca81","ios":"levelo://app?vid=e2959369-56e3-468a-bf79-a332235fca81"},"vehicle_type_id":"4","last_reported":1729843983,"current_range_meters":38400,"station_id":"ce4bgup2rcd13ifvqcn0","pricing_plan_id":"cebpf4jnsgd1na2vs0mg"},{"bike_id":"36856ec2-b80b-4ae8-abff-10088c18f7e8","system_id":"levelo_inurba_marseille","lat":43.24159,"lon":5.36404,"is_reserved":false,"is_disabled":false,"rental_uris":{"android":"levelo://app?vid=36856ec2-b80b-4ae8-abff-10088c18f7e8","ios":"levelo://app?vid=36856ec2-b80b-4ae8-abff-10088c18f7e8"},"vehicle_type_id":"4","last_reported":1729843983,"current_range_meters":37600,"station_id":"cpo36qri1sfpv3e86is0","pricing_plan_id":"cebpf4jnsgd1na2vs0mg"},{"bike_id":"d2b4a30c-fa04-4d83-8504-421bcece3b1e","system_id":"levelo_inurba_marseille","lat":43.3089,"lon":5.37206,"is_reserved":false,"is_disabled":false,"rental_uris":{"android":"levelo://app?vid=d2b4a30c-fa04-4d83-8504-421bcece3b1e","ios":"levelo://app?vid=d2b4a30c-fa04-4d83-8504-421bcece3b1e"},"vehicle_type_id":"4","last_reported":1729843983,"current_range_meters":28400,"station_id":"ce4bguh2rcd13ifvqckg","pricing_plan_id":"cebpf4jnsgd1na2vs0mg"},{"bike_id":"bd995abb-12e7-47a6-b0b9-e1f25439576a","system_id":"levelo_inurba_marseille","lat":43.24998,"lon":5.38924,"is_reserved":false,"is_disabled":false,"rental_uris":{"android":"levelo://app?vid=bd995abb-12e7-47a6-b0b9-e1f25439576a","ios":"levelo://app?vid=bd995abb-12e7-47a6-b0b9-e1f25439576a"},"vehicle_type_id":"4","last_reported":1729843983,"current_range_meters":40000,"station_id":"ce4bhgp2rcd13ifvqfd0","pricing_plan_id":"cebpf4jnsgd1na2vs0mg"},{"bike_id":"0cbc4cd9-2893-4f16-b74a-94bf63a59069","system_id":"levelo_inurba_marseille","lat":43.3054,"lon":5.36541,"is_reserved":false,"is_disabled":false,"rental_uris":{"android":"levelo://app?vid=0cbc4cd9-2893-4f16-b74a-94bf63a59069","ios":"levelo://app?vid=0cbc4cd9-2893-4f16-b74a-94bf63a59069"},"vehicle_type_id":"4","last_reported":1729843983,"current_range_meters":26000,"station_id":"ce4bgs12rcd13ifvqcag","pricing_plan_id":"cebpf4jnsgd1na2vs0mg"},{"bike_id":"fbfac620-b382-42c4-bf17-b935124b96ca","system_id":"levelo_inurba_marseille","lat":43.26954,"lon":5.3863,"is_reserved":false,"is_disabled":false,"rental_uris":{"android":"levelo://app?vid=fbfac620-b382-42c4-bf17-b935124b96ca","ios":"levelo://app?vid=fbfac620-b382-42c4-bf17-b935124b96ca"},"vehicle_type_id":"4","last_reported":1729843983,"current_range_meters":34800,"station_id":"ce4bhh92rcd13ifvqfh0","pricing_plan_id":"cebpf4jnsgd1na2vs0mg"},{"bike_id":"031c5151-6166-4e35-88c9-9b4ea040f799","system_id":"levelo_inurba_marseille","lat":43.308,"lon":5.3815,"is_reserved":false,"is_disabled":false,"rental_uris":{"android":"levelo://app?vid=031c5151-6166-4e35-88c9-9b4ea040f799","ios":"levelo://app?vid=031c5151-6166-4e35-88c9-9b4ea040f799"},"vehicle_type_id":"4","last_reported":1729843983,"current_range_meters":38800,"station_id":"ce4bgt12rcd13ifvqce0","pricing_plan_id":"cebpf4jnsgd1na2vs0mg"},{"bike_id":"2381df3a-d355-4ff9-b588-78de0fa38e7c","system_id":"levelo_inurba_marseille","lat":43.28492,"lon":5.38566,"is_reserved":false,"is_disabled":false,"rental_uris":{"android":"levelo://app?vid=2381df3a-d355-4ff9-b588-78de0fa38e7c","ios":"levelo://app?vid=2381df3a-d355-4ff9-b588-78de0fa38e7c"},"vehicle_type_id":"4","last_reported":1729843983,"current_range_meters":36800,"station_id":"ce4bh8p2rcd13ifvqeb0","pricing_plan_id":"cebpf4jnsgd1na2vs0mg"},{"bike_id":"b9bf05f0-67da-4cde-b48f-f7491de1db7c","system_id":"levelo_inurba_marseille","lat":43.31367,"lon":5.38492,"is_reserved":false,"is_disabled":false,"rental_uris":{"android":"levelo://app?vid=b9bf05f0-67da-4cde-b48f-f7491de1db7c","ios":"levelo://app?vid=b9bf05f0-67da-4cde-b48f-f7491de1db7c"},"vehicle_type_id":"4","last_reported":1729843983,"current_range_meters":37600,"station_id":"ce4bgt92rcd13ifvqcf0","pricing_plan_id":"cebpf4jnsgd1na2vs0mg"},{"bike_id":"584a7ba5-3fb1-441c-b781-f40edc3a5cc5","system_id":"levelo_inurba_marseille","lat":43.24179,"lon":5.39731,"is_reserved":false,"is_disabled":false,"rental_uris":{"android":"levelo://app?vid=584a7ba5-3fb1-441c-b781-f40edc3a5cc5","ios":"levelo://app?vid=584a7ba5-3fb1-441c-b781-f40edc3a5cc5"},"vehicle_type_id":"4","last_reported":1729843983,"current_range_meters":28000,"station_id":"ce4bhn12rcd13ifvqgpg","pricing_plan_id":"cebpf4jnsgd1na2vs0mg"},{"bike_id":"ce770b54-44c4-4678-8c4a-ee271f30dc45","system_id":"levelo_inurba_marseille","lat":43.31174,"lon":5.38724,"is_reserved":false,"is_disabled":false,"rental_uris":{"android":"levelo://app?vid=ce770b54-44c4-4678-8c4a-ee271f30dc45","ios":"levelo://app?vid=ce770b54-44c4-4678-8c4a-ee271f30dc45"},"vehicle_type_id":"4","last_reported":1729843983,"current_range_meters":38400,"station_id":"ce4bgv12rcd13ifvqcp0","pricing_plan_id":"cebpf4jnsgd1na2vs0mg"},{"bike_id":"365a5e76-e012-4983-b8a9-1a07480bde83","system_id":"levelo_inurba_marseille","lat":43.23192,"lon":5.35548,"is_reserved":false,"is_disabled":false,"rental_uris":{"android":"levelo://app?vid=365a5e76-e012-4983-b8a9-1a07480bde83","ios":"levelo://app?vid=365a5e76-e012-4983-b8a9-1a07480bde83"},"vehicle_type_id":"4","last_reported":1729843983,"current_range_meters":40000,"station_id":"ce4bhu92rcd13ifvqi70","pricing_plan_id":"cebpf4jnsgd1na2vs0mg"},{"bike_id":"176c2bd2-7d0c-4278-833a-48f82a51f6ca","system_id":"levelo_inurba_marseille","lat":43.262,"lon":5.37935,"is_reserved":false,"is_disabled":false,"rental_uris":{"android":"levelo://app?vid=176c2bd2-7d0c-4278-833a-48f82a51f6ca","ios":"levelo://app?vid=176c2bd2-7d0c-4278-833a-48f82a51f6ca"},"vehicle_type_id":"4","last_reported":1729843983,"current_range_meters":39200,"station_id":"ce4bhjp2rcd13ifvqg90","pricing_plan_id":"cebpf4jnsgd1na2vs0mg"},{"bike_id":"6feb7ded-3bea-4297-b3d7-056a1104c816","system_id":"levelo_inurba_marseille","lat":43.3311,"lon":5.38215,"is_reserved":false,"is_disabled":false,"rental_uris":{"android":"levelo://app?vid=6feb7ded-3bea-4297-b3d7-056a1104c816","ios":"levelo://app?vid=6feb7ded-3bea-4297-b3d7-056a1104c816"},"vehicle_type_id":"4","last_reported":1729843983,"current_range_meters":32400,"station_id":"","pricing_plan_id":"cebpf4jnsgd1na2vs0mg"},{"bike_id":"5628470f-d9e6-4c28-8b23-53da2cd29fde","system_id":"levelo_inurba_marseille","lat":43.30423,"lon":5.39755,"is_reserved":false,"is_disabled":false,"rental_uris":{"android":"levelo://app?vid=5628470f-d9e6-4c28-8b23-53da2cd29fde","ios":"levelo://app?vid=5628470f-d9e6-4c28-8b23-53da2cd29fde"},"vehicle_type_id":"4","last_reported":1729843983,"current_range_meters":38000,"station_id":"ce4bh092rcd13ifvqd20","pricing_plan_id":"cebpf4jnsgd1na2vs0mg"},{"bike_id":"3ed821f3-cfc4-488c-b7de-280e69521fee","system_id":"levelo_inurba_marseille","lat":43.27621,"lon":5.36115,"is_reserved":false,"is_disabled":false,"rental_uris":{"android":"levelo://app?vid=3ed821f3-cfc4-488c-b7de-280e69521fee","ios":"levelo://app?vid=3ed821f3-cfc4-488c-b7de-280e69521fee"},"vehicle_type_id":"4","last_reported":1729843983,"current_range_meters":38400,"station_id":"ce4bgj92rcd13ifvqbe0","pricing_plan_id":"cebpf4jnsgd1na2vs0mg"},{"bike_id":"6a79141b-22c2-4f73-9d7a-ee7148ee1bbf","system_id":"levelo_inurba_marseille","lat":43.24545,"lon":5.3952,"is_reserved":false,"is_disabled":false,"rental_uris":{"android":"levelo://app?vid=6a79141b-22c2-4f73-9d7a-ee7148ee1bbf","ios":"levelo://app?vid=6a79141b-22c2-4f73-9d7a-ee7148ee1bbf"},"vehicle_type_id":"4","last_reported":1729843983,"current_range_meters":36800,"station_id":"ce4bhlp2rcd13ifvqgjg","pricing_plan_id":"cebpf4jnsgd1na2vs0mg"},{"bike_id":"973b854a-5fe9-40bd-9dcd-7bfe59f37d07","system_id":"levelo_inurba_marseille","lat":43.30191,"lon":5.36626,"is_reserved":false,"is_disabled":false,"rental_uris":{"android":"levelo://app?vid=973b854a-5fe9-40bd-9dcd-7bfe59f37d07","ios":"levelo://app?vid=973b854a-5fe9-40bd-9dcd-7bfe59f37d07"},"vehicle_type_id":"4","last_reported":1729843983,"current_range_meters":38800,"station_id":"ce4bgrh2rcd13ifvqc8g","pricing_plan_id":"cebpf4jnsgd1na2vs0mg"},{"bike_id":"ffaf6d1c-64f9-4c62-bbf1-b08f3ad9a305","system_id":"levelo_inurba_marseille","lat":43.33741,"lon":5.37454,"is_reserved":false,"is_disabled":false,"rental_uris":{"android":"levelo://app?vid=ffaf6d1c-64f9-4c62-bbf1-b08f3ad9a305","ios":"levelo://app?vid=ffaf6d1c-64f9-4c62-bbf1-b08f3ad9a305"},"vehicle_type_id":"4","last_reported":1729843983,"current_range_meters":19200,"station_id":"","pricing_plan_id":"cebpf4jnsgd1na2vs0mg"},{"bike_id":"762c6d21-bc78-4a52-9810-72ccbbfb0132","system_id":"levelo_inurba_marseille","lat":43.23154,"lon":5.4372,"is_reserved":false,"is_disabled":false,"rental_uris":{"android":"levelo://app?vid=762c6d21-bc78-4a52-9810-72ccbbfb0132","ios":"levelo://app?vid=762c6d21-bc78-4a52-9810-72ccbbfb0132"},"vehicle_type_id":"4","last_reported":1729843983,"current_range_meters":32800,"station_id":"ce4bhmp2rcd13ifvqgog","pricing_plan_id":"cebpf4jnsgd1na2vs0mg"},{"bike_id":"a9439cd1-ab91-4240-9638-f44040b4f85e","system_id":"levelo_inurba_marseille","lat":43.30316,"lon":5.36902,"is_reserved":false,"is_disabled":false,"rental_uris":{"android":"levelo://app?vid=a9439cd1-ab91-4240-9638-f44040b4f85e","ios":"levelo://app?vid=a9439cd1-ab91-4240-9638-f44040b4f85e"},"vehicle_type_id":"4","last_reported":1729843983,"current_range_meters":39200,"station_id":"ce4bgqh2rcd13ifvqc5g","pricing_plan_id":"cebpf4jnsgd1na2vs0mg"},{"bike_id":"9c6fc028-3986-41cc-bf02-716316e6edd0","system_id":"levelo_inurba_marseille","lat":43.3089,"lon":5.372,"is_reserved":false,"is_disabled":false,"rental_uris":{"android":"levelo://app?vid=9c6fc028-3986-41cc-bf02-716316e6edd0","ios":"levelo://app?vid=9c6fc028-3986-41cc-bf02-716316e6edd0"},"vehicle_type_id":"4","last_reported":1729843983,"current_range_meters":34800,"station_id":"ce4bguh2rcd13ifvqckg","pricing_plan_id":"cebpf4jnsgd1na2vs0mg"},{"bike_id":"86f5b5db-e099-401a-8178-1feba09f475a","system_id":"levelo_inurba_marseille","lat":43.3414,"lon":5.409123,"is_reserved":false,"is_disabled":false,"rental_uris":{"android":"levelo://app?vid=86f5b5db-e099-401a-8178-1feba09f475a","ios":"levelo://app?vid=86f5b5db-e099-401a-8178-1feba09f475a"},"vehicle_type_id":"4","last_reported":1729843983,"current_range_meters":32800,"station_id":"ce4bhqh2rcd13ifvqhlg","pricing_plan_id":"cebpf4jnsgd1na2vs0mg"},{"bike_id":"8b334494-4658-40b8-9961-1bec772036f2","system_id":"levelo_inurba_marseille","lat":43.29844,"lon":5.36265,"is_reserved":false,"is_disabled":false,"rental_uris":{"android":"levelo://app?vid=8b334494-4658-40b8-9961-1bec772036f2","ios":"levelo://app?vid=8b334494-4658-40b8-9961-1bec772036f2"},"vehicle_type_id":"4","last_reported":1729843983,"current_range_meters":36800,"station_id":"ce4bgpp2rcd13ifvqc3g","pricing_plan_id":"cebpf4jnsgd1na2vs0mg"},{"bike_id":"15e795f5-7c75-4a84-b680-d23960287ad4","system_id":"levelo_inurba_marseille","lat":43.25088,"lon":5.39517,"is_reserved":false,"is_disabled":false,"rental_uris":{"android":"levelo://app?vid=15e795f5-7c75-4a84-b680-d23960287ad4","ios":"levelo://app?vid=15e795f5-7c75-4a84-b680-d23960287ad4"},"vehicle_type_id":"4","last_reported":1729843983,"current_range_meters":28800,"station_id":"ce4bhm12rcd13ifvqgkg","pricing_plan_id":"cebpf4jnsgd1na2vs0mg"},{"bike_id":"9aa99984-3aab-4a38-a014-145c49eab468","system_id":"levelo_inurba_marseille","lat":43.24654,"lon":5.389,"is_reserved":false,"is_disabled":false,"rental_uris":{"android":"levelo://app?vid=9aa99984-3aab-4a38-a014-145c49eab468","ios":"levelo://app?vid=9aa99984-3aab-4a38-a014-145c49eab468"},"vehicle_type_id":"4","last_reported":1729843983,"current_range_meters":40000,"station_id":"ce4bhg12rcd13ifvqf60","pricing_plan_id":"cebpf4jnsgd1na2vs0mg"},{"bike_id":"bed402fe-791c-4427-8256-b6e0a15d3336","system_id":"levelo_inurba_marseille","lat":43.265533,"lon":5.372879,"is_reserved":false,"is_disabled":false,"rental_uris":{"android":"levelo://app?vid=bed402fe-791c-4427-8256-b6e0a15d3336","ios":"levelo://app?vid=bed402fe-791c-4427-8256-b6e0a15d3336"},"vehicle_type_id":"4","last_reported":1729843983,"current_range_meters":8000,"station_id":"ce4bhg12rcd13ifvqf70","pricing_plan_id":"cebpf4jnsgd1na2vs0mg"},{"bike_id":"3e951bfc-91bd-40b3-aeba-1ebdba43879e","system_id":"levelo_inurba_marseille","lat":43.32661,"lon":5.40995,"is_reserved":false,"is_disabled":false,"rental_uris":{"android":"levelo://app?vid=3e951bfc-91bd-40b3-aeba-1ebdba43879e","ios":"levelo://app?vid=3e951bfc-91bd-40b3-aeba-1ebdba43879e"},"vehicle_type_id":"4","last_reported":1729843983,"current_range_meters":37600,"station_id":"ce4bhpp2rcd13ifvqhgg","pricing_plan_id":"cebpf4jnsgd1na2vs0mg"},{"bike_id":"7c1e729b-7c6a-4f7f-87cd-db2dd498acc3","system_id":"levelo_inurba_marseille","lat":43.25937,"lon":5.40902,"is_reserved":false,"is_disabled":false,"rental_uris":{"android":"levelo://app?vid=7c1e729b-7c6a-4f7f-87cd-db2dd498acc3","ios":"levelo://app?vid=7c1e729b-7c6a-4f7f-87cd-db2dd498acc3"},"vehicle_type_id":"4","last_reported":1729843983,"current_range_meters":22800,"station_id":"ce4bhm92rcd13ifvqglg","pricing_plan_id":"cebpf4jnsgd1na2vs0mg"},{"bike_id":"3d842674-b26d-4bd1-8c29-6b56ea1a1f40","system_id":"levelo_inurba_marseille","lat":43.24995,"lon":5.38939,"is_reserved":false,"is_disabled":false,"rental_uris":{"android":"levelo://app?vid=3d842674-b26d-4bd1-8c29-6b56ea1a1f40","ios":"levelo://app?vid=3d842674-b26d-4bd1-8c29-6b56ea1a1f40"},"vehicle_type_id":"4","last_reported":1729843983,"current_range_meters":25600,"station_id":"ce4bhgp2rcd13ifvqfd0","pricing_plan_id":"cebpf4jnsgd1na2vs0mg"},{"bike_id":"4edd932e-9306-425f-b341-6a63750e98d7","system_id":"levelo_inurba_marseille","lat":43.29841,"lon":5.36267,"is_reserved":false,"is_disabled":false,"rental_uris":{"android":"levelo://app?vid=4edd932e-9306-425f-b341-6a63750e98d7","ios":"levelo://app?vid=4edd932e-9306-425f-b341-6a63750e98d7"},"vehicle_type_id":"4","last_reported":1729843983,"current_range_meters":36000,"station_id":"ce4bgpp2rcd13ifvqc3g","pricing_plan_id":"cebpf4jnsgd1na2vs0mg"},{"bike_id":"83a4f77c-7d54-4d63-b2f8-4dd1147b6bd3","system_id":"levelo_inurba_marseille","lat":43.25865,"lon":5.399,"is_reserved":false,"is_disabled":false,"rental_uris":{"android":"levelo://app?vid=83a4f77c-7d54-4d63-b2f8-4dd1147b6bd3","ios":"levelo://app?vid=83a4f77c-7d54-4d63-b2f8-4dd1147b6bd3"},"vehicle_type_id":"4","last_reported":1729843983,"current_range_meters":18800,"station_id":"ce4bhl92rcd13ifvqghg","pricing_plan_id":"cebpf4jnsgd1na2vs0mg"},{"bike_id":"05f45dbc-ecc2-4225-b308-569f28cfece6","system_id":"levelo_inurba_marseille","lat":43.3204,"lon":5.41554,"is_reserved":false,"is_disabled":false,"rental_uris":{"android":"levelo://app?vid=05f45dbc-ecc2-4225-b308-569f28cfece6","ios":"levelo://app?vid=05f45dbc-ecc2-4225-b308-569f28cfece6"},"vehicle_type_id":"4","last_reported":1729843983,"current_range_meters":16800,"station_id":"ce4bhq92rcd13ifvqhkg","pricing_plan_id":"cebpf4jnsgd1na2vs0mg"},