{"last_updated":1702033564,"ttl":30,"version":"2.2","data":{"bikes":[{"bike_id":"4cc92d93-b1b6-4f86-84b9-5c43d6d332d5","system_id":"levelo_inurba_marseille","lat":43.31341,"lon":5.367098,"is_reserved":false,"is_disabled":false,"rental_uris":{"android":"levelo://app?vid=4cc92d93-b1b6-4f86-84b9-5c43d6d332d5","ios":"levelo://app?vid=4cc92d93-b1b6-4f86-84b9-5c43d6d332d5"},"vehicle_type_id":"4","last_reported":1702033564,"current_range_meters":27200,"station_id":"ce4bgr92rcd13ifvqc6g","pricing_plan_id":"free"},{"bike_id":"cb1d61cc-7556-42fd-88f8-5c8c49d4d3db","system_id":"levelo_inurba_marseille","lat":43.31341,"lon":5.367098,"is_reserved":false,"is_disabled":false,"rental_uris":{"android":"levelo://app?vid=cb1d61cc-7556-42fd-88f8-5c8c49d4d3db","ios":"levelo://app?vid=cb1d61cc-7556-42fd-88f8-5c8c49d4d3db"},"vehicle_type_id":"4","last_reported":1702033564,"current_range_meters":30400,"station_id":"ce4bgr92rcd13ifvqc6g","pricing_plan_id":"free"},{"bike_id":"62fb5385-2c5d-4c9d-b743-187bb4fbb192","system_id":"levelo_inurba_marseille","lat":43.313391,"lon":5.36706,"is_reserved":false,"is_disabled":false,"rental_uris":{"android":"levelo://app?vid=62fb5385-2c5d-4c9d-b743-187bb4fbb192","ios":"levelo://app?vid=62fb5385-2c5d-4c9d-b743-187bb4fbb192"},"vehicle_type_id":"4","last_reported":1702033564,"current_range_meters":31200,"station_id":"ce4bgr92rcd13ifvqc6g","pricing_plan_id":"free"},{"bike_id":"f8d39b39-6c83-41c5-b0dd-22eae61a97c2","system_id":"levelo_inurba_marseille","lat":43.314811,"lon":5.373103,"is_reserved":false,"is_disabled":false,"rental_uris":{"android":"levelo://app?vid=f8d39b39-6c83-41c5-b0dd-22eae61a97c2","ios":"levelo://app?vid=f8d39b39-6c83-41c5-b0dd-22eae61a97c2"},"vehicle_type_id":"4","last_reported":1702033564,"current_range_meters":10400,"station_id":"ce4bgt12rcd13ifvqcd0","pricing_plan_id":"free"},{"bike_id":"09a9f57e-6ef6-4dfd-913f-be9d43135967","system_id":"levelo_inurba_marseille","lat":43.305322,"lon":5.367044,"is_reserved":false,"is_disabled":false,"rental_uris":{"android":"levelo://app?vid=09a9f57e-6ef6-4dfd-913f-be9d43135967","ios":"levelo://app?vid=09a9f57e-6ef6-4dfd-913f-be9d43135967"},"vehicle_type_id":"4","last_reported":1702033564,"current_range_meters":24400,"station_id":"ce4bgrp2rcd13ifvqc9g","pricing_plan_id":"free"},{"bike_id":"83fbf89c-062e-46be-ae77-900d06221fc3","system_id":"levelo_inurba_marseille","lat":43.305277,"lon":5.367012,"is_reserved":false,"is_disabled":false,"rental_uris":{"android":"levelo://app?vid=83fbf89c-062e-46be-ae77-900d06221fc3","ios":"levelo://app?vid=83fbf89c-062e-46be-ae77-900d06221fc3"},"vehicle_type_id":"4","last_reported":1702033564,"current_range_meters":23200,"station_id":"ce4bgrp2rcd13ifvqc9g","pricing_plan_id":"free"},{"bike_id":"9dc374f1-9540-47f2-a13d-b30532a71740","system_id":"levelo_inurba_marseille","lat":43.305368,"lon":5.367343,"is_reserved":false,"is_disabled":false,"rental_uris":{"android":"levelo://app?vid=9dc374f1-9540-47f2-a13d-b30532a71740","ios":"levelo://app?vid=9dc374f1-9540-47f2-a13d-b30532a71740"},"vehicle_type_id":"4","last_reported":1702033564,"current_range_meters":31200,"station_id":"ce4bgrp2rcd13ifvqc9g","pricing_plan_id":"free"},{"bike_id":"5bd0ce04-553f-4bc0-ad45-c60dfcf9574c","system_id":"levelo_inurba_marseille","lat":43.305989,"lon":5.37225,"is_reserved":false,"is_disabled":false,"rental_uris":{"android":"levelo://app?vid=5bd0ce04-553f-4bc0-ad45-c60dfcf9574c","ios":"levelo://app?vid=5bd0ce04-553f-4bc0-ad45-c60dfcf9574c"},"vehicle_type_id":"4","last_reported":1702033564,"current_range_meters":14400,"station_id":"ce4bgqh2rcd13ifvqc4g","pricing_plan_id":"free"},{"bike_id":"74149a2f-92ae-414d-95ba-87adec5b32b4","system_id":"levelo_inurba_marseille","lat":43.311214,"lon":5.377754,"is_reserved":false,"is_disabled":false,"rental_uris":{"android":"levelo://app?vid=74149a2f-92ae-414d-95ba-87adec5b32b4","ios":"levelo://app?vid=74149a2f-92ae-414d-95ba-87adec5b32b4"},"vehicle_type_id":"4","last_reported":1702033564,"current_range_meters":22000,"station_id":"ce4bgt92rcd13ifvqcg0","pricing_plan_id":"free"},{"bike_id":"adf146c5-e4e1-4668-9a33-042940925130","system_id":"levelo_inurba_marseille","lat":43.31351,"lon":5.37909,"is_reserved":false,"is_disabled":false,"rental_uris":{"android":"levelo://app?vid=adf146c5-e4e1-4668-9a33-042940925130","ios":"levelo://app?vid=adf146c5-e4e1-4668-9a33-042940925130"},"vehicle_type_id":"4","last_reported":1702033564,"current_range_meters":0,"station_id":"","pricing_plan_id":"free"},{"bike_id":"796977cc-15a4-414a-aa19-2709631b7836","system_id":"levelo_inurba_marseille","lat":43.303046,"lon":5.368981,"is_reserved":false,"is_disabled":false,"rental_uris":{"android":"levelo://app?vid=796977cc-15a4-414a-aa19-2709631b7836","ios":"levelo://app?vid=796977cc-15a4-414a-aa19-2709631b7836"},"vehicle_type_id":"4","last_reported":1702033564,"current_range_meters":30000,"station_id":"ce4bgqh2rcd13ifvqc5g","pricing_plan_id":"free"},{"bike_id":"1c5bd8ad-09cd-46a6-a17b-15bc893af4b2","system_id":"levelo_inurba_marseille","lat":43.30304,"lon":5.368987,"is_reserved":false,"is_disabled":false,"rental_uris":{"android":"levelo://app?vid=1c5bd8ad-09cd-46a6-a17b-15bc893af4b2","ios":"levelo://app?vid=1c5bd8ad-09cd-46a6-a17b-15bc893af4b2"},"vehicle_type_id":"4","last_reported":1702033564,"current_range_meters":31200,"station_id":"ce4bgqh2rcd13ifvqc5g","pricing_plan_id":"free"},{"bike_id":"5f8f3896-94ed-4825-91e5-1d2d61874a3c","system_id":"levelo_inurba_marseille","lat":43.301939,"lon":5.366286,"is_reserved":false,"is_disabled":false,"rental_uris":{"android":"levelo://app?vid=5f8f3896-94ed-4825-91e5-1d2d61874a3c","ios":"levelo://app?vid=5f8f3896-94ed-4825-91e5-1d2d61874a3c"},"vehicle_type_id":"4","last_reported":1702033564,"current_range_meters":25600,"station_id":"ce4bgrh2rcd13ifvqc8g","pricing_plan_id":"free"},{"bike_id":"1ea60f58-75f7-4484-b705-1156df4b02ad","system_id":"levelo_inurba_marseille","lat":43.30279,"lon":5.3733,"is_reserved":false,"is_disabled":false,"rental_uris":{"android":"levelo://app?vid=1ea60f58-75f7-4484-b705-1156df4b02ad","ios":"levelo://app?vid=1ea60f58-75f7-4484-b705-1156df4b02ad"},"vehicle_type_id":"4","last_reported":1702033564,"current_range_meters":1200,"station_id":"","pricing_plan_id":"free"},{"bike_id":"bdf7f841-1ac7-4eed-b40b-4ff3167f9b14","system_id":"levelo_inurba_marseille","lat":43.304632,"lon":5.378942,"is_reserved":false,"is_disabled":false,"rental_uris":{"android":"levelo://app?vid=bdf7f841-1ac7-4eed-b40b-4ff3167f9b14","ios":"levelo://app?vid=bdf7f841-1ac7-4eed-b40b-4ff3167f9b14"},"vehicle_type_id":"4","last_reported":1702033564,"current_range_meters":27600,"station_id":"ce4bgup2rcd13ifvqcn0","pricing_plan_id":"free"},{"bike_id":"8e6bcc22-26a3-4f21-b99e-ec3014f3e345","system_id":"levelo_inurba_marseille","lat":43.319954,"lon":5.381534,"is_reserved":false,"is_disabled":false,"rental_uris":{"android":"levelo://app?vid=8e6bcc22-26a3-4f21-b99e-ec3014f3e345","ios":"levelo://app?vid=8e6bcc22-26a3-4f21-b99e-ec3014f3e345"},"vehicle_type_id":"4","last_reported":1702033564,"current_range_meters":14000,"station_id":"ce4bhr12rcd13ifvqhpg","pricing_plan_id":"free"},{"bike_id":"9ee0ef7a-8d9c-4d78-8ae5-64e12b708d26","system_id":"levelo_inurba_marseille","lat":43.319997,"lon":5.381594,"is_reserved":false,"is_disabled":false,"rental_uris":{"android":"levelo://app?vid=9ee0ef7a-8d9c-4d78-8ae5-64e12b708d26","ios":"levelo://app?vid=9ee0ef7a-8d9c-4d78-8ae5-64e12b708d26"},"vehicle_type_id":"4","last_reported":1702033564,"current_range_meters":0,"station_id":"ce4bhr12rcd13ifvqhpg","pricing_plan_id":"free"},{"bike_id":"8c18d9f5-4848-45e9-aea1-a98338b8221a","system_id":"levelo_inurba_marseille","lat":43.313571,"lon":5.384829,"is_reserved":false,"is_disabled":false,"rental_uris":{"android":"levelo://app?vid=8c18d9f5-4848-45e9-aea1-a98338b8221a","ios":"levelo://app?vid=8c18d9f5-4848-45e9-aea1-a98338b8221a"},"vehicle_type_id":"4","last_reported":1702033564,"current_range_meters":23600,"station_id":"ce4bgt92rcd13ifvqcf0","pricing_plan_id":"free"},{"bike_id":"a49b99ee-38eb-49b5-978d-00cf198fff08","system_id":"levelo_inurba_marseille","lat":43.29963,"lon":5.366327,"is_reserved":false,"is_disabled":false,"rental_uris":{"android":"levelo://app?vid=a49b99ee-38eb-49b5-978d-00cf198fff08","ios":"levelo://app?vid=a49b99ee-38eb-49b5-978d-00cf198fff08"},"vehicle_type_id":"4","last_reported":1702033564,"current_range_meters":20000,"station_id":"","pricing_plan_id":"free"},{"bike_id":"cf7dbbe9-91dd-4d73-863a-8fcefd8bfeee","system_id":"levelo_inurba_marseille","lat":43.299724,"lon":5.371829,"is_reserved":false,"is_disabled":false,"rental_uris":{"android":"levelo://app?vid=cf7dbbe9-91dd-4d73-863a-8fcefd8bfeee","ios":"levelo://app?vid=cf7dbbe9-91dd-4d73-863a-8fcefd8bfeee"},"vehicle_type_id":"4","last_reported":1702033564,"current_range_meters":25600,"station_id":"ce4bgr92rcd13ifvqc7g","pricing_plan_id":"free"},{"bike_id":"1b9b6c62-1d39-4c82-ba9e-6feedd37c36f","system_id":"levelo_inurba_marseille","lat":43.305364,"lon":5.384119,"is_reserved":false,"is_disabled":false,"rental_uris":{"android":"levelo://app?vid=1b9b6c62-1d39-4c82-ba9e-6feedd37c36f","ios":"levelo://app?vid=1b9b6c62-1d39-4c82-ba9e-6feedd37c36f"},"vehicle_type_id":"4","last_reported":1702033564,"current_range_meters":9600,"station_id":"ce4bgg92rcd13ifvqb30","pricing_plan_id":"free"},{"bike_id":"23d9cdc8-3d7c-43b5-8102-e0ecfae80b21","system_id":"levelo_inurba_marseille","lat":43.298433,"lon":5.362774,"is_reserved":false,"is_disabled":false,"rental_uris":{"android":"levelo://app?vid=23d9cdc8-3d7c-43b5-8102-e0ecfae80b21","ios":"levelo://app?vid=23d9cdc8-3d7c-43b5-8102-e0ecfae80b21"},"vehicle_type_id":"4","last_reported":1702033564,"current_range_meters":28800,"station_id":"ce4bgpp2rcd13ifvqc3g","pricing_plan_id":"free"},{"bike_id":"ab9817ae-ab24-4dab-8e0b-05ae4b3f2e93","system_id":"levelo_inurba_marseille","lat":43.298433,"lon":5.362774,"is_reserved":false,"is_disabled":false,"rental_uris":{"android":"levelo://app?vid=ab9817ae-ab24-4dab-8e0b-05ae4b3f2e93","ios":"levelo://app?vid=ab9817ae-ab24-4dab-8e0b-05ae4b3f2e93"},"vehicle_type_id":"4","last_reported":1702033564,"current_range_meters":19600,"station_id":"ce4bgpp2rcd13ifvqc3g","pricing_plan_id":"free"},{"bike_id":"05c3a9b0-e2cd-486a-818c-6d72d94fe576","system_id":"levelo_inurba_marseille","lat":43.298433,"lon":5.362774,"is_reserved":false,"is_disabled":false,"rental_uris":{"android":"levelo://app?vid=05c3a9b0-e2cd-486a-818c-6d72d94fe576","ios":"levelo://app?vid=05c3a9b0-e2cd-486a-818c-6d72d94fe576"},"vehicle_type_id":"4","last_reported":1702033564,"current_range_meters":31200,"station_id":"ce4bgpp2rcd13ifvqc3g","pricing_plan_id":"free"},{"bike_id":"3dcd4a73-468d-493a-bf11-93ceddd109f8","system_id":"levelo_inurba_marseille","lat":43.322872,"lon":5.382756,"is_reserved":false,"is_disabled":false,"rental_uris":{"android":"levelo://app?vid=3dcd4a73-468d-493a-bf11-93ceddd109f8","ios":"levelo://app?vid=3dcd4a73-468d-493a-bf11-93ceddd109f8"},"vehicle_type_id":"4","last_reported":1702033564,"current_range_meters":30000,"station_id":"ce4bhr12rcd13ifvqhqg","pricing_plan_id":"free"},{"bike_id":"92dc65d6-6823-4de3-93d4-056f738f090c","system_id":"levelo_inurba_marseille","lat":43.316538,"lon":5.38954,"is_reserved":false,"is_disabled":false,"rental_uris":{"android":"levelo://app?vid=92dc65d6-6823-4de3-93d4-056f738f090c","ios":"levelo://app?vid=92dc65d6-6823-4de3-93d4-056f738f090c"},"vehicle_type_id":"4","last_reported":1702033564,"current_range_meters":2000,"station_id":"","pricing_plan_id":"free"},{"bike_id":"d1307e43-628c-409e-9c23-9d78c232078d","system_id":"levelo_inurba_marseille","lat":43.29573,"lon":5.367355,"is_reserved":false,"is_disabled":false,"rental_uris":{"android":"levelo://app?vid=d1307e43-628c-409e-9c23-9d78c232078d","ios":"levelo://app?vid=d1307e43-628c-409e-9c23-9d78c232078d"},"vehicle_type_id":"4","last_reported":1702033564,"current_range_meters":26800,"station_id":"ce4bgph2rcd13ifvqc2g","pricing_plan_id":"free"},{"bike_id":"d65514af-eeda-44c2-998d-2001d2085e76","system_id":"levelo_inurba_marseille","lat":43.299028,"lon":5.381509,"is_reserved":false,"is_disabled":false,"rental_uris":{"android":"levelo://app?vid=d65514af-eeda-44c2-998d-2001d2085e76","ios":"levelo://app?vid=d65514af-eeda-44c2-998d-2001d2085e76"},"vehicle_type_id":"4","last_reported":1702033564,"current_range_meters":28000,"station_id":"ce4bgj12rcd13ifvqbc0","pricing_plan_id":"free"},{"bike_id":"1bd5d346-6e2d-467d-855a-cd1129a6fe72","system_id":"levelo_inurba_marseille","lat":43.317557,"lon":5.390173,"is_reserved":false,"is_disabled":false,"rental_uris":{"android":"levelo://app?vid=1bd5d346-6e2d-467d-855a-cd1129a6fe72","ios":"levelo://app?vid=1bd5d346-6e2d-467d-855a-cd1129a6fe72"},"vehicle_type_id":"4","last_reported":1702033564,"current_range_meters":28800,"station_id":"ce4bhqp2rcd13ifvqhng","pricing_plan_id":"free"},{"bike_id":"0eff80ae-56b3-415f-a55c-ffb7060807e9","system_id":"levelo_inurba_marseille","lat":43.31756,"lon":5.39012,"is_reserved":false,"is_disabled":false,"rental_uris":{"android":"levelo://app?vid=0eff80ae-56b3-415f-a55c-ffb7060807e9","ios":"levelo://app?vid=0eff80ae-56b3-415f-a55c-ffb7060807e9"},"vehicle_type_id":"4","last_reported":1702033564,"current_range_meters":15600,"station_id":"ce4bhqp2rcd13ifvqhng","pricing_plan_id":"free"},{"bike_id":"cb5e323e-208c-46fa-81e2-649f54b5e0f6","system_id":"levelo_inurba_marseille","lat":43.32367,"lon":5.388836,"is_reserved":false,"is_disabled":false,"rental_uris":{"android":"levelo://app?vid=cb5e323e-208c-46fa-81e2-649f54b5e0f6","ios":"levelo://app?vid=cb5e323e-208c-46fa-81e2-649f54b5e0f6"},"vehicle_type_id":"4","last_reported":1702033564,"current_range_meters":12400,"station_id":"ce4bhqp2rcd13ifvqhog","pricing_plan_id":"free"},{"bike_id":"e37ac621-b119-47db-a4a0-b01f262c7bd9","system_id":"levelo_inurba_marseille","lat":43.32367,"lon":5.388836,"is_reserved":false,"is_disabled":false,"rental_uris":{"android":"levelo://app?vid=e37ac621-b119-47db-a4a0-b01f262c7bd9","ios":"levelo://app?vid=e37ac621-b119-47db-a4a0-b01f262c7bd9"},"vehicle_type_id":"4","last_reported":1702033564,"current_range_meters":22000,"station_id":"ce4bhqp2rcd13ifvqhog","pricing_plan_id":"free"},{"bike_id":"edb65791-72fd-4efe-a1f5-46dfb8da63e8","system_id":"levelo_inurba_marseille","lat":43.32369,"lon":5.38879,"is_reserved":false,"is_disabled":false,"rental_uris":{"android":"levelo://app?vid=edb65791-72fd-4efe-a1f5-46dfb8da63e8","ios":"levelo://app?vid=edb65791-72fd-4efe-a1f5-46dfb8da63e8"},"vehicle_type_id":"4","last_reported":1702033564,"current_range_meters":30400,"station_id":"ce4bhqp2rcd13ifvqhog","pricing_plan_id":"free"},{"bike_id":"7579423d-f3b8-4e7f-be59-2ba9da91b549","system_id":"levelo_inurba_marseille","lat":43.31422,"lon":5.3939,"is_reserved":false,"is_disabled":false,"rental_uris":{"android":"levelo://app?vid=7579423d-f3b8-4e7f-be59-2ba9da91b549","ios":"levelo://app?vid=7579423d-f3b8-4e7f-be59-2ba9da91b549"},"vehicle_type_id":"4","last_reported":1702033564,"current_range_meters":5200,"station_id":"","pricing_plan_id":"free"},{"bike_id":"35167050-f909-4250-a110-df5bedfb0a40","system_id":"levelo_inurba_marseille","lat":43.298966,"lon":5.387258,"is_reserved":false,"is_disabled":false,"rental_uris":{"android":"levelo://app?vid=35167050-f909-4250-a110-df5bedfb0a40","ios":"levelo://app?vid=35167050-f909-4250-a110-df5bedfb0a40"},"vehicle_type_id":"4","last_reported":1702033564,"current_range_meters":2000,"station_id":"","pricing_plan_id":"free"},{"bike_id":"d23dcc0a-abfe-4795-b2df-643eabe8964a","system_id":"levelo_inurba_marseille","lat":43.33277,"lon":5.37527,"is_reserved":false,"is_disabled":false,"rental_uris":{"android":"levelo://app?vid=d23dcc0a-abfe-4795-b2df-643eabe8964a","ios":"levelo://app?vid=d23dcc0a-abfe-4795-b2df-643eabe8964a"},"vehicle_type_id":"4","last_reported":1702033564,"current_range_meters":0,"station_id":"","pricing_plan_id":"free"},{"bike_id":"d1631f4d-f36a-40b7-afa2-e0b6ae5ce9ed","system_id":"levelo_inurba_marseille","lat":43.29225,"lon":5.36075,"is_reserved":false,"is_disabled":false,"rental_uris":{"android":"levelo://app?vid=d1631f4d-f36a-40b7-afa2-e0b6ae5ce9ed","ios":"levelo://app?vid=d1631f4d-f36a-40b7-afa2-e0b6ae5ce9ed"},"vehicle_type_id":"4","last_reported":1702033564,"current_range_meters":4400,"station_id":"","pricing_plan_id":"free"},{"bike_id":"0a36f0ba-aa86-410b-8e44-0a8738411f55","system_id":"levelo_inurba_marseille","lat":43.292663,"lon":5.376394,"is_reserved":false,"is_disabled":false,"rental_uris":{"android":"levelo://app?vid=0a36f0ba-aa86-410b-8e44-0a8738411f55","ios":"levelo://app?vid=0a36f0ba-aa86-410b-8e44-0a8738411f55"},"vehicle_type_id":"4","last_reported":1702033564,"current_range_meters":5200,"station_id":"ce4bgi12rcd13ifvqb80","pricing_plan_id":"free"},{"bike_id":"2a82de88-a5ef-4a17-a3f3-9c8a8270adfd","system_id":"levelo_inurba_marseille","lat":43.292663,"lon":5.376389,"is_reserved":false,"is_disabled":false,"rental_uris":{"android":"levelo://app?vid=2a82de88-a5ef-4a17-a3f3-9c8a8270adfd","ios":"levelo://app?vid=2a82de88-a5ef-4a17-a3f3-9c8a8270adfd"},"vehicle_type_id":"4","last_reported":1702033564,"current_range_meters":29200,"station_id":"ce4bgi12rcd13ifvqb80","pricing_plan_id":"free"},{"bike_id":"a7eae1de-2fdc-4649-817b-a08bfea07e18","system_id":"levelo_inurba_marseille","lat":43.292663,"lon":5.376394,"is_reserved":false,"is_disabled":false,"rental_uris":{"android":"levelo://app?vid=a7eae1de-2fdc-4649-817b-a08bfea07e18","ios":"levelo://app?vid=a7eae1de-2fdc-4649-817b-a08bfea07e18"},"vehicle_type_id":"4","last_reported":1702033564,"current_range_meters":28000,"station_id":"ce4bgi12rcd13ifvqb80","pricing_plan_id":"free"},{"bike_id":"99b1e0db-3cc5-4fa7-95a2-5a9e30e0892e","system_id":"levelo_inurba_marseille","lat":43.309047,"lon":5.396551,"is_reserved":false,"is_disabled":false,"rental_uris":{"android":"levelo://app?vid=99b1e0db-3cc5-4fa7-95a2-5a9e30e0892e","ios":"levelo://app?vid=99b1e0db-3cc5-4fa7-95a2-5a9e30e0892e"},"vehicle_type_id":"4","last_reported":1702033564,"current_range_meters":13600,"station_id":"ce4bh012rcd13ifvqcv0","pricing_plan_id":"free"},{"bike_id":"4e78dba4-6dd9-4fce-a0ab-c14d23218466","system_id":"levelo_inurba_marseille","lat":43.31332,"lon":5.39686,"is_reserved":false,"is_disabled":false,"rental_uris":{"android":"levelo://app?vid=4e78dba4-6dd9-4fce-a0ab-c14d23218466","ios":"levelo://app?vid=4e78dba4-6dd9-4fce-a0ab-c14d23218466"},"vehicle_type_id":"4","last_reported":1702033564,"current_range_meters":15600,"station_id":"ce4bgvp2rcd13ifvqcu0","pricing_plan_id":"free"},{"bike_id":"9dddd1c3-de9e-4581-821c-c8c286d00e42","system_id":"levelo_inurba_marseille","lat":43.309047,"lon":5.396551,"is_reserved":false,"is_disabled":false,"rental_uris":{"android":"levelo://app?vid=9dddd1c3-de9e-4581-821c-c8c286d00e42","ios":"levelo://app?vid=9dddd1c3-de9e-4581-821c-c8c286d00e42"},"vehicle_type_id":"4","last_reported":1702033564,"current_range_meters":30400,"station_id":"ce4bh012rcd13ifvqcv0","pricing_plan_id":"free"},{"bike_id":"2ad533e7-527d-4eda-961c-858e03280690","system_id":"levelo_inurba_marseille","lat":43.313291,"lon":5.396838,"is_reserved":false,"is_disabled":false,"rental_uris":{"android":"levelo://app?vid=2ad533e7-527d-4eda-961c-858e03280690","ios":"levelo://app?vid=2ad533e7-527d-4eda-961c-858e03280690"},"vehicle_type_id":"4","last_reported":1702033564,"current_range_meters":12000,"station_id":"ce4bgvp2rcd13ifvqcu0","pricing_plan_id":"free"},{"bike_id":"fae2dac5-33d6-43d8-9b03-cc9b8019c8bd","system_id":"levelo_inurba_marseille","lat":43.309047,"lon":5.396551,"is_reserved":false,"is_disabled":false,"rental_uris":{"android":"levelo://app?vid=fae2dac5-33d6-43d8-9b03-cc9b8019c8bd","ios":"levelo://app?vid=fae2dac5-33d6-43d8-9b03-cc9b8019c8bd"},"vehicle_type_id":"4","last_reported":1702033564,"current_range_meters":6400,"station_id":"ce4bh012rcd13ifvqcv0","pricing_plan_id":"free"},{"bike_id":"c3e012eb-90f4-4119-b0e9-5f3363e02c67","system_id":"levelo_inurba_marseille","lat":43.309047,"lon":5.396551,"is_reserved":false,"is_disabled":false,"rental_uris":{"android":"levelo://app?vid=c3e012eb-90f4-4119-b0e9-5f3363e02c67","ios":"levelo://app?vid=c3e012eb-90f4-4119-b0e9-5f3363e02c67"},"vehicle_type_id":"4","last_reported":1702033564,"current_range_meters":27600,"station_id":"ce4bh012rcd13ifvqcv0","pricing_plan_id":"free"},{"bike_id":"da368d67-77eb-48da-ab16-65435af61fa0","system_id":"levelo_inurba_marseille","lat":43.29187,"lon":5.35797,"is_reserved":false,"is_disabled":false,"rental_uris":{"android":"levelo://app?vid=da368d67-77eb-48da-ab16-65435af61fa0","ios":"levelo://app?vid=da368d67-77eb-48da-ab16-65435af61fa0"},"vehicle_type_id":"4","last_reported":1702033564,"current_range_meters":20800,"station_id":"ce4bhb12rcd13ifvqel0","pricing_plan_id":"free"},{"bike_id":"681e1437-620d-4f1b-b293-2c9d6cd90aee","system_id":"levelo_inurba_marseille","lat":43.290779,"lon":5.371482,"is_reserved":false,"is_disabled":false,"rental_uris":{"android":"levelo://app?vid=681e1437-620d-4f1b-b293-2c9d6cd90aee","ios":"levelo://app?vid=681e1437-620d-4f1b-b293-2c9d6cd90aee"},"vehicle_type_id":"4","last_reported":1702033564,"current_range_meters":20400,"station_id":"ce4bh5p2rcd13ifvqe4g","pricing_plan_id":"free"},{"bike_id":"bb4af82b-29ef-44ca-baac-9099077e880f","system_id":"levelo_inurba_marseille","lat":43.290161,"lon":5.375651,"is_reserved":false,"is_disabled":false,"rental_uris":{"android":"levelo://app?vid=bb4af82b-29ef-44ca-baac-9099077e880f","ios":"levelo://app?vid=bb4af82b-29ef-44ca-baac-9099077e880f"},"vehicle_type_id":"4","last_reported":1702033564,"current_range_meters":17600,"station_id":"","pricing_plan_id":"free"},{"bike_id":"a02a1b20-1fb1-4951-988a-77389649024d","system_id":"levelo_inurba_marseille","lat":43.289259,"lon":5.366364,"is_reserved":false,"is_disabled":false,"rental_uris":{"android":"levelo://app?vid=a02a1b20-1fb1-4951-988a-77389649024d","ios":"levelo://app?vid=a02a1b20-1fb1-4951-988a-77389649024d"},"vehicle_type_id":"4","last_reported":1702033564,"current_range_meters":16400,"station_id":"","pricing_plan_id":"free"},{"bike_id":"ba19357e-ba60-442a-bbf7-3ce774fd34f9","system_id":"levelo_inurba_marseille","lat":43.290104,"lon":5.356111,"is_reserved":false,"is_disabled":false,"rental_uris":{"android":"levelo://app?vid=ba19357e-ba60-442a-bbf7-3ce774fd34f9","ios":"levelo://app?vid=ba19357e-ba60-442a-bbf7-3ce774fd34f9"},"vehicle_type_id":"4","last_reported":1702033564,"current_range_meters":30800,"station_id":"ce4bhb92rcd13ifvqen0","pricing_plan_id":"free"},{"bike_id":"dcf712fe-d8da-4951-98d9-7e8a155a924b","system_id":"levelo_inurba_marseille","lat":43.290995,"lon":5.381361,"is_reserved":false,"is_disabled":false,"rental_uris":{"android":"levelo://app?vid=dcf712fe-d8da-4951-98d9-7e8a155a924b","ios":"levelo://app?vid=dcf712fe-d8da-4951-98d9-7e8a155a924b"},"vehicle_type_id":"4","last_reported":1702033564,"current_range_meters":28400,"station_id":"ce4bh512rcd13ifvqe2g","pricing_plan_id":"free"},{"bike_id":"08a54e13-29b4-4a2c-88ee-4a81f4f2f97f","system_id":"levelo_inurba_marseille","lat":43.290995,"lon":5.381361,"is_reserved":false,"is_disabled":false,"rental_uris":{"android":"levelo://app?vid=08a54e13-29b4-4a2c-88ee-4a81f4f2f97f","ios":"levelo://app?vid=08a54e13-29b4-4a2c-88ee-4a81f4f2f97f"},"vehicle_type_id":"4","last_reported":1702033564,"current_range_meters":21600,"station_id":"ce4bh512rcd13ifvqe2g","pricing_plan_id":"free"},{"bike_id":"182d4bc5-00bd-4ed4-a720-f3a2d7417bd1","system_id":"levelo_inurba_marseille","lat":43.295169,"lon":5.390426,"is_reserved":false,"is_disabled":false,"rental_uris":{"android":"levelo://app?vid=182d4bc5-00bd-4ed4-a720-f3a2d7417bd1","ios":"levelo://app?vid=182d4bc5-00bd-4ed4-a720-f3a2d7417bd1"},"vehicle_type_id":"4","last_reported":1702033564,"current_range_meters":8800,"station_id":"ce4bh3p2rcd13ifvqdp0","pricing_plan_id":"free"},{"bike_id":"0997f12e-6468-4789-837b-ed196a88d8d8","system_id":"levelo_inurba_marseille","lat":43.289741,"lon":5.378306,"is_reserved":false,"is_disabled":false,"rental_uris":{"android":"levelo://app?vid=0997f12e-6468-4789-837b-ed196a88d8d8","ios":"levelo://app?vid=0997f12e-6468-4789-837b-ed196a88d8d8"},"vehicle_type_id":"4","last_reported":1702033564,"current_range_meters":10000,"station_id":"ce4bh9p2rcd13ifvqed0","pricing_plan_id":"free"},{"bike_id":"49d3769c-66a9-46cc-b5d1-36ec9ae8c614","system_id":"levelo_inurba_marseille","lat":43.2901,"lon":5.381269,"is_reserved":false,"is_disabled":false,"rental_uris":{"android":"levelo://app?vid=49d3769c-66a9-46cc-b5d1-36ec9ae8c614","ios":"levelo://app?vid=49d3769c-66a9-46cc-b5d1-36ec9ae8c614"},"vehicle_type_id":"4","last_reported":1702033564,"current_range_meters":26800,"station_id":"ce4bh4p2rcd13ifvqe1g","pricing_plan_id":"free"},{"bike_id":"3a35d166-30c9-49c7-8960-28b64c1cb130","system_id":"levelo_inurba_marseille","lat":43.306412,"lon":5.401035,"is_reserved":false,"is_disabled":false,"rental_uris":{"android":"levelo://app?vid=3a35d166-30c9-49c7-8960-28b64c1cb130","ios":"levelo://app?vid=3a35d166-30c9-49c7-8960-28b64c1cb130"},"vehicle_type_id":"4","last_reported":1702033564,"current_range_meters":25600,"station_id":"ce4bh112rcd13ifvqda0","pricing_plan_id":"free"},{"bike_id":"4d384b0a-47cb-4983-a55c-86ad7741f550","system_id":"levelo_inurba_marseille","lat":43.295196,"lon":5.39397,"is_reserved":false,"is_disabled":false,"rental_uris":{"android":"levelo://app?vid=4d384b0a-47cb-4983-a55c-86ad7741f550","ios":"levelo://app?vid=4d384b0a-47cb-4983-a55c-86ad7741f550"},"vehicle_type_id":"4","last_reported":1702033564,"current_range_meters":12000,"station_id":"ce4bh292rcd13ifvqdf0","pricing_plan_id":"free"},{"bike_id":"7c71e1f8-d3ea-4061-9cbd-a58c87f06351","system_id":"levelo_inurba_marseille","lat":43.295196,"lon":5.39397,"is_reserved":false,"is_disabled":false,"rental_uris":{"android":"levelo://app?vid=7c71e1f8-d3ea-4061-9cbd-a58c87f06351","ios":"levelo://app?vid=7c71e1f8-d3ea-4061-9cbd-a58c87f06351"},"vehicle_type_id":"4","last_reported":1702033564,"current_range_meters":20800,"station_id":"ce4bh292rcd13ifvqdf0","pricing_plan_id":"free"},{"bike_id":"b6f43335-a23b-4afd-b11a-955153a7864e","system_id":"levelo_inurba_marseille","lat":43.289307,"lon":5.38406,"is_reserved":false,"is_disabled":false,"rental_uris":{"android":"levelo://app?vid=b6f43335-a23b-4afd-b11a-955153a7864e","ios":"levelo://app?vid=b6f43335-a23b-4afd-b11a-955153a7864e"},"vehicle_type_id":"4","last_reported":1702033564,"current_range_meters":26400,"station_id":"ce4bh612rcd13ifvqe6g","pricing_plan_id":"free"},{"bike_id":"9771dfd8-017b-477e-9f38-39c8dec9c905","system_id":"levelo_inurba_marseille","lat":43.286039,"lon":5.370679,"is_reserved":false,"is_disabled":false,"rental_uris":{"android":"levelo://app?vid=9771dfd8-017b-477e-9f38-39c8dec9c905","ios":"levelo://app?vid=9771dfd8-017b-477e-9f38-39c8dec9c905"},"vehicle_type_id":"4","last_reported":1702033564,"current_range_meters":31200,"station_id":"ce4bht12rcd13ifvqi60","pricing_plan_id":"free"},{"bike_id":"2fbe1060-8908-40a2-a26b-939fd3ab2a95","system_id":"levelo_inurba_marseille","lat":43.291994,"lon":5.392907,"is_reserved":false,"is_disabled":false,"rental_uris":{"android":"levelo://app?vid=2fbe1060-8908-40a2-a26b-939fd3ab2a95","ios":"levelo://app?vid=2fbe1060-8908-40a2-a26b-939fd3ab2a95"},"vehicle_type_id":"4","last_reported":1702033564,"current_range_meters":24400,"station_id":"ce4bh192rcd13ifvqdd0","pricing_plan_id":"free"},{"bike_id":"9cb97a0c-98c8-4619-a835-5a1ea1397b60","system_id":"levelo_inurba_marseille","lat":43.284538,"lon":5.358657,"is_reserved":false,"is_disabled":false,"rental_uris":{"android":"levelo://app?vid=9cb97a0c-98c8-4619-a835-5a1ea1397b60","ios":"levelo://app?vid=9cb97a0c-98c8-4619-a835-5a1ea1397b60"},"vehicle_type_id":"4","last_reported":1702033564,"current_range_meters":20800,"station_id":"ce4bhah2rcd13ifvqei0","pricing_plan_id":"free"},{"bike_id":"16788b63-e0eb-46db-b902-4607944aa1d4","system_id":"levelo_inurba_marseille","lat":43.284538,"lon":5.358657,"is_reserved":false,"is_disabled":false,"rental_uris":{"android":"levelo://app?vid=16788b63-e0eb-46db-b902-4607944aa1d4","ios":"levelo://app?vid=16788b63-e0eb-46db-b902-4607944aa1d4"},"vehicle_type_id":"4","last_reported":1702033564,"current_range_meters":10800,"station_id":"ce4bhah2rcd13ifvqei0","pricing_plan_id":"free"},{"bike_id":"fb5da59c-858d-48db-997a-b28af2ef0dc0","system_id":"levelo_inurba_marseille","lat":43.28616,"lon":5.351,"is_reserved":false,"is_disabled":false,"rental_uris":{"android":"levelo://app?vid=fb5da59c-858d-48db-997a-b28af2ef0dc0","ios":"levelo://app?vid=fb5da59c-858d-48db-997a-b28af2ef0dc0"},"vehicle_type_id":"4","last_reported":1702033564,"current_range_meters":1200,"station_id":"ce4bhch2rcd13ifvqeug","pricing_plan_id":"free"},{"bike_id":"a8b8ba4d-ac78-4e5c-8aa1-d0da56b914d4","system_id":"levelo_inurba_marseille","lat":43.28684,"lon":5.386493,"is_reserved":false,"is_disabled":false,"rental_uris":{"android":"levelo://app?vid=a8b8ba4d-ac78-4e5c-8aa1-d0da56b914d4","ios":"levelo://app?vid=a8b8ba4d-ac78-4e5c-8aa1-d0da56b914d4"},"vehicle_type_id":"4","last_reported":1702033564,"current_range_meters":18000,"station_id":"","pricing_plan_id":"free"},{"bike_id":"a467677d-92df-4d97-9e52-e6780c760738","system_id":"levelo_inurba_marseille","lat":43.318907,"lon":5.40735,"is_reserved":false,"is_disabled":false,"rental_uris":{"android":"levelo://app?vid=a467677d-92df-4d97-9e52-e6780c760738","ios":"levelo://app?vid=a467677d-92df-4d97-9e52-e6780c760738"},"vehicle_type_id":"4","last_reported":1702033564,"current_range_meters":0,"station_id":"ce4bhq12rcd13ifvqhig","pricing_plan_id":"free"},{"bike_id":"06070a5a-4b04-4262-80e6-ef3153c54cac","system_id":"levelo_inurba_marseille","lat":43.319179,"lon":5.407725,"is_reserved":false,"is_disabled":false,"rental_uris":{"android":"levelo://app?vid=06070a5a-4b04-4262-80e6-ef3153c54cac","ios":"levelo://app?vid=06070a5a-4b04-4262-80e6-ef3153c54cac"},"vehicle_type_id":"4","last_reported":1702033564,"current_range_meters":25600,"station_id":"ce4bhq12rcd13ifvqhig","pricing_plan_id":"free"},{"bike_id":"391c6299-bb20-4ac9-a22f-2143c8795b24","system_id":"levelo_inurba_marseille","lat":43.337168,"lon":5.391825,"is_reserved":false,"is_disabled":false,"rental_uris":{"android":"levelo://app?vid=391c6299-bb20-4ac9-a22f-2143c8795b24","ios":"levelo://app?vid=391c6299-bb20-4ac9-a22f-2143c8795b24"},"vehicle_type_id":"4","last_reported":1702033564,"current_range_meters":26800,"station_id":"ce4bhr92rcd13ifvqhsg","pricing_plan_id":"free"},{"bike_id":"35437a3b-546d-4804-a96b-f2464a7a3e3e","system_id":"levelo_inurba_marseille","lat":43.323464,"lon":5.406297,"is_reserved":false,"is_disabled":false,"rental_uris":{"android":"levelo://app?vid=35437a3b-546d-4804-a96b-f2464a7a3e3e","ios":"levelo://app?vid=35437a3b-546d-4804-a96b-f2464a7a3e3e"},"vehicle_type_id":"4","last_reported":1702033564,"current_range_meters":30400,"station_id":"ce4bhq92rcd13ifvqhjg","pricing_plan_id":"free"},{"bike_id":"2986dc60-f45b-49b0-9832-755cd249348d","system_id":"levelo_inurba_marseille","lat":43.284793,"lon":5.384119,"is_reserved":false,"is_disabled":false,"rental_uris":{"android":"levelo://app?vid=2986dc60-f45b-49b0-9832-755cd249348d","ios":"levelo://app?vid=2986dc60-f45b-49b0-9832-755cd249348d"},"vehicle_type_id":"4","last_reported":1702033564,"current_range_meters":9600,"station_id":"ce4bh512rcd13ifvqe3g","pricing_plan_id":"free"},{"bike_id":"56ac9cc9-bb61-47d5-bb32-c23299a9fd93","system_id":"levelo_inurba_marseille","lat":43.32256,"lon":5.407,"is_reserved":false,"is_disabled":false,"rental_uris":{"android":"levelo://app?vid=56ac9cc9-bb61-47d5-bb32-c23299a9fd93","ios":"levelo://app?vid=56ac9cc9-bb61-47d5-bb32-c23299a9fd93"},"vehicle_type_id":"4","last_reported":1702033564,"current_range_meters":24000,"station_id":"","pricing_plan_id":"free"},{"bike_id":"6922a457-ebb3-4175-a962-2503f154f8b8","system_id":"levelo_inurba_marseille","lat":43.283498,"lon":5.380948,"is_reserved":false,"is_disabled":false,"rental_uris":{"android":"levelo://app?vid=6922a457-ebb3-4175-a962-2503f154f8b8","ios":"levelo://app?vid=6922a457-ebb3-4175-a962-2503f154f8b8"},"vehicle_type_id":"4","last_reported":1702033564,"current_range_meters":20400,"station_id":"ce4bh412rcd13ifvqdr0","pricing_plan_id":"free"},{"bike_id":"da7bf837-b2d9-4179-9612-6d250bb826a7","system_id":"levelo_inurba_marseille","lat":43.283498,"lon":5.380948,"is_reserved":false,"is_disabled":false,"rental_uris":{"android":"levelo://app?vid=da7bf837-b2d9-4179-9612-6d250bb826a7","ios":"levelo://app?vid=da7bf837-b2d9-4179-9612-6d250bb826a7"},"vehicle_type_id":"4","last_reported":1702033564,"current_range_meters":28000,"station_id":"ce4bh412rcd13ifvqdr0","pricing_plan_id":"free"},{"bike_id":"b9587647-1ce4-4b86-a392-867d01986546","system_id":"levelo_inurba_marseille","lat":43.284219,"lon":5.3497,"is_reserved":false,"is_disabled":false,"rental_uris":{"android":"levelo://app?vid=b9587647-1ce4-4b86-a392-867d01986546","ios":"levelo://app?vid=b9587647-1ce4-4b86-a392-867d01986546"},"vehicle_type_id":"4","last_reported":1702033564,"current_range_meters":27200,"station_id":"ce4bhbh2rcd13ifvqepg","pricing_plan_id":"free"},{"bike_id":"34b6b30b-517f-4dba-b103-39755eed0eda","system_id":"levelo_inurba_marseille","lat":43.282754,"lon":5.350519,"is_reserved":false,"is_disabled":false,"rental_uris":{"android":"levelo://app?vid=34b6b30b-517f-4dba-b103-39755eed0eda","ios":"levelo://app?vid=34b6b30b-517f-4dba-b103-39755eed0eda"},"vehicle_type_id":"4","last_reported":1702033564,"current_range_meters":19200,"station_id":"ce4bhbp2rcd13ifvqerg","pricing_plan_id":"free"},{"bike_id":"479d8952-895b-415b-ba3a-2a763445479b","system_id":"levelo_inurba_marseille","lat":43.28266,"lon":5.35057,"is_reserved":false,"is_disabled":false,"rental_uris":{"android":"levelo://app?vid=479d8952-895b-415b-ba3a-2a763445479b","ios":"levelo://app?vid=479d8952-895b-415b-ba3a-2a763445479b"},"vehicle_type_id":"4","last_reported":1702033564,"current_range_meters":6400,"station_id":"","pricing_plan_id":"free"},{"bike_id":"f202e23c-7c59-419e-9b6c-9ae6035bd01c","system_id":"levelo_inurba_marseille","lat":43.28039,"lon":5.369297,"is_reserved":false,"is_disabled":false,"rental_uris":{"android":"levelo://app?vid=f202e23c-7c59-419e-9b6c-9ae6035bd01c","ios":"levelo://app?vid=f202e23c-7c59-419e-9b6c-9ae6035bd01c"},"vehicle_type_id":"4","last_reported":1702033564,"current_range_meters":17200,"station_id":"ce4bha12rcd13ifvqef0","pricing_plan_id":"free"},{"bike_id":"1bea89f7-2653-4113-93ee-1a52aa723f38","system_id":"levelo_inurba_marseille","lat":43.281044,"lon":5.378308,"is_reserved":false,"is_disabled":false,"rental_uris":{"android":"levelo://app?vid=1bea89f7-2653-4113-93ee-1a52aa723f38","ios":"levelo://app?vid=1bea89f7-2653-4113-93ee-1a52aa723f38"},"vehicle_type_id":"4","last_reported":1702033564,"current_range_meters":22800,"station_id":"ce4bha12rcd13ifvqee0","pricing_plan_id":"free"},{"bike_id":"48ea568c-1a24-42e5-a172-c97af0518fcc","system_id":"levelo_inurba_marseille","lat":43.281044,"lon":5.378308,"is_reserved":false,"is_disabled":false,"rental_uris":{"android":"levelo://app?vid=48ea568c-1a24-42e5-a172-c97af0518fcc","ios":"levelo://app?vid=48ea568c-1a24-42e5-a172-c97af0518fcc"},"vehicle_type_id":"4","last_reported":1702033564,"current_range_meters":26400,"station_id":"ce4bha12rcd13ifvqee0","pricing_plan_id":"free"},{"bike_id":"18042a15-56ee-40e1-80a8-bf6eafedf451","system_id":"levelo_inurba_marseille","lat":43.281,"lon":5.37837,"is_reserved":false,"is_disabled":false,"rental_uris":{"android":"levelo://app?vid=18042a15-56ee-40e1-80a8-bf6eafedf451","ios":"levelo://app?vid=18042a15-56ee-40e1-80a8-bf6eafedf451"},"vehicle_type_id":"4","last_reported":1702033564,"current_range_meters":2000,"station_id":"ce4bha12rcd13ifvqee0","pricing_plan_id":"free"},{"bike_id":"3efa1d21-cca1-43f2-919e-b6f1ed52a4da","system_id":"levelo_inurba_marseille","lat":43.281044,"lon":5.378308,"is_reserved":false,"is_disabled":false,"rental_uris":{"android":"levelo://app?vid=3efa1d21-cca1-43f2-919e-b6f1ed52a4da","ios":"levelo://app?vid=3efa1d21-cca1-43f2-919e-b6f1ed52a4da"},"vehicle_type_id":"4","last_reported":1702033564,"current_range_meters":10400,"station_id":"ce4bha12rcd13ifvqee0","pricing_plan_id":"free"},{"bike_id":"1cf8f4ad-7fe1-46df-8b66-2c711f1c952a","system_id":"levelo_inurba_marseille","lat":43.284462,"lon":5.392121,"is_reserved":false,"is_disabled":false,"rental_uris":{"android":"levelo://app?vid=1cf8f4ad-7fe1-46df-8b66-2c711f1c952a","ios":"levelo://app?vid=1cf8f4ad-7fe1-46df-8b66-2c711f1c952a"},"vehicle_type_id":"4","last_reported":1702033564,"current_range_meters":24800,"station_id":"ce4bhoh2rcd13ifvqh5g","pricing_plan_id":"free"},{"bike_id":"d85170ab-be15-4c50-b880-27a451fdb1a4","system_id":"levelo_inurba_marseille","lat":43.284462,"lon":5.392121,"is_reserved":false,"is_disabled":false,"rental_uris":{"android":"levelo://app?vid=d85170ab-be15-4c50-b880-27a451fdb1a4","ios":"levelo://app?vid=d85170ab-be15-4c50-b880-27a451fdb1a4"},"vehicle_type_id":"4","last_reported":1702033564,"current_range_meters":18800,"station_id":"ce4bhoh2rcd13ifvqh5g","pricing_plan_id":"free"},{"bike_id":"f14ead39-4f41-4599-9321-f960783c1e12","system_id":"levelo_inurba_marseille","lat":43.326605,"lon":5.409903,"is_reserved":false,"is_disabled":false,"rental_uris":{"android":"levelo://app?vid=f14ead39-4f41-4599-9321-f960783c1e12","ios":"levelo://app?vid=f14ead39-4f41-4599-9321-f960783c1e12"},"vehicle_type_id":"4","last_reported":1702033564,"current_range_meters":28400,"station_id":"ce4bhpp2rcd13ifvqhgg","pricing_plan_id":"free"},{"bike_id":"070a260d-ecc1-46d1-afab-6774750cd900","system_id":"levelo_inurba_marseille","lat":43.326605,"lon":5.409903,"is_reserved":false,"is_disabled":false,"rental_uris":{"android":"levelo://app?vid=070a260d-ecc1-46d1-afab-6774750cd900","ios":"levelo://app?vid=070a260d-ecc1-46d1-afab-6774750cd900"},"vehicle_type_id":"4","last_reported":1702033564,"current_range_meters":28800,"station_id":"ce4bhpp2rcd13ifvqhgg","pricing_plan_id":"free"},{"bike_id":"5fefe554-fe99-4e7c-bf4d-9b8cb69d1b6a","system_id":"levelo_inurba_marseille","lat":43.279087,"lon":5.380114,"is_reserved":false,"is_disabled":false,"rental_uris":{"android":"levelo://app?vid=5fefe554-fe99-4e7c-bf4d-9b8cb69d1b6a","ios":"levelo://app?vid=5fefe554-fe99-4e7c-bf4d-9b8cb69d1b6a"},"vehicle_type_id":"4","last_reported":1702033564,"current_range_meters":3200,"station_id":"ce4bhf92rcd13ifvqf50","pricing_plan_id":"free"},{"bike_id":"bf9c0286-54ca-458d-a58a-9d0d9c0353fb","system_id":"levelo_inurba_marseille","lat":43.279087,"lon":5.380114,"is_reserved":false,"is_disabled":false,"rental_uris":{"android":"levelo://app?vid=bf9c0286-54ca-458d-a58a-9d0d9c0353fb","ios":"levelo://app?vid=bf9c0286-54ca-458d-a58a-9d0d9c0353fb"},"vehicle_type_id":"4","last_reported":1702033564,"current_range_meters":31600,"station_id":"ce4bhf92rcd13ifvqf50","pricing_plan_id":"free"},{"bike_id":"202c200e-a556-4ddc-86be-5bfd39b25071","system_id":"levelo_inurba_marseille","lat":43.320045,"lon":5.415046,"is_reserved":false,"is_disabled":false,"rental_uris":{"android":"levelo://app?vid=202c200e-a556-4ddc-86be-5bfd39b25071","ios":"levelo://app?vid=202c200e-a556-4ddc-86be-5bfd39b25071"},"vehicle_type_id":"4","last_reported":1702033564,"current_range_meters":29200,"station_id":"ce4bhq92rcd13ifvqhkg","pricing_plan_id":"free"},{"bike_id":"fffefd2b-afca-4fbd-a371-173aa7f0b470","system_id":"levelo_inurba_marseille","lat":43.325243,"lon":5.414326,"is_reserved":false,"is_disabled":false,"rental_uris":{"android":"levelo://app?vid=fffefd2b-afca-4fbd-a371-173aa7f0b470","ios":"levelo://app?vid=fffefd2b-afca-4fbd-a371-173aa7f0b470"},"vehicle_type_id":"4","last_reported":1702033564,"current_range_meters":23200,"station_id":"ce4bhq12rcd13ifvqhhg","pricing_plan_id":"free"},{"bike_id":"10fc081b-0f8a-4c77-bae3-90d09bccc687","system_id":"levelo_inurba_marseille","lat":43.27696,"lon":5.38302,"is_reserved":false,"is_disabled":false,"rental_uris":{"android":"levelo://app?vid=10fc081b-0f8a-4c77-bae3-90d09bccc687","ios":"levelo://app?vid=10fc081b-0f8a-4c77-bae3-90d09bccc687"},"vehicle_type_id":"4","last_reported":1702033564,"current_range_meters":30400,"station_id":"","pricing_plan_id":"free"},{"bike_id":"21353717-0ebc-4941-8111-34c7a0b5fb53","system_id":"levelo_inurba_marseille","lat":43.280753,"lon":5.396491,"is_reserved":false,"is_disabled":false,"rental_uris":{"android":"levelo://app?vid=21353717-0ebc-4941-8111-34c7a0b5fb53","ios":"levelo://app?vid=21353717-0ebc-4941-8111-34c7a0b5fb53"},"vehicle_type_id":"4","last_reported":1702033564,"current_range_meters":19600,"station_id":"ce4bho12rcd13ifvqh2g","pricing_plan_id":"free"},{"bike_id":"ab9154a3-eb38-42e5-a7db-4b8ae0fd3010","system_id":"levelo_inurba_marseille","lat":43.303837,"lon":5.418724,"is_reserved":false,"is_disabled":false,"rental_uris":{"android":"levelo://app?vid=ab9154a3-eb38-42e5-a7db-4b8ae0fd3010","ios":"levelo://app?vid=ab9154a3-eb38-42e5-a7db-4b8ae0fd3010"},"vehicle_type_id":"4","last_reported":1702033564,"current_range_meters":31200,"station_id":"ce4bhop2rcd13ifvqh7g","pricing_plan_id":"free"},{"bike_id":"bc124395-5c3e-43ab-bdb1-274b898979bf","system_id":"levelo_inurba_marseille","lat":43.303837,"lon":5.418724,"is_reserved":false,"is_disabled":false,"rental_uris":{"android":"levelo://app?vid=bc124395-5c3e-43ab-bdb1-274b898979bf","ios":"levelo://app?vid=bc124395-5c3e-43ab-bdb1-274b898979bf"},"vehicle_type_id":"4","last_reported":1702033564,"current_range_meters":25600,"station_id":"ce4bhop2rcd13ifvqh7g","pricing_plan_id":"free"},{"bike_id":"6c07e982-b7bd-44e0-8bfd-6eba9dde01aa","system_id":"levelo_inurba_marseille","lat":43.33612,"lon":5.410321,"is_reserved":false,"is_disabled":false,"rental_uris":{"android":"levelo://app?vid=6c07e982-b7bd-44e0-8bfd-6eba9dde01aa","ios":"levelo://app?vid=6c07e982-b7bd-44e0-8bfd-6eba9dde01aa"},"vehicle_type_id":"4","last_reported":1702033564,"current_range_meters":6400,"station_id":"ce4bhqh2rcd13ifvqhmg","pricing_plan_id":"free"},{"bike_id":"92288d4e-db85-49a0-8d44-3c330313b612","system_id":"levelo_inurba_marseille","lat":43.278399,"lon":5.392139,"is_reserved":false,"is_disabled":false,"rental_uris":{"android":"levelo://app?vid=92288d4e-db85-49a0-8d44-3c330313b612","ios":"levelo://app?vid=92288d4e-db85-49a0-8d44-3c330313b612"},"vehicle_type_id":"4","last_reported":1702033564,"current_range_meters":27200,"station_id":"ce4bhjp2rcd13ifvqga0","pricing_plan_id":"free"},{"bike_id":"58715b71-05cb-47c5-9f7a-5fac0f4f4152","system_id":"levelo_inurba_marseille","lat":43.336134,"lon":5.410341,"is_reserved":false,"is_disabled":false,"rental_uris":{"android":"levelo://app?vid=58715b71-05cb-47c5-9f7a-5fac0f4f4152","ios":"levelo://app?vid=58715b71-05cb-47c5-9f7a-5fac0f4f4152"},"vehicle_type_id":"4","last_reported":1702033564,"current_range_meters":26400,"station_id":"ce4bhqh2rcd13ifvqhmg","pricing_plan_id":"free"},{"bike_id":"5cc7b054-7f74-4799-ba27-acd88dcc15ab","system_id":"levelo_inurba_marseille","lat":43.276429,"lon":5.391884,"is_reserved":false,"is_disabled":false,"rental_uris":{"android":"levelo://app?vid=5cc7b054-7f74-4799-ba27-acd88dcc15ab","ios":"levelo://app?vid=5cc7b054-7f74-4799-ba27-acd88dcc15ab"},"vehicle_type_id":"4","last_reported":1702033564,"current_range_meters":19600,"station_id":"","pricing_plan_id":"free"},{"bike_id":"986e2640-07f1-4aaf-ae9d-a0bb0a20f26c","system_id":"levelo_inurba_marseille","lat":43.279975,"lon":5.40009,"is_reserved":false,"is_disabled":false,"rental_uris":{"android":"levelo://app?vid=986e2640-07f1-4aaf-ae9d-a0bb0a20f26c","ios":"levelo://app?vid=986e2640-07f1-4aaf-ae9d-a0bb0a20f26c"},"vehicle_type_id":"4","last_reported":1702033564,"current_range_meters":24400,"station_id":"ce4bho92rcd13ifvqh4g","pricing_plan_id":"free"},{"bike_id":"200eafbf-d9f3-4a6e-935c-b56619044876","system_id":"levelo_inurba_marseille","lat":43.28761,"lon":5.41208,"is_reserved":false,"is_disabled":false,"rental_uris":{"android":"levelo://app?vid=200eafbf-d9f3-4a6e-935c-b56619044876","ios":"levelo://app?vid=200eafbf-d9f3-4a6e-935c-b56619044876"},"vehicle_type_id":"4","last_reported":1702033564,"current_range_meters":24400,"station_id":"","pricing_plan_id":"free"},{"bike_id":"ac48d04c-c813-4dcb-8013-15216c7aa7de","system_id":"levelo_inurba_marseille","lat":43.340804,"lon":5.410219,"is_reserved":false,"is_disabled":false,"rental_uris":{"android":"levelo://app?vid=ac48d04c-c813-4dcb-8013-15216c7aa7de","ios":"levelo://app?vid=ac48d04c-c813-4dcb-8013-15216c7aa7de"},"vehicle_type_id":"4","last_reported":1702033564,"current_range_meters":16400,"station_id":"ce4bhqh2rcd13ifvqhlg","pricing_plan_id":"free"},{"bike_id":"7777002e-5813-436f-aaf3-5560b01b82cf","system_id":"levelo_inurba_marseille","lat":43.310785,"lon":5.424305,"is_reserved":false,"is_disabled":false,"rental_uris":{"android":"levelo://app?vid=7777002e-5813-436f-aaf3-5560b01b82cf","ios":"levelo://app?vid=7777002e-5813-436f-aaf3-5560b01b82cf"},"vehicle_type_id":"4","last_reported":1702033564,"current_range_meters":20000,"station_id":"ce4bhp92rcd13ifvqhag","pricing_plan_id":"free"},{"bike_id":"98fd8ac5-d7f0-4eec-935b-9888a8c99cac","system_id":"levelo_inurba_marseille","lat":43.310785,"lon":5.424305,"is_reserved":false,"is_disabled":false,"rental_uris":{"android":"levelo://app?vid=98fd8ac5-d7f0-4eec-935b-9888a8c99cac","ios":"levelo://app?vid=98fd8ac5-d7f0-4eec-935b-9888a8c99cac"},"vehicle_type_id":"4","last_reported":1702033564,"current_range_meters":16000,"station_id":"ce4bhp92rcd13ifvqhag","pricing_plan_id":"free"},{"bike_id":"7f906411-9fb1-4869-badf-f4ee1b588984","system_id":"levelo_inurba_marseille","lat":43.340804,"lon":5.410219,"is_reserved":false,"is_disabled":false,"rental_uris":{"android":"levelo://app?vid=7f906411-9fb1-4869-badf-f4ee1b588984","ios":"levelo://app?vid=7f906411-9fb1-4869-badf-f4ee1b588984"},"vehicle_type_id":"4","last_reported":1702033564,"current_range_meters":30400,"station_id":"ce4bhqh2rcd13ifvqhlg","pricing_plan_id":"free"},{"bike_id":"63133364-316e-458e-b234-bbd4926c63fc","system_id":"levelo_inurba_marseille","lat":43.27583,"lon":5.39474,"is_reserved":false,"is_disabled":false,"rental_uris":{"android":"levelo://app?vid=63133364-316e-458e-b234-bbd4926c63fc","ios":"levelo://app?vid=63133364-316e-458e-b234-bbd4926c63fc"},"vehicle_type_id":"4","last_reported":1702033564,"current_range_meters":13200,"station_id":"","pricing_plan_id":"free"},{"bike_id":"09f71d2f-81ea-4644-8e24-dfea3454a076","system_id":"levelo_inurba_marseille","lat":43.274099,"lon":5.394019,"is_reserved":false,"is_disabled":false,"rental_uris":{"android":"levelo://app?vid=09f71d2f-81ea-4644-8e24-dfea3454a076","ios":"levelo://app?vid=09f71d2f-81ea-4644-8e24-dfea3454a076"},"vehicle_type_id":"4","last_reported":1702033564,"current_range_meters":29200,"station_id":"ce4bhdp2rcd13ifvqf20","pricing_plan_id":"free"},{"bike_id":"eaef0c91-0006-4e1a-b509-eede8ef610eb","system_id":"levelo_inurba_marseille","lat":43.274099,"lon":5.394019,"is_reserved":false,"is_disabled":false,"rental_uris":{"android":"levelo://app?vid=eaef0c91-0006-4e1a-b509-eede8ef610eb","ios":"levelo://app?vid=eaef0c91-0006-4e1a-b509-eede8ef610eb"},"vehicle_type_id":"4","last_reported":1702033564,"current_range_meters":27200,"station_id":"ce4bhdp2rcd13ifvqf20","pricing_plan_id":"free"},{"bike_id":"4ee84928-30de-467c-8215-de7b5558b7ed","system_id":"levelo_inurba_marseille","lat":43.295511,"lon":5.422926,"is_reserved":false,"is_disabled":false,"rental_uris":{"android":"levelo://app?vid=4ee84928-30de-467c-8215-de7b5558b7ed","ios":"levelo://app?vid=4ee84928-30de-467c-8215-de7b5558b7ed"},"vehicle_type_id":"4","last_reported":1702033564,"current_range_meters":31200,"station_id":"ce4bhph2rcd13ifvqhdg","pricing_plan_id":"free"},{"bike_id":"c9a354e1-cd47-4a73-9444-d6227e3bfab5","system_id":"levelo_inurba_marseille","lat":43.295511,"lon":5.422926,"is_reserved":false,"is_disabled":false,"rental_uris":{"android":"levelo://app?vid=c9a354e1-cd47-4a73-9444-d6227e3bfab5","ios":"levelo://app?vid=c9a354e1-cd47-4a73-9444-d6227e3bfab5"},"vehicle_type_id":"4","last_reported":1702033564,"current_range_meters":29200,"station_id":"ce4bhph2rcd13ifvqhdg","pricing_plan_id":"free"},{"bike_id":"77e2df1b-d75a-48fe-a6ad-744dfbe91f1d","system_id":"levelo_inurba_marseille","lat":43.27214,"lon":5.3925,"is_reserved":false,"is_disabled":false,"rental_uris":{"android":"levelo://app?vid=77e2df1b-d75a-48fe-a6ad-744dfbe91f1d","ios":"levelo://app?vid=77e2df1b-d75a-48fe-a6ad-744dfbe91f1d"},"vehicle_type_id":"4","last_reported":1702033564,"current_range_meters":5600,"station_id":"","pricing_plan_id":"free"},{"bike_id":"2eb7b164-467e-49b0-a554-29c177f95c2a","system_id":"levelo_inurba_marseille","lat":43.278128,"lon":5.407195,"is_reserved":false,"is_disabled":false,"rental_uris":{"android":"levelo://app?vid=2eb7b164-467e-49b0-a554-29c177f95c2a","ios":"levelo://app?vid=2eb7b164-467e-49b0-a554-29c177f95c2a"},"vehicle_type_id":"4","last_reported":1702033564,"current_range_meters":24000,"station_id":"ce4bhnh2rcd13ifvqgtg","pricing_plan_id":"free"},{"bike_id":"2e85e846-8324-4813-8d3e-dfa625a93eaa","system_id":"levelo_inurba_marseille","lat":43.278128,"lon":5.407195,"is_reserved":false,"is_disabled":false,"rental_uris":{"android":"levelo://app?vid=2e85e846-8324-4813-8d3e-dfa625a93eaa","ios":"levelo://app?vid=2e85e846-8324-4813-8d3e-dfa625a93eaa"},"vehicle_type_id":"4","last_reported":1702033564,"current_range_meters":30800,"station_id":"ce4bhnh2rcd13ifvqgtg","pricing_plan_id":"free"},{"bike_id":"7b84562b-f023-458e-9f63-22f52b26a915","system_id":"levelo_inurba_marseille","lat":43.278128,"lon":5.407195,"is_reserved":false,"is_disabled":false,"rental_uris":{"android":"levelo://app?vid=7b84562b-f023-458e-9f63-22f52b26a915","ios":"levelo://app?vid=7b84562b-f023-458e-9f63-22f52b26a915"},"vehicle_type_id":"4","last_reported":1702033564,"current_range_meters":31600,"station_id":"ce4bhnh2rcd13ifvqgtg","pricing_plan_id":"free"},{"bike_id":"54f18ff7-4784-4dbe-ac30-cd93f7ecd65c","system_id":"levelo_inurba_marseille","lat":43.278128,"lon":5.407195,"is_reserved":false,"is_disabled":false,"rental_uris":{"android":"levelo://app?vid=54f18ff7-4784-4dbe-ac30-cd93f7ecd65c","ios":"levelo://app?vid=54f18ff7-4784-4dbe-ac30-cd93f7ecd65c"},"vehicle_type_id":"4","last_reported":1702033564,"current_range_meters":27600,"station_id":"ce4bhnh2rcd13ifvqgtg","pricing_plan_id":"free"},{"bike_id":"b697429d-0119-4908-92fc-5d4d4451b858","system_id":"levelo_inurba_marseille","lat":43.278128,"lon":5.407195,"is_reserved":false,"is_disabled":false,"rental_uris":{"android":"levelo://app?vid=b697429d-0119-4908-92fc-5d4d4451b858","ios":"levelo://app?vid=b697429d-0119-4908-92fc-5d4d4451b858"},"vehicle_type_id":"4","last_reported":1702033564,"current_range_meters":26000,"station_id":"ce4bhnh2rcd13ifvqgtg","pricing_plan_id":"free"},{"bike_id":"0919e87c-4337-45ca-a2e8-a7b2006ec699","system_id":"levelo_inurba_marseille","lat":43.278128,"lon":5.407195,"is_reserved":false,"is_disabled":false,"rental_uris":{"android":"levelo://app?vid=0919e87c-4337-45ca-a2e8-a7b2006ec699","ios":"levelo://app?vid=0919e87c-4337-45ca-a2e8-a7b2006ec699"},"vehicle_type_id":"4","last_reported":1702033564,"current_range_meters":24400,"station_id":"ce4bhnh2rcd13ifvqgtg","pricing_plan_id":"free"},{"bike_id":"8e3ed466-32b5-40fb-9e63-efc51e8e36c0","system_id":"levelo_inurba_marseille","lat":43.278128,"lon":5.407195,"is_reserved":false,"is_disabled":false,"rental_uris":{"android":"levelo://app?vid=8e3ed466-32b5-40fb-9e63-efc51e8e36c0","ios":"levelo://app?vid=8e3ed466-32b5-40fb-9e63-efc51e8e36c0"},"vehicle_type_id":"4","last_reported":1702033564,"current_range_meters":29600,"station_id":"ce4bhnh2rcd13ifvqgtg","pricing_plan_id":"free"},{"bike_id":"d6d6d7ad-609f-401a-8f30-0470b752fe8d","system_id":"levelo_inurba_marseille","lat":43.269467,"lon":5.386439,"is_reserved":false,"is_disabled":false,"rental_uris":{"android":"levelo://app?vid=d6d6d7ad-609f-401a-8f30-0470b752fe8d","ios":"levelo://app?vid=d6d6d7ad-609f-401a-8f30-0470b752fe8d"},"vehicle_type_id":"4","last_reported":1702033564,"current_range_meters":2000,"station_id":"ce4bhh92rcd13ifvqfh0","pricing_plan_id":"free"},{"bike_id":"5a19377d-11ad-4127-a329-fbdcaed55367","system_id":"levelo_inurba_marseille","lat":43.279465,"lon":5.410561,"is_reserved":false,"is_disabled":false,"rental_uris":{"android":"levelo://app?vid=5a19377d-11ad-4127-a329-fbdcaed55367","ios":"levelo://app?vid=5a19377d-11ad-4127-a329-fbdcaed55367"},"vehicle_type_id":"4","last_reported":1702033564,"current_range_meters":22000,"station_id":"ce4bhnp2rcd13ifvqh0g","pricing_plan_id":"free"},{"bike_id":"e7e9641a-b8b2-4955-a293-42b8f211cc5f","system_id":"levelo_inurba_marseille","lat":43.27944,"lon":5.41052,"is_reserved":false,"is_disabled":false,"rental_uris":{"android":"levelo://app?vid=e7e9641a-b8b2-4955-a293-42b8f211cc5f","ios":"levelo://app?vid=e7e9641a-b8b2-4955-a293-42b8f211cc5f"},"vehicle_type_id":"4","last_reported":1702033564,"current_range_meters":8000,"station_id":"ce4bhnp2rcd13ifvqh0g","pricing_plan_id":"free"},{"bike_id":"aefcadae-0d2a-40cf-bcf0-43f3544e4085","system_id":"levelo_inurba_marseille","lat":43.279465,"lon":5.410561,"is_reserved":false,"is_disabled":false,"rental_uris":{"android":"levelo://app?vid=aefcadae-0d2a-40cf-bcf0-43f3544e4085","ios":"levelo://app?vid=aefcadae-0d2a-40cf-bcf0-43f3544e4085"},"vehicle_type_id":"4","last_reported":1702033564,"current_range_meters":15200,"station_id":"ce4bhnp2rcd13ifvqh0g","pricing_plan_id":"free"},{"bike_id":"dffd642e-6acf-43e9-84fd-33fa89f52c00","system_id":"levelo_inurba_marseille","lat":43.27905,"lon":5.41226,"is_reserved":false,"is_disabled":false,"rental_uris":{"android":"levelo://app?vid=dffd642e-6acf-43e9-84fd-33fa89f52c00","ios":"levelo://app?vid=dffd642e-6acf-43e9-84fd-33fa89f52c00"},"vehicle_type_id":"4","last_reported":1702033564,"current_range_meters":10800,"station_id":"","pricing_plan_id":"free"},{"bike_id":"278d3881-2a72-4b9f-b073-2914ce67f608","system_id":"levelo_inurba_marseille","lat":43.26681,"lon":5.382694,"is_reserved":false,"is_disabled":false,"rental_uris":{"android":"levelo://app?vid=278d3881-2a72-4b9f-b073-2914ce67f608","ios":"levelo://app?vid=278d3881-2a72-4b9f-b073-2914ce67f608"},"vehicle_type_id":"4","last_reported":1702033564,"current_range_meters":30400,"station_id":"ce4bhg92rcd13ifvqf90","pricing_plan_id":"free"},{"bike_id":"1fda5528-ce12-4baf-b7ef-72d32bd3f500","system_id":"levelo_inurba_marseille","lat":43.26681,"lon":5.382694,"is_reserved":false,"is_disabled":false,"rental_uris":{"android":"levelo://app?vid=1fda5528-ce12-4baf-b7ef-72d32bd3f500","ios":"levelo://app?vid=1fda5528-ce12-4baf-b7ef-72d32bd3f500"},"vehicle_type_id":"4","last_reported":1702033564,"current_range_meters":6000,"station_id":"ce4bhg92rcd13ifvqf90","pricing_plan_id":"free"},{"bike_id":"c5a7c336-b6fb-424d-afa9-81ddea519e58","system_id":"levelo_inurba_marseille","lat":43.26681,"lon":5.382694,"is_reserved":false,"is_disabled":false,"rental_uris":{"android":"levelo://app?vid=c5a7c336-b6fb-424d-afa9-81ddea519e58","ios":"levelo://app?vid=c5a7c336-b6fb-424d-afa9-81ddea519e58"},"vehicle_type_id":"4","last_reported":1702033564,"current_range_meters":6000,"station_id":"ce4bhg92rcd13ifvqf90","pricing_plan_id":"free"},{"bike_id":"69cf0675-0b26-4e62-9580-22f1eaf1e028","system_id":"levelo_inurba_marseille","lat":43.26681,"lon":5.382694,"is_reserved":false,"is_disabled":false,"rental_uris":{"android":"levelo://app?vid=69cf0675-0b26-4e62-9580-22f1eaf1e028","ios":"levelo://app?vid=69cf0675-0b26-4e62-9580-22f1eaf1e028"},"vehicle_type_id":"4","last_reported":1702033564,"current_range_meters":31600,"station_id":"ce4bhg92rcd13ifvqf90","pricing_plan_id":"free"},{"bike_id":"5a87d66f-8536-4e23-9733-7cddf81d770e","system_id":"levelo_inurba_marseille","lat":43.26681,"lon":5.382694,"is_reserved":false,"is_disabled":false,"rental_uris":{"android":"levelo://app?vid=5a87d66f-8536-4e23-9733-7cddf81d770e","ios":"levelo://app?vid=5a87d66f-8536-4e23-9733-7cddf81d770e"},"vehicle_type_id":"4","last_reported":1702033564,"current_range_meters":22400,"station_id":"ce4bhg92rcd13ifvqf90","pricing_plan_id":"free"},{"bike_id":"64205017-117b-49da-8a8d-7d36ff1d6f75","system_id":"levelo_inurba_marseille","lat":43.26681,"lon":5.382694,"is_reserved":false,"is_disabled":false,"rental_uris":{"android":"levelo://app?vid=64205017-117b-49da-8a8d-7d36ff1d6f75","ios":"levelo://app?vid=64205017-117b-49da-8a8d-7d36ff1d6f75"},"vehicle_type_id":"4","last_reported":1702033564,"current_range_meters":31200,"station_id":"ce4bhg92rcd13ifvqf90","pricing_plan_id":"free"},{"bike_id":"79fc3dd7-61f3-4024-a51d-57aaef578867","system_id":"levelo_inurba_marseille","lat":43.265714,"lon":5.372891,"is_reserved":false,"is_disabled":false,"rental_uris":{"android":"levelo://app?vid=79fc3dd7-61f3-4024-a51d-57aaef578867","ios":"levelo://app?vid=79fc3dd7-61f3-4024-a51d-57aaef578867"},"vehicle_type_id":"4","last_reported":1702033564,"current_range_meters":12000,"station_id":"ce4bhg12rcd13ifvqf70","pricing_plan_id":"free"},{"bike_id":"d1229013-f4fa-4838-b99c-7170643c99ca","system_id":"levelo_inurba_marseille","lat":43.27996,"lon":5.416624,"is_reserved":false,"is_disabled":false,"rental_uris":{"android":"levelo://app?vid=d1229013-f4fa-4838-b99c-7170643c99ca","ios":"levelo://app?vid=d1229013-f4fa-4838-b99c-7170643c99ca"},"vehicle_type_id":"4","last_reported":1702033564,"current_range_meters":19200,"station_id":"ce4bho12rcd13ifvqh1g","pricing_plan_id":"free"},{"bike_id":"5c62f0fe-2a68-4f0e-8c5e-1c3be35b64ff","system_id":"levelo_inurba_marseille","lat":43.29174,"lon":5.427901,"is_reserved":false,"is_disabled":false,"rental_uris":{"android":"levelo://app?vid=5c62f0fe-2a68-4f0e-8c5e-1c3be35b64ff","ios":"levelo://app?vid=5c62f0fe-2a68-4f0e-8c5e-1c3be35b64ff"},"vehicle_type_id":"4","last_reported":1702033564,"current_range_meters":11200,"station_id":"","pricing_plan_id":"free"},{"bike_id":"f076cecd-d7cf-41d2-831d-4d046a72d397","system_id":"levelo_inurba_marseille","lat":43.265571,"lon":5.390032,"is_reserved":false,"is_disabled":false,"rental_uris":{"android":"levelo://app?vid=f076cecd-d7cf-41d2-831d-4d046a72d397","ios":"levelo://app?vid=f076cecd-d7cf-41d2-831d-4d046a72d397"},"vehicle_type_id":"4","last_reported":1702033564,"current_range_meters":30400,"station_id":"ce4bhe12rcd13ifvqf30","pricing_plan_id":"free"},{"bike_id":"2388958a-6141-45da-a6b0-5bf2ba247bc0","system_id":"levelo_inurba_marseille","lat":43.265571,"lon":5.390032,"is_reserved":false,"is_disabled":false,"rental_uris":{"android":"levelo://app?vid=2388958a-6141-45da-a6b0-5bf2ba247bc0","ios":"levelo://app?vid=2388958a-6141-45da-a6b0-5bf2ba247bc0"},"vehicle_type_id":"4","last_reported":1702033564,"current_range_meters":3200,"station_id":"ce4bhe12rcd13ifvqf30","pricing_plan_id":"free"},{"bike_id":"736d0151-31db-4cb0-a5cc-0fa8fd52a877","system_id":"levelo_inurba_marseille","lat":43.26949,"lon":5.40262,"is_reserved":false,"is_disabled":false,"rental_uris":{"android":"levelo://app?vid=736d0151-31db-4cb0-a5cc-0fa8fd52a877","ios":"levelo://app?vid=736d0151-31db-4cb0-a5cc-0fa8fd52a877"},"vehicle_type_id":"4","last_reported":1702033564,"current_range_meters":16000,"station_id":"cjm6bp8fraef2m0cb0m0","pricing_plan_id":"free"},{"bike_id":"f2e5d013-6edb-494d-8e09-78d711cf04a7","system_id":"levelo_inurba_marseille","lat":43.317104,"lon":5.436818,"is_reserved":false,"is_disabled":false,"rental_uris":{"android":"levelo://app?vid=f2e5d013-6edb-494d-8e09-78d711cf04a7","ios":"levelo://app?vid=f2e5d013-6edb-494d-8e09-78d711cf04a7"},"vehicle_type_id":"4","last_reported":1702033564,"current_range_meters":27600,"station_id":"ce4bhp92rcd13ifvqhcg","pricing_plan_id":"free"},{"bike_id":"3304d659-2172-4c05-95b9-9ce22aa618b6","system_id":"levelo_inurba_marseille","lat":43.271388,"lon":5.409269,"is_reserved":false,"is_disabled":false,"rental_uris":{"android":"levelo://app?vid=3304d659-2172-4c05-95b9-9ce22aa618b6","ios":"levelo://app?vid=3304d659-2172-4c05-95b9-9ce22aa618b6"},"vehicle_type_id":"4","last_reported":1702033564,"current_range_meters":31600,"station_id":"ce4bhl12rcd13ifvqgf0","pricing_plan_id":"free"},{"bike_id":"c02629ae-02d4-4d04-930c-99d6c910f9de","system_id":"levelo_inurba_marseille","lat":43.271388,"lon":5.409269,"is_reserved":false,"is_disabled":false,"rental_uris":{"android":"levelo://app?vid=c02629ae-02d4-4d04-930c-99d6c910f9de","ios":"levelo://app?vid=c02629ae-02d4-4d04-930c-99d6c910f9de"},"vehicle_type_id":"4","last_reported":1702033564,"current_range_meters":23600,"station_id":"ce4bhl12rcd13ifvqgf0","pricing_plan_id":"free"},{"bike_id":"efa24303-85ca-4cb7-8ca4-9a01f478b899","system_id":"levelo_inurba_marseille","lat":43.267959,"lon":5.402687,"is_reserved":false,"is_disabled":false,"rental_uris":{"android":"levelo://app?vid=efa24303-85ca-4cb7-8ca4-9a01f478b899","ios":"levelo://app?vid=efa24303-85ca-4cb7-8ca4-9a01f478b899"},"vehicle_type_id":"4","last_reported":1702033564,"current_range_meters":26000,"station_id":"ce501612rcd8frsf0b60","pricing_plan_id":"free"},{"bike_id":"e50d1541-cf62-4d0e-9da2-d93c4ebde113","system_id":"levelo_inurba_marseille","lat":43.267959,"lon":5.402685,"is_reserved":false,"is_disabled":false,"rental_uris":{"android":"levelo://app?vid=e50d1541-cf62-4d0e-9da2-d93c4ebde113","ios":"levelo://app?vid=e50d1541-cf62-4d0e-9da2-d93c4ebde113"},"vehicle_type_id":"4","last_reported":1702033564,"current_range_meters":23600,"station_id":"ce501612rcd8frsf0b60","pricing_plan_id":"free"},{"bike_id":"ef422868-4c1b-4cdc-9e29-0527a7943ef3","system_id":"levelo_inurba_marseille","lat":43.267959,"lon":5.402687,"is_reserved":false,"is_disabled":false,"rental_uris":{"android":"levelo://app?vid=ef422868-4c1b-4cdc-9e29-0527a7943ef3","ios":"levelo://app?vid=ef422868-4c1b-4cdc-9e29-0527a7943ef3"},"vehicle_type_id":"4","last_reported":1702033564,"current_range_meters":20000,"station_id":"ce501612rcd8frsf0b60","pricing_plan_id":"free"},{"bike_id":"8a8bc4d6-0029-4fbf-9728-a692a0316877","system_id":"levelo_inurba_marseille","lat":43.27557,"lon":5.41681,"is_reserved":false,"is_disabled":false,"rental_uris":{"android":"levelo://app?vid=8a8bc4d6-0029-4fbf-9728-a692a0316877","ios":"levelo://app?vid=8a8bc4d6-0029-4fbf-9728-a692a0316877"},"vehicle_type_id":"4","last_reported":1702033564,"current_range_meters":2800,"station_id":"","pricing_plan_id":"free"},{"bike_id":"ca4db8a8-5b98-4b78-bc3d-514f38028a3d","system_id":"levelo_inurba_marseille","lat":43.29896,"lon":5.43665,"is_reserved":false,"is_disabled":false,"rental_uris":{"android":"levelo://app?vid=ca4db8a8-5b98-4b78-bc3d-514f38028a3d","ios":"levelo://app?vid=ca4db8a8-5b98-4b78-bc3d-514f38028a3d"},"vehicle_type_id":"4","last_reported":1702033564,"current_range_meters":31200,"station_id":"ce4bhpp2rcd13ifvqhfg","pricing_plan_id":"free"},{"bike_id":"4f68f183-a711-4386-a731-e8ea8e2f115e","system_id":"levelo_inurba_marseille","lat":43.298768,"lon":5.43643,"is_reserved":false,"is_disabled":false,"rental_uris":{"android":"levelo://app?vid=4f68f183-a711-4386-a731-e8ea8e2f115e","ios":"levelo://app?vid=4f68f183-a711-4386-a731-e8ea8e2f115e"},"vehicle_type_id":"4","last_reported":1702033564,"current_range_meters":25200,"station_id":"ce4bhpp2rcd13ifvqhfg","pricing_plan_id":"free"},{"bike_id":"83e2018e-7127-4415-8bbf-2e347a9c6750","system_id":"levelo_inurba_marseille","lat":43.29897,"lon":5.43669,"is_reserved":false,"is_disabled":false,"rental_uris":{"android":"levelo://app?vid=83e2018e-7127-4415-8bbf-2e347a9c6750","ios":"levelo://app?vid=83e2018e-7127-4415-8bbf-2e347a9c6750"},"vehicle_type_id":"4","last_reported":1702033564,"current_range_meters":3600,"station_id":"ce4bhpp2rcd13ifvqhfg","pricing_plan_id":"free"},{"bike_id":"f952d5c9-3264-4e68-9944-a590552f9728","system_id":"levelo_inurba_marseille","lat":43.281548,"lon":5.42643,"is_reserved":false,"is_disabled":false,"rental_uris":{"android":"levelo://app?vid=f952d5c9-3264-4e68-9944-a590552f9728","ios":"levelo://app?vid=f952d5c9-3264-4e68-9944-a590552f9728"},"vehicle_type_id":"4","last_reported":1702033564,"current_range_meters":31200,"station_id":"ce4bhnh2rcd13ifvqgug","pricing_plan_id":"free"},{"bike_id":"fee59bde-6126-4a98-a3e0-c862515d1a23","system_id":"levelo_inurba_marseille","lat":43.281548,"lon":5.42643,"is_reserved":false,"is_disabled":false,"rental_uris":{"android":"levelo://app?vid=fee59bde-6126-4a98-a3e0-c862515d1a23","ios":"levelo://app?vid=fee59bde-6126-4a98-a3e0-c862515d1a23"},"vehicle_type_id":"4","last_reported":1702033564,"current_range_meters":31200,"station_id":"ce4bhnh2rcd13ifvqgug","pricing_plan_id":"free"},{"bike_id":"6c4a4127-c4de-4571-99d2-c4e93580765c","system_id":"levelo_inurba_marseille","lat":43.281548,"lon":5.42643,"is_reserved":false,"is_disabled":false,"rental_uris":{"android":"levelo://app?vid=6c4a4127-c4de-4571-99d2-c4e93580765c","ios":"levelo://app?vid=6c4a4127-c4de-4571-99d2-c4e93580765c"},"vehicle_type_id":"4","last_reported":1702033564,"current_range_meters":23200,"station_id":"ce4bhnh2rcd13ifvqgug","pricing_plan_id":"free"},{"bike_id":"ba7ddf79-ff50-4f5c-8fc6-82d165f47152","system_id":"levelo_inurba_marseille","lat":43.28153,"lon":5.42651,"is_reserved":false,"is_disabled":false,"rental_uris":{"android":"levelo://app?vid=ba7ddf79-ff50-4f5c-8fc6-82d165f47152","ios":"levelo://app?vid=ba7ddf79-ff50-4f5c-8fc6-82d165f47152"},"vehicle_type_id":"4","last_reported":1702033564,"current_range_meters":4400,"station_id":"ce4bhnh2rcd13ifvqgug","pricing_plan_id":"free"},{"bike_id":"aa000ddb-e1a1-44b1-9c45-a1da2129918f","system_id":"levelo_inurba_marseille","lat":43.2607,"lon":5.393983,"is_reserved":false,"is_disabled":false,"rental_uris":{"android":"levelo://app?vid=aa000ddb-e1a1-44b1-9c45-a1da2129918f","ios":"levelo://app?vid=aa000ddb-e1a1-44b1-9c45-a1da2129918f"},"vehicle_type_id":"4","last_reported":1702033564,"current_range_meters":26800,"station_id":"ce4bhh92rcd13ifvqfj0","pricing_plan_id":"free"},{"bike_id":"a31da206-9ccc-41ba-b9e0-95fc13a79ad5","system_id":"levelo_inurba_marseille","lat":43.2607,"lon":5.393983,"is_reserved":false,"is_disabled":false,"rental_uris":{"android":"levelo://app?vid=a31da206-9ccc-41ba-b9e0-95fc13a79ad5","ios":"levelo://app?vid=a31da206-9ccc-41ba-b9e0-95fc13a79ad5"},"vehicle_type_id":"4","last_reported":1702033564,"current_range_meters":31200,"station_id":"ce4bhh92rcd13ifvqfj0","pricing_plan_id":"free"},{"bike_id":"c90d4f1f-c031-4bfa-9513-341cda3df957","system_id":"levelo_inurba_marseille","lat":43.2607,"lon":5.393983,"is_reserved":false,"is_disabled":false,"rental_uris":{"android":"levelo://app?vid=c90d4f1f-c031-4bfa-9513-341cda3df957","ios":"levelo://app?vid=c90d4f1f-c031-4bfa-9513-341cda3df957"},"vehicle_type_id":"4","last_reported":1702033564,"current_range_meters":29200,"station_id":"ce4bhh92rcd13ifvqfj0","pricing_plan_id":"free"},{"bike_id":"3ad59db9-ba6e-4237-879d-9ad671817685","system_id":"levelo_inurba_marseille","lat":43.258224,"lon":5.394369,"is_reserved":false,"is_disabled":false,"rental_uris":{"android":"levelo://app?vid=3ad59db9-ba6e-4237-879d-9ad671817685","ios":"levelo://app?vid=3ad59db9-ba6e-4237-879d-9ad671817685"},"vehicle_type_id":"4","last_reported":1702033564,"current_range_meters":26000,"station_id":"ce4bhip2rcd13ifvqft0","pricing_plan_id":"free"},{"bike_id":"8ed0ddca-11cc-4b43-b35d-ac1d76bafade","system_id":"levelo_inurba_marseille","lat":43.258224,"lon":5.394369,"is_reserved":false,"is_disabled":false,"rental_uris":{"android":"levelo://app?vid=8ed0ddca-11cc-4b43-b35d-ac1d76bafade","ios":"levelo://app?vid=8ed0ddca-11cc-4b43-b35d-ac1d76bafade"},"vehicle_type_id":"4","last_reported":1702033564,"current_range_meters":30000,"station_id":"ce4bhip2rcd13ifvqft0","pricing_plan_id":"free"},{"bike_id":"e856e3e2-19f3-4032-b101-8637dc70d52d","system_id":"levelo_inurba_marseille","lat":43.245581,"lon":5.395069,"is_reserved":false,"is_disabled":false,"rental_uris":{"android":"levelo://app?vid=e856e3e2-19f3-4032-b101-8637dc70d52d","ios":"levelo://app?vid=e856e3e2-19f3-4032-b101-8637dc70d52d"},"vehicle_type_id":"4","last_reported":1702033564,"current_range_meters":19200,"station_id":"ce4bhlp2rcd13ifvqgjg","pricing_plan_id":"free"},{"bike_id":"d3f8d42e-7148-47c9-80b9-54e0739fd8b2","system_id":"levelo_inurba_marseille","lat":43.254947,"lon":5.376454,"is_reserved":false,"is_disabled":false,"rental_uris":{"android":"levelo://app?vid=d3f8d42e-7148-47c9-80b9-54e0739fd8b2","ios":"levelo://app?vid=d3f8d42e-7148-47c9-80b9-54e0739fd8b2"},"vehicle_type_id":"4","last_reported":1702033564,"current_range_meters":24000,"station_id":"ce4bhh12rcd13ifvqff0","pricing_plan_id":"free"},{"bike_id":"edb444dc-2efe-4df9-b284-a7027743e237","system_id":"levelo_inurba_marseille","lat":43.250023,"lon":5.38919,"is_reserved":false,"is_disabled":false,"rental_uris":{"android":"levelo://app?vid=edb444dc-2efe-4df9-b284-a7027743e237","ios":"levelo://app?vid=edb444dc-2efe-4df9-b284-a7027743e237"},"vehicle_type_id":"4","last_reported":1702033564,"current_range_meters":26000,"station_id":"ce4bhgp2rcd13ifvqfd0","pricing_plan_id":"free"},{"bike_id":"ddf2951b-2b04-424f-9ef1-6d8217c9e48c","system_id":"levelo_inurba_marseille","lat":43.250009,"lon":5.389195,"is_reserved":false,"is_disabled":false,"rental_uris":{"android":"levelo://app?vid=ddf2951b-2b04-424f-9ef1-6d8217c9e48c","ios":"levelo://app?vid=ddf2951b-2b04-424f-9ef1-6d8217c9e48c"},"vehicle_type_id":"4","last_reported":1702033564,"current_range_meters":31200,"station_id":"ce4bhgp2rcd13ifvqfd0","pricing_plan_id":"free"},{"bike_id":"eb2bdca4-c898-4cb6-a6a2-2c4fe876e1d1","system_id":"levelo_inurba_marseille","lat":43.24995,"lon":5.389297,"is_reserved":false,"is_disabled":false,"rental_uris":{"android":"levelo://app?vid=eb2bdca4-c898-4cb6-a6a2-2c4fe876e1d1","ios":"levelo://app?vid=eb2bdca4-c898-4cb6-a6a2-2c4fe876e1d1"},"vehicle_type_id":"4","last_reported":1702033564,"current_range_meters":0,"station_id":"ce4bhgp2rcd13ifvqfd0","pricing_plan_id":"free"},{"bike_id":"4c3aa7d5-6439-4de8-8f31-a41d81fc5fda","system_id":"levelo_inurba_marseille","lat":43.2479,"lon":5.374457,"is_reserved":false,"is_disabled":false,"rental_uris":{"android":"levelo://app?vid=4c3aa7d5-6439-4de8-8f31-a41d81fc5fda","ios":"levelo://app?vid=4c3aa7d5-6439-4de8-8f31-a41d81fc5fda"},"vehicle_type_id":"4","last_reported":1702033564,"current_range_meters":30000,"station_id":"ce4bhgh2rcd13ifvqfb0","pricing_plan_id":"free"},{"bike_id":"0b4d00e8-4368-45fa-a64c-57ed80dcd7f5","system_id":"levelo_inurba_marseille","lat":43.2479,"lon":5.374457,"is_reserved":false,"is_disabled":false,"rental_uris":{"android":"levelo://app?vid=0b4d00e8-4368-45fa-a64c-57ed80dcd7f5","ios":"levelo://app?vid=0b4d00e8-4368-45fa-a64c-57ed80dcd7f5"},"vehicle_type_id":"4","last_reported":1702033564,"current_range_meters":26000,"station_id":"ce4bhgh2rcd13ifvqfb0","pricing_plan_id":"free"},{"bike_id":"55d4cda2-7880-44c8-8815-1b2f87dd305f","system_id":"levelo_inurba_marseille","lat":43.25107,"lon":5.4032,"is_reserved":false,"is_disabled":false,"rental_uris":{"android":"levelo://app?vid=55d4cda2-7880-44c8-8815-1b2f87dd305f","ios":"levelo://app?vid=55d4cda2-7880-44c8-8815-1b2f87dd305f"},"vehicle_type_id":"4","last_reported":1702033564,"current_range_meters":21600,"station_id":"ce4bhlh2rcd13ifvqgig","pricing_plan_id":"free"},{"bike_id":"0dec1a5f-db13-42a4-9d87-f17fb3d470f8","system_id":"levelo_inurba_marseille","lat":43.246467,"lon":5.388984,"is_reserved":false,"is_disabled":false,"rental_uris":{"android":"levelo://app?vid=0dec1a5f-db13-42a4-9d87-f17fb3d470f8","ios":"levelo://app?vid=0dec1a5f-db13-42a4-9d87-f17fb3d470f8"},"vehicle_type_id":"4","last_reported":1702033564,"current_range_meters":28800,"station_id":"ce4bhg12rcd13ifvqf60","pricing_plan_id":"free"},{"bike_id":"9721f0e7-0120-440d-9db1-67014846166a","system_id":"levelo_inurba_marseille","lat":43.243884,"lon":5.370737,"is_reserved":false,"is_disabled":false,"rental_uris":{"android":"levelo://app?vid=9721f0e7-0120-440d-9db1-67014846166a","ios":"levelo://app?vid=9721f0e7-0120-440d-9db1-67014846166a"},"vehicle_type_id":"4","last_reported":1702033564,"current_range_meters":26400,"station_id":"ce4bhhh2rcd13ifvqfk0","pricing_plan_id":"free"},{"bike_id":"a7359d42-ae96-4fbc-9d7e-58e1b4f3ca8c","system_id":"levelo_inurba_marseille","lat":43.243884,"lon":5.370737,"is_reserved":false,"is_disabled":false,"rental_uris":{"android":"levelo://app?vid=a7359d42-ae96-4fbc-9d7e-58e1b4f3ca8c","ios":"levelo://app?vid=a7359d42-ae96-4fbc-9d7e-58e1b4f3ca8c"},"vehicle_type_id":"4","last_reported":1702033564,"current_range_meters":31200,"station_id":"ce4bhhh2rcd13ifvqfk0","pricing_plan_id":"free"},{"bike_id":"ba1ffccb-f4bc-4b3d-b74e-1c497c8a3cb0","system_id":"levelo_inurba_marseille","lat":43.243884,"lon":5.370737,"is_reserved":false,"is_disabled":false,"rental_uris":{"android":"levelo://app?vid=ba1ffccb-f4bc-4b3d-b74e-1c497c8a3cb0","ios":"levelo://app?vid=ba1ffccb-f4bc-4b3d-b74e-1c497c8a3cb0"},"vehicle_type_id":"4","last_reported":1702033564,"current_range_meters":20400,"station_id":"ce4bhhh2rcd13ifvqfk0","pricing_plan_id":"free"},{"bike_id":"2ee3d9c4-4972-4e95-9aee-470fd68e876e","system_id":"levelo_inurba_marseille","lat":43.245581,"lon":5.395069,"is_reserved":false,"is_disabled":false,"rental_uris":{"android":"levelo://app?vid=2ee3d9c4-4972-4e95-9aee-470fd68e876e","ios":"levelo://app?vid=2ee3d9c4-4972-4e95-9aee-470fd68e876e"},"vehicle_type_id":"4","last_reported":1702033564,"current_range_meters":31200,"station_id":"ce4bhlp2rcd13ifvqgjg","pricing_plan_id":"free"},{"bike_id":"20847862-acfb-40ed-bdfe-ca56ae9ec7d6","system_id":"levelo_inurba_marseille","lat":43.245581,"lon":5.395069,"is_reserved":false,"is_disabled":false,"rental_uris":{"android":"levelo://app?vid=20847862-acfb-40ed-bdfe-ca56ae9ec7d6","ios":"levelo://app?vid=20847862-acfb-40ed-bdfe-ca56ae9ec7d6"},"vehicle_type_id":"4","last_reported":1702033564,"current_range_meters":25600,"station_id":"ce4bhlp2rcd13ifvqgjg","pricing_plan_id":"free"},{"bike_id":"b3705516-da65-4902-b345-4cc53e261fdf","system_id":"levelo_inurba_marseille","lat":43.2408,"lon":5.37759,"is_reserved":false,"is_disabled":false,"rental_uris":{"android":"levelo://app?vid=b3705516-da65-4902-b345-4cc53e261fdf","ios":"levelo://app?vid=b3705516-da65-4902-b345-4cc53e261fdf"},"vehicle_type_id":"4","last_reported":1702033564,"current_range_meters":22400,"station_id":"","pricing_plan_id":"free"},{"bike_id":"133d3a41-7ecd-44e9-a633-5c47e502f0e0","system_id":"levelo_inurba_marseille","lat":43.239588,"lon":5.366238,"is_reserved":false,"is_disabled":false,"rental_uris":{"android":"levelo://app?vid=133d3a41-7ecd-44e9-a633-5c47e502f0e0","ios":"levelo://app?vid=133d3a41-7ecd-44e9-a633-5c47e502f0e0"},"vehicle_type_id":"4","last_reported":1702033564,"current_range_meters":31200,"station_id":"ce4bhi12rcd13ifvqfp0","pricing_plan_id":"free"},{"bike_id":"b3aedcf8-a68f-4aa7-a7d4-9df74f5be85b","system_id":"levelo_inurba_marseille","lat":43.239588,"lon":5.366238,"is_reserved":false,"is_disabled":false,"rental_uris":{"android":"levelo://app?vid=b3aedcf8-a68f-4aa7-a7d4-9df74f5be85b","ios":"levelo://app?vid=b3aedcf8-a68f-4aa7-a7d4-9df74f5be85b"},"vehicle_type_id":"4","last_reported":1702033564,"current_range_meters":24400,"station_id":"ce4bhi12rcd13ifvqfp0","pricing_plan_id":"free"},{"bike_id":"91bfdc1c-8279-4701-a912-f78a96f6871b","system_id":"levelo_inurba_marseille","lat":43.239588,"lon":5.366238,"is_reserved":false,"is_disabled":false,"rental_uris":{"android":"levelo://app?vid=91bfdc1c-8279-4701-a912-f78a96f6871b","ios":"levelo://app?vid=91bfdc1c-8279-4701-a912-f78a96f6871b"},"vehicle_type_id":"4","last_reported":1702033564,"current_range_meters":20800,"station_id":"ce4bhi12rcd13ifvqfp0","pricing_plan_id":"free"},{"bike_id":"19de1d90-0ef7-4697-bd3a-3e98bd2bf2e7","system_id":"levelo_inurba_marseille","lat":43.239588,"lon":5.366238,"is_reserved":false,"is_disabled":false,"rental_uris":{"android":"levelo://app?vid=19de1d90-0ef7-4697-bd3a-3e98bd2bf2e7","ios":"levelo://app?vid=19de1d90-0ef7-4697-bd3a-3e98bd2bf2e7"},"vehicle_type_id":"4","last_reported":1702033564,"current_range_meters":29600,"station_id":"ce4bhi12rcd13ifvqfp0","pricing_plan_id":"free"},{"bike_id":"6084096c-589b-4ba6-bd9d-6d547fd35b59","system_id":"levelo_inurba_marseille","lat":43.239588,"lon":5.366238,"is_reserved":false,"is_disabled":false,"rental_uris":{"android":"levelo://app?vid=6084096c-589b-4ba6-bd9d-6d547fd35b59","ios":"levelo://app?vid=6084096c-589b-4ba6-bd9d-6d547fd35b59"},"vehicle_type_id":"4","last_reported":1702033564,"current_range_meters":27200,"station_id":"ce4bhi12rcd13ifvqfp0","pricing_plan_id":"free"},{"bike_id":"6756da97-db2c-4337-aa21-556950095f65","system_id":"levelo_inurba_marseille","lat":43.241782,"lon":5.397299,"is_reserved":false,"is_disabled":false,"rental_uris":{"android":"levelo://app?vid=6756da97-db2c-4337-aa21-556950095f65","ios":"levelo://app?vid=6756da97-db2c-4337-aa21-556950095f65"},"vehicle_type_id":"4","last_reported":1702033564,"current_range_meters":4800,"station_id":"ce4bhn12rcd13ifvqgpg","pricing_plan_id":"free"},{"bike_id":"a49dec4a-c810-4dfa-bfcd-34b61398e184","system_id":"levelo_inurba_marseille","lat":43.241782,"lon":5.397261,"is_reserved":false,"is_disabled":false,"rental_uris":{"android":"levelo://app?vid=a49dec4a-c810-4dfa-bfcd-34b61398e184","ios":"levelo://app?vid=a49dec4a-c810-4dfa-bfcd-34b61398e184"},"vehicle_type_id":"4","last_reported":1702033564,"current_range_meters":20400,"station_id":"ce4bhn12rcd13ifvqgpg","pricing_plan_id":"free"},{"bike_id":"486def36-f166-45ca-96f9-513a966ba0dc","system_id":"levelo_inurba_marseille","lat":43.231919,"lon":5.355532,"is_reserved":false,"is_disabled":false,"rental_uris":{"android":"levelo://app?vid=486def36-f166-45ca-96f9-513a966ba0dc","ios":"levelo://app?vid=486def36-f166-45ca-96f9-513a966ba0dc"},"vehicle_type_id":"4","last_reported":1702033564,"current_range_meters":25200,"station_id":"ce4bhu92rcd13ifvqi70","pricing_plan_id":"free"},{"bike_id":"6c4620c0-0d4d-493f-9950-4fd3c4457696","system_id":"levelo_inurba_marseille","lat":43.231794,"lon":5.400052,"is_reserved":false,"is_disabled":false,"rental_uris":{"android":"levelo://app?vid=6c4620c0-0d4d-493f-9950-4fd3c4457696","ios":"levelo://app?vid=6c4620c0-0d4d-493f-9950-4fd3c4457696"},"vehicle_type_id":"4","last_reported":1702033564,"current_range_meters":31600,"station_id":"ce4bhn12rcd13ifvqgqg","pricing_plan_id":"free"},{"bike_id":"be845917-f52e-4a9f-83ff-909546a09332","system_id":"levelo_inurba_marseille","lat":43.231794,"lon":5.400052,"is_reserved":false,"is_disabled":false,"rental_uris":{"android":"levelo://app?vid=be845917-f52e-4a9f-83ff-909546a09332","ios":"levelo://app?vid=be845917-f52e-4a9f-83ff-909546a09332"},"vehicle_type_id":"4","last_reported":1702033564,"current_range_meters":31600,"station_id":"ce4bhn12rcd13ifvqgqg","pricing_plan_id":"free"},{"bike_id":"52185dc8-f8c9-4df9-8092-bb2437fd062c","system_id":"levelo_inurba_marseille","lat":43.231562,"lon":5.436933,"is_reserved":false,"is_disabled":false,"rental_uris":{"android":"levelo://app?vid=52185dc8-f8c9-4df9-8092-bb2437fd062c","ios":"levelo://app?vid=52185dc8-f8c9-4df9-8092-bb2437fd062c"},"vehicle_type_id":"4","last_reported":1702033564,"current_range_meters":28800,"station_id":"ce4bhmp2rcd13ifvqgog","pricing_plan_id":"free"},{"bike_id":"1452ec47-af56-406b-b3ce-667e99ad18fc","system_id":"levelo_inurba_marseille","lat":43.231562,"lon":5.436933,"is_reserved":false,"is_disabled":false,"rental_uris":{"android":"levelo://app?vid=1452ec47-af56-406b-b3ce-667e99ad18fc","ios":"levelo://app?vid=1452ec47-af56-406b-b3ce-667e99ad18fc"},"vehicle_type_id":"4","last_reported":1702033564,"current_range_meters":26400,"station_id":"ce4bhmp2rcd13ifvqgog","pricing_plan_id":"free"},{"bike_id":"6c3e3c9e-4b18-4000-ba39-0358b7d7d901","system_id":"levelo_inurba_marseille","lat":43.231562,"lon":5.436933,"is_reserved":false,"is_disabled":false,"rental_uris":{"android":"levelo://app?vid=6c3e3c9e-4b18-4000-ba39-0358b7d7d901","ios":"levelo://app?vid=6c3e3c9e-4b18-4000-ba39-0358b7d7d901"},"vehicle_type_id":"4","last_reported":1702033564,"current_range_meters":28800,"station_id":"ce4bhmp2rcd13ifvqgog","pricing_plan_id":"free"},{"bike_id":"ff8b630f-28ea-4dbc-bd83-69f80e79cc61","system_id":"levelo_inurba_marseille","lat":43.231562,"lon":5.436933,"is_reserved":false,"is_disabled":false,"rental_uris":{"android":"levelo://app?vid=ff8b630f-28ea-4dbc-bd83-69f80e79cc61","ios":"levelo://app?vid=ff8b630f-28ea-4dbc-bd83-69f80e79cc61"},"vehicle_type_id":"4","last_reported":1702033564,"current_range_meters":18400,"station_id":"ce4bhmp2rcd13ifvqgog","pricing_plan_id":"free"},{"bike_id":"b541fc35-af29-477f-a39a-2a5090fd4d28","system_id":"levelo_inurba_marseille","lat":43.231562,"lon":5.436933,"is_reserved":false,"is_disabled":false,"rental_uris":{"android":"levelo://app?vid=b541fc35-af29-477f-a39a-2a5090fd4d28","ios":"levelo://app?vid=b541fc35-af29-477f-a39a-2a5090fd4d28"},"vehicle_type_id":"4","last_reported":1702033564,"current_range_meters":31200,"station_id":"ce4bhmp2rcd13ifvqgog","pricing_plan_id":"free"},{"bike_id":"f56c954e-02f9-49e9-b80d-c1e3823f54f8","system_id":"levelo_inurba_marseille","lat":43.231562,"lon":5.436933,"is_reserved":false,"is_disabled":false,"rental_uris":{"android":"levelo://app?vid=f56c954e-02f9-49e9-b80d-c1e3823f54f8","ios":"levelo://app?vid=f56c954e-02f9-49e9-b80d-c1e3823f54f8"},"vehicle_type_id":"4","last_reported":1702033564,"current_range_meters":16000,"station_id":"ce4bhmp2rcd13ifvqgog","pricing_plan_id":"free"}]}}