{"last_updated":1728886406,"ttl":60,"version":"2.2","data":{"bikes":[{"bike_id":"79d6d2a6-01c8-46e7-8618-793d521dfaaf","system_id":"levelo_inurba_marseille","lat":43.23152,"lon":5.43715,"is_reserved":false,"is_disabled":false,"rental_uris":{"android":"levelo://app?vid=79d6d2a6-01c8-46e7-8618-793d521dfaaf","ios":"levelo://app?vid=79d6d2a6-01c8-46e7-8618-793d521dfaaf"},"vehicle_type_id":"4","last_reported":1728886406,"current_range_meters":6000,"station_id":"ce4bhmp2rcd13ifvqgog","pricing_plan_id":"cebpf4jnsgd1na2vs0mg"},{"bike_id":"65f2e9e8-8927-465e-a2e8-cfabd2b0d4ae","system_id":"levelo_inurba_marseille","lat":43.31539,"lon":5.38036,"is_reserved":false,"is_disabled":false,"rental_uris":{"android":"levelo://app?vid=65f2e9e8-8927-465e-a2e8-cfabd2b0d4ae","ios":"levelo://app?vid=65f2e9e8-8927-465e-a2e8-cfabd2b0d4ae"},"vehicle_type_id":"4","last_reported":1728886406,"current_range_meters":10800,"station_id":"ce4bhsp2rcd13ifvqi50","pricing_plan_id":"cebpf4jnsgd1na2vs0mg"},{"bike_id":"5000f225-e468-4f5f-aaf3-6a4b5f001ae8","system_id":"levelo_inurba_marseille","lat":43.30469,"lon":5.37898,"is_reserved":false,"is_disabled":false,"rental_uris":{"android":"levelo://app?vid=5000f225-e468-4f5f-aaf3-6a4b5f001ae8","ios":"levelo://app?vid=5000f225-e468-4f5f-aaf3-6a4b5f001ae8"},"vehicle_type_id":"4","last_reported":1728886406,"current_range_meters":38800,"station_id":"ce4bgup2rcd13ifvqcn0","pricing_plan_id":"cebpf4jnsgd1na2vs0mg"},{"bike_id":"9297ff42-dc1c-45dd-b745-d6d1f3fd4bd3","system_id":"levelo_inurba_marseille","lat":43.27562,"lon":5.38408,"is_reserved":false,"is_disabled":false,"rental_uris":{"android":"levelo://app?vid=9297ff42-dc1c-45dd-b745-d6d1f3fd4bd3","ios":"levelo://app?vid=9297ff42-dc1c-45dd-b745-d6d1f3fd4bd3"},"vehicle_type_id":"4","last_reported":1728886406,"current_range_meters":38800,"station_id":"ce4bhh92rcd13ifvqfi0","pricing_plan_id":"cebpf4jnsgd1na2vs0mg"},{"bike_id":"2edcc1fa-6e71-455d-9f75-36356255befd","system_id":"levelo_inurba_marseille","lat":43.23152,"lon":5.4372,"is_reserved":false,"is_disabled":false,"rental_uris":{"android":"levelo://app?vid=2edcc1fa-6e71-455d-9f75-36356255befd","ios":"levelo://app?vid=2edcc1fa-6e71-455d-9f75-36356255befd"},"vehicle_type_id":"4","last_reported":1728886406,"current_range_meters":27600,"station_id":"ce4bhmp2rcd13ifvqgog","pricing_plan_id":"cebpf4jnsgd1na2vs0mg"},{"bike_id":"599c09fe-085f-4c4d-bcb2-98da69515aba","system_id":"levelo_inurba_marseille","lat":43.23064,"lon":5.35491,"is_reserved":false,"is_disabled":false,"rental_uris":{"android":"levelo://app?vid=599c09fe-085f-4c4d-bcb2-98da69515aba","ios":"levelo://app?vid=599c09fe-085f-4c4d-bcb2-98da69515aba"},"vehicle_type_id":"4","last_reported":1728886406,"current_range_meters":38400,"station_id":"cpo3342slgdg3j2ifvpg","pricing_plan_id":"cebpf4jnsgd1na2vs0mg"},{"bike_id":"ffb55efd-081e-4c1c-bc47-bf70f765f418","system_id":"levelo_inurba_marseille","lat":43.30156,"lon":5.38075,"is_reserved":false,"is_disabled":false,"rental_uris":{"android":"levelo://app?vid=ffb55efd-081e-4c1c-bc47-bf70f765f418","ios":"levelo://app?vid=ffb55efd-081e-4c1c-bc47-bf70f765f418"},"vehicle_type_id":"4","last_reported":1728886406,"current_range_meters":20800,"station_id":"ce4bgjp2rcd13ifvqbh0","pricing_plan_id":"cebpf4jnsgd1na2vs0mg"},{"bike_id":"2cd9817e-e70d-4d6c-a792-7cadd096c515","system_id":"levelo_inurba_marseille","lat":43.30347,"lon":5.41875,"is_reserved":false,"is_disabled":false,"rental_uris":{"android":"levelo://app?vid=2cd9817e-e70d-4d6c-a792-7cadd096c515","ios":"levelo://app?vid=2cd9817e-e70d-4d6c-a792-7cadd096c515"},"vehicle_type_id":"4","last_reported":1728886406,"current_range_meters":5600,"station_id":"ce4bhop2rcd13ifvqh7g","pricing_plan_id":"cebpf4jnsgd1na2vs0mg"},{"bike_id":"8d22e7b6-0b50-49d0-80c3-96954ae17025","system_id":"levelo_inurba_marseille","lat":43.28155,"lon":5.4264,"is_reserved":false,"is_disabled":false,"rental_uris":{"android":"levelo://app?vid=8d22e7b6-0b50-49d0-80c3-96954ae17025","ios":"levelo://app?vid=8d22e7b6-0b50-49d0-80c3-96954ae17025"},"vehicle_type_id":"4","last_reported":1728886406,"current_range_meters":35200,"station_id":"ce4bhnh2rcd13ifvqgug","pricing_plan_id":"cebpf4jnsgd1na2vs0mg"},{"bike_id":"a9cb76f9-5ae3-4331-b743-8e238e721f99","system_id":"levelo_inurba_marseille","lat":43.28667,"lon":5.38712,"is_reserved":false,"is_disabled":false,"rental_uris":{"android":"levelo://app?vid=a9cb76f9-5ae3-4331-b743-8e238e721f99","ios":"levelo://app?vid=a9cb76f9-5ae3-4331-b743-8e238e721f99"},"vehicle_type_id":"4","last_reported":1728886406,"current_range_meters":34800,"station_id":"ce4bh492rcd13ifvqdug","pricing_plan_id":"cebpf4jnsgd1na2vs0mg"},{"bike_id":"1d6e7aba-8711-44ea-ac19-c6c1c874f9a6","system_id":"levelo_inurba_marseille","lat":43.3048,"lon":5.37908,"is_reserved":false,"is_disabled":false,"rental_uris":{"android":"levelo://app?vid=1d6e7aba-8711-44ea-ac19-c6c1c874f9a6","ios":"levelo://app?vid=1d6e7aba-8711-44ea-ac19-c6c1c874f9a6"},"vehicle_type_id":"4","last_reported":1728886406,"current_range_meters":35200,"station_id":"ce4bgup2rcd13ifvqcn0","pricing_plan_id":"cebpf4jnsgd1na2vs0mg"},{"bike_id":"6ce67cb1-a466-4da7-b8a9-9236bfc60a5e","system_id":"levelo_inurba_marseille","lat":43.30354,"lon":5.41883,"is_reserved":false,"is_disabled":false,"rental_uris":{"android":"levelo://app?vid=6ce67cb1-a466-4da7-b8a9-9236bfc60a5e","ios":"levelo://app?vid=6ce67cb1-a466-4da7-b8a9-9236bfc60a5e"},"vehicle_type_id":"4","last_reported":1728886406,"current_range_meters":38800,"station_id":"ce4bhop2rcd13ifvqh7g","pricing_plan_id":"cebpf4jnsgd1na2vs0mg"},{"bike_id":"231c9d2d-fb56-4064-a155-4053d1ba64f5","system_id":"levelo_inurba_marseille","lat":43.27494,"lon":5.42455,"is_reserved":false,"is_disabled":false,"rental_uris":{"android":"levelo://app?vid=231c9d2d-fb56-4064-a155-4053d1ba64f5","ios":"levelo://app?vid=231c9d2d-fb56-4064-a155-4053d1ba64f5"},"vehicle_type_id":"4","last_reported":1728886406,"current_range_meters":28400,"station_id":"ce4bhn92rcd13ifvqgrg","pricing_plan_id":"cebpf4jnsgd1na2vs0mg"},{"bike_id":"8c638c62-7f9a-48f3-960d-711a653064d1","system_id":"levelo_inurba_marseille","lat":43.308196,"lon":5.381207,"is_reserved":false,"is_disabled":false,"rental_uris":{"android":"levelo://app?vid=8c638c62-7f9a-48f3-960d-711a653064d1","ios":"levelo://app?vid=8c638c62-7f9a-48f3-960d-711a653064d1"},"vehicle_type_id":"4","last_reported":1728886406,"current_range_meters":31200,"station_id":"ce4bgt12rcd13ifvqce0","pricing_plan_id":"cebpf4jnsgd1na2vs0mg"},{"bike_id":"948ca269-6f61-4d29-9ead-68c1ae2d86ad","system_id":"levelo_inurba_marseille","lat":43.29274,"lon":5.40122,"is_reserved":false,"is_disabled":false,"rental_uris":{"android":"levelo://app?vid=948ca269-6f61-4d29-9ead-68c1ae2d86ad","ios":"levelo://app?vid=948ca269-6f61-4d29-9ead-68c1ae2d86ad"},"vehicle_type_id":"4","last_reported":1728886406,"current_range_meters":30800,"station_id":"ce4bh312rcd13ifvqdk0","pricing_plan_id":"cebpf4jnsgd1na2vs0mg"},{"bike_id":"c1526f14-0f53-47fd-bc6e-2dc8711b4bf6","system_id":"levelo_inurba_marseille","lat":43.29902,"lon":5.43666,"is_reserved":false,"is_disabled":false,"rental_uris":{"android":"levelo://app?vid=c1526f14-0f53-47fd-bc6e-2dc8711b4bf6","ios":"levelo://app?vid=c1526f14-0f53-47fd-bc6e-2dc8711b4bf6"},"vehicle_type_id":"4","last_reported":1728886406,"current_range_meters":17200,"station_id":"ce4bhpp2rcd13ifvqhfg","pricing_plan_id":"cebpf4jnsgd1na2vs0mg"},{"bike_id":"fff926e7-1806-450c-84b7-f9e767d4ea3e","system_id":"levelo_inurba_marseille","lat":43.28222,"lon":5.39515,"is_reserved":false,"is_disabled":false,"rental_uris":{"android":"levelo://app?vid=fff926e7-1806-450c-84b7-f9e767d4ea3e","ios":"levelo://app?vid=fff926e7-1806-450c-84b7-f9e767d4ea3e"},"vehicle_type_id":"4","last_reported":1728886406,"current_range_meters":8400,"station_id":"","pricing_plan_id":"cebpf4jnsgd1na2vs0mg"},{"bike_id":"1577fecb-cfb2-4506-83a8-2cd8ebbde5be","system_id":"levelo_inurba_marseille","lat":43.29203,"lon":5.37319,"is_reserved":false,"is_disabled":false,"rental_uris":{"android":"levelo://app?vid=1577fecb-cfb2-4506-83a8-2cd8ebbde5be","ios":"levelo://app?vid=1577fecb-cfb2-4506-83a8-2cd8ebbde5be"},"vehicle_type_id":"4","last_reported":1728886406,"current_range_meters":3200,"station_id":"","pricing_plan_id":"cebpf4jnsgd1na2vs0mg"},{"bike_id":"40d0b0ed-3d8b-4ddc-b15f-e873da62cbaf","system_id":"levelo_inurba_marseille","lat":43.3047,"lon":5.37909,"is_reserved":false,"is_disabled":false,"rental_uris":{"android":"levelo://app?vid=40d0b0ed-3d8b-4ddc-b15f-e873da62cbaf","ios":"levelo://app?vid=40d0b0ed-3d8b-4ddc-b15f-e873da62cbaf"},"vehicle_type_id":"4","last_reported":1728886406,"current_range_meters":36800,"station_id":"ce4bgup2rcd13ifvqcn0","pricing_plan_id":"cebpf4jnsgd1na2vs0mg"},{"bike_id":"48a8366c-5d83-4ee1-82de-5cab368e6b32","system_id":"levelo_inurba_marseille","lat":43.28657,"lon":5.3635,"is_reserved":false,"is_disabled":false,"rental_uris":{"android":"levelo://app?vid=48a8366c-5d83-4ee1-82de-5cab368e6b32","ios":"levelo://app?vid=48a8366c-5d83-4ee1-82de-5cab368e6b32"},"vehicle_type_id":"4","last_reported":1728886406,"current_range_meters":38800,"station_id":"ce4bhah2rcd13ifvqej0","pricing_plan_id":"cebpf4jnsgd1na2vs0mg"},{"bike_id":"ebcb7d14-ae1e-4ddc-982a-4aadf7782bfe","system_id":"levelo_inurba_marseille","lat":43.30272,"lon":5.37721,"is_reserved":false,"is_disabled":false,"rental_uris":{"android":"levelo://app?vid=ebcb7d14-ae1e-4ddc-982a-4aadf7782bfe","ios":"levelo://app?vid=ebcb7d14-ae1e-4ddc-982a-4aadf7782bfe"},"vehicle_type_id":"4","last_reported":1728886406,"current_range_meters":18800,"station_id":"ce4bguh2rcd13ifvqcj0","pricing_plan_id":"cebpf4jnsgd1na2vs0mg"},{"bike_id":"43bec1eb-3cec-407d-96d4-c87caa9a61f2","system_id":"levelo_inurba_marseille","lat":43.24075,"lon":5.37759,"is_reserved":false,"is_disabled":false,"rental_uris":{"android":"levelo://app?vid=43bec1eb-3cec-407d-96d4-c87caa9a61f2","ios":"levelo://app?vid=43bec1eb-3cec-407d-96d4-c87caa9a61f2"},"vehicle_type_id":"4","last_reported":1728886406,"current_range_meters":27600,"station_id":"ce4bhnp2rcd13ifvqgvg","pricing_plan_id":"cebpf4jnsgd1na2vs0mg"},{"bike_id":"3e43a9b4-4b0d-44de-97cd-dd18bf9fc04f","system_id":"levelo_inurba_marseille","lat":43.27611,"lon":5.36114,"is_reserved":false,"is_disabled":false,"rental_uris":{"android":"levelo://app?vid=3e43a9b4-4b0d-44de-97cd-dd18bf9fc04f","ios":"levelo://app?vid=3e43a9b4-4b0d-44de-97cd-dd18bf9fc04f"},"vehicle_type_id":"4","last_reported":1728886406,"current_range_meters":37600,"station_id":"ce4bgj92rcd13ifvqbe0","pricing_plan_id":"cebpf4jnsgd1na2vs0mg"},{"bike_id":"bd699a96-7db9-4f39-8575-4ba254036b6c","system_id":"levelo_inurba_marseille","lat":43.2695,"lon":5.38635,"is_reserved":false,"is_disabled":false,"rental_uris":{"android":"levelo://app?vid=bd699a96-7db9-4f39-8575-4ba254036b6c","ios":"levelo://app?vid=bd699a96-7db9-4f39-8575-4ba254036b6c"},"vehicle_type_id":"4","last_reported":1728886406,"current_range_meters":39200,"station_id":"ce4bhh92rcd13ifvqfh0","pricing_plan_id":"cebpf4jnsgd1na2vs0mg"},{"bike_id":"6b2daff3-9851-4dff-9081-e0ec010599e4","system_id":"levelo_inurba_marseille","lat":43.314515,"lon":5.37384,"is_reserved":false,"is_disabled":false,"rental_uris":{"android":"levelo://app?vid=6b2daff3-9851-4dff-9081-e0ec010599e4","ios":"levelo://app?vid=6b2daff3-9851-4dff-9081-e0ec010599e4"},"vehicle_type_id":"4","last_reported":1728886406,"current_range_meters":28800,"station_id":"","pricing_plan_id":"cebpf4jnsgd1na2vs0mg"},{"bike_id":"57a4a871-f7fa-453b-b34f-e15921e491bf","system_id":"levelo_inurba_marseille","lat":43.29594,"lon":5.38122,"is_reserved":false,"is_disabled":false,"rental_uris":{"android":"levelo://app?vid=57a4a871-f7fa-453b-b34f-e15921e491bf","ios":"levelo://app?vid=57a4a871-f7fa-453b-b34f-e15921e491bf"},"vehicle_type_id":"4","last_reported":1728886406,"current_range_meters":9600,"station_id":"ce4bgl12rcd13ifvqbo0","pricing_plan_id":"cebpf4jnsgd1na2vs0mg"},{"bike_id":"32374036-eed9-49e7-a67e-fb77dc97ce0c","system_id":"levelo_inurba_marseille","lat":43.27491,"lon":5.42462,"is_reserved":false,"is_disabled":false,"rental_uris":{"android":"levelo://app?vid=32374036-eed9-49e7-a67e-fb77dc97ce0c","ios":"levelo://app?vid=32374036-eed9-49e7-a67e-fb77dc97ce0c"},"vehicle_type_id":"4","last_reported":1728886406,"current_range_meters":4800,"station_id":"ce4bhn92rcd13ifvqgrg","pricing_plan_id":"cebpf4jnsgd1na2vs0mg"},{"bike_id":"da463279-d50a-47a1-bd4a-6c23f366efae","system_id":"levelo_inurba_marseille","lat":43.31483,"lon":5.37314,"is_reserved":false,"is_disabled":false,"rental_uris":{"android":"levelo://app?vid=da463279-d50a-47a1-bd4a-6c23f366efae","ios":"levelo://app?vid=da463279-d50a-47a1-bd4a-6c23f366efae"},"vehicle_type_id":"4","last_reported":1728886406,"current_range_meters":28000,"station_id":"ce4bgt12rcd13ifvqcd0","pricing_plan_id":"cebpf4jnsgd1na2vs0mg"},{"bike_id":"5ba8d952-f4f0-4705-94d2-bdc18ff02186","system_id":"levelo_inurba_marseille","lat":43.25485,"lon":5.37642,"is_reserved":false,"is_disabled":false,"rental_uris":{"android":"levelo://app?vid=5ba8d952-f4f0-4705-94d2-bdc18ff02186","ios":"levelo://app?vid=5ba8d952-f4f0-4705-94d2-bdc18ff02186"},"vehicle_type_id":"4","last_reported":1728886406,"current_range_meters":33600,"station_id":"ce4bhh12rcd13ifvqff0","pricing_plan_id":"cebpf4jnsgd1na2vs0mg"},{"bike_id":"a1aeeebe-11af-4a18-8e40-3d48bba0a98f","system_id":"levelo_inurba_marseille","lat":43.3135,"lon":5.36697,"is_reserved":false,"is_disabled":false,"rental_uris":{"android":"levelo://app?vid=a1aeeebe-11af-4a18-8e40-3d48bba0a98f","ios":"levelo://app?vid=a1aeeebe-11af-4a18-8e40-3d48bba0a98f"},"vehicle_type_id":"4","last_reported":1728886406,"current_range_meters":36400,"station_id":"ce4bgr92rcd13ifvqc6g","pricing_plan_id":"cebpf4jnsgd1na2vs0mg"},{"bike_id":"2651f8e5-e279-4329-be5c-b2437cbbb1f0","system_id":"levelo_inurba_marseille","lat":43.28612,"lon":5.37063,"is_reserved":false,"is_disabled":false,"rental_uris":{"android":"levelo://app?vid=2651f8e5-e279-4329-be5c-b2437cbbb1f0","ios":"levelo://app?vid=2651f8e5-e279-4329-be5c-b2437cbbb1f0"},"vehicle_type_id":"4","last_reported":1728886406,"current_range_meters":38000,"station_id":"ce4bht12rcd13ifvqi60","pricing_plan_id":"cebpf4jnsgd1na2vs0mg"},{"bike_id":"3dec7882-efa5-4ad5-bd3d-9766e0fc2fbf","system_id":"levelo_inurba_marseille","lat":43.29566,"lon":5.42275,"is_reserved":false,"is_disabled":false,"rental_uris":{"android":"levelo://app?vid=3dec7882-efa5-4ad5-bd3d-9766e0fc2fbf","ios":"levelo://app?vid=3dec7882-efa5-4ad5-bd3d-9766e0fc2fbf"},"vehicle_type_id":"4","last_reported":1728886406,"current_range_meters":36400,"station_id":"ce4bhph2rcd13ifvqhdg","pricing_plan_id":"cebpf4jnsgd1na2vs0mg"},{"bike_id":"42b41bdf-f13e-487e-92b2-a4e56612951a","system_id":"levelo_inurba_marseille","lat":43.29277,"lon":5.40126,"is_reserved":false,"is_disabled":false,"rental_uris":{"android":"levelo://app?vid=42b41bdf-f13e-487e-92b2-a4e56612951a","ios":"levelo://app?vid=42b41bdf-f13e-487e-92b2-a4e56612951a"},"vehicle_type_id":"4","last_reported":1728886406,"current_range_meters":26000,"station_id":"ce4bh312rcd13ifvqdk0","pricing_plan_id":"cebpf4jnsgd1na2vs0mg"},{"bike_id":"503515af-80df-4624-a09c-552ed3bace17","system_id":"levelo_inurba_marseille","lat":43.279266,"lon":5.41449,"is_reserved":false,"is_disabled":false,"rental_uris":{"android":"levelo://app?vid=503515af-80df-4624-a09c-552ed3bace17","ios":"levelo://app?vid=503515af-80df-4624-a09c-552ed3bace17"},"vehicle_type_id":"4","last_reported":1728886406,"current_range_meters":23200,"station_id":"","pricing_plan_id":"cebpf4jnsgd1na2vs0mg"},{"bike_id":"57326c50-88af-4209-96b5-22dd09504b92","system_id":"levelo_inurba_marseille","lat":43.296,"lon":5.38115,"is_reserved":false,"is_disabled":false,"rental_uris":{"android":"levelo://app?vid=57326c50-88af-4209-96b5-22dd09504b92","ios":"levelo://app?vid=57326c50-88af-4209-96b5-22dd09504b92"},"vehicle_type_id":"4","last_reported":1728886406,"current_range_meters":37600,"station_id":"ce4bgl12rcd13ifvqbo0","pricing_plan_id":"cebpf4jnsgd1na2vs0mg"},{"bike_id":"df4836fc-5a6f-4754-9f34-c9cb51f515b2","system_id":"levelo_inurba_marseille","lat":43.29558,"lon":5.42291,"is_reserved":false,"is_disabled":false,"rental_uris":{"android":"levelo://app?vid=df4836fc-5a6f-4754-9f34-c9cb51f515b2","ios":"levelo://app?vid=df4836fc-5a6f-4754-9f34-c9cb51f515b2"},"vehicle_type_id":"4","last_reported":1728886406,"current_range_meters":28800,"station_id":"ce4bhph2rcd13ifvqhdg","pricing_plan_id":"cebpf4jnsgd1na2vs0mg"},{"bike_id":"2459f49e-0adc-475e-b192-8b7a615d0c40","system_id":"levelo_inurba_marseille","lat":43.294282,"lon":5.397554,"is_reserved":false,"is_disabled":false,"rental_uris":{"android":"levelo://app?vid=2459f49e-0adc-475e-b192-8b7a615d0c40","ios":"levelo://app?vid=2459f49e-0adc-475e-b192-8b7a615d0c40"},"vehicle_type_id":"4","last_reported":1728886406,"current_range_meters":24800,"station_id":"ce4bh3h2rcd13ifvqdo0","pricing_plan_id":"cebpf4jnsgd1na2vs0mg"},{"bike_id":"f2989988-7d5b-47fe-9ed2-9258c4cd7419","system_id":"levelo_inurba_marseille","lat":43.28365,"lon":5.38111,"is_reserved":false,"is_disabled":false,"rental_uris":{"android":"levelo://app?vid=f2989988-7d5b-47fe-9ed2-9258c4cd7419","ios":"levelo://app?vid=f2989988-7d5b-47fe-9ed2-9258c4cd7419"},"vehicle_type_id":"4","last_reported":1728886406,"current_range_meters":29600,"station_id":"ce4bh412rcd13ifvqdr0","pricing_plan_id":"cebpf4jnsgd1na2vs0mg"},{"bike_id":"87e2071f-e4ff-48d2-acf9-a1b6820399c3","system_id":"levelo_inurba_marseille","lat":43.23066,"lon":5.35487,"is_reserved":false,"is_disabled":false,"rental_uris":{"android":"levelo://app?vid=87e2071f-e4ff-48d2-acf9-a1b6820399c3","ios":"levelo://app?vid=87e2071f-e4ff-48d2-acf9-a1b6820399c3"},"vehicle_type_id":"4","last_reported":1728886406,"current_range_meters":38400,"station_id":"cpo3342slgdg3j2ifvpg","pricing_plan_id":"cebpf4jnsgd1na2vs0mg"},{"bike_id":"844bf2ea-d3f6-47e6-bdf5-1e1909814a7d","system_id":"levelo_inurba_marseille","lat":43.30557,"lon":5.36544,"is_reserved":false,"is_disabled":false,"rental_uris":{"android":"levelo://app?vid=844bf2ea-d3f6-47e6-bdf5-1e1909814a7d","ios":"levelo://app?vid=844bf2ea-d3f6-47e6-bdf5-1e1909814a7d"},"vehicle_type_id":"4","last_reported":1728886406,"current_range_meters":28800,"station_id":"ce4bgs12rcd13ifvqcag","pricing_plan_id":"cebpf4jnsgd1na2vs0mg"},{"bike_id":"124bcadb-0047-4081-821e-eec9c7c733b7","system_id":"levelo_inurba_marseille","lat":43.33607,"lon":5.41027,"is_reserved":false,"is_disabled":false,"rental_uris":{"android":"levelo://app?vid=124bcadb-0047-4081-821e-eec9c7c733b7","ios":"levelo://app?vid=124bcadb-0047-4081-821e-eec9c7c733b7"},"vehicle_type_id":"4","last_reported":1728886406,"current_range_meters":10800,"station_id":"ce4bhqh2rcd13ifvqhmg","pricing_plan_id":"cebpf4jnsgd1na2vs0mg"},{"bike_id":"1843a9a1-6898-40ba-a9ee-63f9ba453ecd","system_id":"levelo_inurba_marseille","lat":43.24076,"lon":5.3776,"is_reserved":false,"is_disabled":false,"rental_uris":{"android":"levelo://app?vid=1843a9a1-6898-40ba-a9ee-63f9ba453ecd","ios":"levelo://app?vid=1843a9a1-6898-40ba-a9ee-63f9ba453ecd"},"vehicle_type_id":"4","last_reported":1728886406,"current_range_meters":38800,"station_id":"ce4bhnp2rcd13ifvqgvg","pricing_plan_id":"cebpf4jnsgd1na2vs0mg"},{"bike_id":"e91a309e-c8b6-417e-b8c2-38f330b63722","system_id":"levelo_inurba_marseille","lat":43.29922,"lon":5.37478,"is_reserved":false,"is_disabled":false,"rental_uris":{"android":"levelo://app?vid=e91a309e-c8b6-417e-b8c2-38f330b63722","ios":"levelo://app?vid=e91a309e-c8b6-417e-b8c2-38f330b63722"},"vehicle_type_id":"4","last_reported":1728886406,"current_range_meters":38800,"station_id":"ce4bgjh2rcd13ifvqbg0","pricing_plan_id":"cebpf4jnsgd1na2vs0mg"},{"bike_id":"4456a4b0-7a03-479c-ba22-41450d791558","system_id":"levelo_inurba_marseille","lat":43.28347,"lon":5.3812,"is_reserved":false,"is_disabled":false,"rental_uris":{"android":"levelo://app?vid=4456a4b0-7a03-479c-ba22-41450d791558","ios":"levelo://app?vid=4456a4b0-7a03-479c-ba22-41450d791558"},"vehicle_type_id":"4","last_reported":1728886406,"current_range_meters":38800,"station_id":"ce4bh412rcd13ifvqdr0","pricing_plan_id":"cebpf4jnsgd1na2vs0mg"},{"bike_id":"decd1d94-f77a-4388-abc4-b0197b25c7ee","system_id":"levelo_inurba_marseille","lat":43.27499,"lon":5.42446,"is_reserved":false,"is_disabled":false,"rental_uris":{"android":"levelo://app?vid=decd1d94-f77a-4388-abc4-b0197b25c7ee","ios":"levelo://app?vid=decd1d94-f77a-4388-abc4-b0197b25c7ee"},"vehicle_type_id":"4","last_reported":1728886406,"current_range_meters":38000,"station_id":"ce4bhn92rcd13ifvqgrg","pricing_plan_id":"cebpf4jnsgd1na2vs0mg"},{"bike_id":"8bfaa15a-82fc-4b50-80b7-2b46771c82b3","system_id":"levelo_inurba_marseille","lat":43.291718,"lon":5.373179,"is_reserved":false,"is_disabled":false,"rental_uris":{"android":"levelo://app?vid=8bfaa15a-82fc-4b50-80b7-2b46771c82b3","ios":"levelo://app?vid=8bfaa15a-82fc-4b50-80b7-2b46771c82b3"},"vehicle_type_id":"4","last_reported":1728886406,"current_range_meters":38800,"station_id":"","pricing_plan_id":"cebpf4jnsgd1na2vs0mg"},{"bike_id":"e30e517c-441c-44c1-acde-090f38b1e1e0","system_id":"levelo_inurba_marseille","lat":43.29608,"lon":5.38104,"is_reserved":false,"is_disabled":false,"rental_uris":{"android":"levelo://app?vid=e30e517c-441c-44c1-acde-090f38b1e1e0","ios":"levelo://app?vid=e30e517c-441c-44c1-acde-090f38b1e1e0"},"vehicle_type_id":"4","last_reported":1728886406,"current_range_meters":26800,"station_id":"ce4bgl12rcd13ifvqbo0","pricing_plan_id":"cebpf4jnsgd1na2vs0mg"},{"bike_id":"5e70ef8d-1c1c-416a-a691-3ae14c3dbd92","system_id":"levelo_inurba_marseille","lat":43.27998,"lon":5.40018,"is_reserved":false,"is_disabled":false,"rental_uris":{"android":"levelo://app?vid=5e70ef8d-1c1c-416a-a691-3ae14c3dbd92","ios":"levelo://app?vid=5e70ef8d-1c1c-416a-a691-3ae14c3dbd92"},"vehicle_type_id":"4","last_reported":1728886406,"current_range_meters":30000,"station_id":"ce4bho92rcd13ifvqh4g","pricing_plan_id":"cebpf4jnsgd1na2vs0mg"},{"bike_id":"cf060c54-b385-4999-9625-2ef3b6a18227","system_id":"levelo_inurba_marseille","lat":43.31067,"lon":5.38341,"is_reserved":false,"is_disabled":false,"rental_uris":{"android":"levelo://app?vid=cf060c54-b385-4999-9625-2ef3b6a18227","ios":"levelo://app?vid=cf060c54-b385-4999-9625-2ef3b6a18227"},"vehicle_type_id":"4","last_reported":1728886406,"current_range_meters":37600,"station_id":"ce4bgv92rcd13ifvqcr0","pricing_plan_id":"cebpf4jnsgd1na2vs0mg"},{"bike_id":"327691a9-ac25-49ee-9bb3-308501eab2ba","system_id":"levelo_inurba_marseille","lat":43.30485,"lon":5.3791,"is_reserved":false,"is_disabled":false,"rental_uris":{"android":"levelo://app?vid=327691a9-ac25-49ee-9bb3-308501eab2ba","ios":"levelo://app?vid=327691a9-ac25-49ee-9bb3-308501eab2ba"},"vehicle_type_id":"4","last_reported":1728886406,"current_range_meters":34000,"station_id":"ce4bgup2rcd13ifvqcn0","pricing_plan_id":"cebpf4jnsgd1na2vs0mg"},{"bike_id":"9992f8e7-3836-48f0-b5ad-1f586bcd7ede","system_id":"levelo_inurba_marseille","lat":43.28945,"lon":5.36642,"is_reserved":false,"is_disabled":false,"rental_uris":{"android":"levelo://app?vid=9992f8e7-3836-48f0-b5ad-1f586bcd7ede","ios":"levelo://app?vid=9992f8e7-3836-48f0-b5ad-1f586bcd7ede"},"vehicle_type_id":"4","last_reported":1728886406,"current_range_meters":4800,"station_id":"ce4bhap2rcd13ifvqek0","pricing_plan_id":"cebpf4jnsgd1na2vs0mg"},{"bike_id":"571e4fe5-8fbc-4c62-8d33-dbabc840ab69","system_id":"levelo_inurba_marseille","lat":43.30352,"lon":5.41875,"is_reserved":false,"is_disabled":false,"rental_uris":{"android":"levelo://app?vid=571e4fe5-8fbc-4c62-8d33-dbabc840ab69","ios":"levelo://app?vid=571e4fe5-8fbc-4c62-8d33-dbabc840ab69"},"vehicle_type_id":"4","last_reported":1728886406,"current_range_meters":38000,"station_id":"ce4bhop2rcd13ifvqh7g","pricing_plan_id":"cebpf4jnsgd1na2vs0mg"},{"bike_id":"2a7e1040-c5a5-4faa-819a-4f221806652e","system_id":"levelo_inurba_marseille","lat":43.28343,"lon":5.3811,"is_reserved":false,"is_disabled":false,"rental_uris":{"android":"levelo://app?vid=2a7e1040-c5a5-4faa-819a-4f221806652e","ios":"levelo://app?vid=2a7e1040-c5a5-4faa-819a-4f221806652e"},"vehicle_type_id":"4","last_reported":1728886406,"current_range_meters":18800,"station_id":"ce4bh412rcd13ifvqdr0","pricing_plan_id":"cebpf4jnsgd1na2vs0mg"},{"bike_id":"11d204d1-6c04-42a4-be7a-a0a42a0d1902","system_id":"levelo_inurba_marseille","lat":43.33714,"lon":5.36979,"is_reserved":false,"is_disabled":false,"rental_uris":{"android":"levelo://app?vid=11d204d1-6c04-42a4-be7a-a0a42a0d1902","ios":"levelo://app?vid=11d204d1-6c04-42a4-be7a-a0a42a0d1902"},"vehicle_type_id":"4","last_reported":1728886406,"current_range_meters":38400,"station_id":"","pricing_plan_id":"cebpf4jnsgd1na2vs0mg"},{"bike_id":"ff198842-7b48-420f-8708-6b3f6239678a","system_id":"levelo_inurba_marseille","lat":43.32485,"lon":5.41432,"is_reserved":false,"is_disabled":false,"rental_uris":{"android":"levelo://app?vid=ff198842-7b48-420f-8708-6b3f6239678a","ios":"levelo://app?vid=ff198842-7b48-420f-8708-6b3f6239678a"},"vehicle_type_id":"4","last_reported":1728886406,"current_range_meters":22000,"station_id":"ce4bhq12rcd13ifvqhhg","pricing_plan_id":"cebpf4jnsgd1na2vs0mg"},{"bike_id":"e4a66578-f959-4864-93f1-e07852f37ede","system_id":"levelo_inurba_marseille","lat":43.29044,"lon":5.38652,"is_reserved":false,"is_disabled":false,"rental_uris":{"android":"levelo://app?vid=e4a66578-f959-4864-93f1-e07852f37ede","ios":"levelo://app?vid=e4a66578-f959-4864-93f1-e07852f37ede"},"vehicle_type_id":"4","last_reported":1728886406,"current_range_meters":30800,"station_id":"ce4bh4p2rcd13ifvqe0g","pricing_plan_id":"cebpf4jnsgd1na2vs0mg"},{"bike_id":"c5876cfe-da84-451c-9ef6-44ec1f14f014","system_id":"levelo_inurba_marseille","lat":43.28351,"lon":5.38118,"is_reserved":false,"is_disabled":false,"rental_uris":{"android":"levelo://app?vid=c5876cfe-da84-451c-9ef6-44ec1f14f014","ios":"levelo://app?vid=c5876cfe-da84-451c-9ef6-44ec1f14f014"},"vehicle_type_id":"4","last_reported":1728886406,"current_range_meters":33200,"station_id":"ce4bh412rcd13ifvqdr0","pricing_plan_id":"cebpf4jnsgd1na2vs0mg"},{"bike_id":"599c4218-9b5a-4b88-810f-fb8bbc880160","system_id":"levelo_inurba_marseille","lat":43.32654,"lon":5.41001,"is_reserved":false,"is_disabled":false,"rental_uris":{"android":"levelo://app?vid=599c4218-9b5a-4b88-810f-fb8bbc880160","ios":"levelo://app?vid=599c4218-9b5a-4b88-810f-fb8bbc880160"},"vehicle_type_id":"4","last_reported":1728886406,"current_range_meters":36400,"station_id":"ce4bhpp2rcd13ifvqhgg","pricing_plan_id":"cebpf4jnsgd1na2vs0mg"},{"bike_id":"26ef0f82-778d-44d7-ad89-5daefc08a1a4","system_id":"levelo_inurba_marseille","lat":43.31459,"lon":5.37379,"is_reserved":false,"is_disabled":false,"rental_uris":{"android":"levelo://app?vid=26ef0f82-778d-44d7-ad89-5daefc08a1a4","ios":"levelo://app?vid=26ef0f82-778d-44d7-ad89-5daefc08a1a4"},"vehicle_type_id":"4","last_reported":1728886406,"current_range_meters":17200,"station_id":"","pricing_plan_id":"cebpf4jnsgd1na2vs0mg"},{"bike_id":"01d2ae5c-cdd6-48ea-bf07-b72fabac8bfb","system_id":"levelo_inurba_marseille","lat":43.30474,"lon":5.37905,"is_reserved":false,"is_disabled":false,"rental_uris":{"android":"levelo://app?vid=01d2ae5c-cdd6-48ea-bf07-b72fabac8bfb","ios":"levelo://app?vid=01d2ae5c-cdd6-48ea-bf07-b72fabac8bfb"},"vehicle_type_id":"4","last_reported":1728886406,"current_range_meters":39200,"station_id":"ce4bgup2rcd13ifvqcn0","pricing_plan_id":"cebpf4jnsgd1na2vs0mg"},{"bike_id":"dd56f152-3d24-4964-8294-96aaf213e366","system_id":"levelo_inurba_marseille","lat":43.292851,"lon":5.368404,"is_reserved":false,"is_disabled":false,"rental_uris":{"android":"levelo://app?vid=dd56f152-3d24-4964-8294-96aaf213e366","ios":"levelo://app?vid=dd56f152-3d24-4964-8294-96aaf213e366"},"vehicle_type_id":"4","last_reported":1728886406,"current_range_meters":16000,"station_id":"","pricing_plan_id":"cebpf4jnsgd1na2vs0mg"},{"bike_id":"ad9cb8bf-f56a-4ffa-9b74-a76e830759e6","system_id":"levelo_inurba_marseille","lat":43.26557,"lon":5.37288,"is_reserved":false,"is_disabled":false,"rental_uris":{"android":"levelo://app?vid=ad9cb8bf-f56a-4ffa-9b74-a76e830759e6","ios":"levelo://app?vid=ad9cb8bf-f56a-4ffa-9b74-a76e830759e6"},"vehicle_type_id":"4","last_reported":1728886406,"current_range_meters":38800,"station_id":"ce4bhg12rcd13ifvqf70","pricing_plan_id":"cebpf4jnsgd1na2vs0mg"},{"bike_id":"6775debe-3572-4de6-be18-c3de80cd7673","system_id":"levelo_inurba_marseille","lat":43.24091,"lon":5.3774,"is_reserved":false,"is_disabled":false,"rental_uris":{"android":"levelo://app?vid=6775debe-3572-4de6-be18-c3de80cd7673","ios":"levelo://app?vid=6775debe-3572-4de6-be18-c3de80cd7673"},"vehicle_type_id":"4","last_reported":1728886406,"current_range_meters":35600,"station_id":"ce4bhnp2rcd13ifvqgvg","pricing_plan_id":"cebpf4jnsgd1na2vs0mg"},{"bike_id":"64f37d16-8b3a-420d-a466-1dafb235d27a","system_id":"levelo_inurba_marseille","lat":43.2557,"lon":5.3824,"is_reserved":false,"is_disabled":false,"rental_uris":{"android":"levelo://app?vid=64f37d16-8b3a-420d-a466-1dafb235d27a","ios":"levelo://app?vid=64f37d16-8b3a-420d-a466-1dafb235d27a"},"vehicle_type_id":"4","last_reported":1728886406,"current_range_meters":38000,"station_id":"ce4bhih2rcd13ifvqfs0","pricing_plan_id":"cebpf4jnsgd1na2vs0mg"},{"bike_id":"eae2e52e-90bc-4224-a6e3-b02944442c86","system_id":"levelo_inurba_marseille","lat":43.28974,"lon":5.37837,"is_reserved":false,"is_disabled":false,"rental_uris":{"android":"levelo://app?vid=eae2e52e-90bc-4224-a6e3-b02944442c86","ios":"levelo://app?vid=eae2e52e-90bc-4224-a6e3-b02944442c86"},"vehicle_type_id":"4","last_reported":1728886406,"current_range_meters":37600,"station_id":"ce4bh9p2rcd13ifvqed0","pricing_plan_id":"cebpf4jnsgd1na2vs0mg"},{"bike_id":"25ed2710-8c35-44e6-81fd-8fc7cf6b54a8","system_id":"levelo_inurba_marseille","lat":43.274948,"lon":5.424466,"is_reserved":false,"is_disabled":false,"rental_uris":{"android":"levelo://app?vid=25ed2710-8c35-44e6-81fd-8fc7cf6b54a8","ios":"levelo://app?vid=25ed2710-8c35-44e6-81fd-8fc7cf6b54a8"},"vehicle_type_id":"4","last_reported":1728886406,"current_range_meters":18000,"station_id":"ce4bhn92rcd13ifvqgrg","pricing_plan_id":"cebpf4jnsgd1na2vs0mg"},{"bike_id":"d4db5a30-6ed1-43b7-95c2-4c54d6626bdf","system_id":"levelo_inurba_marseille","lat":43.28437,"lon":5.39202,"is_reserved":false,"is_disabled":false,"rental_uris":{"android":"levelo://app?vid=d4db5a30-6ed1-43b7-95c2-4c54d6626bdf","ios":"levelo://app?vid=d4db5a30-6ed1-43b7-95c2-4c54d6626bdf"},"vehicle_type_id":"4","last_reported":1728886406,"current_range_meters":27600,"station_id":"ce4bhoh2rcd13ifvqh5g","pricing_plan_id":"cebpf4jnsgd1na2vs0mg"},{"bike_id":"b9b18d1e-08b0-4d2d-ae4b-c6ff6e5bb0fe","system_id":"levelo_inurba_marseille","lat":43.29646,"lon":5.37271,"is_reserved":false,"is_disabled":false,"rental_uris":{"android":"levelo://app?vid=b9b18d1e-08b0-4d2d-ae4b-c6ff6e5bb0fe","ios":"levelo://app?vid=b9b18d1e-08b0-4d2d-ae4b-c6ff6e5bb0fe"},"vehicle_type_id":"4","last_reported":1728886406,"current_range_meters":12000,"station_id":"ce4bgk12rcd13ifvqbj0","pricing_plan_id":"cebpf4jnsgd1na2vs0mg"},{"bike_id":"67463352-a425-466f-b1f8-2dc75a053ffd","system_id":"levelo_inurba_marseille","lat":43.30097,"lon":5.39085,"is_reserved":false,"is_disabled":false,"rental_uris":{"android":"levelo://app?vid=67463352-a425-466f-b1f8-2dc75a053ffd","ios":"levelo://app?vid=67463352-a425-466f-b1f8-2dc75a053ffd"},"vehicle_type_id":"4","last_reported":1728886406,"current_range_meters":6400,"station_id":"ce4bh192rcd13ifvqdb0","pricing_plan_id":"cebpf4jnsgd1na2vs0mg"},{"bike_id":"bda036fb-92b4-4963-a81c-e0672c943b56","system_id":"levelo_inurba_marseille","lat":43.32538,"lon":5.41442,"is_reserved":false,"is_disabled":false,"rental_uris":{"android":"levelo://app?vid=bda036fb-92b4-4963-a81c-e0672c943b56","ios":"levelo://app?vid=bda036fb-92b4-4963-a81c-e0672c943b56"},"vehicle_type_id":"4","last_reported":1728886406,"current_range_meters":5600,"station_id":"ce4bhq12rcd13ifvqhhg","pricing_plan_id":"cebpf4jnsgd1na2vs0mg"},{"bike_id":"aea1d7d9-ad77-4f63-b2e5-d880d881127f","system_id":"levelo_inurba_marseille","lat":43.34267,"lon":5.44557,"is_reserved":false,"is_disabled":false,"rental_uris":{"android":"levelo://app?vid=aea1d7d9-ad77-4f63-b2e5-d880d881127f","ios":"levelo://app?vid=aea1d7d9-ad77-4f63-b2e5-d880d881127f"},"vehicle_type_id":"4","last_reported":1728886406,"current_range_meters":28800,"station_id":"","pricing_plan_id":"cebpf4jnsgd1na2vs0mg"},{"bike_id":"c5f3c7be-f867-48e7-98de-ad42ab3ffbae","system_id":"levelo_inurba_marseille","lat":43.3266,"lon":5.40992,"is_reserved":false,"is_disabled":false,"rental_uris":{"android":"levelo://app?vid=c5f3c7be-f867-48e7-98de-ad42ab3ffbae","ios":"levelo://app?vid=c5f3c7be-f867-48e7-98de-ad42ab3ffbae"},"vehicle_type_id":"4","last_reported":1728886406,"current_range_meters":28400,"station_id":"ce4bhpp2rcd13ifvqhgg","pricing_plan_id":"cebpf4jnsgd1na2vs0mg"},{"bike_id":"ea172f9d-4104-449a-ac7c-012d4e0f3978","system_id":"levelo_inurba_marseille","lat":43.30248,"lon":5.40065,"is_reserved":false,"is_disabled":false,"rental_uris":{"android":"levelo://app?vid=ea172f9d-4104-449a-ac7c-012d4e0f3978","ios":"levelo://app?vid=ea172f9d-4104-449a-ac7c-012d4e0f3978"},"vehicle_type_id":"4","last_reported":1728886406,"current_range_meters":38800,"station_id":"ce4bgvh2rcd13ifvqcs0","pricing_plan_id":"cebpf4jnsgd1na2vs0mg"},{"bike_id":"4a3d94d1-9861-4490-afca-263b865f6b03","system_id":"levelo_inurba_marseille","lat":43.32538,"lon":5.41434,"is_reserved":false,"is_disabled":false,"rental_uris":{"android":"levelo://app?vid=4a3d94d1-9861-4490-afca-263b865f6b03","ios":"levelo://app?vid=4a3d94d1-9861-4490-afca-263b865f6b03"},"vehicle_type_id":"4","last_reported":1728886406,"current_range_meters":20400,"station_id":"ce4bhq12rcd13ifvqhhg","pricing_plan_id":"cebpf4jnsgd1na2vs0mg"},{"bike_id":"8fd4aec9-afab-4555-a0a5-9f98cd22ef62","system_id":"levelo_inurba_marseille","lat":43.25487,"lon":5.37643,"is_reserved":false,"is_disabled":false,"rental_uris":{"android":"levelo://app?vid=8fd4aec9-afab-4555-a0a5-9f98cd22ef62","ios":"levelo://app?vid=8fd4aec9-afab-4555-a0a5-9f98cd22ef62"},"vehicle_type_id":"4","last_reported":1728886406,"current_range_meters":36400,"station_id":"ce4bhh12rcd13ifvqff0","pricing_plan_id":"cebpf4jnsgd1na2vs0mg"},{"bike_id":"1967c2cd-0a52-4bae-a040-a23f7d771766","system_id":"levelo_inurba_marseille","lat":43.27381,"lon":5.3625,"is_reserved":false,"is_disabled":false,"rental_uris":{"android":"levelo://app?vid=1967c2cd-0a52-4bae-a040-a23f7d771766","ios":"levelo://app?vid=1967c2cd-0a52-4bae-a040-a23f7d771766"},"vehicle_type_id":"4","last_reported":1728886406,"current_range_meters":38000,"station_id":"ce4bhbh2rcd13ifvqeo0","pricing_plan_id":"cebpf4jnsgd1na2vs0mg"},{"bike_id":"6a8ea1a9-7346-411d-8642-dcd86b2b51dd","system_id":"levelo_inurba_marseille","lat":43.23188,"lon":5.39986,"is_reserved":false,"is_disabled":false,"rental_uris":{"android":"levelo://app?vid=6a8ea1a9-7346-411d-8642-dcd86b2b51dd","ios":"levelo://app?vid=6a8ea1a9-7346-411d-8642-dcd86b2b51dd"},"vehicle_type_id":"4","last_reported":1728886406,"current_range_meters":38800,"station_id":"ce4bhn12rcd13ifvqgqg","pricing_plan_id":"cebpf4jnsgd1na2vs0mg"},{"bike_id":"64d319f2-164b-4ef6-a30c-055db2ee446a","system_id":"levelo_inurba_marseille","lat":43.24068,"lon":5.37757,"is_reserved":false,"is_disabled":false,"rental_uris":{"android":"levelo://app?vid=64d319f2-164b-4ef6-a30c-055db2ee446a","ios":"levelo://app?vid=64d319f2-164b-4ef6-a30c-055db2ee446a"},"vehicle_type_id":"4","last_reported":1728886406,"current_range_meters":13600,"station_id":"ce4bhnp2rcd13ifvqgvg","pricing_plan_id":"cebpf4jnsgd1na2vs0mg"},{"bike_id":"5305c128-26e8-4602-8fb9-9cf7f4c25370","system_id":"levelo_inurba_marseille","lat":43.32534,"lon":5.41428,"is_reserved":false,"is_disabled":false,"rental_uris":{"android":"levelo://app?vid=5305c128-26e8-4602-8fb9-9cf7f4c25370","ios":"levelo://app?vid=5305c128-26e8-4602-8fb9-9cf7f4c25370"},"vehicle_type_id":"4","last_reported":1728886406,"current_range_meters":19200,"station_id":"ce4bhq12rcd13ifvqhhg","pricing_plan_id":"cebpf4jnsgd1na2vs0mg"},{"bike_id":"b42b57a2-8088-4fdd-a817-cdc570948cca","system_id":"levelo_inurba_marseille","lat":43.31352,"lon":5.36709,"is_reserved":false,"is_disabled":false,"rental_uris":{"android":"levelo://app?vid=b42b57a2-8088-4fdd-a817-cdc570948cca","ios":"levelo://app?vid=b42b57a2-8088-4fdd-a817-cdc570948cca"},"vehicle_type_id":"4","last_reported":1728886406,"current_range_meters":36800,"station_id":"ce4bgr92rcd13ifvqc6g","pricing_plan_id":"cebpf4jnsgd1na2vs0mg"},{"bike_id":"46114fa6-2086-4a9c-a5be-895ab103a799","system_id":"levelo_inurba_marseille","lat":43.28351,"lon":5.38112,"is_reserved":false,"is_disabled":false,"rental_uris":{"android":"levelo://app?vid=46114fa6-2086-4a9c-a5be-895ab103a799","ios":"levelo://app?vid=46114fa6-2086-4a9c-a5be-895ab103a799"},"vehicle_type_id":"4","last_reported":1728886406,"current_range_meters":30800,"station_id":"ce4bh412rcd13ifvqdr0","pricing_plan_id":"cebpf4jnsgd1na2vs0mg"},{"bike_id":"8a8f8834-af69-4cef-becd-b20226175aba","system_id":"levelo_inurba_marseille","lat":43.27373,"lon":5.36258,"is_reserved":false,"is_disabled":false,"rental_uris":{"android":"levelo://app?vid=8a8f8834-af69-4cef-becd-b20226175aba","ios":"levelo://app?vid=8a8f8834-af69-4cef-becd-b20226175aba"},"vehicle_type_id":"4","last_reported":1728886406,"current_range_meters":38000,"station_id":"ce4bhbh2rcd13ifvqeo0","pricing_plan_id":"cebpf4jnsgd1na2vs0mg"},{"bike_id":"744d7d46-a030-452d-827a-600610e2a098","system_id":"levelo_inurba_marseille","lat":43.23183,"lon":5.39996,"is_reserved":false,"is_disabled":false,"rental_uris":{"android":"levelo://app?vid=744d7d46-a030-452d-827a-600610e2a098","ios":"levelo://app?vid=744d7d46-a030-452d-827a-600610e2a098"},"vehicle_type_id":"4","last_reported":1728886406,"current_range_meters":30000,"station_id":"ce4bhn12rcd13ifvqgqg","pricing_plan_id":"cebpf4jnsgd1na2vs0mg"},{"bike_id":"edf2a5c3-65ec-4825-a035-01caef4d820b","system_id":"levelo_inurba_marseille","lat":43.304169,"lon":5.412817,"is_reserved":false,"is_disabled":false,"rental_uris":{"android":"levelo://app?vid=edf2a5c3-65ec-4825-a035-01caef4d820b","ios":"levelo://app?vid=edf2a5c3-65ec-4825-a035-01caef4d820b"},"vehicle_type_id":"4","last_reported":1728886406,"current_range_meters":29600,"station_id":"","pricing_plan_id":"cebpf4jnsgd1na2vs0mg"},{"bike_id":"d269f004-6f8f-438a-9017-6d6b6da4f8cd","system_id":"levelo_inurba_marseille","lat":43.283415,"lon":5.380991,"is_reserved":false,"is_disabled":false,"rental_uris":{"android":"levelo://app?vid=d269f004-6f8f-438a-9017-6d6b6da4f8cd","ios":"levelo://app?vid=d269f004-6f8f-438a-9017-6d6b6da4f8cd"},"vehicle_type_id":"4","last_reported":1728886406,"current_range_meters":32000,"station_id":"ce4bh412rcd13ifvqdr0","pricing_plan_id":"cebpf4jnsgd1na2vs0mg"},{"bike_id":"621b7c4e-8aa0-41dd-814b-66770078b276","system_id":"levelo_inurba_marseille","lat":43.33724,"lon":5.39192,"is_reserved":false,"is_disabled":false,"rental_uris":{"android":"levelo://app?vid=621b7c4e-8aa0-41dd-814b-66770078b276","ios":"levelo://app?vid=621b7c4e-8aa0-41dd-814b-66770078b276"},"vehicle_type_id":"4","last_reported":1728886406,"current_range_meters":28400,"station_id":"ce4bhr92rcd13ifvqhsg","pricing_plan_id":"cebpf4jnsgd1na2vs0mg"},{"bike_id":"06bacee5-c919-4f56-8318-707f41534cf6","system_id":"levelo_inurba_marseille","lat":43.26946,"lon":5.38626,"is_reserved":false,"is_disabled":false,"rental_uris":{"android":"levelo://app?vid=06bacee5-c919-4f56-8318-707f41534cf6","ios":"levelo://app?vid=06bacee5-c919-4f56-8318-707f41534cf6"},"vehicle_type_id":"4","last_reported":1728886406,"current_range_meters":23200,"station_id":"ce4bhh92rcd13ifvqfh0","pricing_plan_id":"cebpf4jnsgd1na2vs0mg"},{"bike_id":"ce41397b-197c-415d-9997-1a0457989fd7","system_id":"levelo_inurba_marseille","lat":43.30477,"lon":5.37905,"is_reserved":false,"is_disabled":false,"rental_uris":{"android":"levelo://app?vid=ce41397b-197c-415d-9997-1a0457989fd7","ios":"levelo://app?vid=ce41397b-197c-415d-9997-1a0457989fd7"},"vehicle_type_id":"4","last_reported":1728886406,"current_range_meters":31200,"station_id":"ce4bgup2rcd13ifvqcn0","pricing_plan_id":"cebpf4jnsgd1na2vs0mg"},{"bike_id":"b5c582a8-95a1-4e1f-9296-8a8d7fdd00c0","system_id":"levelo_inurba_marseille","lat":43.29275,"lon":5.40123,"is_reserved":false,"is_disabled":false,"rental_uris":{"android":"levelo://app?vid=b5c582a8-95a1-4e1f-9296-8a8d7fdd00c0","ios":"levelo://app?vid=b5c582a8-95a1-4e1f-9296-8a8d7fdd00c0"},"vehicle_type_id":"4","last_reported":1728886406,"current_range_meters":30400,"station_id":"ce4bh312rcd13ifvqdk0","pricing_plan_id":"cebpf4jnsgd1na2vs0mg"},{"bike_id":"f1c9d456-7697-4790-9b14-927e19b66a97","system_id":"levelo_inurba_marseille","lat":43.30603,"lon":5.39357,"is_reserved":false,"is_disabled":false,"rental_uris":{"android":"levelo://app?vid=f1c9d456-7697-4790-9b14-927e19b66a97","ios":"levelo://app?vid=f1c9d456-7697-4790-9b14-927e19b66a97"},"vehicle_type_id":"4","last_reported":1728886406,"current_range_meters":36400,"station_id":"ce4bh0p2rcd13ifvqd80","pricing_plan_id":"cebpf4jnsgd1na2vs0mg"},{"bike_id":"52ee70bf-1493-492e-8e40-4150b7083c25","system_id":"levelo_inurba_marseille","lat":43.30156,"lon":5.3808,"is_reserved":false,"is_disabled":false,"rental_uris":{"android":"levelo://app?vid=52ee70bf-1493-492e-8e40-4150b7083c25","ios":"levelo://app?vid=52ee70bf-1493-492e-8e40-4150b7083c25"},"vehicle_type_id":"4","last_reported":1728886406,"current_range_meters":36000,"station_id":"ce4bgjp2rcd13ifvqbh0","pricing_plan_id":"cebpf4jnsgd1na2vs0mg"},{"bike_id":"e084f833-022f-4cea-bf4e-fc335d17dd46","system_id":"levelo_inurba_marseille","lat":43.3054,"lon":5.36554,"is_reserved":false,"is_disabled":false,"rental_uris":{"android":"levelo://app?vid=e084f833-022f-4cea-bf4e-fc335d17dd46","ios":"levelo://app?vid=e084f833-022f-4cea-bf4e-fc335d17dd46"},"vehicle_type_id":"4","last_reported":1728886406,"current_range_meters":36000,"station_id":"ce4bgs12rcd13ifvqcag","pricing_plan_id":"cebpf4jnsgd1na2vs0mg"},{"bike_id":"b2e3dd67-3b01-49c3-abd4-9f44bef4bfb7","system_id":"levelo_inurba_marseille","lat":43.28933,"lon":5.36637,"is_reserved":false,"is_disabled":false,"rental_uris":{"android":"levelo://app?vid=b2e3dd67-3b01-49c3-abd4-9f44bef4bfb7","ios":"levelo://app?vid=b2e3dd67-3b01-49c3-abd4-9f44bef4bfb7"},"vehicle_type_id":"4","last_reported":1728886406,"current_range_meters":33600,"station_id":"ce4bhap2rcd13ifvqek0","pricing_plan_id":"cebpf4jnsgd1na2vs0mg"},{"bike_id":"0e43e281-638c-4b29-abe6-6cb11789fab1","system_id":"levelo_inurba_marseille","lat":43.29571,"lon":5.39984,"is_reserved":false,"is_disabled":false,"rental_uris":{"android":"levelo://app?vid=0e43e281-638c-4b29-abe6-6cb11789fab1","ios":"levelo://app?vid=0e43e281-638c-4b29-abe6-6cb11789fab1"},"vehicle_type_id":"4","last_reported":1728886406,"current_range_meters":38400,"station_id":"ce4bh312rcd13ifvqdj0","pricing_plan_id":"cebpf4jnsgd1na2vs0mg"},{"bike_id":"f652f837-fbc5-4210-a9ec-80495a53596f","system_id":"levelo_inurba_marseille","lat":43.24073,"lon":5.37759,"is_reserved":false,"is_disabled":false,"rental_uris":{"android":"levelo://app?vid=f652f837-fbc5-4210-a9ec-80495a53596f","ios":"levelo://app?vid=f652f837-fbc5-4210-a9ec-80495a53596f"},"vehicle_type_id":"4","last_reported":1728886406,"current_range_meters":36000,"station_id":"ce4bhnp2rcd13ifvqgvg","pricing_plan_id":"cebpf4jnsgd1na2vs0mg"},{"bike_id":"b607a881-1656-4ea2-9f9a-59482023e9a5","system_id":"levelo_inurba_marseille","lat":43.313567,"lon":5.367053,"is_reserved":false,"is_disabled":false,"rental_uris":{"android":"levelo://app?vid=b607a881-1656-4ea2-9f9a-59482023e9a5","ios":"levelo://app?vid=b607a881-1656-4ea2-9f9a-59482023e9a5"},"vehicle_type_id":"4","last_reported":1728886406,"current_range_meters":38800,"station_id":"ce4bgr92rcd13ifvqc6g","pricing_plan_id":"cebpf4jnsgd1na2vs0mg"},{"bike_id":"e9873400-0af8-42e7-941c-837b602b3e19","system_id":"levelo_inurba_marseille","lat":43.27565,"lon":5.38425,"is_reserved":false,"is_disabled":false,"rental_uris":{"android":"levelo://app?vid=e9873400-0af8-42e7-941c-837b602b3e19","ios":"levelo://app?vid=e9873400-0af8-42e7-941c-837b602b3e19"},"vehicle_type_id":"4","last_reported":1728886406,"current_range_meters":35600,"station_id":"ce4bhh92rcd13ifvqfi0","pricing_plan_id":"cebpf4jnsgd1na2vs0mg"},{"bike_id":"f183b812-4bed-43d2-b33b-389c90156843","system_id":"levelo_inurba_marseille","lat":43.26188,"lon":5.37452,"is_reserved":false,"is_disabled":false,"rental_uris":{"android":"levelo://app?vid=f183b812-4bed-43d2-b33b-389c90156843","ios":"levelo://app?vid=f183b812-4bed-43d2-b33b-389c90156843"},"vehicle_type_id":"4","last_reported":1728886406,"current_range_meters":28400,"station_id":"ce4bhgp2rcd13ifvqfc0","pricing_plan_id":"cebpf4jnsgd1na2vs0mg"},{"bike_id":"c887e693-22b2-4098-8fe3-8a0989b7db9b","system_id":"levelo_inurba_marseille","lat":43.29034,"lon":5.39972,"is_reserved":false,"is_disabled":false,"rental_uris":{"android":"levelo://app?vid=c887e693-22b2-4098-8fe3-8a0989b7db9b","ios":"levelo://app?vid=c887e693-22b2-4098-8fe3-8a0989b7db9b"},"vehicle_type_id":"4","last_reported":1728886406,"current_range_meters":27200,"station_id":"ce4bh392rcd13ifvqdm0","pricing_plan_id":"cebpf4jnsgd1na2vs0mg"},{"bike_id":"e1b6694a-148b-4d75-84df-882a744e7b1a","system_id":"levelo_inurba_marseille","lat":43.29024,"lon":5.3814,"is_reserved":false,"is_disabled":false,"rental_uris":{"android":"levelo://app?vid=e1b6694a-148b-4d75-84df-882a744e7b1a","ios":"levelo://app?vid=e1b6694a-148b-4d75-84df-882a744e7b1a"},"vehicle_type_id":"4","last_reported":1728886406,"current_range_meters":36400,"station_id":"ce4bh4p2rcd13ifvqe1g","pricing_plan_id":"cebpf4jnsgd1na2vs0mg"},{"bike_id":"997e4765-593d-49ca-ba6b-41756d6aec40","system_id":"levelo_inurba_marseille","lat":43.30473,"lon":5.37903,"is_reserved":false,"is_disabled":false,"rental_uris":{"android":"levelo://app?vid=997e4765-593d-49ca-ba6b-41756d6aec40","ios":"levelo://app?vid=997e4765-593d-49ca-ba6b-41756d6aec40"},"vehicle_type_id":"4","last_reported":1728886406,"current_range_meters":34000,"station_id":"ce4bgup2rcd13ifvqcn0","pricing_plan_id":"cebpf4jnsgd1na2vs0mg"},{"bike_id":"70c03985-49d6-413e-8d72-a6cae40ba0a4","system_id":"levelo_inurba_marseille","lat":43.25866,"lon":5.39907,"is_reserved":false,"is_disabled":false,"rental_uris":{"android":"levelo://app?vid=70c03985-49d6-413e-8d72-a6cae40ba0a4","ios":"levelo://app?vid=70c03985-49d6-413e-8d72-a6cae40ba0a4"},"vehicle_type_id":"4","last_reported":1728886406,"current_range_meters":38000,"station_id":"ce4bhl92rcd13ifvqghg","pricing_plan_id":"cebpf4jnsgd1na2vs0mg"},{"bike_id":"ad9c5125-2869-46bb-aaef-342aebc9bc00","system_id":"levelo_inurba_marseille","lat":43.31109,"lon":5.38064,"is_reserved":false,"is_disabled":false,"rental_uris":{"android":"levelo://app?vid=ad9c5125-2869-46bb-aaef-342aebc9bc00","ios":"levelo://app?vid=ad9c5125-2869-46bb-aaef-342aebc9bc00"},"vehicle_type_id":"4","last_reported":1728886406,"current_range_meters":20800,"station_id":"ce4bgt92rcd13ifvqcf0","pricing_plan_id":"cebpf4jnsgd1na2vs0mg"},{"bike_id":"5f2342ae-8d4c-4077-b871-5a4565f7416e","system_id":"levelo_inurba_marseille","lat":43.24074,"lon":5.37761,"is_reserved":false,"is_disabled":false,"rental_uris":{"android":"levelo://app?vid=5f2342ae-8d4c-4077-b871-5a4565f7416e","ios":"levelo://app?vid=5f2342ae-8d4c-4077-b871-5a4565f7416e"},"vehicle_type_id":"4","last_reported":1728886406,"current_range_meters":30800,"station_id":"ce4bhnp2rcd13ifvqgvg","pricing_plan_id":"cebpf4jnsgd1na2vs0mg"},{"bike_id":"6b101a3d-ed8e-4a63-99b4-834d2c7bef86","system_id":"levelo_inurba_marseille","lat":43.32538,"lon":5.41435,"is_reserved":false,"is_disabled":false,"rental_uris":{"android":"levelo://app?vid=6b101a3d-ed8e-4a63-99b4-834d2c7bef86","ios":"levelo://app?vid=6b101a3d-ed8e-4a63-99b4-834d2c7bef86"},"vehicle_type_id":"4","last_reported":1728886406,"current_range_meters":33200,"station_id":"ce4bhq12rcd13ifvqhhg","pricing_plan_id":"cebpf4jnsgd1na2vs0mg"},{"bike_id":"ec51ef74-ab7f-4f51-9746-dd7875106724","system_id":"levelo_inurba_marseille","lat":43.30348,"lon":5.41878,"is_reserved":false,"is_disabled":false,"rental_uris":{"android":"levelo://app?vid=ec51ef74-ab7f-4f51-9746-dd7875106724","ios":"levelo://app?vid=ec51ef74-ab7f-4f51-9746-dd7875106724"},"vehicle_type_id":"4","last_reported":1728886406,"current_range_meters":7200,"station_id":"ce4bhop2rcd13ifvqh7g","pricing_plan_id":"cebpf4jnsgd1na2vs0mg"},{"bike_id":"7d77f729-90ca-4a5e-9ca6-88301f21e21e","system_id":"levelo_inurba_marseille","lat":43.30536,"lon":5.36553,"is_reserved":false,"is_disabled":false,"rental_uris":{"android":"levelo://app?vid=7d77f729-90ca-4a5e-9ca6-88301f21e21e","ios":"levelo://app?vid=7d77f729-90ca-4a5e-9ca6-88301f21e21e"},"vehicle_type_id":"4","last_reported":1728886406,"current_range_meters":34800,"station_id":"ce4bgs12rcd13ifvqcag","pricing_plan_id":"cebpf4jnsgd1na2vs0mg"},{"bike_id":"1bd954b5-82cc-4ed8-81c9-6fee4b9e034c","system_id":"levelo_inurba_marseille","lat":43.3016,"lon":5.38088,"is_reserved":false,"is_disabled":false,"rental_uris":{"android":"levelo://app?vid=1bd954b5-82cc-4ed8-81c9-6fee4b9e034c","ios":"levelo://app?vid=1bd954b5-82cc-4ed8-81c9-6fee4b9e034c"},"vehicle_type_id":"4","last_reported":1728886406,"current_range_meters":38000,"station_id":"ce4bgjp2rcd13ifvqbh0","pricing_plan_id":"cebpf4jnsgd1na2vs0mg"},{"bike_id":"0e035532-54f9-4c10-a51d-b0c1f7a05c3f","system_id":"levelo_inurba_marseille","lat":43.25492,"lon":5.37647,"is_reserved":false,"is_disabled":false,"rental_uris":{"android":"levelo://app?vid=0e035532-54f9-4c10-a51d-b0c1f7a05c3f","ios":"levelo://app?vid=0e035532-54f9-4c10-a51d-b0c1f7a05c3f"},"vehicle_type_id":"4","last_reported":1728886406,"current_range_meters":32800,"station_id":"ce4bhh12rcd13ifvqff0","pricing_plan_id":"cebpf4jnsgd1na2vs0mg"},{"bike_id":"369a69c0-8a0c-4a59-98ae-9442c30aee33","system_id":"levelo_inurba_marseille","lat":43.31362,"lon":5.37406,"is_reserved":false,"is_disabled":false,"rental_uris":{"android":"levelo://app?vid=369a69c0-8a0c-4a59-98ae-9442c30aee33","ios":"levelo://app?vid=369a69c0-8a0c-4a59-98ae-9442c30aee33"},"vehicle_type_id":"4","last_reported":1728886406,"current_range_meters":38800,"station_id":"ce4bgt12rcd13ifvqcd0","pricing_plan_id":"cebpf4jnsgd1na2vs0mg"},{"bike_id":"a439e9c1-eb99-42fa-a16e-00182dec1edc","system_id":"levelo_inurba_marseille","lat":43.29039,"lon":5.39963,"is_reserved":false,"is_disabled":false,"rental_uris":{"android":"levelo://app?vid=a439e9c1-eb99-42fa-a16e-00182dec1edc","ios":"levelo://app?vid=a439e9c1-eb99-42fa-a16e-00182dec1edc"},"vehicle_type_id":"4","last_reported":1728886406,"current_range_meters":30000,"station_id":"ce4bh392rcd13ifvqdm0","pricing_plan_id":"cebpf4jnsgd1na2vs0mg"},{"bike_id":"117df68b-71bc-434a-b514-6fdd8e55a93c","system_id":"levelo_inurba_marseille","lat":43.302179,"lon":5.394667,"is_reserved":false,"is_disabled":false,"rental_uris":{"android":"levelo://app?vid=117df68b-71bc-434a-b514-6fdd8e55a93c","ios":"levelo://app?vid=117df68b-71bc-434a-b514-6fdd8e55a93c"},"vehicle_type_id":"4","last_reported":1728886406,"current_range_meters":18000,"station_id":"ce4bh0p2rcd13ifvqd70","pricing_plan_id":"cebpf4jnsgd1na2vs0mg"},{"bike_id":"06824c5c-2a00-47a0-8ed2-b13a897d7d51","system_id":"levelo_inurba_marseille","lat":43.3054,"lon":5.38428,"is_reserved":false,"is_disabled":false,"rental_uris":{"android":"levelo://app?vid=06824c5c-2a00-47a0-8ed2-b13a897d7d51","ios":"levelo://app?vid=06824c5c-2a00-47a0-8ed2-b13a897d7d51"},"vehicle_type_id":"4","last_reported":1728886406,"current_range_meters":32000,"station_id":"ce4bgg92rcd13ifvqb30","pricing_plan_id":"cebpf4jnsgd1na2vs0mg"},{"bike_id":"7c722ccf-af4f-4ddf-a648-b67890f609c9","system_id":"levelo_inurba_marseille","lat":43.24072,"lon":5.37763,"is_reserved":false,"is_disabled":false,"rental_uris":{"android":"levelo://app?vid=7c722ccf-af4f-4ddf-a648-b67890f609c9","ios":"levelo://app?vid=7c722ccf-af4f-4ddf-a648-b67890f609c9"},"vehicle_type_id":"4","last_reported":1728886406,"current_range_meters":35200,"station_id":"ce4bhnp2rcd13ifvqgvg","pricing_plan_id":"cebpf4jnsgd1na2vs0mg"},{"bike_id":"32aa2462-4ef3-49ca-8001-f3ce8891c411","system_id":"levelo_inurba_marseille","lat":43.29898,"lon":5.43664,"is_reserved":false,"is_disabled":false,"rental_uris":{"android":"levelo://app?vid=32aa2462-4ef3-49ca-8001-f3ce8891c411","ios":"levelo://app?vid=32aa2462-4ef3-49ca-8001-f3ce8891c411"},"vehicle_type_id":"4","last_reported":1728886406,"current_range_meters":16400,"station_id":"ce4bhpp2rcd13ifvqhfg","pricing_plan_id":"cebpf4jnsgd1na2vs0mg"},{"bike_id":"ba2fdd33-4c1f-4240-934b-f0f9238be5f5","system_id":"levelo_inurba_marseille","lat":43.31085,"lon":5.42429,"is_reserved":false,"is_disabled":false,"rental_uris":{"android":"levelo://app?vid=ba2fdd33-4c1f-4240-934b-f0f9238be5f5","ios":"levelo://app?vid=ba2fdd33-4c1f-4240-934b-f0f9238be5f5"},"vehicle_type_id":"4","last_reported":1728886406,"current_range_meters":24800,"station_id":"ce4bhp92rcd13ifvqhag","pricing_plan_id":"cebpf4jnsgd1na2vs0mg"},{"bike_id":"5968c016-2f05-4a98-96c7-5302957d16f1","system_id":"levelo_inurba_marseille","lat":43.28374,"lon":5.38635,"is_reserved":false,"is_disabled":false,"rental_uris":{"android":"levelo://app?vid=5968c016-2f05-4a98-96c7-5302957d16f1","ios":"levelo://app?vid=5968c016-2f05-4a98-96c7-5302957d16f1"},"vehicle_type_id":"4","last_reported":1728886406,"current_range_meters":30000,"station_id":"ce4bh492rcd13ifvqdvg","pricing_plan_id":"cebpf4jnsgd1na2vs0mg"},{"bike_id":"f13b9ae2-4763-4304-8f0a-803689da825f","system_id":"levelo_inurba_marseille","lat":43.27492,"lon":5.42454,"is_reserved":false,"is_disabled":false,"rental_uris":{"android":"levelo://app?vid=f13b9ae2-4763-4304-8f0a-803689da825f","ios":"levelo://app?vid=f13b9ae2-4763-4304-8f0a-803689da825f"},"vehicle_type_id":"4","last_reported":1728886406,"current_range_meters":28000,"station_id":"ce4bhn92rcd13ifvqgrg","pricing_plan_id":"cebpf4jnsgd1na2vs0mg"},{"bike_id":"402e2b18-2493-4b09-a5dd-0f549fefaf7a","system_id":"levelo_inurba_marseille","lat":43.2416,"lon":5.36413,"is_reserved":false,"is_disabled":false,"rental_uris":{"android":"levelo://app?vid=402e2b18-2493-4b09-a5dd-0f549fefaf7a","ios":"levelo://app?vid=402e2b18-2493-4b09-a5dd-0f549fefaf7a"},"vehicle_type_id":"4","last_reported":1728886406,"current_range_meters":38400,"station_id":"cpo36qri1sfpv3e86is0","pricing_plan_id":"cebpf4jnsgd1na2vs0mg"},{"bike_id":"db5dd0f6-5c60-4183-ad0c-25dc31f8a04c","system_id":"levelo_inurba_marseille","lat":43.29034,"lon":5.39989,"is_reserved":false,"is_disabled":false,"rental_uris":{"android":"levelo://app?vid=db5dd0f6-5c60-4183-ad0c-25dc31f8a04c","ios":"levelo://app?vid=db5dd0f6-5c60-4183-ad0c-25dc31f8a04c"},"vehicle_type_id":"4","last_reported":1728886406,"current_range_meters":35600,"station_id":"ce4bh392rcd13ifvqdm0","pricing_plan_id":"cebpf4jnsgd1na2vs0mg"},{"bike_id":"e5c16c22-4beb-4ebb-9589-e0cdddf92333","system_id":"levelo_inurba_marseille","lat":43.304687,"lon":5.379043,"is_reserved":false,"is_disabled":false,"rental_uris":{"android":"levelo://app?vid=e5c16c22-4beb-4ebb-9589-e0cdddf92333","ios":"levelo://app?vid=e5c16c22-4beb-4ebb-9589-e0cdddf92333"},"vehicle_type_id":"4","last_reported":1728886406,"current_range_meters":33200,"station_id":"ce4bgup2rcd13ifvqcn0","pricing_plan_id":"cebpf4jnsgd1na2vs0mg"},{"bike_id":"967813ff-6e07-4ed1-bc4d-c032726590fb","system_id":"levelo_inurba_marseille","lat":43.2319,"lon":5.35547,"is_reserved":false,"is_disabled":false,"rental_uris":{"android":"levelo://app?vid=967813ff-6e07-4ed1-bc4d-c032726590fb","ios":"levelo://app?vid=967813ff-6e07-4ed1-bc4d-c032726590fb"},"vehicle_type_id":"4","last_reported":1728886406,"current_range_meters":4800,"station_id":"ce4bhu92rcd13ifvqi70","pricing_plan_id":"cebpf4jnsgd1na2vs0mg"},{"bike_id":"7563807c-d27a-4161-8a5f-4b0cb3141228","system_id":"levelo_inurba_marseille","lat":43.33724,"lon":5.3918,"is_reserved":false,"is_disabled":false,"rental_uris":{"android":"levelo://app?vid=7563807c-d27a-4161-8a5f-4b0cb3141228","ios":"levelo://app?vid=7563807c-d27a-4161-8a5f-4b0cb3141228"},"vehicle_type_id":"4","last_reported":1728886406,"current_range_meters":38800,"station_id":"ce4bhr92rcd13ifvqhsg","pricing_plan_id":"cebpf4jnsgd1na2vs0mg"},{"bike_id":"5bc9b78b-9615-45c0-a888-79c429dfa74a","system_id":"levelo_inurba_marseille","lat":43.33728,"lon":5.39188,"is_reserved":false,"is_disabled":false,"rental_uris":{"android":"levelo://app?vid=5bc9b78b-9615-45c0-a888-79c429dfa74a","ios":"levelo://app?vid=5bc9b78b-9615-45c0-a888-79c429dfa74a"},"vehicle_type_id":"4","last_reported":1728886406,"current_range_meters":12400,"station_id":"ce4bhr92rcd13ifvqhsg","pricing_plan_id":"cebpf4jnsgd1na2vs0mg"},{"bike_id":"d78c27bf-97c1-420b-82fb-48ca2bea5d28","system_id":"levelo_inurba_marseille","lat":43.26196,"lon":5.37928,"is_reserved":false,"is_disabled":false,"rental_uris":{"android":"levelo://app?vid=d78c27bf-97c1-420b-82fb-48ca2bea5d28","ios":"levelo://app?vid=d78c27bf-97c1-420b-82fb-48ca2bea5d28"},"vehicle_type_id":"4","last_reported":1728886406,"current_range_meters":38800,"station_id":"ce4bhjp2rcd13ifvqg90","pricing_plan_id":"cebpf4jnsgd1na2vs0mg"},{"bike_id":"3915f9a2-e1d0-4998-ba05-2eda806b8904","system_id":"levelo_inurba_marseille","lat":43.27495,"lon":5.4245,"is_reserved":false,"is_disabled":false,"rental_uris":{"android":"levelo://app?vid=3915f9a2-e1d0-4998-ba05-2eda806b8904","ios":"levelo://app?vid=3915f9a2-e1d0-4998-ba05-2eda806b8904"},"vehicle_type_id":"4","last_reported":1728886406,"current_range_meters":25600,"station_id":"ce4bhn92rcd13ifvqgrg","pricing_plan_id":"cebpf4jnsgd1na2vs0mg"},{"bike_id":"ea01ec7a-7c0c-4b8e-ac56-3690f2c189a3","system_id":"levelo_inurba_marseille","lat":43.26484,"lon":5.395473,"is_reserved":false,"is_disabled":false,"rental_uris":{"android":"levelo://app?vid=ea01ec7a-7c0c-4b8e-ac56-3690f2c189a3","ios":"levelo://app?vid=ea01ec7a-7c0c-4b8e-ac56-3690f2c189a3"},"vehicle_type_id":"4","last_reported":1728886406,"current_range_meters":36400,"station_id":"ce4bhi12rcd13ifvqfq0","pricing_plan_id":"cebpf4jnsgd1na2vs0mg"},{"bike_id":"33c8cb8f-4d93-4ca1-b394-19ac08e7af57","system_id":"levelo_inurba_marseille","lat":43.26208,"lon":5.37447,"is_reserved":false,"is_disabled":false,"rental_uris":{"android":"levelo://app?vid=33c8cb8f-4d93-4ca1-b394-19ac08e7af57","ios":"levelo://app?vid=33c8cb8f-4d93-4ca1-b394-19ac08e7af57"},"vehicle_type_id":"4","last_reported":1728886406,"current_range_meters":35600,"station_id":"ce4bhgp2rcd13ifvqfc0","pricing_plan_id":"cebpf4jnsgd1na2vs0mg"},{"bike_id":"d8a43512-bbdf-4df6-a4d6-3c155373586e","system_id":"levelo_inurba_marseille","lat":43.29792,"lon":5.38081,"is_reserved":false,"is_disabled":false,"rental_uris":{"android":"levelo://app?vid=d8a43512-bbdf-4df6-a4d6-3c155373586e","ios":"levelo://app?vid=d8a43512-bbdf-4df6-a4d6-3c155373586e"},"vehicle_type_id":"4","last_reported":1728886406,"current_range_meters":21600,"station_id":"ce4bgip2rcd13ifvqbb0","pricing_plan_id":"cebpf4jnsgd1na2vs0mg"},{"bike_id":"b293547a-ff95-4089-9de3-1363fcf97ec2","system_id":"levelo_inurba_marseille","lat":43.31484,"lon":5.37304,"is_reserved":false,"is_disabled":false,"rental_uris":{"android":"levelo://app?vid=b293547a-ff95-4089-9de3-1363fcf97ec2","ios":"levelo://app?vid=b293547a-ff95-4089-9de3-1363fcf97ec2"},"vehicle_type_id":"4","last_reported":1728886406,"current_range_meters":33600,"station_id":"ce4bgt12rcd13ifvqcd0","pricing_plan_id":"cebpf4jnsgd1na2vs0mg"},{"bike_id":"f1d9e268-9ffe-4423-8dde-057e879db42b","system_id":"levelo_inurba_marseille","lat":43.29086,"lon":5.38157,"is_reserved":false,"is_disabled":false,"rental_uris":{"android":"levelo://app?vid=f1d9e268-9ffe-4423-8dde-057e879db42b","ios":"levelo://app?vid=f1d9e268-9ffe-4423-8dde-057e879db42b"},"vehicle_type_id":"4","last_reported":1728886406,"current_range_meters":38000,"station_id":"ce4bh512rcd13ifvqe2g","pricing_plan_id":"cebpf4jnsgd1na2vs0mg"},{"bike_id":"c3bab586-99ec-41f5-8acb-6e3c3dcab38f","system_id":"levelo_inurba_marseille","lat":43.26553,"lon":5.37285,"is_reserved":false,"is_disabled":false,"rental_uris":{"android":"levelo://app?vid=c3bab586-99ec-41f5-8acb-6e3c3dcab38f","ios":"levelo://app?vid=c3bab586-99ec-41f5-8acb-6e3c3dcab38f"},"vehicle_type_id":"4","last_reported":1728886406,"current_range_meters":38800,"station_id":"ce4bhg12rcd13ifvqf70","pricing_plan_id":"cebpf4jnsgd1na2vs0mg"},{"bike_id":"e2ae7ed0-f443-4ed1-ac34-43cd203969a4","system_id":"levelo_inurba_marseille","lat":43.28353,"lon":5.38112,"is_reserved":false,"is_disabled":false,"rental_uris":{"android":"levelo://app?vid=e2ae7ed0-f443-4ed1-ac34-43cd203969a4","ios":"levelo://app?vid=e2ae7ed0-f443-4ed1-ac34-43cd203969a4"},"vehicle_type_id":"4","last_reported":1728886406,"current_range_meters":30800,"station_id":"ce4bh412rcd13ifvqdr0","pricing_plan_id":"cebpf4jnsgd1na2vs0mg"},{"bike_id":"2fddcfa9-af3b-483d-a228-97acc65cd6bb","system_id":"levelo_inurba_marseille","lat":43.30155,"lon":5.3808,"is_reserved":false,"is_disabled":false,"rental_uris":{"android":"levelo://app?vid=2fddcfa9-af3b-483d-a228-97acc65cd6bb","ios":"levelo://app?vid=2fddcfa9-af3b-483d-a228-97acc65cd6bb"},"vehicle_type_id":"4","last_reported":1728886406,"current_range_meters":17600,"station_id":"ce4bgjp2rcd13ifvqbh0","pricing_plan_id":"cebpf4jnsgd1na2vs0mg"},{"bike_id":"729b5747-2745-44f4-8e45-767e543cac8a","system_id":"levelo_inurba_marseille","lat":43.33034,"lon":5.38936,"is_reserved":false,"is_disabled":false,"rental_uris":{"android":"levelo://app?vid=729b5747-2745-44f4-8e45-767e543cac8a","ios":"levelo://app?vid=729b5747-2745-44f4-8e45-767e543cac8a"},"vehicle_type_id":"4","last_reported":1728886406,"current_range_meters":34800,"station_id":"","pricing_plan_id":"cebpf4jnsgd1na2vs0mg"},{"bike_id":"09348952-ebbd-496d-877f-54bd3e43b367","system_id":"levelo_inurba_marseille","lat":43.30549,"lon":5.36541,"is_reserved":false,"is_disabled":false,"rental_uris":{"android":"levelo://app?vid=09348952-ebbd-496d-877f-54bd3e43b367","ios":"levelo://app?vid=09348952-ebbd-496d-877f-54bd3e43b367"},"vehicle_type_id":"4","last_reported":1728886406,"current_range_meters":38000,"station_id":"ce4bgs12rcd13ifvqcag","pricing_plan_id":"cebpf4jnsgd1na2vs0mg"},{"bike_id":"b26bd7b6-73f9-444d-b7d9-b9739e908550","system_id":"levelo_inurba_marseille","lat":43.30151,"lon":5.38078,"is_reserved":false,"is_disabled":false,"rental_uris":{"android":"levelo://app?vid=b26bd7b6-73f9-444d-b7d9-b9739e908550","ios":"levelo://app?vid=b26bd7b6-73f9-444d-b7d9-b9739e908550"},"vehicle_type_id":"4","last_reported":1728886406,"current_range_meters":34800,"station_id":"ce4bgjp2rcd13ifvqbh0","pricing_plan_id":"cebpf4jnsgd1na2vs0mg"},{"bike_id":"09c68a5f-0d71-4297-b983-b41453a9b1ae","system_id":"levelo_inurba_marseille","lat":43.34139,"lon":5.4091,"is_reserved":false,"is_disabled":false,"rental_uris":{"android":"levelo://app?vid=09c68a5f-0d71-4297-b983-b41453a9b1ae","ios":"levelo://app?vid=09c68a5f-0d71-4297-b983-b41453a9b1ae"},"vehicle_type_id":"4","last_reported":1728886406,"current_range_meters":38800,"station_id":"ce4bhqh2rcd13ifvqhlg","pricing_plan_id":"cebpf4jnsgd1na2vs0mg"},{"bike_id":"14995dfe-209b-4590-9be0-850c18c5a8af","system_id":"levelo_inurba_marseille","lat":43.24078,"lon":5.37757,"is_reserved":false,"is_disabled":false,"rental_uris":{"android":"levelo://app?vid=14995dfe-209b-4590-9be0-850c18c5a8af","ios":"levelo://app?vid=14995dfe-209b-4590-9be0-850c18c5a8af"},"vehicle_type_id":"4","last_reported":1728886406,"current_range_meters":31200,"station_id":"ce4bhnp2rcd13ifvqgvg","pricing_plan_id":"cebpf4jnsgd1na2vs0mg"},{"bike_id":"60180eed-3b6a-4394-b957-4d29e511cdc0","system_id":"levelo_inurba_marseille","lat":43.30481,"lon":5.37901,"is_reserved":false,"is_disabled":false,"rental_uris":{"android":"levelo://app?vid=60180eed-3b6a-4394-b957-4d29e511cdc0","ios":"levelo://app?vid=60180eed-3b6a-4394-b957-4d29e511cdc0"},"vehicle_type_id":"4","last_reported":1728886406,"current_range_meters":34800,"station_id":"ce4bgup2rcd13ifvqcn0","pricing_plan_id":"cebpf4jnsgd1na2vs0mg"},{"bike_id":"731e188b-6905-450f-bc90-b79536156775","system_id":"levelo_inurba_marseille","lat":43.30948,"lon":5.39027,"is_reserved":false,"is_disabled":false,"rental_uris":{"android":"levelo://app?vid=731e188b-6905-450f-bc90-b79536156775","ios":"levelo://app?vid=731e188b-6905-450f-bc90-b79536156775"},"vehicle_type_id":"4","last_reported":1728886406,"current_range_meters":14400,"station_id":"ce4bgup2rcd13ifvqco0","pricing_plan_id":"cebpf4jnsgd1na2vs0mg"},{"bike_id":"55bd731b-b3aa-4c83-a9ea-60c964e5d56a","system_id":"levelo_inurba_marseille","lat":43.27492,"lon":5.42462,"is_reserved":false,"is_disabled":false,"rental_uris":{"android":"levelo://app?vid=55bd731b-b3aa-4c83-a9ea-60c964e5d56a","ios":"levelo://app?vid=55bd731b-b3aa-4c83-a9ea-60c964e5d56a"},"vehicle_type_id":"4","last_reported":1728886406,"current_range_meters":6800,"station_id":"ce4bhn92rcd13ifvqgrg","pricing_plan_id":"cebpf4jnsgd1na2vs0mg"},{"bike_id":"e2b39862-ca82-4d11-85a4-4006bed200fb","system_id":"levelo_inurba_marseille","lat":43.24078,"lon":5.37756,"is_reserved":false,"is_disabled":false,"rental_uris":{"android":"levelo://app?vid=e2b39862-ca82-4d11-85a4-4006bed200fb","ios":"levelo://app?vid=e2b39862-ca82-4d11-85a4-4006bed200fb"},"vehicle_type_id":"4","last_reported":1728886406,"current_range_meters":36400,"station_id":"ce4bhnp2rcd13ifvqgvg","pricing_plan_id":"cebpf4jnsgd1na2vs0mg"},{"bike_id":"9c51286d-9bc1-4462-bb96-fd77d911114d","system_id":"levelo_inurba_marseille","lat":43.23152,"lon":5.43724,"is_reserved":false,"is_disabled":false,"rental_uris":{"android":"levelo://app?vid=9c51286d-9bc1-4462-bb96-fd77d911114d","ios":"levelo://app?vid=9c51286d-9bc1-4462-bb96-fd77d911114d"},"vehicle_type_id":"4","last_reported":1728886406,"current_range_meters":29600,"station_id":"ce4bhmp2rcd13ifvqgog","pricing_plan_id":"cebpf4jnsgd1na2vs0mg"},{"bike_id":"1f535ebf-e182-4b2e-b9aa-c39959f8ac74","system_id":"levelo_inurba_marseille","lat":43.28946,"lon":5.39634,"is_reserved":false,"is_disabled":false,"rental_uris":{"android":"levelo://app?vid=1f535ebf-e182-4b2e-b9aa-c39959f8ac74","ios":"levelo://app?vid=1f535ebf-e182-4b2e-b9aa-c39959f8ac74"},"vehicle_type_id":"4","last_reported":1728886406,"current_range_meters":37600,"station_id":"ce4bh3h2rcd13ifvqdn0","pricing_plan_id":"cebpf4jnsgd1na2vs0mg"},{"bike_id":"95abc3db-257e-43e0-b89c-14c03075b7a0","system_id":"levelo_inurba_marseille","lat":43.28154,"lon":5.4265,"is_reserved":false,"is_disabled":false,"rental_uris":{"android":"levelo://app?vid=95abc3db-257e-43e0-b89c-14c03075b7a0","ios":"levelo://app?vid=95abc3db-257e-43e0-b89c-14c03075b7a0"},"vehicle_type_id":"4","last_reported":1728886406,"current_range_meters":30400,"station_id":"ce4bhnh2rcd13ifvqgug","pricing_plan_id":"cebpf4jnsgd1na2vs0mg"},{"bike_id":"785797d5-d45d-4449-ad8e-f503e6206e9c","system_id":"levelo_inurba_marseille","lat":43.27495,"lon":5.42461,"is_reserved":false,"is_disabled":false,"rental_uris":{"android":"levelo://app?vid=785797d5-d45d-4449-ad8e-f503e6206e9c","ios":"levelo://app?vid=785797d5-d45d-4449-ad8e-f503e6206e9c"},"vehicle_type_id":"4","last_reported":1728886406,"current_range_meters":27200,"station_id":"ce4bhn92rcd13ifvqgrg","pricing_plan_id":"cebpf4jnsgd1na2vs0mg"},{"bike_id":"c9b8e085-97a6-486d-94d9-f245cd1b0e02","system_id":"levelo_inurba_marseille","lat":43.28348,"lon":5.38114,"is_reserved":false,"is_disabled":false,"rental_uris":{"android":"levelo://app?vid=c9b8e085-97a6-486d-94d9-f245cd1b0e02","ios":"levelo://app?vid=c9b8e085-97a6-486d-94d9-f245cd1b0e02"},"vehicle_type_id":"4","last_reported":1728886406,"current_range_meters":32800,"station_id":"ce4bh412rcd13ifvqdr0","pricing_plan_id":"cebpf4jnsgd1na2vs0mg"},{"bike_id":"1b8c6c6d-1fe9-48ef-81fc-2e3864db520f","system_id":"levelo_inurba_marseille","lat":43.29551,"lon":5.42276,"is_reserved":false,"is_disabled":false,"rental_uris":{"android":"levelo://app?vid=1b8c6c6d-1fe9-48ef-81fc-2e3864db520f","ios":"levelo://app?vid=1b8c6c6d-1fe9-48ef-81fc-2e3864db520f"},"vehicle_type_id":"4","last_reported":1728886406,"current_range_meters":40000,"station_id":"ce4bhph2rcd13ifvqhdg","pricing_plan_id":"cebpf4jnsgd1na2vs0mg"},{"bike_id":"21e3a959-ab6c-4951-bf62-00a74a0fb583","system_id":"levelo_inurba_marseille","lat":43.27489,"lon":5.42458,"is_reserved":false,"is_disabled":false,"rental_uris":{"android":"levelo://app?vid=21e3a959-ab6c-4951-bf62-00a74a0fb583","ios":"levelo://app?vid=21e3a959-ab6c-4951-bf62-00a74a0fb583"},"vehicle_type_id":"4","last_reported":1728886406,"current_range_meters":3200,"station_id":"ce4bhn92rcd13ifvqgrg","pricing_plan_id":"cebpf4jnsgd1na2vs0mg"},{"bike_id":"58821253-536d-48f0-9016-f878c99d9361","system_id":"levelo_inurba_marseille","lat":43.23064,"lon":5.35496,"is_reserved":false,"is_disabled":false,"rental_uris":{"android":"levelo://app?vid=58821253-536d-48f0-9016-f878c99d9361","ios":"levelo://app?vid=58821253-536d-48f0-9016-f878c99d9361"},"vehicle_type_id":"4","last_reported":1728886406,"current_range_meters":38800,"station_id":"cpo3342slgdg3j2ifvpg","pricing_plan_id":"cebpf4jnsgd1na2vs0mg"},{"bike_id":"6079e7aa-0ee6-4d31-aa0e-861f57578c9f","system_id":"levelo_inurba_marseille","lat":43.28948,"lon":5.36409,"is_reserved":false,"is_disabled":false,"rental_uris":{"android":"levelo://app?vid=6079e7aa-0ee6-4d31-aa0e-861f57578c9f","ios":"levelo://app?vid=6079e7aa-0ee6-4d31-aa0e-861f57578c9f"},"vehicle_type_id":"4","last_reported":1728886406,"current_range_meters":38400,"station_id":"ce4bhc92rcd13ifvqetg","pricing_plan_id":"cebpf4jnsgd1na2vs0mg"},{"bike_id":"a0681e5c-6f3e-45b3-8cbc-bf357b25a1eb","system_id":"levelo_inurba_marseille","lat":43.28949,"lon":5.36399,"is_reserved":false,"is_disabled":false,"rental_uris":{"android":"levelo://app?vid=a0681e5c-6f3e-45b3-8cbc-bf357b25a1eb","ios":"levelo://app?vid=a0681e5c-6f3e-45b3-8cbc-bf357b25a1eb"},"vehicle_type_id":"4","last_reported":1728886406,"current_range_meters":4000,"station_id":"ce4bhc92rcd13ifvqetg","pricing_plan_id":"cebpf4jnsgd1na2vs0mg"},{"bike_id":"8df131e7-8c2d-4066-9d21-f0968a7d0338","system_id":"levelo_inurba_marseille","lat":43.29199,"lon":5.37313,"is_reserved":false,"is_disabled":false,"rental_uris":{"android":"levelo://app?vid=8df131e7-8c2d-4066-9d21-f0968a7d0338","ios":"levelo://app?vid=8df131e7-8c2d-4066-9d21-f0968a7d0338"},"vehicle_type_id":"4","last_reported":1728886406,"current_range_meters":22800,"station_id":"ce4bhap2rcd13ifvqek0","pricing_plan_id":"cebpf4jnsgd1na2vs0mg"},{"bike_id":"c9b4cdaf-5b77-41b6-89dc-9165cdc8d7c0","system_id":"levelo_inurba_marseille","lat":43.30484,"lon":5.37907,"is_reserved":false,"is_disabled":false,"rental_uris":{"android":"levelo://app?vid=c9b4cdaf-5b77-41b6-89dc-9165cdc8d7c0","ios":"levelo://app?vid=c9b4cdaf-5b77-41b6-89dc-9165cdc8d7c0"},"vehicle_type_id":"4","last_reported":1728886406,"current_range_meters":38800,"station_id":"ce4bgup2rcd13ifvqcn0","pricing_plan_id":"cebpf4jnsgd1na2vs0mg"},{"bike_id":"3e50785b-f2c6-46fc-a083-53a367036c56","system_id":"levelo_inurba_marseille","lat":43.25932,"lon":5.40911,"is_reserved":false,"is_disabled":false,"rental_uris":{"android":"levelo://app?vid=3e50785b-f2c6-46fc-a083-53a367036c56","ios":"levelo://app?vid=3e50785b-f2c6-46fc-a083-53a367036c56"},"vehicle_type_id":"4","last_reported":1728886406,"current_range_meters":12000,"station_id":"ce4bhm92rcd13ifvqglg","pricing_plan_id":"cebpf4jnsgd1na2vs0mg"},{"bike_id":"898f5baf-cc4b-4f96-a7ce-ba0018ba1e0b","system_id":"levelo_inurba_marseille","lat":43.30464,"lon":5.37903,"is_reserved":false,"is_disabled":false,"rental_uris":{"android":"levelo://app?vid=898f5baf-cc4b-4f96-a7ce-ba0018ba1e0b","ios":"levelo://app?vid=898f5baf-cc4b-4f96-a7ce-ba0018ba1e0b"},"vehicle_type_id":"4","last_reported":1728886406,"current_range_meters":34000,"station_id":"ce4bgup2rcd13ifvqcn0","pricing_plan_id":"cebpf4jnsgd1na2vs0mg"},{"bike_id":"7c095d3c-604a-4602-b927-64e3a8b70e01","system_id":"levelo_inurba_marseille","lat":43.29032,"lon":5.37567,"is_reserved":false,"is_disabled":false,"rental_uris":{"android":"levelo://app?vid=7c095d3c-604a-4602-b927-64e3a8b70e01","ios":"levelo://app?vid=7c095d3c-604a-4602-b927-64e3a8b70e01"},"vehicle_type_id":"4","last_reported":1728886406,"current_range_meters":32000,"station_id":"ce4bh692rcd13ifvqe90","pricing_plan_id":"cebpf4jnsgd1na2vs0mg"},{"bike_id":"cdde71fa-933f-47ef-8a23-39142a076aea","system_id":"levelo_inurba_marseille","lat":43.29553,"lon":5.42282,"is_reserved":false,"is_disabled":false,"rental_uris":{"android":"levelo://app?vid=cdde71fa-933f-47ef-8a23-39142a076aea","ios":"levelo://app?vid=cdde71fa-933f-47ef-8a23-39142a076aea"},"vehicle_type_id":"4","last_reported":1728886406,"current_range_meters":37600,"station_id":"ce4bhph2rcd13ifvqhdg","pricing_plan_id":"cebpf4jnsgd1na2vs0mg"},{"bike_id":"aae33064-4853-4bd5-9ae9-1d2a4ee45368","system_id":"levelo_inurba_marseille","lat":43.24166,"lon":5.36402,"is_reserved":false,"is_disabled":false,"rental_uris":{"android":"levelo://app?vid=aae33064-4853-4bd5-9ae9-1d2a4ee45368","ios":"levelo://app?vid=aae33064-4853-4bd5-9ae9-1d2a4ee45368"},"vehicle_type_id":"4","last_reported":1728886406,"current_range_meters":32000,"station_id":"cpo36qri1sfpv3e86is0","pricing_plan_id":"cebpf4jnsgd1na2vs0mg"},{"bike_id":"d9c93a58-ca34-45b1-a93d-05794a36c5ed","system_id":"levelo_inurba_marseille","lat":43.31685,"lon":5.40475,"is_reserved":false,"is_disabled":false,"rental_uris":{"android":"levelo://app?vid=d9c93a58-ca34-45b1-a93d-05794a36c5ed","ios":"levelo://app?vid=d9c93a58-ca34-45b1-a93d-05794a36c5ed"},"vehicle_type_id":"4","last_reported":1728886406,"current_range_meters":18000,"station_id":"ce4bh012rcd13ifvqd00","pricing_plan_id":"cebpf4jnsgd1na2vs0mg"},{"bike_id":"9d478290-d007-4292-bc2e-170e50b123b0","system_id":"levelo_inurba_marseille","lat":43.28716,"lon":5.37945,"is_reserved":false,"is_disabled":false,"rental_uris":{"android":"levelo://app?vid=9d478290-d007-4292-bc2e-170e50b123b0","ios":"levelo://app?vid=9d478290-d007-4292-bc2e-170e50b123b0"},"vehicle_type_id":"4","last_reported":1728886406,"current_range_meters":37600,"station_id":"ce4bh9p2rcd13ifvqec0","pricing_plan_id":"cebpf4jnsgd1na2vs0mg"},{"bike_id":"38118819-5b41-45b7-b8fe-8a84fcfa5a10","system_id":"levelo_inurba_marseille","lat":43.290372,"lon":5.399479,"is_reserved":false,"is_disabled":false,"rental_uris":{"android":"levelo://app?vid=38118819-5b41-45b7-b8fe-8a84fcfa5a10","ios":"levelo://app?vid=38118819-5b41-45b7-b8fe-8a84fcfa5a10"},"vehicle_type_id":"4","last_reported":1728886406,"current_range_meters":38800,"station_id":"ce4bh392rcd13ifvqdm0","pricing_plan_id":"cebpf4jnsgd1na2vs0mg"},{"bike_id":"7f5db99f-cafa-4760-9265-a2810f4be241","system_id":"levelo_inurba_marseille","lat":43.28351,"lon":5.38108,"is_reserved":false,"is_disabled":false,"rental_uris":{"android":"levelo://app?vid=7f5db99f-cafa-4760-9265-a2810f4be241","ios":"levelo://app?vid=7f5db99f-cafa-4760-9265-a2810f4be241"},"vehicle_type_id":"4","last_reported":1728886406,"current_range_meters":35600,"station_id":"ce4bh412rcd13ifvqdr0","pricing_plan_id":"cebpf4jnsgd1na2vs0mg"},{"bike_id":"a63ca137-526c-4e9e-9499-f8511361c84f","system_id":"levelo_inurba_marseille","lat":43.25672,"lon":5.39471,"is_reserved":false,"is_disabled":false,"rental_uris":{"android":"levelo://app?vid=a63ca137-526c-4e9e-9499-f8511361c84f","ios":"levelo://app?vid=a63ca137-526c-4e9e-9499-f8511361c84f"},"vehicle_type_id":"4","last_reported":1728886406,"current_range_meters":22400,"station_id":"ce4bhgp2rcd13ifvqfd0","pricing_plan_id":"cebpf4jnsgd1na2vs0mg"},{"bike_id":"cdf763b9-d041-445a-bd6e-8460cc8d43bc","system_id":"levelo_inurba_marseille","lat":43.30478,"lon":5.37897,"is_reserved":false,"is_disabled":false,"rental_uris":{"android":"levelo://app?vid=cdf763b9-d041-445a-bd6e-8460cc8d43bc","ios":"levelo://app?vid=cdf763b9-d041-445a-bd6e-8460cc8d43bc"},"vehicle_type_id":"4","last_reported":1728886406,"current_range_meters":25600,"station_id":"ce4bgup2rcd13ifvqcn0","pricing_plan_id":"cebpf4jnsgd1na2vs0mg"},{"bike_id":"3ebc8614-7122-4477-a27c-b50ee26fcca2","system_id":"levelo_inurba_marseille","lat":43.23195,"lon":5.35542,"is_reserved":false,"is_disabled":false,"rental_uris":{"android":"levelo://app?vid=3ebc8614-7122-4477-a27c-b50ee26fcca2","ios":"levelo://app?vid=3ebc8614-7122-4477-a27c-b50ee26fcca2"},"vehicle_type_id":"4","last_reported":1728886406,"current_range_meters":4800,"station_id":"ce4bhu92rcd13ifvqi70","pricing_plan_id":"cebpf4jnsgd1na2vs0mg"},{"bike_id":"9ce54f0f-36ec-41d6-ae7b-340cf8637579","system_id":"levelo_inurba_marseille","lat":43.24074,"lon":5.37757,"is_reserved":false,"is_disabled":false,"rental_uris":{"android":"levelo://app?vid=9ce54f0f-36ec-41d6-ae7b-340cf8637579","ios":"levelo://app?vid=9ce54f0f-36ec-41d6-ae7b-340cf8637579"},"vehicle_type_id":"4","last_reported":1728886406,"current_range_meters":38000,"station_id":"ce4bhnp2rcd13ifvqgvg","pricing_plan_id":"cebpf4jnsgd1na2vs0mg"},{"bike_id":"aad69708-28ac-43e6-945e-619f5a7c6bfd","system_id":"levelo_inurba_marseille","lat":43.33781,"lon":5.37443,"is_reserved":false,"is_disabled":false,"rental_uris":{"android":"levelo://app?vid=aad69708-28ac-43e6-945e-619f5a7c6bfd","ios":"levelo://app?vid=aad69708-28ac-43e6-945e-619f5a7c6bfd"},"vehicle_type_id":"4","last_reported":1728886406,"current_range_meters":30400,"station_id":"","pricing_plan_id":"cebpf4jnsgd1na2vs0mg"},{"bike_id":"30c394d7-f7f7-4470-8973-dcc651c88827","system_id":"levelo_inurba_marseille","lat":43.3015,"lon":5.38079,"is_reserved":false,"is_disabled":false,"rental_uris":{"android":"levelo://app?vid=30c394d7-f7f7-4470-8973-dcc651c88827","ios":"levelo://app?vid=30c394d7-f7f7-4470-8973-dcc651c88827"},"vehicle_type_id":"4","last_reported":1728886406,"current_range_meters":28400,"station_id":"ce4bgjp2rcd13ifvqbh0","pricing_plan_id":"cebpf4jnsgd1na2vs0mg"},{"bike_id":"67b30335-56ba-4658-9a0b-7ab78dc3c5aa","system_id":"levelo_inurba_marseille","lat":43.28349,"lon":5.38102,"is_reserved":false,"is_disabled":false,"rental_uris":{"android":"levelo://app?vid=67b30335-56ba-4658-9a0b-7ab78dc3c5aa","ios":"levelo://app?vid=67b30335-56ba-4658-9a0b-7ab78dc3c5aa"},"vehicle_type_id":"4","last_reported":1728886406,"current_range_meters":29600,"station_id":"ce4bh412rcd13ifvqdr0","pricing_plan_id":"cebpf4jnsgd1na2vs0mg"},{"bike_id":"f8dc795d-f753-4afe-8e70-b71292e6574d","system_id":"levelo_inurba_marseille","lat":43.33618,"lon":5.41031,"is_reserved":false,"is_disabled":false,"rental_uris":{"android":"levelo://app?vid=f8dc795d-f753-4afe-8e70-b71292e6574d","ios":"levelo://app?vid=f8dc795d-f753-4afe-8e70-b71292e6574d"},"vehicle_type_id":"4","last_reported":1728886406,"current_range_meters":16800,"station_id":"ce4bhqh2rcd13ifvqhmg","pricing_plan_id":"cebpf4jnsgd1na2vs0mg"},{"bike_id":"92ffd6bd-fff3-48de-962d-2fccf89bc6a0","system_id":"levelo_inurba_marseille","lat":43.301462,"lon":5.380795,"is_reserved":false,"is_disabled":false,"rental_uris":{"android":"levelo://app?vid=92ffd6bd-fff3-48de-962d-2fccf89bc6a0","ios":"levelo://app?vid=92ffd6bd-fff3-48de-962d-2fccf89bc6a0"},"vehicle_type_id":"4","last_reported":1728886406,"current_range_meters":14400,"station_id":"ce4bh412rcd13ifvqdr0","pricing_plan_id":"cebpf4jnsgd1na2vs0mg"},{"bike_id":"70bdce3d-e770-4f15-ab9f-dc9254a41538","system_id":"levelo_inurba_marseille","lat":43.30429,"lon":5.39835,"is_reserved":false,"is_disabled":false,"rental_uris":{"android":"levelo://app?vid=70bdce3d-e770-4f15-ab9f-dc9254a41538","ios":"levelo://app?vid=70bdce3d-e770-4f15-ab9f-dc9254a41538"},"vehicle_type_id":"4","last_reported":1728886406,"current_range_meters":36000,"station_id":"","pricing_plan_id":"cebpf4jnsgd1na2vs0mg"},{"bike_id":"02ca582b-da73-4585-8b4c-81836da9d048","system_id":"levelo_inurba_marseille","lat":43.29715,"lon":5.36611,"is_reserved":false,"is_disabled":false,"rental_uris":{"android":"levelo://app?vid=02ca582b-da73-4585-8b4c-81836da9d048","ios":"levelo://app?vid=02ca582b-da73-4585-8b4c-81836da9d048"},"vehicle_type_id":"4","last_reported":1728886406,"current_range_meters":14400,"station_id":"ce4bgn12rcd13ifvqbt0","pricing_plan_id":"cebpf4jnsgd1na2vs0mg"},{"bike_id":"aa89d08a-5963-4b35-9285-53c0ad4f999f","system_id":"levelo_inurba_marseille","lat":43.24077,"lon":5.37751,"is_reserved":false,"is_disabled":false,"rental_uris":{"android":"levelo://app?vid=aa89d08a-5963-4b35-9285-53c0ad4f999f","ios":"levelo://app?vid=aa89d08a-5963-4b35-9285-53c0ad4f999f"},"vehicle_type_id":"4","last_reported":1728886406,"current_range_meters":19200,"station_id":"ce4bhnp2rcd13ifvqgvg","pricing_plan_id":"cebpf4jnsgd1na2vs0mg"},{"bike_id":"35983d65-e7a5-415a-b102-7f0aac4b39f7","system_id":"levelo_inurba_marseille","lat":43.23193,"lon":5.35553,"is_reserved":false,"is_disabled":false,"rental_uris":{"android":"levelo://app?vid=35983d65-e7a5-415a-b102-7f0aac4b39f7","ios":"levelo://app?vid=35983d65-e7a5-415a-b102-7f0aac4b39f7"},"vehicle_type_id":"4","last_reported":1728886406,"current_range_meters":38400,"station_id":"ce4bhu92rcd13ifvqi70","pricing_plan_id":"cebpf4jnsgd1na2vs0mg"},{"bike_id":"cdd39fe3-f151-40d9-9f7d-0be86084455a","system_id":"levelo_inurba_marseille","lat":43.28472,"lon":5.38426,"is_reserved":false,"is_disabled":false,"rental_uris":{"android":"levelo://app?vid=cdd39fe3-f151-40d9-9f7d-0be86084455a","ios":"levelo://app?vid=cdd39fe3-f151-40d9-9f7d-0be86084455a"},"vehicle_type_id":"4","last_reported":1728886406,"current_range_meters":32400,"station_id":"ce4bh512rcd13ifvqe3g","pricing_plan_id":"cebpf4jnsgd1na2vs0mg"},{"bike_id":"6691f510-d55e-4a7f-abb1-03bcedc65f3b","system_id":"levelo_inurba_marseille","lat":43.29607,"lon":5.38109,"is_reserved":false,"is_disabled":false,"rental_uris":{"android":"levelo://app?vid=6691f510-d55e-4a7f-abb1-03bcedc65f3b","ios":"levelo://app?vid=6691f510-d55e-4a7f-abb1-03bcedc65f3b"},"vehicle_type_id":"4","last_reported":1728886406,"current_range_meters":33600,"station_id":"ce4bgl12rcd13ifvqbo0","pricing_plan_id":"cebpf4jnsgd1na2vs0mg"},{"bike_id":"69950d34-7b08-413d-86c0-c3e9c9d246b6","system_id":"levelo_inurba_marseille","lat":43.28351,"lon":5.38103,"is_reserved":false,"is_disabled":false,"rental_uris":{"android":"levelo://app?vid=69950d34-7b08-413d-86c0-c3e9c9d246b6","ios":"levelo://app?vid=69950d34-7b08-413d-86c0-c3e9c9d246b6"},"vehicle_type_id":"4","last_reported":1728886406,"current_range_meters":32000,"station_id":"ce4bh412rcd13ifvqdr0","pricing_plan_id":"cebpf4jnsgd1na2vs0mg"},{"bike_id":"c9a1ece8-a4f5-4a77-a24d-8a62f13d4a54","system_id":"levelo_inurba_marseille","lat":43.30566,"lon":5.3978,"is_reserved":false,"is_disabled":false,"rental_uris":{"android":"levelo://app?vid=c9a1ece8-a4f5-4a77-a24d-8a62f13d4a54","ios":"levelo://app?vid=c9a1ece8-a4f5-4a77-a24d-8a62f13d4a54"},"vehicle_type_id":"4","last_reported":1728886406,"current_range_meters":38400,"station_id":"ce4bh0p2rcd13ifvqd70","pricing_plan_id":"cebpf4jnsgd1na2vs0mg"},{"bike_id":"7deefb87-574c-4a77-9634-1a7df9660ad8","system_id":"levelo_inurba_marseille","lat":43.30228,"lon":5.39468,"is_reserved":false,"is_disabled":false,"rental_uris":{"android":"levelo://app?vid=7deefb87-574c-4a77-9634-1a7df9660ad8","ios":"levelo://app?vid=7deefb87-574c-4a77-9634-1a7df9660ad8"},"vehicle_type_id":"4","last_reported":1728886406,"current_range_meters":23200,"station_id":"ce4bh0p2rcd13ifvqd70","pricing_plan_id":"cebpf4jnsgd1na2vs0mg"},{"bike_id":"96ca8c9d-9fd7-4c44-a7b9-2b71a35fc9ee","system_id":"levelo_inurba_marseille","lat":43.24082,"lon":5.37749,"is_reserved":false,"is_disabled":false,"rental_uris":{"android":"levelo://app?vid=96ca8c9d-9fd7-4c44-a7b9-2b71a35fc9ee","ios":"levelo://app?vid=96ca8c9d-9fd7-4c44-a7b9-2b71a35fc9ee"},"vehicle_type_id":"4","last_reported":1728886406,"current_range_meters":25200,"station_id":"ce4bhnp2rcd13ifvqgvg","pricing_plan_id":"cebpf4jnsgd1na2vs0mg"},{"bike_id":"3f70e44b-f618-4ac7-94a7-2f19f9425572","system_id":"levelo_inurba_marseille","lat":43.28917,"lon":5.36395,"is_reserved":false,"is_disabled":false,"rental_uris":{"android":"levelo://app?vid=3f70e44b-f618-4ac7-94a7-2f19f9425572","ios":"levelo://app?vid=3f70e44b-f618-4ac7-94a7-2f19f9425572"},"vehicle_type_id":"4","last_reported":1728886406,"current_range_meters":38800,"station_id":"ce4bhc92rcd13ifvqetg","pricing_plan_id":"cebpf4jnsgd1na2vs0mg"},{"bike_id":"27311a75-ebb6-43d6-9fb5-f3ba72a10e0e","system_id":"levelo_inurba_marseille","lat":43.29894,"lon":5.43656,"is_reserved":false,"is_disabled":false,"rental_uris":{"android":"levelo://app?vid=27311a75-ebb6-43d6-9fb5-f3ba72a10e0e","ios":"levelo://app?vid=27311a75-ebb6-43d6-9fb5-f3ba72a10e0e"},"vehicle_type_id":"4","last_reported":1728886406,"current_range_meters":16800,"station_id":"ce4bhpp2rcd13ifvqhfg","pricing_plan_id":"cebpf4jnsgd1na2vs0mg"},{"bike_id":"4790d68c-8faf-46ca-9b30-8604eb964f86","system_id":"levelo_inurba_marseille","lat":43.29602,"lon":5.381,"is_reserved":false,"is_disabled":false,"rental_uris":{"android":"levelo://app?vid=4790d68c-8faf-46ca-9b30-8604eb964f86","ios":"levelo://app?vid=4790d68c-8faf-46ca-9b30-8604eb964f86"},"vehicle_type_id":"4","last_reported":1728886406,"current_range_meters":36000,"station_id":"ce4bgl12rcd13ifvqbo0","pricing_plan_id":"cebpf4jnsgd1na2vs0mg"},{"bike_id":"5b8b617a-61f1-4e7e-832a-977cc814fba8","system_id":"levelo_inurba_marseille","lat":43.27489,"lon":5.42442,"is_reserved":false,"is_disabled":false,"rental_uris":{"android":"levelo://app?vid=5b8b617a-61f1-4e7e-832a-977cc814fba8","ios":"levelo://app?vid=5b8b617a-61f1-4e7e-832a-977cc814fba8"},"vehicle_type_id":"4","last_reported":1728886406,"current_range_meters":36400,"station_id":"ce4bhn92rcd13ifvqgrg","pricing_plan_id":"cebpf4jnsgd1na2vs0mg"},{"bike_id":"30df6fbc-c0c1-4bd7-85ac-ce7d17cd1ce6","system_id":"levelo_inurba_marseille","lat":43.29032,"lon":5.38646,"is_reserved":false,"is_disabled":false,"rental_uris":{"android":"levelo://app?vid=30df6fbc-c0c1-4bd7-85ac-ce7d17cd1ce6","ios":"levelo://app?vid=30df6fbc-c0c1-4bd7-85ac-ce7d17cd1ce6"},"vehicle_type_id":"4","last_reported":1728886406,"current_range_meters":38800,"station_id":"ce4bh4p2rcd13ifvqe0g","pricing_plan_id":"cebpf4jnsgd1na2vs0mg"},{"bike_id":"aaccd47f-9aa1-4322-a4ad-fabca2e58124","system_id":"levelo_inurba_marseille","lat":43.24385,"lon":5.37058,"is_reserved":false,"is_disabled":false,"rental_uris":{"android":"levelo://app?vid=aaccd47f-9aa1-4322-a4ad-fabca2e58124","ios":"levelo://app?vid=aaccd47f-9aa1-4322-a4ad-fabca2e58124"},"vehicle_type_id":"4","last_reported":1728886406,"current_range_meters":14400,"station_id":"ce4bhhh2rcd13ifvqfk0","pricing_plan_id":"cebpf4jnsgd1na2vs0mg"},{"bike_id":"74c0454b-213a-4036-90a2-2a0da2d24caf","system_id":"levelo_inurba_marseille","lat":43.28882,"lon":5.36147,"is_reserved":false,"is_disabled":false,"rental_uris":{"android":"levelo://app?vid=74c0454b-213a-4036-90a2-2a0da2d24caf","ios":"levelo://app?vid=74c0454b-213a-4036-90a2-2a0da2d24caf"},"vehicle_type_id":"4","last_reported":1728886406,"current_range_meters":36800,"station_id":"ce4bhc92rcd13ifvqetg","pricing_plan_id":"cebpf4jnsgd1na2vs0mg"},{"bike_id":"43a8d8e3-0561-4c53-8da2-0698c47d6069","system_id":"levelo_inurba_marseille","lat":43.26953,"lon":5.38635,"is_reserved":false,"is_disabled":false,"rental_uris":{"android":"levelo://app?vid=43a8d8e3-0561-4c53-8da2-0698c47d6069","ios":"levelo://app?vid=43a8d8e3-0561-4c53-8da2-0698c47d6069"},"vehicle_type_id":"4","last_reported":1728886406,"current_range_meters":32800,"station_id":"ce4bhh92rcd13ifvqfh0","pricing_plan_id":"cebpf4jnsgd1na2vs0mg"},{"bike_id":"adb8b798-366e-4229-a12c-f4dea4d23dc5","system_id":"levelo_inurba_marseille","lat":43.28375,"lon":5.35029,"is_reserved":false,"is_disabled":false,"rental_uris":{"android":"levelo://app?vid=adb8b798-366e-4229-a12c-f4dea4d23dc5","ios":"levelo://app?vid=adb8b798-366e-4229-a12c-f4dea4d23dc5"},"vehicle_type_id":"4","last_reported":1728886406,"current_range_meters":29600,"station_id":"","pricing_plan_id":"cebpf4jnsgd1na2vs0mg"},{"bike_id":"03412e9f-e5af-44a8-940e-a098b1ec2875","system_id":"levelo_inurba_marseille","lat":43.22936,"lon":5.35378,"is_reserved":false,"is_disabled":false,"rental_uris":{"android":"levelo://app?vid=03412e9f-e5af-44a8-940e-a098b1ec2875","ios":"levelo://app?vid=03412e9f-e5af-44a8-940e-a098b1ec2875"},"vehicle_type_id":"4","last_reported":1728886406,"current_range_meters":36800,"station_id":"cpo3532slgdg3j2ikp40","pricing_plan_id":"cebpf4jnsgd1na2vs0mg"},{"bike_id":"99df02b4-d6dc-433e-9c41-b68c1c308792","system_id":"levelo_inurba_marseille","lat":43.27217,"lon":5.39181,"is_reserved":false,"is_disabled":false,"rental_uris":{"android":"levelo://app?vid=99df02b4-d6dc-433e-9c41-b68c1c308792","ios":"levelo://app?vid=99df02b4-d6dc-433e-9c41-b68c1c308792"},"vehicle_type_id":"4","last_reported":1728886406,"current_range_meters":33600,"station_id":"ce4bhhp2rcd13ifvqfm0","pricing_plan_id":"cebpf4jnsgd1na2vs0mg"},{"bike_id":"9f4cda4c-c1c0-49c6-9a0f-463f999f4a65","system_id":"levelo_inurba_marseille","lat":43.27492,"lon":5.42444,"is_reserved":false,"is_disabled":false,"rental_uris":{"android":"levelo://app?vid=9f4cda4c-c1c0-49c6-9a0f-463f999f4a65","ios":"levelo://app?vid=9f4cda4c-c1c0-49c6-9a0f-463f999f4a65"},"vehicle_type_id":"4","last_reported":1728886406,"current_range_meters":35200,"station_id":"ce4bhn92rcd13ifvqgrg","pricing_plan_id":"cebpf4jnsgd1na2vs0mg"},{"bike_id":"ab595f28-c7a7-41ee-ad9b-a620c9469500","system_id":"levelo_inurba_marseille","lat":43.27545,"lon":5.3843,"is_reserved":false,"is_disabled":false,"rental_uris":{"android":"levelo://app?vid=ab595f28-c7a7-41ee-ad9b-a620c9469500","ios":"levelo://app?vid=ab595f28-c7a7-41ee-ad9b-a620c9469500"},"vehicle_type_id":"4","last_reported":1728886406,"current_range_meters":36400,"station_id":"ce4bhh92rcd13ifvqfi0","pricing_plan_id":"cebpf4jnsgd1na2vs0mg"},{"bike_id":"38623b0f-ad60-46c5-be83-1c2262921240","system_id":"levelo_inurba_marseille","lat":43.29023,"lon":5.38635,"is_reserved":false,"is_disabled":false,"rental_uris":{"android":"levelo://app?vid=38623b0f-ad60-46c5-be83-1c2262921240","ios":"levelo://app?vid=38623b0f-ad60-46c5-be83-1c2262921240"},"vehicle_type_id":"4","last_reported":1728886406,"current_range_meters":32400,"station_id":"ce4bh4p2rcd13ifvqe0g","pricing_plan_id":"cebpf4jnsgd1na2vs0mg"},{"bike_id":"1f561518-fa31-424e-983b-7a98e4f43d4f","system_id":"levelo_inurba_marseille","lat":43.30462,"lon":5.37896,"is_reserved":false,"is_disabled":false,"rental_uris":{"android":"levelo://app?vid=1f561518-fa31-424e-983b-7a98e4f43d4f","ios":"levelo://app?vid=1f561518-fa31-424e-983b-7a98e4f43d4f"},"vehicle_type_id":"4","last_reported":1728886406,"current_range_meters":36400,"station_id":"ce4bgup2rcd13ifvqcn0","pricing_plan_id":"cebpf4jnsgd1na2vs0mg"},{"bike_id":"cba59919-95e6-42ff-83c9-6bcf45674d60","system_id":"levelo_inurba_marseille","lat":43.32336,"lon":5.38328,"is_reserved":false,"is_disabled":false,"rental_uris":{"android":"levelo://app?vid=cba59919-95e6-42ff-83c9-6bcf45674d60","ios":"levelo://app?vid=cba59919-95e6-42ff-83c9-6bcf45674d60"},"vehicle_type_id":"4","last_reported":1728886406,"current_range_meters":36400,"station_id":"","pricing_plan_id":"cebpf4jnsgd1na2vs0mg"},{"bike_id":"639cc21e-a04b-4c08-9e5d-6c9ef0936bc2","system_id":"levelo_inurba_marseille","lat":43.24392,"lon":5.3706,"is_reserved":false,"is_disabled":false,"rental_uris":{"android":"levelo://app?vid=639cc21e-a04b-4c08-9e5d-6c9ef0936bc2","ios":"levelo://app?vid=639cc21e-a04b-4c08-9e5d-6c9ef0936bc2"},"vehicle_type_id":"4","last_reported":1728886406,"current_range_meters":28400,"station_id":"ce4bhhh2rcd13ifvqfk0","pricing_plan_id":"cebpf4jnsgd1na2vs0mg"},{"bike_id":"8fc0ac37-a19f-4861-a892-e781b200b43a","system_id":"levelo_inurba_marseille","lat":43.29806,"lon":5.38087,"is_reserved":false,"is_disabled":false,"rental_uris":{"android":"levelo://app?vid=8fc0ac37-a19f-4861-a892-e781b200b43a","ios":"levelo://app?vid=8fc0ac37-a19f-4861-a892-e781b200b43a"},"vehicle_type_id":"4","last_reported":1728886406,"current_range_meters":32800,"station_id":"ce4bgip2rcd13ifvqbb0","pricing_plan_id":"cebpf4jnsgd1na2vs0mg"},{"bike_id":"54aec1fc-f8f8-49b7-aa52-6ef4f1bdaf2a","system_id":"levelo_inurba_marseille","lat":43.24392,"lon":5.37065,"is_reserved":false,"is_disabled":false,"rental_uris":{"android":"levelo://app?vid=54aec1fc-f8f8-49b7-aa52-6ef4f1bdaf2a","ios":"levelo://app?vid=54aec1fc-f8f8-49b7-aa52-6ef4f1bdaf2a"},"vehicle_type_id":"4","last_reported":1728886406,"current_range_meters":17600,"station_id":"ce4bhhh2rcd13ifvqfk0","pricing_plan_id":"cebpf4jnsgd1na2vs0mg"},{"bike_id":"ad41db7a-7733-4b9d-8d6f-b9a0f6781c05","system_id":"levelo_inurba_marseille","lat":43.24387,"lon":5.37053,"is_reserved":false,"is_disabled":false,"rental_uris":{"android":"levelo://app?vid=ad41db7a-7733-4b9d-8d6f-b9a0f6781c05","ios":"levelo://app?vid=ad41db7a-7733-4b9d-8d6f-b9a0f6781c05"},"vehicle_type_id":"4","last_reported":1728886406,"current_range_meters":38800,"station_id":"ce4bhhh2rcd13ifvqfk0","pricing_plan_id":"cebpf4jnsgd1na2vs0mg"},{"bike_id":"c527b957-44e8-4c5c-b559-cf6ba4e50655","system_id":"levelo_inurba_marseille","lat":43.29884,"lon":5.38904,"is_reserved":false,"is_disabled":false,"rental_uris":{"android":"levelo://app?vid=c527b957-44e8-4c5c-b559-cf6ba4e50655","ios":"levelo://app?vid=c527b957-44e8-4c5c-b559-cf6ba4e50655"},"vehicle_type_id":"4","last_reported":1728886406,"current_range_meters":6800,"station_id":"ce4bh392rcd13ifvqdl0","pricing_plan_id":"cebpf4jnsgd1na2vs0mg"},{"bike_id":"b429b436-6869-4b90-9163-015f345edc86","system_id":"levelo_inurba_marseille","lat":43.28621,"lon":5.38487,"is_reserved":false,"is_disabled":false,"rental_uris":{"android":"levelo://app?vid=b429b436-6869-4b90-9163-015f345edc86","ios":"levelo://app?vid=b429b436-6869-4b90-9163-015f345edc86"},"vehicle_type_id":"4","last_reported":1728886406,"current_range_meters":24000,"station_id":"ce4bh392rcd13ifvqdm0","pricing_plan_id":"cebpf4jnsgd1na2vs0mg"},{"bike_id":"593ee10b-6249-497f-9ce3-e1bffaa2d019","system_id":"levelo_inurba_marseille","lat":43.29597,"lon":5.38105,"is_reserved":false,"is_disabled":false,"rental_uris":{"android":"levelo://app?vid=593ee10b-6249-497f-9ce3-e1bffaa2d019","ios":"levelo://app?vid=593ee10b-6249-497f-9ce3-e1bffaa2d019"},"vehicle_type_id":"4","last_reported":1728886406,"current_range_meters":27600,"station_id":"ce4bgl12rcd13ifvqbo0","pricing_plan_id":"cebpf4jnsgd1na2vs0mg"},{"bike_id":"dbc62d9f-7d60-4247-a49f-c2a7e202e0de","system_id":"levelo_inurba_marseille","lat":43.29044,"lon":5.39953,"is_reserved":false,"is_disabled":false,"rental_uris":{"android":"levelo://app?vid=dbc62d9f-7d60-4247-a49f-c2a7e202e0de","ios":"levelo://app?vid=dbc62d9f-7d60-4247-a49f-c2a7e202e0de"},"vehicle_type_id":"4","last_reported":1728886406,"current_range_meters":4800,"station_id":"ce4bh392rcd13ifvqdm0","pricing_plan_id":"cebpf4jnsgd1na2vs0mg"},{"bike_id":"f8f1c27c-26d2-44eb-a15f-94c728cab4e0","system_id":"levelo_inurba_marseille","lat":43.30586,"lon":5.39354,"is_reserved":false,"is_disabled":false,"rental_uris":{"android":"levelo://app?vid=f8f1c27c-26d2-44eb-a15f-94c728cab4e0","ios":"levelo://app?vid=f8f1c27c-26d2-44eb-a15f-94c728cab4e0"},"vehicle_type_id":"4","last_reported":1728886406,"current_range_meters":33200,"station_id":"ce4bh0p2rcd13ifvqd80","pricing_plan_id":"cebpf4jnsgd1na2vs0mg"},{"bike_id":"a351b85f-14fa-4341-9b08-d178fdc91305","system_id":"levelo_inurba_marseille","lat":43.2756,"lon":5.38439,"is_reserved":false,"is_disabled":false,"rental_uris":{"android":"levelo://app?vid=a351b85f-14fa-4341-9b08-d178fdc91305","ios":"levelo://app?vid=a351b85f-14fa-4341-9b08-d178fdc91305"},"vehicle_type_id":"4","last_reported":1728886406,"current_range_meters":37600,"station_id":"ce4bhh92rcd13ifvqfi0","pricing_plan_id":"cebpf4jnsgd1na2vs0mg"},{"bike_id":"eb594d84-8eb9-4e53-893a-402ca3dcfe9c","system_id":"levelo_inurba_marseille","lat":43.32481,"lon":5.36566,"is_reserved":false,"is_disabled":false,"rental_uris":{"android":"levelo://app?vid=eb594d84-8eb9-4e53-893a-402ca3dcfe9c","ios":"levelo://app?vid=eb594d84-8eb9-4e53-893a-402ca3dcfe9c"},"vehicle_type_id":"4","last_reported":1728886406,"current_range_meters":38800,"station_id":"ce4bhs12rcd13ifvqhvg","pricing_plan_id":"cebpf4jnsgd1na2vs0mg"},{"bike_id":"ace501ea-6fcd-4431-9ef2-8eaa897871d7","system_id":"levelo_inurba_marseille","lat":43.30475,"lon":5.37899,"is_reserved":false,"is_disabled":false,"rental_uris":{"android":"levelo://app?vid=ace501ea-6fcd-4431-9ef2-8eaa897871d7","ios":"levelo://app?vid=ace501ea-6fcd-4431-9ef2-8eaa897871d7"},"vehicle_type_id":"4","last_reported":1728886406,"current_range_meters":36000,"station_id":"ce4bgup2rcd13ifvqcn0","pricing_plan_id":"cebpf4jnsgd1na2vs0mg"},{"bike_id":"863511eb-36e4-4567-89d1-e1f3149b3364","system_id":"levelo_inurba_marseille","lat":43.265501,"lon":5.372867,"is_reserved":false,"is_disabled":false,"rental_uris":{"android":"levelo://app?vid=863511eb-36e4-4567-89d1-e1f3149b3364","ios":"levelo://app?vid=863511eb-36e4-4567-89d1-e1f3149b3364"},"vehicle_type_id":"4","last_reported":1728886406,"current_range_meters":38800,"station_id":"ce4bhg12rcd13ifvqf70","pricing_plan_id":"cebpf4jnsgd1na2vs0mg"},{"bike_id":"2126b254-ebc7-4df3-80e8-30f3cfe2b1b4","system_id":"levelo_inurba_marseille","lat":43.27057,"lon":5.40259,"is_reserved":false,"is_disabled":false,"rental_uris":{"android":"levelo://app?vid=2126b254-ebc7-4df3-80e8-30f3cfe2b1b4","ios":"levelo://app?vid=2126b254-ebc7-4df3-80e8-30f3cfe2b1b4"},"vehicle_type_id":"4","last_reported":1728886406,"current_range_meters":26000,"station_id":"ce4bhk92rcd13ifvqgc0","pricing_plan_id":"cebpf4jnsgd1na2vs0mg"},{"bike_id":"5de26d0f-005e-47ec-84e4-b4fc4d906e29","system_id":"levelo_inurba_marseille","lat":43.28353,"lon":5.38104,"is_reserved":false,"is_disabled":false,"rental_uris":{"android":"levelo://app?vid=5de26d0f-005e-47ec-84e4-b4fc4d906e29","ios":"levelo://app?vid=5de26d0f-005e-47ec-84e4-b4fc4d906e29"},"vehicle_type_id":"4","last_reported":1728886406,"current_range_meters":32000,"station_id":"ce4bh412rcd13ifvqdr0","pricing_plan_id":"cebpf4jnsgd1na2vs0mg"},{"bike_id":"dae4a4c6-add2-4a8e-a168-e570d01c84f8","system_id":"levelo_inurba_marseille","lat":43.24074,"lon":5.37761,"is_reserved":false,"is_disabled":false,"rental_uris":{"android":"levelo://app?vid=dae4a4c6-add2-4a8e-a168-e570d01c84f8","ios":"levelo://app?vid=dae4a4c6-add2-4a8e-a168-e570d01c84f8"},"vehicle_type_id":"4","last_reported":1728886406,"current_range_meters":24400,"station_id":"ce4bhnp2rcd13ifvqgvg","pricing_plan_id":"cebpf4jnsgd1na2vs0mg"},{"bike_id":"9be25cd2-931d-416a-bf9a-70975e3167b1","system_id":"levelo_inurba_marseille","lat":43.2407,"lon":5.3776,"is_reserved":false,"is_disabled":false,"rental_uris":{"android":"levelo://app?vid=9be25cd2-931d-416a-bf9a-70975e3167b1","ios":"levelo://app?vid=9be25cd2-931d-416a-bf9a-70975e3167b1"},"vehicle_type_id":"4","last_reported":1728886406,"current_range_meters":2800,"station_id":"ce4bhnp2rcd13ifvqgvg","pricing_plan_id":"cebpf4jnsgd1na2vs0mg"},{"bike_id":"6f8f1038-5a5d-4e33-9151-c35f55708cbb","system_id":"levelo_inurba_marseille","lat":43.336019,"lon":5.410329,"is_reserved":false,"is_disabled":false,"rental_uris":{"android":"levelo://app?vid=6f8f1038-5a5d-4e33-9151-c35f55708cbb","ios":"levelo://app?vid=6f8f1038-5a5d-4e33-9151-c35f55708cbb"},"vehicle_type_id":"4","last_reported":1728886406,"current_range_meters":37600,"station_id":"ce4bhqh2rcd13ifvqhmg","pricing_plan_id":"cebpf4jnsgd1na2vs0mg"},{"bike_id":"4886ba77-aded-4da7-b6e7-149bc1beef2b","system_id":"levelo_inurba_marseille","lat":43.31688,"lon":5.40477,"is_reserved":false,"is_disabled":false,"rental_uris":{"android":"levelo://app?vid=4886ba77-aded-4da7-b6e7-149bc1beef2b","ios":"levelo://app?vid=4886ba77-aded-4da7-b6e7-149bc1beef2b"},"vehicle_type_id":"4","last_reported":1728886406,"current_range_meters":19600,"station_id":"ce4bh012rcd13ifvqd00","pricing_plan_id":"cebpf4jnsgd1na2vs0mg"},{"bike_id":"9b476f38-ea7b-4a13-aff1-cbfc07d46bea","system_id":"levelo_inurba_marseille","lat":43.27833,"lon":5.38771,"is_reserved":false,"is_disabled":false,"rental_uris":{"android":"levelo://app?vid=9b476f38-ea7b-4a13-aff1-cbfc07d46bea","ios":"levelo://app?vid=9b476f38-ea7b-4a13-aff1-cbfc07d46bea"},"vehicle_type_id":"4","last_reported":1728886406,"current_range_meters":28400,"station_id":"ce4bhnp2rcd13ifvqgvg","pricing_plan_id":"cebpf4jnsgd1na2vs0mg"},