{"last_updated":1750100907,"ttl":60,"version":"2.2","data":{"bikes":[{"bike_id":"3da29fb8-fc97-44c6-b9ac-31dd456b2fd4","system_id":"levelo_inurba_marseille","lat":43.33771,"lon":5.37424,"is_reserved":false,"is_disabled":true,"rental_uris":{"android":"levelo://app?vid=3da29fb8-fc97-44c6-b9ac-31dd456b2fd4","ios":"levelo://app?vid=3da29fb8-fc97-44c6-b9ac-31dd456b2fd4"},"vehicle_type_id":"4","last_reported":1750100908,"current_range_meters":0,"station_id":"","pricing_plan_id":"cebpf4jnsgd1na2vs0mg"},{"bike_id":"01861ad8-a8d7-4be6-816e-651927c87584","system_id":"levelo_inurba_marseille","lat":43.33751,"lon":5.37456,"is_reserved":false,"is_disabled":true,"rental_uris":{"android":"levelo://app?vid=01861ad8-a8d7-4be6-816e-651927c87584","ios":"levelo://app?vid=01861ad8-a8d7-4be6-816e-651927c87584"},"vehicle_type_id":"4","last_reported":1750100908,"current_range_meters":0,"station_id":"","pricing_plan_id":"cebpf4jnsgd1na2vs0mg"},{"bike_id":"2c88bcb9-85cb-4248-baf5-13b87393da63","system_id":"levelo_inurba_marseille","lat":43.2858,"lon":5.38826,"is_reserved":false,"is_disabled":true,"rental_uris":{"android":"levelo://app?vid=2c88bcb9-85cb-4248-baf5-13b87393da63","ios":"levelo://app?vid=2c88bcb9-85cb-4248-baf5-13b87393da63"},"vehicle_type_id":"4","last_reported":1750100908,"current_range_meters":0,"station_id":"","pricing_plan_id":"cebpf4jnsgd1na2vs0mg"},{"bike_id":"d2bd57c8-6b64-48db-ad24-5398eb3fd9d6","system_id":"levelo_inurba_marseille","lat":43.337444,"lon":5.374475,"is_reserved":false,"is_disabled":true,"rental_uris":{"android":"levelo://app?vid=d2bd57c8-6b64-48db-ad24-5398eb3fd9d6","ios":"levelo://app?vid=d2bd57c8-6b64-48db-ad24-5398eb3fd9d6"},"vehicle_type_id":"4","last_reported":1750100908,"current_range_meters":0,"station_id":"","pricing_plan_id":"cebpf4jnsgd1na2vs0mg"},{"bike_id":"31efc9ba-0c74-4af5-9228-1de18fc992e3","system_id":"levelo_inurba_marseille","lat":43.30044,"lon":5.36991,"is_reserved":false,"is_disabled":true,"rental_uris":{"android":"levelo://app?vid=31efc9ba-0c74-4af5-9228-1de18fc992e3","ios":"levelo://app?vid=31efc9ba-0c74-4af5-9228-1de18fc992e3"},"vehicle_type_id":"4","last_reported":1750100908,"current_range_meters":0,"station_id":"","pricing_plan_id":"cebpf4jnsgd1na2vs0mg"},{"bike_id":"62a493c7-4534-4419-ad43-0582de34a72a","system_id":"levelo_inurba_marseille","lat":43.21366,"lon":5.355183,"is_reserved":false,"is_disabled":true,"rental_uris":{"android":"levelo://app?vid=62a493c7-4534-4419-ad43-0582de34a72a","ios":"levelo://app?vid=62a493c7-4534-4419-ad43-0582de34a72a"},"vehicle_type_id":"4","last_reported":1750100908,"current_range_meters":0,"station_id":"","pricing_plan_id":"cebpf4jnsgd1na2vs0mg"},{"bike_id":"cf1d0c88-ca58-45e5-b0a8-788cf7635886","system_id":"levelo_inurba_marseille","lat":43.29406,"lon":5.39973,"is_reserved":false,"is_disabled":true,"rental_uris":{"android":"levelo://app?vid=cf1d0c88-ca58-45e5-b0a8-788cf7635886","ios":"levelo://app?vid=cf1d0c88-ca58-45e5-b0a8-788cf7635886"},"vehicle_type_id":"4","last_reported":1750100908,"current_range_meters":0,"station_id":"","pricing_plan_id":"cebpf4jnsgd1na2vs0mg"},{"bike_id":"117f24b3-d6ce-455f-99fd-f28a795c0458","system_id":"levelo_inurba_marseille","lat":43.27997,"lon":5.38444,"is_reserved":false,"is_disabled":true,"rental_uris":{"android":"levelo://app?vid=117f24b3-d6ce-455f-99fd-f28a795c0458","ios":"levelo://app?vid=117f24b3-d6ce-455f-99fd-f28a795c0458"},"vehicle_type_id":"4","last_reported":1750100908,"current_range_meters":0,"station_id":"","pricing_plan_id":"cebpf4jnsgd1na2vs0mg"},{"bike_id":"946f5633-31c1-46bf-ab81-23560e476e56","system_id":"levelo_inurba_marseille","lat":43.26052,"lon":5.38735,"is_reserved":false,"is_disabled":true,"rental_uris":{"android":"levelo://app?vid=946f5633-31c1-46bf-ab81-23560e476e56","ios":"levelo://app?vid=946f5633-31c1-46bf-ab81-23560e476e56"},"vehicle_type_id":"4","last_reported":1750100908,"current_range_meters":0,"station_id":"","pricing_plan_id":"cebpf4jnsgd1na2vs0mg"},{"bike_id":"caca20da-18e0-443e-a3dc-04ab1bbad8db","system_id":"levelo_inurba_marseille","lat":43.27146,"lon":5.3638,"is_reserved":false,"is_disabled":true,"rental_uris":{"android":"levelo://app?vid=caca20da-18e0-443e-a3dc-04ab1bbad8db","ios":"levelo://app?vid=caca20da-18e0-443e-a3dc-04ab1bbad8db"},"vehicle_type_id":"4","last_reported":1750100908,"current_range_meters":0,"station_id":"","pricing_plan_id":"cebpf4jnsgd1na2vs0mg"},{"bike_id":"93af304b-67b5-47b8-a3fd-e0775f7cde8c","system_id":"levelo_inurba_marseille","lat":43.21537,"lon":5.34715,"is_reserved":false,"is_disabled":true,"rental_uris":{"android":"levelo://app?vid=93af304b-67b5-47b8-a3fd-e0775f7cde8c","ios":"levelo://app?vid=93af304b-67b5-47b8-a3fd-e0775f7cde8c"},"vehicle_type_id":"4","last_reported":1750100908,"current_range_meters":0,"station_id":"","pricing_plan_id":"cebpf4jnsgd1na2vs0mg"},{"bike_id":"d6609b4f-333b-43c1-9ebe-8726f5e76e88","system_id":"levelo_inurba_marseille","lat":43.337444,"lon":5.374475,"is_reserved":false,"is_disabled":true,"rental_uris":{"android":"levelo://app?vid=d6609b4f-333b-43c1-9ebe-8726f5e76e88","ios":"levelo://app?vid=d6609b4f-333b-43c1-9ebe-8726f5e76e88"},"vehicle_type_id":"4","last_reported":1750100908,"current_range_meters":0,"station_id":"","pricing_plan_id":"cebpf4jnsgd1na2vs0mg"},{"bike_id":"a354a693-87cc-4bf2-b99d-b0ea81e88075","system_id":"levelo_inurba_marseille","lat":43.261623,"lon":5.388264,"is_reserved":false,"is_disabled":true,"rental_uris":{"android":"levelo://app?vid=a354a693-87cc-4bf2-b99d-b0ea81e88075","ios":"levelo://app?vid=a354a693-87cc-4bf2-b99d-b0ea81e88075"},"vehicle_type_id":"4","last_reported":1750100908,"current_range_meters":0,"station_id":"","pricing_plan_id":"cebpf4jnsgd1na2vs0mg"},{"bike_id":"7194e9cb-b528-46b6-b040-ac2c5b1fc2ba","system_id":"levelo_inurba_marseille","lat":43.29711,"lon":5.36616,"is_reserved":false,"is_disabled":true,"rental_uris":{"android":"levelo://app?vid=7194e9cb-b528-46b6-b040-ac2c5b1fc2ba","ios":"levelo://app?vid=7194e9cb-b528-46b6-b040-ac2c5b1fc2ba"},"vehicle_type_id":"4","last_reported":1750100908,"current_range_meters":0,"station_id":"ce4bgn12rcd13ifvqbt0","pricing_plan_id":"cebpf4jnsgd1na2vs0mg"},{"bike_id":"0951d708-1b4e-4ebf-b279-03ccfae23bac","system_id":"levelo_inurba_marseille","lat":43.30214,"lon":5.39478,"is_reserved":false,"is_disabled":true,"rental_uris":{"android":"levelo://app?vid=0951d708-1b4e-4ebf-b279-03ccfae23bac","ios":"levelo://app?vid=0951d708-1b4e-4ebf-b279-03ccfae23bac"},"vehicle_type_id":"4","last_reported":1750100908,"current_range_meters":0,"station_id":"ce4bh0p2rcd13ifvqd70","pricing_plan_id":"cebpf4jnsgd1na2vs0mg"},{"bike_id":"4757b33c-4098-4a0d-a6b7-114043b56f3f","system_id":"levelo_inurba_marseille","lat":43.30612,"lon":5.39352,"is_reserved":false,"is_disabled":true,"rental_uris":{"android":"levelo://app?vid=4757b33c-4098-4a0d-a6b7-114043b56f3f","ios":"levelo://app?vid=4757b33c-4098-4a0d-a6b7-114043b56f3f"},"vehicle_type_id":"4","last_reported":1750100908,"current_range_meters":0,"station_id":"ce4bh0p2rcd13ifvqd80","pricing_plan_id":"cebpf4jnsgd1na2vs0mg"},{"bike_id":"cded6368-679c-4e9e-87f6-8bd782aaa32f","system_id":"levelo_inurba_marseille","lat":43.29074,"lon":5.37171,"is_reserved":false,"is_disabled":true,"rental_uris":{"android":"levelo://app?vid=cded6368-679c-4e9e-87f6-8bd782aaa32f","ios":"levelo://app?vid=cded6368-679c-4e9e-87f6-8bd782aaa32f"},"vehicle_type_id":"4","last_reported":1750100908,"current_range_meters":0,"station_id":"ce4bh5p2rcd13ifvqe4g","pricing_plan_id":"cebpf4jnsgd1na2vs0mg"},{"bike_id":"dac47d23-b8e0-46ba-8ff6-077edadfbef7","system_id":"levelo_inurba_marseille","lat":43.29251,"lon":5.3843,"is_reserved":false,"is_disabled":true,"rental_uris":{"android":"levelo://app?vid=dac47d23-b8e0-46ba-8ff6-077edadfbef7","ios":"levelo://app?vid=dac47d23-b8e0-46ba-8ff6-077edadfbef7"},"vehicle_type_id":"4","last_reported":1750100908,"current_range_meters":0,"station_id":"ce4bh692rcd13ifvqea0","pricing_plan_id":"cebpf4jnsgd1na2vs0mg"},{"bike_id":"dbbe5555-c914-4324-b03b-b50a38678533","system_id":"levelo_inurba_marseille","lat":43.26579,"lon":5.3901,"is_reserved":false,"is_disabled":true,"rental_uris":{"android":"levelo://app?vid=dbbe5555-c914-4324-b03b-b50a38678533","ios":"levelo://app?vid=dbbe5555-c914-4324-b03b-b50a38678533"},"vehicle_type_id":"4","last_reported":1750100908,"current_range_meters":0,"station_id":"ce4bhe12rcd13ifvqf30","pricing_plan_id":"cebpf4jnsgd1na2vs0mg"},{"bike_id":"87dd1e31-bf1b-4404-b1ec-2bcb7881cf19","system_id":"levelo_inurba_marseille","lat":43.26586,"lon":5.39024,"is_reserved":false,"is_disabled":true,"rental_uris":{"android":"levelo://app?vid=87dd1e31-bf1b-4404-b1ec-2bcb7881cf19","ios":"levelo://app?vid=87dd1e31-bf1b-4404-b1ec-2bcb7881cf19"},"vehicle_type_id":"4","last_reported":1750100908,"current_range_meters":0,"station_id":"ce4bhe12rcd13ifvqf30","pricing_plan_id":"cebpf4jnsgd1na2vs0mg"},{"bike_id":"aa9d1d83-e92d-4b0c-857d-6357225af9c9","system_id":"levelo_inurba_marseille","lat":43.24661,"lon":5.38163,"is_reserved":false,"is_disabled":true,"rental_uris":{"android":"levelo://app?vid=aa9d1d83-e92d-4b0c-857d-6357225af9c9","ios":"levelo://app?vid=aa9d1d83-e92d-4b0c-857d-6357225af9c9"},"vehicle_type_id":"4","last_reported":1750100908,"current_range_meters":0,"station_id":"ce4bhih2rcd13ifvqfr0","pricing_plan_id":"cebpf4jnsgd1na2vs0mg"},{"bike_id":"f07fd173-aec7-420b-9a22-d1ecd3855a60","system_id":"levelo_inurba_marseille","lat":43.294342,"lon":5.397452,"is_reserved":false,"is_disabled":false,"rental_uris":{"android":"levelo://app?vid=f07fd173-aec7-420b-9a22-d1ecd3855a60","ios":"levelo://app?vid=f07fd173-aec7-420b-9a22-d1ecd3855a60"},"vehicle_type_id":"4","last_reported":1750100908,"current_range_meters":800,"station_id":"ce4bh3h2rcd13ifvqdo0","pricing_plan_id":"cebpf4jnsgd1na2vs0mg"},{"bike_id":"c720e70f-0927-47e2-b87c-6027613f9463","system_id":"levelo_inurba_marseille","lat":43.30131,"lon":5.38771,"is_reserved":false,"is_disabled":true,"rental_uris":{"android":"levelo://app?vid=c720e70f-0927-47e2-b87c-6027613f9463","ios":"levelo://app?vid=c720e70f-0927-47e2-b87c-6027613f9463"},"vehicle_type_id":"4","last_reported":1750100908,"current_range_meters":1200,"station_id":"ce4bghh2rcd13ifvqb60","pricing_plan_id":"cebpf4jnsgd1na2vs0mg"},{"bike_id":"0121539c-e3b3-4e46-95ab-96fc5b340bc5","system_id":"levelo_inurba_marseille","lat":43.30906,"lon":5.39675,"is_reserved":false,"is_disabled":false,"rental_uris":{"android":"levelo://app?vid=0121539c-e3b3-4e46-95ab-96fc5b340bc5","ios":"levelo://app?vid=0121539c-e3b3-4e46-95ab-96fc5b340bc5"},"vehicle_type_id":"4","last_reported":1750100908,"current_range_meters":1200,"station_id":"ce4bh012rcd13ifvqcv0","pricing_plan_id":"cebpf4jnsgd1na2vs0mg"},{"bike_id":"9d04133b-939c-4a2a-9661-8d7cd3b2073d","system_id":"levelo_inurba_marseille","lat":43.29431,"lon":5.39732,"is_reserved":false,"is_disabled":false,"rental_uris":{"android":"levelo://app?vid=9d04133b-939c-4a2a-9661-8d7cd3b2073d","ios":"levelo://app?vid=9d04133b-939c-4a2a-9661-8d7cd3b2073d"},"vehicle_type_id":"4","last_reported":1750100908,"current_range_meters":1200,"station_id":"ce4bh3h2rcd13ifvqdo0","pricing_plan_id":"cebpf4jnsgd1na2vs0mg"},{"bike_id":"bdf959be-ba57-43db-ae79-a0ff232caaab","system_id":"levelo_inurba_marseille","lat":43.30735,"lon":5.4245,"is_reserved":false,"is_disabled":true,"rental_uris":{"android":"levelo://app?vid=bdf959be-ba57-43db-ae79-a0ff232caaab","ios":"levelo://app?vid=bdf959be-ba57-43db-ae79-a0ff232caaab"},"vehicle_type_id":"4","last_reported":1750100908,"current_range_meters":1200,"station_id":"st_cvj6ca6bvosntc0bfgr0","pricing_plan_id":"cebpf4jnsgd1na2vs0mg"},{"bike_id":"0d9b04f4-a88e-414e-90f0-cde69f175388","system_id":"levelo_inurba_marseille","lat":43.30327,"lon":5.40439,"is_reserved":false,"is_disabled":true,"rental_uris":{"android":"levelo://app?vid=0d9b04f4-a88e-414e-90f0-cde69f175388","ios":"levelo://app?vid=0d9b04f4-a88e-414e-90f0-cde69f175388"},"vehicle_type_id":"4","last_reported":1750100908,"current_range_meters":1600,"station_id":"ce4bh012rcd13ifvqd10","pricing_plan_id":"cebpf4jnsgd1na2vs0mg"},{"bike_id":"5238d0ab-9813-4b9a-8209-c3e061a475b0","system_id":"levelo_inurba_marseille","lat":43.25722,"lon":5.41109,"is_reserved":false,"is_disabled":true,"rental_uris":{"android":"levelo://app?vid=5238d0ab-9813-4b9a-8209-c3e061a475b0","ios":"levelo://app?vid=5238d0ab-9813-4b9a-8209-c3e061a475b0"},"vehicle_type_id":"4","last_reported":1750100908,"current_range_meters":1600,"station_id":"ce4bhkp2rcd13ifvqgd0","pricing_plan_id":"cebpf4jnsgd1na2vs0mg"},{"bike_id":"4c3aa600-9d72-49f4-bc1d-a02ad2ea797b","system_id":"levelo_inurba_marseille","lat":43.2781,"lon":5.40713,"is_reserved":false,"is_disabled":false,"rental_uris":{"android":"levelo://app?vid=4c3aa600-9d72-49f4-bc1d-a02ad2ea797b","ios":"levelo://app?vid=4c3aa600-9d72-49f4-bc1d-a02ad2ea797b"},"vehicle_type_id":"4","last_reported":1750100908,"current_range_meters":1600,"station_id":"ce4bhnh2rcd13ifvqgtg","pricing_plan_id":"cebpf4jnsgd1na2vs0mg"},{"bike_id":"e905d6f2-f2b0-487a-9709-ccfdac9baee4","system_id":"levelo_inurba_marseille","lat":43.30843,"lon":5.37041,"is_reserved":false,"is_disabled":false,"rental_uris":{"android":"levelo://app?vid=e905d6f2-f2b0-487a-9709-ccfdac9baee4","ios":"levelo://app?vid=e905d6f2-f2b0-487a-9709-ccfdac9baee4"},"vehicle_type_id":"4","last_reported":1750100908,"current_range_meters":2800,"station_id":"","pricing_plan_id":"cebpf4jnsgd1na2vs0mg"},{"bike_id":"7cd022f7-5afc-47e6-b97d-5b408fe62b4c","system_id":"levelo_inurba_marseille","lat":43.31481,"lon":5.37306,"is_reserved":false,"is_disabled":false,"rental_uris":{"android":"levelo://app?vid=7cd022f7-5afc-47e6-b97d-5b408fe62b4c","ios":"levelo://app?vid=7cd022f7-5afc-47e6-b97d-5b408fe62b4c"},"vehicle_type_id":"4","last_reported":1750100908,"current_range_meters":2800,"station_id":"ce4bgt12rcd13ifvqcd0","pricing_plan_id":"cebpf4jnsgd1na2vs0mg"},{"bike_id":"5c270bfc-df91-4007-8d77-ee61d624e92e","system_id":"levelo_inurba_marseille","lat":43.28317,"lon":5.38913,"is_reserved":false,"is_disabled":false,"rental_uris":{"android":"levelo://app?vid=5c270bfc-df91-4007-8d77-ee61d624e92e","ios":"levelo://app?vid=5c270bfc-df91-4007-8d77-ee61d624e92e"},"vehicle_type_id":"4","last_reported":1750100908,"current_range_meters":2800,"station_id":"ce4bh492rcd13ifvqdug","pricing_plan_id":"cebpf4jnsgd1na2vs0mg"},{"bike_id":"23618953-10f4-4572-ae58-57eb77e852cd","system_id":"levelo_inurba_marseille","lat":43.291,"lon":5.38123,"is_reserved":false,"is_disabled":false,"rental_uris":{"android":"levelo://app?vid=23618953-10f4-4572-ae58-57eb77e852cd","ios":"levelo://app?vid=23618953-10f4-4572-ae58-57eb77e852cd"},"vehicle_type_id":"4","last_reported":1750100908,"current_range_meters":2800,"station_id":"ce4bh512rcd13ifvqe2g","pricing_plan_id":"cebpf4jnsgd1na2vs0mg"},{"bike_id":"24cdedb4-00ef-417a-a1a6-de352a6bdbf7","system_id":"levelo_inurba_marseille","lat":43.25496,"lon":5.37648,"is_reserved":false,"is_disabled":false,"rental_uris":{"android":"levelo://app?vid=24cdedb4-00ef-417a-a1a6-de352a6bdbf7","ios":"levelo://app?vid=24cdedb4-00ef-417a-a1a6-de352a6bdbf7"},"vehicle_type_id":"4","last_reported":1750100908,"current_range_meters":2800,"station_id":"ce4bhh12rcd13ifvqff0","pricing_plan_id":"cebpf4jnsgd1na2vs0mg"},{"bike_id":"1827d622-e20d-4be6-99ac-0d1e0724dbb6","system_id":"levelo_inurba_marseille","lat":43.337444,"lon":5.374475,"is_reserved":false,"is_disabled":false,"rental_uris":{"android":"levelo://app?vid=1827d622-e20d-4be6-99ac-0d1e0724dbb6","ios":"levelo://app?vid=1827d622-e20d-4be6-99ac-0d1e0724dbb6"},"vehicle_type_id":"4","last_reported":1750100908,"current_range_meters":3200,"station_id":"","pricing_plan_id":"cebpf4jnsgd1na2vs0mg"},{"bike_id":"5b74ee20-5147-443a-9c2f-6827df261a1d","system_id":"levelo_inurba_marseille","lat":43.28416,"lon":5.3751,"is_reserved":false,"is_disabled":false,"rental_uris":{"android":"levelo://app?vid=5b74ee20-5147-443a-9c2f-6827df261a1d","ios":"levelo://app?vid=5b74ee20-5147-443a-9c2f-6827df261a1d"},"vehicle_type_id":"4","last_reported":1750100908,"current_range_meters":3200,"station_id":"ce4bh412rcd13ifvqds0","pricing_plan_id":"cebpf4jnsgd1na2vs0mg"},{"bike_id":"7ee67ad1-034f-4bee-aab5-4c73f2e99f61","system_id":"levelo_inurba_marseille","lat":43.287266,"lon":5.400197,"is_reserved":false,"is_disabled":false,"rental_uris":{"android":"levelo://app?vid=7ee67ad1-034f-4bee-aab5-4c73f2e99f61","ios":"levelo://app?vid=7ee67ad1-034f-4bee-aab5-4c73f2e99f61"},"vehicle_type_id":"4","last_reported":1750100908,"current_range_meters":3200,"station_id":"ce4bho92rcd13ifvqh3g","pricing_plan_id":"cebpf4jnsgd1na2vs0mg"},{"bike_id":"fa82fe42-c380-445f-aa69-98e4556d2295","system_id":"levelo_inurba_marseille","lat":43.30727,"lon":5.42448,"is_reserved":false,"is_disabled":false,"rental_uris":{"android":"levelo://app?vid=fa82fe42-c380-445f-aa69-98e4556d2295","ios":"levelo://app?vid=fa82fe42-c380-445f-aa69-98e4556d2295"},"vehicle_type_id":"4","last_reported":1750100908,"current_range_meters":3200,"station_id":"st_cvj6ca6bvosntc0bfgr0","pricing_plan_id":"cebpf4jnsgd1na2vs0mg"},{"bike_id":"cba28a02-9f06-41dd-8645-e3bd321e07ba","system_id":"levelo_inurba_marseille","lat":43.28795,"lon":5.38703,"is_reserved":false,"is_disabled":false,"rental_uris":{"android":"levelo://app?vid=cba28a02-9f06-41dd-8645-e3bd321e07ba","ios":"levelo://app?vid=cba28a02-9f06-41dd-8645-e3bd321e07ba"},"vehicle_type_id":"4","last_reported":1750100908,"current_range_meters":3600,"station_id":"","pricing_plan_id":"cebpf4jnsgd1na2vs0mg"},{"bike_id":"3ae20ac6-ddfc-409f-9494-5028d9625cd4","system_id":"levelo_inurba_marseille","lat":43.2954,"lon":5.38534,"is_reserved":false,"is_disabled":false,"rental_uris":{"android":"levelo://app?vid=3ae20ac6-ddfc-409f-9494-5028d9625cd4","ios":"levelo://app?vid=3ae20ac6-ddfc-409f-9494-5028d9625cd4"},"vehicle_type_id":"4","last_reported":1750100908,"current_range_meters":3600,"station_id":"ce4bgih2rcd13ifvqba0","pricing_plan_id":"cebpf4jnsgd1na2vs0mg"},{"bike_id":"b3f8713e-560d-4c1e-a41f-5fb171b8d70f","system_id":"levelo_inurba_marseille","lat":43.28609,"lon":5.35126,"is_reserved":false,"is_disabled":false,"rental_uris":{"android":"levelo://app?vid=b3f8713e-560d-4c1e-a41f-5fb171b8d70f","ios":"levelo://app?vid=b3f8713e-560d-4c1e-a41f-5fb171b8d70f"},"vehicle_type_id":"4","last_reported":1750100908,"current_range_meters":3600,"station_id":"ce4bhch2rcd13ifvqeug","pricing_plan_id":"cebpf4jnsgd1na2vs0mg"},{"bike_id":"891f83e5-74ff-461f-acf9-e89839fe5e7b","system_id":"levelo_inurba_marseille","lat":43.243888,"lon":5.370651,"is_reserved":false,"is_disabled":false,"rental_uris":{"android":"levelo://app?vid=891f83e5-74ff-461f-acf9-e89839fe5e7b","ios":"levelo://app?vid=891f83e5-74ff-461f-acf9-e89839fe5e7b"},"vehicle_type_id":"4","last_reported":1750100908,"current_range_meters":3600,"station_id":"ce4bhhh2rcd13ifvqfk0","pricing_plan_id":"cebpf4jnsgd1na2vs0mg"},{"bike_id":"fb13cf08-2537-46b9-9624-45f094215f72","system_id":"levelo_inurba_marseille","lat":43.25116,"lon":5.40319,"is_reserved":false,"is_disabled":false,"rental_uris":{"android":"levelo://app?vid=fb13cf08-2537-46b9-9624-45f094215f72","ios":"levelo://app?vid=fb13cf08-2537-46b9-9624-45f094215f72"},"vehicle_type_id":"4","last_reported":1750100908,"current_range_meters":3600,"station_id":"ce4bhlh2rcd13ifvqgig","pricing_plan_id":"cebpf4jnsgd1na2vs0mg"},{"bike_id":"5f6e0315-567e-4a5f-9de0-2285575feedb","system_id":"levelo_inurba_marseille","lat":43.32659,"lon":5.40996,"is_reserved":false,"is_disabled":false,"rental_uris":{"android":"levelo://app?vid=5f6e0315-567e-4a5f-9de0-2285575feedb","ios":"levelo://app?vid=5f6e0315-567e-4a5f-9de0-2285575feedb"},"vehicle_type_id":"4","last_reported":1750100908,"current_range_meters":3600,"station_id":"ce4bhpp2rcd13ifvqhgg","pricing_plan_id":"cebpf4jnsgd1na2vs0mg"},{"bike_id":"f7d61edd-3d98-4317-ac93-00130fdb72f9","system_id":"levelo_inurba_marseille","lat":43.33553,"lon":5.39863,"is_reserved":false,"is_disabled":false,"rental_uris":{"android":"levelo://app?vid=f7d61edd-3d98-4317-ac93-00130fdb72f9","ios":"levelo://app?vid=f7d61edd-3d98-4317-ac93-00130fdb72f9"},"vehicle_type_id":"4","last_reported":1750100908,"current_range_meters":4000,"station_id":"","pricing_plan_id":"cebpf4jnsgd1na2vs0mg"},{"bike_id":"6e6f6528-7ca1-4561-9334-638103d05c7a","system_id":"levelo_inurba_marseille","lat":43.28431,"lon":5.34979,"is_reserved":false,"is_disabled":false,"rental_uris":{"android":"levelo://app?vid=6e6f6528-7ca1-4561-9334-638103d05c7a","ios":"levelo://app?vid=6e6f6528-7ca1-4561-9334-638103d05c7a"},"vehicle_type_id":"4","last_reported":1750100908,"current_range_meters":4000,"station_id":"ce4bhbh2rcd13ifvqepg","pricing_plan_id":"cebpf4jnsgd1na2vs0mg"},{"bike_id":"e90986e2-8c28-49ea-9d7d-4035e7da16dd","system_id":"levelo_inurba_marseille","lat":43.29599,"lon":5.37715,"is_reserved":false,"is_disabled":false,"rental_uris":{"android":"levelo://app?vid=e90986e2-8c28-49ea-9d7d-4035e7da16dd","ios":"levelo://app?vid=e90986e2-8c28-49ea-9d7d-4035e7da16dd"},"vehicle_type_id":"4","last_reported":1750100908,"current_range_meters":4400,"station_id":"ce4bgi92rcd13ifvqb90","pricing_plan_id":"cebpf4jnsgd1na2vs0mg"},{"bike_id":"f1f710f9-9932-4d6a-b758-2d58f1a6219a","system_id":"levelo_inurba_marseille","lat":43.28719,"lon":5.37925,"is_reserved":false,"is_disabled":false,"rental_uris":{"android":"levelo://app?vid=f1f710f9-9932-4d6a-b758-2d58f1a6219a","ios":"levelo://app?vid=f1f710f9-9932-4d6a-b758-2d58f1a6219a"},"vehicle_type_id":"4","last_reported":1750100908,"current_range_meters":4400,"station_id":"ce4bh9p2rcd13ifvqec0","pricing_plan_id":"cebpf4jnsgd1na2vs0mg"},{"bike_id":"7a43af96-73c7-44f3-ba7c-e5fe7f64498c","system_id":"levelo_inurba_marseille","lat":43.29798,"lon":5.39326,"is_reserved":false,"is_disabled":false,"rental_uris":{"android":"levelo://app?vid=7a43af96-73c7-44f3-ba7c-e5fe7f64498c","ios":"levelo://app?vid=7a43af96-73c7-44f3-ba7c-e5fe7f64498c"},"vehicle_type_id":"4","last_reported":1750100908,"current_range_meters":4400,"station_id":"chh1huq6cuj3fo74tm60","pricing_plan_id":"cebpf4jnsgd1na2vs0mg"},{"bike_id":"dbfce7a3-3423-4296-b193-a177dea644ac","system_id":"levelo_inurba_marseille","lat":43.27285,"lon":5.41625,"is_reserved":false,"is_disabled":false,"rental_uris":{"android":"levelo://app?vid=dbfce7a3-3423-4296-b193-a177dea644ac","ios":"levelo://app?vid=dbfce7a3-3423-4296-b193-a177dea644ac"},"vehicle_type_id":"4","last_reported":1750100908,"current_range_meters":4800,"station_id":"","pricing_plan_id":"cebpf4jnsgd1na2vs0mg"},{"bike_id":"613aae48-c3b5-4701-8b2a-5c0c9b53a7dd","system_id":"levelo_inurba_marseille","lat":43.286865,"lon":5.366951,"is_reserved":false,"is_disabled":false,"rental_uris":{"android":"levelo://app?vid=613aae48-c3b5-4701-8b2a-5c0c9b53a7dd","ios":"levelo://app?vid=613aae48-c3b5-4701-8b2a-5c0c9b53a7dd"},"vehicle_type_id":"4","last_reported":1750100908,"current_range_meters":4800,"station_id":"ce4bgih2rcd13ifvqba0","pricing_plan_id":"cebpf4jnsgd1na2vs0mg"},{"bike_id":"a70303e2-8458-4b27-aa6b-13698b891d8c","system_id":"levelo_inurba_marseille","lat":43.27617,"lon":5.36116,"is_reserved":false,"is_disabled":false,"rental_uris":{"android":"levelo://app?vid=a70303e2-8458-4b27-aa6b-13698b891d8c","ios":"levelo://app?vid=a70303e2-8458-4b27-aa6b-13698b891d8c"},"vehicle_type_id":"4","last_reported":1750100908,"current_range_meters":4800,"station_id":"ce4bgj92rcd13ifvqbe0","pricing_plan_id":"cebpf4jnsgd1na2vs0mg"},{"bike_id":"bb35f8ac-385e-404e-92fd-ca348f13b269","system_id":"levelo_inurba_marseille","lat":43.3008,"lon":5.39086,"is_reserved":false,"is_disabled":false,"rental_uris":{"android":"levelo://app?vid=bb35f8ac-385e-404e-92fd-ca348f13b269","ios":"levelo://app?vid=bb35f8ac-385e-404e-92fd-ca348f13b269"},"vehicle_type_id":"4","last_reported":1750100908,"current_range_meters":4800,"station_id":"ce4bh192rcd13ifvqdb0","pricing_plan_id":"cebpf4jnsgd1na2vs0mg"},{"bike_id":"92017c1b-d9f0-44bd-b991-c5a8f399c08b","system_id":"levelo_inurba_marseille","lat":43.29575,"lon":5.39979,"is_reserved":false,"is_disabled":false,"rental_uris":{"android":"levelo://app?vid=92017c1b-d9f0-44bd-b991-c5a8f399c08b","ios":"levelo://app?vid=92017c1b-d9f0-44bd-b991-c5a8f399c08b"},"vehicle_type_id":"4","last_reported":1750100908,"current_range_meters":4800,"station_id":"ce4bh312rcd13ifvqdj0","pricing_plan_id":"cebpf4jnsgd1na2vs0mg"},{"bike_id":"2db30ff7-6f15-4afa-8b86-c3e938bcd2cd","system_id":"levelo_inurba_marseille","lat":43.284245,"lon":5.375157,"is_reserved":false,"is_disabled":false,"rental_uris":{"android":"levelo://app?vid=2db30ff7-6f15-4afa-8b86-c3e938bcd2cd","ios":"levelo://app?vid=2db30ff7-6f15-4afa-8b86-c3e938bcd2cd"},"vehicle_type_id":"4","last_reported":1750100908,"current_range_meters":4800,"station_id":"ce4bh412rcd13ifvqds0","pricing_plan_id":"cebpf4jnsgd1na2vs0mg"},{"bike_id":"f16a5698-ddc2-4e59-97f5-5526424b5a60","system_id":"levelo_inurba_marseille","lat":43.21197,"lon":5.35072,"is_reserved":false,"is_disabled":false,"rental_uris":{"android":"levelo://app?vid=f16a5698-ddc2-4e59-97f5-5526424b5a60","ios":"levelo://app?vid=f16a5698-ddc2-4e59-97f5-5526424b5a60"},"vehicle_type_id":"4","last_reported":1750100908,"current_range_meters":4800,"station_id":"st_cvj6sg6p6f1abm77japg","pricing_plan_id":"cebpf4jnsgd1na2vs0mg"},{"bike_id":"aad2937d-3018-4300-bf10-9c4f22920f82","system_id":"levelo_inurba_marseille","lat":43.245005,"lon":5.376469,"is_reserved":false,"is_disabled":false,"rental_uris":{"android":"levelo://app?vid=aad2937d-3018-4300-bf10-9c4f22920f82","ios":"levelo://app?vid=aad2937d-3018-4300-bf10-9c4f22920f82"},"vehicle_type_id":"4","last_reported":1750100908,"current_range_meters":5600,"station_id":"ce4bhih2rcd13ifvqfr0","pricing_plan_id":"cebpf4jnsgd1na2vs0mg"},{"bike_id":"fc354b42-9189-4aed-a4e6-21884b4781e7","system_id":"levelo_inurba_marseille","lat":43.2937,"lon":5.3784,"is_reserved":false,"is_disabled":false,"rental_uris":{"android":"levelo://app?vid=fc354b42-9189-4aed-a4e6-21884b4781e7","ios":"levelo://app?vid=fc354b42-9189-4aed-a4e6-21884b4781e7"},"vehicle_type_id":"4","last_reported":1750100908,"current_range_meters":6000,"station_id":"ce4bgjh2rcd13ifvqbf0","pricing_plan_id":"cebpf4jnsgd1na2vs0mg"},{"bike_id":"328a6a4f-8026-4738-b685-57d56d3e3f01","system_id":"levelo_inurba_marseille","lat":43.32458,"lon":5.36566,"is_reserved":false,"is_disabled":false,"rental_uris":{"android":"levelo://app?vid=328a6a4f-8026-4738-b685-57d56d3e3f01","ios":"levelo://app?vid=328a6a4f-8026-4738-b685-57d56d3e3f01"},"vehicle_type_id":"4","last_reported":1750100908,"current_range_meters":6000,"station_id":"ce4bhs12rcd13ifvqhvg","pricing_plan_id":"cebpf4jnsgd1na2vs0mg"},{"bike_id":"49f12802-d823-4cb5-903c-1c17fbf5b903","system_id":"levelo_inurba_marseille","lat":43.2782,"lon":5.41438,"is_reserved":false,"is_disabled":false,"rental_uris":{"android":"levelo://app?vid=49f12802-d823-4cb5-903c-1c17fbf5b903","ios":"levelo://app?vid=49f12802-d823-4cb5-903c-1c17fbf5b903"},"vehicle_type_id":"4","last_reported":1750100908,"current_range_meters":6400,"station_id":"","pricing_plan_id":"cebpf4jnsgd1na2vs0mg"},{"bike_id":"dbfca594-3761-41f6-991a-e43e1017d609","system_id":"levelo_inurba_marseille","lat":43.24104,"lon":5.36818,"is_reserved":false,"is_disabled":false,"rental_uris":{"android":"levelo://app?vid=dbfca594-3761-41f6-991a-e43e1017d609","ios":"levelo://app?vid=dbfca594-3761-41f6-991a-e43e1017d609"},"vehicle_type_id":"4","last_reported":1750100908,"current_range_meters":6400,"station_id":"","pricing_plan_id":"cebpf4jnsgd1na2vs0mg"},{"bike_id":"c92eae89-ab39-4f22-95fa-3676c7c4761e","system_id":"levelo_inurba_marseille","lat":43.31328,"lon":5.39691,"is_reserved":false,"is_disabled":false,"rental_uris":{"android":"levelo://app?vid=c92eae89-ab39-4f22-95fa-3676c7c4761e","ios":"levelo://app?vid=c92eae89-ab39-4f22-95fa-3676c7c4761e"},"vehicle_type_id":"4","last_reported":1750100908,"current_range_meters":6400,"station_id":"ce4bgvp2rcd13ifvqcu0","pricing_plan_id":"cebpf4jnsgd1na2vs0mg"},{"bike_id":"15c303fa-2c5a-46b7-848f-523759b27762","system_id":"levelo_inurba_marseille","lat":43.29033,"lon":5.3864,"is_reserved":false,"is_disabled":false,"rental_uris":{"android":"levelo://app?vid=15c303fa-2c5a-46b7-848f-523759b27762","ios":"levelo://app?vid=15c303fa-2c5a-46b7-848f-523759b27762"},"vehicle_type_id":"4","last_reported":1750100908,"current_range_meters":6400,"station_id":"ce4bh4p2rcd13ifvqe0g","pricing_plan_id":"cebpf4jnsgd1na2vs0mg"},{"bike_id":"04e8aefd-f2ce-40ac-9e66-98c297ec0b88","system_id":"levelo_inurba_marseille","lat":43.32337,"lon":5.40616,"is_reserved":false,"is_disabled":false,"rental_uris":{"android":"levelo://app?vid=04e8aefd-f2ce-40ac-9e66-98c297ec0b88","ios":"levelo://app?vid=04e8aefd-f2ce-40ac-9e66-98c297ec0b88"},"vehicle_type_id":"4","last_reported":1750100908,"current_range_meters":6400,"station_id":"ce4bhq92rcd13ifvqhjg","pricing_plan_id":"cebpf4jnsgd1na2vs0mg"},{"bike_id":"8919caa4-42c5-464e-93a4-df13c33b57d4","system_id":"levelo_inurba_marseille","lat":43.30304,"lon":5.39212,"is_reserved":false,"is_disabled":false,"rental_uris":{"android":"levelo://app?vid=8919caa4-42c5-464e-93a4-df13c33b57d4","ios":"levelo://app?vid=8919caa4-42c5-464e-93a4-df13c33b57d4"},"vehicle_type_id":"4","last_reported":1750100908,"current_range_meters":6800,"station_id":"ce4bgkh2rcd13ifvqbk0","pricing_plan_id":"cebpf4jnsgd1na2vs0mg"},{"bike_id":"ea4211fd-815d-43d2-bd70-29239910a292","system_id":"levelo_inurba_marseille","lat":43.292572,"lon":5.384433,"is_reserved":false,"is_disabled":false,"rental_uris":{"android":"levelo://app?vid=ea4211fd-815d-43d2-bd70-29239910a292","ios":"levelo://app?vid=ea4211fd-815d-43d2-bd70-29239910a292"},"vehicle_type_id":"4","last_reported":1750100908,"current_range_meters":6800,"station_id":"ce4bh692rcd13ifvqea0","pricing_plan_id":"cebpf4jnsgd1na2vs0mg"},{"bike_id":"a1b65cf3-a5c0-43d5-82e9-bc3fe8fe034a","system_id":"levelo_inurba_marseille","lat":43.29877,"lon":5.39741,"is_reserved":false,"is_disabled":false,"rental_uris":{"android":"levelo://app?vid=a1b65cf3-a5c0-43d5-82e9-bc3fe8fe034a","ios":"levelo://app?vid=a1b65cf3-a5c0-43d5-82e9-bc3fe8fe034a"},"vehicle_type_id":"4","last_reported":1750100908,"current_range_meters":7200,"station_id":"ce4bh0h2rcd13ifvqd50","pricing_plan_id":"cebpf4jnsgd1na2vs0mg"},{"bike_id":"a60bc4c7-a2c4-4761-89d5-6fc1c66fbf20","system_id":"levelo_inurba_marseille","lat":43.2902,"lon":5.38139,"is_reserved":false,"is_disabled":false,"rental_uris":{"android":"levelo://app?vid=a60bc4c7-a2c4-4761-89d5-6fc1c66fbf20","ios":"levelo://app?vid=a60bc4c7-a2c4-4761-89d5-6fc1c66fbf20"},"vehicle_type_id":"4","last_reported":1750100908,"current_range_meters":7200,"station_id":"ce4bh4p2rcd13ifvqe1g","pricing_plan_id":"cebpf4jnsgd1na2vs0mg"},{"bike_id":"8b10a592-ed11-4169-a12c-7472d2e8597f","system_id":"levelo_inurba_marseille","lat":43.2927,"lon":5.36843,"is_reserved":false,"is_disabled":false,"rental_uris":{"android":"levelo://app?vid=8b10a592-ed11-4169-a12c-7472d2e8597f","ios":"levelo://app?vid=8b10a592-ed11-4169-a12c-7472d2e8597f"},"vehicle_type_id":"4","last_reported":1750100908,"current_range_meters":7200,"station_id":"ce4bhbp2rcd13ifvqesg","pricing_plan_id":"cebpf4jnsgd1na2vs0mg"},{"bike_id":"b37168ca-dff2-4b71-90e5-b421eda9bcd5","system_id":"levelo_inurba_marseille","lat":43.2862,"lon":5.35099,"is_reserved":false,"is_disabled":false,"rental_uris":{"android":"levelo://app?vid=b37168ca-dff2-4b71-90e5-b421eda9bcd5","ios":"levelo://app?vid=b37168ca-dff2-4b71-90e5-b421eda9bcd5"},"vehicle_type_id":"4","last_reported":1750100908,"current_range_meters":7200,"station_id":"ce4bhch2rcd13ifvqeug","pricing_plan_id":"cebpf4jnsgd1na2vs0mg"},{"bike_id":"3c4d6416-c936-4ae6-aee7-775ec241b658","system_id":"levelo_inurba_marseille","lat":43.2979,"lon":5.39358,"is_reserved":false,"is_disabled":false,"rental_uris":{"android":"levelo://app?vid=3c4d6416-c936-4ae6-aee7-775ec241b658","ios":"levelo://app?vid=3c4d6416-c936-4ae6-aee7-775ec241b658"},"vehicle_type_id":"4","last_reported":1750100908,"current_range_meters":7200,"station_id":"chh1huq6cuj3fo74tm60","pricing_plan_id":"cebpf4jnsgd1na2vs0mg"},{"bike_id":"8d297b38-f666-4a46-9dee-0132f800019c","system_id":"levelo_inurba_marseille","lat":43.32224,"lon":5.38637,"is_reserved":false,"is_disabled":false,"rental_uris":{"android":"levelo://app?vid=8d297b38-f666-4a46-9dee-0132f800019c","ios":"levelo://app?vid=8d297b38-f666-4a46-9dee-0132f800019c"},"vehicle_type_id":"4","last_reported":1750100908,"current_range_meters":8000,"station_id":"","pricing_plan_id":"cebpf4jnsgd1na2vs0mg"},{"bike_id":"0ccf6ea8-a2a5-4cc6-b35c-58ebd4c849ea","system_id":"levelo_inurba_marseille","lat":43.2953,"lon":5.38525,"is_reserved":false,"is_disabled":false,"rental_uris":{"android":"levelo://app?vid=0ccf6ea8-a2a5-4cc6-b35c-58ebd4c849ea","ios":"levelo://app?vid=0ccf6ea8-a2a5-4cc6-b35c-58ebd4c849ea"},"vehicle_type_id":"4","last_reported":1750100908,"current_range_meters":8000,"station_id":"ce4bgih2rcd13ifvqba0","pricing_plan_id":"cebpf4jnsgd1na2vs0mg"},{"bike_id":"713cf203-035c-46d6-b251-b8702b63fbb1","system_id":"levelo_inurba_marseille","lat":43.294342,"lon":5.397441,"is_reserved":false,"is_disabled":false,"rental_uris":{"android":"levelo://app?vid=713cf203-035c-46d6-b251-b8702b63fbb1","ios":"levelo://app?vid=713cf203-035c-46d6-b251-b8702b63fbb1"},"vehicle_type_id":"4","last_reported":1750100908,"current_range_meters":8000,"station_id":"ce4bh3h2rcd13ifvqdo0","pricing_plan_id":"cebpf4jnsgd1na2vs0mg"},{"bike_id":"67bd9e91-5e9d-4493-bd17-692ba1a39303","system_id":"levelo_inurba_marseille","lat":43.28443,"lon":5.37521,"is_reserved":false,"is_disabled":false,"rental_uris":{"android":"levelo://app?vid=67bd9e91-5e9d-4493-bd17-692ba1a39303","ios":"levelo://app?vid=67bd9e91-5e9d-4493-bd17-692ba1a39303"},"vehicle_type_id":"4","last_reported":1750100908,"current_range_meters":8000,"station_id":"ce4bh412rcd13ifvqds0","pricing_plan_id":"cebpf4jnsgd1na2vs0mg"},{"bike_id":"eabb5c4c-c40e-49bb-9374-83f49b7002d1","system_id":"levelo_inurba_marseille","lat":43.28001,"lon":5.41663,"is_reserved":false,"is_disabled":false,"rental_uris":{"android":"levelo://app?vid=eabb5c4c-c40e-49bb-9374-83f49b7002d1","ios":"levelo://app?vid=eabb5c4c-c40e-49bb-9374-83f49b7002d1"},"vehicle_type_id":"4","last_reported":1750100908,"current_range_meters":8000,"station_id":"ce4bho12rcd13ifvqh1g","pricing_plan_id":"cebpf4jnsgd1na2vs0mg"},{"bike_id":"ec4c75ec-c76d-42f8-b556-b0d723b867ae","system_id":"levelo_inurba_marseille","lat":43.30416,"lon":5.41288,"is_reserved":false,"is_disabled":false,"rental_uris":{"android":"levelo://app?vid=ec4c75ec-c76d-42f8-b556-b0d723b867ae","ios":"levelo://app?vid=ec4c75ec-c76d-42f8-b556-b0d723b867ae"},"vehicle_type_id":"4","last_reported":1750100908,"current_range_meters":8000,"station_id":"ce4bhop2rcd13ifvqh8g","pricing_plan_id":"cebpf4jnsgd1na2vs0mg"},{"bike_id":"79eeb666-d8d8-469a-94d3-68222c812a1d","system_id":"levelo_inurba_marseille","lat":43.31824,"lon":5.37449,"is_reserved":false,"is_disabled":false,"rental_uris":{"android":"levelo://app?vid=79eeb666-d8d8-469a-94d3-68222c812a1d","ios":"levelo://app?vid=79eeb666-d8d8-469a-94d3-68222c812a1d"},"vehicle_type_id":"4","last_reported":1750100908,"current_range_meters":8400,"station_id":"","pricing_plan_id":"cebpf4jnsgd1na2vs0mg"},{"bike_id":"d5ee7d48-d3e4-4091-9df5-d79286218f23","system_id":"levelo_inurba_marseille","lat":43.30426,"lon":5.39753,"is_reserved":false,"is_disabled":false,"rental_uris":{"android":"levelo://app?vid=d5ee7d48-d3e4-4091-9df5-d79286218f23","ios":"levelo://app?vid=d5ee7d48-d3e4-4091-9df5-d79286218f23"},"vehicle_type_id":"4","last_reported":1750100908,"current_range_meters":8400,"station_id":"ce4bh092rcd13ifvqd20","pricing_plan_id":"cebpf4jnsgd1na2vs0mg"},{"bike_id":"dcb87a9a-18f8-41c6-9134-949f31e21b42","system_id":"levelo_inurba_marseille","lat":43.27008,"lon":5.39949,"is_reserved":false,"is_disabled":false,"rental_uris":{"android":"levelo://app?vid=dcb87a9a-18f8-41c6-9134-949f31e21b42","ios":"levelo://app?vid=dcb87a9a-18f8-41c6-9134-949f31e21b42"},"vehicle_type_id":"4","last_reported":1750100908,"current_range_meters":8800,"station_id":"","pricing_plan_id":"cebpf4jnsgd1na2vs0mg"},{"bike_id":"96f28763-58d8-41d3-90ae-00e2aae7e5cc","system_id":"levelo_inurba_marseille","lat":43.29681,"lon":5.37994,"is_reserved":false,"is_disabled":false,"rental_uris":{"android":"levelo://app?vid=96f28763-58d8-41d3-90ae-00e2aae7e5cc","ios":"levelo://app?vid=96f28763-58d8-41d3-90ae-00e2aae7e5cc"},"vehicle_type_id":"4","last_reported":1750100908,"current_range_meters":8800,"station_id":"","pricing_plan_id":"cebpf4jnsgd1na2vs0mg"},{"bike_id":"10d8703f-8168-48d3-b44c-9eaaf686e239","system_id":"levelo_inurba_marseille","lat":43.3059,"lon":5.37226,"is_reserved":false,"is_disabled":false,"rental_uris":{"android":"levelo://app?vid=10d8703f-8168-48d3-b44c-9eaaf686e239","ios":"levelo://app?vid=10d8703f-8168-48d3-b44c-9eaaf686e239"},"vehicle_type_id":"4","last_reported":1750100908,"current_range_meters":8800,"station_id":"ce4bgqh2rcd13ifvqc4g","pricing_plan_id":"cebpf4jnsgd1na2vs0mg"},{"bike_id":"bd844ec5-158c-46e9-962b-64d163902348","system_id":"levelo_inurba_marseille","lat":43.284106,"lon":5.37512,"is_reserved":false,"is_disabled":false,"rental_uris":{"android":"levelo://app?vid=bd844ec5-158c-46e9-962b-64d163902348","ios":"levelo://app?vid=bd844ec5-158c-46e9-962b-64d163902348"},"vehicle_type_id":"4","last_reported":1750100908,"current_range_meters":8800,"station_id":"ce4bh412rcd13ifvqds0","pricing_plan_id":"cebpf4jnsgd1na2vs0mg"},{"bike_id":"1b31a98c-1fa5-4b60-9d79-ebd1a2ef9ad4","system_id":"levelo_inurba_marseille","lat":43.30131,"lon":5.376957,"is_reserved":false,"is_disabled":false,"rental_uris":{"android":"levelo://app?vid=1b31a98c-1fa5-4b60-9d79-ebd1a2ef9ad4","ios":"levelo://app?vid=1b31a98c-1fa5-4b60-9d79-ebd1a2ef9ad4"},"vehicle_type_id":"4","last_reported":1750100908,"current_range_meters":9200,"station_id":"","pricing_plan_id":"cebpf4jnsgd1na2vs0mg"},{"bike_id":"159e502c-401e-4376-b7ab-6f7d3e35b9f3","system_id":"levelo_inurba_marseille","lat":43.29532,"lon":5.39403,"is_reserved":false,"is_disabled":false,"rental_uris":{"android":"levelo://app?vid=159e502c-401e-4376-b7ab-6f7d3e35b9f3","ios":"levelo://app?vid=159e502c-401e-4376-b7ab-6f7d3e35b9f3"},"vehicle_type_id":"4","last_reported":1750100908,"current_range_meters":9200,"station_id":"ce4bh292rcd13ifvqdf0","pricing_plan_id":"cebpf4jnsgd1na2vs0mg"},{"bike_id":"6c3b91a1-f128-4912-b6aa-51be415c99af","system_id":"levelo_inurba_marseille","lat":43.28397,"lon":5.37527,"is_reserved":false,"is_disabled":false,"rental_uris":{"android":"levelo://app?vid=6c3b91a1-f128-4912-b6aa-51be415c99af","ios":"levelo://app?vid=6c3b91a1-f128-4912-b6aa-51be415c99af"},"vehicle_type_id":"4","last_reported":1750100908,"current_range_meters":9200,"station_id":"ce4bh412rcd13ifvqds0","pricing_plan_id":"cebpf4jnsgd1na2vs0mg"},{"bike_id":"3042c9e5-c5a5-4a11-94d1-8e536b5e25f7","system_id":"levelo_inurba_marseille","lat":43.21197,"lon":5.35059,"is_reserved":false,"is_disabled":false,"rental_uris":{"android":"levelo://app?vid=3042c9e5-c5a5-4a11-94d1-8e536b5e25f7","ios":"levelo://app?vid=3042c9e5-c5a5-4a11-94d1-8e536b5e25f7"},"vehicle_type_id":"4","last_reported":1750100908,"current_range_meters":9200,"station_id":"st_cvj6sg6p6f1abm77japg","pricing_plan_id":"cebpf4jnsgd1na2vs0mg"},{"bike_id":"87a73488-390c-4e28-a3b3-5d6b7a9184c3","system_id":"levelo_inurba_marseille","lat":43.337444,"lon":5.374475,"is_reserved":false,"is_disabled":false,"rental_uris":{"android":"levelo://app?vid=87a73488-390c-4e28-a3b3-5d6b7a9184c3","ios":"levelo://app?vid=87a73488-390c-4e28-a3b3-5d6b7a9184c3"},"vehicle_type_id":"4","last_reported":1750100908,"current_range_meters":9600,"station_id":"","pricing_plan_id":"cebpf4jnsgd1na2vs0mg"},{"bike_id":"016a5d5f-6548-4f40-b266-37f605804a16","system_id":"levelo_inurba_marseille","lat":43.29542,"lon":5.38538,"is_reserved":false,"is_disabled":false,"rental_uris":{"android":"levelo://app?vid=016a5d5f-6548-4f40-b266-37f605804a16","ios":"levelo://app?vid=016a5d5f-6548-4f40-b266-37f605804a16"},"vehicle_type_id":"4","last_reported":1750100908,"current_range_meters":9600,"station_id":"ce4bgih2rcd13ifvqba0","pricing_plan_id":"cebpf4jnsgd1na2vs0mg"},{"bike_id":"fa64d45f-23ea-4080-b163-1ec6540d7d1c","system_id":"levelo_inurba_marseille","lat":43.29184,"lon":5.39303,"is_reserved":false,"is_disabled":false,"rental_uris":{"android":"levelo://app?vid=fa64d45f-23ea-4080-b163-1ec6540d7d1c","ios":"levelo://app?vid=fa64d45f-23ea-4080-b163-1ec6540d7d1c"},"vehicle_type_id":"4","last_reported":1750100908,"current_range_meters":9600,"station_id":"ce4bh192rcd13ifvqdd0","pricing_plan_id":"cebpf4jnsgd1na2vs0mg"},{"bike_id":"6108ca6f-56e2-4495-a169-bd3f5d940f88","system_id":"levelo_inurba_marseille","lat":43.29091,"lon":5.38141,"is_reserved":false,"is_disabled":false,"rental_uris":{"android":"levelo://app?vid=6108ca6f-56e2-4495-a169-bd3f5d940f88","ios":"levelo://app?vid=6108ca6f-56e2-4495-a169-bd3f5d940f88"},"vehicle_type_id":"4","last_reported":1750100908,"current_range_meters":9600,"station_id":"ce4bh512rcd13ifvqe2g","pricing_plan_id":"cebpf4jnsgd1na2vs0mg"},{"bike_id":"380a30da-3fd9-4db4-b1db-954ac21a6dde","system_id":"levelo_inurba_marseille","lat":43.29251,"lon":5.38431,"is_reserved":false,"is_disabled":false,"rental_uris":{"android":"levelo://app?vid=380a30da-3fd9-4db4-b1db-954ac21a6dde","ios":"levelo://app?vid=380a30da-3fd9-4db4-b1db-954ac21a6dde"},"vehicle_type_id":"4","last_reported":1750100908,"current_range_meters":9600,"station_id":"ce4bh692rcd13ifvqea0","pricing_plan_id":"cebpf4jnsgd1na2vs0mg"},{"bike_id":"b035abc3-00b6-40ba-b92b-fab12fcc3f2f","system_id":"levelo_inurba_marseille","lat":43.308878,"lon":5.396515,"is_reserved":false,"is_disabled":false,"rental_uris":{"android":"levelo://app?vid=b035abc3-00b6-40ba-b92b-fab12fcc3f2f","ios":"levelo://app?vid=b035abc3-00b6-40ba-b92b-fab12fcc3f2f"},"vehicle_type_id":"4","last_reported":1750100908,"current_range_meters":10000,"station_id":"ce4bh012rcd13ifvqcv0","pricing_plan_id":"cebpf4jnsgd1na2vs0mg"},{"bike_id":"179fedef-82f8-4967-9715-046297389f78","system_id":"levelo_inurba_marseille","lat":43.29252,"lon":5.40912,"is_reserved":false,"is_disabled":false,"rental_uris":{"android":"levelo://app?vid=179fedef-82f8-4967-9715-046297389f78","ios":"levelo://app?vid=179fedef-82f8-4967-9715-046297389f78"},"vehicle_type_id":"4","last_reported":1750100908,"current_range_meters":10000,"station_id":"ce4bh192rcd13ifvqdc0","pricing_plan_id":"cebpf4jnsgd1na2vs0mg"},{"bike_id":"6afc644c-08c3-42de-8619-3f94e2ba41cd","system_id":"levelo_inurba_marseille","lat":43.29917,"lon":5.43667,"is_reserved":false,"is_disabled":false,"rental_uris":{"android":"levelo://app?vid=6afc644c-08c3-42de-8619-3f94e2ba41cd","ios":"levelo://app?vid=6afc644c-08c3-42de-8619-3f94e2ba41cd"},"vehicle_type_id":"4","last_reported":1750100908,"current_range_meters":10000,"station_id":"ce4bhpp2rcd13ifvqhfg","pricing_plan_id":"cebpf4jnsgd1na2vs0mg"},{"bike_id":"bd6c18fd-9a57-46ad-b3ec-19f01982a448","system_id":"levelo_inurba_marseille","lat":43.32342,"lon":5.40624,"is_reserved":false,"is_disabled":false,"rental_uris":{"android":"levelo://app?vid=bd6c18fd-9a57-46ad-b3ec-19f01982a448","ios":"levelo://app?vid=bd6c18fd-9a57-46ad-b3ec-19f01982a448"},"vehicle_type_id":"4","last_reported":1750100908,"current_range_meters":10000,"station_id":"ce4bhq92rcd13ifvqhjg","pricing_plan_id":"cebpf4jnsgd1na2vs0mg"},{"bike_id":"408a7e56-96a9-4c75-8cf5-ba1d3f3ef75f","system_id":"levelo_inurba_marseille","lat":43.28401,"lon":5.3751,"is_reserved":false,"is_disabled":false,"rental_uris":{"android":"levelo://app?vid=408a7e56-96a9-4c75-8cf5-ba1d3f3ef75f","ios":"levelo://app?vid=408a7e56-96a9-4c75-8cf5-ba1d3f3ef75f"},"vehicle_type_id":"4","last_reported":1750100908,"current_range_meters":10800,"station_id":"ce4bh412rcd13ifvqds0","pricing_plan_id":"cebpf4jnsgd1na2vs0mg"},{"bike_id":"90f9c9de-e0ff-4789-bcb3-1464418d3bee","system_id":"levelo_inurba_marseille","lat":43.29267,"lon":5.38447,"is_reserved":false,"is_disabled":false,"rental_uris":{"android":"levelo://app?vid=90f9c9de-e0ff-4789-bcb3-1464418d3bee","ios":"levelo://app?vid=90f9c9de-e0ff-4789-bcb3-1464418d3bee"},"vehicle_type_id":"4","last_reported":1750100908,"current_range_meters":10800,"station_id":"ce4bh692rcd13ifvqea0","pricing_plan_id":"cebpf4jnsgd1na2vs0mg"},{"bike_id":"9d355176-d818-4f9b-8a4f-54cdc847fd55","system_id":"levelo_inurba_marseille","lat":43.284244,"lon":5.349883,"is_reserved":false,"is_disabled":false,"rental_uris":{"android":"levelo://app?vid=9d355176-d818-4f9b-8a4f-54cdc847fd55","ios":"levelo://app?vid=9d355176-d818-4f9b-8a4f-54cdc847fd55"},"vehicle_type_id":"4","last_reported":1750100908,"current_range_meters":10800,"station_id":"ce4bhbh2rcd13ifvqepg","pricing_plan_id":"cebpf4jnsgd1na2vs0mg"},{"bike_id":"c1fe837b-4172-45a6-ae4a-1994637ce174","system_id":"levelo_inurba_marseille","lat":43.24393,"lon":5.37047,"is_reserved":false,"is_disabled":false,"rental_uris":{"android":"levelo://app?vid=c1fe837b-4172-45a6-ae4a-1994637ce174","ios":"levelo://app?vid=c1fe837b-4172-45a6-ae4a-1994637ce174"},"vehicle_type_id":"4","last_reported":1750100908,"current_range_meters":10800,"station_id":"ce4bhhh2rcd13ifvqfk0","pricing_plan_id":"cebpf4jnsgd1na2vs0mg"},{"bike_id":"c8075ccb-7f68-483e-8b9c-a2c8d8db894e","system_id":"levelo_inurba_marseille","lat":43.30419,"lon":5.41282,"is_reserved":false,"is_disabled":false,"rental_uris":{"android":"levelo://app?vid=c8075ccb-7f68-483e-8b9c-a2c8d8db894e","ios":"levelo://app?vid=c8075ccb-7f68-483e-8b9c-a2c8d8db894e"},"vehicle_type_id":"4","last_reported":1750100908,"current_range_meters":10800,"station_id":"ce4bhop2rcd13ifvqh8g","pricing_plan_id":"cebpf4jnsgd1na2vs0mg"},{"bike_id":"25be301b-e50b-4f31-a209-462aec1b4ce5","system_id":"levelo_inurba_marseille","lat":43.212009,"lon":5.350779,"is_reserved":false,"is_disabled":false,"rental_uris":{"android":"levelo://app?vid=25be301b-e50b-4f31-a209-462aec1b4ce5","ios":"levelo://app?vid=25be301b-e50b-4f31-a209-462aec1b4ce5"},"vehicle_type_id":"4","last_reported":1750100908,"current_range_meters":10800,"station_id":"st_cvj6sg6p6f1abm77japg","pricing_plan_id":"cebpf4jnsgd1na2vs0mg"},{"bike_id":"b6e9cbe8-359c-4c2b-a4ad-846afa8fe8ed","system_id":"levelo_inurba_marseille","lat":43.296012,"lon":5.380997,"is_reserved":false,"is_disabled":false,"rental_uris":{"android":"levelo://app?vid=b6e9cbe8-359c-4c2b-a4ad-846afa8fe8ed","ios":"levelo://app?vid=b6e9cbe8-359c-4c2b-a4ad-846afa8fe8ed"},"vehicle_type_id":"4","last_reported":1750100908,"current_range_meters":11200,"station_id":"ce4bgl12rcd13ifvqbo0","pricing_plan_id":"cebpf4jnsgd1na2vs0mg"},{"bike_id":"4b5634bf-aa4e-4816-8d1b-4506168a99ae","system_id":"levelo_inurba_marseille","lat":43.29711,"lon":5.36611,"is_reserved":false,"is_disabled":false,"rental_uris":{"android":"levelo://app?vid=4b5634bf-aa4e-4816-8d1b-4506168a99ae","ios":"levelo://app?vid=4b5634bf-aa4e-4816-8d1b-4506168a99ae"},"vehicle_type_id":"4","last_reported":1750100908,"current_range_meters":11200,"station_id":"ce4bgn12rcd13ifvqbt0","pricing_plan_id":"cebpf4jnsgd1na2vs0mg"},{"bike_id":"609537b7-123c-46cf-8168-8df033f9ec3b","system_id":"levelo_inurba_marseille","lat":43.2987,"lon":5.39733,"is_reserved":false,"is_disabled":false,"rental_uris":{"android":"levelo://app?vid=609537b7-123c-46cf-8168-8df033f9ec3b","ios":"levelo://app?vid=609537b7-123c-46cf-8168-8df033f9ec3b"},"vehicle_type_id":"4","last_reported":1750100908,"current_range_meters":11200,"station_id":"ce4bh0h2rcd13ifvqd50","pricing_plan_id":"cebpf4jnsgd1na2vs0mg"},{"bike_id":"d0fb75e1-01a7-4ed9-9cdf-eb873cefdf44","system_id":"levelo_inurba_marseille","lat":43.29038,"lon":5.3864,"is_reserved":false,"is_disabled":false,"rental_uris":{"android":"levelo://app?vid=d0fb75e1-01a7-4ed9-9cdf-eb873cefdf44","ios":"levelo://app?vid=d0fb75e1-01a7-4ed9-9cdf-eb873cefdf44"},"vehicle_type_id":"4","last_reported":1750100908,"current_range_meters":11200,"station_id":"ce4bh4p2rcd13ifvqe0g","pricing_plan_id":"cebpf4jnsgd1na2vs0mg"},{"bike_id":"88b29388-b22c-4b9b-a806-4180a6c07170","system_id":"levelo_inurba_marseille","lat":43.28862,"lon":5.35856,"is_reserved":false,"is_disabled":false,"rental_uris":{"android":"levelo://app?vid=88b29388-b22c-4b9b-a806-4180a6c07170","ios":"levelo://app?vid=88b29388-b22c-4b9b-a806-4180a6c07170"},"vehicle_type_id":"4","last_reported":1750100908,"current_range_meters":11200,"station_id":"ce4bhb12rcd13ifvqem0","pricing_plan_id":"cebpf4jnsgd1na2vs0mg"},{"bike_id":"4a84802c-4a48-4a81-8d95-25767c5ebeb0","system_id":"levelo_inurba_marseille","lat":43.28421,"lon":5.34988,"is_reserved":false,"is_disabled":false,"rental_uris":{"android":"levelo://app?vid=4a84802c-4a48-4a81-8d95-25767c5ebeb0","ios":"levelo://app?vid=4a84802c-4a48-4a81-8d95-25767c5ebeb0"},"vehicle_type_id":"4","last_reported":1750100908,"current_range_meters":11200,"station_id":"ce4bhbh2rcd13ifvqepg","pricing_plan_id":"cebpf4jnsgd1na2vs0mg"},{"bike_id":"8a1a529e-ae46-40c9-94a6-d98f71acdb4b","system_id":"levelo_inurba_marseille","lat":43.26019,"lon":5.37519,"is_reserved":false,"is_disabled":false,"rental_uris":{"android":"levelo://app?vid=8a1a529e-ae46-40c9-94a6-d98f71acdb4b","ios":"levelo://app?vid=8a1a529e-ae46-40c9-94a6-d98f71acdb4b"},"vehicle_type_id":"4","last_reported":1750100908,"current_range_meters":11200,"station_id":"ce4bhgh2rcd13ifvqfa0","pricing_plan_id":"cebpf4jnsgd1na2vs0mg"},{"bike_id":"9851eae2-c162-4ad8-af28-ea4312727e2d","system_id":"levelo_inurba_marseille","lat":43.26027,"lon":5.3755,"is_reserved":false,"is_disabled":false,"rental_uris":{"android":"levelo://app?vid=9851eae2-c162-4ad8-af28-ea4312727e2d","ios":"levelo://app?vid=9851eae2-c162-4ad8-af28-ea4312727e2d"},"vehicle_type_id":"4","last_reported":1750100908,"current_range_meters":11200,"station_id":"ce4bhgh2rcd13ifvqfa0","pricing_plan_id":"cebpf4jnsgd1na2vs0mg"},{"bike_id":"96b6957b-9065-43ca-aec5-03a99aaacd73","system_id":"levelo_inurba_marseille","lat":43.23968,"lon":5.36625,"is_reserved":false,"is_disabled":false,"rental_uris":{"android":"levelo://app?vid=96b6957b-9065-43ca-aec5-03a99aaacd73","ios":"levelo://app?vid=96b6957b-9065-43ca-aec5-03a99aaacd73"},"vehicle_type_id":"4","last_reported":1750100908,"current_range_meters":11200,"station_id":"ce4bhi12rcd13ifvqfp0","pricing_plan_id":"cebpf4jnsgd1na2vs0mg"},{"bike_id":"a66728c4-f2e7-428e-b872-e7406fb70732","system_id":"levelo_inurba_marseille","lat":43.212004,"lon":5.350792,"is_reserved":false,"is_disabled":false,"rental_uris":{"android":"levelo://app?vid=a66728c4-f2e7-428e-b872-e7406fb70732","ios":"levelo://app?vid=a66728c4-f2e7-428e-b872-e7406fb70732"},"vehicle_type_id":"4","last_reported":1750100908,"current_range_meters":11200,"station_id":"st_cvj6sg6p6f1abm77japg","pricing_plan_id":"cebpf4jnsgd1na2vs0mg"},{"bike_id":"0784eda7-7d16-40e4-8836-27712f3953cc","system_id":"levelo_inurba_marseille","lat":43.29531,"lon":5.38543,"is_reserved":false,"is_disabled":false,"rental_uris":{"android":"levelo://app?vid=0784eda7-7d16-40e4-8836-27712f3953cc","ios":"levelo://app?vid=0784eda7-7d16-40e4-8836-27712f3953cc"},"vehicle_type_id":"4","last_reported":1750100908,"current_range_meters":11600,"station_id":"ce4bgih2rcd13ifvqba0","pricing_plan_id":"cebpf4jnsgd1na2vs0mg"},{"bike_id":"2fcc9a41-8113-4985-8e25-e14ecf131ad4","system_id":"levelo_inurba_marseille","lat":43.31364,"lon":5.38501,"is_reserved":false,"is_disabled":false,"rental_uris":{"android":"levelo://app?vid=2fcc9a41-8113-4985-8e25-e14ecf131ad4","ios":"levelo://app?vid=2fcc9a41-8113-4985-8e25-e14ecf131ad4"},"vehicle_type_id":"4","last_reported":1750100908,"current_range_meters":11600,"station_id":"ce4bgt92rcd13ifvqcf0","pricing_plan_id":"cebpf4jnsgd1na2vs0mg"},{"bike_id":"d2c1a0ca-5367-4619-b0c8-51326504b462","system_id":"levelo_inurba_marseille","lat":43.30892,"lon":5.39616,"is_reserved":false,"is_disabled":false,"rental_uris":{"android":"levelo://app?vid=d2c1a0ca-5367-4619-b0c8-51326504b462","ios":"levelo://app?vid=d2c1a0ca-5367-4619-b0c8-51326504b462"},"vehicle_type_id":"4","last_reported":1750100908,"current_range_meters":11600,"station_id":"ce4bh012rcd13ifvqcv0","pricing_plan_id":"cebpf4jnsgd1na2vs0mg"},{"bike_id":"53246a1f-8641-45a8-99bc-7cfd965b0479","system_id":"levelo_inurba_marseille","lat":43.28572,"lon":5.39498,"is_reserved":false,"is_disabled":false,"rental_uris":{"android":"levelo://app?vid=53246a1f-8641-45a8-99bc-7cfd965b0479","ios":"levelo://app?vid=53246a1f-8641-45a8-99bc-7cfd965b0479"},"vehicle_type_id":"4","last_reported":1750100908,"current_range_meters":11600,"station_id":"ce4bh292rcd13ifvqdg0","pricing_plan_id":"cebpf4jnsgd1na2vs0mg"},{"bike_id":"b9fc6d28-f37c-4c31-9311-f5fc6b238aa8","system_id":"levelo_inurba_marseille","lat":43.29064,"lon":5.37173,"is_reserved":false,"is_disabled":false,"rental_uris":{"android":"levelo://app?vid=b9fc6d28-f37c-4c31-9311-f5fc6b238aa8","ios":"levelo://app?vid=b9fc6d28-f37c-4c31-9311-f5fc6b238aa8"},"vehicle_type_id":"4","last_reported":1750100908,"current_range_meters":11600,"station_id":"ce4bh5p2rcd13ifvqe4g","pricing_plan_id":"cebpf4jnsgd1na2vs0mg"},{"bike_id":"d0c6b551-4765-4114-aa10-e8fbbdc1a4a7","system_id":"levelo_inurba_marseille","lat":43.27371,"lon":5.364,"is_reserved":false,"is_disabled":false,"rental_uris":{"android":"levelo://app?vid=d0c6b551-4765-4114-aa10-e8fbbdc1a4a7","ios":"levelo://app?vid=d0c6b551-4765-4114-aa10-e8fbbdc1a4a7"},"vehicle_type_id":"4","last_reported":1750100908,"current_range_meters":12000,"station_id":"","pricing_plan_id":"cebpf4jnsgd1na2vs0mg"},{"bike_id":"da3e1724-606c-4f9a-9130-d56dd48e22e0","system_id":"levelo_inurba_marseille","lat":43.32915,"lon":5.40589,"is_reserved":false,"is_disabled":false,"rental_uris":{"android":"levelo://app?vid=da3e1724-606c-4f9a-9130-d56dd48e22e0","ios":"levelo://app?vid=da3e1724-606c-4f9a-9130-d56dd48e22e0"},"vehicle_type_id":"4","last_reported":1750100908,"current_range_meters":12000,"station_id":"","pricing_plan_id":"cebpf4jnsgd1na2vs0mg"},{"bike_id":"64c6d212-acc6-47e3-9e04-fbaf04a7ed4e","system_id":"levelo_inurba_marseille","lat":43.26988,"lon":5.38762,"is_reserved":false,"is_disabled":false,"rental_uris":{"android":"levelo://app?vid=64c6d212-acc6-47e3-9e04-fbaf04a7ed4e","ios":"levelo://app?vid=64c6d212-acc6-47e3-9e04-fbaf04a7ed4e"},"vehicle_type_id":"4","last_reported":1750100908,"current_range_meters":12000,"station_id":"","pricing_plan_id":"cebpf4jnsgd1na2vs0mg"},{"bike_id":"eede1a04-3db2-4c45-ac93-9243a6c852b7","system_id":"levelo_inurba_marseille","lat":43.2992,"lon":5.374887,"is_reserved":false,"is_disabled":false,"rental_uris":{"android":"levelo://app?vid=eede1a04-3db2-4c45-ac93-9243a6c852b7","ios":"levelo://app?vid=eede1a04-3db2-4c45-ac93-9243a6c852b7"},"vehicle_type_id":"4","last_reported":1750100908,"current_range_meters":12000,"station_id":"ce4bgjh2rcd13ifvqbg0","pricing_plan_id":"cebpf4jnsgd1na2vs0mg"},{"bike_id":"9005d0b9-c65c-4c3b-8dbe-d83b26c50c4e","system_id":"levelo_inurba_marseille","lat":43.29601,"lon":5.38113,"is_reserved":false,"is_disabled":false,"rental_uris":{"android":"levelo://app?vid=9005d0b9-c65c-4c3b-8dbe-d83b26c50c4e","ios":"levelo://app?vid=9005d0b9-c65c-4c3b-8dbe-d83b26c50c4e"},"vehicle_type_id":"4","last_reported":1750100908,"current_range_meters":12000,"station_id":"ce4bgl12rcd13ifvqbo0","pricing_plan_id":"cebpf4jnsgd1na2vs0mg"},{"bike_id":"b4d63fbc-28f7-4e9a-9e63-650858128a71","system_id":"levelo_inurba_marseille","lat":43.29519,"lon":5.39411,"is_reserved":false,"is_disabled":false,"rental_uris":{"android":"levelo://app?vid=b4d63fbc-28f7-4e9a-9e63-650858128a71","ios":"levelo://app?vid=b4d63fbc-28f7-4e9a-9e63-650858128a71"},"vehicle_type_id":"4","last_reported":1750100908,"current_range_meters":12000,"station_id":"ce4bh292rcd13ifvqdf0","pricing_plan_id":"cebpf4jnsgd1na2vs0mg"},{"bike_id":"88d4fd99-6294-4e6d-a1d4-ea2437f96cef","system_id":"levelo_inurba_marseille","lat":43.27374,"lon":5.3625,"is_reserved":false,"is_disabled":false,"rental_uris":{"android":"levelo://app?vid=88d4fd99-6294-4e6d-a1d4-ea2437f96cef","ios":"levelo://app?vid=88d4fd99-6294-4e6d-a1d4-ea2437f96cef"},"vehicle_type_id":"4","last_reported":1750100908,"current_range_meters":12000,"station_id":"ce4bhbh2rcd13ifvqeo0","pricing_plan_id":"cebpf4jnsgd1na2vs0mg"},{"bike_id":"874abac4-f2b3-4fc6-ba72-379d3b298e3b","system_id":"levelo_inurba_marseille","lat":43.25105,"lon":5.40324,"is_reserved":false,"is_disabled":false,"rental_uris":{"android":"levelo://app?vid=874abac4-f2b3-4fc6-ba72-379d3b298e3b","ios":"levelo://app?vid=874abac4-f2b3-4fc6-ba72-379d3b298e3b"},"vehicle_type_id":"4","last_reported":1750100908,"current_range_meters":12000,"station_id":"ce4bhlh2rcd13ifvqgig","pricing_plan_id":"cebpf4jnsgd1na2vs0mg"},{"bike_id":"8c6e3f5c-fbd9-4abe-a7be-ece848b4fc54","system_id":"levelo_inurba_marseille","lat":43.30808,"lon":5.43518,"is_reserved":false,"is_disabled":false,"rental_uris":{"android":"levelo://app?vid=8c6e3f5c-fbd9-4abe-a7be-ece848b4fc54","ios":"levelo://app?vid=8c6e3f5c-fbd9-4abe-a7be-ece848b4fc54"},"vehicle_type_id":"4","last_reported":1750100908,"current_range_meters":12000,"station_id":"ce4bhph2rcd13ifvqheg","pricing_plan_id":"cebpf4jnsgd1na2vs0mg"},{"bike_id":"375eaea8-6916-41aa-b3a9-2ba69a0f0544","system_id":"levelo_inurba_marseille","lat":43.32111,"lon":5.36772,"is_reserved":false,"is_disabled":false,"rental_uris":{"android":"levelo://app?vid=375eaea8-6916-41aa-b3a9-2ba69a0f0544","ios":"levelo://app?vid=375eaea8-6916-41aa-b3a9-2ba69a0f0544"},"vehicle_type_id":"4","last_reported":1750100908,"current_range_meters":12000,"station_id":"ce4bhrh2rcd13ifvqhug","pricing_plan_id":"cebpf4jnsgd1na2vs0mg"},{"bike_id":"eab12a2b-9bea-4389-86db-1b25ce303db4","system_id":"levelo_inurba_marseille","lat":43.29448,"lon":5.39756,"is_reserved":false,"is_disabled":false,"rental_uris":{"android":"levelo://app?vid=eab12a2b-9bea-4389-86db-1b25ce303db4","ios":"levelo://app?vid=eab12a2b-9bea-4389-86db-1b25ce303db4"},"vehicle_type_id":"4","last_reported":1750100908,"current_range_meters":12400,"station_id":"ce4bh3h2rcd13ifvqdo0","pricing_plan_id":"cebpf4jnsgd1na2vs0mg"},{"bike_id":"36eeb858-56d7-415e-a056-5a92580a063d","system_id":"levelo_inurba_marseille","lat":43.28713,"lon":5.37383,"is_reserved":false,"is_disabled":false,"rental_uris":{"android":"levelo://app?vid=36eeb858-56d7-415e-a056-5a92580a063d","ios":"levelo://app?vid=36eeb858-56d7-415e-a056-5a92580a063d"},"vehicle_type_id":"4","last_reported":1750100908,"current_range_meters":12400,"station_id":"ce4bh3p2rcd13ifvqdq0","pricing_plan_id":"cebpf4jnsgd1na2vs0mg"},{"bike_id":"ae058020-8800-40be-9fdf-0734d9f4ff8b","system_id":"levelo_inurba_marseille","lat":43.2925,"lon":5.38442,"is_reserved":false,"is_disabled":false,"rental_uris":{"android":"levelo://app?vid=ae058020-8800-40be-9fdf-0734d9f4ff8b","ios":"levelo://app?vid=ae058020-8800-40be-9fdf-0734d9f4ff8b"},"vehicle_type_id":"4","last_reported":1750100908,"current_range_meters":12400,"station_id":"ce4bh692rcd13ifvqea0","pricing_plan_id":"cebpf4jnsgd1na2vs0mg"},{"bike_id":"48e98c35-6eaf-4651-a68c-7876f7d82eba","system_id":"levelo_inurba_marseille","lat":43.24828,"lon":5.37465,"is_reserved":false,"is_disabled":false,"rental_uris":{"android":"levelo://app?vid=48e98c35-6eaf-4651-a68c-7876f7d82eba","ios":"levelo://app?vid=48e98c35-6eaf-4651-a68c-7876f7d82eba"},"vehicle_type_id":"4","last_reported":1750100908,"current_range_meters":12400,"station_id":"ce4bhgh2rcd13ifvqfb0","pricing_plan_id":"cebpf4jnsgd1na2vs0mg"},{"bike_id":"398a0bbf-4f1e-4b6e-a4e1-0e8ceb1b1dbe","system_id":"levelo_inurba_marseille","lat":43.239609,"lon":5.366232,"is_reserved":false,"is_disabled":false,"rental_uris":{"android":"levelo://app?vid=398a0bbf-4f1e-4b6e-a4e1-0e8ceb1b1dbe","ios":"levelo://app?vid=398a0bbf-4f1e-4b6e-a4e1-0e8ceb1b1dbe"},"vehicle_type_id":"4","last_reported":1750100908,"current_range_meters":12400,"station_id":"ce4bhi12rcd13ifvqfp0","pricing_plan_id":"cebpf4jnsgd1na2vs0mg"},{"bike_id":"17cb6670-90eb-4b74-a1d1-e563b971ca41","system_id":"levelo_inurba_marseille","lat":43.25862,"lon":5.39896,"is_reserved":false,"is_disabled":false,"rental_uris":{"android":"levelo://app?vid=17cb6670-90eb-4b74-a1d1-e563b971ca41","ios":"levelo://app?vid=17cb6670-90eb-4b74-a1d1-e563b971ca41"},"vehicle_type_id":"4","last_reported":1750100908,"current_range_meters":12400,"station_id":"ce4bhl92rcd13ifvqghg","pricing_plan_id":"cebpf4jnsgd1na2vs0mg"},{"bike_id":"d45ec67e-260c-4066-b157-7f1828c67a32","system_id":"levelo_inurba_marseille","lat":43.24071,"lon":5.37767,"is_reserved":false,"is_disabled":false,"rental_uris":{"android":"levelo://app?vid=d45ec67e-260c-4066-b157-7f1828c67a32","ios":"levelo://app?vid=d45ec67e-260c-4066-b157-7f1828c67a32"},"vehicle_type_id":"4","last_reported":1750100908,"current_range_meters":12400,"station_id":"ce4bhnp2rcd13ifvqgvg","pricing_plan_id":"cebpf4jnsgd1na2vs0mg"},{"bike_id":"88b81483-0f47-48bd-8d34-03410d852140","system_id":"levelo_inurba_marseille","lat":43.30356,"lon":5.41881,"is_reserved":false,"is_disabled":false,"rental_uris":{"android":"levelo://app?vid=88b81483-0f47-48bd-8d34-03410d852140","ios":"levelo://app?vid=88b81483-0f47-48bd-8d34-03410d852140"},"vehicle_type_id":"4","last_reported":1750100908,"current_range_meters":12400,"station_id":"ce4bhop2rcd13ifvqh7g","pricing_plan_id":"cebpf4jnsgd1na2vs0mg"},{"bike_id":"644fd586-93d7-497b-af04-db435fd96d59","system_id":"levelo_inurba_marseille","lat":43.32661,"lon":5.40997,"is_reserved":false,"is_disabled":false,"rental_uris":{"android":"levelo://app?vid=644fd586-93d7-497b-af04-db435fd96d59","ios":"levelo://app?vid=644fd586-93d7-497b-af04-db435fd96d59"},"vehicle_type_id":"4","last_reported":1750100908,"current_range_meters":12400,"station_id":"ce4bhpp2rcd13ifvqhgg","pricing_plan_id":"cebpf4jnsgd1na2vs0mg"},{"bike_id":"7899e2f4-235b-449a-b0d2-d1c4929fe5d9","system_id":"levelo_inurba_marseille","lat":43.28727,"lon":5.36088,"is_reserved":false,"is_disabled":false,"rental_uris":{"android":"levelo://app?vid=7899e2f4-235b-449a-b0d2-d1c4929fe5d9","ios":"levelo://app?vid=7899e2f4-235b-449a-b0d2-d1c4929fe5d9"},"vehicle_type_id":"4","last_reported":1750100908,"current_range_meters":12800,"station_id":"","pricing_plan_id":"cebpf4jnsgd1na2vs0mg"},{"bike_id":"356258c8-0ad6-493b-b5a4-77e865070f65","system_id":"levelo_inurba_marseille","lat":43.32614,"lon":5.41981,"is_reserved":false,"is_disabled":false,"rental_uris":{"android":"levelo://app?vid=356258c8-0ad6-493b-b5a4-77e865070f65","ios":"levelo://app?vid=356258c8-0ad6-493b-b5a4-77e865070f65"},"vehicle_type_id":"4","last_reported":1750100908,"current_range_meters":12800,"station_id":"","pricing_plan_id":"cebpf4jnsgd1na2vs0mg"},{"bike_id":"39d7b8ee-067d-4000-83c6-9fd248616822","system_id":"levelo_inurba_marseille","lat":43.28358,"lon":5.38646,"is_reserved":false,"is_disabled":false,"rental_uris":{"android":"levelo://app?vid=39d7b8ee-067d-4000-83c6-9fd248616822","ios":"levelo://app?vid=39d7b8ee-067d-4000-83c6-9fd248616822"},"vehicle_type_id":"4","last_reported":1750100908,"current_range_meters":12800,"station_id":"ce4bh492rcd13ifvqdvg","pricing_plan_id":"cebpf4jnsgd1na2vs0mg"},{"bike_id":"decda955-c040-4aa0-bbb0-1613443766a0","system_id":"levelo_inurba_marseille","lat":43.292667,"lon":5.38433,"is_reserved":false,"is_disabled":false,"rental_uris":{"android":"levelo://app?vid=decda955-c040-4aa0-bbb0-1613443766a0","ios":"levelo://app?vid=decda955-c040-4aa0-bbb0-1613443766a0"},"vehicle_type_id":"4","last_reported":1750100908,"current_range_meters":12800,"station_id":"ce4bh692rcd13ifvqea0","pricing_plan_id":"cebpf4jnsgd1na2vs0mg"},{"bike_id":"8564f32d-7ec3-402f-8ddf-911d0c319214","system_id":"levelo_inurba_marseille","lat":43.24682,"lon":5.38153,"is_reserved":false,"is_disabled":false,"rental_uris":{"android":"levelo://app?vid=8564f32d-7ec3-402f-8ddf-911d0c319214","ios":"levelo://app?vid=8564f32d-7ec3-402f-8ddf-911d0c319214"},"vehicle_type_id":"4","last_reported":1750100908,"current_range_meters":12800,"station_id":"ce4bhih2rcd13ifvqfr0","pricing_plan_id":"cebpf4jnsgd1na2vs0mg"},{"bike_id":"d2868572-6fee-4690-8a81-283adbeec80c","system_id":"levelo_inurba_marseille","lat":43.21198,"lon":5.35068,"is_reserved":false,"is_disabled":false,"rental_uris":{"android":"levelo://app?vid=d2868572-6fee-4690-8a81-283adbeec80c","ios":"levelo://app?vid=d2868572-6fee-4690-8a81-283adbeec80c"},"vehicle_type_id":"4","last_reported":1750100908,"current_range_meters":12800,"station_id":"st_cvj6sg6p6f1abm77japg","pricing_plan_id":"cebpf4jnsgd1na2vs0mg"},{"bike_id":"6e43462c-4149-4a1b-99ef-805b12b766cf","system_id":"levelo_inurba_marseille","lat":43.29271,"lon":5.37638,"is_reserved":false,"is_disabled":false,"rental_uris":{"android":"levelo://app?vid=6e43462c-4149-4a1b-99ef-805b12b766cf","ios":"levelo://app?vid=6e43462c-4149-4a1b-99ef-805b12b766cf"},"vehicle_type_id":"4","last_reported":1750100908,"current_range_meters":13600,"station_id":"ce4bgi12rcd13ifvqb80","pricing_plan_id":"cebpf4jnsgd1na2vs0mg"},{"bike_id":"54140314-f8b8-4e10-b914-d2426efd86cb","system_id":"levelo_inurba_marseille","lat":43.31113,"lon":5.37761,"is_reserved":false,"is_disabled":false,"rental_uris":{"android":"levelo://app?vid=54140314-f8b8-4e10-b914-d2426efd86cb","ios":"levelo://app?vid=54140314-f8b8-4e10-b914-d2426efd86cb"},"vehicle_type_id":"4","last_reported":1750100908,"current_range_meters":13600,"station_id":"ce4bgt92rcd13ifvqcg0","pricing_plan_id":"cebpf4jnsgd1na2vs0mg"},{"bike_id":"9b2e2903-fe1c-4982-9085-35d7a918939c","system_id":"levelo_inurba_marseille","lat":43.29208,"lon":5.35789,"is_reserved":false,"is_disabled":false,"rental_uris":{"android":"levelo://app?vid=9b2e2903-fe1c-4982-9085-35d7a918939c","ios":"levelo://app?vid=9b2e2903-fe1c-4982-9085-35d7a918939c"},"vehicle_type_id":"4","last_reported":1750100908,"current_range_meters":13600,"station_id":"ce4bhb12rcd13ifvqel0","pricing_plan_id":"cebpf4jnsgd1na2vs0mg"},{"bike_id":"e9307d5b-81f6-412e-ab0e-5f6acb32333c","system_id":"levelo_inurba_marseille","lat":43.2737,"lon":5.36243,"is_reserved":false,"is_disabled":false,"rental_uris":{"android":"levelo://app?vid=e9307d5b-81f6-412e-ab0e-5f6acb32333c","ios":"levelo://app?vid=e9307d5b-81f6-412e-ab0e-5f6acb32333c"},"vehicle_type_id":"4","last_reported":1750100908,"current_range_meters":13600,"station_id":"ce4bhbh2rcd13ifvqeo0","pricing_plan_id":"cebpf4jnsgd1na2vs0mg"},{"bike_id":"7c7160a5-cf44-4137-822d-c88eca1871ed","system_id":"levelo_inurba_marseille","lat":43.27378,"lon":5.36237,"is_reserved":false,"is_disabled":false,"rental_uris":{"android":"levelo://app?vid=7c7160a5-cf44-4137-822d-c88eca1871ed","ios":"levelo://app?vid=7c7160a5-cf44-4137-822d-c88eca1871ed"},"vehicle_type_id":"4","last_reported":1750100908,"current_range_meters":13600,"station_id":"ce4bhbh2rcd13ifvqeo0","pricing_plan_id":"cebpf4jnsgd1na2vs0mg"},{"bike_id":"587e3277-443e-4556-be4c-0115d18dcf63","system_id":"levelo_inurba_marseille","lat":43.28615,"lon":5.35096,"is_reserved":false,"is_disabled":false,"rental_uris":{"android":"levelo://app?vid=587e3277-443e-4556-be4c-0115d18dcf63","ios":"levelo://app?vid=587e3277-443e-4556-be4c-0115d18dcf63"},"vehicle_type_id":"4","last_reported":1750100908,"current_range_meters":13600,"station_id":"ce4bhch2rcd13ifvqeug","pricing_plan_id":"cebpf4jnsgd1na2vs0mg"},{"bike_id":"c1ba07ad-731d-49d8-9fd6-a826431f3438","system_id":"levelo_inurba_marseille","lat":43.29896,"lon":5.43671,"is_reserved":false,"is_disabled":false,"rental_uris":{"android":"levelo://app?vid=c1ba07ad-731d-49d8-9fd6-a826431f3438","ios":"levelo://app?vid=c1ba07ad-731d-49d8-9fd6-a826431f3438"},"vehicle_type_id":"4","last_reported":1750100908,"current_range_meters":13600,"station_id":"ce4bhpp2rcd13ifvqhfg","pricing_plan_id":"cebpf4jnsgd1na2vs0mg"},{"bike_id":"7782073e-910d-440c-983d-4840b233b3ee","system_id":"levelo_inurba_marseille","lat":43.29979,"lon":5.38497,"is_reserved":false,"is_disabled":false,"rental_uris":{"android":"levelo://app?vid=7782073e-910d-440c-983d-4840b233b3ee","ios":"levelo://app?vid=7782073e-910d-440c-983d-4840b233b3ee"},"vehicle_type_id":"4","last_reported":1750100908,"current_range_meters":14000,"station_id":"ce4bgj92rcd13ifvqbd0","pricing_plan_id":"cebpf4jnsgd1na2vs0mg"},{"bike_id":"786981bd-879f-4e24-8e59-386dfe20c412","system_id":"levelo_inurba_marseille","lat":43.30132,"lon":5.39855,"is_reserved":false,"is_disabled":false,"rental_uris":{"android":"levelo://app?vid=786981bd-879f-4e24-8e59-386dfe20c412","ios":"levelo://app?vid=786981bd-879f-4e24-8e59-386dfe20c412"},"vehicle_type_id":"4","last_reported":1750100908,"current_range_meters":14000,"station_id":"ce4bh0h2rcd13ifvqd40","pricing_plan_id":"cebpf4jnsgd1na2vs0mg"},{"bike_id":"8108e1ee-7f98-4048-b539-be7d3126fc9d","system_id":"levelo_inurba_marseille","lat":43.2842,"lon":5.37498,"is_reserved":false,"is_disabled":false,"rental_uris":{"android":"levelo://app?vid=8108e1ee-7f98-4048-b539-be7d3126fc9d","ios":"levelo://app?vid=8108e1ee-7f98-4048-b539-be7d3126fc9d"},"vehicle_type_id":"4","last_reported":1750100908,"current_range_meters":14000,"station_id":"ce4bh412rcd13ifvqds0","pricing_plan_id":"cebpf4jnsgd1na2vs0mg"},{"bike_id":"9134762b-0bd2-453d-94d9-c3bca4107b3e","system_id":"levelo_inurba_marseille","lat":43.24814,"lon":5.37451,"is_reserved":false,"is_disabled":false,"rental_uris":{"android":"levelo://app?vid=9134762b-0bd2-453d-94d9-c3bca4107b3e","ios":"levelo://app?vid=9134762b-0bd2-453d-94d9-c3bca4107b3e"},"vehicle_type_id":"4","last_reported":1750100908,"current_range_meters":14000,"station_id":"ce4bhgh2rcd13ifvqfb0","pricing_plan_id":"cebpf4jnsgd1na2vs0mg"},{"bike_id":"ff3e1354-47e0-4719-87c5-08dbc5c733f5","system_id":"levelo_inurba_marseille","lat":43.23974,"lon":5.36598,"is_reserved":false,"is_disabled":false,"rental_uris":{"android":"levelo://app?vid=ff3e1354-47e0-4719-87c5-08dbc5c733f5","ios":"levelo://app?vid=ff3e1354-47e0-4719-87c5-08dbc5c733f5"},"vehicle_type_id":"4","last_reported":1750100908,"current_range_meters":14000,"station_id":"ce4bhi12rcd13ifvqfp0","pricing_plan_id":"cebpf4jnsgd1na2vs0mg"},{"bike_id":"6b75a80e-12fa-4bd0-b8db-b509b9abce19","system_id":"levelo_inurba_marseille","lat":43.21207,"lon":5.35064,"is_reserved":false,"is_disabled":false,"rental_uris":{"android":"levelo://app?vid=6b75a80e-12fa-4bd0-b8db-b509b9abce19","ios":"levelo://app?vid=6b75a80e-12fa-4bd0-b8db-b509b9abce19"},"vehicle_type_id":"4","last_reported":1750100908,"current_range_meters":14000,"station_id":"st_cvj6sg6p6f1abm77japg","pricing_plan_id":"cebpf4jnsgd1na2vs0mg"},{"bike_id":"d247f4ab-211a-407b-9290-4f185f6cd66a","system_id":"levelo_inurba_marseille","lat":43.21193,"lon":5.35058,"is_reserved":false,"is_disabled":false,"rental_uris":{"android":"levelo://app?vid=d247f4ab-211a-407b-9290-4f185f6cd66a","ios":"levelo://app?vid=d247f4ab-211a-407b-9290-4f185f6cd66a"},"vehicle_type_id":"4","last_reported":1750100908,"current_range_meters":14000,"station_id":"st_cvj6sg6p6f1abm77japg","pricing_plan_id":"cebpf4jnsgd1na2vs0mg"},{"bike_id":"359f8b37-6ef5-4a21-a5ad-2946b7f24955","system_id":"levelo_inurba_marseille","lat":43.31762,"lon":5.4246,"is_reserved":false,"is_disabled":false,"rental_uris":{"android":"levelo://app?vid=359f8b37-6ef5-4a21-a5ad-2946b7f24955","ios":"levelo://app?vid=359f8b37-6ef5-4a21-a5ad-2946b7f24955"},"vehicle_type_id":"4","last_reported":1750100908,"current_range_meters":14400,"station_id":"","pricing_plan_id":"cebpf4jnsgd1na2vs0mg"},{"bike_id":"2ae80011-f8d5-43f5-b5c8-9e65a89521ca","system_id":"levelo_inurba_marseille","lat":43.29541,"lon":5.3743,"is_reserved":false,"is_disabled":false,"rental_uris":{"android":"levelo://app?vid=2ae80011-f8d5-43f5-b5c8-9e65a89521ca","ios":"levelo://app?vid=2ae80011-f8d5-43f5-b5c8-9e65a89521ca"},"vehicle_type_id":"4","last_reported":1750100908,"current_range_meters":14400,"station_id":"","pricing_plan_id":"cebpf4jnsgd1na2vs0mg"},{"bike_id":"757906b4-eb86-4ed8-a0a5-7f582bcde75a","system_id":"levelo_inurba_marseille","lat":43.265332,"lon":5.395246,"is_reserved":false,"is_disabled":false,"rental_uris":{"android":"levelo://app?vid=757906b4-eb86-4ed8-a0a5-7f582bcde75a","ios":"levelo://app?vid=757906b4-eb86-4ed8-a0a5-7f582bcde75a"},"vehicle_type_id":"4","last_reported":1750100908,"current_range_meters":14400,"station_id":"","pricing_plan_id":"cebpf4jnsgd1na2vs0mg"},{"bike_id":"d05c512f-ecf8-4d54-8646-fa719dc17ab7","system_id":"levelo_inurba_marseille","lat":43.27584,"lon":5.41754,"is_reserved":false,"is_disabled":false,"rental_uris":{"android":"levelo://app?vid=d05c512f-ecf8-4d54-8646-fa719dc17ab7","ios":"levelo://app?vid=d05c512f-ecf8-4d54-8646-fa719dc17ab7"},"vehicle_type_id":"4","last_reported":1750100908,"current_range_meters":14400,"station_id":"","pricing_plan_id":"cebpf4jnsgd1na2vs0mg"},{"bike_id":"113226f3-5522-464f-a55d-3826c86b07fd","system_id":"levelo_inurba_marseille","lat":43.29535,"lon":5.38547,"is_reserved":false,"is_disabled":false,"rental_uris":{"android":"levelo://app?vid=113226f3-5522-464f-a55d-3826c86b07fd","ios":"levelo://app?vid=113226f3-5522-464f-a55d-3826c86b07fd"},"vehicle_type_id":"4","last_reported":1750100908,"current_range_meters":14400,"station_id":"ce4bgih2rcd13ifvqba0","pricing_plan_id":"cebpf4jnsgd1na2vs0mg"},{"bike_id":"0a7bedf7-0eaa-4c47-9c56-ca0550e7062e","system_id":"levelo_inurba_marseille","lat":43.29193,"lon":5.39325,"is_reserved":false,"is_disabled":false,"rental_uris":{"android":"levelo://app?vid=0a7bedf7-0eaa-4c47-9c56-ca0550e7062e","ios":"levelo://app?vid=0a7bedf7-0eaa-4c47-9c56-ca0550e7062e"},"vehicle_type_id":"4","last_reported":1750100908,"current_range_meters":14400,"station_id":"ce4bh192rcd13ifvqdd0","pricing_plan_id":"cebpf4jnsgd1na2vs0mg"},{"bike_id":"c70f2948-35aa-4931-91a0-30f51b3792de","system_id":"levelo_inurba_marseille","lat":43.27377,"lon":5.36248,"is_reserved":false,"is_disabled":false,"rental_uris":{"android":"levelo://app?vid=c70f2948-35aa-4931-91a0-30f51b3792de","ios":"levelo://app?vid=c70f2948-35aa-4931-91a0-30f51b3792de"},"vehicle_type_id":"4","last_reported":1750100908,"current_range_meters":14400,"station_id":"ce4bhbh2rcd13ifvqeo0","pricing_plan_id":"cebpf4jnsgd1na2vs0mg"},{"bike_id":"ce681b13-33c2-42cd-8516-b72e3aaf1212","system_id":"levelo_inurba_marseille","lat":43.28425,"lon":5.37521,"is_reserved":false,"is_disabled":false,"rental_uris":{"android":"levelo://app?vid=ce681b13-33c2-42cd-8516-b72e3aaf1212","ios":"levelo://app?vid=ce681b13-33c2-42cd-8516-b72e3aaf1212"},"vehicle_type_id":"4","last_reported":1750100908,"current_range_meters":14800,"station_id":"ce4bh412rcd13ifvqds0","pricing_plan_id":"cebpf4jnsgd1na2vs0mg"},{"bike_id":"e83485c9-6882-402f-b854-1902b875d9db","system_id":"levelo_inurba_marseille","lat":43.27078,"lon":5.42282,"is_reserved":false,"is_disabled":false,"rental_uris":{"android":"levelo://app?vid=e83485c9-6882-402f-b854-1902b875d9db","ios":"levelo://app?vid=e83485c9-6882-402f-b854-1902b875d9db"},"vehicle_type_id":"4","last_reported":1750100908,"current_range_meters":14800,"station_id":"ce4bhk92rcd13ifvqgb0","pricing_plan_id":"cebpf4jnsgd1na2vs0mg"},{"bike_id":"e1c3031a-cfe2-4224-9867-102b64096bd8","system_id":"levelo_inurba_marseille","lat":43.29475,"lon":5.38614,"is_reserved":false,"is_disabled":false,"rental_uris":{"android":"levelo://app?vid=e1c3031a-cfe2-4224-9867-102b64096bd8","ios":"levelo://app?vid=e1c3031a-cfe2-4224-9867-102b64096bd8"},"vehicle_type_id":"4","last_reported":1750100908,"current_range_meters":15200,"station_id":"","pricing_plan_id":"cebpf4jnsgd1na2vs0mg"},{"bike_id":"0e1040a4-5b91-4f5d-a243-54caba80cba4","system_id":"levelo_inurba_marseille","lat":43.29197,"lon":5.39321,"is_reserved":false,"is_disabled":false,"rental_uris":{"android":"levelo://app?vid=0e1040a4-5b91-4f5d-a243-54caba80cba4","ios":"levelo://app?vid=0e1040a4-5b91-4f5d-a243-54caba80cba4"},"vehicle_type_id":"4","last_reported":1750100908,"current_range_meters":15200,"station_id":"ce4bh192rcd13ifvqdd0","pricing_plan_id":"cebpf4jnsgd1na2vs0mg"},{"bike_id":"25960fd9-8509-4555-9b23-fa4fae1e21d0","system_id":"levelo_inurba_marseille","lat":43.29016,"lon":5.38208,"is_reserved":false,"is_disabled":false,"rental_uris":{"android":"levelo://app?vid=25960fd9-8509-4555-9b23-fa4fae1e21d0","ios":"levelo://app?vid=25960fd9-8509-4555-9b23-fa4fae1e21d0"},"vehicle_type_id":"4","last_reported":1750100908,"current_range_meters":16000,"station_id":"","pricing_plan_id":"cebpf4jnsgd1na2vs0mg"},{"bike_id":"a5829ee6-f343-4196-9958-767ccccb2abe","system_id":"levelo_inurba_marseille","lat":43.27623,"lon":5.36104,"is_reserved":false,"is_disabled":false,"rental_uris":{"android":"levelo://app?vid=a5829ee6-f343-4196-9958-767ccccb2abe","ios":"levelo://app?vid=a5829ee6-f343-4196-9958-767ccccb2abe"},"vehicle_type_id":"4","last_reported":1750100908,"current_range_meters":16000,"station_id":"ce4bgj92rcd13ifvqbe0","pricing_plan_id":"cebpf4jnsgd1na2vs0mg"},{"bike_id":"f35bd3a4-cce0-441e-8dd7-7d3fc1ec9ed5","system_id":"levelo_inurba_marseille","lat":43.28854,"lon":5.35866,"is_reserved":false,"is_disabled":false,"rental_uris":{"android":"levelo://app?vid=f35bd3a4-cce0-441e-8dd7-7d3fc1ec9ed5","ios":"levelo://app?vid=f35bd3a4-cce0-441e-8dd7-7d3fc1ec9ed5"},"vehicle_type_id":"4","last_reported":1750100908,"current_range_meters":16000,"station_id":"ce4bhb12rcd13ifvqem0","pricing_plan_id":"cebpf4jnsgd1na2vs0mg"},{"bike_id":"c6e11e18-206f-4bff-84da-d0aa44e03a49","system_id":"levelo_inurba_marseille","lat":43.27393,"lon":5.3625,"is_reserved":false,"is_disabled":false,"rental_uris":{"android":"levelo://app?vid=c6e11e18-206f-4bff-84da-d0aa44e03a49","ios":"levelo://app?vid=c6e11e18-206f-4bff-84da-d0aa44e03a49"},"vehicle_type_id":"4","last_reported":1750100908,"current_range_meters":16000,"station_id":"ce4bhbh2rcd13ifvqeo0","pricing_plan_id":"cebpf4jnsgd1na2vs0mg"},{"bike_id":"9ca4474d-50d3-4613-90fd-fa8476250cd0","system_id":"levelo_inurba_marseille","lat":43.26681,"lon":5.38268,"is_reserved":false,"is_disabled":false,"rental_uris":{"android":"levelo://app?vid=9ca4474d-50d3-4613-90fd-fa8476250cd0","ios":"levelo://app?vid=9ca4474d-50d3-4613-90fd-fa8476250cd0"},"vehicle_type_id":"4","last_reported":1750100908,"current_range_meters":16000,"station_id":"ce4bhg92rcd13ifvqf90","pricing_plan_id":"cebpf4jnsgd1na2vs0mg"},{"bike_id":"1e373418-986e-4d3c-9ff7-c37dd7c7a214","system_id":"levelo_inurba_marseille","lat":43.299025,"lon":5.43662,"is_reserved":false,"is_disabled":false,"rental_uris":{"android":"levelo://app?vid=1e373418-986e-4d3c-9ff7-c37dd7c7a214","ios":"levelo://app?vid=1e373418-986e-4d3c-9ff7-c37dd7c7a214"},"vehicle_type_id":"4","last_reported":1750100908,"current_range_meters":16000,"station_id":"ce4bhpp2rcd13ifvqhfg","pricing_plan_id":"cebpf4jnsgd1na2vs0mg"},{"bike_id":"f4b83b92-58ee-419a-9017-a22883fe79c8","system_id":"levelo_inurba_marseille","lat":43.31537,"lon":5.38032,"is_reserved":false,"is_disabled":false,"rental_uris":{"android":"levelo://app?vid=f4b83b92-58ee-419a-9017-a22883fe79c8","ios":"levelo://app?vid=f4b83b92-58ee-419a-9017-a22883fe79c8"},"vehicle_type_id":"4","last_reported":1750100908,"current_range_meters":16000,"station_id":"ce4bhsp2rcd13ifvqi50","pricing_plan_id":"cebpf4jnsgd1na2vs0mg"},{"bike_id":"0e27dafc-21df-4fb1-bd36-2450a7866702","system_id":"levelo_inurba_marseille","lat":43.27163,"lon":5.39987,"is_reserved":false,"is_disabled":false,"rental_uris":{"android":"levelo://app?vid=0e27dafc-21df-4fb1-bd36-2450a7866702","ios":"levelo://app?vid=0e27dafc-21df-4fb1-bd36-2450a7866702"},"vehicle_type_id":"4","last_reported":1750100908,"current_range_meters":16400,"station_id":"","pricing_plan_id":"cebpf4jnsgd1na2vs0mg"},{"bike_id":"04c170ec-283e-4fa3-895a-74c791b39115","system_id":"levelo_inurba_marseille","lat":43.31484,"lon":5.3731,"is_reserved":false,"is_disabled":false,"rental_uris":{"android":"levelo://app?vid=04c170ec-283e-4fa3-895a-74c791b39115","ios":"levelo://app?vid=04c170ec-283e-4fa3-895a-74c791b39115"},"vehicle_type_id":"4","last_reported":1750100908,"current_range_meters":16400,"station_id":"ce4bgt12rcd13ifvqcd0","pricing_plan_id":"cebpf4jnsgd1na2vs0mg"},{"bike_id":"87a3ba22-5bac-454c-8435-cb79a75b5f21","system_id":"levelo_inurba_marseille","lat":43.29866,"lon":5.39733,"is_reserved":false,"is_disabled":false,"rental_uris":{"android":"levelo://app?vid=87a3ba22-5bac-454c-8435-cb79a75b5f21","ios":"levelo://app?vid=87a3ba22-5bac-454c-8435-cb79a75b5f21"},"vehicle_type_id":"4","last_reported":1750100908,"current_range_meters":16400,"station_id":"ce4bh0h2rcd13ifvqd50","pricing_plan_id":"cebpf4jnsgd1na2vs0mg"},{"bike_id":"008e62bb-1ccd-46af-8c05-05abb68a0a5d","system_id":"levelo_inurba_marseille","lat":43.291147,"lon":5.389091,"is_reserved":false,"is_disabled":false,"rental_uris":{"android":"levelo://app?vid=008e62bb-1ccd-46af-8c05-05abb68a0a5d","ios":"levelo://app?vid=008e62bb-1ccd-46af-8c05-05abb68a0a5d"},"vehicle_type_id":"4","last_reported":1750100908,"current_range_meters":16400,"station_id":"ce4bh2p2rcd13ifvqdi0","pricing_plan_id":"cebpf4jnsgd1na2vs0mg"},{"bike_id":"30981e6d-246d-4b39-9747-02a8b459b539","system_id":"levelo_inurba_marseille","lat":43.27378,"lon":5.36262,"is_reserved":false,"is_disabled":false,"rental_uris":{"android":"levelo://app?vid=30981e6d-246d-4b39-9747-02a8b459b539","ios":"levelo://app?vid=30981e6d-246d-4b39-9747-02a8b459b539"},"vehicle_type_id":"4","last_reported":1750100908,"current_range_meters":16400,"station_id":"ce4bhbh2rcd13ifvqeo0","pricing_plan_id":"cebpf4jnsgd1na2vs0mg"},{"bike_id":"f8d1e557-c806-403e-b093-89a899d624dd","system_id":"levelo_inurba_marseille","lat":43.28626,"lon":5.35073,"is_reserved":false,"is_disabled":false,"rental_uris":{"android":"levelo://app?vid=f8d1e557-c806-403e-b093-89a899d624dd","ios":"levelo://app?vid=f8d1e557-c806-403e-b093-89a899d624dd"},"vehicle_type_id":"4","last_reported":1750100908,"current_range_meters":16400,"station_id":"ce4bhch2rcd13ifvqeug","pricing_plan_id":"cebpf4jnsgd1na2vs0mg"},{"bike_id":"98199bc1-1d2a-4aab-8a51-ee21b3846986","system_id":"levelo_inurba_marseille","lat":43.27566,"lon":5.38413,"is_reserved":false,"is_disabled":false,"rental_uris":{"android":"levelo://app?vid=98199bc1-1d2a-4aab-8a51-ee21b3846986","ios":"levelo://app?vid=98199bc1-1d2a-4aab-8a51-ee21b3846986"},"vehicle_type_id":"4","last_reported":1750100908,"current_range_meters":16400,"station_id":"ce4bhh92rcd13ifvqfi0","pricing_plan_id":"cebpf4jnsgd1na2vs0mg"},{"bike_id":"8d8216b7-70be-4e0e-b02f-ed276d5ecd5f","system_id":"levelo_inurba_marseille","lat":43.2307,"lon":5.35501,"is_reserved":false,"is_disabled":false,"rental_uris":{"android":"levelo://app?vid=8d8216b7-70be-4e0e-b02f-ed276d5ecd5f","ios":"levelo://app?vid=8d8216b7-70be-4e0e-b02f-ed276d5ecd5f"},"vehicle_type_id":"4","last_reported":1750100908,"current_range_meters":16400,"station_id":"cpo3342slgdg3j2ifvpg","pricing_plan_id":"cebpf4jnsgd1na2vs0mg"},{"bike_id":"677d602e-df76-42ff-ae10-aa690d9e7b15","system_id":"levelo_inurba_marseille","lat":43.30123,"lon":5.39856,"is_reserved":false,"is_disabled":false,"rental_uris":{"android":"levelo://app?vid=677d602e-df76-42ff-ae10-aa690d9e7b15","ios":"levelo://app?vid=677d602e-df76-42ff-ae10-aa690d9e7b15"},"vehicle_type_id":"4","last_reported":1750100908,"current_range_meters":16800,"station_id":"ce4bh0h2rcd13ifvqd40","pricing_plan_id":"cebpf4jnsgd1na2vs0mg"},{"bike_id":"a530d777-e70b-40e3-bb04-aa7ab9b80fe5","system_id":"levelo_inurba_marseille","lat":43.28158,"lon":5.42647,"is_reserved":false,"is_disabled":false,"rental_uris":{"android":"levelo://app?vid=a530d777-e70b-40e3-bb04-aa7ab9b80fe5","ios":"levelo://app?vid=a530d777-e70b-40e3-bb04-aa7ab9b80fe5"},"vehicle_type_id":"4","last_reported":1750100908,"current_range_meters":16800,"station_id":"ce4bhnh2rcd13ifvqgug","pricing_plan_id":"cebpf4jnsgd1na2vs0mg"},{"bike_id":"404b450f-6352-4674-9a2a-f51c6591d8da","system_id":"levelo_inurba_marseille","lat":43.29882,"lon":5.43638,"is_reserved":false,"is_disabled":false,"rental_uris":{"android":"levelo://app?vid=404b450f-6352-4674-9a2a-f51c6591d8da","ios":"levelo://app?vid=404b450f-6352-4674-9a2a-f51c6591d8da"},"vehicle_type_id":"4","last_reported":1750100908,"current_range_meters":16800,"station_id":"ce4bhpp2rcd13ifvqhfg","pricing_plan_id":"cebpf4jnsgd1na2vs0mg"},{"bike_id":"a1a41cf7-27e5-4e04-a882-fcdbd618f04d","system_id":"levelo_inurba_marseille","lat":43.22952,"lon":5.35366,"is_reserved":false,"is_disabled":false,"rental_uris":{"android":"levelo://app?vid=a1a41cf7-27e5-4e04-a882-fcdbd618f04d","ios":"levelo://app?vid=a1a41cf7-27e5-4e04-a882-fcdbd618f04d"},"vehicle_type_id":"4","last_reported":1750100908,"current_range_meters":16800,"station_id":"cpo3532slgdg3j2ikp40","pricing_plan_id":"cebpf4jnsgd1na2vs0mg"},{"bike_id":"83cfee7d-980d-496a-98c8-745c7e44c68d","system_id":"levelo_inurba_marseille","lat":43.32877,"lon":5.39079,"is_reserved":false,"is_disabled":false,"rental_uris":{"android":"levelo://app?vid=83cfee7d-980d-496a-98c8-745c7e44c68d","ios":"levelo://app?vid=83cfee7d-980d-496a-98c8-745c7e44c68d"},"vehicle_type_id":"4","last_reported":1750100908,"current_range_meters":17200,"station_id":"","pricing_plan_id":"cebpf4jnsgd1na2vs0mg"},{"bike_id":"ac576c5c-6867-4fe3-b15a-d86061c55ae5","system_id":"levelo_inurba_marseille","lat":43.29356,"lon":5.37841,"is_reserved":false,"is_disabled":false,"rental_uris":{"android":"levelo://app?vid=ac576c5c-6867-4fe3-b15a-d86061c55ae5","ios":"levelo://app?vid=ac576c5c-6867-4fe3-b15a-d86061c55ae5"},"vehicle_type_id":"4","last_reported":1750100908,"current_range_meters":17200,"station_id":"ce4bgjh2rcd13ifvqbf0","pricing_plan_id":"cebpf4jnsgd1na2vs0mg"},{"bike_id":"32491d0b-0b3a-4941-8c6f-e5996f195354","system_id":"levelo_inurba_marseille","lat":43.30541,"lon":5.3655,"is_reserved":false,"is_disabled":false,"rental_uris":{"android":"levelo://app?vid=32491d0b-0b3a-4941-8c6f-e5996f195354","ios":"levelo://app?vid=32491d0b-0b3a-4941-8c6f-e5996f195354"},"vehicle_type_id":"4","last_reported":1750100908,"current_range_meters":17200,"station_id":"ce4bgs12rcd13ifvqcag","pricing_plan_id":"cebpf4jnsgd1na2vs0mg"},{"bike_id":"dab6fb6d-3e6d-412b-a0e1-f672326dbd00","system_id":"levelo_inurba_marseille","lat":43.24179,"lon":5.39731,"is_reserved":false,"is_disabled":false,"rental_uris":{"android":"levelo://app?vid=dab6fb6d-3e6d-412b-a0e1-f672326dbd00","ios":"levelo://app?vid=dab6fb6d-3e6d-412b-a0e1-f672326dbd00"},"vehicle_type_id":"4","last_reported":1750100908,"current_range_meters":17200,"station_id":"ce4bhn12rcd13ifvqgpg","pricing_plan_id":"cebpf4jnsgd1na2vs0mg"},{"bike_id":"aa2e19bd-615c-484b-868a-f5c12f1cd7d5","system_id":"levelo_inurba_marseille","lat":43.31994,"lon":5.38162,"is_reserved":false,"is_disabled":false,"rental_uris":{"android":"levelo://app?vid=aa2e19bd-615c-484b-868a-f5c12f1cd7d5","ios":"levelo://app?vid=aa2e19bd-615c-484b-868a-f5c12f1cd7d5"},"vehicle_type_id":"4","last_reported":1750100908,"current_range_meters":17200,"station_id":"ce4bhr12rcd13ifvqhpg","pricing_plan_id":"cebpf4jnsgd1na2vs0mg"},{"bike_id":"63d8f8de-6fb5-461e-8196-70d15c64a587","system_id":"levelo_inurba_marseille","lat":43.21204,"lon":5.35061,"is_reserved":false,"is_disabled":false,"rental_uris":{"android":"levelo://app?vid=63d8f8de-6fb5-461e-8196-70d15c64a587","ios":"levelo://app?vid=63d8f8de-6fb5-461e-8196-70d15c64a587"},"vehicle_type_id":"4","last_reported":1750100908,"current_range_meters":17200,"station_id":"st_cvj6sg6p6f1abm77japg","pricing_plan_id":"cebpf4jnsgd1na2vs0mg"},{"bike_id":"77c9b099-b18c-4eeb-b2aa-73cb73cd8c3c","system_id":"levelo_inurba_marseille","lat":43.2953,"lon":5.3854,"is_reserved":false,"is_disabled":false,"rental_uris":{"android":"levelo://app?vid=77c9b099-b18c-4eeb-b2aa-73cb73cd8c3c","ios":"levelo://app?vid=77c9b099-b18c-4eeb-b2aa-73cb73cd8c3c"},"vehicle_type_id":"4","last_reported":1750100908,"current_range_meters":17600,"station_id":"ce4bgih2rcd13ifvqba0","pricing_plan_id":"cebpf4jnsgd1na2vs0mg"},{"bike_id":"beeec2b8-2ddd-4966-8023-543f039d7a9b","system_id":"levelo_inurba_marseille","lat":43.31495,"lon":5.37306,"is_reserved":false,"is_disabled":false,"rental_uris":{"android":"levelo://app?vid=beeec2b8-2ddd-4966-8023-543f039d7a9b","ios":"levelo://app?vid=beeec2b8-2ddd-4966-8023-543f039d7a9b"},"vehicle_type_id":"4","last_reported":1750100908,"current_range_meters":17600,"station_id":"ce4bgt12rcd13ifvqcd0","pricing_plan_id":"cebpf4jnsgd1na2vs0mg"},{"bike_id":"84f60329-6808-49e4-a2c9-397742a3171d","system_id":"levelo_inurba_marseille","lat":43.292386,"lon":5.400961,"is_reserved":false,"is_disabled":false,"rental_uris":{"android":"levelo://app?vid=84f60329-6808-49e4-a2c9-397742a3171d","ios":"levelo://app?vid=84f60329-6808-49e4-a2c9-397742a3171d"},"vehicle_type_id":"4","last_reported":1750100908,"current_range_meters":17600,"station_id":"ce4bgvh2rcd13ifvqcs0","pricing_plan_id":"cebpf4jnsgd1na2vs0mg"},{"bike_id":"7509998f-d7ee-422a-94b7-9f3e32d2ba30","system_id":"levelo_inurba_marseille","lat":43.29434,"lon":5.39753,"is_reserved":false,"is_disabled":false,"rental_uris":{"android":"levelo://app?vid=7509998f-d7ee-422a-94b7-9f3e32d2ba30","ios":"levelo://app?vid=7509998f-d7ee-422a-94b7-9f3e32d2ba30"},"vehicle_type_id":"4","last_reported":1750100908,"current_range_meters":17600,"station_id":"ce4bh3h2rcd13ifvqdo0","pricing_plan_id":"cebpf4jnsgd1na2vs0mg"},{"bike_id":"e150441e-bc69-4619-9492-e5fd375524c1","system_id":"levelo_inurba_marseille","lat":43.28117,"lon":5.37837,"is_reserved":false,"is_disabled":false,"rental_uris":{"android":"levelo://app?vid=e150441e-bc69-4619-9492-e5fd375524c1","ios":"levelo://app?vid=e150441e-bc69-4619-9492-e5fd375524c1"},"vehicle_type_id":"4","last_reported":1750100908,"current_range_meters":17600,"station_id":"ce4bha12rcd13ifvqee0","pricing_plan_id":"cebpf4jnsgd1na2vs0mg"},{"bike_id":"6230e1a4-f5df-4396-8c70-047b579eb754","system_id":"levelo_inurba_marseille","lat":43.29285,"lon":5.36841,"is_reserved":false,"is_disabled":false,"rental_uris":{"android":"levelo://app?vid=6230e1a4-f5df-4396-8c70-047b579eb754","ios":"levelo://app?vid=6230e1a4-f5df-4396-8c70-047b579eb754"},"vehicle_type_id":"4","last_reported":1750100908,"current_range_meters":17600,"station_id":"ce4bhbp2rcd13ifvqesg","pricing_plan_id":"cebpf4jnsgd1na2vs0mg"},{"bike_id":"3dde3bca-46fc-4164-a167-3eaf1a11c0a3","system_id":"levelo_inurba_marseille","lat":43.2862,"lon":5.35099,"is_reserved":false,"is_disabled":false,"rental_uris":{"android":"levelo://app?vid=3dde3bca-46fc-4164-a167-3eaf1a11c0a3","ios":"levelo://app?vid=3dde3bca-46fc-4164-a167-3eaf1a11c0a3"},"vehicle_type_id":"4","last_reported":1750100908,"current_range_meters":17600,"station_id":"ce4bhch2rcd13ifvqeug","pricing_plan_id":"cebpf4jnsgd1na2vs0mg"},{"bike_id":"381bd0ad-ce73-4a4f-b643-1e1c87957c84","system_id":"levelo_inurba_marseille","lat":43.2407,"lon":5.37765,"is_reserved":false,"is_disabled":false,"rental_uris":{"android":"levelo://app?vid=381bd0ad-ce73-4a4f-b643-1e1c87957c84","ios":"levelo://app?vid=381bd0ad-ce73-4a4f-b643-1e1c87957c84"},"vehicle_type_id":"4","last_reported":1750100908,"current_range_meters":17600,"station_id":"ce4bhnp2rcd13ifvqgvg","pricing_plan_id":"cebpf4jnsgd1na2vs0mg"},{"bike_id":"f9e01266-b967-4bfd-b75b-feefbe1a2bff","system_id":"levelo_inurba_marseille","lat":43.30927,"lon":5.40141,"is_reserved":false,"is_disabled":false,"rental_uris":{"android":"levelo://app?vid=f9e01266-b967-4bfd-b75b-feefbe1a2bff","ios":"levelo://app?vid=f9e01266-b967-4bfd-b75b-feefbe1a2bff"},"vehicle_type_id":"4","last_reported":1750100908,"current_range_meters":18000,"station_id":"ce4bgvp2rcd13ifvqct0","pricing_plan_id":"cebpf4jnsgd1na2vs0mg"},{"bike_id":"565d28fd-8e81-4d05-863f-612940bbe238","system_id":"levelo_inurba_marseille","lat":43.28427,"lon":5.34985,"is_reserved":false,"is_disabled":false,"rental_uris":{"android":"levelo://app?vid=565d28fd-8e81-4d05-863f-612940bbe238","ios":"levelo://app?vid=565d28fd-8e81-4d05-863f-612940bbe238"},"vehicle_type_id":"4","last_reported":1750100908,"current_range_meters":18000,"station_id":"ce4bhbh2rcd13ifvqepg","pricing_plan_id":"cebpf4jnsgd1na2vs0mg"},{"bike_id":"79abc4be-d098-49eb-bb09-398f4f37ddcd","system_id":"levelo_inurba_marseille","lat":43.28196,"lon":5.42623,"is_reserved":false,"is_disabled":false,"rental_uris":{"android":"levelo://app?vid=79abc4be-d098-49eb-bb09-398f4f37ddcd","ios":"levelo://app?vid=79abc4be-d098-49eb-bb09-398f4f37ddcd"},"vehicle_type_id":"4","last_reported":1750100908,"current_range_meters":18000,"station_id":"ce4bhnh2rcd13ifvqgug","pricing_plan_id":"cebpf4jnsgd1na2vs0mg"},{"bike_id":"f1c51b49-2723-4952-968b-ca0c8a907afc","system_id":"levelo_inurba_marseille","lat":43.28611,"lon":5.37068,"is_reserved":false,"is_disabled":false,"rental_uris":{"android":"levelo://app?vid=f1c51b49-2723-4952-968b-ca0c8a907afc","ios":"levelo://app?vid=f1c51b49-2723-4952-968b-ca0c8a907afc"},"vehicle_type_id":"4","last_reported":1750100908,"current_range_meters":18000,"station_id":"ce4bht12rcd13ifvqi60","pricing_plan_id":"cebpf4jnsgd1na2vs0mg"},{"bike_id":"4ce5b165-f22d-40cf-abd3-1cb294861955","system_id":"levelo_inurba_marseille","lat":43.211941,"lon":5.350817,"is_reserved":false,"is_disabled":false,"rental_uris":{"android":"levelo://app?vid=4ce5b165-f22d-40cf-abd3-1cb294861955","ios":"levelo://app?vid=4ce5b165-f22d-40cf-abd3-1cb294861955"},"vehicle_type_id":"4","last_reported":1750100908,"current_range_meters":18800,"station_id":"","pricing_plan_id":"cebpf4jnsgd1na2vs0mg"},{"bike_id":"7cafc0ac-255e-4cb5-9ad6-521c96f2bd18","system_id":"levelo_inurba_marseille","lat":43.29576,"lon":5.39979,"is_reserved":false,"is_disabled":false,"rental_uris":{"android":"levelo://app?vid=7cafc0ac-255e-4cb5-9ad6-521c96f2bd18","ios":"levelo://app?vid=7cafc0ac-255e-4cb5-9ad6-521c96f2bd18"},"vehicle_type_id":"4","last_reported":1750100908,"current_range_meters":18800,"station_id":"ce4bh312rcd13ifvqdj0","pricing_plan_id":"cebpf4jnsgd1na2vs0mg"},{"bike_id":"203ce7ae-f28e-4055-a214-c37590a01e71","system_id":"levelo_inurba_marseille","lat":43.28721,"lon":5.37952,"is_reserved":false,"is_disabled":false,"rental_uris":{"android":"levelo://app?vid=203ce7ae-f28e-4055-a214-c37590a01e71","ios":"levelo://app?vid=203ce7ae-f28e-4055-a214-c37590a01e71"},"vehicle_type_id":"4","last_reported":1750100908,"current_range_meters":18800,"station_id":"ce4bh9p2rcd13ifvqec0","pricing_plan_id":"cebpf4jnsgd1na2vs0mg"},{"bike_id":"25b4b50c-3d68-4b1f-8817-f5ef8534b861","system_id":"levelo_inurba_marseille","lat":43.287292,"lon":5.379388,"is_reserved":false,"is_disabled":false,"rental_uris":{"android":"levelo://app?vid=25b4b50c-3d68-4b1f-8817-f5ef8534b861","ios":"levelo://app?vid=25b4b50c-3d68-4b1f-8817-f5ef8534b861"},"vehicle_type_id":"4","last_reported":1750100908,"current_range_meters":18800,"station_id":"ce4bh9p2rcd13ifvqec0","pricing_plan_id":"cebpf4jnsgd1na2vs0mg"},{"bike_id":"8d092cd5-1b2f-4e79-acb3-d3e3bf42c8b7","system_id":"levelo_inurba_marseille","lat":43.27376,"lon":5.36259,"is_reserved":false,"is_disabled":false,"rental_uris":{"android":"levelo://app?vid=8d092cd5-1b2f-4e79-acb3-d3e3bf42c8b7","ios":"levelo://app?vid=8d092cd5-1b2f-4e79-acb3-d3e3bf42c8b7"},"vehicle_type_id":"4","last_reported":1750100908,"current_range_meters":18800,"station_id":"ce4bhbh2rcd13ifvqeo0","pricing_plan_id":"cebpf4jnsgd1na2vs0mg"},{"bike_id":"d9c8fb04-a2d1-405c-88e7-8d1006984d95","system_id":"levelo_inurba_marseille","lat":43.27371,"lon":5.36248,"is_reserved":false,"is_disabled":false,"rental_uris":{"android":"levelo://app?vid=d9c8fb04-a2d1-405c-88e7-8d1006984d95","ios":"levelo://app?vid=d9c8fb04-a2d1-405c-88e7-8d1006984d95"},"vehicle_type_id":"4","last_reported":1750100908,"current_range_meters":18800,"station_id":"ce4bhbh2rcd13ifvqeo0","pricing_plan_id":"cebpf4jnsgd1na2vs0mg"},{"bike_id":"7626db2f-8581-4200-8af0-5ce97614bd80","system_id":"levelo_inurba_marseille","lat":43.23941,"lon":5.36659,"is_reserved":false,"is_disabled":false,"rental_uris":{"android":"levelo://app?vid=7626db2f-8581-4200-8af0-5ce97614bd80","ios":"levelo://app?vid=7626db2f-8581-4200-8af0-5ce97614bd80"},"vehicle_type_id":"4","last_reported":1750100908,"current_range_meters":18800,"station_id":"ce4bhi12rcd13ifvqfp0","pricing_plan_id":"cebpf4jnsgd1na2vs0mg"},{"bike_id":"128e7486-4446-4619-a699-90d2b747f04a","system_id":"levelo_inurba_marseille","lat":43.27941,"lon":5.41049,"is_reserved":false,"is_disabled":false,"rental_uris":{"android":"levelo://app?vid=128e7486-4446-4619-a699-90d2b747f04a","ios":"levelo://app?vid=128e7486-4446-4619-a699-90d2b747f04a"},"vehicle_type_id":"4","last_reported":1750100908,"current_range_meters":18800,"station_id":"ce4bhnp2rcd13ifvqh0g","pricing_plan_id":"cebpf4jnsgd1na2vs0mg"},{"bike_id":"2090556a-ebe6-4fcd-b60b-df67d7c8e4f7","system_id":"levelo_inurba_marseille","lat":43.29904,"lon":5.43671,"is_reserved":false,"is_disabled":false,"rental_uris":{"android":"levelo://app?vid=2090556a-ebe6-4fcd-b60b-df67d7c8e4f7","ios":"levelo://app?vid=2090556a-ebe6-4fcd-b60b-df67d7c8e4f7"},"vehicle_type_id":"4","last_reported":1750100908,"current_range_meters":18800,"station_id":"ce4bhpp2rcd13ifvqhfg","pricing_plan_id":"cebpf4jnsgd1na2vs0mg"},{"bike_id":"4cfcd6ac-29dc-4441-a0e2-99bee7cc7789","system_id":"levelo_inurba_marseille","lat":43.2176,"lon":5.34553,"is_reserved":false,"is_disabled":false,"rental_uris":{"android":"levelo://app?vid=4cfcd6ac-29dc-4441-a0e2-99bee7cc7789","ios":"levelo://app?vid=4cfcd6ac-29dc-4441-a0e2-99bee7cc7789"},"vehicle_type_id":"4","last_reported":1750100908,"current_range_meters":19200,"station_id":"","pricing_plan_id":"cebpf4jnsgd1na2vs0mg"},{"bike_id":"e4545242-0d34-410b-9092-52e20d435c24","system_id":"levelo_inurba_marseille","lat":43.30871,"lon":5.37023,"is_reserved":false,"is_disabled":false,"rental_uris":{"android":"levelo://app?vid=e4545242-0d34-410b-9092-52e20d435c24","ios":"levelo://app?vid=e4545242-0d34-410b-9092-52e20d435c24"},"vehicle_type_id":"4","last_reported":1750100908,"current_range_meters":19200,"station_id":"","pricing_plan_id":"cebpf4jnsgd1na2vs0mg"},{"bike_id":"d4b764d1-ac6c-4c6d-a4ac-1d9caabd3af3","system_id":"levelo_inurba_marseille","lat":43.292606,"lon":5.384289,"is_reserved":false,"is_disabled":false,"rental_uris":{"android":"levelo://app?vid=d4b764d1-ac6c-4c6d-a4ac-1d9caabd3af3","ios":"levelo://app?vid=d4b764d1-ac6c-4c6d-a4ac-1d9caabd3af3"},"vehicle_type_id":"4","last_reported":1750100908,"current_range_meters":19200,"station_id":"","pricing_plan_id":"cebpf4jnsgd1na2vs0mg"},{"bike_id":"95e30434-a870-4813-91fa-265ea008159e","system_id":"levelo_inurba_marseille","lat":43.30323,"lon":5.36896,"is_reserved":false,"is_disabled":false,"rental_uris":{"android":"levelo://app?vid=95e30434-a870-4813-91fa-265ea008159e","ios":"levelo://app?vid=95e30434-a870-4813-91fa-265ea008159e"},"vehicle_type_id":"4","last_reported":1750100908,"current_range_meters":19200,"station_id":"ce4bgqh2rcd13ifvqc5g","pricing_plan_id":"cebpf4jnsgd1na2vs0mg"},{"bike_id":"5fb479d1-47ba-4102-b244-e84ad3ff1ae2","system_id":"levelo_inurba_marseille","lat":43.30784,"lon":5.3765,"is_reserved":false,"is_disabled":false,"rental_uris":{"android":"levelo://app?vid=5fb479d1-47ba-4102-b244-e84ad3ff1ae2","ios":"levelo://app?vid=5fb479d1-47ba-4102-b244-e84ad3ff1ae2"},"vehicle_type_id":"4","last_reported":1750100908,"current_range_meters":19200,"station_id":"ce4bgv92rcd13ifvqcq0","pricing_plan_id":"cebpf4jnsgd1na2vs0mg"},{"bike_id":"f1501383-0c54-4bdc-a395-17cc7b3f99e3","system_id":"levelo_inurba_marseille","lat":43.2738,"lon":5.36273,"is_reserved":false,"is_disabled":false,"rental_uris":{"android":"levelo://app?vid=f1501383-0c54-4bdc-a395-17cc7b3f99e3","ios":"levelo://app?vid=f1501383-0c54-4bdc-a395-17cc7b3f99e3"},"vehicle_type_id":"4","last_reported":1750100908,"current_range_meters":19200,"station_id":"ce4bhbh2rcd13ifvqeo0","pricing_plan_id":"cebpf4jnsgd1na2vs0mg"},{"bike_id":"bd94bc3e-75f9-464a-97b7-3e056e372138","system_id":"levelo_inurba_marseille","lat":43.28274,"lon":5.3507,"is_reserved":false,"is_disabled":false,"rental_uris":{"android":"levelo://app?vid=bd94bc3e-75f9-464a-97b7-3e056e372138","ios":"levelo://app?vid=bd94bc3e-75f9-464a-97b7-3e056e372138"},"vehicle_type_id":"4","last_reported":1750100908,"current_range_meters":19200,"station_id":"ce4bhbp2rcd13ifvqerg","pricing_plan_id":"cebpf4jnsgd1na2vs0mg"},{"bike_id":"9477105b-a889-4580-b91d-9a844619e545","system_id":"levelo_inurba_marseille","lat":43.28935,"lon":5.36399,"is_reserved":false,"is_disabled":false,"rental_uris":{"android":"levelo://app?vid=9477105b-a889-4580-b91d-9a844619e545","ios":"levelo://app?vid=9477105b-a889-4580-b91d-9a844619e545"},