{"last_updated":1721768968,"ttl":30,"version":"2.2","data":{"bikes":[{"bike_id":"a2610bec-28cf-4e46-bfa7-b619ea248969","system_id":"levelo_inurba_marseille","lat":43.31257,"lon":5.36767,"is_reserved":false,"is_disabled":false,"rental_uris":{"android":"levelo://app?vid=a2610bec-28cf-4e46-bfa7-b619ea248969","ios":"levelo://app?vid=a2610bec-28cf-4e46-bfa7-b619ea248969"},"vehicle_type_id":"4","last_reported":1721768968,"current_range_meters":6000,"station_id":"","pricing_plan_id":"cebpf4jnsgd1na2vs0mg"},{"bike_id":"1f60616a-91b0-4d9b-b2dd-091f48e53b62","system_id":"levelo_inurba_marseille","lat":43.31341,"lon":5.367098,"is_reserved":false,"is_disabled":false,"rental_uris":{"android":"levelo://app?vid=1f60616a-91b0-4d9b-b2dd-091f48e53b62","ios":"levelo://app?vid=1f60616a-91b0-4d9b-b2dd-091f48e53b62"},"vehicle_type_id":"4","last_reported":1721768968,"current_range_meters":26000,"station_id":"ce4bgr92rcd13ifvqc6g","pricing_plan_id":"cebpf4jnsgd1na2vs0mg"},{"bike_id":"9b0ed9e6-570e-4192-aa41-c67cc8249bd2","system_id":"levelo_inurba_marseille","lat":43.312239,"lon":5.368562,"is_reserved":false,"is_disabled":false,"rental_uris":{"android":"levelo://app?vid=9b0ed9e6-570e-4192-aa41-c67cc8249bd2","ios":"levelo://app?vid=9b0ed9e6-570e-4192-aa41-c67cc8249bd2"},"vehicle_type_id":"4","last_reported":1721768968,"current_range_meters":22800,"station_id":"ce4bgl92rcd13ifvqbq0","pricing_plan_id":"cebpf4jnsgd1na2vs0mg"},{"bike_id":"30006858-a81f-4bb7-9853-8307901269a6","system_id":"levelo_inurba_marseille","lat":43.312239,"lon":5.368562,"is_reserved":false,"is_disabled":false,"rental_uris":{"android":"levelo://app?vid=30006858-a81f-4bb7-9853-8307901269a6","ios":"levelo://app?vid=30006858-a81f-4bb7-9853-8307901269a6"},"vehicle_type_id":"4","last_reported":1721768968,"current_range_meters":2400,"station_id":"ce4bgl92rcd13ifvqbq0","pricing_plan_id":"cebpf4jnsgd1na2vs0mg"},{"bike_id":"6b3df431-0006-4620-b2fa-7698a63ba57b","system_id":"levelo_inurba_marseille","lat":43.312239,"lon":5.368562,"is_reserved":false,"is_disabled":false,"rental_uris":{"android":"levelo://app?vid=6b3df431-0006-4620-b2fa-7698a63ba57b","ios":"levelo://app?vid=6b3df431-0006-4620-b2fa-7698a63ba57b"},"vehicle_type_id":"4","last_reported":1721768968,"current_range_meters":20000,"station_id":"ce4bgl92rcd13ifvqbq0","pricing_plan_id":"cebpf4jnsgd1na2vs0mg"},{"bike_id":"471e124e-7b00-4dc4-a61b-365e1a1e40b4","system_id":"levelo_inurba_marseille","lat":43.312239,"lon":5.368562,"is_reserved":false,"is_disabled":false,"rental_uris":{"android":"levelo://app?vid=471e124e-7b00-4dc4-a61b-365e1a1e40b4","ios":"levelo://app?vid=471e124e-7b00-4dc4-a61b-365e1a1e40b4"},"vehicle_type_id":"4","last_reported":1721768968,"current_range_meters":26800,"station_id":"ce4bgl92rcd13ifvqbq0","pricing_plan_id":"cebpf4jnsgd1na2vs0mg"},{"bike_id":"82857291-3e7b-4da8-b8d3-d95d380f0b29","system_id":"levelo_inurba_marseille","lat":43.31228,"lon":5.36881,"is_reserved":false,"is_disabled":false,"rental_uris":{"android":"levelo://app?vid=82857291-3e7b-4da8-b8d3-d95d380f0b29","ios":"levelo://app?vid=82857291-3e7b-4da8-b8d3-d95d380f0b29"},"vehicle_type_id":"4","last_reported":1721768968,"current_range_meters":31200,"station_id":"ce4bgl92rcd13ifvqbq0","pricing_plan_id":"cebpf4jnsgd1na2vs0mg"},{"bike_id":"d1e7c2cd-427e-4a0d-9cb6-bf639a88dd9f","system_id":"levelo_inurba_marseille","lat":43.31238,"lon":5.36889,"is_reserved":false,"is_disabled":false,"rental_uris":{"android":"levelo://app?vid=d1e7c2cd-427e-4a0d-9cb6-bf639a88dd9f","ios":"levelo://app?vid=d1e7c2cd-427e-4a0d-9cb6-bf639a88dd9f"},"vehicle_type_id":"4","last_reported":1721768968,"current_range_meters":31200,"station_id":"ce4bgl92rcd13ifvqbq0","pricing_plan_id":"cebpf4jnsgd1na2vs0mg"},{"bike_id":"07b3805b-082f-4d21-9070-9ccdcd26ed1c","system_id":"levelo_inurba_marseille","lat":43.309076,"lon":5.368465,"is_reserved":false,"is_disabled":false,"rental_uris":{"android":"levelo://app?vid=07b3805b-082f-4d21-9070-9ccdcd26ed1c","ios":"levelo://app?vid=07b3805b-082f-4d21-9070-9ccdcd26ed1c"},"vehicle_type_id":"4","last_reported":1721768968,"current_range_meters":6000,"station_id":"ce4bgn92rcd13ifvqbvg","pricing_plan_id":"cebpf4jnsgd1na2vs0mg"},{"bike_id":"09002a6c-0241-43fb-b0d3-b116cdb87a32","system_id":"levelo_inurba_marseille","lat":43.31497,"lon":5.37304,"is_reserved":false,"is_disabled":false,"rental_uris":{"android":"levelo://app?vid=09002a6c-0241-43fb-b0d3-b116cdb87a32","ios":"levelo://app?vid=09002a6c-0241-43fb-b0d3-b116cdb87a32"},"vehicle_type_id":"4","last_reported":1721768968,"current_range_meters":31200,"station_id":"ce4bgt12rcd13ifvqcd0","pricing_plan_id":"cebpf4jnsgd1na2vs0mg"},{"bike_id":"33fc05f9-b554-4cf3-9e7d-36b2e0d89193","system_id":"levelo_inurba_marseille","lat":43.314811,"lon":5.373104,"is_reserved":false,"is_disabled":false,"rental_uris":{"android":"levelo://app?vid=33fc05f9-b554-4cf3-9e7d-36b2e0d89193","ios":"levelo://app?vid=33fc05f9-b554-4cf3-9e7d-36b2e0d89193"},"vehicle_type_id":"4","last_reported":1721768968,"current_range_meters":6400,"station_id":"ce4bgt12rcd13ifvqcd0","pricing_plan_id":"cebpf4jnsgd1na2vs0mg"},{"bike_id":"2505c3ec-0134-4d07-b887-364e041b7742","system_id":"levelo_inurba_marseille","lat":43.314811,"lon":5.373104,"is_reserved":false,"is_disabled":false,"rental_uris":{"android":"levelo://app?vid=2505c3ec-0134-4d07-b887-364e041b7742","ios":"levelo://app?vid=2505c3ec-0134-4d07-b887-364e041b7742"},"vehicle_type_id":"4","last_reported":1721768968,"current_range_meters":21200,"station_id":"ce4bgt12rcd13ifvqcd0","pricing_plan_id":"cebpf4jnsgd1na2vs0mg"},{"bike_id":"a9c10527-c1e6-4652-afb8-bc182774ad6b","system_id":"levelo_inurba_marseille","lat":43.314811,"lon":5.373103,"is_reserved":false,"is_disabled":false,"rental_uris":{"android":"levelo://app?vid=a9c10527-c1e6-4652-afb8-bc182774ad6b","ios":"levelo://app?vid=a9c10527-c1e6-4652-afb8-bc182774ad6b"},"vehicle_type_id":"4","last_reported":1721768968,"current_range_meters":28400,"station_id":"ce4bgt12rcd13ifvqcd0","pricing_plan_id":"cebpf4jnsgd1na2vs0mg"},{"bike_id":"942e55e0-e2b1-4ece-8cff-fb358219f761","system_id":"levelo_inurba_marseille","lat":43.309039,"lon":5.371797,"is_reserved":false,"is_disabled":false,"rental_uris":{"android":"levelo://app?vid=942e55e0-e2b1-4ece-8cff-fb358219f761","ios":"levelo://app?vid=942e55e0-e2b1-4ece-8cff-fb358219f761"},"vehicle_type_id":"4","last_reported":1721768968,"current_range_meters":400,"station_id":"ce4bguh2rcd13ifvqckg","pricing_plan_id":"cebpf4jnsgd1na2vs0mg"},{"bike_id":"a9ab0039-b7da-48e9-bda7-898cb83b16fe","system_id":"levelo_inurba_marseille","lat":43.309039,"lon":5.371797,"is_reserved":false,"is_disabled":false,"rental_uris":{"android":"levelo://app?vid=a9ab0039-b7da-48e9-bda7-898cb83b16fe","ios":"levelo://app?vid=a9ab0039-b7da-48e9-bda7-898cb83b16fe"},"vehicle_type_id":"4","last_reported":1721768968,"current_range_meters":7200,"station_id":"ce4bguh2rcd13ifvqckg","pricing_plan_id":"cebpf4jnsgd1na2vs0mg"},{"bike_id":"8ebeb040-ea57-4531-a657-fe4e1b3cf0ed","system_id":"levelo_inurba_marseille","lat":43.308644,"lon":5.371689,"is_reserved":false,"is_disabled":false,"rental_uris":{"android":"levelo://app?vid=8ebeb040-ea57-4531-a657-fe4e1b3cf0ed","ios":"levelo://app?vid=8ebeb040-ea57-4531-a657-fe4e1b3cf0ed"},"vehicle_type_id":"4","last_reported":1721768968,"current_range_meters":22400,"station_id":"","pricing_plan_id":"cebpf4jnsgd1na2vs0mg"},{"bike_id":"8f0fc767-50b5-4994-b929-ebac6cad6b2d","system_id":"levelo_inurba_marseille","lat":43.309039,"lon":5.371797,"is_reserved":false,"is_disabled":false,"rental_uris":{"android":"levelo://app?vid=8f0fc767-50b5-4994-b929-ebac6cad6b2d","ios":"levelo://app?vid=8f0fc767-50b5-4994-b929-ebac6cad6b2d"},"vehicle_type_id":"4","last_reported":1721768968,"current_range_meters":26000,"station_id":"ce4bguh2rcd13ifvqckg","pricing_plan_id":"cebpf4jnsgd1na2vs0mg"},{"bike_id":"f73d9013-8086-419c-a87f-64bd4db78279","system_id":"levelo_inurba_marseille","lat":43.31804,"lon":5.370139,"is_reserved":false,"is_disabled":false,"rental_uris":{"android":"levelo://app?vid=f73d9013-8086-419c-a87f-64bd4db78279","ios":"levelo://app?vid=f73d9013-8086-419c-a87f-64bd4db78279"},"vehicle_type_id":"4","last_reported":1721768968,"current_range_meters":18800,"station_id":"","pricing_plan_id":"cebpf4jnsgd1na2vs0mg"},{"bike_id":"3399562e-dfd2-423a-856e-c36786325313","system_id":"levelo_inurba_marseille","lat":43.305712,"lon":5.365641,"is_reserved":false,"is_disabled":false,"rental_uris":{"android":"levelo://app?vid=3399562e-dfd2-423a-856e-c36786325313","ios":"levelo://app?vid=3399562e-dfd2-423a-856e-c36786325313"},"vehicle_type_id":"4","last_reported":1721768968,"current_range_meters":0,"station_id":"ce4bgs12rcd13ifvqcag","pricing_plan_id":"cebpf4jnsgd1na2vs0mg"},{"bike_id":"ea525c99-b17c-4e83-a649-b6fff4b27e62","system_id":"levelo_inurba_marseille","lat":43.305368,"lon":5.367343,"is_reserved":false,"is_disabled":false,"rental_uris":{"android":"levelo://app?vid=ea525c99-b17c-4e83-a649-b6fff4b27e62","ios":"levelo://app?vid=ea525c99-b17c-4e83-a649-b6fff4b27e62"},"vehicle_type_id":"4","last_reported":1721768968,"current_range_meters":3600,"station_id":"ce4bgrp2rcd13ifvqc9g","pricing_plan_id":"cebpf4jnsgd1na2vs0mg"},{"bike_id":"fa7a5696-8fb0-4cef-bb6c-d46678164edd","system_id":"levelo_inurba_marseille","lat":43.305989,"lon":5.37225,"is_reserved":false,"is_disabled":false,"rental_uris":{"android":"levelo://app?vid=fa7a5696-8fb0-4cef-bb6c-d46678164edd","ios":"levelo://app?vid=fa7a5696-8fb0-4cef-bb6c-d46678164edd"},"vehicle_type_id":"4","last_reported":1721768968,"current_range_meters":11200,"station_id":"ce4bgqh2rcd13ifvqc4g","pricing_plan_id":"cebpf4jnsgd1na2vs0mg"},{"bike_id":"66f4d700-ccc0-40ae-abce-596913eb76a8","system_id":"levelo_inurba_marseille","lat":43.305989,"lon":5.37225,"is_reserved":false,"is_disabled":false,"rental_uris":{"android":"levelo://app?vid=66f4d700-ccc0-40ae-abce-596913eb76a8","ios":"levelo://app?vid=66f4d700-ccc0-40ae-abce-596913eb76a8"},"vehicle_type_id":"4","last_reported":1721768968,"current_range_meters":17200,"station_id":"ce4bgqh2rcd13ifvqc4g","pricing_plan_id":"cebpf4jnsgd1na2vs0mg"},{"bike_id":"49908c10-8206-481c-ad5c-aad87c48b14c","system_id":"levelo_inurba_marseille","lat":43.305989,"lon":5.37225,"is_reserved":false,"is_disabled":false,"rental_uris":{"android":"levelo://app?vid=49908c10-8206-481c-ad5c-aad87c48b14c","ios":"levelo://app?vid=49908c10-8206-481c-ad5c-aad87c48b14c"},"vehicle_type_id":"4","last_reported":1721768968,"current_range_meters":24000,"station_id":"ce4bgqh2rcd13ifvqc4g","pricing_plan_id":"cebpf4jnsgd1na2vs0mg"},{"bike_id":"75764afa-84d0-4f5d-b0a7-1230b6e0c9fb","system_id":"levelo_inurba_marseille","lat":43.31118,"lon":5.37775,"is_reserved":false,"is_disabled":false,"rental_uris":{"android":"levelo://app?vid=75764afa-84d0-4f5d-b0a7-1230b6e0c9fb","ios":"levelo://app?vid=75764afa-84d0-4f5d-b0a7-1230b6e0c9fb"},"vehicle_type_id":"4","last_reported":1721768968,"current_range_meters":2800,"station_id":"ce4bgt92rcd13ifvqcg0","pricing_plan_id":"cebpf4jnsgd1na2vs0mg"},{"bike_id":"7d2c7742-138d-4e71-a640-a638306de37a","system_id":"levelo_inurba_marseille","lat":43.307945,"lon":5.376487,"is_reserved":false,"is_disabled":false,"rental_uris":{"android":"levelo://app?vid=7d2c7742-138d-4e71-a640-a638306de37a","ios":"levelo://app?vid=7d2c7742-138d-4e71-a640-a638306de37a"},"vehicle_type_id":"4","last_reported":1721768968,"current_range_meters":10400,"station_id":"ce4bgv92rcd13ifvqcq0","pricing_plan_id":"cebpf4jnsgd1na2vs0mg"},{"bike_id":"6d3a3916-deb0-4332-b39e-9f6bdf0f80de","system_id":"levelo_inurba_marseille","lat":43.307945,"lon":5.376487,"is_reserved":false,"is_disabled":false,"rental_uris":{"android":"levelo://app?vid=6d3a3916-deb0-4332-b39e-9f6bdf0f80de","ios":"levelo://app?vid=6d3a3916-deb0-4332-b39e-9f6bdf0f80de"},"vehicle_type_id":"4","last_reported":1721768968,"current_range_meters":2800,"station_id":"ce4bgv92rcd13ifvqcq0","pricing_plan_id":"cebpf4jnsgd1na2vs0mg"},{"bike_id":"7a71ca8a-001e-4987-ba4f-e3cd95a3927f","system_id":"levelo_inurba_marseille","lat":43.317075,"lon":5.377367,"is_reserved":false,"is_disabled":false,"rental_uris":{"android":"levelo://app?vid=7a71ca8a-001e-4987-ba4f-e3cd95a3927f","ios":"levelo://app?vid=7a71ca8a-001e-4987-ba4f-e3cd95a3927f"},"vehicle_type_id":"4","last_reported":1721768968,"current_range_meters":27200,"station_id":"ce4bgth2rcd13ifvqch0","pricing_plan_id":"cebpf4jnsgd1na2vs0mg"},{"bike_id":"21dcf905-b53a-4285-8d1a-3952648b6002","system_id":"levelo_inurba_marseille","lat":43.30316,"lon":5.36894,"is_reserved":false,"is_disabled":false,"rental_uris":{"android":"levelo://app?vid=21dcf905-b53a-4285-8d1a-3952648b6002","ios":"levelo://app?vid=21dcf905-b53a-4285-8d1a-3952648b6002"},"vehicle_type_id":"4","last_reported":1721768968,"current_range_meters":12800,"station_id":"ce4bgqh2rcd13ifvqc5g","pricing_plan_id":"cebpf4jnsgd1na2vs0mg"},{"bike_id":"77ec9b35-78a7-450c-af20-36d0fc5c6292","system_id":"levelo_inurba_marseille","lat":43.303046,"lon":5.368981,"is_reserved":false,"is_disabled":false,"rental_uris":{"android":"levelo://app?vid=77ec9b35-78a7-450c-af20-36d0fc5c6292","ios":"levelo://app?vid=77ec9b35-78a7-450c-af20-36d0fc5c6292"},"vehicle_type_id":"4","last_reported":1721768968,"current_range_meters":6800,"station_id":"ce4bgqh2rcd13ifvqc5g","pricing_plan_id":"cebpf4jnsgd1na2vs0mg"},{"bike_id":"ba2feee2-03ee-41b5-98c1-d5e3a0491b58","system_id":"levelo_inurba_marseille","lat":43.30304,"lon":5.368987,"is_reserved":false,"is_disabled":false,"rental_uris":{"android":"levelo://app?vid=ba2feee2-03ee-41b5-98c1-d5e3a0491b58","ios":"levelo://app?vid=ba2feee2-03ee-41b5-98c1-d5e3a0491b58"},"vehicle_type_id":"4","last_reported":1721768968,"current_range_meters":4400,"station_id":"ce4bgqh2rcd13ifvqc5g","pricing_plan_id":"cebpf4jnsgd1na2vs0mg"},{"bike_id":"167a0713-72b0-499a-8fc1-c82a984110a5","system_id":"levelo_inurba_marseille","lat":43.30304,"lon":5.368987,"is_reserved":false,"is_disabled":false,"rental_uris":{"android":"levelo://app?vid=167a0713-72b0-499a-8fc1-c82a984110a5","ios":"levelo://app?vid=167a0713-72b0-499a-8fc1-c82a984110a5"},"vehicle_type_id":"4","last_reported":1721768968,"current_range_meters":28000,"station_id":"ce4bgqh2rcd13ifvqc5g","pricing_plan_id":"cebpf4jnsgd1na2vs0mg"},{"bike_id":"2617e7db-9641-4170-94dc-a31c6fd824dd","system_id":"levelo_inurba_marseille","lat":43.303046,"lon":5.368981,"is_reserved":false,"is_disabled":false,"rental_uris":{"android":"levelo://app?vid=2617e7db-9641-4170-94dc-a31c6fd824dd","ios":"levelo://app?vid=2617e7db-9641-4170-94dc-a31c6fd824dd"},"vehicle_type_id":"4","last_reported":1721768968,"current_range_meters":18800,"station_id":"ce4bgqh2rcd13ifvqc5g","pricing_plan_id":"cebpf4jnsgd1na2vs0mg"},{"bike_id":"7629c9b8-de96-4782-a229-ed4ac605f716","system_id":"levelo_inurba_marseille","lat":43.303046,"lon":5.368981,"is_reserved":false,"is_disabled":false,"rental_uris":{"android":"levelo://app?vid=7629c9b8-de96-4782-a229-ed4ac605f716","ios":"levelo://app?vid=7629c9b8-de96-4782-a229-ed4ac605f716"},"vehicle_type_id":"4","last_reported":1721768968,"current_range_meters":3600,"station_id":"ce4bgqh2rcd13ifvqc5g","pricing_plan_id":"cebpf4jnsgd1na2vs0mg"},{"bike_id":"7a8a2741-ff3e-4656-aa7b-acbdae802213","system_id":"levelo_inurba_marseille","lat":43.315289,"lon":5.380349,"is_reserved":false,"is_disabled":false,"rental_uris":{"android":"levelo://app?vid=7a8a2741-ff3e-4656-aa7b-acbdae802213","ios":"levelo://app?vid=7a8a2741-ff3e-4656-aa7b-acbdae802213"},"vehicle_type_id":"4","last_reported":1721768968,"current_range_meters":27600,"station_id":"ce4bhsp2rcd13ifvqi50","pricing_plan_id":"cebpf4jnsgd1na2vs0mg"},{"bike_id":"0dc3c599-0d81-4755-ac0f-9847d9656cf5","system_id":"levelo_inurba_marseille","lat":43.308012,"lon":5.381511,"is_reserved":false,"is_disabled":false,"rental_uris":{"android":"levelo://app?vid=0dc3c599-0d81-4755-ac0f-9847d9656cf5","ios":"levelo://app?vid=0dc3c599-0d81-4755-ac0f-9847d9656cf5"},"vehicle_type_id":"4","last_reported":1721768968,"current_range_meters":15600,"station_id":"ce4bgt12rcd13ifvqce0","pricing_plan_id":"cebpf4jnsgd1na2vs0mg"},{"bike_id":"29884efa-45eb-4e16-aefb-d2c77f457f8f","system_id":"levelo_inurba_marseille","lat":43.308012,"lon":5.381511,"is_reserved":false,"is_disabled":false,"rental_uris":{"android":"levelo://app?vid=29884efa-45eb-4e16-aefb-d2c77f457f8f","ios":"levelo://app?vid=29884efa-45eb-4e16-aefb-d2c77f457f8f"},"vehicle_type_id":"4","last_reported":1721768968,"current_range_meters":4000,"station_id":"ce4bgt12rcd13ifvqce0","pricing_plan_id":"cebpf4jnsgd1na2vs0mg"},{"bike_id":"252369db-7bdc-4776-9744-0580c49f6c08","system_id":"levelo_inurba_marseille","lat":43.308012,"lon":5.381511,"is_reserved":false,"is_disabled":false,"rental_uris":{"android":"levelo://app?vid=252369db-7bdc-4776-9744-0580c49f6c08","ios":"levelo://app?vid=252369db-7bdc-4776-9744-0580c49f6c08"},"vehicle_type_id":"4","last_reported":1721768968,"current_range_meters":8800,"station_id":"ce4bgt12rcd13ifvqce0","pricing_plan_id":"cebpf4jnsgd1na2vs0mg"},{"bike_id":"7d75c471-f0cb-413d-a93c-5538c6bafc74","system_id":"levelo_inurba_marseille","lat":43.308012,"lon":5.381511,"is_reserved":false,"is_disabled":false,"rental_uris":{"android":"levelo://app?vid=7d75c471-f0cb-413d-a93c-5538c6bafc74","ios":"levelo://app?vid=7d75c471-f0cb-413d-a93c-5538c6bafc74"},"vehicle_type_id":"4","last_reported":1721768968,"current_range_meters":6800,"station_id":"ce4bgt12rcd13ifvqce0","pricing_plan_id":"cebpf4jnsgd1na2vs0mg"},{"bike_id":"373e07e7-2456-4172-98e3-3f6a62cc6025","system_id":"levelo_inurba_marseille","lat":43.30802,"lon":5.381677,"is_reserved":false,"is_disabled":false,"rental_uris":{"android":"levelo://app?vid=373e07e7-2456-4172-98e3-3f6a62cc6025","ios":"levelo://app?vid=373e07e7-2456-4172-98e3-3f6a62cc6025"},"vehicle_type_id":"4","last_reported":1721768968,"current_range_meters":16400,"station_id":"ce4bgt12rcd13ifvqce0","pricing_plan_id":"cebpf4jnsgd1na2vs0mg"},{"bike_id":"bafc2b8f-96ca-403c-a33b-221c825f470d","system_id":"levelo_inurba_marseille","lat":43.304606,"lon":5.379026,"is_reserved":false,"is_disabled":false,"rental_uris":{"android":"levelo://app?vid=bafc2b8f-96ca-403c-a33b-221c825f470d","ios":"levelo://app?vid=bafc2b8f-96ca-403c-a33b-221c825f470d"},"vehicle_type_id":"4","last_reported":1721768968,"current_range_meters":26400,"station_id":"ce4bgup2rcd13ifvqcn0","pricing_plan_id":"cebpf4jnsgd1na2vs0mg"},{"bike_id":"e52a2016-1bb2-4a4b-bb16-eeeb0ca0a650","system_id":"levelo_inurba_marseille","lat":43.304606,"lon":5.379026,"is_reserved":false,"is_disabled":false,"rental_uris":{"android":"levelo://app?vid=e52a2016-1bb2-4a4b-bb16-eeeb0ca0a650","ios":"levelo://app?vid=e52a2016-1bb2-4a4b-bb16-eeeb0ca0a650"},"vehicle_type_id":"4","last_reported":1721768968,"current_range_meters":4000,"station_id":"ce4bgup2rcd13ifvqcn0","pricing_plan_id":"cebpf4jnsgd1na2vs0mg"},{"bike_id":"3ae447e5-3194-4785-8ea5-93c3113c060e","system_id":"levelo_inurba_marseille","lat":43.324771,"lon":5.36557,"is_reserved":false,"is_disabled":false,"rental_uris":{"android":"levelo://app?vid=3ae447e5-3194-4785-8ea5-93c3113c060e","ios":"levelo://app?vid=3ae447e5-3194-4785-8ea5-93c3113c060e"},"vehicle_type_id":"4","last_reported":1721768968,"current_range_meters":20800,"station_id":"ce4bhs12rcd13ifvqhvg","pricing_plan_id":"cebpf4jnsgd1na2vs0mg"},{"bike_id":"8489d467-5a29-4be1-935a-1e629f2ff873","system_id":"levelo_inurba_marseille","lat":43.32476,"lon":5.36573,"is_reserved":false,"is_disabled":false,"rental_uris":{"android":"levelo://app?vid=8489d467-5a29-4be1-935a-1e629f2ff873","ios":"levelo://app?vid=8489d467-5a29-4be1-935a-1e629f2ff873"},"vehicle_type_id":"4","last_reported":1721768968,"current_range_meters":29200,"station_id":"ce4bhs12rcd13ifvqhvg","pricing_plan_id":"cebpf4jnsgd1na2vs0mg"},{"bike_id":"c46928a8-f957-43d8-bfb5-961be717bab7","system_id":"levelo_inurba_marseille","lat":43.324771,"lon":5.36557,"is_reserved":false,"is_disabled":false,"rental_uris":{"android":"levelo://app?vid=c46928a8-f957-43d8-bfb5-961be717bab7","ios":"levelo://app?vid=c46928a8-f957-43d8-bfb5-961be717bab7"},"vehicle_type_id":"4","last_reported":1721768968,"current_range_meters":30400,"station_id":"ce4bhs12rcd13ifvqhvg","pricing_plan_id":"cebpf4jnsgd1na2vs0mg"},{"bike_id":"870970ba-57b8-47df-85ec-7d609195c2e6","system_id":"levelo_inurba_marseille","lat":43.292311,"lon":5.360731,"is_reserved":false,"is_disabled":false,"rental_uris":{"android":"levelo://app?vid=870970ba-57b8-47df-85ec-7d609195c2e6","ios":"levelo://app?vid=870970ba-57b8-47df-85ec-7d609195c2e6"},"vehicle_type_id":"4","last_reported":1721768968,"current_range_meters":10800,"station_id":"ce4bhbh2rcd13ifvqeqg","pricing_plan_id":"cebpf4jnsgd1na2vs0mg"},{"bike_id":"f5bbaaab-ebd1-44bc-a8a7-377405e1468b","system_id":"levelo_inurba_marseille","lat":43.310804,"lon":5.38359,"is_reserved":false,"is_disabled":false,"rental_uris":{"android":"levelo://app?vid=f5bbaaab-ebd1-44bc-a8a7-377405e1468b","ios":"levelo://app?vid=f5bbaaab-ebd1-44bc-a8a7-377405e1468b"},"vehicle_type_id":"4","last_reported":1721768968,"current_range_meters":31200,"station_id":"ce4bgv92rcd13ifvqcr0","pricing_plan_id":"cebpf4jnsgd1na2vs0mg"},{"bike_id":"03c7e3f3-59ff-4ce0-a0d5-301cae816487","system_id":"levelo_inurba_marseille","lat":43.310804,"lon":5.38359,"is_reserved":false,"is_disabled":false,"rental_uris":{"android":"levelo://app?vid=03c7e3f3-59ff-4ce0-a0d5-301cae816487","ios":"levelo://app?vid=03c7e3f3-59ff-4ce0-a0d5-301cae816487"},"vehicle_type_id":"4","last_reported":1721768968,"current_range_meters":30800,"station_id":"ce4bgv92rcd13ifvqcr0","pricing_plan_id":"cebpf4jnsgd1na2vs0mg"},{"bike_id":"1485abc2-c902-4a47-a595-3bc07c17ee30","system_id":"levelo_inurba_marseille","lat":43.310804,"lon":5.38359,"is_reserved":false,"is_disabled":false,"rental_uris":{"android":"levelo://app?vid=1485abc2-c902-4a47-a595-3bc07c17ee30","ios":"levelo://app?vid=1485abc2-c902-4a47-a595-3bc07c17ee30"},"vehicle_type_id":"4","last_reported":1721768968,"current_range_meters":22000,"station_id":"ce4bgv92rcd13ifvqcr0","pricing_plan_id":"cebpf4jnsgd1na2vs0mg"},{"bike_id":"626ca4fb-902f-499f-89c2-853d31c7cc4c","system_id":"levelo_inurba_marseille","lat":43.30282,"lon":5.377,"is_reserved":false,"is_disabled":false,"rental_uris":{"android":"levelo://app?vid=626ca4fb-902f-499f-89c2-853d31c7cc4c","ios":"levelo://app?vid=626ca4fb-902f-499f-89c2-853d31c7cc4c"},"vehicle_type_id":"4","last_reported":1721768968,"current_range_meters":12400,"station_id":"ce4bguh2rcd13ifvqcj0","pricing_plan_id":"cebpf4jnsgd1na2vs0mg"},{"bike_id":"e039e2ce-dfed-47ec-87bc-bb09567bb104","system_id":"levelo_inurba_marseille","lat":43.302784,"lon":5.377158,"is_reserved":false,"is_disabled":false,"rental_uris":{"android":"levelo://app?vid=e039e2ce-dfed-47ec-87bc-bb09567bb104","ios":"levelo://app?vid=e039e2ce-dfed-47ec-87bc-bb09567bb104"},"vehicle_type_id":"4","last_reported":1721768968,"current_range_meters":30800,"station_id":"ce4bguh2rcd13ifvqcj0","pricing_plan_id":"cebpf4jnsgd1na2vs0mg"},{"bike_id":"98fc7d71-5090-4f5b-844a-04a96b0c5983","system_id":"levelo_inurba_marseille","lat":43.302784,"lon":5.377158,"is_reserved":false,"is_disabled":false,"rental_uris":{"android":"levelo://app?vid=98fc7d71-5090-4f5b-844a-04a96b0c5983","ios":"levelo://app?vid=98fc7d71-5090-4f5b-844a-04a96b0c5983"},"vehicle_type_id":"4","last_reported":1721768968,"current_range_meters":22800,"station_id":"ce4bguh2rcd13ifvqcj0","pricing_plan_id":"cebpf4jnsgd1na2vs0mg"},{"bike_id":"80b015ea-b82e-4f19-95e3-d9fc65645042","system_id":"levelo_inurba_marseille","lat":43.30142,"lon":5.37415,"is_reserved":false,"is_disabled":false,"rental_uris":{"android":"levelo://app?vid=80b015ea-b82e-4f19-95e3-d9fc65645042","ios":"levelo://app?vid=80b015ea-b82e-4f19-95e3-d9fc65645042"},"vehicle_type_id":"4","last_reported":1721768968,"current_range_meters":3600,"station_id":"ce4bgs92rcd13ifvqcc0","pricing_plan_id":"cebpf4jnsgd1na2vs0mg"},{"bike_id":"f7f46089-2666-4f98-a6b2-e7379274e68b","system_id":"levelo_inurba_marseille","lat":43.316147,"lon":5.38357,"is_reserved":false,"is_disabled":false,"rental_uris":{"android":"levelo://app?vid=f7f46089-2666-4f98-a6b2-e7379274e68b","ios":"levelo://app?vid=f7f46089-2666-4f98-a6b2-e7379274e68b"},"vehicle_type_id":"4","last_reported":1721768968,"current_range_meters":11600,"station_id":"","pricing_plan_id":"cebpf4jnsgd1na2vs0mg"},{"bike_id":"fb9ae2a9-51d7-4de2-99b7-c601b8e40082","system_id":"levelo_inurba_marseille","lat":43.319935,"lon":5.381699,"is_reserved":false,"is_disabled":false,"rental_uris":{"android":"levelo://app?vid=fb9ae2a9-51d7-4de2-99b7-c601b8e40082","ios":"levelo://app?vid=fb9ae2a9-51d7-4de2-99b7-c601b8e40082"},"vehicle_type_id":"4","last_reported":1721768968,"current_range_meters":26000,"station_id":"ce4bhr12rcd13ifvqhpg","pricing_plan_id":"cebpf4jnsgd1na2vs0mg"},{"bike_id":"a092858c-aca9-4072-b94e-c7452ff90cd2","system_id":"levelo_inurba_marseille","lat":43.30558,"lon":5.38169,"is_reserved":false,"is_disabled":false,"rental_uris":{"android":"levelo://app?vid=a092858c-aca9-4072-b94e-c7452ff90cd2","ios":"levelo://app?vid=a092858c-aca9-4072-b94e-c7452ff90cd2"},"vehicle_type_id":"4","last_reported":1721768968,"current_range_meters":19600,"station_id":"","pricing_plan_id":"cebpf4jnsgd1na2vs0mg"},{"bike_id":"5c3613ad-d7dc-4542-b7df-4c2773e037aa","system_id":"levelo_inurba_marseille","lat":43.313571,"lon":5.384829,"is_reserved":false,"is_disabled":false,"rental_uris":{"android":"levelo://app?vid=5c3613ad-d7dc-4542-b7df-4c2773e037aa","ios":"levelo://app?vid=5c3613ad-d7dc-4542-b7df-4c2773e037aa"},"vehicle_type_id":"4","last_reported":1721768968,"current_range_meters":10800,"station_id":"ce4bgt92rcd13ifvqcf0","pricing_plan_id":"cebpf4jnsgd1na2vs0mg"},{"bike_id":"2a81b7de-d923-4afb-826b-ecd2addba479","system_id":"levelo_inurba_marseille","lat":43.313571,"lon":5.384829,"is_reserved":false,"is_disabled":false,"rental_uris":{"android":"levelo://app?vid=2a81b7de-d923-4afb-826b-ecd2addba479","ios":"levelo://app?vid=2a81b7de-d923-4afb-826b-ecd2addba479"},"vehicle_type_id":"4","last_reported":1721768968,"current_range_meters":0,"station_id":"ce4bgt92rcd13ifvqcf0","pricing_plan_id":"cebpf4jnsgd1na2vs0mg"},{"bike_id":"969ffb7f-9e5c-486f-8f94-f557490fd59c","system_id":"levelo_inurba_marseille","lat":43.313571,"lon":5.384829,"is_reserved":false,"is_disabled":false,"rental_uris":{"android":"levelo://app?vid=969ffb7f-9e5c-486f-8f94-f557490fd59c","ios":"levelo://app?vid=969ffb7f-9e5c-486f-8f94-f557490fd59c"},"vehicle_type_id":"4","last_reported":1721768968,"current_range_meters":800,"station_id":"ce4bgt92rcd13ifvqcf0","pricing_plan_id":"cebpf4jnsgd1na2vs0mg"},{"bike_id":"5be3884f-cc4b-42a3-95f5-511554d18100","system_id":"levelo_inurba_marseille","lat":43.313571,"lon":5.384829,"is_reserved":false,"is_disabled":false,"rental_uris":{"android":"levelo://app?vid=5be3884f-cc4b-42a3-95f5-511554d18100","ios":"levelo://app?vid=5be3884f-cc4b-42a3-95f5-511554d18100"},"vehicle_type_id":"4","last_reported":1721768968,"current_range_meters":7200,"station_id":"ce4bgt92rcd13ifvqcf0","pricing_plan_id":"cebpf4jnsgd1na2vs0mg"},{"bike_id":"c3e21530-ca32-4270-bad4-48cdb9646d0f","system_id":"levelo_inurba_marseille","lat":43.313571,"lon":5.384829,"is_reserved":false,"is_disabled":false,"rental_uris":{"android":"levelo://app?vid=c3e21530-ca32-4270-bad4-48cdb9646d0f","ios":"levelo://app?vid=c3e21530-ca32-4270-bad4-48cdb9646d0f"},"vehicle_type_id":"4","last_reported":1721768968,"current_range_meters":1600,"station_id":"ce4bgt92rcd13ifvqcf0","pricing_plan_id":"cebpf4jnsgd1na2vs0mg"},{"bike_id":"3d837c23-45e6-4c22-8e2f-f871bbfa4dea","system_id":"levelo_inurba_marseille","lat":43.31367,"lon":5.38498,"is_reserved":false,"is_disabled":false,"rental_uris":{"android":"levelo://app?vid=3d837c23-45e6-4c22-8e2f-f871bbfa4dea","ios":"levelo://app?vid=3d837c23-45e6-4c22-8e2f-f871bbfa4dea"},"vehicle_type_id":"4","last_reported":1721768968,"current_range_meters":2000,"station_id":"ce4bgt92rcd13ifvqcf0","pricing_plan_id":"cebpf4jnsgd1na2vs0mg"},{"bike_id":"487d860a-437d-414b-a4ad-b8ee92ab63e7","system_id":"levelo_inurba_marseille","lat":43.29975,"lon":5.37179,"is_reserved":false,"is_disabled":false,"rental_uris":{"android":"levelo://app?vid=487d860a-437d-414b-a4ad-b8ee92ab63e7","ios":"levelo://app?vid=487d860a-437d-414b-a4ad-b8ee92ab63e7"},"vehicle_type_id":"4","last_reported":1721768968,"current_range_meters":0,"station_id":"ce4bgr92rcd13ifvqc7g","pricing_plan_id":"cebpf4jnsgd1na2vs0mg"},{"bike_id":"3ce92cfd-c03b-454c-aa38-0fb7a91169b4","system_id":"levelo_inurba_marseille","lat":43.299724,"lon":5.371829,"is_reserved":false,"is_disabled":false,"rental_uris":{"android":"levelo://app?vid=3ce92cfd-c03b-454c-aa38-0fb7a91169b4","ios":"levelo://app?vid=3ce92cfd-c03b-454c-aa38-0fb7a91169b4"},"vehicle_type_id":"4","last_reported":1721768968,"current_range_meters":25600,"station_id":"ce4bgr92rcd13ifvqc7g","pricing_plan_id":"cebpf4jnsgd1na2vs0mg"},{"bike_id":"b49eff51-61e0-4448-a9ff-49bb75dfcd6b","system_id":"levelo_inurba_marseille","lat":43.299724,"lon":5.371829,"is_reserved":false,"is_disabled":false,"rental_uris":{"android":"levelo://app?vid=b49eff51-61e0-4448-a9ff-49bb75dfcd6b","ios":"levelo://app?vid=b49eff51-61e0-4448-a9ff-49bb75dfcd6b"},"vehicle_type_id":"4","last_reported":1721768968,"current_range_meters":14400,"station_id":"ce4bgr92rcd13ifvqc7g","pricing_plan_id":"cebpf4jnsgd1na2vs0mg"},{"bike_id":"b10177a8-1b56-4a82-b70b-c67347e0cabd","system_id":"levelo_inurba_marseille","lat":43.298796,"lon":5.366494,"is_reserved":false,"is_disabled":false,"rental_uris":{"android":"levelo://app?vid=b10177a8-1b56-4a82-b70b-c67347e0cabd","ios":"levelo://app?vid=b10177a8-1b56-4a82-b70b-c67347e0cabd"},"vehicle_type_id":"4","last_reported":1721768968,"current_range_meters":21600,"station_id":"","pricing_plan_id":"cebpf4jnsgd1na2vs0mg"},{"bike_id":"b3c97d5e-b6ba-43c6-af10-30c8437cef6b","system_id":"levelo_inurba_marseille","lat":43.30942,"lon":5.386277,"is_reserved":false,"is_disabled":false,"rental_uris":{"android":"levelo://app?vid=b3c97d5e-b6ba-43c6-af10-30c8437cef6b","ios":"levelo://app?vid=b3c97d5e-b6ba-43c6-af10-30c8437cef6b"},"vehicle_type_id":"4","last_reported":1721768968,"current_range_meters":5600,"station_id":"","pricing_plan_id":"cebpf4jnsgd1na2vs0mg"},{"bike_id":"21157f58-4b3e-4d66-9bbf-d4c1d5856ef0","system_id":"levelo_inurba_marseille","lat":43.305364,"lon":5.384119,"is_reserved":false,"is_disabled":false,"rental_uris":{"android":"levelo://app?vid=21157f58-4b3e-4d66-9bbf-d4c1d5856ef0","ios":"levelo://app?vid=21157f58-4b3e-4d66-9bbf-d4c1d5856ef0"},"vehicle_type_id":"4","last_reported":1721768968,"current_range_meters":6400,"station_id":"ce4bgg92rcd13ifvqb30","pricing_plan_id":"cebpf4jnsgd1na2vs0mg"},{"bike_id":"98932ea6-749a-4eba-9940-8e7a89a21732","system_id":"levelo_inurba_marseille","lat":43.298433,"lon":5.362774,"is_reserved":false,"is_disabled":false,"rental_uris":{"android":"levelo://app?vid=98932ea6-749a-4eba-9940-8e7a89a21732","ios":"levelo://app?vid=98932ea6-749a-4eba-9940-8e7a89a21732"},"vehicle_type_id":"4","last_reported":1721768968,"current_range_meters":0,"station_id":"ce4bgpp2rcd13ifvqc3g","pricing_plan_id":"cebpf4jnsgd1na2vs0mg"},{"bike_id":"97469496-5452-4692-ae58-9a7c90802f5d","system_id":"levelo_inurba_marseille","lat":43.305364,"lon":5.384119,"is_reserved":false,"is_disabled":false,"rental_uris":{"android":"levelo://app?vid=97469496-5452-4692-ae58-9a7c90802f5d","ios":"levelo://app?vid=97469496-5452-4692-ae58-9a7c90802f5d"},"vehicle_type_id":"4","last_reported":1721768968,"current_range_meters":20800,"station_id":"ce4bgg92rcd13ifvqb30","pricing_plan_id":"cebpf4jnsgd1na2vs0mg"},{"bike_id":"c5034056-62c4-491a-a504-60fef05c30ed","system_id":"levelo_inurba_marseille","lat":43.298433,"lon":5.362774,"is_reserved":false,"is_disabled":false,"rental_uris":{"android":"levelo://app?vid=c5034056-62c4-491a-a504-60fef05c30ed","ios":"levelo://app?vid=c5034056-62c4-491a-a504-60fef05c30ed"},"vehicle_type_id":"4","last_reported":1721768968,"current_range_meters":22800,"station_id":"ce4bgpp2rcd13ifvqc3g","pricing_plan_id":"cebpf4jnsgd1na2vs0mg"},{"bike_id":"7f0684ed-ff58-4b4f-91fd-442d2044ba04","system_id":"levelo_inurba_marseille","lat":43.305364,"lon":5.384119,"is_reserved":false,"is_disabled":false,"rental_uris":{"android":"levelo://app?vid=7f0684ed-ff58-4b4f-91fd-442d2044ba04","ios":"levelo://app?vid=7f0684ed-ff58-4b4f-91fd-442d2044ba04"},"vehicle_type_id":"4","last_reported":1721768968,"current_range_meters":20000,"station_id":"ce4bgg92rcd13ifvqb30","pricing_plan_id":"cebpf4jnsgd1na2vs0mg"},{"bike_id":"62c7675b-6691-47f7-bad6-d5770403b2ce","system_id":"levelo_inurba_marseille","lat":43.298433,"lon":5.362774,"is_reserved":false,"is_disabled":false,"rental_uris":{"android":"levelo://app?vid=62c7675b-6691-47f7-bad6-d5770403b2ce","ios":"levelo://app?vid=62c7675b-6691-47f7-bad6-d5770403b2ce"},"vehicle_type_id":"4","last_reported":1721768968,"current_range_meters":28000,"station_id":"ce4bgpp2rcd13ifvqc3g","pricing_plan_id":"cebpf4jnsgd1na2vs0mg"},{"bike_id":"86387003-bb03-41a6-be18-d28b60fd065e","system_id":"levelo_inurba_marseille","lat":43.305364,"lon":5.384119,"is_reserved":false,"is_disabled":false,"rental_uris":{"android":"levelo://app?vid=86387003-bb03-41a6-be18-d28b60fd065e","ios":"levelo://app?vid=86387003-bb03-41a6-be18-d28b60fd065e"},"vehicle_type_id":"4","last_reported":1721768968,"current_range_meters":14400,"station_id":"ce4bgg92rcd13ifvqb30","pricing_plan_id":"cebpf4jnsgd1na2vs0mg"},{"bike_id":"71cbc2af-2753-4ef8-a94b-a676e453ede9","system_id":"levelo_inurba_marseille","lat":43.305323,"lon":5.384283,"is_reserved":false,"is_disabled":false,"rental_uris":{"android":"levelo://app?vid=71cbc2af-2753-4ef8-a94b-a676e453ede9","ios":"levelo://app?vid=71cbc2af-2753-4ef8-a94b-a676e453ede9"},"vehicle_type_id":"4","last_reported":1721768968,"current_range_meters":7200,"station_id":"ce4bgg92rcd13ifvqb30","pricing_plan_id":"cebpf4jnsgd1na2vs0mg"},{"bike_id":"fdcdf683-6354-4e27-9730-2c448e6bb7e5","system_id":"levelo_inurba_marseille","lat":43.311722,"lon":5.387247,"is_reserved":false,"is_disabled":false,"rental_uris":{"android":"levelo://app?vid=fdcdf683-6354-4e27-9730-2c448e6bb7e5","ios":"levelo://app?vid=fdcdf683-6354-4e27-9730-2c448e6bb7e5"},"vehicle_type_id":"4","last_reported":1721768968,"current_range_meters":0,"station_id":"ce4bgv12rcd13ifvqcp0","pricing_plan_id":"cebpf4jnsgd1na2vs0mg"},{"bike_id":"f6192f2e-03e6-4bbc-9834-efc351ada340","system_id":"levelo_inurba_marseille","lat":43.3118,"lon":5.38714,"is_reserved":false,"is_disabled":false,"rental_uris":{"android":"levelo://app?vid=f6192f2e-03e6-4bbc-9834-efc351ada340","ios":"levelo://app?vid=f6192f2e-03e6-4bbc-9834-efc351ada340"},"vehicle_type_id":"4","last_reported":1721768968,"current_range_meters":1600,"station_id":"ce4bgv12rcd13ifvqcp0","pricing_plan_id":"cebpf4jnsgd1na2vs0mg"},{"bike_id":"fff35461-831a-4340-bc9b-f68d148a9d37","system_id":"levelo_inurba_marseille","lat":43.31176,"lon":5.38714,"is_reserved":false,"is_disabled":false,"rental_uris":{"android":"levelo://app?vid=fff35461-831a-4340-bc9b-f68d148a9d37","ios":"levelo://app?vid=fff35461-831a-4340-bc9b-f68d148a9d37"},"vehicle_type_id":"4","last_reported":1721768968,"current_range_meters":3200,"station_id":"ce4bgv12rcd13ifvqcp0","pricing_plan_id":"cebpf4jnsgd1na2vs0mg"},{"bike_id":"4a8ad35d-3591-4881-b5f5-5bd46cb18c3c","system_id":"levelo_inurba_marseille","lat":43.311698,"lon":5.387203,"is_reserved":false,"is_disabled":false,"rental_uris":{"android":"levelo://app?vid=4a8ad35d-3591-4881-b5f5-5bd46cb18c3c","ios":"levelo://app?vid=4a8ad35d-3591-4881-b5f5-5bd46cb18c3c"},"vehicle_type_id":"4","last_reported":1721768968,"current_range_meters":28400,"station_id":"ce4bgv12rcd13ifvqcp0","pricing_plan_id":"cebpf4jnsgd1na2vs0mg"},{"bike_id":"3a4b2ee5-172d-4e84-a2ae-64b884dad604","system_id":"levelo_inurba_marseille","lat":43.31167,"lon":5.3872,"is_reserved":false,"is_disabled":false,"rental_uris":{"android":"levelo://app?vid=3a4b2ee5-172d-4e84-a2ae-64b884dad604","ios":"levelo://app?vid=3a4b2ee5-172d-4e84-a2ae-64b884dad604"},"vehicle_type_id":"4","last_reported":1721768968,"current_range_meters":20000,"station_id":"ce4bgv12rcd13ifvqcp0","pricing_plan_id":"cebpf4jnsgd1na2vs0mg"},{"bike_id":"025aa427-9f98-425c-9852-99d89801f239","system_id":"levelo_inurba_marseille","lat":43.31172,"lon":5.38721,"is_reserved":false,"is_disabled":false,"rental_uris":{"android":"levelo://app?vid=025aa427-9f98-425c-9852-99d89801f239","ios":"levelo://app?vid=025aa427-9f98-425c-9852-99d89801f239"},"vehicle_type_id":"4","last_reported":1721768968,"current_range_meters":18000,"station_id":"ce4bgv12rcd13ifvqcp0","pricing_plan_id":"cebpf4jnsgd1na2vs0mg"},{"bike_id":"c78feed3-cbc0-49f6-aa73-88799215940b","system_id":"levelo_inurba_marseille","lat":43.31169,"lon":5.38721,"is_reserved":false,"is_disabled":false,"rental_uris":{"android":"levelo://app?vid=c78feed3-cbc0-49f6-aa73-88799215940b","ios":"levelo://app?vid=c78feed3-cbc0-49f6-aa73-88799215940b"},"vehicle_type_id":"4","last_reported":1721768968,"current_range_meters":1600,"station_id":"ce4bgv12rcd13ifvqcp0","pricing_plan_id":"cebpf4jnsgd1na2vs0mg"},{"bike_id":"1b17923c-a210-450f-8d40-40ba2b6ff5e9","system_id":"levelo_inurba_marseille","lat":43.311722,"lon":5.387247,"is_reserved":false,"is_disabled":false,"rental_uris":{"android":"levelo://app?vid=1b17923c-a210-450f-8d40-40ba2b6ff5e9","ios":"levelo://app?vid=1b17923c-a210-450f-8d40-40ba2b6ff5e9"},"vehicle_type_id":"4","last_reported":1721768968,"current_range_meters":22000,"station_id":"ce4bgv12rcd13ifvqcp0","pricing_plan_id":"cebpf4jnsgd1na2vs0mg"},{"bike_id":"7dc3e586-a9af-4348-9f04-2aeb5e16e590","system_id":"levelo_inurba_marseille","lat":43.299243,"lon":5.37481,"is_reserved":false,"is_disabled":false,"rental_uris":{"android":"levelo://app?vid=7dc3e586-a9af-4348-9f04-2aeb5e16e590","ios":"levelo://app?vid=7dc3e586-a9af-4348-9f04-2aeb5e16e590"},"vehicle_type_id":"4","last_reported":1721768968,"current_range_meters":30400,"station_id":"ce4bgjh2rcd13ifvqbg0","pricing_plan_id":"cebpf4jnsgd1na2vs0mg"},{"bike_id":"09a7efa8-61c9-4acf-b537-fcfa6b8bab83","system_id":"levelo_inurba_marseille","lat":43.311701,"lon":5.38725,"is_reserved":false,"is_disabled":false,"rental_uris":{"android":"levelo://app?vid=09a7efa8-61c9-4acf-b537-fcfa6b8bab83","ios":"levelo://app?vid=09a7efa8-61c9-4acf-b537-fcfa6b8bab83"},"vehicle_type_id":"4","last_reported":1721768968,"current_range_meters":7600,"station_id":"ce4bgv12rcd13ifvqcp0","pricing_plan_id":"cebpf4jnsgd1na2vs0mg"},{"bike_id":"c35b388e-e3c9-4fcc-91b7-5672aa48325d","system_id":"levelo_inurba_marseille","lat":43.32287,"lon":5.38271,"is_reserved":false,"is_disabled":false,"rental_uris":{"android":"levelo://app?vid=c35b388e-e3c9-4fcc-91b7-5672aa48325d","ios":"levelo://app?vid=c35b388e-e3c9-4fcc-91b7-5672aa48325d"},"vehicle_type_id":"4","last_reported":1721768968,"current_range_meters":22400,"station_id":"ce4bhr12rcd13ifvqhqg","pricing_plan_id":"cebpf4jnsgd1na2vs0mg"},{"bike_id":"ee80f9b1-402a-4e94-9ba8-3f26571be545","system_id":"levelo_inurba_marseille","lat":43.322872,"lon":5.382756,"is_reserved":false,"is_disabled":false,"rental_uris":{"android":"levelo://app?vid=ee80f9b1-402a-4e94-9ba8-3f26571be545","ios":"levelo://app?vid=ee80f9b1-402a-4e94-9ba8-3f26571be545"},"vehicle_type_id":"4","last_reported":1721768968,"current_range_meters":29200,"station_id":"ce4bhr12rcd13ifvqhqg","pricing_plan_id":"cebpf4jnsgd1na2vs0mg"},{"bike_id":"6bb2b6b2-1cd8-4526-94b7-ff7da9abffdf","system_id":"levelo_inurba_marseille","lat":43.32129,"lon":5.38441,"is_reserved":false,"is_disabled":false,"rental_uris":{"android":"levelo://app?vid=6bb2b6b2-1cd8-4526-94b7-ff7da9abffdf","ios":"levelo://app?vid=6bb2b6b2-1cd8-4526-94b7-ff7da9abffdf"},"vehicle_type_id":"4","last_reported":1721768968,"current_range_meters":16400,"station_id":"","pricing_plan_id":"cebpf4jnsgd1na2vs0mg"},{"bike_id":"0c4d265d-b386-45cf-a740-ec86036b1dca","system_id":"levelo_inurba_marseille","lat":43.297774,"lon":5.370875,"is_reserved":false,"is_disabled":false,"rental_uris":{"android":"levelo://app?vid=0c4d265d-b386-45cf-a740-ec86036b1dca","ios":"levelo://app?vid=0c4d265d-b386-45cf-a740-ec86036b1dca"},"vehicle_type_id":"4","last_reported":1721768968,"current_range_meters":2400,"station_id":"ce4bgop2rcd13ifvqc1g","pricing_plan_id":"cebpf4jnsgd1na2vs0mg"},{"bike_id":"3034a283-1449-452c-87cf-ae65caeb894e","system_id":"levelo_inurba_marseille","lat":43.322872,"lon":5.382756,"is_reserved":false,"is_disabled":false,"rental_uris":{"android":"levelo://app?vid=3034a283-1449-452c-87cf-ae65caeb894e","ios":"levelo://app?vid=3034a283-1449-452c-87cf-ae65caeb894e"},"vehicle_type_id":"4","last_reported":1721768968,"current_range_meters":18000,"station_id":"ce4bhr12rcd13ifvqhqg","pricing_plan_id":"cebpf4jnsgd1na2vs0mg"},{"bike_id":"0434edf7-9870-42af-91d6-9800b0c26b22","system_id":"levelo_inurba_marseille","lat":43.322872,"lon":5.382756,"is_reserved":false,"is_disabled":false,"rental_uris":{"android":"levelo://app?vid=0434edf7-9870-42af-91d6-9800b0c26b22","ios":"levelo://app?vid=0434edf7-9870-42af-91d6-9800b0c26b22"},"vehicle_type_id":"4","last_reported":1721768968,"current_range_meters":8000,"station_id":"ce4bhr12rcd13ifvqhqg","pricing_plan_id":"cebpf4jnsgd1na2vs0mg"},{"bike_id":"09cfb928-5324-43cf-ad4d-2626a65af2c0","system_id":"levelo_inurba_marseille","lat":43.297163,"lon":5.365866,"is_reserved":false,"is_disabled":false,"rental_uris":{"android":"levelo://app?vid=09cfb928-5324-43cf-ad4d-2626a65af2c0","ios":"levelo://app?vid=09cfb928-5324-43cf-ad4d-2626a65af2c0"},"vehicle_type_id":"4","last_reported":1721768968,"current_range_meters":14400,"station_id":"ce4bgn12rcd13ifvqbt0","pricing_plan_id":"cebpf4jnsgd1na2vs0mg"},{"bike_id":"7da5cc79-a535-4983-879c-9d87e6dfde61","system_id":"levelo_inurba_marseille","lat":43.296921,"lon":5.376579,"is_reserved":false,"is_disabled":false,"rental_uris":{"android":"levelo://app?vid=7da5cc79-a535-4983-879c-9d87e6dfde61","ios":"levelo://app?vid=7da5cc79-a535-4983-879c-9d87e6dfde61"},"vehicle_type_id":"4","last_reported":1721768968,"current_range_meters":22400,"station_id":"ce4bgkh2rcd13ifvqbl0","pricing_plan_id":"cebpf4jnsgd1na2vs0mg"},{"bike_id":"1db68140-ebba-4740-8d2e-43db0530c17f","system_id":"levelo_inurba_marseille","lat":43.296921,"lon":5.376579,"is_reserved":false,"is_disabled":false,"rental_uris":{"android":"levelo://app?vid=1db68140-ebba-4740-8d2e-43db0530c17f","ios":"levelo://app?vid=1db68140-ebba-4740-8d2e-43db0530c17f"},"vehicle_type_id":"4","last_reported":1721768968,"current_range_meters":22400,"station_id":"ce4bgkh2rcd13ifvqbl0","pricing_plan_id":"cebpf4jnsgd1na2vs0mg"},{"bike_id":"9f896496-b613-42ee-832d-bb3778004f00","system_id":"levelo_inurba_marseille","lat":43.30955,"lon":5.39031,"is_reserved":false,"is_disabled":false,"rental_uris":{"android":"levelo://app?vid=9f896496-b613-42ee-832d-bb3778004f00","ios":"levelo://app?vid=9f896496-b613-42ee-832d-bb3778004f00"},"vehicle_type_id":"4","last_reported":1721768968,"current_range_meters":0,"station_id":"ce4bgup2rcd13ifvqco0","pricing_plan_id":"cebpf4jnsgd1na2vs0mg"},{"bike_id":"3748e580-4673-47ce-adc0-2e3dccf6ebeb","system_id":"levelo_inurba_marseille","lat":43.32895,"lon":5.37548,"is_reserved":false,"is_disabled":false,"rental_uris":{"android":"levelo://app?vid=3748e580-4673-47ce-adc0-2e3dccf6ebeb","ios":"levelo://app?vid=3748e580-4673-47ce-adc0-2e3dccf6ebeb"},"vehicle_type_id":"4","last_reported":1721768968,"current_range_meters":14400,"station_id":"","pricing_plan_id":"cebpf4jnsgd1na2vs0mg"},{"bike_id":"1f522328-55cc-4008-8deb-3fa70d2561a1","system_id":"levelo_inurba_marseille","lat":43.309589,"lon":5.390258,"is_reserved":false,"is_disabled":false,"rental_uris":{"android":"levelo://app?vid=1f522328-55cc-4008-8deb-3fa70d2561a1","ios":"levelo://app?vid=1f522328-55cc-4008-8deb-3fa70d2561a1"},"vehicle_type_id":"4","last_reported":1721768968,"current_range_meters":0,"station_id":"ce4bgup2rcd13ifvqco0","pricing_plan_id":"cebpf4jnsgd1na2vs0mg"},{"bike_id":"11907d34-1d74-4afd-90ee-14aa919ec401","system_id":"levelo_inurba_marseille","lat":43.27996,"lon":5.416624,"is_reserved":false,"is_disabled":false,"rental_uris":{"android":"levelo://app?vid=11907d34-1d74-4afd-90ee-14aa919ec401","ios":"levelo://app?vid=11907d34-1d74-4afd-90ee-14aa919ec401"},"vehicle_type_id":"4","last_reported":1721768968,"current_range_meters":22400,"station_id":"ce4bho12rcd13ifvqh1g","pricing_plan_id":"cebpf4jnsgd1na2vs0mg"},{"bike_id":"9d6b614c-e497-4e05-933d-3a819695fe49","system_id":"levelo_inurba_marseille","lat":43.309589,"lon":5.390258,"is_reserved":false,"is_disabled":false,"rental_uris":{"android":"levelo://app?vid=9d6b614c-e497-4e05-933d-3a819695fe49","ios":"levelo://app?vid=9d6b614c-e497-4e05-933d-3a819695fe49"},"vehicle_type_id":"4","last_reported":1721768968,"current_range_meters":400,"station_id":"ce4bgup2rcd13ifvqco0","pricing_plan_id":"cebpf4jnsgd1na2vs0mg"},{"bike_id":"160d1f3f-4cbe-4d1c-b9d0-13adacd0d8f3","system_id":"levelo_inurba_marseille","lat":43.317557,"lon":5.390173,"is_reserved":false,"is_disabled":false,"rental_uris":{"android":"levelo://app?vid=160d1f3f-4cbe-4d1c-b9d0-13adacd0d8f3","ios":"levelo://app?vid=160d1f3f-4cbe-4d1c-b9d0-13adacd0d8f3"},"vehicle_type_id":"4","last_reported":1721768968,"current_range_meters":27600,"station_id":"ce4bhqp2rcd13ifvqhng","pricing_plan_id":"cebpf4jnsgd1na2vs0mg"},{"bike_id":"aca6ff4b-cf49-4355-b206-ecc2d3da5149","system_id":"levelo_inurba_marseille","lat":43.31755,"lon":5.39015,"is_reserved":false,"is_disabled":false,"rental_uris":{"android":"levelo://app?vid=aca6ff4b-cf49-4355-b206-ecc2d3da5149","ios":"levelo://app?vid=aca6ff4b-cf49-4355-b206-ecc2d3da5149"},"vehicle_type_id":"4","last_reported":1721768968,"current_range_meters":3600,"station_id":"ce4bhqp2rcd13ifvqhng","pricing_plan_id":"cebpf4jnsgd1na2vs0mg"},{"bike_id":"7d0aa484-dcb1-4c25-833d-cce67a521118","system_id":"levelo_inurba_marseille","lat":43.317557,"lon":5.390173,"is_reserved":false,"is_disabled":false,"rental_uris":{"android":"levelo://app?vid=7d0aa484-dcb1-4c25-833d-cce67a521118","ios":"levelo://app?vid=7d0aa484-dcb1-4c25-833d-cce67a521118"},"vehicle_type_id":"4","last_reported":1721768968,"current_range_meters":2800,"station_id":"ce4bhqp2rcd13ifvqhng","pricing_plan_id":"cebpf4jnsgd1na2vs0mg"},{"bike_id":"a62ce65a-c999-4ad6-abe7-333b7bb4d3c8","system_id":"levelo_inurba_marseille","lat":43.3176,"lon":5.390188,"is_reserved":false,"is_disabled":false,"rental_uris":{"android":"levelo://app?vid=a62ce65a-c999-4ad6-abe7-333b7bb4d3c8","ios":"levelo://app?vid=a62ce65a-c999-4ad6-abe7-333b7bb4d3c8"},"vehicle_type_id":"4","last_reported":1721768968,"current_range_meters":11600,"station_id":"ce4bhqp2rcd13ifvqhng","pricing_plan_id":"cebpf4jnsgd1na2vs0mg"},{"bike_id":"8ba6af56-b43b-4aa7-82bb-7513f53c0e29","system_id":"levelo_inurba_marseille","lat":43.317557,"lon":5.390173,"is_reserved":false,"is_disabled":false,"rental_uris":{"android":"levelo://app?vid=8ba6af56-b43b-4aa7-82bb-7513f53c0e29","ios":"levelo://app?vid=8ba6af56-b43b-4aa7-82bb-7513f53c0e29"},"vehicle_type_id":"4","last_reported":1721768968,"current_range_meters":15600,"station_id":"ce4bhqp2rcd13ifvqhng","pricing_plan_id":"cebpf4jnsgd1na2vs0mg"},{"bike_id":"3332e540-5a63-478f-b1f0-3e04d8a3905e","system_id":"levelo_inurba_marseille","lat":43.29523,"lon":5.36139,"is_reserved":false,"is_disabled":false,"rental_uris":{"android":"levelo://app?vid=3332e540-5a63-478f-b1f0-3e04d8a3905e","ios":"levelo://app?vid=3332e540-5a63-478f-b1f0-3e04d8a3905e"},"vehicle_type_id":"4","last_reported":1721768968,"current_range_meters":26400,"station_id":"","pricing_plan_id":"cebpf4jnsgd1na2vs0mg"},{"bike_id":"e2ce954d-4d45-4862-9e66-3e8e921bec31","system_id":"levelo_inurba_marseille","lat":43.295748,"lon":5.37522,"is_reserved":false,"is_disabled":false,"rental_uris":{"android":"levelo://app?vid=e2ce954d-4d45-4862-9e66-3e8e921bec31","ios":"levelo://app?vid=e2ce954d-4d45-4862-9e66-3e8e921bec31"},"vehicle_type_id":"4","last_reported":1721768968,"current_range_meters":29600,"station_id":"ce4bgh92rcd13ifvqb50","pricing_plan_id":"cebpf4jnsgd1na2vs0mg"},{"bike_id":"bf565ec3-d253-46fa-b3cd-92add61f40e3","system_id":"levelo_inurba_marseille","lat":43.304278,"lon":5.388868,"is_reserved":false,"is_disabled":false,"rental_uris":{"android":"levelo://app?vid=bf565ec3-d253-46fa-b3cd-92add61f40e3","ios":"levelo://app?vid=bf565ec3-d253-46fa-b3cd-92add61f40e3"},"vehicle_type_id":"4","last_reported":1721768968,"current_range_meters":7200,"station_id":"ce4bgk12rcd13ifvqbi0","pricing_plan_id":"cebpf4jnsgd1na2vs0mg"},{"bike_id":"4c6ef7ea-1cf0-4f73-ae70-6e9e66dd7cb0","system_id":"levelo_inurba_marseille","lat":43.299707,"lon":5.384859,"is_reserved":false,"is_disabled":false,"rental_uris":{"android":"levelo://app?vid=4c6ef7ea-1cf0-4f73-ae70-6e9e66dd7cb0","ios":"levelo://app?vid=4c6ef7ea-1cf0-4f73-ae70-6e9e66dd7cb0"},"vehicle_type_id":"4","last_reported":1721768968,"current_range_meters":0,"station_id":"ce4bgj92rcd13ifvqbd0","pricing_plan_id":"cebpf4jnsgd1na2vs0mg"},{"bike_id":"630f6b06-f56b-4557-9178-a7a094ba558e","system_id":"levelo_inurba_marseille","lat":43.299724,"lon":5.384848,"is_reserved":false,"is_disabled":false,"rental_uris":{"android":"levelo://app?vid=630f6b06-f56b-4557-9178-a7a094ba558e","ios":"levelo://app?vid=630f6b06-f56b-4557-9178-a7a094ba558e"},"vehicle_type_id":"4","last_reported":1721768968,"current_range_meters":0,"station_id":"ce4bgj92rcd13ifvqbd0","pricing_plan_id":"cebpf4jnsgd1na2vs0mg"},{"bike_id":"97121499-1f87-4d41-bbac-46af6b3e7cc4","system_id":"levelo_inurba_marseille","lat":43.295279,"lon":5.375048,"is_reserved":false,"is_disabled":false,"rental_uris":{"android":"levelo://app?vid=97121499-1f87-4d41-bbac-46af6b3e7cc4","ios":"levelo://app?vid=97121499-1f87-4d41-bbac-46af6b3e7cc4"},"vehicle_type_id":"4","last_reported":1721768968,"current_range_meters":23200,"station_id":"ce4bgkp2rcd13ifvqbmg","pricing_plan_id":"cebpf4jnsgd1na2vs0mg"},{"bike_id":"19a0ca4b-cbd0-46bc-a485-6c6a20b2e20c","system_id":"levelo_inurba_marseille","lat":43.295279,"lon":5.375048,"is_reserved":false,"is_disabled":false,"rental_uris":{"android":"levelo://app?vid=19a0ca4b-cbd0-46bc-a485-6c6a20b2e20c","ios":"levelo://app?vid=19a0ca4b-cbd0-46bc-a485-6c6a20b2e20c"},"vehicle_type_id":"4","last_reported":1721768968,"current_range_meters":0,"station_id":"ce4bgkp2rcd13ifvqbmg","pricing_plan_id":"cebpf4jnsgd1na2vs0mg"},{"bike_id":"458b75f5-3332-4681-9323-ac47d2db4aba","system_id":"levelo_inurba_marseille","lat":43.301396,"lon":5.387812,"is_reserved":false,"is_disabled":false,"rental_uris":{"android":"levelo://app?vid=458b75f5-3332-4681-9323-ac47d2db4aba","ios":"levelo://app?vid=458b75f5-3332-4681-9323-ac47d2db4aba"},"vehicle_type_id":"4","last_reported":1721768968,"current_range_meters":1200,"station_id":"ce4bghh2rcd13ifvqb60","pricing_plan_id":"cebpf4jnsgd1na2vs0mg"},{"bike_id":"57e3beb2-c4da-4f9c-80f6-c5573330c5f3","system_id":"levelo_inurba_marseille","lat":43.32367,"lon":5.388836,"is_reserved":false,"is_disabled":false,"rental_uris":{"android":"levelo://app?vid=57e3beb2-c4da-4f9c-80f6-c5573330c5f3","ios":"levelo://app?vid=57e3beb2-c4da-4f9c-80f6-c5573330c5f3"},"vehicle_type_id":"4","last_reported":1721768968,"current_range_meters":4800,"station_id":"ce4bhqp2rcd13ifvqhog","pricing_plan_id":"cebpf4jnsgd1na2vs0mg"},{"bike_id":"7f192520-bcca-4340-86d9-c54d37f217f0","system_id":"levelo_inurba_marseille","lat":43.32367,"lon":5.388836,"is_reserved":false,"is_disabled":false,"rental_uris":{"android":"levelo://app?vid=7f192520-bcca-4340-86d9-c54d37f217f0","ios":"levelo://app?vid=7f192520-bcca-4340-86d9-c54d37f217f0"},"vehicle_type_id":"4","last_reported":1721768968,"current_range_meters":16800,"station_id":"ce4bhqp2rcd13ifvqhog","pricing_plan_id":"cebpf4jnsgd1na2vs0mg"},{"bike_id":"0b4dca68-5109-48d9-be6b-eee6b7c45e38","system_id":"levelo_inurba_marseille","lat":43.29228,"lon":5.36596,"is_reserved":false,"is_disabled":false,"rental_uris":{"android":"levelo://app?vid=0b4dca68-5109-48d9-be6b-eee6b7c45e38","ios":"levelo://app?vid=0b4dca68-5109-48d9-be6b-eee6b7c45e38"},"vehicle_type_id":"4","last_reported":1721768968,"current_range_meters":30800,"station_id":"","pricing_plan_id":"cebpf4jnsgd1na2vs0mg"},{"bike_id":"c95c6585-8cee-48ba-a2fa-47a6304e8545","system_id":"levelo_inurba_marseille","lat":43.309038,"lon":5.396546,"is_reserved":false,"is_disabled":false,"rental_uris":{"android":"levelo://app?vid=c95c6585-8cee-48ba-a2fa-47a6304e8545","ios":"levelo://app?vid=c95c6585-8cee-48ba-a2fa-47a6304e8545"},"vehicle_type_id":"4","last_reported":1721768968,"current_range_meters":28800,"station_id":"ce4bh012rcd13ifvqcv0","pricing_plan_id":"cebpf4jnsgd1na2vs0mg"},{"bike_id":"53ae491f-ddf9-478f-b327-f5a4d7d217c7","system_id":"levelo_inurba_marseille","lat":43.305994,"lon":5.393687,"is_reserved":false,"is_disabled":false,"rental_uris":{"android":"levelo://app?vid=53ae491f-ddf9-478f-b327-f5a4d7d217c7","ios":"levelo://app?vid=53ae491f-ddf9-478f-b327-f5a4d7d217c7"},"vehicle_type_id":"4","last_reported":1721768968,"current_range_meters":16000,"station_id":"ce4bh0p2rcd13ifvqd80","pricing_plan_id":"cebpf4jnsgd1na2vs0mg"},{"bike_id":"ca5679ce-696a-433a-9b8b-4a98f015cc83","system_id":"levelo_inurba_marseille","lat":43.303002,"lon":5.392142,"is_reserved":false,"is_disabled":false,"rental_uris":{"android":"levelo://app?vid=ca5679ce-696a-433a-9b8b-4a98f015cc83","ios":"levelo://app?vid=ca5679ce-696a-433a-9b8b-4a98f015cc83"},"vehicle_type_id":"4","last_reported":1721768968,"current_range_meters":25600,"station_id":"ce4bgkh2rcd13ifvqbk0","pricing_plan_id":"cebpf4jnsgd1na2vs0mg"},{"bike_id":"47ce800b-ca20-4ded-b36b-89893339f8ae","system_id":"levelo_inurba_marseille","lat":43.319179,"lon":5.407725,"is_reserved":false,"is_disabled":false,"rental_uris":{"android":"levelo://app?vid=47ce800b-ca20-4ded-b36b-89893339f8ae","ios":"levelo://app?vid=47ce800b-ca20-4ded-b36b-89893339f8ae"},"vehicle_type_id":"4","last_reported":1721768968,"current_range_meters":15200,"station_id":"ce4bhq12rcd13ifvqhig","pricing_plan_id":"cebpf4jnsgd1na2vs0mg"},{"bike_id":"e90bb32b-630b-4106-bc33-b923f30f442d","system_id":"levelo_inurba_marseille","lat":43.30085,"lon":5.390856,"is_reserved":false,"is_disabled":false,"rental_uris":{"android":"levelo://app?vid=e90bb32b-630b-4106-bc33-b923f30f442d","ios":"levelo://app?vid=e90bb32b-630b-4106-bc33-b923f30f442d"},"vehicle_type_id":"4","last_reported":1721768968,"current_range_meters":5200,"station_id":"ce4bh192rcd13ifvqdb0","pricing_plan_id":"cebpf4jnsgd1na2vs0mg"},{"bike_id":"9cabed46-4916-4763-bd6a-c89df46e8c0f","system_id":"levelo_inurba_marseille","lat":43.298764,"lon":5.388973,"is_reserved":false,"is_disabled":false,"rental_uris":{"android":"levelo://app?vid=9cabed46-4916-4763-bd6a-c89df46e8c0f","ios":"levelo://app?vid=9cabed46-4916-4763-bd6a-c89df46e8c0f"},"vehicle_type_id":"4","last_reported":1721768968,"current_range_meters":21600,"station_id":"ce4bh392rcd13ifvqdl0","pricing_plan_id":"cebpf4jnsgd1na2vs0mg"},{"bike_id":"1d308c08-1b4e-43a9-8745-94888f2c2a3b","system_id":"levelo_inurba_marseille","lat":43.298764,"lon":5.388973,"is_reserved":false,"is_disabled":false,"rental_uris":{"android":"levelo://app?vid=1d308c08-1b4e-43a9-8745-94888f2c2a3b","ios":"levelo://app?vid=1d308c08-1b4e-43a9-8745-94888f2c2a3b"},"vehicle_type_id":"4","last_reported":1721768968,"current_range_meters":0,"station_id":"ce4bh392rcd13ifvqdl0","pricing_plan_id":"cebpf4jnsgd1na2vs0mg"},{"bike_id":"2decce0e-a8fb-4850-a29c-3f356623a120","system_id":"levelo_inurba_marseille","lat":43.298764,"lon":5.388973,"is_reserved":false,"is_disabled":false,"rental_uris":{"android":"levelo://app?vid=2decce0e-a8fb-4850-a29c-3f356623a120","ios":"levelo://app?vid=2decce0e-a8fb-4850-a29c-3f356623a120"},"vehicle_type_id":"4","last_reported":1721768968,"current_range_meters":16000,"station_id":"ce4bh392rcd13ifvqdl0","pricing_plan_id":"cebpf4jnsgd1na2vs0mg"},{"bike_id":"f83b7edd-2725-4f4d-81bb-d1f1408589ec","system_id":"levelo_inurba_marseille","lat":43.31326,"lon":5.39679,"is_reserved":false,"is_disabled":false,"rental_uris":{"android":"levelo://app?vid=f83b7edd-2725-4f4d-81bb-d1f1408589ec","ios":"levelo://app?vid=f83b7edd-2725-4f4d-81bb-d1f1408589ec"},"vehicle_type_id":"4","last_reported":1721768968,"current_range_meters":0,"station_id":"ce4bgvp2rcd13ifvqcu0","pricing_plan_id":"cebpf4jnsgd1na2vs0mg"},{"bike_id":"44b726c5-869b-4619-bc72-f3d12e8aaf30","system_id":"levelo_inurba_marseille","lat":43.309038,"lon":5.396546,"is_reserved":false,"is_disabled":false,"rental_uris":{"android":"levelo://app?vid=44b726c5-869b-4619-bc72-f3d12e8aaf30","ios":"levelo://app?vid=44b726c5-869b-4619-bc72-f3d12e8aaf30"},"vehicle_type_id":"4","last_reported":1721768968,"current_range_meters":13600,"station_id":"ce4bh012rcd13ifvqcv0","pricing_plan_id":"cebpf4jnsgd1na2vs0mg"},{"bike_id":"7f067c87-bc4f-43b1-98cd-053a084076da","system_id":"levelo_inurba_marseille","lat":43.313291,"lon":5.396838,"is_reserved":false,"is_disabled":false,"rental_uris":{"android":"levelo://app?vid=7f067c87-bc4f-43b1-98cd-053a084076da","ios":"levelo://app?vid=7f067c87-bc4f-43b1-98cd-053a084076da"},"vehicle_type_id":"4","last_reported":1721768968,"current_range_meters":19600,"station_id":"ce4bgvp2rcd13ifvqcu0","pricing_plan_id":"cebpf4jnsgd1na2vs0mg"},{"bike_id":"3e3ab352-3d79-4dc7-b291-2133c5958920","system_id":"levelo_inurba_marseille","lat":43.313291,"lon":5.396838,"is_reserved":false,"is_disabled":false,"rental_uris":{"android":"levelo://app?vid=3e3ab352-3d79-4dc7-b291-2133c5958920","ios":"levelo://app?vid=3e3ab352-3d79-4dc7-b291-2133c5958920"},"vehicle_type_id":"4","last_reported":1721768968,"current_range_meters":0,"station_id":"ce4bgvp2rcd13ifvqcu0","pricing_plan_id":"cebpf4jnsgd1na2vs0mg"},{"bike_id":"7881f017-489f-4d68-8082-25d0d005875b","system_id":"levelo_inurba_marseille","lat":43.313291,"lon":5.396838,"is_reserved":false,"is_disabled":false,"rental_uris":{"android":"levelo://app?vid=7881f017-489f-4d68-8082-25d0d005875b","ios":"levelo://app?vid=7881f017-489f-4d68-8082-25d0d005875b"},"vehicle_type_id":"4","last_reported":1721768968,"current_range_meters":11600,"station_id":"ce4bgvp2rcd13ifvqcu0","pricing_plan_id":"cebpf4jnsgd1na2vs0mg"},{"bike_id":"c7b4ce92-22ab-410b-8d6b-e5cee2fbc3da","system_id":"levelo_inurba_marseille","lat":43.313291,"lon":5.396838,"is_reserved":false,"is_disabled":false,"rental_uris":{"android":"levelo://app?vid=c7b4ce92-22ab-410b-8d6b-e5cee2fbc3da","ios":"levelo://app?vid=c7b4ce92-22ab-410b-8d6b-e5cee2fbc3da"},"vehicle_type_id":"4","last_reported":1721768968,"current_range_meters":9600,"station_id":"ce4bgvp2rcd13ifvqcu0","pricing_plan_id":"cebpf4jnsgd1na2vs0mg"},{"bike_id":"bb853a66-2b20-4467-9d73-778288d217a3","system_id":"levelo_inurba_marseille","lat":43.313291,"lon":5.396838,"is_reserved":false,"is_disabled":false,"rental_uris":{"android":"levelo://app?vid=bb853a66-2b20-4467-9d73-778288d217a3","ios":"levelo://app?vid=bb853a66-2b20-4467-9d73-778288d217a3"},"vehicle_type_id":"4","last_reported":1721768968,"current_range_meters":12000,"station_id":"ce4bgvp2rcd13ifvqcu0","pricing_plan_id":"cebpf4jnsgd1na2vs0mg"},{"bike_id":"b60545fa-4882-4b2b-87c4-75826f730610","system_id":"levelo_inurba_marseille","lat":43.31329,"lon":5.39699,"is_reserved":false,"is_disabled":false,"rental_uris":{"android":"levelo://app?vid=b60545fa-4882-4b2b-87c4-75826f730610","ios":"levelo://app?vid=b60545fa-4882-4b2b-87c4-75826f730610"},"vehicle_type_id":"4","last_reported":1721768968,"current_range_meters":4400,"station_id":"ce4bgvp2rcd13ifvqcu0","pricing_plan_id":"cebpf4jnsgd1na2vs0mg"},{"bike_id":"2e651fdb-4444-4d8b-bb01-3044165707fe","system_id":"levelo_inurba_marseille","lat":43.31325,"lon":5.397,"is_reserved":false,"is_disabled":false,"rental_uris":{"android":"levelo://app?vid=2e651fdb-4444-4d8b-bb01-3044165707fe","ios":"levelo://app?vid=2e651fdb-4444-4d8b-bb01-3044165707fe"},"vehicle_type_id":"4","last_reported":1721768968,"current_range_meters":8800,"station_id":"ce4bgvp2rcd13ifvqcu0","pricing_plan_id":"cebpf4jnsgd1na2vs0mg"},{"bike_id":"91535494-d97f-43d6-b2de-eb1a56367692","system_id":"levelo_inurba_marseille","lat":43.309038,"lon":5.396546,"is_reserved":false,"is_disabled":false,"rental_uris":{"android":"levelo://app?vid=91535494-d97f-43d6-b2de-eb1a56367692","ios":"levelo://app?vid=91535494-d97f-43d6-b2de-eb1a56367692"},"vehicle_type_id":"4","last_reported":1721768968,"current_range_meters":3600,"station_id":"ce4bh012rcd13ifvqcv0","pricing_plan_id":"cebpf4jnsgd1na2vs0mg"},{"bike_id":"5f7e6f50-75eb-44f1-b8bd-d7bf6c545c65","system_id":"levelo_inurba_marseille","lat":43.309047,"lon":5.396551,"is_reserved":false,"is_disabled":false,"rental_uris":{"android":"levelo://app?vid=5f7e6f50-75eb-44f1-b8bd-d7bf6c545c65","ios":"levelo://app?vid=5f7e6f50-75eb-44f1-b8bd-d7bf6c545c65"},"vehicle_type_id":"4","last_reported":1721768968,"current_range_meters":26800,"station_id":"ce4bh012rcd13ifvqcv0","pricing_plan_id":"cebpf4jnsgd1na2vs0mg"},{"bike_id":"78e926ae-814d-4213-bac2-46f71a3141b3","system_id":"levelo_inurba_marseille","lat":43.309038,"lon":5.396546,"is_reserved":false,"is_disabled":false,"rental_uris":{"android":"levelo://app?vid=78e926ae-814d-4213-bac2-46f71a3141b3","ios":"levelo://app?vid=78e926ae-814d-4213-bac2-46f71a3141b3"},"vehicle_type_id":"4","last_reported":1721768968,"current_range_meters":10400,"station_id":"ce4bh012rcd13ifvqcv0","pricing_plan_id":"cebpf4jnsgd1na2vs0mg"},{"bike_id":"963af80e-219c-4a76-97a5-e9d0ffe03179","system_id":"levelo_inurba_marseille","lat":43.309038,"lon":5.396546,"is_reserved":false,"is_disabled":false,"rental_uris":{"android":"levelo://app?vid=963af80e-219c-4a76-97a5-e9d0ffe03179","ios":"levelo://app?vid=963af80e-219c-4a76-97a5-e9d0ffe03179"},"vehicle_type_id":"4","last_reported":1721768968,"current_range_meters":28000,"station_id":"ce4bh012rcd13ifvqcv0","pricing_plan_id":"cebpf4jnsgd1na2vs0mg"},{"bike_id":"e9eeb442-3ab5-4020-98ed-ad3ba6ce56f2","system_id":"levelo_inurba_marseille","lat":43.303837,"lon":5.418724,"is_reserved":false,"is_disabled":false,"rental_uris":{"android":"levelo://app?vid=e9eeb442-3ab5-4020-98ed-ad3ba6ce56f2","ios":"levelo://app?vid=e9eeb442-3ab5-4020-98ed-ad3ba6ce56f2"},"vehicle_type_id":"4","last_reported":1721768968,"current_range_meters":31200,"station_id":"ce4bhop2rcd13ifvqh7g","pricing_plan_id":"cebpf4jnsgd1na2vs0mg"},{"bike_id":"8e698152-a1ea-47a8-8608-c539145b8933","system_id":"levelo_inurba_marseille","lat":43.29525,"lon":5.3854,"is_reserved":false,"is_disabled":false,"rental_uris":{"android":"levelo://app?vid=8e698152-a1ea-47a8-8608-c539145b8933","ios":"levelo://app?vid=8e698152-a1ea-47a8-8608-c539145b8933"},"vehicle_type_id":"4","last_reported":1721768968,"current_range_meters":0,"station_id":"ce4bgih2rcd13ifvqba0","pricing_plan_id":"cebpf4jnsgd1na2vs0mg"},{"bike_id":"a4b16193-cff7-427f-9dcc-f09d37acbce2","system_id":"levelo_inurba_marseille","lat":43.295342,"lon":5.385709,"is_reserved":false,"is_disabled":false,"rental_uris":{"android":"levelo://app?vid=a4b16193-cff7-427f-9dcc-f09d37acbce2","ios":"levelo://app?vid=a4b16193-cff7-427f-9dcc-f09d37acbce2"},"vehicle_type_id":"4","last_reported":1721768968,"current_range_meters":14800,"station_id":"","pricing_plan_id":"cebpf4jnsgd1na2vs0mg"},{"bike_id":"a90e2ea4-7848-4a9e-b20e-574f9e1fe0d2","system_id":"levelo_inurba_marseille","lat":43.29529,"lon":5.385581,"is_reserved":false,"is_disabled":false,"rental_uris":{"android":"levelo://app?vid=a90e2ea4-7848-4a9e-b20e-574f9e1fe0d2","ios":"levelo://app?vid=a90e2ea4-7848-4a9e-b20e-574f9e1fe0d2"},"vehicle_type_id":"4","last_reported":1721768968,"current_range_meters":10400,"station_id":"ce4bgih2rcd13ifvqba0","pricing_plan_id":"cebpf4jnsgd1na2vs0mg"},{"bike_id":"c9ed14b6-484d-4b16-b9cd-2c24e07d6d97","system_id":"levelo_inurba_marseille","lat":43.290779,"lon":5.371482,"is_reserved":false,"is_disabled":false,"rental_uris":{"android":"levelo://app?vid=c9ed14b6-484d-4b16-b9cd-2c24e07d6d97","ios":"levelo://app?vid=c9ed14b6-484d-4b16-b9cd-2c24e07d6d97"},"vehicle_type_id":"4","last_reported":1721768968,"current_range_meters":29200,"station_id":"ce4bh5p2rcd13ifvqe4g","pricing_plan_id":"cebpf4jnsgd1na2vs0mg"},{"bike_id":"46cedb0e-6d66-4630-9022-88b1c3e42f4d","system_id":"levelo_inurba_marseille","lat":43.283998,"lon":5.375062,"is_reserved":false,"is_disabled":false,"rental_uris":{"android":"levelo://app?vid=46cedb0e-6d66-4630-9022-88b1c3e42f4d","ios":"levelo://app?vid=46cedb0e-6d66-4630-9022-88b1c3e42f4d"},"vehicle_type_id":"4","last_reported":1721768968,"current_range_meters":2000,"station_id":"ce4bh412rcd13ifvqds0","pricing_plan_id":"cebpf4jnsgd1na2vs0mg"},{"bike_id":"c6b01c6e-4199-4dbf-bd8a-505c4e3abbb9","system_id":"levelo_inurba_marseille","lat":43.314536,"lon":5.398224,"is_reserved":false,"is_disabled":false,"rental_uris":{"android":"levelo://app?vid=c6b01c6e-4199-4dbf-bd8a-505c4e3abbb9","ios":"levelo://app?vid=c6b01c6e-4199-4dbf-bd8a-505c4e3abbb9"},"vehicle_type_id":"4","last_reported":1721768968,"current_range_meters":13600,"station_id":"","pricing_plan_id":"cebpf4jnsgd1na2vs0mg"},{"bike_id":"15360cbc-49d5-4424-88d8-7e8b3c2c30cc","system_id":"levelo_inurba_marseille","lat":43.289694,"lon":5.365204,"is_reserved":false,"is_disabled":false,"rental_uris":{"android":"levelo://app?vid=15360cbc-49d5-4424-88d8-7e8b3c2c30cc","ios":"levelo://app?vid=15360cbc-49d5-4424-88d8-7e8b3c2c30cc"},"vehicle_type_id":"4","last_reported":1721768968,"current_range_meters":0,"station_id":"ce4bh692rcd13ifvqea0","pricing_plan_id":"cebpf4jnsgd1na2vs0mg"},{"bike_id":"193273fb-ecac-4705-bfaa-b66ef529f9a4","system_id":"levelo_inurba_marseille","lat":43.29416,"lon":5.38621,"is_reserved":false,"is_disabled":false,"rental_uris":{"android":"levelo://app?vid=193273fb-ecac-4705-bfaa-b66ef529f9a4","ios":"levelo://app?vid=193273fb-ecac-4705-bfaa-b66ef529f9a4"},"vehicle_type_id":"4","last_reported":1721768968,"current_range_meters":30400,"station_id":"ce4bh2h2rcd13ifvqdh0","pricing_plan_id":"cebpf4jnsgd1na2vs0mg"},{"bike_id":"a02945aa-2ed5-4626-a753-678069c13f9d","system_id":"levelo_inurba_marseille","lat":43.29417,"lon":5.38625,"is_reserved":false,"is_disabled":false,"rental_uris":{"android":"levelo://app?vid=a02945aa-2ed5-4626-a753-678069c13f9d","ios":"levelo://app?vid=a02945aa-2ed5-4626-a753-678069c13f9d"},"vehicle_type_id":"4","last_reported":1721768968,"current_range_meters":17200,"station_id":"ce4bh2h2rcd13ifvqdh0","pricing_plan_id":"cebpf4jnsgd1na2vs0mg"},{"bike_id":"5021f781-fcce-44ae-b56f-258579fa4189","system_id":"levelo_inurba_marseille","lat":43.290327,"lon":5.375711,"is_reserved":false,"is_disabled":false,"rental_uris":{"android":"levelo://app?vid=5021f781-fcce-44ae-b56f-258579fa4189","ios":"levelo://app?vid=5021f781-fcce-44ae-b56f-258579fa4189"},"vehicle_type_id":"4","last_reported":1721768968,"current_range_meters":23200,"station_id":"ce4bh692rcd13ifvqe90","pricing_plan_id":"cebpf4jnsgd1na2vs0mg"},{"bike_id":"d5e86059-8597-46bb-885d-6c14fbb89c74","system_id":"levelo_inurba_marseille","lat":43.28941,"lon":5.36629,"is_reserved":false,"is_disabled":false,"rental_uris":{"android":"levelo://app?vid=d5e86059-8597-46bb-885d-6c14fbb89c74","ios":"levelo://app?vid=d5e86059-8597-46bb-885d-6c14fbb89c74"},"vehicle_type_id":"4","last_reported":1721768968,"current_range_meters":0,"station_id":"ce4bhap2rcd13ifvqek0","pricing_plan_id":"cebpf4jnsgd1na2vs0mg"},{"bike_id":"a2992d8e-5e1b-4f0c-9ad8-9292c3b6c43e","system_id":"levelo_inurba_marseille","lat":43.28939,"lon":5.36634,"is_reserved":false,"is_disabled":false,"rental_uris":{"android":"levelo://app?vid=a2992d8e-5e1b-4f0c-9ad8-9292c3b6c43e","ios":"levelo://app?vid=a2992d8e-5e1b-4f0c-9ad8-9292c3b6c43e"},"vehicle_type_id":"4","last_reported":1721768968,"current_range_meters":0,"station_id":"ce4bhap2rcd13ifvqek0","pricing_plan_id":"cebpf4jnsgd1na2vs0mg"},{"bike_id":"7fe2973a-32b2-4359-aa9b-d663aed6fc05","system_id":"levelo_inurba_marseille","lat":43.289184,"lon":5.366408,"is_reserved":false,"is_disabled":false,"rental_uris":{"android":"levelo://app?vid=7fe2973a-32b2-4359-aa9b-d663aed6fc05","ios":"levelo://app?vid=7fe2973a-32b2-4359-aa9b-d663aed6fc05"},"vehicle_type_id":"4","last_reported":1721768968,"current_range_meters":17600,"station_id":"ce4bhap2rcd13ifvqek0","pricing_plan_id":"cebpf4jnsgd1na2vs0mg"},{"bike_id":"3daaf9f5-5cfa-4bac-a393-9574ad197a6f","system_id":"levelo_inurba_marseille","lat":43.28934,"lon":5.36639,"is_reserved":false,"is_disabled":false,"rental_uris":{"android":"levelo://app?vid=3daaf9f5-5cfa-4bac-a393-9574ad197a6f","ios":"levelo://app?vid=3daaf9f5-5cfa-4bac-a393-9574ad197a6f"},"vehicle_type_id":"4","last_reported":1721768968,"current_range_meters":0,"station_id":"ce4bhap2rcd13ifvqek0","pricing_plan_id":"cebpf4jnsgd1na2vs0mg"},{"bike_id":"2ed1a38d-addc-40f8-bd14-f2c8a4c6590d","system_id":"levelo_inurba_marseille","lat":43.289365,"lon":5.364015,"is_reserved":false,"is_disabled":false,"rental_uris":{"android":"levelo://app?vid=2ed1a38d-addc-40f8-bd14-f2c8a4c6590d","ios":"levelo://app?vid=2ed1a38d-addc-40f8-bd14-f2c8a4c6590d"},"vehicle_type_id":"4","last_reported":1721768968,"current_range_meters":0,"station_id":"ce4bhc92rcd13ifvqetg","pricing_plan_id":"cebpf4jnsgd1na2vs0mg"},{"bike_id":"f90e001e-c660-4bd0-b117-29de828dac2d","system_id":"levelo_inurba_marseille","lat":43.292644,"lon":5.384257,"is_reserved":false,"is_disabled":false,"rental_uris":{"android":"levelo://app?vid=f90e001e-c660-4bd0-b117-29de828dac2d","ios":"levelo://app?vid=f90e001e-c660-4bd0-b117-29de828dac2d"},"vehicle_type_id":"4","last_reported":1721768968,"current_range_meters":14400,"station_id":"ce4bh692rcd13ifvqea0","pricing_plan_id":"cebpf4jnsgd1na2vs0mg"},{"bike_id":"37afa124-47ad-4e23-a0c2-f55a4e0df902","system_id":"levelo_inurba_marseille","lat":43.292644,"lon":5.384257,"is_reserved":false,"is_disabled":false,"rental_uris":{"android":"levelo://app?vid=37afa124-47ad-4e23-a0c2-f55a4e0df902","ios":"levelo://app?vid=37afa124-47ad-4e23-a0c2-f55a4e0df902"},"vehicle_type_id":"4","last_reported":1721768968,"current_range_meters":2000,"station_id":"ce4bh692rcd13ifvqea0","pricing_plan_id":"cebpf4jnsgd1na2vs0mg"},{"bike_id":"985542bd-c6e9-424d-8ba6-43ffeeb0dff1","system_id":"levelo_inurba_marseille","lat":43.292642,"lon":5.384254,"is_reserved":false,"is_disabled":false,"rental_uris":{"android":"levelo://app?vid=985542bd-c6e9-424d-8ba6-43ffeeb0dff1","ios":"levelo://app?vid=985542bd-c6e9-424d-8ba6-43ffeeb0dff1"},"vehicle_type_id":"4","last_reported":1721768968,"current_range_meters":0,"station_id":"ce4bh692rcd13ifvqea0","pricing_plan_id":"cebpf4jnsgd1na2vs0mg"},{"bike_id":"2e40a94f-5ce3-467a-bd72-403880f2d213","system_id":"levelo_inurba_marseille","lat":43.294162,"lon":5.386292,"is_reserved":false,"is_disabled":false,"rental_uris":{"android":"levelo://app?vid=2e40a94f-5ce3-467a-bd72-403880f2d213","ios":"levelo://app?vid=2e40a94f-5ce3-467a-bd72-403880f2d213"},"vehicle_type_id":"4","last_reported":1721768968,"current_range_meters":15200,"station_id":"ce4bh2h2rcd13ifvqdh0","pricing_plan_id":"cebpf4jnsgd1na2vs0mg"},{"bike_id":"27826afe-07a4-44f1-bd06-43b27d97ee87","system_id":"levelo_inurba_marseille","lat":43.292644,"lon":5.384257,"is_reserved":false,"is_disabled":false,"rental_uris":{"android":"levelo://app?vid=27826afe-07a4-44f1-bd06-43b27d97ee87","ios":"levelo://app?vid=27826afe-07a4-44f1-bd06-43b27d97ee87"},"vehicle_type_id":"4","last_reported":1721768968,"current_range_meters":31200,"station_id":"ce4bh692rcd13ifvqea0","pricing_plan_id":"cebpf4jnsgd1na2vs0mg"},{"bike_id":"8b49cf9e-aa89-4285-97a0-14960931a2f7","system_id":"levelo_inurba_marseille","lat":43.288627,"lon":5.366537,"is_reserved":false,"is_disabled":false,"rental_uris":{"android":"levelo://app?vid=8b49cf9e-aa89-4285-97a0-14960931a2f7","ios":"levelo://app?vid=8b49cf9e-aa89-4285-97a0-14960931a2f7"},"vehicle_type_id":"4","last_reported":1721768968,"current_range_meters":400,"station_id":"ce4bhap2rcd13ifvqek0","pricing_plan_id":"cebpf4jnsgd1na2vs0mg"},{"bike_id":"0b619b4d-e796-4479-96e7-fc5d0a8c10ef","system_id":"levelo_inurba_marseille","lat":43.290995,"lon":5.381361,"is_reserved":false,"is_disabled":false,"rental_uris":{"android":"levelo://app?vid=0b619b4d-e796-4479-96e7-fc5d0a8c10ef","ios":"levelo://app?vid=0b619b4d-e796-4479-96e7-fc5d0a8c10ef"},"vehicle_type_id":"4","last_reported":1721768968,"current_range_meters":400,"station_id":"ce4bh512rcd13ifvqe2g","pricing_plan_id":"cebpf4jnsgd1na2vs0mg"},{"bike_id":"bbcbb08c-cb62-4b5c-b731-5be3155f7e09","system_id":"levelo_inurba_marseille","lat":43.28957,"lon":5.35732,"is_reserved":false,"is_disabled":false,"rental_uris":{"android":"levelo://app?vid=bbcbb08c-cb62-4b5c-b731-5be3155f7e09","ios":"levelo://app?vid=bbcbb08c-cb62-4b5c-b731-5be3155f7e09"},"vehicle_type_id":"4","last_reported":1721768968,"current_range_meters":0,"station_id":"","pricing_plan_id":"cebpf4jnsgd1na2vs0mg"},{"bike_id":"2b8fc686-c1a9-432b-8cd1-79cb7a1ef82d","system_id":"levelo_inurba_marseille","lat":43.290995,"lon":5.381361,"is_reserved":false,"is_disabled":false,"rental_uris":{"android":"levelo://app?vid=2b8fc686-c1a9-432b-8cd1-79cb7a1ef82d","ios":"levelo://app?vid=2b8fc686-c1a9-432b-8cd1-79cb7a1ef82d"},"vehicle_type_id":"4","last_reported":1721768968,"current_range_meters":2400,"station_id":"ce4bh512rcd13ifvqe2g","pricing_plan_id":"cebpf4jnsgd1na2vs0mg"},{"bike_id":"2a7f1551-bf5c-4bdb-90bb-ba0943932fd4","system_id":"levelo_inurba_marseille","lat":43.290995,"lon":5.381361,"is_reserved":false,"is_disabled":false,"rental_uris":{"android":"levelo://app?vid=2a7f1551-bf5c-4bdb-90bb-ba0943932fd4","ios":"levelo://app?vid=2a7f1551-bf5c-4bdb-90bb-ba0943932fd4"},"vehicle_type_id":"4","last_reported":1721768968,"current_range_meters":800,"station_id":"ce4bh512rcd13ifvqe2g","pricing_plan_id":"cebpf4jnsgd1na2vs0mg"},{"bike_id":"60cf805f-e684-45cd-b8d3-cdf15a62986d","system_id":"levelo_inurba_marseille","lat":43.290995,"lon":5.381361,"is_reserved":false,"is_disabled":false,"rental_uris":{"android":"levelo://app?vid=60cf805f-e684-45cd-b8d3-cdf15a62986d","ios":"levelo://app?vid=60cf805f-e684-45cd-b8d3-cdf15a62986d"},"vehicle_type_id":"4","last_reported":1721768968,"current_range_meters":5600,"station_id":"ce4bh512rcd13ifvqe2g","pricing_plan_id":"cebpf4jnsgd1na2vs0mg"},{"bike_id":"c01f8818-957d-4674-8eb1-16db0dd4a0c9","system_id":"levelo_inurba_marseille","lat":43.290995,"lon":5.381361,"is_reserved":false,"is_disabled":false,"rental_uris":{"android":"levelo://app?vid=c01f8818-957d-4674-8eb1-16db0dd4a0c9","ios":"levelo://app?vid=c01f8818-957d-4674-8eb1-16db0dd4a0c9"},"vehicle_type_id":"4","last_reported":1721768968,"current_range_meters":24000,"station_id":"ce4bh512rcd13ifvqe2g","pricing_plan_id":"cebpf4jnsgd1na2vs0mg"},{"bike_id":"318a29f3-0b37-4b01-a936-7ef517af7a90","system_id":"levelo_inurba_marseille","lat":43.297807,"lon":5.393533,"is_reserved":false,"is_disabled":false,"rental_uris":{"android":"levelo://app?vid=318a29f3-0b37-4b01-a936-7ef517af7a90","ios":"levelo://app?vid=318a29f3-0b37-4b01-a936-7ef517af7a90"},"vehicle_type_id":"4","last_reported":1721768968,"current_range_meters":400,"station_id":"chh1huq6cuj3fo74tm60","pricing_plan_id":"cebpf4jnsgd1na2vs0mg"},{"bike_id":"f9da4bb3-6cc3-4dcd-9678-74edbadf3bab","system_id":"levelo_inurba_marseille","lat":43.297807,"lon":5.393533,"is_reserved":false,"is_disabled":false,"rental_uris":{"android":"levelo://app?vid=f9da4bb3-6cc3-4dcd-9678-74edbadf3bab","ios":"levelo://app?vid=f9da4bb3-6cc3-4dcd-9678-74edbadf3bab"},"vehicle_type_id":"4","last_reported":1721768968,"current_range_meters":15600,"station_id":"chh1huq6cuj3fo74tm60","pricing_plan_id":"cebpf4jnsgd1na2vs0mg"},{"bike_id":"58555cf1-be8e-4f23-a2ba-51fdc4beabb2","system_id":"levelo_inurba_marseille","lat":43.289741,"lon":5.378306,"is_reserved":false,"is_disabled":false,"rental_uris":{"android":"levelo://app?vid=58555cf1-be8e-4f23-a2ba-51fdc4beabb2","ios":"levelo://app?vid=58555cf1-be8e-4f23-a2ba-51fdc4beabb2"},"vehicle_type_id":"4","last_reported":1721768968,"current_range_meters":400,"station_id":"ce4bh9p2rcd13ifvqed0","pricing_plan_id":"cebpf4jnsgd1na2vs0mg"},{"bike_id":"4e97ae4d-988d-4d10-8e61-fd84bb266a70","system_id":"levelo_inurba_marseille","lat":43.330442,"lon":5.389148,"is_reserved":false,"is_disabled":false,"rental_uris":{"android":"levelo://app?vid=4e97ae4d-988d-4d10-8e61-fd84bb266a70","ios":"levelo://app?vid=4e97ae4d-988d-4d10-8e61-fd84bb266a70"},"vehicle_type_id":"4","last_reported":1721768968,"current_range_meters":27200,"station_id":"ce4bhr92rcd13ifvqhrg","pricing_plan_id":"cebpf4jnsgd1na2vs0mg"},{"bike_id":"e6e0243f-eac9-424e-b91e-46fc27167f0b","system_id":"levelo_inurba_marseille","lat":43.295169,"lon":5.390426,"is_reserved":false,"is_disabled":false,"rental_uris":{"android":"levelo://app?vid=e6e0243f-eac9-424e-b91e-46fc27167f0b","ios":"levelo://app?vid=e6e0243f-eac9-424e-b91e-46fc27167f0b"},"vehicle_type_id":"4","last_reported":1721768968,"current_range_meters":0,"station_id":"ce4bh3p2rcd13ifvqdp0","pricing_plan_id":"cebpf4jnsgd1na2vs0mg"},{"bike_id":"de2fddd2-630c-4f65-920f-dcce7e12b416","system_id":"levelo_inurba_marseille","lat":43.297815,"lon":5.393548,"is_reserved":false,"is_disabled":false,"rental_uris":{"android":"levelo://app?vid=de2fddd2-630c-4f65-920f-dcce7e12b416","ios":"levelo://app?vid=de2fddd2-630c-4f65-920f-dcce7e12b416"},"vehicle_type_id":"4","last_reported":1721768968,"current_range_meters":26400,"station_id":"chh1huq6cuj3fo74tm60","pricing_plan_id":"cebpf4jnsgd1na2vs0mg"},{"bike_id":"fc832a90-dbbc-4b8a-8461-11d0b114c9e5","system_id":"levelo_inurba_marseille","lat":43.33043,"lon":5.39005,"is_reserved":false,"is_disabled":false,"rental_uris":{"android":"levelo://app?vid=fc832a90-dbbc-4b8a-8461-11d0b114c9e5","ios":"levelo://app?vid=fc832a90-dbbc-4b8a-8461-11d0b114c9e5"},"vehicle_type_id":"4","last_reported":1721768968,"current_range_meters":9200,"station_id":"ce4bhr92rcd13ifvqhrg","pricing_plan_id":"cebpf4jnsgd1na2vs0mg"},{"bike_id":"e3e3d7e8-1086-4876-93f5-3de8b8d810c2","system_id":"levelo_inurba_marseille","lat":43.330442,"lon":5.389148,"is_reserved":false,"is_disabled":false,"rental_uris":{"android":"levelo://app?vid=e3e3d7e8-1086-4876-93f5-3de8b8d810c2","ios":"levelo://app?vid=e3e3d7e8-1086-4876-93f5-3de8b8d810c2"},"vehicle_type_id":"4","last_reported":1721768968,"current_range_meters":4800,"station_id":"ce4bhr92rcd13ifvqhrg","pricing_plan_id":"cebpf4jnsgd1na2vs0mg"},{"bike_id":"c7ceceed-a421-45af-a3ad-861d5e96b58d","system_id":"levelo_inurba_marseille","lat":43.297815,"lon":5.393548,"is_reserved":false,"is_disabled":false,"rental_uris":{"android":"levelo://app?vid=c7ceceed-a421-45af-a3ad-861d5e96b58d","ios":"levelo://app?vid=c7ceceed-a421-45af-a3ad-861d5e96b58d"},"vehicle_type_id":"4","last_reported":1721768968,"current_range_meters":11200,"station_id":"chh1huq6cuj3fo74tm60","pricing_plan_id":"cebpf4jnsgd1na2vs0mg"},{"bike_id":"0d0d71e6-c7de-47bc-b58d-2a347b506213","system_id":"levelo_inurba_marseille","lat":43.330442,"lon":5.389148,"is_reserved":false,"is_disabled":false,"rental_uris":{"android":"levelo://app?vid=0d0d71e6-c7de-47bc-b58d-2a347b506213","ios":"levelo://app?vid=0d0d71e6-c7de-47bc-b58d-2a347b506213"},"vehicle_type_id":"4","last_reported":1721768968,"current_range_meters":12000,"station_id":"ce4bhr92rcd13ifvqhrg","pricing_plan_id":"cebpf4jnsgd1na2vs0mg"},{"bike_id":"4cef5188-eb41-43f1-8637-b298d90e92fa","system_id":"levelo_inurba_marseille","lat":43.330442,"lon":5.389148,"is_reserved":false,"is_disabled":false,"rental_uris":{"android":"levelo://app?vid=4cef5188-eb41-43f1-8637-b298d90e92fa","ios":"levelo://app?vid=4cef5188-eb41-43f1-8637-b298d90e92fa"},"vehicle_type_id":"4","last_reported":1721768968,"current_range_meters":29600,"station_id":"ce4bhr92rcd13ifvqhrg","pricing_plan_id":"cebpf4jnsgd1na2vs0mg"},{"bike_id":"ddcf22a3-f534-482f-a971-8f862565c476","system_id":"levelo_inurba_marseille","lat":43.33026,"lon":5.3904,"is_reserved":false,"is_disabled":false,"rental_uris":{"android":"levelo://app?vid=ddcf22a3-f534-482f-a971-8f862565c476","ios":"levelo://app?vid=ddcf22a3-f534-482f-a971-8f862565c476"},"vehicle_type_id":"4","last_reported":1721768968,"current_range_meters":22000,"station_id":"ce4bhr92rcd13ifvqhrg","pricing_plan_id":"cebpf4jnsgd1na2vs0mg"},{"bike_id":"a4c3a0db-43ef-4716-b2d3-2b0b3a174da5","system_id":"levelo_inurba_marseille","lat":43.2885,"lon":5.37153,"is_reserved":false,"is_disabled":false,"rental_uris":{"android":"levelo://app?vid=a4c3a0db-43ef-4716-b2d3-2b0b3a174da5","ios":"levelo://app?vid=a4c3a0db-43ef-4716-b2d3-2b0b3a174da5"},"vehicle_type_id":"4","last_reported":1721768968,"current_range_meters":18000,"station_id":"","pricing_plan_id":"cebpf4jnsgd1na2vs0mg"},{"bike_id":"030b3aa4-e47f-4eb4-9344-712811a6ccca","system_id":"levelo_inurba_marseille","lat":43.28975,"lon":5.37845,"is_reserved":false,"is_disabled":false,"rental_uris":{"android":"levelo://app?vid=030b3aa4-e47f-4eb4-9344-712811a6ccca","ios":"levelo://app?vid=030b3aa4-e47f-4eb4-9344-712811a6ccca"},"vehicle_type_id":"4","last_reported":1721768968,"current_range_meters":4800,"station_id":"ce4bh9p2rcd13ifvqed0","pricing_plan_id":"cebpf4jnsgd1na2vs0mg"},{"bike_id":"eb0c90c5-deb5-499d-8190-8d7a5955f909","system_id":"levelo_inurba_marseille","lat":43.295169,"lon":5.390426,"is_reserved":false,"is_disabled":false,"rental_uris":{"android":"levelo://app?vid=eb0c90c5-deb5-499d-8190-8d7a5955f909","ios":"levelo://app?vid=eb0c90c5-deb5-499d-8190-8d7a5955f909"},"vehicle_type_id":"4","last_reported":1721768968,"current_range_meters":0,"station_id":"ce4bh3p2rcd13ifvqdp0","pricing_plan_id":"cebpf4jnsgd1na2vs0mg"},{"bike_id":"68022713-a5f5-4879-8c73-d13af9ecb7f0","system_id":"levelo_inurba_marseille","lat":43.295169,"lon":5.390426,"is_reserved":false,"is_disabled":false,"rental_uris":{"android":"levelo://app?vid=68022713-a5f5-4879-8c73-d13af9ecb7f0","ios":"levelo://app?vid=68022713-a5f5-4879-8c73-d13af9ecb7f0"},"vehicle_type_id":"4","last_reported":1721768968,"current_range_meters":12400,"station_id":"ce4bh3p2rcd13ifvqdp0","pricing_plan_id":"cebpf4jnsgd1na2vs0mg"},{"bike_id":"fc5df5eb-fa54-4f37-95a3-86d6ae6f1908","system_id":"levelo_inurba_marseille","lat":43.295233,"lon":5.390517,"is_reserved":false,"is_disabled":false,"rental_uris":{"android":"levelo://app?vid=fc5df5eb-fa54-4f37-95a3-86d6ae6f1908","ios":"levelo://app?vid=fc5df5eb-fa54-4f37-95a3-86d6ae6f1908"},"vehicle_type_id":"4","last_reported":1721768968,"current_range_meters":0,"station_id":"ce4bh3p2rcd13ifvqdp0","pricing_plan_id":"cebpf4jnsgd1na2vs0mg"},{"bike_id":"741f7789-c25c-44d8-bb3a-3dfe7ac0c411","system_id":"levelo_inurba_marseille","lat":43.295169,"lon":5.390426,"is_reserved":false,"is_disabled":false,"rental_uris":{"android":"levelo://app?vid=741f7789-c25c-44d8-bb3a-3dfe7ac0c411","ios":"levelo://app?vid=741f7789-c25c-44d8-bb3a-3dfe7ac0c411"},"vehicle_type_id":"4","last_reported":1721768968,"current_range_meters":0,"station_id":"ce4bh3p2rcd13ifvqdp0","pricing_plan_id":"cebpf4jnsgd1na2vs0mg"},{"bike_id":"be512887-f3ce-470c-904e-1a4077943db6","system_id":"levelo_inurba_marseille","lat":43.295169,"lon":5.390426,"is_reserved":false,"is_disabled":false,"rental_uris":{"android":"levelo://app?vid=be512887-f3ce-470c-904e-1a4077943db6","ios":"levelo://app?vid=be512887-f3ce-470c-904e-1a4077943db6"},"vehicle_type_id":"4","last_reported":1721768968,"current_range_meters":14400,"station_id":"ce4bh3p2rcd13ifvqdp0","pricing_plan_id":"cebpf4jnsgd1na2vs0mg"},{"bike_id":"0c4b9a02-be58-4c67-a792-94a97f067b3f","system_id":"levelo_inurba_marseille","lat":43.290094,"lon":5.381264,"is_reserved":false,"is_disabled":false,"rental_uris":{"android":"levelo://app?vid=0c4b9a02-be58-4c67-a792-94a97f067b3f","ios":"levelo://app?vid=0c4b9a02-be58-4c67-a792-94a97f067b3f"},"vehicle_type_id":"4","last_reported":1721768968,"current_range_meters":22800,"station_id":"ce4bh4p2rcd13ifvqe1g","pricing_plan_id":"cebpf4jnsgd1na2vs0mg"},{"bike_id":"99ca66bf-8a89-45cf-b3dd-ebcbc98a49bf","system_id":"levelo_inurba_marseille","lat":43.2901,"lon":5.381269,"is_reserved":false,"is_disabled":false,"rental_uris":{"android":"levelo://app?vid=99ca66bf-8a89-45cf-b3dd-ebcbc98a49bf","ios":"levelo://app?vid=99ca66bf-8a89-45cf-b3dd-ebcbc98a49bf"},"vehicle_type_id":"4","last_reported":1721768968,"current_range_meters":28400,"station_id":"ce4bh4p2rcd13ifvqe1g","pricing_plan_id":"cebpf4jnsgd1na2vs0mg"},{"bike_id":"ad36a530-563c-4ef6-9bd7-0b3408397ef2","system_id":"levelo_inurba_marseille","lat":43.31068,"lon":5.40093,"is_reserved":false,"is_disabled":false,"rental_uris":{"android":"levelo://app?vid=ad36a530-563c-4ef6-9bd7-0b3408397ef2","ios":"levelo://app?vid=ad36a530-563c-4ef6-9bd7-0b3408397ef2"},"vehicle_type_id":"4","last_reported":1721768968,"current_range_meters":28000,"station_id":"","pricing_plan_id":"cebpf4jnsgd1na2vs0mg"},{"bike_id":"08e714cd-0967-44ca-8839-658977a1439f","system_id":"levelo_inurba_marseille","lat":43.2901,"lon":5.381269,"is_reserved":false,"is_disabled":false,"rental_uris":{"android":"levelo://app?vid=08e714cd-0967-44ca-8839-658977a1439f","ios":"levelo://app?vid=08e714cd-0967-44ca-8839-658977a1439f"},"vehicle_type_id":"4","last_reported":1721768968,"current_range_meters":8000,"station_id":"ce4bh4p2rcd13ifvqe1g","pricing_plan_id":"cebpf4jnsgd1na2vs0mg"},{"bike_id":"fbc06b27-7ed7-4d2b-ba1d-32df39fb68b6","system_id":"levelo_inurba_marseille","lat":43.28929,"lon":5.35459,"is_reserved":false,"is_disabled":false,"rental_uris":{"android":"levelo://app?vid=fbc06b27-7ed7-4d2b-ba1d-32df39fb68b6","ios":"levelo://app?vid=fbc06b27-7ed7-4d2b-ba1d-32df39fb68b6"},"vehicle_type_id":"4","last_reported":1721768968,"current_range_meters":0,"station_id":"","pricing_plan_id":"cebpf4jnsgd1na2vs0mg"},{"bike_id":"ac5014c8-2d39-488a-83d7-8e67372b9fe0","system_id":"levelo_inurba_marseille","lat":43.312609,"lon":5.401662,"is_reserved":false,"is_disabled":false,"rental_uris":{"android":"levelo://app?vid=ac5014c8-2d39-488a-83d7-8e67372b9fe0","ios":"levelo://app?vid=ac5014c8-2d39-488a-83d7-8e67372b9fe0"},"vehicle_type_id":"4","last_reported":1721768968,"current_range_meters":17600,"station_id":"ce4bh092rcd13ifvqd30","pricing_plan_id":"cebpf4jnsgd1na2vs0mg"},{"bike_id":"94a35e71-a032-4f95-987f-0e9aeee118f3","system_id":"levelo_inurba_marseille","lat":43.309371,"lon":5.401449,"is_reserved":false,"is_disabled":false,"rental_uris":{"android":"levelo://app?vid=94a35e71-a032-4f95-987f-0e9aeee118f3","ios":"levelo://app?vid=94a35e71-a032-4f95-987f-0e9aeee118f3"},"vehicle_type_id":"4","last_reported":1721768968,"current_range_meters":0,"station_id":"ce4bgvp2rcd13ifvqct0","pricing_plan_id":"cebpf4jnsgd1na2vs0mg"},{"bike_id":"6bee14db-9f88-4c59-afa5-da083c1ffbe3","system_id":"levelo_inurba_marseille","lat":43.337475,"lon":5.3745,"is_reserved":false,"is_disabled":false,"rental_uris":{"android":"levelo://app?vid=6bee14db-9f88-4c59-afa5-da083c1ffbe3","ios":"levelo://app?vid=6bee14db-9f88-4c59-afa5-da083c1ffbe3"},"vehicle_type_id":"4","last_reported":1721768968,"current_range_meters":20000,"station_id":"","pricing_plan_id":"cebpf4jnsgd1na2vs0mg"},{"bike_id":"77cfb0c3-b278-47e7-be34-d779489793c3","system_id":"levelo_inurba_marseille","lat":43.309371,"lon":5.401449,"is_reserved":false,"is_disabled":false,"rental_uris":{"android":"levelo://app?vid=77cfb0c3-b278-47e7-be34-d779489793c3","ios":"levelo://app?vid=77cfb0c3-b278-47e7-be34-d779489793c3"},"vehicle_type_id":"4","last_reported":1721768968,"current_range_meters":16400,"station_id":"ce4bgvp2rcd13ifvqct0","pricing_plan_id":"cebpf4jnsgd1na2vs0mg"},{"bike_id":"1bc93740-146f-48c3-a60d-9b16a94470d2","system_id":"levelo_inurba_marseille","lat":43.309371,"lon":5.401449,"is_reserved":false,"is_disabled":false,"rental_uris":{"android":"levelo://app?vid=1bc93740-146f-48c3-a60d-9b16a94470d2","ios":"levelo://app?vid=1bc93740-146f-48c3-a60d-9b16a94470d2"},"vehicle_type_id":"4","last_reported":1721768968,"current_range_meters":3600,"station_id":"ce4bgvp2rcd13ifvqct0","pricing_plan_id":"cebpf4jnsgd1na2vs0mg"},{"bike_id":"08a4ab2f-322a-4b43-98ae-f77857b1ab86","system_id":"levelo_inurba_marseille","lat":43.309371,"lon":5.401449,"is_reserved":false,"is_disabled":false,"rental_uris":{"android":"levelo://app?vid=08a4ab2f-322a-4b43-98ae-f77857b1ab86","ios":"levelo://app?vid=08a4ab2f-322a-4b43-98ae-f77857b1ab86"},"vehicle_type_id":"4","last_reported":1721768968,"current_range_meters":2000,"station_id":"ce4bgvp2rcd13ifvqct0","pricing_plan_id":"cebpf4jnsgd1na2vs0mg"},{"bike_id":"7100a93e-a911-4d65-bad1-a8019b399e1b","system_id":"levelo_inurba_marseille","lat":43.312609,"lon":5.401662,"is_reserved":false,"is_disabled":false,"rental_uris":{"android":"levelo://app?vid=7100a93e-a911-4d65-bad1-a8019b399e1b","ios":"levelo://app?vid=7100a93e-a911-4d65-bad1-a8019b399e1b"},"vehicle_type_id":"4","last_reported":1721768968,"current_range_meters":28400,"station_id":"ce4bh092rcd13ifvqd30","pricing_plan_id":"cebpf4jnsgd1na2vs0mg"},{"bike_id":"50b5e63a-0478-4ea4-92a0-2e1091787dc6","system_id":"levelo_inurba_marseille","lat":43.33761,"lon":5.37426,"is_reserved":false,"is_disabled":false,"rental_uris":{"android":"levelo://app?vid=50b5e63a-0478-4ea4-92a0-2e1091787dc6","ios":"levelo://app?vid=50b5e63a-0478-4ea4-92a0-2e1091787dc6"},"vehicle_type_id":"4","last_reported":1721768968,"current_range_meters":0,"station_id":"","pricing_plan_id":"cebpf4jnsgd1na2vs0mg"},{"bike_id":"a235c800-3c57-4740-a673-3a0ec502d831","system_id":"levelo_inurba_marseille","lat":43.337623,"lon":5.374354,"is_reserved":false,"is_disabled":false,"rental_uris":{"android":"levelo://app?vid=a235c800-3c57-4740-a673-3a0ec502d831","ios":"levelo://app?vid=a235c800-3c57-4740-a673-3a0ec502d831"},"vehicle_type_id":"4","last_reported":1721768968,"current_range_meters":30000,"station_id":"","pricing_plan_id":"cebpf4jnsgd1na2vs0mg"},{"bike_id":"77a66306-ea4c-470f-b576-87cc5ae0b3f4","system_id":"levelo_inurba_marseille","lat":43.33764,"lon":5.37429,"is_reserved":false,"is_disabled":false,"rental_uris":{"android":"levelo://app?vid=77a66306-ea4c-470f-b576-87cc5ae0b3f4","ios":"levelo://app?vid=77a66306-ea4c-470f-b576-87cc5ae0b3f4"},"vehicle_type_id":"4","last_reported":1721768968,"current_range_meters":25200,"station_id":"","pricing_plan_id":"cebpf4jnsgd1na2vs0mg"},{"bike_id":"580240d2-58f6-47b9-9f91-0be4e2c27e13","system_id":"levelo_inurba_marseille","lat":43.337638,"lon":5.374353,"is_reserved":false,"is_disabled":false,"rental_uris":{"android":"levelo://app?vid=580240d2-58f6-47b9-9f91-0be4e2c27e13","ios":"levelo://app?vid=580240d2-58f6-47b9-9f91-0be4e2c27e13"},"vehicle_type_id":"4","last_reported":1721768968,"current_range_meters":7600,"station_id":"","pricing_plan_id":"cebpf4jnsgd1na2vs0mg"},{"bike_id":"08471ef7-6dbf-4835-94a9-da7e464dd29b","system_id":"levelo_inurba_marseille","lat":43.30642,"lon":5.401031,"is_reserved":false,"is_disabled":false,"rental_uris":{"android":"levelo://app?vid=08471ef7-6dbf-4835-94a9-da7e464dd29b","ios":"levelo://app?vid=08471ef7-6dbf-4835-94a9-da7e464dd29b"},"vehicle_type_id":"4","last_reported":1721768968,"current_range_meters":0,"station_id":"ce4bh112rcd13ifvqda0","pricing_plan_id":"cebpf4jnsgd1na2vs0mg"},{"bike_id":"530886ba-ce8d-49b7-bcb8-9067749ff5bf","system_id":"levelo_inurba_marseille","lat":43.306412,"lon":5.401035,"is_reserved":false,"is_disabled":false,"rental_uris":{"android":"levelo://app?vid=530886ba-ce8d-49b7-bcb8-9067749ff5bf","ios":"levelo://app?vid=530886ba-ce8d-49b7-bcb8-9067749ff5bf"},"vehicle_type_id":"4","last_reported":1721768968,"current_range_meters":24000,"station_id":"ce4bh112rcd13ifvqda0","pricing_plan_id":"cebpf4jnsgd1na2vs0mg"},{"bike_id":"813878f8-5c09-42fc-a565-9c8b9db28a68","system_id":"levelo_inurba_marseille","lat":43.33773,"lon":5.37457,"is_reserved":false,"is_disabled":false,"rental_uris":{"android":"levelo://app?vid=813878f8-5c09-42fc-a565-9c8b9db28a68","ios":"levelo://app?vid=813878f8-5c09-42fc-a565-9c8b9db28a68"},"vehicle_type_id":"4","last_reported":1721768968,"current_range_meters":25600,"station_id":"","pricing_plan_id":"cebpf4jnsgd1na2vs0mg"},{"bike_id":"72742065-b9f9-425b-adb6-911ad375ccc0","system_id":"levelo_inurba_marseille","lat":43.33782,"lon":5.37441,"is_reserved":false,"is_disabled":false,"rental_uris":{"android":"levelo://app?vid=72742065-b9f9-425b-adb6-911ad375ccc0","ios":"levelo://app?vid=72742065-b9f9-425b-adb6-911ad375ccc0"},"vehicle_type_id":"4","last_reported":1721768968,"current_range_meters":25200,"station_id":"","pricing_plan_id":"cebpf4jnsgd1na2vs0mg"},{"bike_id":"6e5cb8b0-eb3b-4141-b8f2-d7fdaeb301d3","system_id":"levelo_inurba_marseille","lat":43.301117,"lon":5.398795,"is_reserved":false,"is_disabled":false,"rental_uris":{"android":"levelo://app?vid=6e5cb8b0-eb3b-4141-b8f2-d7fdaeb301d3","ios":"levelo://app?vid=6e5cb8b0-eb3b-4141-b8f2-d7fdaeb301d3"},"vehicle_type_id":"4","last_reported":1721768968,"current_range_meters":13200,"station_id":"ce4bh0h2rcd13ifvqd40","pricing_plan_id":"cebpf4jnsgd1na2vs0mg"},{"bike_id":"f00d6bb8-2893-4e43-a60c-1226985d49f0","system_id":"levelo_inurba_marseille","lat":43.30141,"lon":5.39866,"is_reserved":false,"is_disabled":false,"rental_uris":{"android":"levelo://app?vid=f00d6bb8-2893-4e43-a60c-1226985d49f0","ios":"levelo://app?vid=f00d6bb8-2893-4e43-a60c-1226985d49f0"},"vehicle_type_id":"4","last_reported":1721768968,"current_range_meters":0,"station_id":"ce4bh0h2rcd13ifvqd40","pricing_plan_id":"cebpf4jnsgd1na2vs0mg"},{"bike_id":"9d49f343-43a4-4150-9fb0-7c2e2c0bf7c4","system_id":"levelo_inurba_marseille","lat":43.301117,"lon":5.398795,"is_reserved":false,"is_disabled":false,"rental_uris":{"android":"levelo://app?vid=9d49f343-43a4-4150-9fb0-7c2e2c0bf7c4","ios":"levelo://app?vid=9d49f343-43a4-4150-9fb0-7c2e2c0bf7c4"},"vehicle_type_id":"4","last_reported":1721768968,"current_range_meters":14400,"station_id":"ce4bh0h2rcd13ifvqd40","pricing_plan_id":"cebpf4jnsgd1na2vs0mg"},{"bike_id":"b49e31ab-0751-4e5d-8d2f-3a6759a6dc49","system_id":"levelo_inurba_marseille","lat":43.301117,"lon":5.398795,"is_reserved":false,"is_disabled":false,"rental_uris":{"android":"levelo://app?vid=b49e31ab-0751-4e5d-8d2f-3a6759a6dc49","ios":"levelo://app?vid=b49e31ab-0751-4e5d-8d2f-3a6759a6dc49"},"vehicle_type_id":"4","last_reported":1721768968,"current_range_meters":15200,"station_id":"ce4bh0h2rcd13ifvqd40","pricing_plan_id":"cebpf4jnsgd1na2vs0mg"},{"bike_id":"e361ccb0-2212-42a7-b98e-44b1b08358ff","system_id":"levelo_inurba_marseille","lat":43.30113,"lon":5.39865,"is_reserved":false,"is_disabled":false,"rental_uris":{"android":"levelo://app?vid=e361ccb0-2212-42a7-b98e-44b1b08358ff","ios":"levelo://app?vid=e361ccb0-2212-42a7-b98e-44b1b08358ff"},"vehicle_type_id":"4","last_reported":1721768968,"current_range_meters":14000,"station_id":"ce4bh0h2rcd13ifvqd40","pricing_plan_id":"cebpf4jnsgd1na2vs0mg"},{"bike_id":"8213a5c2-522f-4561-ac2e-4f38a3b9a05c","system_id":"levelo_inurba_marseille","lat":43.28727,"lon":5.36078,"is_reserved":false,"is_disabled":false,"rental_uris":{"android":"levelo://app?vid=8213a5c2-522f-4561-ac2e-4f38a3b9a05c","ios":"levelo://app?vid=8213a5c2-522f-4561-ac2e-4f38a3b9a05c"},"vehicle_type_id":"4","last_reported":1721768968,"current_range_meters":800,"station_id":"cki0cbj6b192h4jlfktg","pricing_plan_id":"cebpf4jnsgd1na2vs0mg"},{"bike_id":"8e22c420-bb37-456b-9579-e9d904acf819","system_id":"levelo_inurba_marseille","lat":43.298681,"lon":5.397225,"is_reserved":false,"is_disabled":false,"rental_uris":{"android":"levelo://app?vid=8e22c420-bb37-456b-9579-e9d904acf819","ios":"levelo://app?vid=8e22c420-bb37-456b-9579-e9d904acf819"},"vehicle_type_id":"4","last_reported":1721768968,"current_range_meters":26000,"station_id":"ce4bh0h2rcd13ifvqd50","pricing_plan_id":"cebpf4jnsgd1na2vs0mg"},{"bike_id":"f63deae7-a59f-421c-8c82-6e517fb1e5b6","system_id":"levelo_inurba_marseille","lat":43.286591,"lon":5.363346,"is_reserved":false,"is_disabled":false,"rental_uris":{"android":"levelo://app?vid=f63deae7-a59f-421c-8c82-6e517fb1e5b6","ios":"levelo://app?vid=f63deae7-a59f-421c-8c82-6e517fb1e5b6"},"vehicle_type_id":"4","last_reported":1721768968,"current_range_meters":1600,"station_id":"ce4bhah2rcd13ifvqej0","pricing_plan_id":"cebpf4jnsgd1na2vs0mg"},{"bike_id":"591c17f1-411a-46c6-abfb-b70bfb69dd47","system_id":"levelo_inurba_marseille","lat":43.286591,"lon":5.363346,"is_reserved":false,"is_disabled":false,"rental_uris":{"android":"levelo://app?vid=591c17f1-411a-46c6-abfb-b70bfb69dd47","ios":"levelo://app?vid=591c17f1-411a-46c6-abfb-b70bfb69dd47"},"vehicle_type_id":"4","last_reported":1721768968,"current_range_meters":27200,"station_id":"ce4bhah2rcd13ifvqej0","pricing_plan_id":"cebpf4jnsgd1na2vs0mg"},{"bike_id":"e43a42be-cb7b-468b-b94c-591f357e220a","system_id":"levelo_inurba_marseille","lat":43.286593,"lon":5.363346,"is_reserved":false,"is_disabled":false,"rental_uris":{"android":"levelo://app?vid=e43a42be-cb7b-468b-b94c-591f357e220a","ios":"levelo://app?vid=e43a42be-cb7b-468b-b94c-591f357e220a"},"vehicle_type_id":"4","last_reported":1721768968,"current_range_meters":400,"station_id":"ce4bhah2rcd13ifvqej0","pricing_plan_id":"cebpf4jnsgd1na2vs0mg"},{"bike_id":"37b83596-62db-4ab3-91a9-e9dff5523542","system_id":"levelo_inurba_marseille","lat":43.286961,"lon":5.373785,"is_reserved":false,"is_disabled":false,"rental_uris":{"android":"levelo://app?vid=37b83596-62db-4ab3-91a9-e9dff5523542","ios":"levelo://app?vid=37b83596-62db-4ab3-91a9-e9dff5523542"},"vehicle_type_id":"4","last_reported":1721768968,"current_range_meters":15200,"station_id":"ce4bh3p2rcd13ifvqdq0","pricing_plan_id":"cebpf4jnsgd1na2vs0mg"},{"bike_id":"114e0de3-e128-406d-8ce3-aac6aebec1a7","system_id":"levelo_inurba_marseille","lat":43.28704,"lon":5.37394,"is_reserved":false,"is_disabled":false,"rental_uris":{"android":"levelo://app?vid=114e0de3-e128-406d-8ce3-aac6aebec1a7","ios":"levelo://app?vid=114e0de3-e128-406d-8ce3-aac6aebec1a7"},"vehicle_type_id":"4","last_reported":1721768968,"current_range_meters":2000,"station_id":"ce4bh3p2rcd13ifvqdq0","pricing_plan_id":"cebpf4jnsgd1na2vs0mg"},{"bike_id":"0607ab16-1015-4ef9-92b1-644cfe494730","system_id":"levelo_inurba_marseille","lat":43.286961,"lon":5.373785,"is_reserved":false,"is_disabled":false,"rental_uris":{"android":"levelo://app?vid=0607ab16-1015-4ef9-92b1-644cfe494730","ios":"levelo://app?vid=0607ab16-1015-4ef9-92b1-644cfe494730"},"vehicle_type_id":"4","last_reported":1721768968,"current_range_meters":13600,"station_id":"ce4bh3p2rcd13ifvqdq0","pricing_plan_id":"cebpf4jnsgd1na2vs0mg"},{"bike_id":"8faf8f11-a454-4c88-b9c7-00b02eb6b1f1","system_id":"levelo_inurba_marseille","lat":43.28697,"lon":5.37393,"is_reserved":false,"is_disabled":false,"rental_uris":{"android":"levelo://app?vid=8faf8f11-a454-4c88-b9c7-00b02eb6b1f1","ios":"levelo://app?vid=8faf8f11-a454-4c88-b9c7-00b02eb6b1f1"},"vehicle_type_id":"4","last_reported":1721768968,"current_range_meters":0,"station_id":"ce4bh3p2rcd13ifvqdq0","pricing_plan_id":"cebpf4jnsgd1na2vs0mg"},{"bike_id":"89fe534e-9a1d-4a5e-8821-51701ae94e41","system_id":"levelo_inurba_marseille","lat":43.289307,"lon":5.38406,"is_reserved":false,"is_disabled":false,"rental_uris":{"android":"levelo://app?vid=89fe534e-9a1d-4a5e-8821-51701ae94e41","ios":"levelo://app?vid=89fe534e-9a1d-4a5e-8821-51701ae94e41"},"vehicle_type_id":"4","last_reported":1721768968,"current_range_meters":1200,"station_id":"ce4bh612rcd13ifvqe6g","pricing_plan_id":"cebpf4jnsgd1na2vs0mg"},{"bike_id":"6ba5e80b-46f2-47dc-b591-4b41f1cbb79f","system_id":"levelo_inurba_marseille","lat":43.29037,"lon":5.38649,"is_reserved":false,"is_disabled":false,"rental_uris":{"android":"levelo://app?vid=6ba5e80b-46f2-47dc-b591-4b41f1cbb79f","ios":"levelo://app?vid=6ba5e80b-46f2-47dc-b591-4b41f1cbb79f"},"vehicle_type_id":"4","last_reported":1721768968,"current_range_meters":31200,"station_id":"ce4bh4p2rcd13ifvqe0g","pricing_plan_id":"cebpf4jnsgd1na2vs0mg"},{"bike_id":"184631ad-d7cd-4c84-bb0a-1b65b6a093d9","system_id":"levelo_inurba_marseille","lat":43.29032,"lon":5.38643,"is_reserved":false,"is_disabled":false,"rental_uris":{"android":"levelo://app?vid=184631ad-d7cd-4c84-bb0a-1b65b6a093d9","ios":"levelo://app?vid=184631ad-d7cd-4c84-bb0a-1b65b6a093d9"},"vehicle_type_id":"4","last_reported":1721768968,"current_range_meters":30800,"station_id":"ce4bh4p2rcd13ifvqe0g","pricing_plan_id":"cebpf4jnsgd1na2vs0mg"},