{"last_updated":1687802996,"ttl":30,"version":"2.2","data":{"bikes":[{"bike_id":"0e5dd4df-a66b-40d7-b693-1ec2fbc0e070","system_id":"levelo_inurba_marseille","lat":43.31353,"lon":5.36778,"is_reserved":false,"is_disabled":false,"rental_uris":{"android":"levelo://app?vid=0e5dd4df-a66b-40d7-b693-1ec2fbc0e070","ios":"levelo://app?vid=0e5dd4df-a66b-40d7-b693-1ec2fbc0e070"},"vehicle_type_id":"4","last_reported":1687802997,"current_range_meters":0,"station_id":"","pricing_plan_id":"free"},{"bike_id":"e0380c46-66e6-4c87-8e4e-99d968f4d172","system_id":"levelo_inurba_marseille","lat":43.311125,"lon":5.377624,"is_reserved":false,"is_disabled":false,"rental_uris":{"android":"levelo://app?vid=e0380c46-66e6-4c87-8e4e-99d968f4d172","ios":"levelo://app?vid=e0380c46-66e6-4c87-8e4e-99d968f4d172"},"vehicle_type_id":"4","last_reported":1687802997,"current_range_meters":22800,"station_id":"ce4bgt92rcd13ifvqcg0","pricing_plan_id":"free"},{"bike_id":"bebc1c6e-53cb-447e-b363-d0d9b5a3694f","system_id":"levelo_inurba_marseille","lat":43.315289,"lon":5.380349,"is_reserved":false,"is_disabled":false,"rental_uris":{"android":"levelo://app?vid=bebc1c6e-53cb-447e-b363-d0d9b5a3694f","ios":"levelo://app?vid=bebc1c6e-53cb-447e-b363-d0d9b5a3694f"},"vehicle_type_id":"4","last_reported":1687802997,"current_range_meters":2400,"station_id":"ce4bhsp2rcd13ifvqi50","pricing_plan_id":"free"},{"bike_id":"285d6c33-638b-4b07-93b9-af8174ed15cd","system_id":"levelo_inurba_marseille","lat":43.308012,"lon":5.381511,"is_reserved":false,"is_disabled":false,"rental_uris":{"android":"levelo://app?vid=285d6c33-638b-4b07-93b9-af8174ed15cd","ios":"levelo://app?vid=285d6c33-638b-4b07-93b9-af8174ed15cd"},"vehicle_type_id":"4","last_reported":1687802997,"current_range_meters":30000,"station_id":"ce4bgt12rcd13ifvqce0","pricing_plan_id":"free"},{"bike_id":"7961c058-6bbf-43fe-9e62-f3ba9264f471","system_id":"levelo_inurba_marseille","lat":43.30206,"lon":5.37404,"is_reserved":false,"is_disabled":false,"rental_uris":{"android":"levelo://app?vid=7961c058-6bbf-43fe-9e62-f3ba9264f471","ios":"levelo://app?vid=7961c058-6bbf-43fe-9e62-f3ba9264f471"},"vehicle_type_id":"4","last_reported":1687802997,"current_range_meters":0,"station_id":"","pricing_plan_id":"free"},{"bike_id":"bba06b65-40d6-401a-b9a6-ffe5c0a73bab","system_id":"levelo_inurba_marseille","lat":43.304606,"lon":5.379026,"is_reserved":false,"is_disabled":false,"rental_uris":{"android":"levelo://app?vid=bba06b65-40d6-401a-b9a6-ffe5c0a73bab","ios":"levelo://app?vid=bba06b65-40d6-401a-b9a6-ffe5c0a73bab"},"vehicle_type_id":"4","last_reported":1687802997,"current_range_meters":9600,"station_id":"ce4bgup2rcd13ifvqcn0","pricing_plan_id":"free"},{"bike_id":"c0dd00db-f234-4a17-ac5b-542e80ecef7e","system_id":"levelo_inurba_marseille","lat":43.302784,"lon":5.377158,"is_reserved":false,"is_disabled":false,"rental_uris":{"android":"levelo://app?vid=c0dd00db-f234-4a17-ac5b-542e80ecef7e","ios":"levelo://app?vid=c0dd00db-f234-4a17-ac5b-542e80ecef7e"},"vehicle_type_id":"4","last_reported":1687802997,"current_range_meters":19600,"station_id":"ce4bguh2rcd13ifvqcj0","pricing_plan_id":"free"},{"bike_id":"d2ed7918-d7d1-4434-a769-f7e19e3cdc36","system_id":"levelo_inurba_marseille","lat":43.302784,"lon":5.377158,"is_reserved":false,"is_disabled":false,"rental_uris":{"android":"levelo://app?vid=d2ed7918-d7d1-4434-a769-f7e19e3cdc36","ios":"levelo://app?vid=d2ed7918-d7d1-4434-a769-f7e19e3cdc36"},"vehicle_type_id":"4","last_reported":1687802997,"current_range_meters":21600,"station_id":"ce4bguh2rcd13ifvqcj0","pricing_plan_id":"free"},{"bike_id":"32079ba2-9792-4bca-810e-462ba0a5cedd","system_id":"levelo_inurba_marseille","lat":43.319935,"lon":5.381699,"is_reserved":false,"is_disabled":false,"rental_uris":{"android":"levelo://app?vid=32079ba2-9792-4bca-810e-462ba0a5cedd","ios":"levelo://app?vid=32079ba2-9792-4bca-810e-462ba0a5cedd"},"vehicle_type_id":"4","last_reported":1687802997,"current_range_meters":14400,"station_id":"ce4bhr12rcd13ifvqhpg","pricing_plan_id":"free"},{"bike_id":"3603dd18-6a44-4283-8c19-aec51f8b70ae","system_id":"levelo_inurba_marseille","lat":43.30333,"lon":5.37921,"is_reserved":false,"is_disabled":false,"rental_uris":{"android":"levelo://app?vid=3603dd18-6a44-4283-8c19-aec51f8b70ae","ios":"levelo://app?vid=3603dd18-6a44-4283-8c19-aec51f8b70ae"},"vehicle_type_id":"4","last_reported":1687802997,"current_range_meters":0,"station_id":"","pricing_plan_id":"free"},{"bike_id":"6c48db34-4fd5-4298-943d-f8e091c7617a","system_id":"levelo_inurba_marseille","lat":43.313571,"lon":5.384829,"is_reserved":false,"is_disabled":false,"rental_uris":{"android":"levelo://app?vid=6c48db34-4fd5-4298-943d-f8e091c7617a","ios":"levelo://app?vid=6c48db34-4fd5-4298-943d-f8e091c7617a"},"vehicle_type_id":"4","last_reported":1687802997,"current_range_meters":14800,"station_id":"ce4bgt92rcd13ifvqcf0","pricing_plan_id":"free"},{"bike_id":"1580a472-182f-4d91-8a6c-4c3a23a9c034","system_id":"levelo_inurba_marseille","lat":43.302,"lon":5.3821,"is_reserved":false,"is_disabled":false,"rental_uris":{"android":"levelo://app?vid=1580a472-182f-4d91-8a6c-4c3a23a9c034","ios":"levelo://app?vid=1580a472-182f-4d91-8a6c-4c3a23a9c034"},"vehicle_type_id":"4","last_reported":1687802997,"current_range_meters":8800,"station_id":"","pricing_plan_id":"free"},{"bike_id":"a7f0de62-cbcb-4f09-8e9e-1b6465dbbc67","system_id":"levelo_inurba_marseille","lat":43.32823,"lon":5.36691,"is_reserved":false,"is_disabled":false,"rental_uris":{"android":"levelo://app?vid=a7f0de62-cbcb-4f09-8e9e-1b6465dbbc67","ios":"levelo://app?vid=a7f0de62-cbcb-4f09-8e9e-1b6465dbbc67"},"vehicle_type_id":"4","last_reported":1687802997,"current_range_meters":25200,"station_id":"ce4bhs92rcd13ifvqi0g","pricing_plan_id":"free"},{"bike_id":"19952690-4398-4bce-a952-2259d64ee381","system_id":"levelo_inurba_marseille","lat":43.32825,"lon":5.36697,"is_reserved":false,"is_disabled":false,"rental_uris":{"android":"levelo://app?vid=19952690-4398-4bce-a952-2259d64ee381","ios":"levelo://app?vid=19952690-4398-4bce-a952-2259d64ee381"},"vehicle_type_id":"4","last_reported":1687802997,"current_range_meters":13200,"station_id":"ce4bhs92rcd13ifvqi0g","pricing_plan_id":"free"},{"bike_id":"e0d28c6d-cda5-4ad7-9ed5-96823da4f883","system_id":"levelo_inurba_marseille","lat":43.328371,"lon":5.366909,"is_reserved":false,"is_disabled":false,"rental_uris":{"android":"levelo://app?vid=e0d28c6d-cda5-4ad7-9ed5-96823da4f883","ios":"levelo://app?vid=e0d28c6d-cda5-4ad7-9ed5-96823da4f883"},"vehicle_type_id":"4","last_reported":1687802997,"current_range_meters":13600,"station_id":"ce4bhs92rcd13ifvqi0g","pricing_plan_id":"free"},{"bike_id":"84310711-9ffd-45bf-a8e1-79683581878e","system_id":"levelo_inurba_marseille","lat":43.328371,"lon":5.366909,"is_reserved":false,"is_disabled":false,"rental_uris":{"android":"levelo://app?vid=84310711-9ffd-45bf-a8e1-79683581878e","ios":"levelo://app?vid=84310711-9ffd-45bf-a8e1-79683581878e"},"vehicle_type_id":"4","last_reported":1687802997,"current_range_meters":16000,"station_id":"ce4bhs92rcd13ifvqi0g","pricing_plan_id":"free"},{"bike_id":"5108659d-1431-4d89-a11a-e27336cba391","system_id":"levelo_inurba_marseille","lat":43.328371,"lon":5.366909,"is_reserved":false,"is_disabled":false,"rental_uris":{"android":"levelo://app?vid=5108659d-1431-4d89-a11a-e27336cba391","ios":"levelo://app?vid=5108659d-1431-4d89-a11a-e27336cba391"},"vehicle_type_id":"4","last_reported":1687802997,"current_range_meters":26000,"station_id":"ce4bhs92rcd13ifvqi0g","pricing_plan_id":"free"},{"bike_id":"be4c2b1e-4409-4655-b800-08e6615894b0","system_id":"levelo_inurba_marseille","lat":43.328371,"lon":5.366909,"is_reserved":false,"is_disabled":false,"rental_uris":{"android":"levelo://app?vid=be4c2b1e-4409-4655-b800-08e6615894b0","ios":"levelo://app?vid=be4c2b1e-4409-4655-b800-08e6615894b0"},"vehicle_type_id":"4","last_reported":1687802997,"current_range_meters":28400,"station_id":"ce4bhs92rcd13ifvqi0g","pricing_plan_id":"free"},{"bike_id":"65f5abd3-b84a-41f7-b88b-1130d5dca958","system_id":"levelo_inurba_marseille","lat":43.32826,"lon":5.36696,"is_reserved":false,"is_disabled":false,"rental_uris":{"android":"levelo://app?vid=65f5abd3-b84a-41f7-b88b-1130d5dca958","ios":"levelo://app?vid=65f5abd3-b84a-41f7-b88b-1130d5dca958"},"vehicle_type_id":"4","last_reported":1687802997,"current_range_meters":4400,"station_id":"ce4bhs92rcd13ifvqi0g","pricing_plan_id":"free"},{"bike_id":"8679cc42-f60f-4d46-8ef1-a90dcd0c6845","system_id":"levelo_inurba_marseille","lat":43.32826,"lon":5.36686,"is_reserved":false,"is_disabled":false,"rental_uris":{"android":"levelo://app?vid=8679cc42-f60f-4d46-8ef1-a90dcd0c6845","ios":"levelo://app?vid=8679cc42-f60f-4d46-8ef1-a90dcd0c6845"},"vehicle_type_id":"4","last_reported":1687802997,"current_range_meters":13600,"station_id":"ce4bhs92rcd13ifvqi0g","pricing_plan_id":"free"},{"bike_id":"c0ba4054-03d2-4233-93b4-0461723bc0b5","system_id":"levelo_inurba_marseille","lat":43.328371,"lon":5.366909,"is_reserved":false,"is_disabled":false,"rental_uris":{"android":"levelo://app?vid=c0ba4054-03d2-4233-93b4-0461723bc0b5","ios":"levelo://app?vid=c0ba4054-03d2-4233-93b4-0461723bc0b5"},"vehicle_type_id":"4","last_reported":1687802997,"current_range_meters":28400,"station_id":"ce4bhs92rcd13ifvqi0g","pricing_plan_id":"free"},{"bike_id":"1a470b1a-9939-4abe-b104-58b18427e48b","system_id":"levelo_inurba_marseille","lat":43.32828,"lon":5.36682,"is_reserved":false,"is_disabled":false,"rental_uris":{"android":"levelo://app?vid=1a470b1a-9939-4abe-b104-58b18427e48b","ios":"levelo://app?vid=1a470b1a-9939-4abe-b104-58b18427e48b"},"vehicle_type_id":"4","last_reported":1687802997,"current_range_meters":12800,"station_id":"ce4bhs92rcd13ifvqi0g","pricing_plan_id":"free"},{"bike_id":"1a986163-fd5b-44c7-bf15-50a76c7f7598","system_id":"levelo_inurba_marseille","lat":43.32829,"lon":5.36687,"is_reserved":false,"is_disabled":false,"rental_uris":{"android":"levelo://app?vid=1a986163-fd5b-44c7-bf15-50a76c7f7598","ios":"levelo://app?vid=1a986163-fd5b-44c7-bf15-50a76c7f7598"},"vehicle_type_id":"4","last_reported":1687802997,"current_range_meters":8000,"station_id":"ce4bhs92rcd13ifvqi0g","pricing_plan_id":"free"},{"bike_id":"8d98417a-cbe4-4269-8bc9-598373a7d5de","system_id":"levelo_inurba_marseille","lat":43.32867,"lon":5.3631,"is_reserved":false,"is_disabled":false,"rental_uris":{"android":"levelo://app?vid=8d98417a-cbe4-4269-8bc9-598373a7d5de","ios":"levelo://app?vid=8d98417a-cbe4-4269-8bc9-598373a7d5de"},"vehicle_type_id":"4","last_reported":1687802997,"current_range_meters":11600,"station_id":"","pricing_plan_id":"free"},{"bike_id":"4a5cfc3f-bab2-4ee6-838c-6b5db21abac4","system_id":"levelo_inurba_marseille","lat":43.2968,"lon":5.37291,"is_reserved":false,"is_disabled":false,"rental_uris":{"android":"levelo://app?vid=4a5cfc3f-bab2-4ee6-838c-6b5db21abac4","ios":"levelo://app?vid=4a5cfc3f-bab2-4ee6-838c-6b5db21abac4"},"vehicle_type_id":"4","last_reported":1687802997,"current_range_meters":6800,"station_id":"ce4bgk12rcd13ifvqbj0","pricing_plan_id":"free"},{"bike_id":"1fe7ad96-eead-4192-9788-0cc3cad862bc","system_id":"levelo_inurba_marseille","lat":43.29529,"lon":5.385581,"is_reserved":false,"is_disabled":false,"rental_uris":{"android":"levelo://app?vid=1fe7ad96-eead-4192-9788-0cc3cad862bc","ios":"levelo://app?vid=1fe7ad96-eead-4192-9788-0cc3cad862bc"},"vehicle_type_id":"4","last_reported":1687802997,"current_range_meters":28800,"station_id":"ce4bgih2rcd13ifvqba0","pricing_plan_id":"free"},{"bike_id":"041bc147-ef2f-419b-bb81-deca3bdf89e2","system_id":"levelo_inurba_marseille","lat":43.29611,"lon":5.36046,"is_reserved":false,"is_disabled":false,"rental_uris":{"android":"levelo://app?vid=041bc147-ef2f-419b-bb81-deca3bdf89e2","ios":"levelo://app?vid=041bc147-ef2f-419b-bb81-deca3bdf89e2"},"vehicle_type_id":"4","last_reported":1687802997,"current_range_meters":0,"station_id":"","pricing_plan_id":"free"},{"bike_id":"3d9de566-f558-47a8-9530-f3b405005a1c","system_id":"levelo_inurba_marseille","lat":43.309589,"lon":5.390258,"is_reserved":false,"is_disabled":false,"rental_uris":{"android":"levelo://app?vid=3d9de566-f558-47a8-9530-f3b405005a1c","ios":"levelo://app?vid=3d9de566-f558-47a8-9530-f3b405005a1c"},"vehicle_type_id":"4","last_reported":1687802997,"current_range_meters":4000,"station_id":"ce4bgup2rcd13ifvqco0","pricing_plan_id":"free"},{"bike_id":"3407316b-f628-4c28-81dd-1c3c972b8131","system_id":"levelo_inurba_marseille","lat":43.309589,"lon":5.390258,"is_reserved":false,"is_disabled":false,"rental_uris":{"android":"levelo://app?vid=3407316b-f628-4c28-81dd-1c3c972b8131","ios":"levelo://app?vid=3407316b-f628-4c28-81dd-1c3c972b8131"},"vehicle_type_id":"4","last_reported":1687802997,"current_range_meters":23200,"station_id":"ce4bgup2rcd13ifvqco0","pricing_plan_id":"free"},{"bike_id":"509984b4-b35a-4c79-8556-0e9a11e43a5c","system_id":"levelo_inurba_marseille","lat":43.304278,"lon":5.388868,"is_reserved":false,"is_disabled":false,"rental_uris":{"android":"levelo://app?vid=509984b4-b35a-4c79-8556-0e9a11e43a5c","ios":"levelo://app?vid=509984b4-b35a-4c79-8556-0e9a11e43a5c"},"vehicle_type_id":"4","last_reported":1687802997,"current_range_meters":18000,"station_id":"ce4bgk12rcd13ifvqbi0","pricing_plan_id":"free"},{"bike_id":"b228aae0-2512-4c5e-a9c3-7e4160413d1c","system_id":"levelo_inurba_marseille","lat":43.295279,"lon":5.375048,"is_reserved":false,"is_disabled":false,"rental_uris":{"android":"levelo://app?vid=b228aae0-2512-4c5e-a9c3-7e4160413d1c","ios":"levelo://app?vid=b228aae0-2512-4c5e-a9c3-7e4160413d1c"},"vehicle_type_id":"4","last_reported":1687802997,"current_range_meters":3200,"station_id":"ce4bgkp2rcd13ifvqbmg","pricing_plan_id":"free"},{"bike_id":"8205acf7-8672-44d5-b737-fbf64241bf1a","system_id":"levelo_inurba_marseille","lat":43.29566,"lon":5.37893,"is_reserved":false,"is_disabled":false,"rental_uris":{"android":"levelo://app?vid=8205acf7-8672-44d5-b737-fbf64241bf1a","ios":"levelo://app?vid=8205acf7-8672-44d5-b737-fbf64241bf1a"},"vehicle_type_id":"4","last_reported":1687802997,"current_range_meters":400,"station_id":"","pricing_plan_id":"free"},{"bike_id":"95a5f52d-388c-46f4-ad13-63376d5c8b1a","system_id":"levelo_inurba_marseille","lat":43.231562,"lon":5.436933,"is_reserved":false,"is_disabled":false,"rental_uris":{"android":"levelo://app?vid=95a5f52d-388c-46f4-ad13-63376d5c8b1a","ios":"levelo://app?vid=95a5f52d-388c-46f4-ad13-63376d5c8b1a"},"vehicle_type_id":"4","last_reported":1687802997,"current_range_meters":10800,"station_id":"ce4bhmp2rcd13ifvqgog","pricing_plan_id":"free"},{"bike_id":"4783d9b9-a677-4f36-ad6a-330e59bc93c3","system_id":"levelo_inurba_marseille","lat":43.29305,"lon":5.37165,"is_reserved":false,"is_disabled":false,"rental_uris":{"android":"levelo://app?vid=4783d9b9-a677-4f36-ad6a-330e59bc93c3","ios":"levelo://app?vid=4783d9b9-a677-4f36-ad6a-330e59bc93c3"},"vehicle_type_id":"4","last_reported":1687802997,"current_range_meters":0,"station_id":"ce4bgh92rcd13ifvqb40","pricing_plan_id":"free"},{"bike_id":"5d894503-2cd6-49e5-a2f4-e4284158b3ef","system_id":"levelo_inurba_marseille","lat":43.29305,"lon":5.37181,"is_reserved":false,"is_disabled":false,"rental_uris":{"android":"levelo://app?vid=5d894503-2cd6-49e5-a2f4-e4284158b3ef","ios":"levelo://app?vid=5d894503-2cd6-49e5-a2f4-e4284158b3ef"},"vehicle_type_id":"4","last_reported":1687802997,"current_range_meters":14400,"station_id":"ce4bgh92rcd13ifvqb40","pricing_plan_id":"free"},{"bike_id":"d26653d5-1b93-4230-8f27-0149fe436c06","system_id":"levelo_inurba_marseille","lat":43.292749,"lon":5.368402,"is_reserved":false,"is_disabled":false,"rental_uris":{"android":"levelo://app?vid=d26653d5-1b93-4230-8f27-0149fe436c06","ios":"levelo://app?vid=d26653d5-1b93-4230-8f27-0149fe436c06"},"vehicle_type_id":"4","last_reported":1687802997,"current_range_meters":13200,"station_id":"ce4bhbp2rcd13ifvqesg","pricing_plan_id":"free"},{"bike_id":"1b1800ca-92ef-4f82-abca-570803a78a84","system_id":"levelo_inurba_marseille","lat":43.29304,"lon":5.37458,"is_reserved":false,"is_disabled":false,"rental_uris":{"android":"levelo://app?vid=1b1800ca-92ef-4f82-abca-570803a78a84","ios":"levelo://app?vid=1b1800ca-92ef-4f82-abca-570803a78a84"},"vehicle_type_id":"4","last_reported":1687802997,"current_range_meters":7200,"station_id":"ce4bgi12rcd13ifvqb70","pricing_plan_id":"free"},{"bike_id":"b146d3cc-0265-45c2-bce5-0d207831b217","system_id":"levelo_inurba_marseille","lat":43.29901,"lon":5.38824,"is_reserved":false,"is_disabled":false,"rental_uris":{"android":"levelo://app?vid=b146d3cc-0265-45c2-bce5-0d207831b217","ios":"levelo://app?vid=b146d3cc-0265-45c2-bce5-0d207831b217"},"vehicle_type_id":"4","last_reported":1687802997,"current_range_meters":16400,"station_id":"","pricing_plan_id":"free"},{"bike_id":"6ef630ce-0de5-4780-a165-b831597fa681","system_id":"levelo_inurba_marseille","lat":43.30301,"lon":5.39219,"is_reserved":false,"is_disabled":false,"rental_uris":{"android":"levelo://app?vid=6ef630ce-0de5-4780-a165-b831597fa681","ios":"levelo://app?vid=6ef630ce-0de5-4780-a165-b831597fa681"},"vehicle_type_id":"4","last_reported":1687802997,"current_range_meters":24800,"station_id":"","pricing_plan_id":"free"},{"bike_id":"7fc0ceb5-1be4-4e91-8ff3-982779b0af94","system_id":"levelo_inurba_marseille","lat":43.302992,"lon":5.392136,"is_reserved":false,"is_disabled":false,"rental_uris":{"android":"levelo://app?vid=7fc0ceb5-1be4-4e91-8ff3-982779b0af94","ios":"levelo://app?vid=7fc0ceb5-1be4-4e91-8ff3-982779b0af94"},"vehicle_type_id":"4","last_reported":1687802997,"current_range_meters":19200,"station_id":"ce4bgkh2rcd13ifvqbk0","pricing_plan_id":"free"},{"bike_id":"971f2fb2-29d7-4d3e-99c3-2f44e27a0c00","system_id":"levelo_inurba_marseille","lat":43.2936,"lon":5.37835,"is_reserved":false,"is_disabled":false,"rental_uris":{"android":"levelo://app?vid=971f2fb2-29d7-4d3e-99c3-2f44e27a0c00","ios":"levelo://app?vid=971f2fb2-29d7-4d3e-99c3-2f44e27a0c00"},"vehicle_type_id":"4","last_reported":1687802997,"current_range_meters":13200,"station_id":"ce4bgjh2rcd13ifvqbf0","pricing_plan_id":"free"},{"bike_id":"60aad792-3155-4caa-878c-9c8d52c132ff","system_id":"levelo_inurba_marseille","lat":43.2936,"lon":5.37835,"is_reserved":false,"is_disabled":false,"rental_uris":{"android":"levelo://app?vid=60aad792-3155-4caa-878c-9c8d52c132ff","ios":"levelo://app?vid=60aad792-3155-4caa-878c-9c8d52c132ff"},"vehicle_type_id":"4","last_reported":1687802997,"current_range_meters":0,"station_id":"ce4bgjh2rcd13ifvqbf0","pricing_plan_id":"free"},{"bike_id":"6982ed86-f61b-4994-83ba-d05bca3b3f48","system_id":"levelo_inurba_marseille","lat":43.29223,"lon":5.36055,"is_reserved":false,"is_disabled":false,"rental_uris":{"android":"levelo://app?vid=6982ed86-f61b-4994-83ba-d05bca3b3f48","ios":"levelo://app?vid=6982ed86-f61b-4994-83ba-d05bca3b3f48"},"vehicle_type_id":"4","last_reported":1687802997,"current_range_meters":0,"station_id":"","pricing_plan_id":"free"},{"bike_id":"fc3154d5-5e93-4b6c-ac25-2e05607a5a29","system_id":"levelo_inurba_marseille","lat":43.2936,"lon":5.37835,"is_reserved":false,"is_disabled":false,"rental_uris":{"android":"levelo://app?vid=fc3154d5-5e93-4b6c-ac25-2e05607a5a29","ios":"levelo://app?vid=fc3154d5-5e93-4b6c-ac25-2e05607a5a29"},"vehicle_type_id":"4","last_reported":1687802997,"current_range_meters":20000,"station_id":"ce4bgjh2rcd13ifvqbf0","pricing_plan_id":"free"},{"bike_id":"0f2166e6-1465-48dc-8a77-05fcc1369f4c","system_id":"levelo_inurba_marseille","lat":43.291675,"lon":5.371583,"is_reserved":false,"is_disabled":false,"rental_uris":{"android":"levelo://app?vid=0f2166e6-1465-48dc-8a77-05fcc1369f4c","ios":"levelo://app?vid=0f2166e6-1465-48dc-8a77-05fcc1369f4c"},"vehicle_type_id":"4","last_reported":1687802997,"current_range_meters":2400,"station_id":"ce4bha92rcd13ifvqeh0","pricing_plan_id":"free"},{"bike_id":"74f58e45-cea8-4d8b-ad1e-d38db9710364","system_id":"levelo_inurba_marseille","lat":43.29195,"lon":5.35798,"is_reserved":false,"is_disabled":false,"rental_uris":{"android":"levelo://app?vid=74f58e45-cea8-4d8b-ad1e-d38db9710364","ios":"levelo://app?vid=74f58e45-cea8-4d8b-ad1e-d38db9710364"},"vehicle_type_id":"4","last_reported":1687802997,"current_range_meters":7600,"station_id":"ce4bhb12rcd13ifvqel0","pricing_plan_id":"free"},{"bike_id":"8110a49d-5a6f-406e-8d64-3e95c7d4e2c3","system_id":"levelo_inurba_marseille","lat":43.291938,"lon":5.3579,"is_reserved":false,"is_disabled":false,"rental_uris":{"android":"levelo://app?vid=8110a49d-5a6f-406e-8d64-3e95c7d4e2c3","ios":"levelo://app?vid=8110a49d-5a6f-406e-8d64-3e95c7d4e2c3"},"vehicle_type_id":"4","last_reported":1687802997,"current_range_meters":1200,"station_id":"","pricing_plan_id":"free"},{"bike_id":"e47ec04b-0a6e-4ee5-8fa7-fc6a5f90b2d2","system_id":"levelo_inurba_marseille","lat":43.29188,"lon":5.35815,"is_reserved":false,"is_disabled":false,"rental_uris":{"android":"levelo://app?vid=e47ec04b-0a6e-4ee5-8fa7-fc6a5f90b2d2","ios":"levelo://app?vid=e47ec04b-0a6e-4ee5-8fa7-fc6a5f90b2d2"},"vehicle_type_id":"4","last_reported":1687802997,"current_range_meters":3200,"station_id":"","pricing_plan_id":"free"},{"bike_id":"8eff020a-bdfc-40c6-8032-4b7a80a9249d","system_id":"levelo_inurba_marseille","lat":43.2919,"lon":5.35801,"is_reserved":false,"is_disabled":false,"rental_uris":{"android":"levelo://app?vid=8eff020a-bdfc-40c6-8032-4b7a80a9249d","ios":"levelo://app?vid=8eff020a-bdfc-40c6-8032-4b7a80a9249d"},"vehicle_type_id":"4","last_reported":1687802997,"current_range_meters":19200,"station_id":"ce4bhb12rcd13ifvqel0","pricing_plan_id":"free"},{"bike_id":"4eefd9a4-9901-45ba-b684-54da279d817a","system_id":"levelo_inurba_marseille","lat":43.309038,"lon":5.396546,"is_reserved":false,"is_disabled":false,"rental_uris":{"android":"levelo://app?vid=4eefd9a4-9901-45ba-b684-54da279d817a","ios":"levelo://app?vid=4eefd9a4-9901-45ba-b684-54da279d817a"},"vehicle_type_id":"4","last_reported":1687802997,"current_range_meters":20000,"station_id":"ce4bh012rcd13ifvqcv0","pricing_plan_id":"free"},{"bike_id":"685cba42-7099-4463-a35e-6703f5f8b116","system_id":"levelo_inurba_marseille","lat":43.29529,"lon":5.385581,"is_reserved":false,"is_disabled":false,"rental_uris":{"android":"levelo://app?vid=685cba42-7099-4463-a35e-6703f5f8b116","ios":"levelo://app?vid=685cba42-7099-4463-a35e-6703f5f8b116"},"vehicle_type_id":"4","last_reported":1687802997,"current_range_meters":14400,"station_id":"ce4bgih2rcd13ifvqba0","pricing_plan_id":"free"},{"bike_id":"ecfab6eb-a15c-4596-a8e5-59c2a47db919","system_id":"levelo_inurba_marseille","lat":43.29529,"lon":5.385581,"is_reserved":false,"is_disabled":false,"rental_uris":{"android":"levelo://app?vid=ecfab6eb-a15c-4596-a8e5-59c2a47db919","ios":"levelo://app?vid=ecfab6eb-a15c-4596-a8e5-59c2a47db919"},"vehicle_type_id":"4","last_reported":1687802997,"current_range_meters":29600,"station_id":"ce4bgih2rcd13ifvqba0","pricing_plan_id":"free"},{"bike_id":"6a210c50-cf71-4069-8e70-df10b737ac18","system_id":"levelo_inurba_marseille","lat":43.29524,"lon":5.38559,"is_reserved":false,"is_disabled":false,"rental_uris":{"android":"levelo://app?vid=6a210c50-cf71-4069-8e70-df10b737ac18","ios":"levelo://app?vid=6a210c50-cf71-4069-8e70-df10b737ac18"},"vehicle_type_id":"4","last_reported":1687802997,"current_range_meters":2400,"station_id":"ce4bgih2rcd13ifvqba0","pricing_plan_id":"free"},{"bike_id":"3e9701cb-490c-4bfc-b69b-07268eae4365","system_id":"levelo_inurba_marseille","lat":43.290779,"lon":5.371482,"is_reserved":false,"is_disabled":false,"rental_uris":{"android":"levelo://app?vid=3e9701cb-490c-4bfc-b69b-07268eae4365","ios":"levelo://app?vid=3e9701cb-490c-4bfc-b69b-07268eae4365"},"vehicle_type_id":"4","last_reported":1687802997,"current_range_meters":400,"station_id":"ce4bh5p2rcd13ifvqe4g","pricing_plan_id":"free"},{"bike_id":"154c3324-c388-413f-a9c2-e893ae83e520","system_id":"levelo_inurba_marseille","lat":43.290779,"lon":5.371482,"is_reserved":false,"is_disabled":false,"rental_uris":{"android":"levelo://app?vid=154c3324-c388-413f-a9c2-e893ae83e520","ios":"levelo://app?vid=154c3324-c388-413f-a9c2-e893ae83e520"},"vehicle_type_id":"4","last_reported":1687802997,"current_range_meters":0,"station_id":"ce4bh5p2rcd13ifvqe4g","pricing_plan_id":"free"},{"bike_id":"9ef6e72e-9f4b-4ade-877d-9b3d8aaad34c","system_id":"levelo_inurba_marseille","lat":43.290624,"lon":5.359245,"is_reserved":false,"is_disabled":false,"rental_uris":{"android":"levelo://app?vid=9ef6e72e-9f4b-4ade-877d-9b3d8aaad34c","ios":"levelo://app?vid=9ef6e72e-9f4b-4ade-877d-9b3d8aaad34c"},"vehicle_type_id":"4","last_reported":1687802997,"current_range_meters":0,"station_id":"ce4bha92rcd13ifvqeg0","pricing_plan_id":"free"},{"bike_id":"2019db52-02c4-4742-aefc-31aa53bbe3cf","system_id":"levelo_inurba_marseille","lat":43.290624,"lon":5.359245,"is_reserved":false,"is_disabled":false,"rental_uris":{"android":"levelo://app?vid=2019db52-02c4-4742-aefc-31aa53bbe3cf","ios":"levelo://app?vid=2019db52-02c4-4742-aefc-31aa53bbe3cf"},"vehicle_type_id":"4","last_reported":1687802997,"current_range_meters":4800,"station_id":"ce4bha92rcd13ifvqeg0","pricing_plan_id":"free"},{"bike_id":"4050cb14-616e-4ee5-ad45-53370af2e152","system_id":"levelo_inurba_marseille","lat":43.290327,"lon":5.375711,"is_reserved":false,"is_disabled":false,"rental_uris":{"android":"levelo://app?vid=4050cb14-616e-4ee5-ad45-53370af2e152","ios":"levelo://app?vid=4050cb14-616e-4ee5-ad45-53370af2e152"},"vehicle_type_id":"4","last_reported":1687802997,"current_range_meters":0,"station_id":"ce4bh692rcd13ifvqe90","pricing_plan_id":"free"},{"bike_id":"20b2702a-2cf1-439f-b7da-41f192fa1a0a","system_id":"levelo_inurba_marseille","lat":43.29411,"lon":5.38614,"is_reserved":false,"is_disabled":false,"rental_uris":{"android":"levelo://app?vid=20b2702a-2cf1-439f-b7da-41f192fa1a0a","ios":"levelo://app?vid=20b2702a-2cf1-439f-b7da-41f192fa1a0a"},"vehicle_type_id":"4","last_reported":1687802997,"current_range_meters":10800,"station_id":"","pricing_plan_id":"free"},{"bike_id":"ff85fbd8-e118-4593-98d2-d8d3db217009","system_id":"levelo_inurba_marseille","lat":43.28937,"lon":5.36638,"is_reserved":false,"is_disabled":false,"rental_uris":{"android":"levelo://app?vid=ff85fbd8-e118-4593-98d2-d8d3db217009","ios":"levelo://app?vid=ff85fbd8-e118-4593-98d2-d8d3db217009"},"vehicle_type_id":"4","last_reported":1687802997,"current_range_meters":12400,"station_id":"ce4bhap2rcd13ifvqek0","pricing_plan_id":"free"},{"bike_id":"8022ad35-37fc-406b-8152-baff69f502f8","system_id":"levelo_inurba_marseille","lat":43.289184,"lon":5.366408,"is_reserved":false,"is_disabled":false,"rental_uris":{"android":"levelo://app?vid=8022ad35-37fc-406b-8152-baff69f502f8","ios":"levelo://app?vid=8022ad35-37fc-406b-8152-baff69f502f8"},"vehicle_type_id":"4","last_reported":1687802997,"current_range_meters":3600,"station_id":"ce4bhap2rcd13ifvqek0","pricing_plan_id":"free"},{"bike_id":"5d58adb8-c6a5-4443-8a15-2ad73514098f","system_id":"levelo_inurba_marseille","lat":43.28933,"lon":5.3664,"is_reserved":false,"is_disabled":false,"rental_uris":{"android":"levelo://app?vid=5d58adb8-c6a5-4443-8a15-2ad73514098f","ios":"levelo://app?vid=5d58adb8-c6a5-4443-8a15-2ad73514098f"},"vehicle_type_id":"4","last_reported":1687802997,"current_range_meters":0,"station_id":"ce4bhap2rcd13ifvqek0","pricing_plan_id":"free"},{"bike_id":"eea284a4-dd44-45b0-83bc-76321be27a92","system_id":"levelo_inurba_marseille","lat":43.289468,"lon":5.363719,"is_reserved":false,"is_disabled":false,"rental_uris":{"android":"levelo://app?vid=eea284a4-dd44-45b0-83bc-76321be27a92","ios":"levelo://app?vid=eea284a4-dd44-45b0-83bc-76321be27a92"},"vehicle_type_id":"4","last_reported":1687802997,"current_range_meters":28800,"station_id":"ce4bhc92rcd13ifvqetg","pricing_plan_id":"free"},{"bike_id":"9e72749b-b05d-4647-866b-aeec5dd06644","system_id":"levelo_inurba_marseille","lat":43.289184,"lon":5.366408,"is_reserved":false,"is_disabled":false,"rental_uris":{"android":"levelo://app?vid=9e72749b-b05d-4647-866b-aeec5dd06644","ios":"levelo://app?vid=9e72749b-b05d-4647-866b-aeec5dd06644"},"vehicle_type_id":"4","last_reported":1687802997,"current_range_meters":30400,"station_id":"ce4bhap2rcd13ifvqek0","pricing_plan_id":"free"},{"bike_id":"ead3ec98-2f3e-44fb-abb6-b8d0cb7158f6","system_id":"levelo_inurba_marseille","lat":43.30248,"lon":5.39599,"is_reserved":false,"is_disabled":false,"rental_uris":{"android":"levelo://app?vid=ead3ec98-2f3e-44fb-abb6-b8d0cb7158f6","ios":"levelo://app?vid=ead3ec98-2f3e-44fb-abb6-b8d0cb7158f6"},"vehicle_type_id":"4","last_reported":1687802997,"current_range_meters":22400,"station_id":"","pricing_plan_id":"free"},{"bike_id":"e87388a2-acae-4d49-b59f-76dce3af91f1","system_id":"levelo_inurba_marseille","lat":43.28933,"lon":5.36367,"is_reserved":false,"is_disabled":false,"rental_uris":{"android":"levelo://app?vid=e87388a2-acae-4d49-b59f-76dce3af91f1","ios":"levelo://app?vid=e87388a2-acae-4d49-b59f-76dce3af91f1"},"vehicle_type_id":"4","last_reported":1687802997,"current_range_meters":400,"station_id":"ce4bhc92rcd13ifvqetg","pricing_plan_id":"free"},{"bike_id":"6ac50586-0d88-4f2f-bdbe-69dd007bcc15","system_id":"levelo_inurba_marseille","lat":43.28931,"lon":5.36382,"is_reserved":false,"is_disabled":false,"rental_uris":{"android":"levelo://app?vid=6ac50586-0d88-4f2f-bdbe-69dd007bcc15","ios":"levelo://app?vid=6ac50586-0d88-4f2f-bdbe-69dd007bcc15"},"vehicle_type_id":"4","last_reported":1687802997,"current_range_meters":10000,"station_id":"ce4bhc92rcd13ifvqetg","pricing_plan_id":"free"},{"bike_id":"c1d02218-a65e-4cfc-8251-611b9e82f815","system_id":"levelo_inurba_marseille","lat":43.304274,"lon":5.397513,"is_reserved":false,"is_disabled":false,"rental_uris":{"android":"levelo://app?vid=c1d02218-a65e-4cfc-8251-611b9e82f815","ios":"levelo://app?vid=c1d02218-a65e-4cfc-8251-611b9e82f815"},"vehicle_type_id":"4","last_reported":1687802997,"current_range_meters":28800,"station_id":"ce4bh092rcd13ifvqd20","pricing_plan_id":"free"},{"bike_id":"d4ecb4e5-c7a7-4877-82d2-68424bd58a7e","system_id":"levelo_inurba_marseille","lat":43.29002,"lon":5.35619,"is_reserved":false,"is_disabled":false,"rental_uris":{"android":"levelo://app?vid=d4ecb4e5-c7a7-4877-82d2-68424bd58a7e","ios":"levelo://app?vid=d4ecb4e5-c7a7-4877-82d2-68424bd58a7e"},"vehicle_type_id":"4","last_reported":1687802997,"current_range_meters":0,"station_id":"ce4bhb92rcd13ifvqen0","pricing_plan_id":"free"},{"bike_id":"906bde3c-28a2-4497-a050-4adad1d119c5","system_id":"levelo_inurba_marseille","lat":43.29001,"lon":5.35618,"is_reserved":false,"is_disabled":false,"rental_uris":{"android":"levelo://app?vid=906bde3c-28a2-4497-a050-4adad1d119c5","ios":"levelo://app?vid=906bde3c-28a2-4497-a050-4adad1d119c5"},"vehicle_type_id":"4","last_reported":1687802997,"current_range_meters":0,"station_id":"ce4bhb92rcd13ifvqen0","pricing_plan_id":"free"},{"bike_id":"78854270-4d85-4d00-8ca3-b63b2811436e","system_id":"levelo_inurba_marseille","lat":43.290995,"lon":5.381361,"is_reserved":false,"is_disabled":false,"rental_uris":{"android":"levelo://app?vid=78854270-4d85-4d00-8ca3-b63b2811436e","ios":"levelo://app?vid=78854270-4d85-4d00-8ca3-b63b2811436e"},"vehicle_type_id":"4","last_reported":1687802997,"current_range_meters":30000,"station_id":"ce4bh512rcd13ifvqe2g","pricing_plan_id":"free"},{"bike_id":"01f29906-0eab-46ef-a609-2f61537a0552","system_id":"levelo_inurba_marseille","lat":43.290995,"lon":5.381361,"is_reserved":false,"is_disabled":false,"rental_uris":{"android":"levelo://app?vid=01f29906-0eab-46ef-a609-2f61537a0552","ios":"levelo://app?vid=01f29906-0eab-46ef-a609-2f61537a0552"},"vehicle_type_id":"4","last_reported":1687802997,"current_range_meters":4800,"station_id":"ce4bh512rcd13ifvqe2g","pricing_plan_id":"free"},{"bike_id":"a843e12f-7e7c-4166-873e-290f04362faa","system_id":"levelo_inurba_marseille","lat":43.290819,"lon":5.381311,"is_reserved":false,"is_disabled":false,"rental_uris":{"android":"levelo://app?vid=a843e12f-7e7c-4166-873e-290f04362faa","ios":"levelo://app?vid=a843e12f-7e7c-4166-873e-290f04362faa"},"vehicle_type_id":"4","last_reported":1687802997,"current_range_meters":0,"station_id":"ce4bh512rcd13ifvqe2g","pricing_plan_id":"free"},{"bike_id":"a89517e0-3d53-4b74-9c0d-0940e9a2c193","system_id":"levelo_inurba_marseille","lat":43.289741,"lon":5.378306,"is_reserved":false,"is_disabled":false,"rental_uris":{"android":"levelo://app?vid=a89517e0-3d53-4b74-9c0d-0940e9a2c193","ios":"levelo://app?vid=a89517e0-3d53-4b74-9c0d-0940e9a2c193"},"vehicle_type_id":"4","last_reported":1687802997,"current_range_meters":30000,"station_id":"ce4bh9p2rcd13ifvqed0","pricing_plan_id":"free"},{"bike_id":"fcc515d4-b6af-4367-b064-e22c129ceb21","system_id":"levelo_inurba_marseille","lat":43.289741,"lon":5.378306,"is_reserved":false,"is_disabled":false,"rental_uris":{"android":"levelo://app?vid=fcc515d4-b6af-4367-b064-e22c129ceb21","ios":"levelo://app?vid=fcc515d4-b6af-4367-b064-e22c129ceb21"},"vehicle_type_id":"4","last_reported":1687802997,"current_range_meters":31200,"station_id":"ce4bh9p2rcd13ifvqed0","pricing_plan_id":"free"},{"bike_id":"c180ae38-f769-441f-8a55-5a6e4930e6ad","system_id":"levelo_inurba_marseille","lat":43.3375,"lon":5.37439,"is_reserved":false,"is_disabled":false,"rental_uris":{"android":"levelo://app?vid=c180ae38-f769-441f-8a55-5a6e4930e6ad","ios":"levelo://app?vid=c180ae38-f769-441f-8a55-5a6e4930e6ad"},"vehicle_type_id":"4","last_reported":1687802997,"current_range_meters":16000,"station_id":"","pricing_plan_id":"free"},{"bike_id":"bf9a1142-4cfa-4595-a713-ad98c806155e","system_id":"levelo_inurba_marseille","lat":43.33749,"lon":5.37455,"is_reserved":false,"is_disabled":false,"rental_uris":{"android":"levelo://app?vid=bf9a1142-4cfa-4595-a713-ad98c806155e","ios":"levelo://app?vid=bf9a1142-4cfa-4595-a713-ad98c806155e"},"vehicle_type_id":"4","last_reported":1687802997,"current_range_meters":30400,"station_id":"","pricing_plan_id":"free"},{"bike_id":"3f8a925a-6a54-4259-a38f-9cf091aab246","system_id":"levelo_inurba_marseille","lat":43.29221,"lon":5.38765,"is_reserved":false,"is_disabled":false,"rental_uris":{"android":"levelo://app?vid=3f8a925a-6a54-4259-a38f-9cf091aab246","ios":"levelo://app?vid=3f8a925a-6a54-4259-a38f-9cf091aab246"},"vehicle_type_id":"4","last_reported":1687802997,"current_range_meters":10400,"station_id":"","pricing_plan_id":"free"},{"bike_id":"f762c0a2-325e-4e5d-af91-47da3a6dd71d","system_id":"levelo_inurba_marseille","lat":43.30635,"lon":5.40096,"is_reserved":false,"is_disabled":false,"rental_uris":{"android":"levelo://app?vid=f762c0a2-325e-4e5d-af91-47da3a6dd71d","ios":"levelo://app?vid=f762c0a2-325e-4e5d-af91-47da3a6dd71d"},"vehicle_type_id":"4","last_reported":1687802997,"current_range_meters":14400,"station_id":"","pricing_plan_id":"free"},{"bike_id":"75d2e8de-f886-4a2d-b76a-9e81370d6953","system_id":"levelo_inurba_marseille","lat":43.306412,"lon":5.401035,"is_reserved":false,"is_disabled":false,"rental_uris":{"android":"levelo://app?vid=75d2e8de-f886-4a2d-b76a-9e81370d6953","ios":"levelo://app?vid=75d2e8de-f886-4a2d-b76a-9e81370d6953"},"vehicle_type_id":"4","last_reported":1687802997,"current_range_meters":9600,"station_id":"ce4bh112rcd13ifvqda0","pricing_plan_id":"free"},{"bike_id":"63f118d4-0078-44e0-b666-ae246fb45517","system_id":"levelo_inurba_marseille","lat":43.301117,"lon":5.398795,"is_reserved":false,"is_disabled":false,"rental_uris":{"android":"levelo://app?vid=63f118d4-0078-44e0-b666-ae246fb45517","ios":"levelo://app?vid=63f118d4-0078-44e0-b666-ae246fb45517"},"vehicle_type_id":"4","last_reported":1687802997,"current_range_meters":11600,"station_id":"ce4bh0h2rcd13ifvqd40","pricing_plan_id":"free"},{"bike_id":"0de2450c-8908-4be6-b50c-c198b641ff16","system_id":"levelo_inurba_marseille","lat":43.301117,"lon":5.398795,"is_reserved":false,"is_disabled":false,"rental_uris":{"android":"levelo://app?vid=0de2450c-8908-4be6-b50c-c198b641ff16","ios":"levelo://app?vid=0de2450c-8908-4be6-b50c-c198b641ff16"},"vehicle_type_id":"4","last_reported":1687802997,"current_range_meters":28800,"station_id":"ce4bh0h2rcd13ifvqd40","pricing_plan_id":"free"},{"bike_id":"5fc4b15b-e51c-49cd-9467-b8aa29aad44e","system_id":"levelo_inurba_marseille","lat":43.286593,"lon":5.363346,"is_reserved":false,"is_disabled":false,"rental_uris":{"android":"levelo://app?vid=5fc4b15b-e51c-49cd-9467-b8aa29aad44e","ios":"levelo://app?vid=5fc4b15b-e51c-49cd-9467-b8aa29aad44e"},"vehicle_type_id":"4","last_reported":1687802997,"current_range_meters":4000,"station_id":"ce4bhah2rcd13ifvqej0","pricing_plan_id":"free"},{"bike_id":"813a574f-183d-4c2b-949c-f8d3f074f3cb","system_id":"levelo_inurba_marseille","lat":43.286591,"lon":5.363346,"is_reserved":false,"is_disabled":false,"rental_uris":{"android":"levelo://app?vid=813a574f-183d-4c2b-949c-f8d3f074f3cb","ios":"levelo://app?vid=813a574f-183d-4c2b-949c-f8d3f074f3cb"},"vehicle_type_id":"4","last_reported":1687802997,"current_range_meters":22400,"station_id":"ce4bhah2rcd13ifvqej0","pricing_plan_id":"free"},{"bike_id":"2de153ab-cef5-47f6-8c21-ce389c6e9e8b","system_id":"levelo_inurba_marseille","lat":43.295196,"lon":5.39397,"is_reserved":false,"is_disabled":false,"rental_uris":{"android":"levelo://app?vid=2de153ab-cef5-47f6-8c21-ce389c6e9e8b","ios":"levelo://app?vid=2de153ab-cef5-47f6-8c21-ce389c6e9e8b"},"vehicle_type_id":"4","last_reported":1687802997,"current_range_meters":400,"station_id":"ce4bh292rcd13ifvqdf0","pricing_plan_id":"free"},{"bike_id":"ba09b6be-0bc8-4f68-bff3-c479ff8af665","system_id":"levelo_inurba_marseille","lat":43.302759,"lon":5.400793,"is_reserved":false,"is_disabled":false,"rental_uris":{"android":"levelo://app?vid=ba09b6be-0bc8-4f68-bff3-c479ff8af665","ios":"levelo://app?vid=ba09b6be-0bc8-4f68-bff3-c479ff8af665"},"vehicle_type_id":"4","last_reported":1687802997,"current_range_meters":3600,"station_id":"ce4bgvh2rcd13ifvqcs0","pricing_plan_id":"free"},{"bike_id":"886c5784-1705-493f-9df1-79a75b6f3938","system_id":"levelo_inurba_marseille","lat":43.302759,"lon":5.400793,"is_reserved":false,"is_disabled":false,"rental_uris":{"android":"levelo://app?vid=886c5784-1705-493f-9df1-79a75b6f3938","ios":"levelo://app?vid=886c5784-1705-493f-9df1-79a75b6f3938"},"vehicle_type_id":"4","last_reported":1687802997,"current_range_meters":12400,"station_id":"ce4bgvh2rcd13ifvqcs0","pricing_plan_id":"free"},{"bike_id":"d96e6036-8dda-420b-b48b-31a0628f729d","system_id":"levelo_inurba_marseille","lat":43.290345,"lon":5.38646,"is_reserved":false,"is_disabled":false,"rental_uris":{"android":"levelo://app?vid=d96e6036-8dda-420b-b48b-31a0628f729d","ios":"levelo://app?vid=d96e6036-8dda-420b-b48b-31a0628f729d"},"vehicle_type_id":"4","last_reported":1687802997,"current_range_meters":1200,"station_id":"ce4bh4p2rcd13ifvqe0g","pricing_plan_id":"free"},{"bike_id":"f3115fe3-69f5-4d81-859a-bf690397c37d","system_id":"levelo_inurba_marseille","lat":43.302759,"lon":5.400793,"is_reserved":false,"is_disabled":false,"rental_uris":{"android":"levelo://app?vid=f3115fe3-69f5-4d81-859a-bf690397c37d","ios":"levelo://app?vid=f3115fe3-69f5-4d81-859a-bf690397c37d"},"vehicle_type_id":"4","last_reported":1687802997,"current_range_meters":8800,"station_id":"ce4bgvh2rcd13ifvqcs0","pricing_plan_id":"free"},{"bike_id":"77c2d8f5-cadb-4d37-9340-1137feac84ac","system_id":"levelo_inurba_marseille","lat":43.302759,"lon":5.400793,"is_reserved":false,"is_disabled":false,"rental_uris":{"android":"levelo://app?vid=77c2d8f5-cadb-4d37-9340-1137feac84ac","ios":"levelo://app?vid=77c2d8f5-cadb-4d37-9340-1137feac84ac"},"vehicle_type_id":"4","last_reported":1687802997,"current_range_meters":23200,"station_id":"ce4bgvh2rcd13ifvqcs0","pricing_plan_id":"free"},{"bike_id":"99b73f5d-10c8-4d7b-bbc0-e9ee001498ee","system_id":"levelo_inurba_marseille","lat":43.316476,"lon":5.40426,"is_reserved":false,"is_disabled":false,"rental_uris":{"android":"levelo://app?vid=99b73f5d-10c8-4d7b-bbc0-e9ee001498ee","ios":"levelo://app?vid=99b73f5d-10c8-4d7b-bbc0-e9ee001498ee"},"vehicle_type_id":"4","last_reported":1687802997,"current_range_meters":10400,"station_id":"","pricing_plan_id":"free"},{"bike_id":"d69fed3a-efe9-46fb-b1dc-1240b8978d3e","system_id":"levelo_inurba_marseille","lat":43.31642,"lon":5.40439,"is_reserved":false,"is_disabled":false,"rental_uris":{"android":"levelo://app?vid=d69fed3a-efe9-46fb-b1dc-1240b8978d3e","ios":"levelo://app?vid=d69fed3a-efe9-46fb-b1dc-1240b8978d3e"},"vehicle_type_id":"4","last_reported":1687802997,"current_range_meters":8400,"station_id":"ce4bh012rcd13ifvqd00","pricing_plan_id":"free"},{"bike_id":"5cc29434-122f-4b24-b743-2b4b4aa27483","system_id":"levelo_inurba_marseille","lat":43.291994,"lon":5.392907,"is_reserved":false,"is_disabled":false,"rental_uris":{"android":"levelo://app?vid=5cc29434-122f-4b24-b743-2b4b4aa27483","ios":"levelo://app?vid=5cc29434-122f-4b24-b743-2b4b4aa27483"},"vehicle_type_id":"4","last_reported":1687802997,"current_range_meters":20800,"station_id":"ce4bh192rcd13ifvqdd0","pricing_plan_id":"free"},{"bike_id":"778e7dbb-b5e8-4518-be01-b1649fa5410a","system_id":"levelo_inurba_marseille","lat":43.291994,"lon":5.392907,"is_reserved":false,"is_disabled":false,"rental_uris":{"android":"levelo://app?vid=778e7dbb-b5e8-4518-be01-b1649fa5410a","ios":"levelo://app?vid=778e7dbb-b5e8-4518-be01-b1649fa5410a"},"vehicle_type_id":"4","last_reported":1687802997,"current_range_meters":3600,"station_id":"ce4bh192rcd13ifvqdd0","pricing_plan_id":"free"},{"bike_id":"69bc009c-a6e5-4d20-8aee-e20df336e52c","system_id":"levelo_inurba_marseille","lat":43.291994,"lon":5.392907,"is_reserved":false,"is_disabled":false,"rental_uris":{"android":"levelo://app?vid=69bc009c-a6e5-4d20-8aee-e20df336e52c","ios":"levelo://app?vid=69bc009c-a6e5-4d20-8aee-e20df336e52c"},"vehicle_type_id":"4","last_reported":1687802997,"current_range_meters":22800,"station_id":"ce4bh192rcd13ifvqdd0","pricing_plan_id":"free"},{"bike_id":"1c6c39c3-7998-492c-8b9f-b1e9b043d065","system_id":"levelo_inurba_marseille","lat":43.284618,"lon":5.358911,"is_reserved":false,"is_disabled":false,"rental_uris":{"android":"levelo://app?vid=1c6c39c3-7998-492c-8b9f-b1e9b043d065","ios":"levelo://app?vid=1c6c39c3-7998-492c-8b9f-b1e9b043d065"},"vehicle_type_id":"4","last_reported":1687802997,"current_range_meters":3200,"station_id":"ce4bhah2rcd13ifvqei0","pricing_plan_id":"free"},{"bike_id":"d805803a-9372-4c09-aecb-8323b9ddea6d","system_id":"levelo_inurba_marseille","lat":43.28458,"lon":5.35893,"is_reserved":false,"is_disabled":false,"rental_uris":{"android":"levelo://app?vid=d805803a-9372-4c09-aecb-8323b9ddea6d","ios":"levelo://app?vid=d805803a-9372-4c09-aecb-8323b9ddea6d"},"vehicle_type_id":"4","last_reported":1687802997,"current_range_meters":23200,"station_id":"ce4bhah2rcd13ifvqei0","pricing_plan_id":"free"},{"bike_id":"031e545f-4329-436c-84f2-e1f2820f0f5e","system_id":"levelo_inurba_marseille","lat":43.284534,"lon":5.358662,"is_reserved":false,"is_disabled":false,"rental_uris":{"android":"levelo://app?vid=031e545f-4329-436c-84f2-e1f2820f0f5e","ios":"levelo://app?vid=031e545f-4329-436c-84f2-e1f2820f0f5e"},"vehicle_type_id":"4","last_reported":1687802997,"current_range_meters":17200,"station_id":"ce4bhah2rcd13ifvqei0","pricing_plan_id":"free"},{"bike_id":"7f2809c6-c8fd-4a71-b62e-8f23fa5bfab8","system_id":"levelo_inurba_marseille","lat":43.285848,"lon":5.350787,"is_reserved":false,"is_disabled":false,"rental_uris":{"android":"levelo://app?vid=7f2809c6-c8fd-4a71-b62e-8f23fa5bfab8","ios":"levelo://app?vid=7f2809c6-c8fd-4a71-b62e-8f23fa5bfab8"},"vehicle_type_id":"4","last_reported":1687802997,"current_range_meters":11600,"station_id":"ce4bhch2rcd13ifvqeug","pricing_plan_id":"free"},{"bike_id":"3eafc1f3-39e9-4e47-99f4-999eeb2b3da3","system_id":"levelo_inurba_marseille","lat":43.285848,"lon":5.350787,"is_reserved":false,"is_disabled":false,"rental_uris":{"android":"levelo://app?vid=3eafc1f3-39e9-4e47-99f4-999eeb2b3da3","ios":"levelo://app?vid=3eafc1f3-39e9-4e47-99f4-999eeb2b3da3"},"vehicle_type_id":"4","last_reported":1687802997,"current_range_meters":23600,"station_id":"ce4bhch2rcd13ifvqeug","pricing_plan_id":"free"},{"bike_id":"212ae070-8c98-4529-b7ae-7306fd3a83b0","system_id":"levelo_inurba_marseille","lat":43.285848,"lon":5.350787,"is_reserved":false,"is_disabled":false,"rental_uris":{"android":"levelo://app?vid=212ae070-8c98-4529-b7ae-7306fd3a83b0","ios":"levelo://app?vid=212ae070-8c98-4529-b7ae-7306fd3a83b0"},"vehicle_type_id":"4","last_reported":1687802997,"current_range_meters":22000,"station_id":"ce4bhch2rcd13ifvqeug","pricing_plan_id":"free"},{"bike_id":"61a0ef81-9af4-45b7-a867-9e7409a8b003","system_id":"levelo_inurba_marseille","lat":43.28616,"lon":5.35105,"is_reserved":false,"is_disabled":false,"rental_uris":{"android":"levelo://app?vid=61a0ef81-9af4-45b7-a867-9e7409a8b003","ios":"levelo://app?vid=61a0ef81-9af4-45b7-a867-9e7409a8b003"},"vehicle_type_id":"4","last_reported":1687802997,"current_range_meters":1600,"station_id":"ce4bhch2rcd13ifvqeug","pricing_plan_id":"free"},{"bike_id":"432b952b-f1e2-40c1-8ccf-b6a4fbd9511c","system_id":"levelo_inurba_marseille","lat":43.285848,"lon":5.350787,"is_reserved":false,"is_disabled":false,"rental_uris":{"android":"levelo://app?vid=432b952b-f1e2-40c1-8ccf-b6a4fbd9511c","ios":"levelo://app?vid=432b952b-f1e2-40c1-8ccf-b6a4fbd9511c"},"vehicle_type_id":"4","last_reported":1687802997,"current_range_meters":19600,"station_id":"ce4bhch2rcd13ifvqeug","pricing_plan_id":"free"},{"bike_id":"f6913d3c-3242-46c3-badd-a0afa5185d83","system_id":"levelo_inurba_marseille","lat":43.285848,"lon":5.350787,"is_reserved":false,"is_disabled":false,"rental_uris":{"android":"levelo://app?vid=f6913d3c-3242-46c3-badd-a0afa5185d83","ios":"levelo://app?vid=f6913d3c-3242-46c3-badd-a0afa5185d83"},"vehicle_type_id":"4","last_reported":1687802997,"current_range_meters":6800,"station_id":"ce4bhch2rcd13ifvqeug","pricing_plan_id":"free"},{"bike_id":"5ce447d5-814e-4587-9ff6-900857379c70","system_id":"levelo_inurba_marseille","lat":43.285848,"lon":5.350787,"is_reserved":false,"is_disabled":false,"rental_uris":{"android":"levelo://app?vid=5ce447d5-814e-4587-9ff6-900857379c70","ios":"levelo://app?vid=5ce447d5-814e-4587-9ff6-900857379c70"},"vehicle_type_id":"4","last_reported":1687802997,"current_range_meters":28800,"station_id":"ce4bhch2rcd13ifvqeug","pricing_plan_id":"free"},{"bike_id":"5c6f0368-3a1a-4a3f-a09f-3f77eedfe473","system_id":"levelo_inurba_marseille","lat":43.28614,"lon":5.35105,"is_reserved":false,"is_disabled":false,"rental_uris":{"android":"levelo://app?vid=5c6f0368-3a1a-4a3f-a09f-3f77eedfe473","ios":"levelo://app?vid=5c6f0368-3a1a-4a3f-a09f-3f77eedfe473"},"vehicle_type_id":"4","last_reported":1687802997,"current_range_meters":17600,"station_id":"ce4bhch2rcd13ifvqeug","pricing_plan_id":"free"},{"bike_id":"af2a460f-bb0e-44bf-a853-80fa263e43c1","system_id":"levelo_inurba_marseille","lat":43.28612,"lon":5.35105,"is_reserved":false,"is_disabled":false,"rental_uris":{"android":"levelo://app?vid=af2a460f-bb0e-44bf-a853-80fa263e43c1","ios":"levelo://app?vid=af2a460f-bb0e-44bf-a853-80fa263e43c1"},"vehicle_type_id":"4","last_reported":1687802997,"current_range_meters":31200,"station_id":"","pricing_plan_id":"free"},{"bike_id":"f2afd2a9-21d4-42d8-b66f-45393b25e65c","system_id":"levelo_inurba_marseille","lat":43.285848,"lon":5.350787,"is_reserved":false,"is_disabled":false,"rental_uris":{"android":"levelo://app?vid=f2afd2a9-21d4-42d8-b66f-45393b25e65c","ios":"levelo://app?vid=f2afd2a9-21d4-42d8-b66f-45393b25e65c"},"vehicle_type_id":"4","last_reported":1687802997,"current_range_meters":23600,"station_id":"ce4bhch2rcd13ifvqeug","pricing_plan_id":"free"},{"bike_id":"a1547bff-cfc8-4476-b15a-b43d705665df","system_id":"levelo_inurba_marseille","lat":43.285848,"lon":5.350787,"is_reserved":false,"is_disabled":false,"rental_uris":{"android":"levelo://app?vid=a1547bff-cfc8-4476-b15a-b43d705665df","ios":"levelo://app?vid=a1547bff-cfc8-4476-b15a-b43d705665df"},"vehicle_type_id":"4","last_reported":1687802997,"current_range_meters":5600,"station_id":"ce4bhch2rcd13ifvqeug","pricing_plan_id":"free"},{"bike_id":"e1c41ebe-c45a-42c8-8249-21aa680cb70e","system_id":"levelo_inurba_marseille","lat":43.323464,"lon":5.406297,"is_reserved":false,"is_disabled":false,"rental_uris":{"android":"levelo://app?vid=e1c41ebe-c45a-42c8-8249-21aa680cb70e","ios":"levelo://app?vid=e1c41ebe-c45a-42c8-8249-21aa680cb70e"},"vehicle_type_id":"4","last_reported":1687802997,"current_range_meters":31200,"station_id":"ce4bhq92rcd13ifvqhjg","pricing_plan_id":"free"},{"bike_id":"47cf2591-be30-4574-b81b-5471f953e13f","system_id":"levelo_inurba_marseille","lat":43.323464,"lon":5.406297,"is_reserved":false,"is_disabled":false,"rental_uris":{"android":"levelo://app?vid=47cf2591-be30-4574-b81b-5471f953e13f","ios":"levelo://app?vid=47cf2591-be30-4574-b81b-5471f953e13f"},"vehicle_type_id":"4","last_reported":1687802997,"current_range_meters":25200,"station_id":"ce4bhq92rcd13ifvqhjg","pricing_plan_id":"free"},{"bike_id":"14320aea-1c39-4c4f-8b83-c86651cf8ca8","system_id":"levelo_inurba_marseille","lat":43.28485,"lon":5.38424,"is_reserved":false,"is_disabled":false,"rental_uris":{"android":"levelo://app?vid=14320aea-1c39-4c4f-8b83-c86651cf8ca8","ios":"levelo://app?vid=14320aea-1c39-4c4f-8b83-c86651cf8ca8"},"vehicle_type_id":"4","last_reported":1687802997,"current_range_meters":23600,"station_id":"ce4bh512rcd13ifvqe3g","pricing_plan_id":"free"},{"bike_id":"b4c950db-352f-4a1a-8e3c-c05101a6dad0","system_id":"levelo_inurba_marseille","lat":43.28855,"lon":5.39314,"is_reserved":false,"is_disabled":false,"rental_uris":{"android":"levelo://app?vid=b4c950db-352f-4a1a-8e3c-c05101a6dad0","ios":"levelo://app?vid=b4c950db-352f-4a1a-8e3c-c05101a6dad0"},"vehicle_type_id":"4","last_reported":1687802997,"current_range_meters":30400,"station_id":"ce4bh2p2rcd13ifvqdi0","pricing_plan_id":"free"},{"bike_id":"0845c769-5b95-431d-bbe6-3983e18f8025","system_id":"levelo_inurba_marseille","lat":43.283494,"lon":5.380945,"is_reserved":false,"is_disabled":false,"rental_uris":{"android":"levelo://app?vid=0845c769-5b95-431d-bbe6-3983e18f8025","ios":"levelo://app?vid=0845c769-5b95-431d-bbe6-3983e18f8025"},"vehicle_type_id":"4","last_reported":1687802997,"current_range_meters":27200,"station_id":"ce4bh412rcd13ifvqdr0","pricing_plan_id":"free"},{"bike_id":"270ad474-de60-4d38-aaa8-6d5d1b2ce19e","system_id":"levelo_inurba_marseille","lat":43.28422,"lon":5.35005,"is_reserved":false,"is_disabled":false,"rental_uris":{"android":"levelo://app?vid=270ad474-de60-4d38-aaa8-6d5d1b2ce19e","ios":"levelo://app?vid=270ad474-de60-4d38-aaa8-6d5d1b2ce19e"},"vehicle_type_id":"4","last_reported":1687802997,"current_range_meters":31200,"station_id":"ce4bhbh2rcd13ifvqepg","pricing_plan_id":"free"},{"bike_id":"fdb9de36-b831-4a14-b898-2fc1ecc96445","system_id":"levelo_inurba_marseille","lat":43.28424,"lon":5.34994,"is_reserved":false,"is_disabled":false,"rental_uris":{"android":"levelo://app?vid=fdb9de36-b831-4a14-b898-2fc1ecc96445","ios":"levelo://app?vid=fdb9de36-b831-4a14-b898-2fc1ecc96445"},"vehicle_type_id":"4","last_reported":1687802997,"current_range_meters":31200,"station_id":"ce4bhbh2rcd13ifvqepg","pricing_plan_id":"free"},{"bike_id":"cae659a7-8c3e-4015-833c-cb530ed68403","system_id":"levelo_inurba_marseille","lat":43.28416,"lon":5.34993,"is_reserved":false,"is_disabled":false,"rental_uris":{"android":"levelo://app?vid=cae659a7-8c3e-4015-833c-cb530ed68403","ios":"levelo://app?vid=cae659a7-8c3e-4015-833c-cb530ed68403"},"vehicle_type_id":"4","last_reported":1687802997,"current_range_meters":800,"station_id":"ce4bhbh2rcd13ifvqepg","pricing_plan_id":"free"},{"bike_id":"8ec79220-c470-46bd-90f2-ef729d10b6e8","system_id":"levelo_inurba_marseille","lat":43.284217,"lon":5.349697,"is_reserved":false,"is_disabled":false,"rental_uris":{"android":"levelo://app?vid=8ec79220-c470-46bd-90f2-ef729d10b6e8","ios":"levelo://app?vid=8ec79220-c470-46bd-90f2-ef729d10b6e8"},"vehicle_type_id":"4","last_reported":1687802997,"current_range_meters":3200,"station_id":"ce4bhbh2rcd13ifvqepg","pricing_plan_id":"free"},{"bike_id":"cc86e344-7bb7-45f8-b2f2-d6ef7f91d415","system_id":"levelo_inurba_marseille","lat":43.28418,"lon":5.34979,"is_reserved":false,"is_disabled":false,"rental_uris":{"android":"levelo://app?vid=cc86e344-7bb7-45f8-b2f2-d6ef7f91d415","ios":"levelo://app?vid=cc86e344-7bb7-45f8-b2f2-d6ef7f91d415"},"vehicle_type_id":"4","last_reported":1687802997,"current_range_meters":6000,"station_id":"ce4bhbh2rcd13ifvqepg","pricing_plan_id":"free"},{"bike_id":"d6496c36-6edb-436b-b37f-d12e530b035d","system_id":"levelo_inurba_marseille","lat":43.28413,"lon":5.34992,"is_reserved":false,"is_disabled":false,"rental_uris":{"android":"levelo://app?vid=d6496c36-6edb-436b-b37f-d12e530b035d","ios":"levelo://app?vid=d6496c36-6edb-436b-b37f-d12e530b035d"},"vehicle_type_id":"4","last_reported":1687802997,"current_range_meters":0,"station_id":"ce4bhbh2rcd13ifvqepg","pricing_plan_id":"free"},{"bike_id":"7213ee0f-39f5-4749-b5b7-5e9c91d7338f","system_id":"levelo_inurba_marseille","lat":43.284217,"lon":5.349697,"is_reserved":false,"is_disabled":false,"rental_uris":{"android":"levelo://app?vid=7213ee0f-39f5-4749-b5b7-5e9c91d7338f","ios":"levelo://app?vid=7213ee0f-39f5-4749-b5b7-5e9c91d7338f"},"vehicle_type_id":"4","last_reported":1687802997,"current_range_meters":17600,"station_id":"ce4bhbh2rcd13ifvqepg","pricing_plan_id":"free"},{"bike_id":"868a7975-7b76-4ee6-b9fd-40bc721a83a4","system_id":"levelo_inurba_marseille","lat":43.284219,"lon":5.3497,"is_reserved":false,"is_disabled":false,"rental_uris":{"android":"levelo://app?vid=868a7975-7b76-4ee6-b9fd-40bc721a83a4","ios":"levelo://app?vid=868a7975-7b76-4ee6-b9fd-40bc721a83a4"},"vehicle_type_id":"4","last_reported":1687802997,"current_range_meters":27600,"station_id":"ce4bhbh2rcd13ifvqepg","pricing_plan_id":"free"},{"bike_id":"69d8dc3f-1e9f-4a3f-9cac-b821bcb0e023","system_id":"levelo_inurba_marseille","lat":43.284219,"lon":5.3497,"is_reserved":false,"is_disabled":false,"rental_uris":{"android":"levelo://app?vid=69d8dc3f-1e9f-4a3f-9cac-b821bcb0e023","ios":"levelo://app?vid=69d8dc3f-1e9f-4a3f-9cac-b821bcb0e023"},"vehicle_type_id":"4","last_reported":1687802997,"current_range_meters":30400,"station_id":"ce4bhbh2rcd13ifvqepg","pricing_plan_id":"free"},{"bike_id":"66020921-b1b7-4d9d-b40f-dc563be6341b","system_id":"levelo_inurba_marseille","lat":43.284219,"lon":5.3497,"is_reserved":false,"is_disabled":false,"rental_uris":{"android":"levelo://app?vid=66020921-b1b7-4d9d-b40f-dc563be6341b","ios":"levelo://app?vid=66020921-b1b7-4d9d-b40f-dc563be6341b"},"vehicle_type_id":"4","last_reported":1687802997,"current_range_meters":29600,"station_id":"ce4bhbh2rcd13ifvqepg","pricing_plan_id":"free"},{"bike_id":"1b04a6e6-42b8-4afc-ad94-9d8702274b4c","system_id":"levelo_inurba_marseille","lat":43.284217,"lon":5.349697,"is_reserved":false,"is_disabled":false,"rental_uris":{"android":"levelo://app?vid=1b04a6e6-42b8-4afc-ad94-9d8702274b4c","ios":"levelo://app?vid=1b04a6e6-42b8-4afc-ad94-9d8702274b4c"},"vehicle_type_id":"4","last_reported":1687802997,"current_range_meters":26400,"station_id":"ce4bhbh2rcd13ifvqepg","pricing_plan_id":"free"},{"bike_id":"821cdccf-6ee6-430e-919b-6aab2d5dca24","system_id":"levelo_inurba_marseille","lat":43.284217,"lon":5.349697,"is_reserved":false,"is_disabled":false,"rental_uris":{"android":"levelo://app?vid=821cdccf-6ee6-430e-919b-6aab2d5dca24","ios":"levelo://app?vid=821cdccf-6ee6-430e-919b-6aab2d5dca24"},"vehicle_type_id":"4","last_reported":1687802997,"current_range_meters":8400,"station_id":"ce4bhbh2rcd13ifvqepg","pricing_plan_id":"free"},{"bike_id":"d38a76f1-ebd5-4f3a-b853-95aae6195b2d","system_id":"levelo_inurba_marseille","lat":43.28414,"lon":5.34983,"is_reserved":false,"is_disabled":false,"rental_uris":{"android":"levelo://app?vid=d38a76f1-ebd5-4f3a-b853-95aae6195b2d","ios":"levelo://app?vid=d38a76f1-ebd5-4f3a-b853-95aae6195b2d"},"vehicle_type_id":"4","last_reported":1687802997,"current_range_meters":11200,"station_id":"ce4bhbh2rcd13ifvqepg","pricing_plan_id":"free"},{"bike_id":"0e394965-7f50-49a5-ad85-7f6f3657f5b0","system_id":"levelo_inurba_marseille","lat":43.284217,"lon":5.349697,"is_reserved":false,"is_disabled":false,"rental_uris":{"android":"levelo://app?vid=0e394965-7f50-49a5-ad85-7f6f3657f5b0","ios":"levelo://app?vid=0e394965-7f50-49a5-ad85-7f6f3657f5b0"},"vehicle_type_id":"4","last_reported":1687802997,"current_range_meters":16000,"station_id":"ce4bhbh2rcd13ifvqepg","pricing_plan_id":"free"},{"bike_id":"38bd0e45-26fc-4101-991b-6d83af88a261","system_id":"levelo_inurba_marseille","lat":43.284219,"lon":5.3497,"is_reserved":false,"is_disabled":false,"rental_uris":{"android":"levelo://app?vid=38bd0e45-26fc-4101-991b-6d83af88a261","ios":"levelo://app?vid=38bd0e45-26fc-4101-991b-6d83af88a261"},"vehicle_type_id":"4","last_reported":1687802997,"current_range_meters":26800,"station_id":"ce4bhbh2rcd13ifvqepg","pricing_plan_id":"free"},{"bike_id":"4d04e588-e027-4a2d-8660-4f39c5056045","system_id":"levelo_inurba_marseille","lat":43.284219,"lon":5.3497,"is_reserved":false,"is_disabled":false,"rental_uris":{"android":"levelo://app?vid=4d04e588-e027-4a2d-8660-4f39c5056045","ios":"levelo://app?vid=4d04e588-e027-4a2d-8660-4f39c5056045"},"vehicle_type_id":"4","last_reported":1687802997,"current_range_meters":31200,"station_id":"ce4bhbh2rcd13ifvqepg","pricing_plan_id":"free"},{"bike_id":"37b0b46b-c136-466f-a184-9452f93da1c2","system_id":"levelo_inurba_marseille","lat":43.28404,"lon":5.35001,"is_reserved":false,"is_disabled":false,"rental_uris":{"android":"levelo://app?vid=37b0b46b-c136-466f-a184-9452f93da1c2","ios":"levelo://app?vid=37b0b46b-c136-466f-a184-9452f93da1c2"},"vehicle_type_id":"4","last_reported":1687802997,"current_range_meters":22400,"station_id":"","pricing_plan_id":"free"},{"bike_id":"bd8de08c-82c6-4c49-8229-6a357e3a52ec","system_id":"levelo_inurba_marseille","lat":43.28404,"lon":5.35001,"is_reserved":false,"is_disabled":false,"rental_uris":{"android":"levelo://app?vid=bd8de08c-82c6-4c49-8229-6a357e3a52ec","ios":"levelo://app?vid=bd8de08c-82c6-4c49-8229-6a357e3a52ec"},"vehicle_type_id":"4","last_reported":1687802997,"current_range_meters":20800,"station_id":"","pricing_plan_id":"free"},{"bike_id":"6095dbb5-97ec-4cee-b6d5-8e5365e26b53","system_id":"levelo_inurba_marseille","lat":43.284061,"lon":5.349937,"is_reserved":false,"is_disabled":false,"rental_uris":{"android":"levelo://app?vid=6095dbb5-97ec-4cee-b6d5-8e5365e26b53","ios":"levelo://app?vid=6095dbb5-97ec-4cee-b6d5-8e5365e26b53"},"vehicle_type_id":"4","last_reported":1687802997,"current_range_meters":31200,"station_id":"","pricing_plan_id":"free"},{"bike_id":"5d5e4145-b310-4efb-b5f8-4f3acc9c3f3c","system_id":"levelo_inurba_marseille","lat":43.28407,"lon":5.349904,"is_reserved":false,"is_disabled":false,"rental_uris":{"android":"levelo://app?vid=5d5e4145-b310-4efb-b5f8-4f3acc9c3f3c","ios":"levelo://app?vid=5d5e4145-b310-4efb-b5f8-4f3acc9c3f3c"},"vehicle_type_id":"4","last_reported":1687802997,"current_range_meters":8400,"station_id":"ce4bhbh2rcd13ifvqepg","pricing_plan_id":"free"},{"bike_id":"f9882f82-2b3f-4aa6-ba6f-2fb3f3c2405a","system_id":"levelo_inurba_marseille","lat":43.284219,"lon":5.3497,"is_reserved":false,"is_disabled":false,"rental_uris":{"android":"levelo://app?vid=f9882f82-2b3f-4aa6-ba6f-2fb3f3c2405a","ios":"levelo://app?vid=f9882f82-2b3f-4aa6-ba6f-2fb3f3c2405a"},"vehicle_type_id":"4","last_reported":1687802997,"current_range_meters":30000,"station_id":"ce4bhbh2rcd13ifvqepg","pricing_plan_id":"free"},{"bike_id":"adfeb7b7-cc40-41da-b602-957518c6a59d","system_id":"levelo_inurba_marseille","lat":43.284217,"lon":5.349697,"is_reserved":false,"is_disabled":false,"rental_uris":{"android":"levelo://app?vid=adfeb7b7-cc40-41da-b602-957518c6a59d","ios":"levelo://app?vid=adfeb7b7-cc40-41da-b602-957518c6a59d"},"vehicle_type_id":"4","last_reported":1687802997,"current_range_meters":30800,"station_id":"ce4bhbh2rcd13ifvqepg","pricing_plan_id":"free"},{"bike_id":"ea416f14-8ff0-46e4-845a-9608e94e0ef1","system_id":"levelo_inurba_marseille","lat":43.28408,"lon":5.349847,"is_reserved":false,"is_disabled":false,"rental_uris":{"android":"levelo://app?vid=ea416f14-8ff0-46e4-845a-9608e94e0ef1","ios":"levelo://app?vid=ea416f14-8ff0-46e4-845a-9608e94e0ef1"},"vehicle_type_id":"4","last_reported":1687802997,"current_range_meters":8800,"station_id":"","pricing_plan_id":"free"},{"bike_id":"16286ddd-c94e-41b9-8999-923e3919f067","system_id":"levelo_inurba_marseille","lat":43.284217,"lon":5.349697,"is_reserved":false,"is_disabled":false,"rental_uris":{"android":"levelo://app?vid=16286ddd-c94e-41b9-8999-923e3919f067","ios":"levelo://app?vid=16286ddd-c94e-41b9-8999-923e3919f067"},"vehicle_type_id":"4","last_reported":1687802997,"current_range_meters":30400,"station_id":"ce4bhbh2rcd13ifvqepg","pricing_plan_id":"free"},{"bike_id":"8f03c2a7-46e2-473a-bde8-a114c94f66ff","system_id":"levelo_inurba_marseille","lat":43.284217,"lon":5.349697,"is_reserved":false,"is_disabled":false,"rental_uris":{"android":"levelo://app?vid=8f03c2a7-46e2-473a-bde8-a114c94f66ff","ios":"levelo://app?vid=8f03c2a7-46e2-473a-bde8-a114c94f66ff"},"vehicle_type_id":"4","last_reported":1687802997,"current_range_meters":24800,"station_id":"ce4bhbh2rcd13ifvqepg","pricing_plan_id":"free"},{"bike_id":"7e57402e-dd8e-4e1a-ad1f-0e9234e4289c","system_id":"levelo_inurba_marseille","lat":43.284217,"lon":5.349697,"is_reserved":false,"is_disabled":false,"rental_uris":{"android":"levelo://app?vid=7e57402e-dd8e-4e1a-ad1f-0e9234e4289c","ios":"levelo://app?vid=7e57402e-dd8e-4e1a-ad1f-0e9234e4289c"},"vehicle_type_id":"4","last_reported":1687802997,"current_range_meters":24400,"station_id":"ce4bhbh2rcd13ifvqepg","pricing_plan_id":"free"},{"bike_id":"8957d524-f5b4-4034-925e-96cacef29c5a","system_id":"levelo_inurba_marseille","lat":43.30607,"lon":5.40917,"is_reserved":false,"is_disabled":false,"rental_uris":{"android":"levelo://app?vid=8957d524-f5b4-4034-925e-96cacef29c5a","ios":"levelo://app?vid=8957d524-f5b4-4034-925e-96cacef29c5a"},"vehicle_type_id":"4","last_reported":1687802997,"current_range_meters":0,"station_id":"","pricing_plan_id":"free"},{"bike_id":"17280fb6-6cc1-44e2-a774-ab04e5a0ce44","system_id":"levelo_inurba_marseille","lat":43.289363,"lon":5.396322,"is_reserved":false,"is_disabled":false,"rental_uris":{"android":"levelo://app?vid=17280fb6-6cc1-44e2-a774-ab04e5a0ce44","ios":"levelo://app?vid=17280fb6-6cc1-44e2-a774-ab04e5a0ce44"},"vehicle_type_id":"4","last_reported":1687802997,"current_range_meters":15600,"station_id":"ce4bh3h2rcd13ifvqdn0","pricing_plan_id":"free"},{"bike_id":"1fb48299-c0a0-46eb-b916-e5c85350f9a4","system_id":"levelo_inurba_marseille","lat":43.29285,"lon":5.4012,"is_reserved":false,"is_disabled":false,"rental_uris":{"android":"levelo://app?vid=1fb48299-c0a0-46eb-b916-e5c85350f9a4","ios":"levelo://app?vid=1fb48299-c0a0-46eb-b916-e5c85350f9a4"},"vehicle_type_id":"4","last_reported":1687802997,"current_range_meters":10400,"station_id":"ce4bh312rcd13ifvqdk0","pricing_plan_id":"free"},{"bike_id":"31d8f23c-30fd-4bd5-9e7a-a837f9d23cf3","system_id":"levelo_inurba_marseille","lat":43.32038,"lon":5.40992,"is_reserved":false,"is_disabled":false,"rental_uris":{"android":"levelo://app?vid=31d8f23c-30fd-4bd5-9e7a-a837f9d23cf3","ios":"levelo://app?vid=31d8f23c-30fd-4bd5-9e7a-a837f9d23cf3"},"vehicle_type_id":"4","last_reported":1687802997,"current_range_meters":2400,"station_id":"","pricing_plan_id":"free"},{"bike_id":"59731bc8-5f07-40f2-8fb8-4f187011546b","system_id":"levelo_inurba_marseille","lat":43.28273,"lon":5.35079,"is_reserved":false,"is_disabled":false,"rental_uris":{"android":"levelo://app?vid=59731bc8-5f07-40f2-8fb8-4f187011546b","ios":"levelo://app?vid=59731bc8-5f07-40f2-8fb8-4f187011546b"},"vehicle_type_id":"4","last_reported":1687802997,"current_range_meters":30400,"station_id":"ce4bhbp2rcd13ifvqerg","pricing_plan_id":"free"},{"bike_id":"9ddffcfd-0c1f-4d17-a7a9-8bad2f6788be","system_id":"levelo_inurba_marseille","lat":43.2925,"lon":5.40143,"is_reserved":false,"is_disabled":false,"rental_uris":{"android":"levelo://app?vid=9ddffcfd-0c1f-4d17-a7a9-8bad2f6788be","ios":"levelo://app?vid=9ddffcfd-0c1f-4d17-a7a9-8bad2f6788be"},"vehicle_type_id":"4","last_reported":1687802997,"current_range_meters":31200,"station_id":"","pricing_plan_id":"free"},{"bike_id":"1562a543-b97b-46ec-9a71-6f76717c2ba4","system_id":"levelo_inurba_marseille","lat":43.28267,"lon":5.35078,"is_reserved":false,"is_disabled":false,"rental_uris":{"android":"levelo://app?vid=1562a543-b97b-46ec-9a71-6f76717c2ba4","ios":"levelo://app?vid=1562a543-b97b-46ec-9a71-6f76717c2ba4"},"vehicle_type_id":"4","last_reported":1687802997,"current_range_meters":14400,"station_id":"ce4bhbp2rcd13ifvqerg","pricing_plan_id":"free"},{"bike_id":"4228e811-a715-421c-bdaf-b5dc512e1141","system_id":"levelo_inurba_marseille","lat":43.28273,"lon":5.35056,"is_reserved":false,"is_disabled":false,"rental_uris":{"android":"levelo://app?vid=4228e811-a715-421c-bdaf-b5dc512e1141","ios":"levelo://app?vid=4228e811-a715-421c-bdaf-b5dc512e1141"},"vehicle_type_id":"4","last_reported":1687802997,"current_range_meters":25600,"station_id":"ce4bhbp2rcd13ifvqerg","pricing_plan_id":"free"},{"bike_id":"23790851-83ac-46b7-969d-886b3cf73fd7","system_id":"levelo_inurba_marseille","lat":43.282744,"lon":5.350533,"is_reserved":false,"is_disabled":false,"rental_uris":{"android":"levelo://app?vid=23790851-83ac-46b7-969d-886b3cf73fd7","ios":"levelo://app?vid=23790851-83ac-46b7-969d-886b3cf73fd7"},"vehicle_type_id":"4","last_reported":1687802997,"current_range_meters":29600,"station_id":"ce4bhbp2rcd13ifvqerg","pricing_plan_id":"free"},{"bike_id":"2bd2dc2a-b040-4cef-81cf-5690ea00cba6","system_id":"levelo_inurba_marseille","lat":43.28266,"lon":5.35075,"is_reserved":false,"is_disabled":false,"rental_uris":{"android":"levelo://app?vid=2bd2dc2a-b040-4cef-81cf-5690ea00cba6","ios":"levelo://app?vid=2bd2dc2a-b040-4cef-81cf-5690ea00cba6"},"vehicle_type_id":"4","last_reported":1687802997,"current_range_meters":18800,"station_id":"ce4bhbp2rcd13ifvqerg","pricing_plan_id":"free"},{"bike_id":"67cbb3ed-aadc-4197-af3d-0e659f036172","system_id":"levelo_inurba_marseille","lat":43.28265,"lon":5.35078,"is_reserved":false,"is_disabled":false,"rental_uris":{"android":"levelo://app?vid=67cbb3ed-aadc-4197-af3d-0e659f036172","ios":"levelo://app?vid=67cbb3ed-aadc-4197-af3d-0e659f036172"},"vehicle_type_id":"4","last_reported":1687802997,"current_range_meters":15200,"station_id":"ce4bhbp2rcd13ifvqerg","pricing_plan_id":"free"},{"bike_id":"bf165092-88de-4be6-b8fa-ffcd673ef145","system_id":"levelo_inurba_marseille","lat":43.28266,"lon":5.35074,"is_reserved":false,"is_disabled":false,"rental_uris":{"android":"levelo://app?vid=bf165092-88de-4be6-b8fa-ffcd673ef145","ios":"levelo://app?vid=bf165092-88de-4be6-b8fa-ffcd673ef145"},"vehicle_type_id":"4","last_reported":1687802997,"current_range_meters":30400,"station_id":"ce4bhbp2rcd13ifvqerg","pricing_plan_id":"free"},{"bike_id":"587bcb7d-fbe7-40b9-bab4-21dfa41e5c10","system_id":"levelo_inurba_marseille","lat":43.28266,"lon":5.35074,"is_reserved":false,"is_disabled":false,"rental_uris":{"android":"levelo://app?vid=587bcb7d-fbe7-40b9-bab4-21dfa41e5c10","ios":"levelo://app?vid=587bcb7d-fbe7-40b9-bab4-21dfa41e5c10"},"vehicle_type_id":"4","last_reported":1687802997,"current_range_meters":31200,"station_id":"ce4bhbp2rcd13ifvqerg","pricing_plan_id":"free"},{"bike_id":"0c7a0fcc-2204-4f4a-ba8f-886e4055ab44","system_id":"levelo_inurba_marseille","lat":43.282744,"lon":5.350533,"is_reserved":false,"is_disabled":false,"rental_uris":{"android":"levelo://app?vid=0c7a0fcc-2204-4f4a-ba8f-886e4055ab44","ios":"levelo://app?vid=0c7a0fcc-2204-4f4a-ba8f-886e4055ab44"},"vehicle_type_id":"4","last_reported":1687802997,"current_range_meters":11200,"station_id":"ce4bhbp2rcd13ifvqerg","pricing_plan_id":"free"},{"bike_id":"c2b42e84-b5df-4ab5-970f-daccb74350d3","system_id":"levelo_inurba_marseille","lat":43.28267,"lon":5.35069,"is_reserved":false,"is_disabled":false,"rental_uris":{"android":"levelo://app?vid=c2b42e84-b5df-4ab5-970f-daccb74350d3","ios":"levelo://app?vid=c2b42e84-b5df-4ab5-970f-daccb74350d3"},"vehicle_type_id":"4","last_reported":1687802997,"current_range_meters":31200,"station_id":"ce4bhbp2rcd13ifvqerg","pricing_plan_id":"free"},{"bike_id":"93eb580f-9949-44fc-8e74-3ead19992be4","system_id":"levelo_inurba_marseille","lat":43.28263,"lon":5.35082,"is_reserved":false,"is_disabled":false,"rental_uris":{"android":"levelo://app?vid=93eb580f-9949-44fc-8e74-3ead19992be4","ios":"levelo://app?vid=93eb580f-9949-44fc-8e74-3ead19992be4"},"vehicle_type_id":"4","last_reported":1687802997,"current_range_meters":17200,"station_id":"ce4bhbp2rcd13ifvqerg","pricing_plan_id":"free"},{"bike_id":"e1a60baf-9438-4312-a7eb-2263bacec53a","system_id":"levelo_inurba_marseille","lat":43.282744,"lon":5.350533,"is_reserved":false,"is_disabled":false,"rental_uris":{"android":"levelo://app?vid=e1a60baf-9438-4312-a7eb-2263bacec53a","ios":"levelo://app?vid=e1a60baf-9438-4312-a7eb-2263bacec53a"},"vehicle_type_id":"4","last_reported":1687802997,"current_range_meters":31200,"station_id":"ce4bhbp2rcd13ifvqerg","pricing_plan_id":"free"},{"bike_id":"83a43cd6-6aa0-4059-b2fb-c1a4a6feaebf","system_id":"levelo_inurba_marseille","lat":43.28263,"lon":5.35079,"is_reserved":false,"is_disabled":false,"rental_uris":{"android":"levelo://app?vid=83a43cd6-6aa0-4059-b2fb-c1a4a6feaebf","ios":"levelo://app?vid=83a43cd6-6aa0-4059-b2fb-c1a4a6feaebf"},"vehicle_type_id":"4","last_reported":1687802997,"current_range_meters":31200,"station_id":"","pricing_plan_id":"free"},{"bike_id":"8717e39e-44d4-4f01-bcee-ed1d4a44ce21","system_id":"levelo_inurba_marseille","lat":43.28264,"lon":5.35071,"is_reserved":false,"is_disabled":false,"rental_uris":{"android":"levelo://app?vid=8717e39e-44d4-4f01-bcee-ed1d4a44ce21","ios":"levelo://app?vid=8717e39e-44d4-4f01-bcee-ed1d4a44ce21"},"vehicle_type_id":"4","last_reported":1687802997,"current_range_meters":800,"station_id":"ce4bhbp2rcd13ifvqerg","pricing_plan_id":"free"},{"bike_id":"9dd90fbb-5d34-46e6-aabf-e8fe71ea9eaa","system_id":"levelo_inurba_marseille","lat":43.28262,"lon":5.35076,"is_reserved":false,"is_disabled":false,"rental_uris":{"android":"levelo://app?vid=9dd90fbb-5d34-46e6-aabf-e8fe71ea9eaa","ios":"levelo://app?vid=9dd90fbb-5d34-46e6-aabf-e8fe71ea9eaa"},"vehicle_type_id":"4","last_reported":1687802997,"current_range_meters":31200,"station_id":"ce4bhbp2rcd13ifvqerg","pricing_plan_id":"free"},{"bike_id":"f1b98f78-5f8e-458b-bd58-59e1d5b7f5dc","system_id":"levelo_inurba_marseille","lat":43.28265,"lon":5.35065,"is_reserved":false,"is_disabled":false,"rental_uris":{"android":"levelo://app?vid=f1b98f78-5f8e-458b-bd58-59e1d5b7f5dc","ios":"levelo://app?vid=f1b98f78-5f8e-458b-bd58-59e1d5b7f5dc"},"vehicle_type_id":"4","last_reported":1687802997,"current_range_meters":30000,"station_id":"ce4bhbp2rcd13ifvqerg","pricing_plan_id":"free"},{"bike_id":"bc9f9006-b195-420c-abf6-c908fecb8e70","system_id":"levelo_inurba_marseille","lat":43.28263,"lon":5.35068,"is_reserved":false,"is_disabled":false,"rental_uris":{"android":"levelo://app?vid=bc9f9006-b195-420c-abf6-c908fecb8e70","ios":"levelo://app?vid=bc9f9006-b195-420c-abf6-c908fecb8e70"},"vehicle_type_id":"4","last_reported":1687802997,"current_range_meters":9600,"station_id":"ce4bhbp2rcd13ifvqerg","pricing_plan_id":"free"},{"bike_id":"8dce4c71-be75-4993-a5a5-87ef3ac98189","system_id":"levelo_inurba_marseille","lat":43.282744,"lon":5.350533,"is_reserved":false,"is_disabled":false,"rental_uris":{"android":"levelo://app?vid=8dce4c71-be75-4993-a5a5-87ef3ac98189","ios":"levelo://app?vid=8dce4c71-be75-4993-a5a5-87ef3ac98189"},"vehicle_type_id":"4","last_reported":1687802997,"current_range_meters":1600,"station_id":"ce4bhbp2rcd13ifvqerg","pricing_plan_id":"free"},{"bike_id":"0824abb8-df5f-4aa3-b61f-4e64f64ec76f","system_id":"levelo_inurba_marseille","lat":43.28256,"lon":5.35082,"is_reserved":false,"is_disabled":false,"rental_uris":{"android":"levelo://app?vid=0824abb8-df5f-4aa3-b61f-4e64f64ec76f","ios":"levelo://app?vid=0824abb8-df5f-4aa3-b61f-4e64f64ec76f"},"vehicle_type_id":"4","last_reported":1687802997,"current_range_meters":31200,"station_id":"","pricing_plan_id":"free"},{"bike_id":"9661c5c9-dab9-4491-b647-100f22bc2e8c","system_id":"levelo_inurba_marseille","lat":43.28261,"lon":5.35064,"is_reserved":false,"is_disabled":false,"rental_uris":{"android":"levelo://app?vid=9661c5c9-dab9-4491-b647-100f22bc2e8c","ios":"levelo://app?vid=9661c5c9-dab9-4491-b647-100f22bc2e8c"},"vehicle_type_id":"4","last_reported":1687802997,"current_range_meters":12800,"station_id":"ce4bhbp2rcd13ifvqerg","pricing_plan_id":"free"},{"bike_id":"e33c6ffa-7579-483f-a19a-00e16635d3b9","system_id":"levelo_inurba_marseille","lat":43.28257,"lon":5.35076,"is_reserved":false,"is_disabled":false,"rental_uris":{"android":"levelo://app?vid=e33c6ffa-7579-483f-a19a-00e16635d3b9","ios":"levelo://app?vid=e33c6ffa-7579-483f-a19a-00e16635d3b9"},"vehicle_type_id":"4","last_reported":1687802997,"current_range_meters":31200,"station_id":"","pricing_plan_id":"free"},{"bike_id":"f0f97805-5295-45f6-8b03-114c22956482","system_id":"levelo_inurba_marseille","lat":43.28258,"lon":5.3507,"is_reserved":false,"is_disabled":false,"rental_uris":{"android":"levelo://app?vid=f0f97805-5295-45f6-8b03-114c22956482","ios":"levelo://app?vid=f0f97805-5295-45f6-8b03-114c22956482"},"vehicle_type_id":"4","last_reported":1687802997,"current_range_meters":17600,"station_id":"ce4bhbp2rcd13ifvqerg","pricing_plan_id":"free"},{"bike_id":"aa8521bc-aa10-42bf-82d5-2c28d5d1d6f4","system_id":"levelo_inurba_marseille","lat":43.28262,"lon":5.35054,"is_reserved":false,"is_disabled":false,"rental_uris":{"android":"levelo://app?vid=aa8521bc-aa10-42bf-82d5-2c28d5d1d6f4","ios":"levelo://app?vid=aa8521bc-aa10-42bf-82d5-2c28d5d1d6f4"},"vehicle_type_id":"4","last_reported":1687802997,"current_range_meters":400,"station_id":"ce4bhbp2rcd13ifvqerg","pricing_plan_id":"free"},{"bike_id":"e117cfb8-9ead-42d7-a4d8-88ba21e7f6dc","system_id":"levelo_inurba_marseille","lat":43.28039,"lon":5.369297,"is_reserved":false,"is_disabled":false,"rental_uris":{"android":"levelo://app?vid=e117cfb8-9ead-42d7-a4d8-88ba21e7f6dc","ios":"levelo://app?vid=e117cfb8-9ead-42d7-a4d8-88ba21e7f6dc"},"vehicle_type_id":"4","last_reported":1687802997,"current_range_meters":29600,"station_id":"ce4bha12rcd13ifvqef0","pricing_plan_id":"free"},{"bike_id":"2570f42e-a98c-4814-841f-dc74e553de65","system_id":"levelo_inurba_marseille","lat":43.283502,"lon":5.386471,"is_reserved":false,"is_disabled":false,"rental_uris":{"android":"levelo://app?vid=2570f42e-a98c-4814-841f-dc74e553de65","ios":"levelo://app?vid=2570f42e-a98c-4814-841f-dc74e553de65"},"vehicle_type_id":"4","last_reported":1687802997,"current_range_meters":8400,"station_id":"ce4bh492rcd13ifvqdvg","pricing_plan_id":"free"},{"bike_id":"f767f899-644b-4d0f-ad00-e5fe411cf6ac","system_id":"levelo_inurba_marseille","lat":43.28252,"lon":5.35077,"is_reserved":false,"is_disabled":false,"rental_uris":{"android":"levelo://app?vid=f767f899-644b-4d0f-ad00-e5fe411cf6ac","ios":"levelo://app?vid=f767f899-644b-4d0f-ad00-e5fe411cf6ac"},"vehicle_type_id":"4","last_reported":1687802997,"current_range_meters":11200,"station_id":"","pricing_plan_id":"free"},{"bike_id":"c1666ad2-d30b-401d-9efb-cc4f0cad4f0c","system_id":"levelo_inurba_marseille","lat":43.280382,"lon":5.369291,"is_reserved":false,"is_disabled":false,"rental_uris":{"android":"levelo://app?vid=c1666ad2-d30b-401d-9efb-cc4f0cad4f0c","ios":"levelo://app?vid=c1666ad2-d30b-401d-9efb-cc4f0cad4f0c"},"vehicle_type_id":"4","last_reported":1687802997,"current_range_meters":12400,"station_id":"ce4bha12rcd13ifvqef0","pricing_plan_id":"free"},{"bike_id":"8d3033a0-277a-4974-a849-e0567c1d2bc5","system_id":"levelo_inurba_marseille","lat":43.282744,"lon":5.350533,"is_reserved":false,"is_disabled":false,"rental_uris":{"android":"levelo://app?vid=8d3033a0-277a-4974-a849-e0567c1d2bc5","ios":"levelo://app?vid=8d3033a0-277a-4974-a849-e0567c1d2bc5"},"vehicle_type_id":"4","last_reported":1687802997,"current_range_meters":31200,"station_id":"ce4bhbp2rcd13ifvqerg","pricing_plan_id":"free"},{"bike_id":"3e9b4160-aead-4f5d-bddc-80ee5c0aef26","system_id":"levelo_inurba_marseille","lat":43.283498,"lon":5.380948,"is_reserved":false,"is_disabled":false,"rental_uris":{"android":"levelo://app?vid=3e9b4160-aead-4f5d-bddc-80ee5c0aef26","ios":"levelo://app?vid=3e9b4160-aead-4f5d-bddc-80ee5c0aef26"},"vehicle_type_id":"4","last_reported":1687802997,"current_range_meters":8000,"station_id":"ce4bh412rcd13ifvqdr0","pricing_plan_id":"free"},{"bike_id":"fcd3cbff-678f-4918-83e5-ff147aed663a","system_id":"levelo_inurba_marseille","lat":43.29033,"lon":5.39976,"is_reserved":false,"is_disabled":false,"rental_uris":{"android":"levelo://app?vid=fcd3cbff-678f-4918-83e5-ff147aed663a","ios":"levelo://app?vid=fcd3cbff-678f-4918-83e5-ff147aed663a"},"vehicle_type_id":"4","last_reported":1687802997,"current_range_meters":6800,"station_id":"ce4bh392rcd13ifvqdm0","pricing_plan_id":"free"},{"bike_id":"a562d0ae-dabe-4c13-ad84-d5d0ecd985e3","system_id":"levelo_inurba_marseille","lat":43.28105,"lon":5.3784,"is_reserved":false,"is_disabled":false,"rental_uris":{"android":"levelo://app?vid=a562d0ae-dabe-4c13-ad84-d5d0ecd985e3","ios":"levelo://app?vid=a562d0ae-dabe-4c13-ad84-d5d0ecd985e3"},"vehicle_type_id":"4","last_reported":1687802997,"current_range_meters":26800,"station_id":"ce4bha12rcd13ifvqee0","pricing_plan_id":"free"},{"bike_id":"74c61eea-5fe0-4a2c-b820-798a7fef9a3b","system_id":"levelo_inurba_marseille","lat":43.296263,"lon":5.40601,"is_reserved":false,"is_disabled":false,"rental_uris":{"android":"levelo://app?vid=74c61eea-5fe0-4a2c-b820-798a7fef9a3b","ios":"levelo://app?vid=74c61eea-5fe0-4a2c-b820-798a7fef9a3b"},"vehicle_type_id":"4","last_reported":1687802997,"current_range_meters":14800,"station_id":"ce4bh0h2rcd13ifvqd60","pricing_plan_id":"free"},{"bike_id":"cafe7315-5323-49e8-a003-d5af89f6283e","system_id":"levelo_inurba_marseille","lat":43.30999,"lon":5.41187,"is_reserved":false,"is_disabled":false,"rental_uris":{"android":"levelo://app?vid=cafe7315-5323-49e8-a003-d5af89f6283e","ios":"levelo://app?vid=cafe7315-5323-49e8-a003-d5af89f6283e"},"vehicle_type_id":"4","last_reported":1687802997,"current_range_meters":8400,"station_id":"","pricing_plan_id":"free"},{"bike_id":"ed51b30b-9216-4d31-bf04-13ae8440a823","system_id":"levelo_inurba_marseille","lat":43.296263,"lon":5.40601,"is_reserved":false,"is_disabled":false,"rental_uris":{"android":"levelo://app?vid=ed51b30b-9216-4d31-bf04-13ae8440a823","ios":"levelo://app?vid=ed51b30b-9216-4d31-bf04-13ae8440a823"},"vehicle_type_id":"4","last_reported":1687802997,"current_range_meters":0,"station_id":"ce4bh0h2rcd13ifvqd60","pricing_plan_id":"free"},{"bike_id":"e42e005e-b4c2-4e9a-87f9-de4837c92158","system_id":"levelo_inurba_marseille","lat":43.28091,"lon":5.37843,"is_reserved":false,"is_disabled":false,"rental_uris":{"android":"levelo://app?vid=e42e005e-b4c2-4e9a-87f9-de4837c92158","ios":"levelo://app?vid=e42e005e-b4c2-4e9a-87f9-de4837c92158"},"vehicle_type_id":"4","last_reported":1687802997,"current_range_meters":6800,"station_id":"ce4bha12rcd13ifvqee0","pricing_plan_id":"free"},{"bike_id":"0c9eee73-532e-4f1f-8b23-5a0693e22298","system_id":"levelo_inurba_marseille","lat":43.32658,"lon":5.40996,"is_reserved":false,"is_disabled":false,"rental_uris":{"android":"levelo://app?vid=0c9eee73-532e-4f1f-8b23-5a0693e22298","ios":"levelo://app?vid=0c9eee73-532e-4f1f-8b23-5a0693e22298"},"vehicle_type_id":"4","last_reported":1687802997,"current_range_meters":27200,"station_id":"ce4bhpp2rcd13ifvqhgg","pricing_plan_id":"free"},{"bike_id":"7f4e5f33-3d6b-4470-b773-9bb881f7fc86","system_id":"levelo_inurba_marseille","lat":43.326551,"lon":5.409982,"is_reserved":false,"is_disabled":false,"rental_uris":{"android":"levelo://app?vid=7f4e5f33-3d6b-4470-b773-9bb881f7fc86","ios":"levelo://app?vid=7f4e5f33-3d6b-4470-b773-9bb881f7fc86"},"vehicle_type_id":"4","last_reported":1687802997,"current_range_meters":0,"station_id":"ce4bhpp2rcd13ifvqhgg","pricing_plan_id":"free"},{"bike_id":"f374911d-5ee6-41ac-adb6-f9314adca0aa","system_id":"levelo_inurba_marseille","lat":43.304188,"lon":5.412904,"is_reserved":false,"is_disabled":false,"rental_uris":{"android":"levelo://app?vid=f374911d-5ee6-41ac-adb6-f9314adca0aa","ios":"levelo://app?vid=f374911d-5ee6-41ac-adb6-f9314adca0aa"},"vehicle_type_id":"4","last_reported":1687802997,"current_range_meters":17200,"station_id":"ce4bhop2rcd13ifvqh8g","pricing_plan_id":"free"},{"bike_id":"5ad1b13a-e00b-435a-9578-27abae7051a9","system_id":"levelo_inurba_marseille","lat":43.304188,"lon":5.412904,"is_reserved":false,"is_disabled":false,"rental_uris":{"android":"levelo://app?vid=5ad1b13a-e00b-435a-9578-27abae7051a9","ios":"levelo://app?vid=5ad1b13a-e00b-435a-9578-27abae7051a9"},"vehicle_type_id":"4","last_reported":1687802997,"current_range_meters":26400,"station_id":"ce4bhop2rcd13ifvqh8g","pricing_plan_id":"free"},{"bike_id":"51d5c9ce-adac-4084-ba8b-bb488ea6c100","system_id":"levelo_inurba_marseille","lat":43.287154,"lon":5.399979,"is_reserved":false,"is_disabled":false,"rental_uris":{"android":"levelo://app?vid=51d5c9ce-adac-4084-ba8b-bb488ea6c100","ios":"levelo://app?vid=51d5c9ce-adac-4084-ba8b-bb488ea6c100"},"vehicle_type_id":"4","last_reported":1687802997,"current_range_meters":2400,"station_id":"ce4bho92rcd13ifvqh3g","pricing_plan_id":"free"},{"bike_id":"50fd953c-9754-45f4-aec7-ae52bb9eb6fe","system_id":"levelo_inurba_marseille","lat":43.287154,"lon":5.399979,"is_reserved":false,"is_disabled":false,"rental_uris":{"android":"levelo://app?vid=50fd953c-9754-45f4-aec7-ae52bb9eb6fe","ios":"levelo://app?vid=50fd953c-9754-45f4-aec7-ae52bb9eb6fe"},"vehicle_type_id":"4","last_reported":1687802997,"current_range_meters":31200,"station_id":"ce4bho92rcd13ifvqh3g","pricing_plan_id":"free"},{"bike_id":"99c90282-a2c1-46c9-8c6b-a07878c6c465","system_id":"levelo_inurba_marseille","lat":43.287154,"lon":5.399979,"is_reserved":false,"is_disabled":false,"rental_uris":{"android":"levelo://app?vid=99c90282-a2c1-46c9-8c6b-a07878c6c465","ios":"levelo://app?vid=99c90282-a2c1-46c9-8c6b-a07878c6c465"},"vehicle_type_id":"4","last_reported":1687802997,"current_range_meters":7200,"station_id":"ce4bho92rcd13ifvqh3g","pricing_plan_id":"free"},{"bike_id":"1905b9b3-b1e3-4773-b146-3ba06dd4438e","system_id":"levelo_inurba_marseille","lat":43.287154,"lon":5.399979,"is_reserved":false,"is_disabled":false,"rental_uris":{"android":"levelo://app?vid=1905b9b3-b1e3-4773-b146-3ba06dd4438e","ios":"levelo://app?vid=1905b9b3-b1e3-4773-b146-3ba06dd4438e"},"vehicle_type_id":"4","last_reported":1687802997,"current_range_meters":12800,"station_id":"ce4bho92rcd13ifvqh3g","pricing_plan_id":"free"},{"bike_id":"22e9575d-6248-4f8c-b5a1-d1c8ddc24917","system_id":"levelo_inurba_marseille","lat":43.287154,"lon":5.399979,"is_reserved":false,"is_disabled":false,"rental_uris":{"android":"levelo://app?vid=22e9575d-6248-4f8c-b5a1-d1c8ddc24917","ios":"levelo://app?vid=22e9575d-6248-4f8c-b5a1-d1c8ddc24917"},"vehicle_type_id":"4","last_reported":1687802997,"current_range_meters":6800,"station_id":"ce4bho92rcd13ifvqh3g","pricing_plan_id":"free"},{"bike_id":"9f3db0a4-63b4-4dc1-8e5f-d42d6781149c","system_id":"levelo_inurba_marseille","lat":43.31954,"lon":5.41538,"is_reserved":false,"is_disabled":false,"rental_uris":{"android":"levelo://app?vid=9f3db0a4-63b4-4dc1-8e5f-d42d6781149c","ios":"levelo://app?vid=9f3db0a4-63b4-4dc1-8e5f-d42d6781149c"},"vehicle_type_id":"4","last_reported":1687802997,"current_range_meters":31200,"station_id":"","pricing_plan_id":"free"},{"bike_id":"0124ded5-fc20-4012-9150-34bfc18ae2af","system_id":"levelo_inurba_marseille","lat":43.320045,"lon":5.415046,"is_reserved":false,"is_disabled":false,"rental_uris":{"android":"levelo://app?vid=0124ded5-fc20-4012-9150-34bfc18ae2af","ios":"levelo://app?vid=0124ded5-fc20-4012-9150-34bfc18ae2af"},"vehicle_type_id":"4","last_reported":1687802997,"current_range_meters":29600,"station_id":"ce4bhq92rcd13ifvqhkg","pricing_plan_id":"free"},{"bike_id":"9aaf7d7e-bfc6-4fa5-b90c-4a37d79ca54f","system_id":"levelo_inurba_marseille","lat":43.299579,"lon":5.413255,"is_reserved":false,"is_disabled":false,"rental_uris":{"android":"levelo://app?vid=9aaf7d7e-bfc6-4fa5-b90c-4a37d79ca54f","ios":"levelo://app?vid=9aaf7d7e-bfc6-4fa5-b90c-4a37d79ca54f"},"vehicle_type_id":"4","last_reported":1687802997,"current_range_meters":16000,"station_id":"ce4bhp12rcd13ifvqh9g","pricing_plan_id":"free"},{"bike_id":"b79d2de0-4e5e-438c-80b7-33683a48dcdb","system_id":"levelo_inurba_marseille","lat":43.299579,"lon":5.413255,"is_reserved":false,"is_disabled":false,"rental_uris":{"android":"levelo://app?vid=b79d2de0-4e5e-438c-80b7-33683a48dcdb","ios":"levelo://app?vid=b79d2de0-4e5e-438c-80b7-33683a48dcdb"},"vehicle_type_id":"4","last_reported":1687802997,"current_range_meters":2400,"station_id":"ce4bhp12rcd13ifvqh9g","pricing_plan_id":"free"},{"bike_id":"a83d304f-9078-4448-af30-66e9c70164ba","system_id":"levelo_inurba_marseille","lat":43.27969,"lon":5.38724,"is_reserved":false,"is_disabled":false,"rental_uris":{"android":"levelo://app?vid=a83d304f-9078-4448-af30-66e9c70164ba","ios":"levelo://app?vid=a83d304f-9078-4448-af30-66e9c70164ba"},"vehicle_type_id":"4","last_reported":1687802997,"current_range_meters":31200,"station_id":"ce4bhg12rcd13ifvqf80","pricing_plan_id":"free"},{"bike_id":"ba66460d-818b-4aa0-b0b0-5063345a7127","system_id":"levelo_inurba_marseille","lat":43.320045,"lon":5.415048,"is_reserved":false,"is_disabled":false,"rental_uris":{"android":"levelo://app?vid=ba66460d-818b-4aa0-b0b0-5063345a7127","ios":"levelo://app?vid=ba66460d-818b-4aa0-b0b0-5063345a7127"},"vehicle_type_id":"4","last_reported":1687802997,"current_range_meters":9200,"station_id":"ce4bhq92rcd13ifvqhkg","pricing_plan_id":"free"},{"bike_id":"2054c694-96b7-4d70-a38e-09d1c4da2fe6","system_id":"levelo_inurba_marseille","lat":43.320045,"lon":5.415046,"is_reserved":false,"is_disabled":false,"rental_uris":{"android":"levelo://app?vid=2054c694-96b7-4d70-a38e-09d1c4da2fe6","ios":"levelo://app?vid=2054c694-96b7-4d70-a38e-09d1c4da2fe6"},"vehicle_type_id":"4","last_reported":1687802997,"current_range_meters":6800,"station_id":"ce4bhq92rcd13ifvqhkg","pricing_plan_id":"free"},{"bike_id":"6ca6a5c0-bddb-4994-8cbc-3141db8180d5","system_id":"levelo_inurba_marseille","lat":43.279742,"lon":5.38744,"is_reserved":false,"is_disabled":false,"rental_uris":{"android":"levelo://app?vid=6ca6a5c0-bddb-4994-8cbc-3141db8180d5","ios":"levelo://app?vid=6ca6a5c0-bddb-4994-8cbc-3141db8180d5"},"vehicle_type_id":"4","last_reported":1687802997,"current_range_meters":8400,"station_id":"ce4bhg12rcd13ifvqf80","pricing_plan_id":"free"},{"bike_id":"45ce5d5e-a8e6-47b3-b7d1-7e131b93c660","system_id":"levelo_inurba_marseille","lat":43.3257,"lon":5.41392,"is_reserved":false,"is_disabled":false,"rental_uris":{"android":"levelo://app?vid=45ce5d5e-a8e6-47b3-b7d1-7e131b93c660","ios":"levelo://app?vid=45ce5d5e-a8e6-47b3-b7d1-7e131b93c660"},"vehicle_type_id":"4","last_reported":1687802997,"current_range_meters":31200,"station_id":"","pricing_plan_id":"free"},{"bike_id":"931a10ab-4d56-4727-b417-f4da154d7992","system_id":"levelo_inurba_marseille","lat":43.292569,"lon":5.409107,"is_reserved":false,"is_disabled":false,"rental_uris":{"android":"levelo://app?vid=931a10ab-4d56-4727-b417-f4da154d7992","ios":"levelo://app?vid=931a10ab-4d56-4727-b417-f4da154d7992"},"vehicle_type_id":"4","last_reported":1687802997,"current_range_meters":8000,"station_id":"ce4bh192rcd13ifvqdc0","pricing_plan_id":"free"},{"bike_id":"841dcea2-6955-4006-836c-1bb8e82923e4","system_id":"levelo_inurba_marseille","lat":43.32555,"lon":5.41424,"is_reserved":false,"is_disabled":false,"rental_uris":{"android":"levelo://app?vid=841dcea2-6955-4006-836c-1bb8e82923e4","ios":"levelo://app?vid=841dcea2-6955-4006-836c-1bb8e82923e4"},"vehicle_type_id":"4","last_reported":1687802997,"current_range_meters":400,"station_id":"","pricing_plan_id":"free"},{"bike_id":"a87345c2-47ea-4f6b-8bec-184ca1feacde","system_id":"levelo_inurba_marseille","lat":43.292569,"lon":5.409107,"is_reserved":false,"is_disabled":false,"rental_uris":{"android":"levelo://app?vid=a87345c2-47ea-4f6b-8bec-184ca1feacde","ios":"levelo://app?vid=a87345c2-47ea-4f6b-8bec-184ca1feacde"},"vehicle_type_id":"4","last_reported":1687802997,"current_range_meters":8000,"station_id":"ce4bh192rcd13ifvqdc0","pricing_plan_id":"free"},{"bike_id":"c1260938-2221-43bf-bb59-f13f5f20f10e","system_id":"levelo_inurba_marseille","lat":43.32548,"lon":5.41428,"is_reserved":false,"is_disabled":false,"rental_uris":{"android":"levelo://app?vid=c1260938-2221-43bf-bb59-f13f5f20f10e","ios":"levelo://app?vid=c1260938-2221-43bf-bb59-f13f5f20f10e"},"vehicle_type_id":"4","last_reported":1687802997,"current_range_meters":16000,"station_id":"ce4bhq12rcd13ifvqhhg","pricing_plan_id":"free"},{"bike_id":"94c5cb28-2964-4194-9947-5ec60ea7a736","system_id":"levelo_inurba_marseille","lat":43.292569,"lon":5.409107,"is_reserved":false,"is_disabled":false,"rental_uris":{"android":"levelo://app?vid=94c5cb28-2964-4194-9947-5ec60ea7a736","ios":"levelo://app?vid=94c5cb28-2964-4194-9947-5ec60ea7a736"},"vehicle_type_id":"4","last_reported":1687802997,"current_range_meters":13600,"station_id":"ce4bh192rcd13ifvqdc0","pricing_plan_id":"free"},{"bike_id":"67d992ab-8e1d-4690-a0f2-703974b15ee7","system_id":"levelo_inurba_marseille","lat":43.27618,"lon":5.361009,"is_reserved":false,"is_disabled":false,"rental_uris":{"android":"levelo://app?vid=67d992ab-8e1d-4690-a0f2-703974b15ee7","ios":"levelo://app?vid=67d992ab-8e1d-4690-a0f2-703974b15ee7"},"vehicle_type_id":"4","last_reported":1687802997,"current_range_meters":31200,"station_id":"ce4bgj92rcd13ifvqbe0","pricing_plan_id":"free"},{"bike_id":"755f9d94-c7ea-40ca-9b6c-96de14737b16","system_id":"levelo_inurba_marseille","lat":43.27618,"lon":5.361009,"is_reserved":false,"is_disabled":false,"rental_uris":{"android":"levelo://app?vid=755f9d94-c7ea-40ca-9b6c-96de14737b16","ios":"levelo://app?vid=755f9d94-c7ea-40ca-9b6c-96de14737b16"},"vehicle_type_id":"4","last_reported":1687802997,"current_range_meters":12400,"station_id":"ce4bgj92rcd13ifvqbe0","pricing_plan_id":"free"},{"bike_id":"0380437f-ed49-427f-8863-c20ed890c0b7","system_id":"levelo_inurba_marseille","lat":43.278399,"lon":5.392139,"is_reserved":false,"is_disabled":false,"rental_uris":{"android":"levelo://app?vid=0380437f-ed49-427f-8863-c20ed890c0b7","ios":"levelo://app?vid=0380437f-ed49-427f-8863-c20ed890c0b7"},"vehicle_type_id":"4","last_reported":1687802997,"current_range_meters":4400,"station_id":"ce4bhjp2rcd13ifvqga0","pricing_plan_id":"free"},{"bike_id":"646e326c-14e7-4369-b3f7-fe46d653b927","system_id":"levelo_inurba_marseille","lat":43.278399,"lon":5.392139,"is_reserved":false,"is_disabled":false,"rental_uris":{"android":"levelo://app?vid=646e326c-14e7-4369-b3f7-fe46d653b927","ios":"levelo://app?vid=646e326c-14e7-4369-b3f7-fe46d653b927"},"vehicle_type_id":"4","last_reported":1687802997,"current_range_meters":4400,"station_id":"ce4bhjp2rcd13ifvqga0","pricing_plan_id":"free"},{"bike_id":"7ab2e32b-7e8b-4f3c-a4f0-263c95ebf185","system_id":"levelo_inurba_marseille","lat":43.27379,"lon":5.36253,"is_reserved":false,"is_disabled":false,"rental_uris":{"android":"levelo://app?vid=7ab2e32b-7e8b-4f3c-a4f0-263c95ebf185","ios":"levelo://app?vid=7ab2e32b-7e8b-4f3c-a4f0-263c95ebf185"},"vehicle_type_id":"4","last_reported":1687802997,"current_range_meters":19200,"station_id":"ce4bhbh2rcd13ifvqeo0","pricing_plan_id":"free"},{"bike_id":"f9968679-da90-4222-a89b-7a4fea7347d9","system_id":"levelo_inurba_marseille","lat":43.27378,"lon":5.36252,"is_reserved":false,"is_disabled":false,"rental_uris":{"android":"levelo://app?vid=f9968679-da90-4222-a89b-7a4fea7347d9","ios":"levelo://app?vid=f9968679-da90-4222-a89b-7a4fea7347d9"},"vehicle_type_id":"4","last_reported":1687802997,"current_range_meters":22800,"station_id":"ce4bhbh2rcd13ifvqeo0","pricing_plan_id":"free"},{"bike_id":"78ded248-71f7-4e48-b904-0bd5f544111a","system_id":"levelo_inurba_marseille","lat":43.273613,"lon":5.362705,"is_reserved":false,"is_disabled":false,"rental_uris":{"android":"levelo://app?vid=78ded248-71f7-4e48-b904-0bd5f544111a","ios":"levelo://app?vid=78ded248-71f7-4e48-b904-0bd5f544111a"},"vehicle_type_id":"4","last_reported":1687802997,"current_range_meters":31600,"station_id":"ce4bhbh2rcd13ifvqeo0","pricing_plan_id":"free"},{"bike_id":"2701e173-91e9-4ad6-8719-0ba49f6b44ff","system_id":"levelo_inurba_marseille","lat":43.27376,"lon":5.36253,"is_reserved":false,"is_disabled":false,"rental_uris":{"android":"levelo://app?vid=2701e173-91e9-4ad6-8719-0ba49f6b44ff","ios":"levelo://app?vid=2701e173-91e9-4ad6-8719-0ba49f6b44ff"},"vehicle_type_id":"4","last_reported":1687802997,"current_range_meters":31200,"station_id":"ce4bhbh2rcd13ifvqeo0","pricing_plan_id":"free"},{"bike_id":"09be1f08-64c3-438b-be5d-a11779f2d38b","system_id":"levelo_inurba_marseille","lat":43.273613,"lon":5.362705,"is_reserved":false,"is_disabled":false,"rental_uris":{"android":"levelo://app?vid=09be1f08-64c3-438b-be5d-a11779f2d38b","ios":"levelo://app?vid=09be1f08-64c3-438b-be5d-a11779f2d38b"},"vehicle_type_id":"4","last_reported":1687802997,"current_range_meters":17600,"station_id":"ce4bhbh2rcd13ifvqeo0","pricing_plan_id":"free"},{"bike_id":"e4679cbc-412c-4961-a375-18c46ff2fc10","system_id":"levelo_inurba_marseille","lat":43.273613,"lon":5.362705,"is_reserved":false,"is_disabled":false,"rental_uris":{"android":"levelo://app?vid=e4679cbc-412c-4961-a375-18c46ff2fc10","ios":"levelo://app?vid=e4679cbc-412c-4961-a375-18c46ff2fc10"},"vehicle_type_id":"4","last_reported":1687802997,"current_range_meters":4000,"station_id":"ce4bhbh2rcd13ifvqeo0","pricing_plan_id":"free"},{"bike_id":"d79108d7-ed0f-48ce-a21f-3f9a4d2152aa","system_id":"levelo_inurba_marseille","lat":43.33602,"lon":5.41018,"is_reserved":false,"is_disabled":false,"rental_uris":{"android":"levelo://app?vid=d79108d7-ed0f-48ce-a21f-3f9a4d2152aa","ios":"levelo://app?vid=d79108d7-ed0f-48ce-a21f-3f9a4d2152aa"},"vehicle_type_id":"4","last_reported":1687802997,"current_range_meters":26800,"station_id":"ce4bhqh2rcd13ifvqhmg","pricing_plan_id":"free"},{"bike_id":"2d19a93e-7ef9-4cff-85a0-dbffc9c2ac5c","system_id":"levelo_inurba_marseille","lat":43.273609,"lon":5.362708,"is_reserved":false,"is_disabled":false,"rental_uris":{"android":"levelo://app?vid=2d19a93e-7ef9-4cff-85a0-dbffc9c2ac5c","ios":"levelo://app?vid=2d19a93e-7ef9-4cff-85a0-dbffc9c2ac5c"},"vehicle_type_id":"4","last_reported":1687802997,"current_range_meters":31200,"station_id":"ce4bhbh2rcd13ifvqeo0","pricing_plan_id":"free"},{"bike_id":"17f96f51-0bbd-4ba1-9e9b-b530536dc899","system_id":"levelo_inurba_marseille","lat":43.273609,"lon":5.362708,"is_reserved":false,"is_disabled":false,"rental_uris":{"android":"levelo://app?vid=17f96f51-0bbd-4ba1-9e9b-b530536dc899","ios":"levelo://app?vid=17f96f51-0bbd-4ba1-9e9b-b530536dc899"},"vehicle_type_id":"4","last_reported":1687802997,"current_range_meters":25200,"station_id":"ce4bhbh2rcd13ifvqeo0","pricing_plan_id":"free"},{"bike_id":"b390053e-b1b2-4577-a6e0-e6203ceaddc4","system_id":"levelo_inurba_marseille","lat":43.273613,"lon":5.362705,"is_reserved":false,"is_disabled":false,"rental_uris":{"android":"levelo://app?vid=b390053e-b1b2-4577-a6e0-e6203ceaddc4","ios":"levelo://app?vid=b390053e-b1b2-4577-a6e0-e6203ceaddc4"},"vehicle_type_id":"4","last_reported":1687802997,"current_range_meters":26800,"station_id":"ce4bhbh2rcd13ifvqeo0","pricing_plan_id":"free"},{"bike_id":"5e0a9583-7396-493a-8a90-6347d4d777a2","system_id":"levelo_inurba_marseille","lat":43.33601,"lon":5.41027,"is_reserved":false,"is_disabled":false,"rental_uris":{"android":"levelo://app?vid=5e0a9583-7396-493a-8a90-6347d4d777a2","ios":"levelo://app?vid=5e0a9583-7396-493a-8a90-6347d4d777a2"},"vehicle_type_id":"4","last_reported":1687802997,"current_range_meters":31200,"station_id":"ce4bhqh2rcd13ifvqhmg","pricing_plan_id":"free"},{"bike_id":"036286c3-51f0-4050-af54-418795f22c0a","system_id":"levelo_inurba_marseille","lat":43.273609,"lon":5.362708,"is_reserved":false,"is_disabled":false,"rental_uris":{"android":"levelo://app?vid=036286c3-51f0-4050-af54-418795f22c0a","ios":"levelo://app?vid=036286c3-51f0-4050-af54-418795f22c0a"},"vehicle_type_id":"4","last_reported":1687802997,"current_range_meters":13600,"station_id":"ce4bhbh2rcd13ifvqeo0","pricing_plan_id":"free"},{"bike_id":"ff52e2ee-bc8a-40de-b1bd-16c0b187e960","system_id":"levelo_inurba_marseille","lat":43.273609,"lon":5.362708,"is_reserved":false,"is_disabled":false,"rental_uris":{"android":"levelo://app?vid=ff52e2ee-bc8a-40de-b1bd-16c0b187e960","ios":"levelo://app?vid=ff52e2ee-bc8a-40de-b1bd-16c0b187e960"},"vehicle_type_id":"4","last_reported":1687802997,"current_range_meters":31200,"station_id":"ce4bhbh2rcd13ifvqeo0","pricing_plan_id":"free"},{"bike_id":"f6d15d12-5449-43f5-95b0-d788c3c8af96","system_id":"levelo_inurba_marseille","lat":43.273609,"lon":5.362708,"is_reserved":false,"is_disabled":false,"rental_uris":{"android":"levelo://app?vid=f6d15d12-5449-43f5-95b0-d788c3c8af96","ios":"levelo://app?vid=f6d15d12-5449-43f5-95b0-d788c3c8af96"},"vehicle_type_id":"4","last_reported":1687802997,"current_range_meters":31200,"station_id":"ce4bhbh2rcd13ifvqeo0","pricing_plan_id":"free"},{"bike_id":"74fe3e8e-7393-4589-9e65-28268a39379b","system_id":"levelo_inurba_marseille","lat":43.273609,"lon":5.362708,"is_reserved":false,"is_disabled":false,"rental_uris":{"android":"levelo://app?vid=74fe3e8e-7393-4589-9e65-28268a39379b","ios":"levelo://app?vid=74fe3e8e-7393-4589-9e65-28268a39379b"},"vehicle_type_id":"4","last_reported":1687802997,"current_range_meters":17600,"station_id":"ce4bhbh2rcd13ifvqeo0","pricing_plan_id":"free"},{"bike_id":"a0439156-26fe-4fb6-a809-7def7349fdca","system_id":"levelo_inurba_marseille","lat":43.336134,"lon":5.410341,"is_reserved":false,"is_disabled":false,"rental_uris":{"android":"levelo://app?vid=a0439156-26fe-4fb6-a809-7def7349fdca","ios":"levelo://app?vid=a0439156-26fe-4fb6-a809-7def7349fdca"},"vehicle_type_id":"4","last_reported":1687802997,"current_range_meters":16000,"station_id":"ce4bhqh2rcd13ifvqhmg","pricing_plan_id":"free"},{"bike_id":"aa2db1b5-b4c3-4a3c-84ba-112d8cd2c66b","system_id":"levelo_inurba_marseille","lat":43.27864,"lon":5.39477,"is_reserved":false,"is_disabled":false,"rental_uris":{"android":"levelo://app?vid=aa2db1b5-b4c3-4a3c-84ba-112d8cd2c66b","ios":"levelo://app?vid=aa2db1b5-b4c3-4a3c-84ba-112d8cd2c66b"},"vehicle_type_id":"4","last_reported":1687802997,"current_range_meters":25200,"station_id":"","pricing_plan_id":"free"},{"bike_id":"7ef736b9-eed9-427c-ae7c-e73d4267fa40","system_id":"levelo_inurba_marseille","lat":43.317121,"lon":5.423936,"is_reserved":false,"is_disabled":false,"rental_uris":{"android":"levelo://app?vid=7ef736b9-eed9-427c-ae7c-e73d4267fa40","ios":"levelo://app?vid=7ef736b9-eed9-427c-ae7c-e73d4267fa40"},"vehicle_type_id":"4","last_reported":1687802997,"current_range_meters":29600,"station_id":"ce4bhp92rcd13ifvqhbg","pricing_plan_id":"free"},{"bike_id":"aeb66592-b50f-4049-ae07-d5347fe8b6de","system_id":"levelo_inurba_marseille","lat":43.31077,"lon":5.4243,"is_reserved":false,"is_disabled":false,"rental_uris":{"android":"levelo://app?vid=aeb66592-b50f-4049-ae07-d5347fe8b6de","ios":"levelo://app?vid=aeb66592-b50f-4049-ae07-d5347fe8b6de"},"vehicle_type_id":"4","last_reported":1687802997,"current_range_meters":18000,"station_id":"ce4bhp92rcd13ifvqhag","pricing_plan_id":"free"},{"bike_id":"9cd70028-ef48-4cd8-9b0a-d0b6a7b3650e","system_id":"levelo_inurba_marseille","lat":43.310785,"lon":5.424305,"is_reserved":false,"is_disabled":false,"rental_uris":{"android":"levelo://app?vid=9cd70028-ef48-4cd8-9b0a-d0b6a7b3650e","ios":"levelo://app?vid=9cd70028-ef48-4cd8-9b0a-d0b6a7b3650e"},"vehicle_type_id":"4","last_reported":1687802997,"current_range_meters":30400,"station_id":"ce4bhp92rcd13ifvqhag","pricing_plan_id":"free"},{"bike_id":"4d3c5685-b66d-4ebb-a114-ca9b7fe89a76","system_id":"levelo_inurba_marseille","lat":43.31075,"lon":5.42436,"is_reserved":false,"is_disabled":false,"rental_uris":{"android":"levelo://app?vid=4d3c5685-b66d-4ebb-a114-ca9b7fe89a76","ios":"levelo://app?vid=4d3c5685-b66d-4ebb-a114-ca9b7fe89a76"},"vehicle_type_id":"4","last_reported":1687802997,"current_range_meters":31200,"station_id":"ce4bhp92rcd13ifvqhag","pricing_plan_id":"free"},