{"last_updated":1726258157,"ttl":30,"version":"2.2","data":{"bikes":[{"bike_id":"bc35aeaa-3e4d-43e6-9935-c8f1110a4b4c","system_id":"levelo_inurba_marseille","lat":43.30517,"lon":5.36701,"is_reserved":false,"is_disabled":false,"rental_uris":{"android":"levelo://app?vid=bc35aeaa-3e4d-43e6-9935-c8f1110a4b4c","ios":"levelo://app?vid=bc35aeaa-3e4d-43e6-9935-c8f1110a4b4c"},"vehicle_type_id":"4","last_reported":1726258157,"current_range_meters":36400,"station_id":"ce4bgrp2rcd13ifvqc9g","pricing_plan_id":"cebpf4jnsgd1na2vs0mg"},{"bike_id":"bc7c698c-70a7-4d45-8de4-c94801319b35","system_id":"levelo_inurba_marseille","lat":43.32363,"lon":5.38881,"is_reserved":false,"is_disabled":false,"rental_uris":{"android":"levelo://app?vid=bc7c698c-70a7-4d45-8de4-c94801319b35","ios":"levelo://app?vid=bc7c698c-70a7-4d45-8de4-c94801319b35"},"vehicle_type_id":"4","last_reported":1726258157,"current_range_meters":6800,"station_id":"ce4bhqp2rcd13ifvqhog","pricing_plan_id":"cebpf4jnsgd1na2vs0mg"},{"bike_id":"274e7718-f745-4284-b422-749f37b7d936","system_id":"levelo_inurba_marseille","lat":43.29902,"lon":5.3748,"is_reserved":false,"is_disabled":false,"rental_uris":{"android":"levelo://app?vid=274e7718-f745-4284-b422-749f37b7d936","ios":"levelo://app?vid=274e7718-f745-4284-b422-749f37b7d936"},"vehicle_type_id":"4","last_reported":1726258157,"current_range_meters":38800,"station_id":"ce4bgjh2rcd13ifvqbg0","pricing_plan_id":"cebpf4jnsgd1na2vs0mg"},{"bike_id":"f92638cd-b08c-4a09-aec5-704526496cf5","system_id":"levelo_inurba_marseille","lat":43.29035,"lon":5.38653,"is_reserved":false,"is_disabled":false,"rental_uris":{"android":"levelo://app?vid=f92638cd-b08c-4a09-aec5-704526496cf5","ios":"levelo://app?vid=f92638cd-b08c-4a09-aec5-704526496cf5"},"vehicle_type_id":"4","last_reported":1726258157,"current_range_meters":34800,"station_id":"ce4bh4p2rcd13ifvqe0g","pricing_plan_id":"cebpf4jnsgd1na2vs0mg"},{"bike_id":"1433cc86-19c5-4d38-a0b5-c5c087739e0a","system_id":"levelo_inurba_marseille","lat":43.22932,"lon":5.35374,"is_reserved":false,"is_disabled":false,"rental_uris":{"android":"levelo://app?vid=1433cc86-19c5-4d38-a0b5-c5c087739e0a","ios":"levelo://app?vid=1433cc86-19c5-4d38-a0b5-c5c087739e0a"},"vehicle_type_id":"4","last_reported":1726258157,"current_range_meters":28800,"station_id":"cpo3532slgdg3j2ikp40","pricing_plan_id":"cebpf4jnsgd1na2vs0mg"},{"bike_id":"67468702-002a-4df5-9012-9c567f0d2e31","system_id":"levelo_inurba_marseille","lat":43.31754,"lon":5.39008,"is_reserved":false,"is_disabled":false,"rental_uris":{"android":"levelo://app?vid=67468702-002a-4df5-9012-9c567f0d2e31","ios":"levelo://app?vid=67468702-002a-4df5-9012-9c567f0d2e31"},"vehicle_type_id":"4","last_reported":1726258157,"current_range_meters":35600,"station_id":"ce4bhqp2rcd13ifvqhng","pricing_plan_id":"cebpf4jnsgd1na2vs0mg"},{"bike_id":"083984dd-1abd-4a7d-84c6-e8ceb7b63abe","system_id":"levelo_inurba_marseille","lat":43.31104,"lon":5.37776,"is_reserved":false,"is_disabled":false,"rental_uris":{"android":"levelo://app?vid=083984dd-1abd-4a7d-84c6-e8ceb7b63abe","ios":"levelo://app?vid=083984dd-1abd-4a7d-84c6-e8ceb7b63abe"},"vehicle_type_id":"4","last_reported":1726258157,"current_range_meters":38000,"station_id":"ce4bgt92rcd13ifvqcg0","pricing_plan_id":"cebpf4jnsgd1na2vs0mg"},{"bike_id":"e802c36c-f9eb-44d1-9d56-8ce605509b44","system_id":"levelo_inurba_marseille","lat":43.30549,"lon":5.36768,"is_reserved":false,"is_disabled":false,"rental_uris":{"android":"levelo://app?vid=e802c36c-f9eb-44d1-9d56-8ce605509b44","ios":"levelo://app?vid=e802c36c-f9eb-44d1-9d56-8ce605509b44"},"vehicle_type_id":"4","last_reported":1726258157,"current_range_meters":7200,"station_id":"ce4bgrp2rcd13ifvqc9g","pricing_plan_id":"cebpf4jnsgd1na2vs0mg"},{"bike_id":"f2aab370-6e0a-414f-a9aa-b82870be9ba4","system_id":"levelo_inurba_marseille","lat":43.28611,"lon":5.35103,"is_reserved":false,"is_disabled":false,"rental_uris":{"android":"levelo://app?vid=f2aab370-6e0a-414f-a9aa-b82870be9ba4","ios":"levelo://app?vid=f2aab370-6e0a-414f-a9aa-b82870be9ba4"},"vehicle_type_id":"4","last_reported":1726258157,"current_range_meters":20000,"station_id":"ce4bhch2rcd13ifvqeug","pricing_plan_id":"cebpf4jnsgd1na2vs0mg"},{"bike_id":"665f7f03-0587-4cd8-b27d-1a24a411b9f1","system_id":"levelo_inurba_marseille","lat":43.29527,"lon":5.38548,"is_reserved":false,"is_disabled":false,"rental_uris":{"android":"levelo://app?vid=665f7f03-0587-4cd8-b27d-1a24a411b9f1","ios":"levelo://app?vid=665f7f03-0587-4cd8-b27d-1a24a411b9f1"},"vehicle_type_id":"4","last_reported":1726258157,"current_range_meters":21600,"station_id":"ce4bgih2rcd13ifvqba0","pricing_plan_id":"cebpf4jnsgd1na2vs0mg"},{"bike_id":"d362d51d-5366-4644-a1ab-ebb7c7522b7d","system_id":"levelo_inurba_marseille","lat":43.25827,"lon":5.39433,"is_reserved":false,"is_disabled":false,"rental_uris":{"android":"levelo://app?vid=d362d51d-5366-4644-a1ab-ebb7c7522b7d","ios":"levelo://app?vid=d362d51d-5366-4644-a1ab-ebb7c7522b7d"},"vehicle_type_id":"4","last_reported":1726258157,"current_range_meters":8400,"station_id":"ce4bhip2rcd13ifvqft0","pricing_plan_id":"cebpf4jnsgd1na2vs0mg"},{"bike_id":"c5ed8bab-12e3-4101-81bb-39350c57310d","system_id":"levelo_inurba_marseille","lat":43.24173,"lon":5.36403,"is_reserved":false,"is_disabled":false,"rental_uris":{"android":"levelo://app?vid=c5ed8bab-12e3-4101-81bb-39350c57310d","ios":"levelo://app?vid=c5ed8bab-12e3-4101-81bb-39350c57310d"},"vehicle_type_id":"4","last_reported":1726258157,"current_range_meters":36800,"station_id":"cpo36qri1sfpv3e86is0","pricing_plan_id":"cebpf4jnsgd1na2vs0mg"},{"bike_id":"b5f667c8-4713-4fa7-a43b-a84ff63b4051","system_id":"levelo_inurba_marseille","lat":43.28001,"lon":5.40004,"is_reserved":false,"is_disabled":false,"rental_uris":{"android":"levelo://app?vid=b5f667c8-4713-4fa7-a43b-a84ff63b4051","ios":"levelo://app?vid=b5f667c8-4713-4fa7-a43b-a84ff63b4051"},"vehicle_type_id":"4","last_reported":1726258157,"current_range_meters":2000,"station_id":"ce4bho92rcd13ifvqh4g","pricing_plan_id":"cebpf4jnsgd1na2vs0mg"},{"bike_id":"e4402d2d-6970-4058-ab7a-85ad6de543f1","system_id":"levelo_inurba_marseille","lat":43.31356,"lon":5.38497,"is_reserved":false,"is_disabled":false,"rental_uris":{"android":"levelo://app?vid=e4402d2d-6970-4058-ab7a-85ad6de543f1","ios":"levelo://app?vid=e4402d2d-6970-4058-ab7a-85ad6de543f1"},"vehicle_type_id":"4","last_reported":1726258157,"current_range_meters":8400,"station_id":"ce4bgt92rcd13ifvqcf0","pricing_plan_id":"cebpf4jnsgd1na2vs0mg"},{"bike_id":"13ec4916-f0ea-4897-8afc-596425b42c42","system_id":"levelo_inurba_marseille","lat":43.23193,"lon":5.35555,"is_reserved":false,"is_disabled":false,"rental_uris":{"android":"levelo://app?vid=13ec4916-f0ea-4897-8afc-596425b42c42","ios":"levelo://app?vid=13ec4916-f0ea-4897-8afc-596425b42c42"},"vehicle_type_id":"4","last_reported":1726258157,"current_range_meters":30000,"station_id":"ce4bhu92rcd13ifvqi70","pricing_plan_id":"cebpf4jnsgd1na2vs0mg"},{"bike_id":"627d97e3-ccf7-42a3-85b5-4116cfb34a5e","system_id":"levelo_inurba_marseille","lat":43.28459,"lon":5.35894,"is_reserved":false,"is_disabled":false,"rental_uris":{"android":"levelo://app?vid=627d97e3-ccf7-42a3-85b5-4116cfb34a5e","ios":"levelo://app?vid=627d97e3-ccf7-42a3-85b5-4116cfb34a5e"},"vehicle_type_id":"4","last_reported":1726258157,"current_range_meters":38800,"station_id":"ce4bhah2rcd13ifvqei0","pricing_plan_id":"cebpf4jnsgd1na2vs0mg"},{"bike_id":"06c19026-5a12-406d-ae69-48c86326c003","system_id":"levelo_inurba_marseille","lat":43.26928,"lon":5.38918,"is_reserved":false,"is_disabled":false,"rental_uris":{"android":"levelo://app?vid=06c19026-5a12-406d-ae69-48c86326c003","ios":"levelo://app?vid=06c19026-5a12-406d-ae69-48c86326c003"},"vehicle_type_id":"4","last_reported":1726258157,"current_range_meters":30000,"station_id":"ce4bhhh2rcd13ifvqfl0","pricing_plan_id":"cebpf4jnsgd1na2vs0mg"},{"bike_id":"3f1e932a-540c-4c5d-a4f8-ac49240977b8","system_id":"levelo_inurba_marseille","lat":43.24386,"lon":5.3706,"is_reserved":false,"is_disabled":false,"rental_uris":{"android":"levelo://app?vid=3f1e932a-540c-4c5d-a4f8-ac49240977b8","ios":"levelo://app?vid=3f1e932a-540c-4c5d-a4f8-ac49240977b8"},"vehicle_type_id":"4","last_reported":1726258157,"current_range_meters":19600,"station_id":"ce4bhhh2rcd13ifvqfk0","pricing_plan_id":"cebpf4jnsgd1na2vs0mg"},{"bike_id":"1b69e28d-b657-4802-b5dd-aa17fb5a768b","system_id":"levelo_inurba_marseille","lat":43.2713,"lon":5.42789,"is_reserved":false,"is_disabled":false,"rental_uris":{"android":"levelo://app?vid=1b69e28d-b657-4802-b5dd-aa17fb5a768b","ios":"levelo://app?vid=1b69e28d-b657-4802-b5dd-aa17fb5a768b"},"vehicle_type_id":"4","last_reported":1726258157,"current_range_meters":29600,"station_id":"","pricing_plan_id":"cebpf4jnsgd1na2vs0mg"},{"bike_id":"53796d42-9295-406f-adeb-79d93e864244","system_id":"levelo_inurba_marseille","lat":43.3234,"lon":5.40614,"is_reserved":false,"is_disabled":false,"rental_uris":{"android":"levelo://app?vid=53796d42-9295-406f-adeb-79d93e864244","ios":"levelo://app?vid=53796d42-9295-406f-adeb-79d93e864244"},"vehicle_type_id":"4","last_reported":1726258157,"current_range_meters":38800,"station_id":"ce4bhq92rcd13ifvqhjg","pricing_plan_id":"cebpf4jnsgd1na2vs0mg"},{"bike_id":"cedf15cb-b781-4542-8c70-b087dc011ede","system_id":"levelo_inurba_marseille","lat":43.2985,"lon":5.36289,"is_reserved":false,"is_disabled":false,"rental_uris":{"android":"levelo://app?vid=cedf15cb-b781-4542-8c70-b087dc011ede","ios":"levelo://app?vid=cedf15cb-b781-4542-8c70-b087dc011ede"},"vehicle_type_id":"4","last_reported":1726258157,"current_range_meters":39200,"station_id":"ce4bgpp2rcd13ifvqc3g","pricing_plan_id":"cebpf4jnsgd1na2vs0mg"},{"bike_id":"9835f768-84dc-47fe-b83e-1dbafba18f68","system_id":"levelo_inurba_marseille","lat":43.23203,"lon":5.35567,"is_reserved":false,"is_disabled":false,"rental_uris":{"android":"levelo://app?vid=9835f768-84dc-47fe-b83e-1dbafba18f68","ios":"levelo://app?vid=9835f768-84dc-47fe-b83e-1dbafba18f68"},"vehicle_type_id":"4","last_reported":1726258157,"current_range_meters":39200,"station_id":"ce4bhu92rcd13ifvqi70","pricing_plan_id":"cebpf4jnsgd1na2vs0mg"},{"bike_id":"995d3a7e-289e-4ebd-b785-9d2da426ad57","system_id":"levelo_inurba_marseille","lat":43.23195,"lon":5.35546,"is_reserved":false,"is_disabled":false,"rental_uris":{"android":"levelo://app?vid=995d3a7e-289e-4ebd-b785-9d2da426ad57","ios":"levelo://app?vid=995d3a7e-289e-4ebd-b785-9d2da426ad57"},"vehicle_type_id":"4","last_reported":1726258157,"current_range_meters":24800,"station_id":"ce4bhu92rcd13ifvqi70","pricing_plan_id":"cebpf4jnsgd1na2vs0mg"},{"bike_id":"74c67d55-8a5f-40c9-8066-d68354718f8c","system_id":"levelo_inurba_marseille","lat":43.2319,"lon":5.35556,"is_reserved":false,"is_disabled":false,"rental_uris":{"android":"levelo://app?vid=74c67d55-8a5f-40c9-8066-d68354718f8c","ios":"levelo://app?vid=74c67d55-8a5f-40c9-8066-d68354718f8c"},"vehicle_type_id":"4","last_reported":1726258157,"current_range_meters":28400,"station_id":"ce4bhu92rcd13ifvqi70","pricing_plan_id":"cebpf4jnsgd1na2vs0mg"},{"bike_id":"a4531cae-9a26-4177-bfe3-1003cf4cb74e","system_id":"levelo_inurba_marseille","lat":43.2997,"lon":5.3719,"is_reserved":false,"is_disabled":false,"rental_uris":{"android":"levelo://app?vid=a4531cae-9a26-4177-bfe3-1003cf4cb74e","ios":"levelo://app?vid=a4531cae-9a26-4177-bfe3-1003cf4cb74e"},"vehicle_type_id":"4","last_reported":1726258157,"current_range_meters":39200,"station_id":"ce4bgr92rcd13ifvqc7g","pricing_plan_id":"cebpf4jnsgd1na2vs0mg"},{"bike_id":"59e3dff8-ce95-4a6d-ac6d-15cf2c0dfbbe","system_id":"levelo_inurba_marseille","lat":43.25866,"lon":5.39901,"is_reserved":false,"is_disabled":false,"rental_uris":{"android":"levelo://app?vid=59e3dff8-ce95-4a6d-ac6d-15cf2c0dfbbe","ios":"levelo://app?vid=59e3dff8-ce95-4a6d-ac6d-15cf2c0dfbbe"},"vehicle_type_id":"4","last_reported":1726258157,"current_range_meters":23200,"station_id":"ce4bhl92rcd13ifvqghg","pricing_plan_id":"cebpf4jnsgd1na2vs0mg"},{"bike_id":"e2be0aea-67dc-4dc6-b46f-e2412631f2dd","system_id":"levelo_inurba_marseille","lat":43.24998,"lon":5.38934,"is_reserved":false,"is_disabled":false,"rental_uris":{"android":"levelo://app?vid=e2be0aea-67dc-4dc6-b46f-e2412631f2dd","ios":"levelo://app?vid=e2be0aea-67dc-4dc6-b46f-e2412631f2dd"},"vehicle_type_id":"4","last_reported":1726258157,"current_range_meters":6800,"station_id":"ce4bhgp2rcd13ifvqfd0","pricing_plan_id":"cebpf4jnsgd1na2vs0mg"},{"bike_id":"e7a0fe64-541d-459f-a7f9-26cdf17fce17","system_id":"levelo_inurba_marseille","lat":43.29412,"lon":5.38618,"is_reserved":false,"is_disabled":false,"rental_uris":{"android":"levelo://app?vid=e7a0fe64-541d-459f-a7f9-26cdf17fce17","ios":"levelo://app?vid=e7a0fe64-541d-459f-a7f9-26cdf17fce17"},"vehicle_type_id":"4","last_reported":1726258157,"current_range_meters":38800,"station_id":"","pricing_plan_id":"cebpf4jnsgd1na2vs0mg"},{"bike_id":"eae1865c-3aec-4d90-a9ff-d200821ea145","system_id":"levelo_inurba_marseille","lat":43.27917,"lon":5.39581,"is_reserved":false,"is_disabled":false,"rental_uris":{"android":"levelo://app?vid=eae1865c-3aec-4d90-a9ff-d200821ea145","ios":"levelo://app?vid=eae1865c-3aec-4d90-a9ff-d200821ea145"},"vehicle_type_id":"4","last_reported":1726258157,"current_range_meters":38800,"station_id":"ce4bhf92rcd13ifvqf40","pricing_plan_id":"cebpf4jnsgd1na2vs0mg"},{"bike_id":"ef46da83-d3aa-4e13-85c7-c02b53447a74","system_id":"levelo_inurba_marseille","lat":43.26059,"lon":5.39399,"is_reserved":false,"is_disabled":false,"rental_uris":{"android":"levelo://app?vid=ef46da83-d3aa-4e13-85c7-c02b53447a74","ios":"levelo://app?vid=ef46da83-d3aa-4e13-85c7-c02b53447a74"},"vehicle_type_id":"4","last_reported":1726258157,"current_range_meters":19200,"station_id":"ce4bhh92rcd13ifvqfj0","pricing_plan_id":"cebpf4jnsgd1na2vs0mg"},{"bike_id":"c9a5b431-fe0d-49f9-849d-0aa958fe3889","system_id":"levelo_inurba_marseille","lat":43.29413,"lon":5.38627,"is_reserved":false,"is_disabled":false,"rental_uris":{"android":"levelo://app?vid=c9a5b431-fe0d-49f9-849d-0aa958fe3889","ios":"levelo://app?vid=c9a5b431-fe0d-49f9-849d-0aa958fe3889"},"vehicle_type_id":"4","last_reported":1726258157,"current_range_meters":36800,"station_id":"ce4bh2h2rcd13ifvqdh0","pricing_plan_id":"cebpf4jnsgd1na2vs0mg"},{"bike_id":"6267baa5-f35c-4311-91c4-71f926f47f2c","system_id":"levelo_inurba_marseille","lat":43.2975,"lon":5.37914,"is_reserved":false,"is_disabled":false,"rental_uris":{"android":"levelo://app?vid=6267baa5-f35c-4311-91c4-71f926f47f2c","ios":"levelo://app?vid=6267baa5-f35c-4311-91c4-71f926f47f2c"},"vehicle_type_id":"4","last_reported":1726258157,"current_range_meters":6800,"station_id":"","pricing_plan_id":"cebpf4jnsgd1na2vs0mg"},{"bike_id":"a0974cc8-15bf-4aba-8db0-a88db02cab58","system_id":"levelo_inurba_marseille","lat":43.29264,"lon":5.38434,"is_reserved":false,"is_disabled":false,"rental_uris":{"android":"levelo://app?vid=a0974cc8-15bf-4aba-8db0-a88db02cab58","ios":"levelo://app?vid=a0974cc8-15bf-4aba-8db0-a88db02cab58"},"vehicle_type_id":"4","last_reported":1726258157,"current_range_meters":30800,"station_id":"ce4bh692rcd13ifvqea0","pricing_plan_id":"cebpf4jnsgd1na2vs0mg"},{"bike_id":"bc688d18-0fd2-425e-bcbf-ad90f722033b","system_id":"levelo_inurba_marseille","lat":43.24648,"lon":5.38891,"is_reserved":false,"is_disabled":false,"rental_uris":{"android":"levelo://app?vid=bc688d18-0fd2-425e-bcbf-ad90f722033b","ios":"levelo://app?vid=bc688d18-0fd2-425e-bcbf-ad90f722033b"},"vehicle_type_id":"4","last_reported":1726258157,"current_range_meters":36400,"station_id":"ce4bhg12rcd13ifvqf60","pricing_plan_id":"cebpf4jnsgd1na2vs0mg"},{"bike_id":"e6bea8cd-bd1a-48c2-8a52-de5e2a98c0f4","system_id":"levelo_inurba_marseille","lat":43.2594,"lon":5.40903,"is_reserved":false,"is_disabled":false,"rental_uris":{"android":"levelo://app?vid=e6bea8cd-bd1a-48c2-8a52-de5e2a98c0f4","ios":"levelo://app?vid=e6bea8cd-bd1a-48c2-8a52-de5e2a98c0f4"},"vehicle_type_id":"4","last_reported":1726258157,"current_range_meters":36400,"station_id":"ce4bhm92rcd13ifvqglg","pricing_plan_id":"cebpf4jnsgd1na2vs0mg"},{"bike_id":"5ed01f9a-9aca-4c76-b903-b5c01814ee4e","system_id":"levelo_inurba_marseille","lat":43.28856,"lon":5.39308,"is_reserved":false,"is_disabled":false,"rental_uris":{"android":"levelo://app?vid=5ed01f9a-9aca-4c76-b903-b5c01814ee4e","ios":"levelo://app?vid=5ed01f9a-9aca-4c76-b903-b5c01814ee4e"},"vehicle_type_id":"4","last_reported":1726258157,"current_range_meters":32000,"station_id":"ce4bh2p2rcd13ifvqdi0","pricing_plan_id":"cebpf4jnsgd1na2vs0mg"},{"bike_id":"44f09c39-e560-4787-855a-6c24192c7f7b","system_id":"levelo_inurba_marseille","lat":43.33024,"lon":5.39038,"is_reserved":false,"is_disabled":false,"rental_uris":{"android":"levelo://app?vid=44f09c39-e560-4787-855a-6c24192c7f7b","ios":"levelo://app?vid=44f09c39-e560-4787-855a-6c24192c7f7b"},"vehicle_type_id":"4","last_reported":1726258157,"current_range_meters":24800,"station_id":"ce4bhr92rcd13ifvqhrg","pricing_plan_id":"cebpf4jnsgd1na2vs0mg"},{"bike_id":"25776695-0bda-4eee-97da-92113f024358","system_id":"levelo_inurba_marseille","lat":43.29437,"lon":5.39742,"is_reserved":false,"is_disabled":false,"rental_uris":{"android":"levelo://app?vid=25776695-0bda-4eee-97da-92113f024358","ios":"levelo://app?vid=25776695-0bda-4eee-97da-92113f024358"},"vehicle_type_id":"4","last_reported":1726258157,"current_range_meters":11600,"station_id":"ce4bh3h2rcd13ifvqdo0","pricing_plan_id":"cebpf4jnsgd1na2vs0mg"},{"bike_id":"4ea693fb-8377-4d5b-9e93-3a68ef401d50","system_id":"levelo_inurba_marseille","lat":43.25574,"lon":5.38226,"is_reserved":false,"is_disabled":false,"rental_uris":{"android":"levelo://app?vid=4ea693fb-8377-4d5b-9e93-3a68ef401d50","ios":"levelo://app?vid=4ea693fb-8377-4d5b-9e93-3a68ef401d50"},"vehicle_type_id":"4","last_reported":1726258157,"current_range_meters":8000,"station_id":"","pricing_plan_id":"cebpf4jnsgd1na2vs0mg"},{"bike_id":"2a089944-b1a6-45af-99d1-9b70add064d3","system_id":"levelo_inurba_marseille","lat":43.24812,"lon":5.37461,"is_reserved":false,"is_disabled":false,"rental_uris":{"android":"levelo://app?vid=2a089944-b1a6-45af-99d1-9b70add064d3","ios":"levelo://app?vid=2a089944-b1a6-45af-99d1-9b70add064d3"},"vehicle_type_id":"4","last_reported":1726258157,"current_range_meters":15200,"station_id":"ce4bhgh2rcd13ifvqfb0","pricing_plan_id":"cebpf4jnsgd1na2vs0mg"},{"bike_id":"34721204-9cc8-4128-8304-5b698c26b1e6","system_id":"levelo_inurba_marseille","lat":43.23178,"lon":5.39988,"is_reserved":false,"is_disabled":false,"rental_uris":{"android":"levelo://app?vid=34721204-9cc8-4128-8304-5b698c26b1e6","ios":"levelo://app?vid=34721204-9cc8-4128-8304-5b698c26b1e6"},"vehicle_type_id":"4","last_reported":1726258157,"current_range_meters":40000,"station_id":"ce4bhn12rcd13ifvqgqg","pricing_plan_id":"cebpf4jnsgd1na2vs0mg"},{"bike_id":"565a5325-dd9b-4d53-9636-b2104c76add1","system_id":"levelo_inurba_marseille","lat":43.28036,"lon":5.36943,"is_reserved":false,"is_disabled":false,"rental_uris":{"android":"levelo://app?vid=565a5325-dd9b-4d53-9636-b2104c76add1","ios":"levelo://app?vid=565a5325-dd9b-4d53-9636-b2104c76add1"},"vehicle_type_id":"4","last_reported":1726258157,"current_range_meters":400,"station_id":"ce4bha12rcd13ifvqef0","pricing_plan_id":"cebpf4jnsgd1na2vs0mg"},{"bike_id":"35384e9c-2903-4926-846b-dd436af2f840","system_id":"levelo_inurba_marseille","lat":43.31074,"lon":5.383521,"is_reserved":false,"is_disabled":false,"rental_uris":{"android":"levelo://app?vid=35384e9c-2903-4926-846b-dd436af2f840","ios":"levelo://app?vid=35384e9c-2903-4926-846b-dd436af2f840"},"vehicle_type_id":"4","last_reported":1726258157,"current_range_meters":35600,"station_id":"ce4bgv92rcd13ifvqcr0","pricing_plan_id":"cebpf4jnsgd1na2vs0mg"},{"bike_id":"0124e22a-940d-4592-a669-5febf603375d","system_id":"levelo_inurba_marseille","lat":43.28075,"lon":5.39661,"is_reserved":false,"is_disabled":false,"rental_uris":{"android":"levelo://app?vid=0124e22a-940d-4592-a669-5febf603375d","ios":"levelo://app?vid=0124e22a-940d-4592-a669-5febf603375d"},"vehicle_type_id":"4","last_reported":1726258157,"current_range_meters":27600,"station_id":"ce4bho12rcd13ifvqh2g","pricing_plan_id":"cebpf4jnsgd1na2vs0mg"},{"bike_id":"39b86749-80ef-4310-953b-c60370086942","system_id":"levelo_inurba_marseille","lat":43.24545,"lon":5.39525,"is_reserved":false,"is_disabled":false,"rental_uris":{"android":"levelo://app?vid=39b86749-80ef-4310-953b-c60370086942","ios":"levelo://app?vid=39b86749-80ef-4310-953b-c60370086942"},"vehicle_type_id":"4","last_reported":1726258157,"current_range_meters":28800,"station_id":"ce4bhlp2rcd13ifvqgjg","pricing_plan_id":"cebpf4jnsgd1na2vs0mg"},{"bike_id":"6a8f2f10-9a94-4930-acf4-9d3abaa17531","system_id":"levelo_inurba_marseille","lat":43.255,"lon":5.37651,"is_reserved":false,"is_disabled":false,"rental_uris":{"android":"levelo://app?vid=6a8f2f10-9a94-4930-acf4-9d3abaa17531","ios":"levelo://app?vid=6a8f2f10-9a94-4930-acf4-9d3abaa17531"},"vehicle_type_id":"4","last_reported":1726258157,"current_range_meters":35600,"station_id":"ce4bhh12rcd13ifvqff0","pricing_plan_id":"cebpf4jnsgd1na2vs0mg"},{"bike_id":"4cad2379-f22f-4bf0-a45e-a36b3b61dd30","system_id":"levelo_inurba_marseille","lat":43.25579,"lon":5.38227,"is_reserved":false,"is_disabled":false,"rental_uris":{"android":"levelo://app?vid=4cad2379-f22f-4bf0-a45e-a36b3b61dd30","ios":"levelo://app?vid=4cad2379-f22f-4bf0-a45e-a36b3b61dd30"},"vehicle_type_id":"4","last_reported":1726258157,"current_range_meters":38400,"station_id":"ce4bhih2rcd13ifvqfs0","pricing_plan_id":"cebpf4jnsgd1na2vs0mg"},{"bike_id":"64f7a6e5-1572-4a6d-a1e3-68f6f534c5a2","system_id":"levelo_inurba_marseille","lat":43.2861,"lon":5.35107,"is_reserved":false,"is_disabled":false,"rental_uris":{"android":"levelo://app?vid=64f7a6e5-1572-4a6d-a1e3-68f6f534c5a2","ios":"levelo://app?vid=64f7a6e5-1572-4a6d-a1e3-68f6f534c5a2"},"vehicle_type_id":"4","last_reported":1726258157,"current_range_meters":29600,"station_id":"ce4bhch2rcd13ifvqeug","pricing_plan_id":"cebpf4jnsgd1na2vs0mg"},{"bike_id":"148ffffa-d147-44e1-bbf1-392cc4e31e96","system_id":"levelo_inurba_marseille","lat":43.312714,"lon":5.401694,"is_reserved":false,"is_disabled":false,"rental_uris":{"android":"levelo://app?vid=148ffffa-d147-44e1-bbf1-392cc4e31e96","ios":"levelo://app?vid=148ffffa-d147-44e1-bbf1-392cc4e31e96"},"vehicle_type_id":"4","last_reported":1726258157,"current_range_meters":38400,"station_id":"","pricing_plan_id":"cebpf4jnsgd1na2vs0mg"},{"bike_id":"acb4473c-f793-440a-9c76-0eca7b03c7c3","system_id":"levelo_inurba_marseille","lat":43.27653,"lon":5.38147,"is_reserved":false,"is_disabled":false,"rental_uris":{"android":"levelo://app?vid=acb4473c-f793-440a-9c76-0eca7b03c7c3","ios":"levelo://app?vid=acb4473c-f793-440a-9c76-0eca7b03c7c3"},"vehicle_type_id":"4","last_reported":1726258157,"current_range_meters":4000,"station_id":"","pricing_plan_id":"cebpf4jnsgd1na2vs0mg"},{"bike_id":"f153144e-a546-4ccb-a3eb-197ce39bbc8d","system_id":"levelo_inurba_marseille","lat":43.30291,"lon":5.39224,"is_reserved":false,"is_disabled":false,"rental_uris":{"android":"levelo://app?vid=f153144e-a546-4ccb-a3eb-197ce39bbc8d","ios":"levelo://app?vid=f153144e-a546-4ccb-a3eb-197ce39bbc8d"},"vehicle_type_id":"4","last_reported":1726258157,"current_range_meters":15200,"station_id":"ce4bgkh2rcd13ifvqbk0","pricing_plan_id":"cebpf4jnsgd1na2vs0mg"},{"bike_id":"db6f3ddc-f535-4831-9ce2-02dacbc0d22a","system_id":"levelo_inurba_marseille","lat":43.31684,"lon":5.40475,"is_reserved":false,"is_disabled":false,"rental_uris":{"android":"levelo://app?vid=db6f3ddc-f535-4831-9ce2-02dacbc0d22a","ios":"levelo://app?vid=db6f3ddc-f535-4831-9ce2-02dacbc0d22a"},"vehicle_type_id":"4","last_reported":1726258157,"current_range_meters":7200,"station_id":"ce4bh012rcd13ifvqd00","pricing_plan_id":"cebpf4jnsgd1na2vs0mg"},{"bike_id":"e6c9a1d3-3ef0-440b-a649-557dc05e1ae2","system_id":"levelo_inurba_marseille","lat":43.26194,"lon":5.3745,"is_reserved":false,"is_disabled":false,"rental_uris":{"android":"levelo://app?vid=e6c9a1d3-3ef0-440b-a649-557dc05e1ae2","ios":"levelo://app?vid=e6c9a1d3-3ef0-440b-a649-557dc05e1ae2"},"vehicle_type_id":"4","last_reported":1726258157,"current_range_meters":38800,"station_id":"ce4bhgp2rcd13ifvqfc0","pricing_plan_id":"cebpf4jnsgd1na2vs0mg"},{"bike_id":"8554da01-de87-427f-ba09-4a8fccfe97a9","system_id":"levelo_inurba_marseille","lat":43.30917,"lon":5.36847,"is_reserved":false,"is_disabled":false,"rental_uris":{"android":"levelo://app?vid=8554da01-de87-427f-ba09-4a8fccfe97a9","ios":"levelo://app?vid=8554da01-de87-427f-ba09-4a8fccfe97a9"},"vehicle_type_id":"4","last_reported":1726258157,"current_range_meters":18000,"station_id":"ce4bgn92rcd13ifvqbvg","pricing_plan_id":"cebpf4jnsgd1na2vs0mg"},{"bike_id":"0d9e139c-b91b-4d9a-a323-fba67f47547f","system_id":"levelo_inurba_marseille","lat":43.28997,"lon":5.35615,"is_reserved":false,"is_disabled":false,"rental_uris":{"android":"levelo://app?vid=0d9e139c-b91b-4d9a-a323-fba67f47547f","ios":"levelo://app?vid=0d9e139c-b91b-4d9a-a323-fba67f47547f"},"vehicle_type_id":"4","last_reported":1726258157,"current_range_meters":38800,"station_id":"ce4bhb92rcd13ifvqen0","pricing_plan_id":"cebpf4jnsgd1na2vs0mg"},{"bike_id":"cade2501-95bb-491a-b8de-c573db7615e8","system_id":"levelo_inurba_marseille","lat":43.27493,"lon":5.42456,"is_reserved":false,"is_disabled":false,"rental_uris":{"android":"levelo://app?vid=cade2501-95bb-491a-b8de-c573db7615e8","ios":"levelo://app?vid=cade2501-95bb-491a-b8de-c573db7615e8"},"vehicle_type_id":"4","last_reported":1726258157,"current_range_meters":22400,"station_id":"ce4bhn92rcd13ifvqgrg","pricing_plan_id":"cebpf4jnsgd1na2vs0mg"},{"bike_id":"abc8f302-c99c-47f2-a28a-2147bc4d48e3","system_id":"levelo_inurba_marseille","lat":43.29877,"lon":5.38917,"is_reserved":false,"is_disabled":false,"rental_uris":{"android":"levelo://app?vid=abc8f302-c99c-47f2-a28a-2147bc4d48e3","ios":"levelo://app?vid=abc8f302-c99c-47f2-a28a-2147bc4d48e3"},"vehicle_type_id":"4","last_reported":1726258157,"current_range_meters":36400,"station_id":"ce4bh392rcd13ifvqdl0","pricing_plan_id":"cebpf4jnsgd1na2vs0mg"},{"bike_id":"adc6d5ed-c52e-493c-90cc-e26284b67c2f","system_id":"levelo_inurba_marseille","lat":43.29529,"lon":5.38547,"is_reserved":false,"is_disabled":false,"rental_uris":{"android":"levelo://app?vid=adc6d5ed-c52e-493c-90cc-e26284b67c2f","ios":"levelo://app?vid=adc6d5ed-c52e-493c-90cc-e26284b67c2f"},"vehicle_type_id":"4","last_reported":1726258157,"current_range_meters":1600,"station_id":"ce4bgih2rcd13ifvqba0","pricing_plan_id":"cebpf4jnsgd1na2vs0mg"},{"bike_id":"c2f931ad-b5e2-4455-9c35-0703f1bd1d86","system_id":"levelo_inurba_marseille","lat":43.29516,"lon":5.39409,"is_reserved":false,"is_disabled":false,"rental_uris":{"android":"levelo://app?vid=c2f931ad-b5e2-4455-9c35-0703f1bd1d86","ios":"levelo://app?vid=c2f931ad-b5e2-4455-9c35-0703f1bd1d86"},"vehicle_type_id":"4","last_reported":1726258157,"current_range_meters":37600,"station_id":"ce4bh292rcd13ifvqdf0","pricing_plan_id":"cebpf4jnsgd1na2vs0mg"},{"bike_id":"2d037c48-a24a-472e-a82e-47d991fadecd","system_id":"levelo_inurba_marseille","lat":43.25727,"lon":5.41104,"is_reserved":false,"is_disabled":false,"rental_uris":{"android":"levelo://app?vid=2d037c48-a24a-472e-a82e-47d991fadecd","ios":"levelo://app?vid=2d037c48-a24a-472e-a82e-47d991fadecd"},"vehicle_type_id":"4","last_reported":1726258157,"current_range_meters":23200,"station_id":"ce4bhkp2rcd13ifvqgd0","pricing_plan_id":"cebpf4jnsgd1na2vs0mg"},{"bike_id":"16015b88-d7e7-4d26-8fae-947eb8ed0741","system_id":"levelo_inurba_marseille","lat":43.26956,"lon":5.38629,"is_reserved":false,"is_disabled":false,"rental_uris":{"android":"levelo://app?vid=16015b88-d7e7-4d26-8fae-947eb8ed0741","ios":"levelo://app?vid=16015b88-d7e7-4d26-8fae-947eb8ed0741"},"vehicle_type_id":"4","last_reported":1726258157,"current_range_meters":40000,"station_id":"ce4bhh92rcd13ifvqfh0","pricing_plan_id":"cebpf4jnsgd1na2vs0mg"},{"bike_id":"eaf3218e-3b2a-4dde-9c15-99a6c4254e56","system_id":"levelo_inurba_marseille","lat":43.29899,"lon":5.43675,"is_reserved":false,"is_disabled":false,"rental_uris":{"android":"levelo://app?vid=eaf3218e-3b2a-4dde-9c15-99a6c4254e56","ios":"levelo://app?vid=eaf3218e-3b2a-4dde-9c15-99a6c4254e56"},"vehicle_type_id":"4","last_reported":1726258157,"current_range_meters":38800,"station_id":"ce4bhpp2rcd13ifvqhfg","pricing_plan_id":"cebpf4jnsgd1na2vs0mg"},{"bike_id":"578fe535-1ca5-46e4-9e6c-f0e8aa8560bc","system_id":"levelo_inurba_marseille","lat":43.32366,"lon":5.38881,"is_reserved":false,"is_disabled":false,"rental_uris":{"android":"levelo://app?vid=578fe535-1ca5-46e4-9e6c-f0e8aa8560bc","ios":"levelo://app?vid=578fe535-1ca5-46e4-9e6c-f0e8aa8560bc"},"vehicle_type_id":"4","last_reported":1726258157,"current_range_meters":15200,"station_id":"ce4bhqp2rcd13ifvqhog","pricing_plan_id":"cebpf4jnsgd1na2vs0mg"},{"bike_id":"d167b71e-bdce-40f2-9b07-c61a0de9bd72","system_id":"levelo_inurba_marseille","lat":43.29229,"lon":5.36078,"is_reserved":false,"is_disabled":false,"rental_uris":{"android":"levelo://app?vid=d167b71e-bdce-40f2-9b07-c61a0de9bd72","ios":"levelo://app?vid=d167b71e-bdce-40f2-9b07-c61a0de9bd72"},"vehicle_type_id":"4","last_reported":1726258157,"current_range_meters":38000,"station_id":"ce4bhbh2rcd13ifvqeqg","pricing_plan_id":"cebpf4jnsgd1na2vs0mg"},{"bike_id":"16ca6d91-7513-415c-9a61-5d33eb8ad677","system_id":"levelo_inurba_marseille","lat":43.22937,"lon":5.35375,"is_reserved":false,"is_disabled":false,"rental_uris":{"android":"levelo://app?vid=16ca6d91-7513-415c-9a61-5d33eb8ad677","ios":"levelo://app?vid=16ca6d91-7513-415c-9a61-5d33eb8ad677"},"vehicle_type_id":"4","last_reported":1726258157,"current_range_meters":25200,"station_id":"cpo3532slgdg3j2ikp40","pricing_plan_id":"cebpf4jnsgd1na2vs0mg"},{"bike_id":"4b0ffb76-72ae-4f18-90a7-1873c3004871","system_id":"levelo_inurba_marseille","lat":43.30283,"lon":5.37697,"is_reserved":false,"is_disabled":false,"rental_uris":{"android":"levelo://app?vid=4b0ffb76-72ae-4f18-90a7-1873c3004871","ios":"levelo://app?vid=4b0ffb76-72ae-4f18-90a7-1873c3004871"},"vehicle_type_id":"4","last_reported":1726258157,"current_range_meters":39200,"station_id":"ce4bguh2rcd13ifvqcj0","pricing_plan_id":"cebpf4jnsgd1na2vs0mg"},{"bike_id":"92101611-57ac-40bd-81f9-9e6acd5327c3","system_id":"levelo_inurba_marseille","lat":43.24654,"lon":5.38894,"is_reserved":false,"is_disabled":false,"rental_uris":{"android":"levelo://app?vid=92101611-57ac-40bd-81f9-9e6acd5327c3","ios":"levelo://app?vid=92101611-57ac-40bd-81f9-9e6acd5327c3"},"vehicle_type_id":"4","last_reported":1726258157,"current_range_meters":38000,"station_id":"ce4bhg12rcd13ifvqf60","pricing_plan_id":"cebpf4jnsgd1na2vs0mg"},{"bike_id":"c5465ea1-4e69-4539-880b-a7ffba1e41db","system_id":"levelo_inurba_marseille","lat":43.25726,"lon":5.41111,"is_reserved":false,"is_disabled":false,"rental_uris":{"android":"levelo://app?vid=c5465ea1-4e69-4539-880b-a7ffba1e41db","ios":"levelo://app?vid=c5465ea1-4e69-4539-880b-a7ffba1e41db"},"vehicle_type_id":"4","last_reported":1726258157,"current_range_meters":38000,"station_id":"ce4bhkp2rcd13ifvqgd0","pricing_plan_id":"cebpf4jnsgd1na2vs0mg"},{"bike_id":"f4c36463-ddf2-4e8a-90a8-c12391e72ce0","system_id":"levelo_inurba_marseille","lat":43.28268,"lon":5.35058,"is_reserved":false,"is_disabled":false,"rental_uris":{"android":"levelo://app?vid=f4c36463-ddf2-4e8a-90a8-c12391e72ce0","ios":"levelo://app?vid=f4c36463-ddf2-4e8a-90a8-c12391e72ce0"},"vehicle_type_id":"4","last_reported":1726258157,"current_range_meters":14400,"station_id":"ce4bhbp2rcd13ifvqerg","pricing_plan_id":"cebpf4jnsgd1na2vs0mg"},{"bike_id":"ce45b02b-b167-4654-b305-eb82cd566863","system_id":"levelo_inurba_marseille","lat":43.232,"lon":5.35552,"is_reserved":false,"is_disabled":false,"rental_uris":{"android":"levelo://app?vid=ce45b02b-b167-4654-b305-eb82cd566863","ios":"levelo://app?vid=ce45b02b-b167-4654-b305-eb82cd566863"},"vehicle_type_id":"4","last_reported":1726258157,"current_range_meters":28800,"station_id":"ce4bhu92rcd13ifvqi70","pricing_plan_id":"cebpf4jnsgd1na2vs0mg"},{"bike_id":"30da0b60-75ad-4018-acc4-9459b3134afb","system_id":"levelo_inurba_marseille","lat":43.29534,"lon":5.38543,"is_reserved":false,"is_disabled":false,"rental_uris":{"android":"levelo://app?vid=30da0b60-75ad-4018-acc4-9459b3134afb","ios":"levelo://app?vid=30da0b60-75ad-4018-acc4-9459b3134afb"},"vehicle_type_id":"4","last_reported":1726258157,"current_range_meters":34000,"station_id":"ce4bgih2rcd13ifvqba0","pricing_plan_id":"cebpf4jnsgd1na2vs0mg"},{"bike_id":"43f91729-b23c-4f31-bdb2-8366483e8266","system_id":"levelo_inurba_marseille","lat":43.31271,"lon":5.40168,"is_reserved":false,"is_disabled":false,"rental_uris":{"android":"levelo://app?vid=43f91729-b23c-4f31-bdb2-8366483e8266","ios":"levelo://app?vid=43f91729-b23c-4f31-bdb2-8366483e8266"},"vehicle_type_id":"4","last_reported":1726258157,"current_range_meters":27600,"station_id":"ce4bh092rcd13ifvqd30","pricing_plan_id":"cebpf4jnsgd1na2vs0mg"},{"bike_id":"5073ac9d-6df3-45f0-9ba5-d1015aede9a9","system_id":"levelo_inurba_marseille","lat":43.3169,"lon":5.40468,"is_reserved":false,"is_disabled":false,"rental_uris":{"android":"levelo://app?vid=5073ac9d-6df3-45f0-9ba5-d1015aede9a9","ios":"levelo://app?vid=5073ac9d-6df3-45f0-9ba5-d1015aede9a9"},"vehicle_type_id":"4","last_reported":1726258157,"current_range_meters":26000,"station_id":"ce4bh012rcd13ifvqd00","pricing_plan_id":"cebpf4jnsgd1na2vs0mg"},{"bike_id":"43fdcb14-ac18-4289-83f9-be7bf1bd4e28","system_id":"levelo_inurba_marseille","lat":43.29001,"lon":5.35618,"is_reserved":false,"is_disabled":false,"rental_uris":{"android":"levelo://app?vid=43fdcb14-ac18-4289-83f9-be7bf1bd4e28","ios":"levelo://app?vid=43fdcb14-ac18-4289-83f9-be7bf1bd4e28"},"vehicle_type_id":"4","last_reported":1726258157,"current_range_meters":15200,"station_id":"ce4bhb92rcd13ifvqen0","pricing_plan_id":"cebpf4jnsgd1na2vs0mg"},{"bike_id":"6c81c337-dc6b-41ae-95e1-1d8e0c8b10d2","system_id":"levelo_inurba_marseille","lat":43.27665,"lon":5.38899,"is_reserved":false,"is_disabled":false,"rental_uris":{"android":"levelo://app?vid=6c81c337-dc6b-41ae-95e1-1d8e0c8b10d2","ios":"levelo://app?vid=6c81c337-dc6b-41ae-95e1-1d8e0c8b10d2"},"vehicle_type_id":"4","last_reported":1726258157,"current_range_meters":38000,"station_id":"ce4bhi12rcd13ifvqfo0","pricing_plan_id":"cebpf4jnsgd1na2vs0mg"},{"bike_id":"9b49fc06-69dc-4375-9bc8-2ab31283d424","system_id":"levelo_inurba_marseille","lat":43.29899,"lon":5.43672,"is_reserved":false,"is_disabled":false,"rental_uris":{"android":"levelo://app?vid=9b49fc06-69dc-4375-9bc8-2ab31283d424","ios":"levelo://app?vid=9b49fc06-69dc-4375-9bc8-2ab31283d424"},"vehicle_type_id":"4","last_reported":1726258157,"current_range_meters":36400,"station_id":"ce4bhpp2rcd13ifvqhfg","pricing_plan_id":"cebpf4jnsgd1na2vs0mg"},{"bike_id":"ca7a142a-6db5-4c8d-8df3-4120b09b3845","system_id":"levelo_inurba_marseille","lat":43.276791,"lon":5.388726,"is_reserved":false,"is_disabled":false,"rental_uris":{"android":"levelo://app?vid=ca7a142a-6db5-4c8d-8df3-4120b09b3845","ios":"levelo://app?vid=ca7a142a-6db5-4c8d-8df3-4120b09b3845"},"vehicle_type_id":"4","last_reported":1726258157,"current_range_meters":36400,"station_id":"ce4bhg12rcd13ifvqf80","pricing_plan_id":"cebpf4jnsgd1na2vs0mg"},{"bike_id":"3d6b39fb-1723-4b64-8322-683d15d1c736","system_id":"levelo_inurba_marseille","lat":43.28364,"lon":5.38632,"is_reserved":false,"is_disabled":false,"rental_uris":{"android":"levelo://app?vid=3d6b39fb-1723-4b64-8322-683d15d1c736","ios":"levelo://app?vid=3d6b39fb-1723-4b64-8322-683d15d1c736"},"vehicle_type_id":"4","last_reported":1726258157,"current_range_meters":3600,"station_id":"ce4bh492rcd13ifvqdvg","pricing_plan_id":"cebpf4jnsgd1na2vs0mg"},{"bike_id":"6b780c73-d8cf-40b2-993b-3450436460ee","system_id":"levelo_inurba_marseille","lat":43.2925,"lon":5.38448,"is_reserved":false,"is_disabled":false,"rental_uris":{"android":"levelo://app?vid=6b780c73-d8cf-40b2-993b-3450436460ee","ios":"levelo://app?vid=6b780c73-d8cf-40b2-993b-3450436460ee"},"vehicle_type_id":"4","last_reported":1726258157,"current_range_meters":19200,"station_id":"ce4bh692rcd13ifvqea0","pricing_plan_id":"cebpf4jnsgd1na2vs0mg"},{"bike_id":"c7cd67a6-2f65-43e6-9e58-1489cab32866","system_id":"levelo_inurba_marseille","lat":43.24163,"lon":5.36396,"is_reserved":false,"is_disabled":false,"rental_uris":{"android":"levelo://app?vid=c7cd67a6-2f65-43e6-9e58-1489cab32866","ios":"levelo://app?vid=c7cd67a6-2f65-43e6-9e58-1489cab32866"},"vehicle_type_id":"4","last_reported":1726258157,"current_range_meters":6800,"station_id":"cpo36qri1sfpv3e86is0","pricing_plan_id":"cebpf4jnsgd1na2vs0mg"},{"bike_id":"2571781b-35fd-482e-8989-9ab27643e918","system_id":"levelo_inurba_marseille","lat":43.29262,"lon":5.38444,"is_reserved":false,"is_disabled":false,"rental_uris":{"android":"levelo://app?vid=2571781b-35fd-482e-8989-9ab27643e918","ios":"levelo://app?vid=2571781b-35fd-482e-8989-9ab27643e918"},"vehicle_type_id":"4","last_reported":1726258157,"current_range_meters":36800,"station_id":"ce4bh692rcd13ifvqea0","pricing_plan_id":"cebpf4jnsgd1na2vs0mg"},{"bike_id":"57f5eb88-52cc-441f-9282-b914e7106782","system_id":"levelo_inurba_marseille","lat":43.28032,"lon":5.36952,"is_reserved":false,"is_disabled":false,"rental_uris":{"android":"levelo://app?vid=57f5eb88-52cc-441f-9282-b914e7106782","ios":"levelo://app?vid=57f5eb88-52cc-441f-9282-b914e7106782"},"vehicle_type_id":"4","last_reported":1726258157,"current_range_meters":38800,"station_id":"ce4bha12rcd13ifvqef0","pricing_plan_id":"cebpf4jnsgd1na2vs0mg"},{"bike_id":"8f855330-2fcc-4b0b-82fe-b7fe1e766fb6","system_id":"levelo_inurba_marseille","lat":43.28978,"lon":5.37839,"is_reserved":false,"is_disabled":false,"rental_uris":{"android":"levelo://app?vid=8f855330-2fcc-4b0b-82fe-b7fe1e766fb6","ios":"levelo://app?vid=8f855330-2fcc-4b0b-82fe-b7fe1e766fb6"},"vehicle_type_id":"4","last_reported":1726258157,"current_range_meters":14000,"station_id":"ce4bh9p2rcd13ifvqed0","pricing_plan_id":"cebpf4jnsgd1na2vs0mg"},{"bike_id":"2a49ee96-fd61-4354-9372-6d8fd2c217ae","system_id":"levelo_inurba_marseille","lat":43.29253,"lon":5.38441,"is_reserved":false,"is_disabled":false,"rental_uris":{"android":"levelo://app?vid=2a49ee96-fd61-4354-9372-6d8fd2c217ae","ios":"levelo://app?vid=2a49ee96-fd61-4354-9372-6d8fd2c217ae"},"vehicle_type_id":"4","last_reported":1726258157,"current_range_meters":9200,"station_id":"ce4bh692rcd13ifvqea0","pricing_plan_id":"cebpf4jnsgd1na2vs0mg"},{"bike_id":"b03caa38-8130-4bff-818d-037a0066a131","system_id":"levelo_inurba_marseille","lat":43.301666,"lon":5.37976,"is_reserved":false,"is_disabled":false,"rental_uris":{"android":"levelo://app?vid=b03caa38-8130-4bff-818d-037a0066a131","ios":"levelo://app?vid=b03caa38-8130-4bff-818d-037a0066a131"},"vehicle_type_id":"4","last_reported":1726258157,"current_range_meters":35600,"station_id":"","pricing_plan_id":"cebpf4jnsgd1na2vs0mg"},{"bike_id":"79b7950d-90c8-4e3c-a243-1a31b18cd68e","system_id":"levelo_inurba_marseille","lat":43.23966,"lon":5.36641,"is_reserved":false,"is_disabled":false,"rental_uris":{"android":"levelo://app?vid=79b7950d-90c8-4e3c-a243-1a31b18cd68e","ios":"levelo://app?vid=79b7950d-90c8-4e3c-a243-1a31b18cd68e"},"vehicle_type_id":"4","last_reported":1726258157,"current_range_meters":9600,"station_id":"ce4bhi12rcd13ifvqfp0","pricing_plan_id":"cebpf4jnsgd1na2vs0mg"},{"bike_id":"4d0f967e-c81f-46ed-91db-75a0d012fc0f","system_id":"levelo_inurba_marseille","lat":43.2558,"lon":5.38242,"is_reserved":false,"is_disabled":false,"rental_uris":{"android":"levelo://app?vid=4d0f967e-c81f-46ed-91db-75a0d012fc0f","ios":"levelo://app?vid=4d0f967e-c81f-46ed-91db-75a0d012fc0f"},"vehicle_type_id":"4","last_reported":1726258157,"current_range_meters":19600,"station_id":"ce4bhih2rcd13ifvqfs0","pricing_plan_id":"cebpf4jnsgd1na2vs0mg"},{"bike_id":"eace048f-2d24-4589-81e7-57681e93495d","system_id":"levelo_inurba_marseille","lat":43.30332,"lon":5.40432,"is_reserved":false,"is_disabled":false,"rental_uris":{"android":"levelo://app?vid=eace048f-2d24-4589-81e7-57681e93495d","ios":"levelo://app?vid=eace048f-2d24-4589-81e7-57681e93495d"},"vehicle_type_id":"4","last_reported":1726258157,"current_range_meters":24400,"station_id":"ce4bh012rcd13ifvqd10","pricing_plan_id":"cebpf4jnsgd1na2vs0mg"},{"bike_id":"6bd1576a-e467-440f-aff2-c72956e0823a","system_id":"levelo_inurba_marseille","lat":43.30435,"lon":5.38894,"is_reserved":false,"is_disabled":false,"rental_uris":{"android":"levelo://app?vid=6bd1576a-e467-440f-aff2-c72956e0823a","ios":"levelo://app?vid=6bd1576a-e467-440f-aff2-c72956e0823a"},"vehicle_type_id":"4","last_reported":1726258157,"current_range_meters":16000,"station_id":"ce4bgk12rcd13ifvqbi0","pricing_plan_id":"cebpf4jnsgd1na2vs0mg"},{"bike_id":"dc99632a-5b6e-4d86-8a4a-1db831cc2b54","system_id":"levelo_inurba_marseille","lat":43.30284,"lon":5.37695,"is_reserved":false,"is_disabled":false,"rental_uris":{"android":"levelo://app?vid=dc99632a-5b6e-4d86-8a4a-1db831cc2b54","ios":"levelo://app?vid=dc99632a-5b6e-4d86-8a4a-1db831cc2b54"},"vehicle_type_id":"4","last_reported":1726258157,"current_range_meters":16800,"station_id":"ce4bguh2rcd13ifvqcj0","pricing_plan_id":"cebpf4jnsgd1na2vs0mg"},{"bike_id":"9e6b05d9-5b9e-4e8c-a7ed-a6aa23fe9a42","system_id":"levelo_inurba_marseille","lat":43.28608,"lon":5.351,"is_reserved":false,"is_disabled":false,"rental_uris":{"android":"levelo://app?vid=9e6b05d9-5b9e-4e8c-a7ed-a6aa23fe9a42","ios":"levelo://app?vid=9e6b05d9-5b9e-4e8c-a7ed-a6aa23fe9a42"},"vehicle_type_id":"4","last_reported":1726258157,"current_range_meters":31200,"station_id":"ce4bhch2rcd13ifvqeug","pricing_plan_id":"cebpf4jnsgd1na2vs0mg"},{"bike_id":"73bd3340-eb9d-4374-853d-19dbe7e11810","system_id":"levelo_inurba_marseille","lat":43.24651,"lon":5.38901,"is_reserved":false,"is_disabled":false,"rental_uris":{"android":"levelo://app?vid=73bd3340-eb9d-4374-853d-19dbe7e11810","ios":"levelo://app?vid=73bd3340-eb9d-4374-853d-19dbe7e11810"},"vehicle_type_id":"4","last_reported":1726258157,"current_range_meters":14000,"station_id":"ce4bhg12rcd13ifvqf60","pricing_plan_id":"cebpf4jnsgd1na2vs0mg"},{"bike_id":"3d78c845-f39e-4ce6-b5cf-e9fc7768b9b1","system_id":"levelo_inurba_marseille","lat":43.29522,"lon":5.39045,"is_reserved":false,"is_disabled":false,"rental_uris":{"android":"levelo://app?vid=3d78c845-f39e-4ce6-b5cf-e9fc7768b9b1","ios":"levelo://app?vid=3d78c845-f39e-4ce6-b5cf-e9fc7768b9b1"},"vehicle_type_id":"4","last_reported":1726258157,"current_range_meters":24800,"station_id":"ce4bh3p2rcd13ifvqdp0","pricing_plan_id":"cebpf4jnsgd1na2vs0mg"},{"bike_id":"c2f97207-3c28-4fdc-982d-e06641e3926c","system_id":"levelo_inurba_marseille","lat":43.29258,"lon":5.38452,"is_reserved":false,"is_disabled":false,"rental_uris":{"android":"levelo://app?vid=c2f97207-3c28-4fdc-982d-e06641e3926c","ios":"levelo://app?vid=c2f97207-3c28-4fdc-982d-e06641e3926c"},"vehicle_type_id":"4","last_reported":1726258157,"current_range_meters":32400,"station_id":"ce4bh692rcd13ifvqea0","pricing_plan_id":"cebpf4jnsgd1na2vs0mg"},{"bike_id":"60d5bda9-f640-405a-935d-62d1314e50fa","system_id":"levelo_inurba_marseille","lat":43.23966,"lon":5.36634,"is_reserved":false,"is_disabled":false,"rental_uris":{"android":"levelo://app?vid=60d5bda9-f640-405a-935d-62d1314e50fa","ios":"levelo://app?vid=60d5bda9-f640-405a-935d-62d1314e50fa"},"vehicle_type_id":"4","last_reported":1726258157,"current_range_meters":26000,"station_id":"ce4bhi12rcd13ifvqfp0","pricing_plan_id":"cebpf4jnsgd1na2vs0mg"},{"bike_id":"8d569a04-84e8-4c81-b2ee-40bf9568ebcd","system_id":"levelo_inurba_marseille","lat":43.27996,"lon":5.4001,"is_reserved":false,"is_disabled":false,"rental_uris":{"android":"levelo://app?vid=8d569a04-84e8-4c81-b2ee-40bf9568ebcd","ios":"levelo://app?vid=8d569a04-84e8-4c81-b2ee-40bf9568ebcd"},"vehicle_type_id":"4","last_reported":1726258157,"current_range_meters":16800,"station_id":"ce4bho92rcd13ifvqh4g","pricing_plan_id":"cebpf4jnsgd1na2vs0mg"},{"bike_id":"51efaa28-be78-438d-9593-a5c65646c0fd","system_id":"levelo_inurba_marseille","lat":43.25933,"lon":5.4091,"is_reserved":false,"is_disabled":false,"rental_uris":{"android":"levelo://app?vid=51efaa28-be78-438d-9593-a5c65646c0fd","ios":"levelo://app?vid=51efaa28-be78-438d-9593-a5c65646c0fd"},"vehicle_type_id":"4","last_reported":1726258157,"current_range_meters":38000,"station_id":"ce4bhm92rcd13ifvqglg","pricing_plan_id":"cebpf4jnsgd1na2vs0mg"},{"bike_id":"f9a39468-2b08-44ae-a05f-08c1a633f6c7","system_id":"levelo_inurba_marseille","lat":43.26206,"lon":5.37447,"is_reserved":false,"is_disabled":false,"rental_uris":{"android":"levelo://app?vid=f9a39468-2b08-44ae-a05f-08c1a633f6c7","ios":"levelo://app?vid=f9a39468-2b08-44ae-a05f-08c1a633f6c7"},"vehicle_type_id":"4","last_reported":1726258157,"current_range_meters":38800,"station_id":"ce4bhgp2rcd13ifvqfc0","pricing_plan_id":"cebpf4jnsgd1na2vs0mg"},{"bike_id":"2dab5e79-19eb-4cde-b219-3fbf7d01979c","system_id":"levelo_inurba_marseille","lat":43.286591,"lon":5.385932,"is_reserved":false,"is_disabled":false,"rental_uris":{"android":"levelo://app?vid=2dab5e79-19eb-4cde-b219-3fbf7d01979c","ios":"levelo://app?vid=2dab5e79-19eb-4cde-b219-3fbf7d01979c"},"vehicle_type_id":"4","last_reported":1726258157,"current_range_meters":34800,"station_id":"ce4bhh92rcd13ifvqfi0","pricing_plan_id":"cebpf4jnsgd1na2vs0mg"},{"bike_id":"b3cc45a5-2045-4ba0-8276-a59b84a5badc","system_id":"levelo_inurba_marseille","lat":43.26927,"lon":5.38913,"is_reserved":false,"is_disabled":false,"rental_uris":{"android":"levelo://app?vid=b3cc45a5-2045-4ba0-8276-a59b84a5badc","ios":"levelo://app?vid=b3cc45a5-2045-4ba0-8276-a59b84a5badc"},"vehicle_type_id":"4","last_reported":1726258157,"current_range_meters":4000,"station_id":"ce4bhhh2rcd13ifvqfl0","pricing_plan_id":"cebpf4jnsgd1na2vs0mg"},{"bike_id":"1238613a-5efd-4b1b-b7cc-529d0a2a4cc8","system_id":"levelo_inurba_marseille","lat":43.28364,"lon":5.3863,"is_reserved":false,"is_disabled":false,"rental_uris":{"android":"levelo://app?vid=1238613a-5efd-4b1b-b7cc-529d0a2a4cc8","ios":"levelo://app?vid=1238613a-5efd-4b1b-b7cc-529d0a2a4cc8"},"vehicle_type_id":"4","last_reported":1726258157,"current_range_meters":27600,"station_id":"ce4bh492rcd13ifvqdvg","pricing_plan_id":"cebpf4jnsgd1na2vs0mg"},{"bike_id":"2b516ddd-0555-4101-9164-390b058c5056","system_id":"levelo_inurba_marseille","lat":43.31325,"lon":5.39689,"is_reserved":false,"is_disabled":false,"rental_uris":{"android":"levelo://app?vid=2b516ddd-0555-4101-9164-390b058c5056","ios":"levelo://app?vid=2b516ddd-0555-4101-9164-390b058c5056"},"vehicle_type_id":"4","last_reported":1726258157,"current_range_meters":20000,"station_id":"ce4bgvp2rcd13ifvqcu0","pricing_plan_id":"cebpf4jnsgd1na2vs0mg"},{"bike_id":"11988caa-a886-4ea2-ba8c-8dd2ae35aa45","system_id":"levelo_inurba_marseille","lat":43.26938,"lon":5.40251,"is_reserved":false,"is_disabled":false,"rental_uris":{"android":"levelo://app?vid=11988caa-a886-4ea2-ba8c-8dd2ae35aa45","ios":"levelo://app?vid=11988caa-a886-4ea2-ba8c-8dd2ae35aa45"},"vehicle_type_id":"4","last_reported":1726258157,"current_range_meters":38000,"station_id":"cjm6bp8fraef2m0cb0m0","pricing_plan_id":"cebpf4jnsgd1na2vs0mg"},{"bike_id":"b79683d8-47ba-4a25-b36b-46efa2a28bce","system_id":"levelo_inurba_marseille","lat":43.27058,"lon":5.40263,"is_reserved":false,"is_disabled":false,"rental_uris":{"android":"levelo://app?vid=b79683d8-47ba-4a25-b36b-46efa2a28bce","ios":"levelo://app?vid=b79683d8-47ba-4a25-b36b-46efa2a28bce"},"vehicle_type_id":"4","last_reported":1726258157,"current_range_meters":29600,"station_id":"ce4bhk92rcd13ifvqgc0","pricing_plan_id":"cebpf4jnsgd1na2vs0mg"},{"bike_id":"bff032a9-6ba6-4b48-98f0-bbccbb337451","system_id":"levelo_inurba_marseille","lat":43.29042,"lon":5.35918,"is_reserved":false,"is_disabled":false,"rental_uris":{"android":"levelo://app?vid=bff032a9-6ba6-4b48-98f0-bbccbb337451","ios":"levelo://app?vid=bff032a9-6ba6-4b48-98f0-bbccbb337451"},"vehicle_type_id":"4","last_reported":1726258157,"current_range_meters":20400,"station_id":"ce4bha92rcd13ifvqeg0","pricing_plan_id":"cebpf4jnsgd1na2vs0mg"},{"bike_id":"2d9f6a36-1e8d-46ce-8819-b2bb04006d43","system_id":"levelo_inurba_marseille","lat":43.25581,"lon":5.38233,"is_reserved":false,"is_disabled":false,"rental_uris":{"android":"levelo://app?vid=2d9f6a36-1e8d-46ce-8819-b2bb04006d43","ios":"levelo://app?vid=2d9f6a36-1e8d-46ce-8819-b2bb04006d43"},"vehicle_type_id":"4","last_reported":1726258157,"current_range_meters":28000,"station_id":"ce4bhih2rcd13ifvqfs0","pricing_plan_id":"cebpf4jnsgd1na2vs0mg"},{"bike_id":"75c35499-0de6-41a0-acf5-7c9b58381038","system_id":"levelo_inurba_marseille","lat":43.23174,"lon":5.39988,"is_reserved":false,"is_disabled":false,"rental_uris":{"android":"levelo://app?vid=75c35499-0de6-41a0-acf5-7c9b58381038","ios":"levelo://app?vid=75c35499-0de6-41a0-acf5-7c9b58381038"},"vehicle_type_id":"4","last_reported":1726258157,"current_range_meters":35600,"station_id":"ce4bhn12rcd13ifvqgqg","pricing_plan_id":"cebpf4jnsgd1na2vs0mg"},{"bike_id":"b4686e0e-cd07-4cae-b986-acad7c72bdf1","system_id":"levelo_inurba_marseille","lat":43.26944,"lon":5.40259,"is_reserved":false,"is_disabled":false,"rental_uris":{"android":"levelo://app?vid=b4686e0e-cd07-4cae-b986-acad7c72bdf1","ios":"levelo://app?vid=b4686e0e-cd07-4cae-b986-acad7c72bdf1"},"vehicle_type_id":"4","last_reported":1726258157,"current_range_meters":17600,"station_id":"cjm6bp8fraef2m0cb0m0","pricing_plan_id":"cebpf4jnsgd1na2vs0mg"},{"bike_id":"f00e7f33-c07f-4415-9c23-c89bf67ffea9","system_id":"levelo_inurba_marseille","lat":43.24725,"lon":5.39248,"is_reserved":false,"is_disabled":false,"rental_uris":{"android":"levelo://app?vid=f00e7f33-c07f-4415-9c23-c89bf67ffea9","ios":"levelo://app?vid=f00e7f33-c07f-4415-9c23-c89bf67ffea9"},"vehicle_type_id":"4","last_reported":1726258157,"current_range_meters":17600,"station_id":"","pricing_plan_id":"cebpf4jnsgd1na2vs0mg"},{"bike_id":"a0be754b-1504-4f97-ab7a-2d159ce9f101","system_id":"levelo_inurba_marseille","lat":43.26561,"lon":5.39014,"is_reserved":false,"is_disabled":false,"rental_uris":{"android":"levelo://app?vid=a0be754b-1504-4f97-ab7a-2d159ce9f101","ios":"levelo://app?vid=a0be754b-1504-4f97-ab7a-2d159ce9f101"},"vehicle_type_id":"4","last_reported":1726258157,"current_range_meters":27200,"station_id":"ce4bhe12rcd13ifvqf30","pricing_plan_id":"cebpf4jnsgd1na2vs0mg"},{"bike_id":"0200e915-f816-4757-ad7c-c8320137b243","system_id":"levelo_inurba_marseille","lat":43.33022,"lon":5.39044,"is_reserved":false,"is_disabled":false,"rental_uris":{"android":"levelo://app?vid=0200e915-f816-4757-ad7c-c8320137b243","ios":"levelo://app?vid=0200e915-f816-4757-ad7c-c8320137b243"},"vehicle_type_id":"4","last_reported":1726258157,"current_range_meters":16800,"station_id":"ce4bhr92rcd13ifvqhrg","pricing_plan_id":"cebpf4jnsgd1na2vs0mg"},{"bike_id":"c0455ab4-5e8c-4f7b-9d77-314d600954dc","system_id":"levelo_inurba_marseille","lat":43.27757,"lon":5.35591,"is_reserved":false,"is_disabled":false,"rental_uris":{"android":"levelo://app?vid=c0455ab4-5e8c-4f7b-9d77-314d600954dc","ios":"levelo://app?vid=c0455ab4-5e8c-4f7b-9d77-314d600954dc"},"vehicle_type_id":"4","last_reported":1726258157,"current_range_meters":6400,"station_id":"","pricing_plan_id":"cebpf4jnsgd1na2vs0mg"},{"bike_id":"4593efc2-84bd-44ed-9d11-4e2acecb1107","system_id":"levelo_inurba_marseille","lat":43.2952,"lon":5.39035,"is_reserved":false,"is_disabled":false,"rental_uris":{"android":"levelo://app?vid=4593efc2-84bd-44ed-9d11-4e2acecb1107","ios":"levelo://app?vid=4593efc2-84bd-44ed-9d11-4e2acecb1107"},"vehicle_type_id":"4","last_reported":1726258157,"current_range_meters":39200,"station_id":"ce4bh3p2rcd13ifvqdp0","pricing_plan_id":"cebpf4jnsgd1na2vs0mg"},{"bike_id":"91d155a1-0e95-42f4-9cf2-24e586735a13","system_id":"levelo_inurba_marseille","lat":43.33718,"lon":5.39184,"is_reserved":false,"is_disabled":false,"rental_uris":{"android":"levelo://app?vid=91d155a1-0e95-42f4-9cf2-24e586735a13","ios":"levelo://app?vid=91d155a1-0e95-42f4-9cf2-24e586735a13"},"vehicle_type_id":"4","last_reported":1726258157,"current_range_meters":27600,"station_id":"ce4bhr92rcd13ifvqhsg","pricing_plan_id":"cebpf4jnsgd1na2vs0mg"},{"bike_id":"19cb6015-d35b-4ea8-bb63-e19547cc4f55","system_id":"levelo_inurba_marseille","lat":43.31332,"lon":5.397,"is_reserved":false,"is_disabled":false,"rental_uris":{"android":"levelo://app?vid=19cb6015-d35b-4ea8-bb63-e19547cc4f55","ios":"levelo://app?vid=19cb6015-d35b-4ea8-bb63-e19547cc4f55"},"vehicle_type_id":"4","last_reported":1726258157,"current_range_meters":30000,"station_id":"ce4bgvp2rcd13ifvqcu0","pricing_plan_id":"cebpf4jnsgd1na2vs0mg"},{"bike_id":"d801c34f-7ee0-4d0b-86b0-fbc11993d083","system_id":"levelo_inurba_marseille","lat":43.3148,"lon":5.38932,"is_reserved":false,"is_disabled":false,"rental_uris":{"android":"levelo://app?vid=d801c34f-7ee0-4d0b-86b0-fbc11993d083","ios":"levelo://app?vid=d801c34f-7ee0-4d0b-86b0-fbc11993d083"},"vehicle_type_id":"4","last_reported":1726258157,"current_range_meters":3600,"station_id":"","pricing_plan_id":"cebpf4jnsgd1na2vs0mg"},{"bike_id":"af2fd175-c7c0-4214-8389-0e195761e817","system_id":"levelo_inurba_marseille","lat":43.33024,"lon":5.39042,"is_reserved":false,"is_disabled":false,"rental_uris":{"android":"levelo://app?vid=af2fd175-c7c0-4214-8389-0e195761e817","ios":"levelo://app?vid=af2fd175-c7c0-4214-8389-0e195761e817"},"vehicle_type_id":"4","last_reported":1726258157,"current_range_meters":9600,"station_id":"ce4bhr92rcd13ifvqhrg","pricing_plan_id":"cebpf4jnsgd1na2vs0mg"},{"bike_id":"9368e81d-9d41-40d8-9614-e043ff6b63f3","system_id":"levelo_inurba_marseille","lat":43.3136,"lon":5.38496,"is_reserved":false,"is_disabled":false,"rental_uris":{"android":"levelo://app?vid=9368e81d-9d41-40d8-9614-e043ff6b63f3","ios":"levelo://app?vid=9368e81d-9d41-40d8-9614-e043ff6b63f3"},"vehicle_type_id":"4","last_reported":1726258157,"current_range_meters":23200,"station_id":"ce4bgt92rcd13ifvqcf0","pricing_plan_id":"cebpf4jnsgd1na2vs0mg"},{"bike_id":"d018881e-643b-4918-afc3-bfebfc254d40","system_id":"levelo_inurba_marseille","lat":43.30588,"lon":5.39351,"is_reserved":false,"is_disabled":false,"rental_uris":{"android":"levelo://app?vid=d018881e-643b-4918-afc3-bfebfc254d40","ios":"levelo://app?vid=d018881e-643b-4918-afc3-bfebfc254d40"},"vehicle_type_id":"4","last_reported":1726258157,"current_range_meters":35200,"station_id":"ce4bh0p2rcd13ifvqd80","pricing_plan_id":"cebpf4jnsgd1na2vs0mg"},{"bike_id":"a8408bc0-1ad0-4261-92e7-4324637d7c82","system_id":"levelo_inurba_marseille","lat":43.29004,"lon":5.35622,"is_reserved":false,"is_disabled":false,"rental_uris":{"android":"levelo://app?vid=a8408bc0-1ad0-4261-92e7-4324637d7c82","ios":"levelo://app?vid=a8408bc0-1ad0-4261-92e7-4324637d7c82"},"vehicle_type_id":"4","last_reported":1726258157,"current_range_meters":38800,"station_id":"ce4bhb92rcd13ifvqen0","pricing_plan_id":"cebpf4jnsgd1na2vs0mg"},{"bike_id":"0d9f035c-8e47-426d-8593-e2bc7f05f235","system_id":"levelo_inurba_marseille","lat":43.30444,"lon":5.36515,"is_reserved":false,"is_disabled":false,"rental_uris":{"android":"levelo://app?vid=0d9f035c-8e47-426d-8593-e2bc7f05f235","ios":"levelo://app?vid=0d9f035c-8e47-426d-8593-e2bc7f05f235"},"vehicle_type_id":"4","last_reported":1726258157,"current_range_meters":11600,"station_id":"","pricing_plan_id":"cebpf4jnsgd1na2vs0mg"},{"bike_id":"e4687fef-cd05-471c-b786-02272304b5b9","system_id":"levelo_inurba_marseille","lat":43.26212,"lon":5.37436,"is_reserved":false,"is_disabled":false,"rental_uris":{"android":"levelo://app?vid=e4687fef-cd05-471c-b786-02272304b5b9","ios":"levelo://app?vid=e4687fef-cd05-471c-b786-02272304b5b9"},"vehicle_type_id":"4","last_reported":1726258157,"current_range_meters":24800,"station_id":"ce4bhgp2rcd13ifvqfc0","pricing_plan_id":"cebpf4jnsgd1na2vs0mg"},{"bike_id":"3bb60f1b-c4e8-40d3-90c7-c47205e69cad","system_id":"levelo_inurba_marseille","lat":43.25502,"lon":5.37642,"is_reserved":false,"is_disabled":false,"rental_uris":{"android":"levelo://app?vid=3bb60f1b-c4e8-40d3-90c7-c47205e69cad","ios":"levelo://app?vid=3bb60f1b-c4e8-40d3-90c7-c47205e69cad"},"vehicle_type_id":"4","last_reported":1726258157,"current_range_meters":11200,"station_id":"ce4bhh12rcd13ifvqff0","pricing_plan_id":"cebpf4jnsgd1na2vs0mg"},{"bike_id":"02af0ca7-8546-429d-a726-6e915b8e6d32","system_id":"levelo_inurba_marseille","lat":43.30935,"lon":5.40141,"is_reserved":false,"is_disabled":false,"rental_uris":{"android":"levelo://app?vid=02af0ca7-8546-429d-a726-6e915b8e6d32","ios":"levelo://app?vid=02af0ca7-8546-429d-a726-6e915b8e6d32"},"vehicle_type_id":"4","last_reported":1726258157,"current_range_meters":36800,"station_id":"ce4bgvp2rcd13ifvqct0","pricing_plan_id":"cebpf4jnsgd1na2vs0mg"},{"bike_id":"64712d1f-4b2d-4cb5-ac24-8c714a562554","system_id":"levelo_inurba_marseille","lat":43.30894,"lon":5.37184,"is_reserved":false,"is_disabled":false,"rental_uris":{"android":"levelo://app?vid=64712d1f-4b2d-4cb5-ac24-8c714a562554","ios":"levelo://app?vid=64712d1f-4b2d-4cb5-ac24-8c714a562554"},"vehicle_type_id":"4","last_reported":1726258157,"current_range_meters":9200,"station_id":"ce4bguh2rcd13ifvqckg","pricing_plan_id":"cebpf4jnsgd1na2vs0mg"},{"bike_id":"d57407f8-bf56-4fd3-a5c0-9daedd1527be","system_id":"levelo_inurba_marseille","lat":43.31263,"lon":5.40187,"is_reserved":false,"is_disabled":false,"rental_uris":{"android":"levelo://app?vid=d57407f8-bf56-4fd3-a5c0-9daedd1527be","ios":"levelo://app?vid=d57407f8-bf56-4fd3-a5c0-9daedd1527be"},"vehicle_type_id":"4","last_reported":1726258157,"current_range_meters":10000,"station_id":"ce4bh092rcd13ifvqd30","pricing_plan_id":"cebpf4jnsgd1na2vs0mg"},{"bike_id":"552ccea4-a0ab-4fa2-9015-1ea8da64cd61","system_id":"levelo_inurba_marseille","lat":43.25572,"lon":5.38235,"is_reserved":false,"is_disabled":false,"rental_uris":{"android":"levelo://app?vid=552ccea4-a0ab-4fa2-9015-1ea8da64cd61","ios":"levelo://app?vid=552ccea4-a0ab-4fa2-9015-1ea8da64cd61"},"vehicle_type_id":"4","last_reported":1726258157,"current_range_meters":8400,"station_id":"ce4bhih2rcd13ifvqfs0","pricing_plan_id":"cebpf4jnsgd1na2vs0mg"},{"bike_id":"7c0ae92f-06d0-4ab8-bbd8-831a5ec57f08","system_id":"levelo_inurba_marseille","lat":43.24659,"lon":5.38583,"is_reserved":false,"is_disabled":false,"rental_uris":{"android":"levelo://app?vid=7c0ae92f-06d0-4ab8-bbd8-831a5ec57f08","ios":"levelo://app?vid=7c0ae92f-06d0-4ab8-bbd8-831a5ec57f08"},"vehicle_type_id":"4","last_reported":1726258157,"current_range_meters":2800,"station_id":"","pricing_plan_id":"cebpf4jnsgd1na2vs0mg"},{"bike_id":"0a102b64-fdd4-40bb-aaa4-21447b91a05c","system_id":"levelo_inurba_marseille","lat":43.26946,"lon":5.38641,"is_reserved":false,"is_disabled":false,"rental_uris":{"android":"levelo://app?vid=0a102b64-fdd4-40bb-aaa4-21447b91a05c","ios":"levelo://app?vid=0a102b64-fdd4-40bb-aaa4-21447b91a05c"},"vehicle_type_id":"4","last_reported":1726258157,"current_range_meters":27600,"station_id":"ce4bhh92rcd13ifvqfh0","pricing_plan_id":"cebpf4jnsgd1na2vs0mg"},{"bike_id":"27f005c7-f6dd-4046-a35f-79f6772dd8b7","system_id":"levelo_inurba_marseille","lat":43.29403,"lon":5.38602,"is_reserved":false,"is_disabled":false,"rental_uris":{"android":"levelo://app?vid=27f005c7-f6dd-4046-a35f-79f6772dd8b7","ios":"levelo://app?vid=27f005c7-f6dd-4046-a35f-79f6772dd8b7"},"vehicle_type_id":"4","last_reported":1726258157,"current_range_meters":16000,"station_id":"ce4bh2h2rcd13ifvqdh0","pricing_plan_id":"cebpf4jnsgd1na2vs0mg"},{"bike_id":"c2fffdea-fea6-4584-bd0b-df4cf5a5c761","system_id":"levelo_inurba_marseille","lat":43.24668,"lon":5.38171,"is_reserved":false,"is_disabled":false,"rental_uris":{"android":"levelo://app?vid=c2fffdea-fea6-4584-bd0b-df4cf5a5c761","ios":"levelo://app?vid=c2fffdea-fea6-4584-bd0b-df4cf5a5c761"},"vehicle_type_id":"4","last_reported":1726258157,"current_range_meters":8400,"station_id":"ce4bhih2rcd13ifvqfr0","pricing_plan_id":"cebpf4jnsgd1na2vs0mg"},{"bike_id":"8bd5b436-6eb7-44b3-b7b2-efd620e858e4","system_id":"levelo_inurba_marseille","lat":43.30215,"lon":5.3872,"is_reserved":false,"is_disabled":false,"rental_uris":{"android":"levelo://app?vid=8bd5b436-6eb7-44b3-b7b2-efd620e858e4","ios":"levelo://app?vid=8bd5b436-6eb7-44b3-b7b2-efd620e858e4"},"vehicle_type_id":"4","last_reported":1726258157,"current_range_meters":10000,"station_id":"ce4bghh2rcd13ifvqb60","pricing_plan_id":"cebpf4jnsgd1na2vs0mg"},{"bike_id":"82c0c6a5-b733-407b-8add-3604b3233b0c","system_id":"levelo_inurba_marseille","lat":43.30909,"lon":5.36855,"is_reserved":false,"is_disabled":false,"rental_uris":{"android":"levelo://app?vid=82c0c6a5-b733-407b-8add-3604b3233b0c","ios":"levelo://app?vid=82c0c6a5-b733-407b-8add-3604b3233b0c"},"vehicle_type_id":"4","last_reported":1726258157,"current_range_meters":38000,"station_id":"ce4bgn92rcd13ifvqbvg","pricing_plan_id":"cebpf4jnsgd1na2vs0mg"},{"bike_id":"53a2d874-293d-47cc-bdbd-a03b3468623b","system_id":"levelo_inurba_marseille","lat":43.299,"lon":5.43682,"is_reserved":false,"is_disabled":false,"rental_uris":{"android":"levelo://app?vid=53a2d874-293d-47cc-bdbd-a03b3468623b","ios":"levelo://app?vid=53a2d874-293d-47cc-bdbd-a03b3468623b"},"vehicle_type_id":"4","last_reported":1726258157,"current_range_meters":12000,"station_id":"ce4bhpp2rcd13ifvqhfg","pricing_plan_id":"cebpf4jnsgd1na2vs0mg"},{"bike_id":"4afb8b00-be3a-4d15-9b8b-47916e625762","system_id":"levelo_inurba_marseille","lat":43.28527,"lon":5.4424,"is_reserved":false,"is_disabled":false,"rental_uris":{"android":"levelo://app?vid=4afb8b00-be3a-4d15-9b8b-47916e625762","ios":"levelo://app?vid=4afb8b00-be3a-4d15-9b8b-47916e625762"},"vehicle_type_id":"4","last_reported":1726258157,"current_range_meters":26000,"station_id":"","pricing_plan_id":"cebpf4jnsgd1na2vs0mg"},{"bike_id":"07fd60ee-19ad-432a-b83c-321f2d4b57e8","system_id":"levelo_inurba_marseille","lat":43.28697,"lon":5.3739,"is_reserved":false,"is_disabled":false,"rental_uris":{"android":"levelo://app?vid=07fd60ee-19ad-432a-b83c-321f2d4b57e8","ios":"levelo://app?vid=07fd60ee-19ad-432a-b83c-321f2d4b57e8"},"vehicle_type_id":"4","last_reported":1726258157,"current_range_meters":16000,"station_id":"ce4bh3p2rcd13ifvqdq0","pricing_plan_id":"cebpf4jnsgd1na2vs0mg"},{"bike_id":"bb7acf50-b6bc-4b2d-adf4-833abc23b24c","system_id":"levelo_inurba_marseille","lat":43.23201,"lon":5.35547,"is_reserved":false,"is_disabled":false,"rental_uris":{"android":"levelo://app?vid=bb7acf50-b6bc-4b2d-adf4-833abc23b24c","ios":"levelo://app?vid=bb7acf50-b6bc-4b2d-adf4-833abc23b24c"},"vehicle_type_id":"4","last_reported":1726258157,"current_range_meters":40000,"station_id":"ce4bhu92rcd13ifvqi70","pricing_plan_id":"cebpf4jnsgd1na2vs0mg"},{"bike_id":"2e685993-f9df-44c3-8cc9-328c7e8cecbc","system_id":"levelo_inurba_marseille","lat":43.29533,"lon":5.37501,"is_reserved":false,"is_disabled":false,"rental_uris":{"android":"levelo://app?vid=2e685993-f9df-44c3-8cc9-328c7e8cecbc","ios":"levelo://app?vid=2e685993-f9df-44c3-8cc9-328c7e8cecbc"},"vehicle_type_id":"4","last_reported":1726258157,"current_range_meters":34800,"station_id":"ce4bgkp2rcd13ifvqbmg","pricing_plan_id":"cebpf4jnsgd1na2vs0mg"},{"bike_id":"bc8be1fd-7bee-49c5-817c-184bdd69b536","system_id":"levelo_inurba_marseille","lat":43.2738,"lon":5.41951,"is_reserved":false,"is_disabled":false,"rental_uris":{"android":"levelo://app?vid=bc8be1fd-7bee-49c5-817c-184bdd69b536","ios":"levelo://app?vid=bc8be1fd-7bee-49c5-817c-184bdd69b536"},"vehicle_type_id":"4","last_reported":1726258157,"current_range_meters":28800,"station_id":"","pricing_plan_id":"cebpf4jnsgd1na2vs0mg"},{"bike_id":"ca4ec1a1-d3bb-4aed-94af-89eae268f3dd","system_id":"levelo_inurba_marseille","lat":43.29263,"lon":5.38446,"is_reserved":false,"is_disabled":false,"rental_uris":{"android":"levelo://app?vid=ca4ec1a1-d3bb-4aed-94af-89eae268f3dd","ios":"levelo://app?vid=ca4ec1a1-d3bb-4aed-94af-89eae268f3dd"},"vehicle_type_id":"4","last_reported":1726258157,"current_range_meters":38800,"station_id":"ce4bh692rcd13ifvqea0","pricing_plan_id":"cebpf4jnsgd1na2vs0mg"},{"bike_id":"67d15022-cd3b-48b5-ba3a-7d7504290205","system_id":"levelo_inurba_marseille","lat":43.31121,"lon":5.37762,"is_reserved":false,"is_disabled":false,"rental_uris":{"android":"levelo://app?vid=67d15022-cd3b-48b5-ba3a-7d7504290205","ios":"levelo://app?vid=67d15022-cd3b-48b5-ba3a-7d7504290205"},"vehicle_type_id":"4","last_reported":1726258157,"current_range_meters":20800,"station_id":"ce4bgt92rcd13ifvqcg0","pricing_plan_id":"cebpf4jnsgd1na2vs0mg"},{"bike_id":"d60a5e34-444f-438b-9b1b-b44df5776e38","system_id":"levelo_inurba_marseille","lat":43.29796,"lon":5.38096,"is_reserved":false,"is_disabled":false,"rental_uris":{"android":"levelo://app?vid=d60a5e34-444f-438b-9b1b-b44df5776e38","ios":"levelo://app?vid=d60a5e34-444f-438b-9b1b-b44df5776e38"},"vehicle_type_id":"4","last_reported":1726258157,"current_range_meters":26000,"station_id":"ce4bgip2rcd13ifvqbb0","pricing_plan_id":"cebpf4jnsgd1na2vs0mg"},{"bike_id":"af1584c3-a638-4e40-8235-ffb05c784e48","system_id":"levelo_inurba_marseille","lat":43.28004,"lon":5.40008,"is_reserved":false,"is_disabled":false,"rental_uris":{"android":"levelo://app?vid=af1584c3-a638-4e40-8235-ffb05c784e48","ios":"levelo://app?vid=af1584c3-a638-4e40-8235-ffb05c784e48"},"vehicle_type_id":"4","last_reported":1726258157,"current_range_meters":24400,"station_id":"ce4bho92rcd13ifvqh4g","pricing_plan_id":"cebpf4jnsgd1na2vs0mg"},{"bike_id":"7cd60492-86c1-4981-ad0d-e0479fb4bf13","system_id":"levelo_inurba_marseille","lat":43.29527,"lon":5.38543,"is_reserved":false,"is_disabled":false,"rental_uris":{"android":"levelo://app?vid=7cd60492-86c1-4981-ad0d-e0479fb4bf13","ios":"levelo://app?vid=7cd60492-86c1-4981-ad0d-e0479fb4bf13"},"vehicle_type_id":"4","last_reported":1726258157,"current_range_meters":11200,"station_id":"ce4bgih2rcd13ifvqba0","pricing_plan_id":"cebpf4jnsgd1na2vs0mg"},{"bike_id":"6da9e460-f0cd-43d6-9f6b-761aceccaf26","system_id":"levelo_inurba_marseille","lat":43.24648,"lon":5.38893,"is_reserved":false,"is_disabled":false,"rental_uris":{"android":"levelo://app?vid=6da9e460-f0cd-43d6-9f6b-761aceccaf26","ios":"levelo://app?vid=6da9e460-f0cd-43d6-9f6b-761aceccaf26"},"vehicle_type_id":"4","last_reported":1726258157,"current_range_meters":27600,"station_id":"ce4bhg12rcd13ifvqf60","pricing_plan_id":"cebpf4jnsgd1na2vs0mg"},{"bike_id":"f5ce7a0e-bae9-46bf-9de8-007491c66701","system_id":"levelo_inurba_marseille","lat":43.34147,"lon":5.40897,"is_reserved":false,"is_disabled":false,"rental_uris":{"android":"levelo://app?vid=f5ce7a0e-bae9-46bf-9de8-007491c66701","ios":"levelo://app?vid=f5ce7a0e-bae9-46bf-9de8-007491c66701"},"vehicle_type_id":"4","last_reported":1726258157,"current_range_meters":37600,"station_id":"ce4bhqh2rcd13ifvqhlg","pricing_plan_id":"cebpf4jnsgd1na2vs0mg"},{"bike_id":"a556139b-e56c-479b-b4cc-03b2112f3a29","system_id":"levelo_inurba_marseille","lat":43.2808,"lon":5.39657,"is_reserved":false,"is_disabled":false,"rental_uris":{"android":"levelo://app?vid=a556139b-e56c-479b-b4cc-03b2112f3a29","ios":"levelo://app?vid=a556139b-e56c-479b-b4cc-03b2112f3a29"},"vehicle_type_id":"4","last_reported":1726258157,"current_range_meters":9200,"station_id":"ce4bho12rcd13ifvqh2g","pricing_plan_id":"cebpf4jnsgd1na2vs0mg"},{"bike_id":"81f1a965-ff8b-4d74-9682-ff18567684f9","system_id":"levelo_inurba_marseille","lat":43.33028,"lon":5.39034,"is_reserved":false,"is_disabled":false,"rental_uris":{"android":"levelo://app?vid=81f1a965-ff8b-4d74-9682-ff18567684f9","ios":"levelo://app?vid=81f1a965-ff8b-4d74-9682-ff18567684f9"},"vehicle_type_id":"4","last_reported":1726258157,"current_range_meters":6400,"station_id":"ce4bhr92rcd13ifvqhrg","pricing_plan_id":"cebpf4jnsgd1na2vs0mg"},{"bike_id":"06444ed7-cf13-4c1e-9077-801c8a8ef5c3","system_id":"levelo_inurba_marseille","lat":43.29512,"lon":5.39046,"is_reserved":false,"is_disabled":false,"rental_uris":{"android":"levelo://app?vid=06444ed7-cf13-4c1e-9077-801c8a8ef5c3","ios":"levelo://app?vid=06444ed7-cf13-4c1e-9077-801c8a8ef5c3"},"vehicle_type_id":"4","last_reported":1726258157,"current_range_meters":32000,"station_id":"ce4bh3p2rcd13ifvqdp0","pricing_plan_id":"cebpf4jnsgd1na2vs0mg"},{"bike_id":"c28ff0f1-1713-431a-bccf-4e7a21e8e39b","system_id":"levelo_inurba_marseille","lat":43.25501,"lon":5.37651,"is_reserved":false,"is_disabled":false,"rental_uris":{"android":"levelo://app?vid=c28ff0f1-1713-431a-bccf-4e7a21e8e39b","ios":"levelo://app?vid=c28ff0f1-1713-431a-bccf-4e7a21e8e39b"},"vehicle_type_id":"4","last_reported":1726258157,"current_range_meters":38800,"station_id":"ce4bhh12rcd13ifvqff0","pricing_plan_id":"cebpf4jnsgd1na2vs0mg"},{"bike_id":"0abebf1e-08a3-4d2a-bbc8-e7d0bc819487","system_id":"levelo_inurba_marseille","lat":43.29266,"lon":5.38442,"is_reserved":false,"is_disabled":false,"rental_uris":{"android":"levelo://app?vid=0abebf1e-08a3-4d2a-bbc8-e7d0bc819487","ios":"levelo://app?vid=0abebf1e-08a3-4d2a-bbc8-e7d0bc819487"},"vehicle_type_id":"4","last_reported":1726258157,"current_range_meters":4800,"station_id":"ce4bh692rcd13ifvqea0","pricing_plan_id":"cebpf4jnsgd1na2vs0mg"},{"bike_id":"c7b61b95-5e85-45ab-baf5-8b920da97983","system_id":"levelo_inurba_marseille","lat":43.2907,"lon":5.37172,"is_reserved":false,"is_disabled":false,"rental_uris":{"android":"levelo://app?vid=c7b61b95-5e85-45ab-baf5-8b920da97983","ios":"levelo://app?vid=c7b61b95-5e85-45ab-baf5-8b920da97983"},"vehicle_type_id":"4","last_reported":1726258157,"current_range_meters":14800,"station_id":"ce4bh5p2rcd13ifvqe4g","pricing_plan_id":"cebpf4jnsgd1na2vs0mg"},{"bike_id":"ffc5e4d0-2554-4da1-bc37-c3cf25c612bc","system_id":"levelo_inurba_marseille","lat":43.29513,"lon":5.39039,"is_reserved":false,"is_disabled":false,"rental_uris":{"android":"levelo://app?vid=ffc5e4d0-2554-4da1-bc37-c3cf25c612bc","ios":"levelo://app?vid=ffc5e4d0-2554-4da1-bc37-c3cf25c612bc"},"vehicle_type_id":"4","last_reported":1726258157,"current_range_meters":16000,"station_id":"ce4bh3p2rcd13ifvqdp0","pricing_plan_id":"cebpf4jnsgd1na2vs0mg"},{"bike_id":"d63b08fd-7716-422a-94e4-8f1dfff5bb11","system_id":"levelo_inurba_marseille","lat":43.28615,"lon":5.35097,"is_reserved":false,"is_disabled":false,"rental_uris":{"android":"levelo://app?vid=d63b08fd-7716-422a-94e4-8f1dfff5bb11","ios":"levelo://app?vid=d63b08fd-7716-422a-94e4-8f1dfff5bb11"},"vehicle_type_id":"4","last_reported":1726258157,"current_range_meters":37600,"station_id":"ce4bhch2rcd13ifvqeug","pricing_plan_id":"cebpf4jnsgd1na2vs0mg"},{"bike_id":"ec70d30b-37ec-4b5c-b10c-9617e30c7fa0","system_id":"levelo_inurba_marseille","lat":43.29897,"lon":5.36622,"is_reserved":false,"is_disabled":false,"rental_uris":{"android":"levelo://app?vid=ec70d30b-37ec-4b5c-b10c-9617e30c7fa0","ios":"levelo://app?vid=ec70d30b-37ec-4b5c-b10c-9617e30c7fa0"},"vehicle_type_id":"4","last_reported":1726258157,"current_range_meters":15200,"station_id":"","pricing_plan_id":"cebpf4jnsgd1na2vs0mg"},{"bike_id":"90f18f1b-bbec-4f70-820a-85f996fc2006","system_id":"levelo_inurba_marseille","lat":43.25492,"lon":5.37653,"is_reserved":false,"is_disabled":false,"rental_uris":{"android":"levelo://app?vid=90f18f1b-bbec-4f70-820a-85f996fc2006","ios":"levelo://app?vid=90f18f1b-bbec-4f70-820a-85f996fc2006"},"vehicle_type_id":"4","last_reported":1726258157,"current_range_meters":30000,"station_id":"ce4bhh12rcd13ifvqff0","pricing_plan_id":"cebpf4jnsgd1na2vs0mg"},{"bike_id":"bd3c92a5-5e91-4bca-ae3c-f0e3dfbb6d4f","system_id":"levelo_inurba_marseille","lat":43.26058,"lon":5.39393,"is_reserved":false,"is_disabled":false,"rental_uris":{"android":"levelo://app?vid=bd3c92a5-5e91-4bca-ae3c-f0e3dfbb6d4f","ios":"levelo://app?vid=bd3c92a5-5e91-4bca-ae3c-f0e3dfbb6d4f"},"vehicle_type_id":"4","last_reported":1726258157,"current_range_meters":15200,"station_id":"ce4bhh92rcd13ifvqfj0","pricing_plan_id":"cebpf4jnsgd1na2vs0mg"},{"bike_id":"415d3c4f-5242-4572-8d05-9e1bd45eae7f","system_id":"levelo_inurba_marseille","lat":43.2558,"lon":5.38235,"is_reserved":false,"is_disabled":false,"rental_uris":{"android":"levelo://app?vid=415d3c4f-5242-4572-8d05-9e1bd45eae7f","ios":"levelo://app?vid=415d3c4f-5242-4572-8d05-9e1bd45eae7f"},"vehicle_type_id":"4","last_reported":1726258157,"current_range_meters":31200,"station_id":"ce4bhih2rcd13ifvqfs0","pricing_plan_id":"cebpf4jnsgd1na2vs0mg"},{"bike_id":"f13d7826-b267-4133-aa0e-251169d87a13","system_id":"levelo_inurba_marseille","lat":43.28363,"lon":5.38627,"is_reserved":false,"is_disabled":false,"rental_uris":{"android":"levelo://app?vid=f13d7826-b267-4133-aa0e-251169d87a13","ios":"levelo://app?vid=f13d7826-b267-4133-aa0e-251169d87a13"},"vehicle_type_id":"4","last_reported":1726258157,"current_range_meters":16000,"station_id":"ce4bh492rcd13ifvqdvg","pricing_plan_id":"cebpf4jnsgd1na2vs0mg"},{"bike_id":"9378e46c-90ff-48e5-9112-f5aafd156a5f","system_id":"levelo_inurba_marseille","lat":43.2955,"lon":5.42285,"is_reserved":false,"is_disabled":false,"rental_uris":{"android":"levelo://app?vid=9378e46c-90ff-48e5-9112-f5aafd156a5f","ios":"levelo://app?vid=9378e46c-90ff-48e5-9112-f5aafd156a5f"},"vehicle_type_id":"4","last_reported":1726258157,"current_range_meters":28000,"station_id":"ce4bhph2rcd13ifvqhdg","pricing_plan_id":"cebpf4jnsgd1na2vs0mg"},{"bike_id":"0e32f225-b6c3-4685-b501-80f904b6c7d0","system_id":"levelo_inurba_marseille","lat":43.29031,"lon":5.37567,"is_reserved":false,"is_disabled":false,"rental_uris":{"android":"levelo://app?vid=0e32f225-b6c3-4685-b501-80f904b6c7d0","ios":"levelo://app?vid=0e32f225-b6c3-4685-b501-80f904b6c7d0"},"vehicle_type_id":"4","last_reported":1726258157,"current_range_meters":38400,"station_id":"ce4bh692rcd13ifvqe90","pricing_plan_id":"cebpf4jnsgd1na2vs0mg"},{"bike_id":"f13f8563-f3d0-467b-ae2c-01bf4a4cbe97","system_id":"levelo_inurba_marseille","lat":43.29533,"lon":5.38547,"is_reserved":false,"is_disabled":false,"rental_uris":{"android":"levelo://app?vid=f13f8563-f3d0-467b-ae2c-01bf4a4cbe97","ios":"levelo://app?vid=f13f8563-f3d0-467b-ae2c-01bf4a4cbe97"},"vehicle_type_id":"4","last_reported":1726258157,"current_range_meters":20800,"station_id":"ce4bgih2rcd13ifvqba0","pricing_plan_id":"cebpf4jnsgd1na2vs0mg"},{"bike_id":"51b93f73-c647-4dd9-b993-0e72de9b0462","system_id":"levelo_inurba_marseille","lat":43.28289,"lon":5.39074,"is_reserved":false,"is_disabled":false,"rental_uris":{"android":"levelo://app?vid=51b93f73-c647-4dd9-b993-0e72de9b0462","ios":"levelo://app?vid=51b93f73-c647-4dd9-b993-0e72de9b0462"},"vehicle_type_id":"4","last_reported":1726258157,"current_range_meters":32400,"station_id":"","pricing_plan_id":"cebpf4jnsgd1na2vs0mg"},{"bike_id":"12bb7073-9032-4c94-948d-b026b2803e6c","system_id":"levelo_inurba_marseille","lat":43.30883,"lon":5.39635,"is_reserved":false,"is_disabled":false,"rental_uris":{"android":"levelo://app?vid=12bb7073-9032-4c94-948d-b026b2803e6c","ios":"levelo://app?vid=12bb7073-9032-4c94-948d-b026b2803e6c"},"vehicle_type_id":"4","last_reported":1726258157,"current_range_meters":39200,"station_id":"ce4bh012rcd13ifvqcv0","pricing_plan_id":"cebpf4jnsgd1na2vs0mg"},{"bike_id":"f61c5d55-b4ac-4346-be65-2e5a9d2d662d","system_id":"levelo_inurba_marseille","lat":43.26935,"lon":5.38918,"is_reserved":false,"is_disabled":false,"rental_uris":{"android":"levelo://app?vid=f61c5d55-b4ac-4346-be65-2e5a9d2d662d","ios":"levelo://app?vid=f61c5d55-b4ac-4346-be65-2e5a9d2d662d"},"vehicle_type_id":"4","last_reported":1726258157,"current_range_meters":4800,"station_id":"ce4bhhh2rcd13ifvqfl0","pricing_plan_id":"cebpf4jnsgd1na2vs0mg"},{"bike_id":"e24b3e9b-187d-4683-b1a5-f02b5f483e4b","system_id":"levelo_inurba_marseille","lat":43.28616,"lon":5.35104,"is_reserved":false,"is_disabled":false,"rental_uris":{"android":"levelo://app?vid=e24b3e9b-187d-4683-b1a5-f02b5f483e4b","ios":"levelo://app?vid=e24b3e9b-187d-4683-b1a5-f02b5f483e4b"},"vehicle_type_id":"4","last_reported":1726258157,"current_range_meters":38800,"station_id":"ce4bhch2rcd13ifvqeug","pricing_plan_id":"cebpf4jnsgd1na2vs0mg"},{"bike_id":"eef991f3-491b-40b9-99d7-1de70c081759","system_id":"levelo_inurba_marseille","lat":43.28665,"lon":5.38668,"is_reserved":false,"is_disabled":false,"rental_uris":{"android":"levelo://app?vid=eef991f3-491b-40b9-99d7-1de70c081759","ios":"levelo://app?vid=eef991f3-491b-40b9-99d7-1de70c081759"},"vehicle_type_id":"4","last_reported":1726258157,"current_range_meters":18800,"station_id":"ce4bh492rcd13ifvqdug","pricing_plan_id":"cebpf4jnsgd1na2vs0mg"},{"bike_id":"a71ade37-705a-48c5-8693-8659689a5617","system_id":"levelo_inurba_marseille","lat":43.2418,"lon":5.3973,"is_reserved":false,"is_disabled":false,"rental_uris":{"android":"levelo://app?vid=a71ade37-705a-48c5-8693-8659689a5617","ios":"levelo://app?vid=a71ade37-705a-48c5-8693-8659689a5617"},"vehicle_type_id":"4","last_reported":1726258157,"current_range_meters":4000,"station_id":"ce4bhn12rcd13ifvqgpg","pricing_plan_id":"cebpf4jnsgd1na2vs0mg"},{"bike_id":"61a1470d-1e7c-440e-b9c9-8df8ca37a564","system_id":"levelo_inurba_marseille","lat":43.297058,"lon":5.376867,"is_reserved":false,"is_disabled":false,"rental_uris":{"android":"levelo://app?vid=61a1470d-1e7c-440e-b9c9-8df8ca37a564","ios":"levelo://app?vid=61a1470d-1e7c-440e-b9c9-8df8ca37a564"},"vehicle_type_id":"4","last_reported":1726258157,"current_range_meters":30400,"station_id":"ce4bgkh2rcd13ifvqbl0","pricing_plan_id":"cebpf4jnsgd1na2vs0mg"},{"bike_id":"cd74942f-d3bb-4c46-8843-cd86e4899795","system_id":"levelo_inurba_marseille","lat":43.26684,"lon":5.38273,"is_reserved":false,"is_disabled":false,"rental_uris":{"android":"levelo://app?vid=cd74942f-d3bb-4c46-8843-cd86e4899795","ios":"levelo://app?vid=cd74942f-d3bb-4c46-8843-cd86e4899795"},"vehicle_type_id":"4","last_reported":1726258157,"current_range_meters":19600,"station_id":"ce4bhg92rcd13ifvqf90","pricing_plan_id":"cebpf4jnsgd1na2vs0mg"},{"bike_id":"67950061-e447-4497-b15e-bc5c5ee0128e","system_id":"levelo_inurba_marseille","lat":43.24802,"lon":5.3746,"is_reserved":false,"is_disabled":false,"rental_uris":{"android":"levelo://app?vid=67950061-e447-4497-b15e-bc5c5ee0128e","ios":"levelo://app?vid=67950061-e447-4497-b15e-bc5c5ee0128e"},"vehicle_type_id":"4","last_reported":1726258157,"current_range_meters":21600,"station_id":"ce4bhgh2rcd13ifvqfb0","pricing_plan_id":"cebpf4jnsgd1na2vs0mg"},{"bike_id":"fe7bda53-4c2f-48b9-8833-6ed8d119f5b7","system_id":"levelo_inurba_marseille","lat":43.28639,"lon":5.374,"is_reserved":false,"is_disabled":false,"rental_uris":{"android":"levelo://app?vid=fe7bda53-4c2f-48b9-8833-6ed8d119f5b7","ios":"levelo://app?vid=fe7bda53-4c2f-48b9-8833-6ed8d119f5b7"},"vehicle_type_id":"4","last_reported":1726258157,"current_range_meters":35600,"station_id":"ce4bh3p2rcd13ifvqdq0","pricing_plan_id":"cebpf4jnsgd1na2vs0mg"},{"bike_id":"1e9ab519-e28c-400f-aecb-cbc58f39def2","system_id":"levelo_inurba_marseille","lat":43.29785,"lon":5.37891,"is_reserved":false,"is_disabled":false,"rental_uris":{"android":"levelo://app?vid=1e9ab519-e28c-400f-aecb-cbc58f39def2","ios":"levelo://app?vid=1e9ab519-e28c-400f-aecb-cbc58f39def2"},"vehicle_type_id":"4","last_reported":1726258157,"current_range_meters":6800,"station_id":"","pricing_plan_id":"cebpf4jnsgd1na2vs0mg"},{"bike_id":"b97eda22-15c7-466f-b437-b2991d8f73c2","system_id":"levelo_inurba_marseille","lat":43.24648,"lon":5.38895,"is_reserved":false,"is_disabled":false,"rental_uris":{"android":"levelo://app?vid=b97eda22-15c7-466f-b437-b2991d8f73c2","ios":"levelo://app?vid=b97eda22-15c7-466f-b437-b2991d8f73c2"},"vehicle_type_id":"4","last_reported":1726258157,"current_range_meters":37600,"station_id":"ce4bhg12rcd13ifvqf60","pricing_plan_id":"cebpf4jnsgd1na2vs0mg"},{"bike_id":"954d2b54-362e-442e-bcaa-d17939d90e2d","system_id":"levelo_inurba_marseille","lat":43.25495,"lon":5.37653,"is_reserved":false,"is_disabled":false,"rental_uris":{"android":"levelo://app?vid=954d2b54-362e-442e-bcaa-d17939d90e2d","ios":"levelo://app?vid=954d2b54-362e-442e-bcaa-d17939d90e2d"},"vehicle_type_id":"4","last_reported":1726258157,"current_range_meters":40000,"station_id":"ce4bhh12rcd13ifvqff0","pricing_plan_id":"cebpf4jnsgd1na2vs0mg"},{"bike_id":"82dec1e1-c024-4a59-b080-1ca526441f94","system_id":"levelo_inurba_marseille","lat":43.337612,"lon":5.374504,"is_reserved":false,"is_disabled":false,"rental_uris":{"android":"levelo://app?vid=82dec1e1-c024-4a59-b080-1ca526441f94","ios":"levelo://app?vid=82dec1e1-c024-4a59-b080-1ca526441f94"},"vehicle_type_id":"4","last_reported":1726258157,"current_range_meters":13600,"station_id":"","pricing_plan_id":"cebpf4jnsgd1na2vs0mg"},{"bike_id":"02269f0e-1758-473f-8a5c-764f1ddf9ddc","system_id":"levelo_inurba_marseille","lat":43.23177,"lon":5.39986,"is_reserved":false,"is_disabled":false,"rental_uris":{"android":"levelo://app?vid=02269f0e-1758-473f-8a5c-764f1ddf9ddc","ios":"levelo://app?vid=02269f0e-1758-473f-8a5c-764f1ddf9ddc"},"vehicle_type_id":"4","last_reported":1726258157,"current_range_meters":40000,"station_id":"ce4bhn12rcd13ifvqgqg","pricing_plan_id":"cebpf4jnsgd1na2vs0mg"},{"bike_id":"baf7d0fc-eae3-4f0c-99fc-59a5573e709f","system_id":"levelo_inurba_marseille","lat":43.29846,"lon":5.36284,"is_reserved":false,"is_disabled":false,"rental_uris":{"android":"levelo://app?vid=baf7d0fc-eae3-4f0c-99fc-59a5573e709f","ios":"levelo://app?vid=baf7d0fc-eae3-4f0c-99fc-59a5573e709f"},"vehicle_type_id":"4","last_reported":1726258157,"current_range_meters":39200,"station_id":"ce4bgpp2rcd13ifvqc3g","pricing_plan_id":"cebpf4jnsgd1na2vs0mg"},{"bike_id":"0da454dc-e0c8-4eee-9a5c-84354db24076","system_id":"levelo_inurba_marseille","lat":43.24387,"lon":5.37059,"is_reserved":false,"is_disabled":false,"rental_uris":{"android":"levelo://app?vid=0da454dc-e0c8-4eee-9a5c-84354db24076","ios":"levelo://app?vid=0da454dc-e0c8-4eee-9a5c-84354db24076"},"vehicle_type_id":"4","last_reported":1726258157,"current_range_meters":12800,"station_id":"ce4bhhh2rcd13ifvqfk0","pricing_plan_id":"cebpf4jnsgd1na2vs0mg"},{"bike_id":"6be21217-09c4-44c6-8934-8f8f3ca988ea","system_id":"levelo_inurba_marseille","lat":43.25501,"lon":5.3765,"is_reserved":false,"is_disabled":false,"rental_uris":{"android":"levelo://app?vid=6be21217-09c4-44c6-8934-8f8f3ca988ea","ios":"levelo://app?vid=6be21217-09c4-44c6-8934-8f8f3ca988ea"},"vehicle_type_id":"4","last_reported":1726258157,"current_range_meters":25200,"station_id":"ce4bhh12rcd13ifvqff0","pricing_plan_id":"cebpf4jnsgd1na2vs0mg"},{"bike_id":"db704ff5-d684-4666-8441-564040c27806","system_id":"levelo_inurba_marseille","lat":43.28678,"lon":5.38664,"is_reserved":false,"is_disabled":false,"rental_uris":{"android":"levelo://app?vid=db704ff5-d684-4666-8441-564040c27806","ios":"levelo://app?vid=db704ff5-d684-4666-8441-564040c27806"},"vehicle_type_id":"4","last_reported":1726258157,"current_range_meters":26800,"station_id":"ce4bh492rcd13ifvqdug","pricing_plan_id":"cebpf4jnsgd1na2vs0mg"},{"bike_id":"5bcea731-d4da-414e-b204-cc827bfa12b3","system_id":"levelo_inurba_marseille","lat":43.27611,"lon":5.3612,"is_reserved":false,"is_disabled":false,"rental_uris":{"android":"levelo://app?vid=5bcea731-d4da-414e-b204-cc827bfa12b3","ios":"levelo://app?vid=5bcea731-d4da-414e-b204-cc827bfa12b3"},"vehicle_type_id":"4","last_reported":1726258157,"current_range_meters":24000,"station_id":"ce4bgj92rcd13ifvqbe0","pricing_plan_id":"cebpf4jnsgd1na2vs0mg"},{"bike_id":"87ee18d9-6125-4354-94a6-506e106cc304","system_id":"levelo_inurba_marseille","lat":43.29909,"lon":5.37471,"is_reserved":false,"is_disabled":false,"rental_uris":{"android":"levelo://app?vid=87ee18d9-6125-4354-94a6-506e106cc304","ios":"levelo://app?vid=87ee18d9-6125-4354-94a6-506e106cc304"},"vehicle_type_id":"4","last_reported":1726258157,"current_range_meters":31200,"station_id":"ce4bgjh2rcd13ifvqbg0","pricing_plan_id":"cebpf4jnsgd1na2vs0mg"},{"bike_id":"61e00977-be43-400f-99ea-3c33330f7657","system_id":"levelo_inurba_marseille","lat":43.2501,"lon":5.38916,"is_reserved":false,"is_disabled":false,"rental_uris":{"android":"levelo://app?vid=61e00977-be43-400f-99ea-3c33330f7657","ios":"levelo://app?vid=61e00977-be43-400f-99ea-3c33330f7657"},"vehicle_type_id":"4","last_reported":1726258157,"current_range_meters":24000,"station_id":"ce4bhgp2rcd13ifvqfd0","pricing_plan_id":"cebpf4jnsgd1na2vs0mg"},{"bike_id":"ef5d8c1a-3be3-4ef9-93bb-c72c374f83c9","system_id":"levelo_inurba_marseille","lat":43.24647,"lon":5.38893,"is_reserved":false,"is_disabled":false,"rental_uris":{"android":"levelo://app?vid=ef5d8c1a-3be3-4ef9-93bb-c72c374f83c9","ios":"levelo://app?vid=ef5d8c1a-3be3-4ef9-93bb-c72c374f83c9"},"vehicle_type_id":"4","last_reported":1726258157,"current_range_meters":9600,"station_id":"ce4bhg12rcd13ifvqf60","pricing_plan_id":"cebpf4jnsgd1na2vs0mg"},{"bike_id":"cf4ee9a6-65d0-4978-a1e8-f54b0d6b3aed","system_id":"levelo_inurba_marseille","lat":43.31078,"lon":5.38346,"is_reserved":false,"is_disabled":false,"rental_uris":{"android":"levelo://app?vid=cf4ee9a6-65d0-4978-a1e8-f54b0d6b3aed","ios":"levelo://app?vid=cf4ee9a6-65d0-4978-a1e8-f54b0d6b3aed"},"vehicle_type_id":"4","last_reported":1726258157,"current_range_meters":34800,"station_id":"ce4bgv92rcd13ifvqcr0","pricing_plan_id":"cebpf4jnsgd1na2vs0mg"},{"bike_id":"4b351185-a178-436b-acf4-30055d082eb1","system_id":"levelo_inurba_marseille","lat":43.29604,"lon":5.37718,"is_reserved":false,"is_disabled":false,"rental_uris":{"android":"levelo://app?vid=4b351185-a178-436b-acf4-30055d082eb1","ios":"levelo://app?vid=4b351185-a178-436b-acf4-30055d082eb1"},"vehicle_type_id":"4","last_reported":1726258157,"current_range_meters":34000,"station_id":"ce4bgi92rcd13ifvqb90","pricing_plan_id":"cebpf4jnsgd1na2vs0mg"},{"bike_id":"7cc5cc5c-b0d6-4d34-b5ca-8ffa2c1f3694","system_id":"levelo_inurba_marseille","lat":43.24806,"lon":5.37455,"is_reserved":false,"is_disabled":false,"rental_uris":{"android":"levelo://app?vid=7cc5cc5c-b0d6-4d34-b5ca-8ffa2c1f3694","ios":"levelo://app?vid=7cc5cc5c-b0d6-4d34-b5ca-8ffa2c1f3694"},"vehicle_type_id":"4","last_reported":1726258157,"current_range_meters":28400,"station_id":"ce4bhgh2rcd13ifvqfb0","pricing_plan_id":"cebpf4jnsgd1na2vs0mg"},{"bike_id":"f9076aec-56e7-4b2e-a7b1-575337aca9d5","system_id":"levelo_inurba_marseille","lat":43.24171,"lon":5.36399,"is_reserved":false,"is_disabled":false,"rental_uris":{"android":"levelo://app?vid=f9076aec-56e7-4b2e-a7b1-575337aca9d5","ios":"levelo://app?vid=f9076aec-56e7-4b2e-a7b1-575337aca9d5"},"vehicle_type_id":"4","last_reported":1726258157,"current_range_meters":36800,"station_id":"cpo36qri1sfpv3e86is0","pricing_plan_id":"cebpf4jnsgd1na2vs0mg"},{"bike_id":"338fc7b0-028d-425e-8a0f-81ef5b20367a","system_id":"levelo_inurba_marseille","lat":43.29565,"lon":5.37517,"is_reserved":false,"is_disabled":false,"rental_uris":{"android":"levelo://app?vid=338fc7b0-028d-425e-8a0f-81ef5b20367a","ios":"levelo://app?vid=338fc7b0-028d-425e-8a0f-81ef5b20367a"},"vehicle_type_id":"4","last_reported":1726258157,"current_range_meters":35200,"station_id":"ce4bgh92rcd13ifvqb50","pricing_plan_id":"cebpf4jnsgd1na2vs0mg"},{"bike_id":"cbe7bb80-1dc6-4180-9b27-30cd958cca91","system_id":"levelo_inurba_marseille","lat":43.24669,"lon":5.38159,"is_reserved":false,"is_disabled":false,"rental_uris":{"android":"levelo://app?vid=cbe7bb80-1dc6-4180-9b27-30cd958cca91","ios":"levelo://app?vid=cbe7bb80-1dc6-4180-9b27-30cd958cca91"},"vehicle_type_id":"4","last_reported":1726258157,"current_range_meters":24400,"station_id":"ce4bhih2rcd13ifvqfr0","pricing_plan_id":"cebpf4jnsgd1na2vs0mg"},{"bike_id":"fe66cd3a-301b-4d90-9f73-a3e94adb07fa","system_id":"levelo_inurba_marseille","lat":43.29023,"lon":5.3864,"is_reserved":false,"is_disabled":false,"rental_uris":{"android":"levelo://app?vid=fe66cd3a-301b-4d90-9f73-a3e94adb07fa","ios":"levelo://app?vid=fe66cd3a-301b-4d90-9f73-a3e94adb07fa"},"vehicle_type_id":"4","last_reported":1726258157,"current_range_meters":38000,"station_id":"ce4bh4p2rcd13ifvqe0g","pricing_plan_id":"cebpf4jnsgd1na2vs0mg"},{"bike_id":"684b4fa3-89f5-4ad6-b7ce-f65139c82d76","system_id":"levelo_inurba_marseille","lat":43.25109,"lon":5.40326,"is_reserved":false,"is_disabled":false,"rental_uris":{"android":"levelo://app?vid=684b4fa3-89f5-4ad6-b7ce-f65139c82d76","ios":"levelo://app?vid=684b4fa3-89f5-4ad6-b7ce-f65139c82d76"},"vehicle_type_id":"4","last_reported":1726258157,"current_range_meters":7200,"station_id":"ce4bhlh2rcd13ifvqgig","pricing_plan_id":"cebpf4jnsgd1na2vs0mg"},{"bike_id":"f08e8560-6108-4436-aeb5-073b5d54fe67","system_id":"levelo_inurba_marseille","lat":43.2952,"lon":5.38547,"is_reserved":false,"is_disabled":false,"rental_uris":{"android":"levelo://app?vid=f08e8560-6108-4436-aeb5-073b5d54fe67","ios":"levelo://app?vid=f08e8560-6108-4436-aeb5-073b5d54fe67"},"vehicle_type_id":"4","last_reported":1726258157,"current_range_meters":32000,"station_id":"ce4bgih2rcd13ifvqba0","pricing_plan_id":"cebpf4jnsgd1na2vs0mg"},{"bike_id":"3b4631f1-0e73-4449-be64-c1cdece0b434","system_id":"levelo_inurba_marseille","lat":43.28267,"lon":5.35067,"is_reserved":false,"is_disabled":false,"rental_uris":{"android":"levelo://app?vid=3b4631f1-0e73-4449-be64-c1cdece0b434","ios":"levelo://app?vid=3b4631f1-0e73-4449-be64-c1cdece0b434"},"vehicle_type_id":"4","last_reported":1726258157,"current_range_meters":39200,"station_id":"ce4bhbp2rcd13ifvqerg","pricing_plan_id":"cebpf4jnsgd1na2vs0mg"},{"bike_id":"aef09fda-9467-42e2-98fc-34612831dc7c","system_id":"levelo_inurba_marseille","lat":43.25085,"lon":5.39522,"is_reserved":false,"is_disabled":false,"rental_uris":{"android":"levelo://app?vid=aef09fda-9467-42e2-98fc-34612831dc7c","ios":"levelo://app?vid=aef09fda-9467-42e2-98fc-34612831dc7c"},"vehicle_type_id":"4","last_reported":1726258157,"current_range_meters":39200,"station_id":"ce4bhm12rcd13ifvqgkg","pricing_plan_id":"cebpf4jnsgd1na2vs0mg"},{"bike_id":"b8ead6d4-a0dd-4799-804e-c1c5606e4feb","system_id":"levelo_inurba_marseille","lat":43.29005,"lon":5.35613,"is_reserved":false,"is_disabled":false,"rental_uris":{"android":"levelo://app?vid=b8ead6d4-a0dd-4799-804e-c1c5606e4feb","ios":"levelo://app?vid=b8ead6d4-a0dd-4799-804e-c1c5606e4feb"},"vehicle_type_id":"4","last_reported":1726258157,"current_range_meters":18800,"station_id":"ce4bhb92rcd13ifvqen0","pricing_plan_id":"cebpf4jnsgd1na2vs0mg"},{"bike_id":"1d004851-c08b-4a01-aec6-6340c8507935","system_id":"levelo_inurba_marseille","lat":43.24179,"lon":5.39723,"is_reserved":false,"is_disabled":false,"rental_uris":{"android":"levelo://app?vid=1d004851-c08b-4a01-aec6-6340c8507935","ios":"levelo://app?vid=1d004851-c08b-4a01-aec6-6340c8507935"},"vehicle_type_id":"4","last_reported":1726258157,"current_range_meters":32000,"station_id":"ce4bhn12rcd13ifvqgpg","pricing_plan_id":"cebpf4jnsgd1na2vs0mg"},{"bike_id":"f20f613d-77b3-4abc-847d-4abd98073b48","system_id":"levelo_inurba_marseille","lat":43.28612,"lon":5.35105,"is_reserved":false,"is_disabled":false,"rental_uris":{"android":"levelo://app?vid=f20f613d-77b3-4abc-847d-4abd98073b48","ios":"levelo://app?vid=f20f613d-77b3-4abc-847d-4abd98073b48"},"vehicle_type_id":"4","last_reported":1726258157,"current_range_meters":29600,"station_id":"ce4bhch2rcd13ifvqeug","pricing_plan_id":"cebpf4jnsgd1na2vs0mg"},{"bike_id":"28721d2e-cd5f-45e6-8933-c6f0a99a12da","system_id":"levelo_inurba_marseille","lat":43.29194,"lon":5.39315,"is_reserved":false,"is_disabled":false,"rental_uris":{"android":"levelo://app?vid=28721d2e-cd5f-45e6-8933-c6f0a99a12da","ios":"levelo://app?vid=28721d2e-cd5f-45e6-8933-c6f0a99a12da"},"vehicle_type_id":"4","last_reported":1726258157,"current_range_meters":9600,"station_id":"ce4bh192rcd13ifvqdd0","pricing_plan_id":"cebpf4jnsgd1na2vs0mg"},{"bike_id":"88e343d3-f58e-4862-a0ba-51d955f51d14","system_id":"levelo_inurba_marseille","lat":43.29037,"lon":5.35935,"is_reserved":false,"is_disabled":false,"rental_uris":{"android":"levelo://app?vid=88e343d3-f58e-4862-a0ba-51d955f51d14","ios":"levelo://app?vid=88e343d3-f58e-4862-a0ba-51d955f51d14"},"vehicle_type_id":"4","last_reported":1726258157,"current_range_meters":34000,"station_id":"ce4bha92rcd13ifvqeg0","pricing_plan_id":"cebpf4jnsgd1na2vs0mg"},{"bike_id":"14b024ec-db9b-49fd-a42f-674bfc581d85","system_id":"levelo_inurba_marseille","lat":43.28426,"lon":5.34983,"is_reserved":false,"is_disabled":false,"rental_uris":{"android":"levelo://app?vid=14b024ec-db9b-49fd-a42f-674bfc581d85","ios":"levelo://app?vid=14b024ec-db9b-49fd-a42f-674bfc581d85"},"vehicle_type_id":"4","last_reported":1726258157,"current_range_meters":30000,"station_id":"ce4bhbh2rcd13ifvqepg","pricing_plan_id":"cebpf4jnsgd1na2vs0mg"},{"bike_id":"aa9b05bb-96ab-4a82-b6b5-c85b38ce4a80","system_id":"levelo_inurba_marseille","lat":43.29417,"lon":5.38633,"is_reserved":false,"is_disabled":false,"rental_uris":{"android":"levelo://app?vid=aa9b05bb-96ab-4a82-b6b5-c85b38ce4a80","ios":"levelo://app?vid=aa9b05bb-96ab-4a82-b6b5-c85b38ce4a80"},"vehicle_type_id":"4","last_reported":1726258157,"current_range_meters":38400,"station_id":"ce4bh2h2rcd13ifvqdh0","pricing_plan_id":"cebpf4jnsgd1na2vs0mg"},{"bike_id":"d6d70363-1091-4af3-b93f-557d0727422e","system_id":"levelo_inurba_marseille","lat":43.29786,"lon":5.37101,"is_reserved":false,"is_disabled":false,"rental_uris":{"android":"levelo://app?vid=d6d70363-1091-4af3-b93f-557d0727422e","ios":"levelo://app?vid=d6d70363-1091-4af3-b93f-557d0727422e"},"vehicle_type_id":"4","last_reported":1726258157,"current_range_meters":38400,"station_id":"ce4bgop2rcd13ifvqc1g","pricing_plan_id":"cebpf4jnsgd1na2vs0mg"},{"bike_id":"e2a9ef80-b0c6-4e8a-a032-3e6634094c93","system_id":"levelo_inurba_marseille","lat":43.28615,"lon":5.35099,"is_reserved":false,"is_disabled":false,"rental_uris":{"android":"levelo://app?vid=e2a9ef80-b0c6-4e8a-a032-3e6634094c93","ios":"levelo://app?vid=e2a9ef80-b0c6-4e8a-a032-3e6634094c93"},"vehicle_type_id":"4","last_reported":1726258157,"current_range_meters":38800,"station_id":"ce4bhch2rcd13ifvqeug","pricing_plan_id":"cebpf4jnsgd1na2vs0mg"},{"bike_id":"22ae15f7-a070-49bf-acc2-990913c19bdc","system_id":"levelo_inurba_marseille","lat":43.29025,"lon":5.38624,"is_reserved":false,"is_disabled":false,"rental_uris":{"android":"levelo://app?vid=22ae15f7-a070-49bf-acc2-990913c19bdc","ios":"levelo://app?vid=22ae15f7-a070-49bf-acc2-990913c19bdc"},"vehicle_type_id":"4","last_reported":1726258157,"current_range_meters":12000,"station_id":"ce4bh4p2rcd13ifvqe0g","pricing_plan_id":"cebpf4jnsgd1na2vs0mg"},{"bike_id":"056c3c33-df71-4e67-84ba-1605099ee1bb","system_id":"levelo_inurba_marseille","lat":43.26564,"lon":5.39025,"is_reserved":false,"is_disabled":false,"rental_uris":{"android":"levelo://app?vid=056c3c33-df71-4e67-84ba-1605099ee1bb","ios":"levelo://app?vid=056c3c33-df71-4e67-84ba-1605099ee1bb"},"vehicle_type_id":"4","last_reported":1726258157,"current_range_meters":34000,"station_id":"ce4bhe12rcd13ifvqf30","pricing_plan_id":"cebpf4jnsgd1na2vs0mg"},{"bike_id":"34cc72a3-e651-4d54-990b-d1c40dca2e8b","system_id":"levelo_inurba_marseille","lat":43.29308,"lon":5.37188,"is_reserved":false,"is_disabled":false,"rental_uris":{"android":"levelo://app?vid=34cc72a3-e651-4d54-990b-d1c40dca2e8b","ios":"levelo://app?vid=34cc72a3-e651-4d54-990b-d1c40dca2e8b"},"vehicle_type_id":"4","last_reported":1726258157,"current_range_meters":22400,"station_id":"ce4bgh92rcd13ifvqb40","pricing_plan_id":"cebpf4jnsgd1na2vs0mg"},{"bike_id":"18b56d3e-a9ad-4293-950c-00109a8e54f4","system_id":"levelo_inurba_marseille","lat":43.27171,"lon":5.40993,"is_reserved":false,"is_disabled":false,"rental_uris":{"android":"levelo://app?vid=18b56d3e-a9ad-4293-950c-00109a8e54f4","ios":"levelo://app?vid=18b56d3e-a9ad-4293-950c-00109a8e54f4"},"vehicle_type_id":"4","last_reported":1726258157,"current_range_meters":32400,"station_id":"ce4bhl12rcd13ifvqgf0","pricing_plan_id":"cebpf4jnsgd1na2vs0mg"},{"bike_id":"9cb40a1e-42df-471f-ac83-6551fff62cc8","system_id":"levelo_inurba_marseille","lat":43.311621,"lon":5.387149,"is_reserved":false,"is_disabled":false,"rental_uris":{"android":"levelo://app?vid=9cb40a1e-42df-471f-ac83-6551fff62cc8","ios":"levelo://app?vid=9cb40a1e-42df-471f-ac83-6551fff62cc8"},"vehicle_type_id":"4","last_reported":1726258157,"current_range_meters":39200,"station_id":"ce4bgv12rcd13ifvqcp0","pricing_plan_id":"cebpf4jnsgd1na2vs0mg"},{"bike_id":"22111152-b310-4249-b4df-b0c7af273cef","system_id":"levelo_inurba_marseille","lat":43.24807,"lon":5.37455,"is_reserved":false,"is_disabled":false,"rental_uris":{"android":"levelo://app?vid=22111152-b310-4249-b4df-b0c7af273cef","ios":"levelo://app?vid=22111152-b310-4249-b4df-b0c7af273cef"},"vehicle_type_id":"4","last_reported":1726258157,"current_range_meters":18800,"station_id":"ce4bhgh2rcd13ifvqfb0","pricing_plan_id":"cebpf4jnsgd1na2vs0mg"},{"bike_id":"359888e5-322d-4e9e-826e-35fea099c3c7","system_id":"levelo_inurba_marseille","lat":43.25869,"lon":5.39898,"is_reserved":false,"is_disabled":false,"rental_uris":{"android":"levelo://app?vid=359888e5-322d-4e9e-826e-35fea099c3c7","ios":"levelo://app?vid=359888e5-322d-4e9e-826e-35fea099c3c7"},"vehicle_type_id":"4","last_reported":1726258157,"current_range_meters":38800,"station_id":"ce4bhl92rcd13ifvqghg","pricing_plan_id":"cebpf4jnsgd1na2vs0mg"},{"bike_id":"5f635807-f8ab-4439-b6dc-77ca0631191f","system_id":"levelo_inurba_marseille","lat":43.29707,"lon":5.37704,"is_reserved":false,"is_disabled":false,"rental_uris":{"android":"levelo://app?vid=5f635807-f8ab-4439-b6dc-77ca0631191f","ios":"levelo://app?vid=5f635807-f8ab-4439-b6dc-77ca0631191f"},"vehicle_type_id":"4","last_reported":1726258157,"current_range_meters":20000,"station_id":"ce4bgkh2rcd13ifvqbl0","pricing_plan_id":"cebpf4jnsgd1na2vs0mg"},{"bike_id":"e06766d4-7b5e-4834-bc39-b59984bf24c1","system_id":"levelo_inurba_marseille","lat":43.318241,"lon":5.422693,"is_reserved":false,"is_disabled":false,"rental_uris":{"android":"levelo://app?vid=e06766d4-7b5e-4834-bc39-b59984bf24c1","ios":"levelo://app?vid=e06766d4-7b5e-4834-bc39-b59984bf24c1"},"vehicle_type_id":"4","last_reported":1726258157,"current_range_meters":8400,"station_id":"ce4bhp92rcd13ifvqhbg","pricing_plan_id":"cebpf4jnsgd1na2vs0mg"},{"bike_id":"c23c8eab-a462-4e97-8896-4e3d7246f308","system_id":"levelo_inurba_marseille","lat":43.243897,"lon":5.370606,"is_reserved":false,"is_disabled":false,"rental_uris":{"android":"levelo://app?vid=c23c8eab-a462-4e97-8896-4e3d7246f308","ios":"levelo://app?vid=c23c8eab-a462-4e97-8896-4e3d7246f308"},"vehicle_type_id":"4","last_reported":1726258157,"current_range_meters":6400,"station_id":"ce4bhhh2rcd13ifvqfk0","pricing_plan_id":"cebpf4jnsgd1na2vs0mg"},{"bike_id":"307e7e31-4b2f-46b2-a5f7-049d3f698782","system_id":"levelo_inurba_marseille","lat":43.30354,"lon":5.41886,"is_reserved":false,"is_disabled":false,"rental_uris":{"android":"levelo://app?vid=307e7e31-4b2f-46b2-a5f7-049d3f698782","ios":"levelo://app?vid=307e7e31-4b2f-46b2-a5f7-049d3f698782"},"vehicle_type_id":"4","last_reported":1726258157,"current_range_meters":22000,"station_id":"ce4bhop2rcd13ifvqh7g","pricing_plan_id":"cebpf4jnsgd1na2vs0mg"},{"bike_id":"f21f4d5f-d66c-43c6-b1a2-62c2c4c6f543","system_id":"levelo_inurba_marseille","lat":43.2953,"lon":5.38546,"is_reserved":false,"is_disabled":false,"rental_uris":{"android":"levelo://app?vid=f21f4d5f-d66c-43c6-b1a2-62c2c4c6f543","ios":"levelo://app?vid=f21f4d5f-d66c-43c6-b1a2-62c2c4c6f543"},"vehicle_type_id":"4","last_reported":1726258157,"current_range_meters":31200,"station_id":"ce4bgih2rcd13ifvqba0","pricing_plan_id":"cebpf4jnsgd1na2vs0mg"},{"bike_id":"f400d370-a20e-4ced-86f0-64f62510749c","system_id":"levelo_inurba_marseille","lat":43.3237,"lon":5.38926,"is_reserved":false,"is_disabled":false,"rental_uris":{"android":"levelo://app?vid=f400d370-a20e-4ced-86f0-64f62510749c","ios":"levelo://app?vid=f400d370-a20e-4ced-86f0-64f62510749c"},"vehicle_type_id":"4","last_reported":1726258157,"current_range_meters":3600,"station_id":"","pricing_plan_id":"cebpf4jnsgd1na2vs0mg"},{"bike_id":"8578940c-55cb-4da5-a5e8-95031a7a0872","system_id":"levelo_inurba_marseille","lat":43.2586,"lon":5.39907,"is_reserved":false,"is_disabled":false,"rental_uris":{"android":"levelo://app?vid=8578940c-55cb-4da5-a5e8-95031a7a0872","ios":"levelo://app?vid=8578940c-55cb-4da5-a5e8-95031a7a0872"},"vehicle_type_id":"4","last_reported":1726258157,"current_range_meters":34000,"station_id":"ce4bhl92rcd13ifvqghg","pricing_plan_id":"cebpf4jnsgd1na2vs0mg"},