{"last_updated":1738822400,"ttl":60,"version":"2.2","data":{"bikes":[{"bike_id":"f2b9350d-5244-4ead-9684-289d3a400861","system_id":"levelo_inurba_marseille","lat":43.287233,"lon":5.360866,"is_reserved":false,"is_disabled":false,"rental_uris":{"android":"levelo://app?vid=f2b9350d-5244-4ead-9684-289d3a400861","ios":"levelo://app?vid=f2b9350d-5244-4ead-9684-289d3a400861"},"vehicle_type_id":"4","last_reported":1738822401,"current_range_meters":32000,"station_id":"cki0cbj6b192h4jlfktg","pricing_plan_id":"cebpf4jnsgd1na2vs0mg"},{"bike_id":"5c30c709-e546-4a60-a782-8ef25eddc77e","system_id":"levelo_inurba_marseille","lat":43.30411,"lon":5.41294,"is_reserved":false,"is_disabled":false,"rental_uris":{"android":"levelo://app?vid=5c30c709-e546-4a60-a782-8ef25eddc77e","ios":"levelo://app?vid=5c30c709-e546-4a60-a782-8ef25eddc77e"},"vehicle_type_id":"4","last_reported":1738822401,"current_range_meters":38400,"station_id":"ce4bhop2rcd13ifvqh8g","pricing_plan_id":"cebpf4jnsgd1na2vs0mg"},{"bike_id":"4927017d-00a4-41ad-adcc-553dace88671","system_id":"levelo_inurba_marseille","lat":43.336072,"lon":5.410139,"is_reserved":false,"is_disabled":true,"rental_uris":{"android":"levelo://app?vid=4927017d-00a4-41ad-adcc-553dace88671","ios":"levelo://app?vid=4927017d-00a4-41ad-adcc-553dace88671"},"vehicle_type_id":"4","last_reported":1738822401,"current_range_meters":38800,"station_id":"ce4bhqh2rcd13ifvqhmg","pricing_plan_id":"cebpf4jnsgd1na2vs0mg"},{"bike_id":"ed4ccea7-0f60-4837-9838-ad504138a8f4","system_id":"levelo_inurba_marseille","lat":43.30459,"lon":5.37901,"is_reserved":false,"is_disabled":false,"rental_uris":{"android":"levelo://app?vid=ed4ccea7-0f60-4837-9838-ad504138a8f4","ios":"levelo://app?vid=ed4ccea7-0f60-4837-9838-ad504138a8f4"},"vehicle_type_id":"4","last_reported":1738822401,"current_range_meters":32400,"station_id":"ce4bgup2rcd13ifvqcn0","pricing_plan_id":"cebpf4jnsgd1na2vs0mg"},{"bike_id":"8c944e44-bfd5-44d6-ac5c-2b2bd433c5b2","system_id":"levelo_inurba_marseille","lat":43.24679,"lon":5.38163,"is_reserved":false,"is_disabled":false,"rental_uris":{"android":"levelo://app?vid=8c944e44-bfd5-44d6-ac5c-2b2bd433c5b2","ios":"levelo://app?vid=8c944e44-bfd5-44d6-ac5c-2b2bd433c5b2"},"vehicle_type_id":"4","last_reported":1738822401,"current_range_meters":5600,"station_id":"ce4bhih2rcd13ifvqfr0","pricing_plan_id":"cebpf4jnsgd1na2vs0mg"},{"bike_id":"a8fa3984-d920-418c-9f2f-f24bfb9eab80","system_id":"levelo_inurba_marseille","lat":43.29026,"lon":5.35924,"is_reserved":false,"is_disabled":false,"rental_uris":{"android":"levelo://app?vid=a8fa3984-d920-418c-9f2f-f24bfb9eab80","ios":"levelo://app?vid=a8fa3984-d920-418c-9f2f-f24bfb9eab80"},"vehicle_type_id":"4","last_reported":1738822401,"current_range_meters":36400,"station_id":"ce4bha92rcd13ifvqeg0","pricing_plan_id":"cebpf4jnsgd1na2vs0mg"},{"bike_id":"d56f05d9-400d-45d3-942d-1b60a36d7286","system_id":"levelo_inurba_marseille","lat":43.30765,"lon":5.37671,"is_reserved":false,"is_disabled":false,"rental_uris":{"android":"levelo://app?vid=d56f05d9-400d-45d3-942d-1b60a36d7286","ios":"levelo://app?vid=d56f05d9-400d-45d3-942d-1b60a36d7286"},"vehicle_type_id":"4","last_reported":1738822401,"current_range_meters":36000,"station_id":"ce4bgv92rcd13ifvqcq0","pricing_plan_id":"cebpf4jnsgd1na2vs0mg"},{"bike_id":"9fcdda9f-3dc8-4009-b4cd-771233874339","system_id":"levelo_inurba_marseille","lat":43.29553,"lon":5.42267,"is_reserved":false,"is_disabled":false,"rental_uris":{"android":"levelo://app?vid=9fcdda9f-3dc8-4009-b4cd-771233874339","ios":"levelo://app?vid=9fcdda9f-3dc8-4009-b4cd-771233874339"},"vehicle_type_id":"4","last_reported":1738822401,"current_range_meters":34000,"station_id":"ce4bhph2rcd13ifvqhdg","pricing_plan_id":"cebpf4jnsgd1na2vs0mg"},{"bike_id":"98fd826c-0bf1-4b38-a3d1-66676766ed4b","system_id":"levelo_inurba_marseille","lat":43.30542,"lon":5.36708,"is_reserved":false,"is_disabled":false,"rental_uris":{"android":"levelo://app?vid=98fd826c-0bf1-4b38-a3d1-66676766ed4b","ios":"levelo://app?vid=98fd826c-0bf1-4b38-a3d1-66676766ed4b"},"vehicle_type_id":"4","last_reported":1738822401,"current_range_meters":39200,"station_id":"ce4bgrp2rcd13ifvqc9g","pricing_plan_id":"cebpf4jnsgd1na2vs0mg"},{"bike_id":"695c8903-2a1f-4f36-ae79-da101aaac2a2","system_id":"levelo_inurba_marseille","lat":43.2318,"lon":5.39991,"is_reserved":false,"is_disabled":false,"rental_uris":{"android":"levelo://app?vid=695c8903-2a1f-4f36-ae79-da101aaac2a2","ios":"levelo://app?vid=695c8903-2a1f-4f36-ae79-da101aaac2a2"},"vehicle_type_id":"4","last_reported":1738822401,"current_range_meters":17200,"station_id":"ce4bhn12rcd13ifvqgqg","pricing_plan_id":"cebpf4jnsgd1na2vs0mg"},{"bike_id":"60efba71-1f79-4331-8e03-d1cbb62a05fd","system_id":"levelo_inurba_marseille","lat":43.23188,"lon":5.39985,"is_reserved":false,"is_disabled":false,"rental_uris":{"android":"levelo://app?vid=60efba71-1f79-4331-8e03-d1cbb62a05fd","ios":"levelo://app?vid=60efba71-1f79-4331-8e03-d1cbb62a05fd"},"vehicle_type_id":"4","last_reported":1738822401,"current_range_meters":18000,"station_id":"ce4bhn12rcd13ifvqgqg","pricing_plan_id":"cebpf4jnsgd1na2vs0mg"},{"bike_id":"57063e1f-c82d-4dec-a47a-2d22341b0a6c","system_id":"levelo_inurba_marseille","lat":43.30782,"lon":5.3766,"is_reserved":false,"is_disabled":false,"rental_uris":{"android":"levelo://app?vid=57063e1f-c82d-4dec-a47a-2d22341b0a6c","ios":"levelo://app?vid=57063e1f-c82d-4dec-a47a-2d22341b0a6c"},"vehicle_type_id":"4","last_reported":1738822401,"current_range_meters":37600,"station_id":"ce4bgv92rcd13ifvqcq0","pricing_plan_id":"cebpf4jnsgd1na2vs0mg"},{"bike_id":"2d3b19a1-1de6-497b-8338-8d32b0d15521","system_id":"levelo_inurba_marseille","lat":43.306,"lon":5.37248,"is_reserved":false,"is_disabled":false,"rental_uris":{"android":"levelo://app?vid=2d3b19a1-1de6-497b-8338-8d32b0d15521","ios":"levelo://app?vid=2d3b19a1-1de6-497b-8338-8d32b0d15521"},"vehicle_type_id":"4","last_reported":1738822401,"current_range_meters":8000,"station_id":"ce4bgqh2rcd13ifvqc4g","pricing_plan_id":"cebpf4jnsgd1na2vs0mg"},{"bike_id":"a8544cd9-a18d-422a-9580-7b05d2524da6","system_id":"levelo_inurba_marseille","lat":43.287115,"lon":5.379426,"is_reserved":false,"is_disabled":false,"rental_uris":{"android":"levelo://app?vid=a8544cd9-a18d-422a-9580-7b05d2524da6","ios":"levelo://app?vid=a8544cd9-a18d-422a-9580-7b05d2524da6"},"vehicle_type_id":"4","last_reported":1738822401,"current_range_meters":38400,"station_id":"ce4bh9p2rcd13ifvqec0","pricing_plan_id":"cebpf4jnsgd1na2vs0mg"},{"bike_id":"96559f85-f0b0-4a89-9803-99a731c200eb","system_id":"levelo_inurba_marseille","lat":43.3132,"lon":5.38518,"is_reserved":false,"is_disabled":false,"rental_uris":{"android":"levelo://app?vid=96559f85-f0b0-4a89-9803-99a731c200eb","ios":"levelo://app?vid=96559f85-f0b0-4a89-9803-99a731c200eb"},"vehicle_type_id":"4","last_reported":1738822401,"current_range_meters":35200,"station_id":"","pricing_plan_id":"cebpf4jnsgd1na2vs0mg"},{"bike_id":"c47151b7-6300-4d10-af3b-e7f427fdce45","system_id":"levelo_inurba_marseille","lat":43.297299,"lon":5.376879,"is_reserved":false,"is_disabled":true,"rental_uris":{"android":"levelo://app?vid=c47151b7-6300-4d10-af3b-e7f427fdce45","ios":"levelo://app?vid=c47151b7-6300-4d10-af3b-e7f427fdce45"},"vehicle_type_id":"4","last_reported":1738822401,"current_range_meters":20400,"station_id":"ce4bgkh2rcd13ifvqbl0","pricing_plan_id":"cebpf4jnsgd1na2vs0mg"},{"bike_id":"824cbd66-f15f-4d94-9a57-5cc66d325a14","system_id":"levelo_inurba_marseille","lat":43.30528,"lon":5.36561,"is_reserved":false,"is_disabled":false,"rental_uris":{"android":"levelo://app?vid=824cbd66-f15f-4d94-9a57-5cc66d325a14","ios":"levelo://app?vid=824cbd66-f15f-4d94-9a57-5cc66d325a14"},"vehicle_type_id":"4","last_reported":1738822401,"current_range_meters":38800,"station_id":"ce4bgs12rcd13ifvqcag","pricing_plan_id":"cebpf4jnsgd1na2vs0mg"},{"bike_id":"1a5a485e-b6bb-47e8-8052-7790998d814a","system_id":"levelo_inurba_marseille","lat":43.25101,"lon":5.40326,"is_reserved":false,"is_disabled":false,"rental_uris":{"android":"levelo://app?vid=1a5a485e-b6bb-47e8-8052-7790998d814a","ios":"levelo://app?vid=1a5a485e-b6bb-47e8-8052-7790998d814a"},"vehicle_type_id":"4","last_reported":1738822401,"current_range_meters":16800,"station_id":"ce4bhlh2rcd13ifvqgig","pricing_plan_id":"cebpf4jnsgd1na2vs0mg"},{"bike_id":"af7d62a3-9dd4-4a14-8ce3-460ca17c81d5","system_id":"levelo_inurba_marseille","lat":43.330286,"lon":5.390429,"is_reserved":false,"is_disabled":false,"rental_uris":{"android":"levelo://app?vid=af7d62a3-9dd4-4a14-8ce3-460ca17c81d5","ios":"levelo://app?vid=af7d62a3-9dd4-4a14-8ce3-460ca17c81d5"},"vehicle_type_id":"4","last_reported":1738822401,"current_range_meters":27200,"station_id":"ce4bhr92rcd13ifvqhrg","pricing_plan_id":"cebpf4jnsgd1na2vs0mg"},{"bike_id":"aa0d92f4-82df-4948-9930-90d93b687eba","system_id":"levelo_inurba_marseille","lat":43.25111,"lon":5.40311,"is_reserved":false,"is_disabled":false,"rental_uris":{"android":"levelo://app?vid=aa0d92f4-82df-4948-9930-90d93b687eba","ios":"levelo://app?vid=aa0d92f4-82df-4948-9930-90d93b687eba"},"vehicle_type_id":"4","last_reported":1738822401,"current_range_meters":10000,"station_id":"ce4bhlh2rcd13ifvqgig","pricing_plan_id":"cebpf4jnsgd1na2vs0mg"},{"bike_id":"7eaacd34-10f9-4246-8aa1-4a22e07a7c06","system_id":"levelo_inurba_marseille","lat":43.316354,"lon":5.3741,"is_reserved":false,"is_disabled":false,"rental_uris":{"android":"levelo://app?vid=7eaacd34-10f9-4246-8aa1-4a22e07a7c06","ios":"levelo://app?vid=7eaacd34-10f9-4246-8aa1-4a22e07a7c06"},"vehicle_type_id":"4","last_reported":1738822401,"current_range_meters":24000,"station_id":"","pricing_plan_id":"cebpf4jnsgd1na2vs0mg"},{"bike_id":"b85d0f36-4ceb-47ae-b932-72d8372ef081","system_id":"levelo_inurba_marseille","lat":43.23195,"lon":5.39973,"is_reserved":false,"is_disabled":false,"rental_uris":{"android":"levelo://app?vid=b85d0f36-4ceb-47ae-b932-72d8372ef081","ios":"levelo://app?vid=b85d0f36-4ceb-47ae-b932-72d8372ef081"},"vehicle_type_id":"4","last_reported":1738822401,"current_range_meters":38000,"station_id":"ce4bhn12rcd13ifvqgqg","pricing_plan_id":"cebpf4jnsgd1na2vs0mg"},{"bike_id":"695c8159-ac4a-408d-a3d5-26e203af1693","system_id":"levelo_inurba_marseille","lat":43.330184,"lon":5.390407,"is_reserved":false,"is_disabled":false,"rental_uris":{"android":"levelo://app?vid=695c8159-ac4a-408d-a3d5-26e203af1693","ios":"levelo://app?vid=695c8159-ac4a-408d-a3d5-26e203af1693"},"vehicle_type_id":"4","last_reported":1738822401,"current_range_meters":34000,"station_id":"ce4bhr92rcd13ifvqhrg","pricing_plan_id":"cebpf4jnsgd1na2vs0mg"},{"bike_id":"19cfb078-9854-4658-91b7-e1746e55420c","system_id":"levelo_inurba_marseille","lat":43.31531,"lon":5.3803,"is_reserved":false,"is_disabled":false,"rental_uris":{"android":"levelo://app?vid=19cfb078-9854-4658-91b7-e1746e55420c","ios":"levelo://app?vid=19cfb078-9854-4658-91b7-e1746e55420c"},"vehicle_type_id":"4","last_reported":1738822401,"current_range_meters":38800,"station_id":"ce4bhsp2rcd13ifvqi50","pricing_plan_id":"cebpf4jnsgd1na2vs0mg"},{"bike_id":"321a7fe4-6953-4c8f-9479-aca227879548","system_id":"levelo_inurba_marseille","lat":43.23951,"lon":5.36655,"is_reserved":false,"is_disabled":false,"rental_uris":{"android":"levelo://app?vid=321a7fe4-6953-4c8f-9479-aca227879548","ios":"levelo://app?vid=321a7fe4-6953-4c8f-9479-aca227879548"},"vehicle_type_id":"4","last_reported":1738822401,"current_range_meters":36800,"station_id":"ce4bhi12rcd13ifvqfp0","pricing_plan_id":"cebpf4jnsgd1na2vs0mg"},{"bike_id":"11c556d6-c6b7-4156-aeb0-e99ce30fdcd7","system_id":"levelo_inurba_marseille","lat":43.24809,"lon":5.37461,"is_reserved":false,"is_disabled":false,"rental_uris":{"android":"levelo://app?vid=11c556d6-c6b7-4156-aeb0-e99ce30fdcd7","ios":"levelo://app?vid=11c556d6-c6b7-4156-aeb0-e99ce30fdcd7"},"vehicle_type_id":"4","last_reported":1738822401,"current_range_meters":19200,"station_id":"ce4bhgh2rcd13ifvqfb0","pricing_plan_id":"cebpf4jnsgd1na2vs0mg"},{"bike_id":"bd42563d-6ded-4a27-8446-f13fff32889d","system_id":"levelo_inurba_marseille","lat":43.31775,"lon":5.39006,"is_reserved":false,"is_disabled":false,"rental_uris":{"android":"levelo://app?vid=bd42563d-6ded-4a27-8446-f13fff32889d","ios":"levelo://app?vid=bd42563d-6ded-4a27-8446-f13fff32889d"},"vehicle_type_id":"4","last_reported":1738822401,"current_range_meters":38800,"station_id":"ce4bhqp2rcd13ifvqhng","pricing_plan_id":"cebpf4jnsgd1na2vs0mg"},{"bike_id":"f7fb2d19-273e-48be-836c-c6cdf3cdce36","system_id":"levelo_inurba_marseille","lat":43.278967,"lon":5.380104,"is_reserved":false,"is_disabled":false,"rental_uris":{"android":"levelo://app?vid=f7fb2d19-273e-48be-836c-c6cdf3cdce36","ios":"levelo://app?vid=f7fb2d19-273e-48be-836c-c6cdf3cdce36"},"vehicle_type_id":"4","last_reported":1738822401,"current_range_meters":38800,"station_id":"ce4bhf92rcd13ifvqf50","pricing_plan_id":"cebpf4jnsgd1na2vs0mg"},{"bike_id":"c3a2d914-e3cd-4989-986c-4236c37f2764","system_id":"levelo_inurba_marseille","lat":43.28703,"lon":5.39991,"is_reserved":false,"is_disabled":false,"rental_uris":{"android":"levelo://app?vid=c3a2d914-e3cd-4989-986c-4236c37f2764","ios":"levelo://app?vid=c3a2d914-e3cd-4989-986c-4236c37f2764"},"vehicle_type_id":"4","last_reported":1738822401,"current_range_meters":9600,"station_id":"ce4bho92rcd13ifvqh3g","pricing_plan_id":"cebpf4jnsgd1na2vs0mg"},{"bike_id":"a6ba5ef6-5b99-47d9-acea-ad62a4cd0a59","system_id":"levelo_inurba_marseille","lat":43.26556,"lon":5.3922,"is_reserved":false,"is_disabled":false,"rental_uris":{"android":"levelo://app?vid=a6ba5ef6-5b99-47d9-acea-ad62a4cd0a59","ios":"levelo://app?vid=a6ba5ef6-5b99-47d9-acea-ad62a4cd0a59"},"vehicle_type_id":"4","last_reported":1738822401,"current_range_meters":36400,"station_id":"","pricing_plan_id":"cebpf4jnsgd1na2vs0mg"},{"bike_id":"85506d97-0f87-4df9-ad07-8dd2dedad0b3","system_id":"levelo_inurba_marseille","lat":43.272066,"lon":5.392036,"is_reserved":false,"is_disabled":true,"rental_uris":{"android":"levelo://app?vid=85506d97-0f87-4df9-ad07-8dd2dedad0b3","ios":"levelo://app?vid=85506d97-0f87-4df9-ad07-8dd2dedad0b3"},"vehicle_type_id":"4","last_reported":1738822401,"current_range_meters":34800,"station_id":"ce4bhhp2rcd13ifvqfm0","pricing_plan_id":"cebpf4jnsgd1na2vs0mg"},{"bike_id":"a1a7079b-68b5-45ca-9af8-b6bc9f7cd559","system_id":"levelo_inurba_marseille","lat":43.22926,"lon":5.35381,"is_reserved":false,"is_disabled":false,"rental_uris":{"android":"levelo://app?vid=a1a7079b-68b5-45ca-9af8-b6bc9f7cd559","ios":"levelo://app?vid=a1a7079b-68b5-45ca-9af8-b6bc9f7cd559"},"vehicle_type_id":"4","last_reported":1738822401,"current_range_meters":38800,"station_id":"cpo3532slgdg3j2ikp40","pricing_plan_id":"cebpf4jnsgd1na2vs0mg"},{"bike_id":"32480292-98f8-436a-9519-385363f907cc","system_id":"levelo_inurba_marseille","lat":43.24071,"lon":5.37758,"is_reserved":false,"is_disabled":false,"rental_uris":{"android":"levelo://app?vid=32480292-98f8-436a-9519-385363f907cc","ios":"levelo://app?vid=32480292-98f8-436a-9519-385363f907cc"},"vehicle_type_id":"4","last_reported":1738822401,"current_range_meters":27200,"station_id":"ce4bhnp2rcd13ifvqgvg","pricing_plan_id":"cebpf4jnsgd1na2vs0mg"},{"bike_id":"b2660fa8-4e11-4fe9-a0db-a5dbdd15312e","system_id":"levelo_inurba_marseille","lat":43.24387,"lon":5.37087,"is_reserved":false,"is_disabled":false,"rental_uris":{"android":"levelo://app?vid=b2660fa8-4e11-4fe9-a0db-a5dbdd15312e","ios":"levelo://app?vid=b2660fa8-4e11-4fe9-a0db-a5dbdd15312e"},"vehicle_type_id":"4","last_reported":1738822401,"current_range_meters":6800,"station_id":"ce4bhhh2rcd13ifvqfk0","pricing_plan_id":"cebpf4jnsgd1na2vs0mg"},{"bike_id":"99e6c8e3-5c86-415c-b3f7-c87c1418cb77","system_id":"levelo_inurba_marseille","lat":43.30481,"lon":5.37911,"is_reserved":false,"is_disabled":false,"rental_uris":{"android":"levelo://app?vid=99e6c8e3-5c86-415c-b3f7-c87c1418cb77","ios":"levelo://app?vid=99e6c8e3-5c86-415c-b3f7-c87c1418cb77"},"vehicle_type_id":"4","last_reported":1738822401,"current_range_meters":15200,"station_id":"ce4bgup2rcd13ifvqcn0","pricing_plan_id":"cebpf4jnsgd1na2vs0mg"},{"bike_id":"9bed730f-1adf-4444-a5ac-fa2d282ef048","system_id":"levelo_inurba_marseille","lat":43.30788,"lon":5.43512,"is_reserved":false,"is_disabled":false,"rental_uris":{"android":"levelo://app?vid=9bed730f-1adf-4444-a5ac-fa2d282ef048","ios":"levelo://app?vid=9bed730f-1adf-4444-a5ac-fa2d282ef048"},"vehicle_type_id":"4","last_reported":1738822401,"current_range_meters":38800,"station_id":"ce4bhph2rcd13ifvqheg","pricing_plan_id":"cebpf4jnsgd1na2vs0mg"},{"bike_id":"90c4c78b-e4a7-4853-a5ee-228a6bb5a7ce","system_id":"levelo_inurba_marseille","lat":43.29034,"lon":5.37568,"is_reserved":false,"is_disabled":true,"rental_uris":{"android":"levelo://app?vid=90c4c78b-e4a7-4853-a5ee-228a6bb5a7ce","ios":"levelo://app?vid=90c4c78b-e4a7-4853-a5ee-228a6bb5a7ce"},"vehicle_type_id":"4","last_reported":1738822401,"current_range_meters":38800,"station_id":"ce4bh692rcd13ifvqe90","pricing_plan_id":"cebpf4jnsgd1na2vs0mg"},{"bike_id":"b0b70dbd-bdde-4326-96ee-f00c6aa1d2d8","system_id":"levelo_inurba_marseille","lat":43.336,"lon":5.41037,"is_reserved":false,"is_disabled":false,"rental_uris":{"android":"levelo://app?vid=b0b70dbd-bdde-4326-96ee-f00c6aa1d2d8","ios":"levelo://app?vid=b0b70dbd-bdde-4326-96ee-f00c6aa1d2d8"},"vehicle_type_id":"4","last_reported":1738822401,"current_range_meters":25600,"station_id":"ce4bhqh2rcd13ifvqhmg","pricing_plan_id":"cebpf4jnsgd1na2vs0mg"},{"bike_id":"f423adf0-93aa-4c47-9d8a-b1e2e7e85005","system_id":"levelo_inurba_marseille","lat":43.28426,"lon":5.34991,"is_reserved":false,"is_disabled":true,"rental_uris":{"android":"levelo://app?vid=f423adf0-93aa-4c47-9d8a-b1e2e7e85005","ios":"levelo://app?vid=f423adf0-93aa-4c47-9d8a-b1e2e7e85005"},"vehicle_type_id":"4","last_reported":1738822401,"current_range_meters":8400,"station_id":"ce4bhbh2rcd13ifvqepg","pricing_plan_id":"cebpf4jnsgd1na2vs0mg"},{"bike_id":"770db6e9-cd74-4bd2-9d00-237aaff5d805","system_id":"levelo_inurba_marseille","lat":43.311692,"lon":5.387108,"is_reserved":false,"is_disabled":false,"rental_uris":{"android":"levelo://app?vid=770db6e9-cd74-4bd2-9d00-237aaff5d805","ios":"levelo://app?vid=770db6e9-cd74-4bd2-9d00-237aaff5d805"},"vehicle_type_id":"4","last_reported":1738822401,"current_range_meters":38800,"station_id":"ce4bgv12rcd13ifvqcp0","pricing_plan_id":"cebpf4jnsgd1na2vs0mg"},{"bike_id":"28e814d5-4407-4077-a3f3-b04d77aefc7f","system_id":"levelo_inurba_marseille","lat":43.286231,"lon":5.35105,"is_reserved":false,"is_disabled":false,"rental_uris":{"android":"levelo://app?vid=28e814d5-4407-4077-a3f3-b04d77aefc7f","ios":"levelo://app?vid=28e814d5-4407-4077-a3f3-b04d77aefc7f"},"vehicle_type_id":"4","last_reported":1738822401,"current_range_meters":12400,"station_id":"ce4bhch2rcd13ifvqeug","pricing_plan_id":"cebpf4jnsgd1na2vs0mg"},{"bike_id":"31da273c-2d88-464d-8eff-b87d306a408c","system_id":"levelo_inurba_marseille","lat":43.29939,"lon":5.41328,"is_reserved":false,"is_disabled":false,"rental_uris":{"android":"levelo://app?vid=31da273c-2d88-464d-8eff-b87d306a408c","ios":"levelo://app?vid=31da273c-2d88-464d-8eff-b87d306a408c"},"vehicle_type_id":"4","last_reported":1738822401,"current_range_meters":38400,"station_id":"ce4bhp12rcd13ifvqh9g","pricing_plan_id":"cebpf4jnsgd1na2vs0mg"},{"bike_id":"49f42e61-7df8-4e08-b6b1-a6e7e41bbd01","system_id":"levelo_inurba_marseille","lat":43.2677,"lon":5.39432,"is_reserved":false,"is_disabled":false,"rental_uris":{"android":"levelo://app?vid=49f42e61-7df8-4e08-b6b1-a6e7e41bbd01","ios":"levelo://app?vid=49f42e61-7df8-4e08-b6b1-a6e7e41bbd01"},"vehicle_type_id":"4","last_reported":1738822401,"current_range_meters":37600,"station_id":"ce4bhh12rcd13ifvqfg0","pricing_plan_id":"cebpf4jnsgd1na2vs0mg"},{"bike_id":"0e28d866-e509-43b0-8b1e-0fd6790842dc","system_id":"levelo_inurba_marseille","lat":43.29697,"lon":5.36639,"is_reserved":false,"is_disabled":false,"rental_uris":{"android":"levelo://app?vid=0e28d866-e509-43b0-8b1e-0fd6790842dc","ios":"levelo://app?vid=0e28d866-e509-43b0-8b1e-0fd6790842dc"},"vehicle_type_id":"4","last_reported":1738822401,"current_range_meters":33200,"station_id":"ce4bgn12rcd13ifvqbt0","pricing_plan_id":"cebpf4jnsgd1na2vs0mg"},{"bike_id":"32155d92-6a5d-4149-bd83-b23de380e002","system_id":"levelo_inurba_marseille","lat":43.286846,"lon":5.386609,"is_reserved":false,"is_disabled":false,"rental_uris":{"android":"levelo://app?vid=32155d92-6a5d-4149-bd83-b23de380e002","ios":"levelo://app?vid=32155d92-6a5d-4149-bd83-b23de380e002"},"vehicle_type_id":"4","last_reported":1738822401,"current_range_meters":38800,"station_id":"ce4bh492rcd13ifvqdug","pricing_plan_id":"cebpf4jnsgd1na2vs0mg"},{"bike_id":"22d7d5c8-23b1-4a29-9d97-2595194d451f","system_id":"levelo_inurba_marseille","lat":43.28112,"lon":5.378336,"is_reserved":false,"is_disabled":false,"rental_uris":{"android":"levelo://app?vid=22d7d5c8-23b1-4a29-9d97-2595194d451f","ios":"levelo://app?vid=22d7d5c8-23b1-4a29-9d97-2595194d451f"},"vehicle_type_id":"4","last_reported":1738822401,"current_range_meters":38800,"station_id":"ce4bha12rcd13ifvqee0","pricing_plan_id":"cebpf4jnsgd1na2vs0mg"},{"bike_id":"6bba36c7-75a6-4b1b-96cb-c03d219a6faa","system_id":"levelo_inurba_marseille","lat":43.33008,"lon":5.39048,"is_reserved":false,"is_disabled":false,"rental_uris":{"android":"levelo://app?vid=6bba36c7-75a6-4b1b-96cb-c03d219a6faa","ios":"levelo://app?vid=6bba36c7-75a6-4b1b-96cb-c03d219a6faa"},"vehicle_type_id":"4","last_reported":1738822401,"current_range_meters":34800,"station_id":"ce4bhr92rcd13ifvqhrg","pricing_plan_id":"cebpf4jnsgd1na2vs0mg"},{"bike_id":"6584c9b6-002d-4e04-8e77-7c80cb49906b","system_id":"levelo_inurba_marseille","lat":43.24665,"lon":5.381674,"is_reserved":false,"is_disabled":false,"rental_uris":{"android":"levelo://app?vid=6584c9b6-002d-4e04-8e77-7c80cb49906b","ios":"levelo://app?vid=6584c9b6-002d-4e04-8e77-7c80cb49906b"},"vehicle_type_id":"4","last_reported":1738822401,"current_range_meters":33200,"station_id":"ce4bhih2rcd13ifvqfr0","pricing_plan_id":"cebpf4jnsgd1na2vs0mg"},{"bike_id":"1af63a99-36b1-4f29-8c78-2e71539c52b6","system_id":"levelo_inurba_marseille","lat":43.28094,"lon":5.37895,"is_reserved":false,"is_disabled":false,"rental_uris":{"android":"levelo://app?vid=1af63a99-36b1-4f29-8c78-2e71539c52b6","ios":"levelo://app?vid=1af63a99-36b1-4f29-8c78-2e71539c52b6"},"vehicle_type_id":"4","last_reported":1738822401,"current_range_meters":33600,"station_id":"","pricing_plan_id":"cebpf4jnsgd1na2vs0mg"},{"bike_id":"72f7305e-164a-4aee-aee4-d2f7ba187038","system_id":"levelo_inurba_marseille","lat":43.25863,"lon":5.39907,"is_reserved":false,"is_disabled":false,"rental_uris":{"android":"levelo://app?vid=72f7305e-164a-4aee-aee4-d2f7ba187038","ios":"levelo://app?vid=72f7305e-164a-4aee-aee4-d2f7ba187038"},"vehicle_type_id":"4","last_reported":1738822401,"current_range_meters":37600,"station_id":"ce4bhl92rcd13ifvqghg","pricing_plan_id":"cebpf4jnsgd1na2vs0mg"},{"bike_id":"fd7df63b-a22c-4266-ac74-36048b4286e2","system_id":"levelo_inurba_marseille","lat":43.28844,"lon":5.39322,"is_reserved":false,"is_disabled":false,"rental_uris":{"android":"levelo://app?vid=fd7df63b-a22c-4266-ac74-36048b4286e2","ios":"levelo://app?vid=fd7df63b-a22c-4266-ac74-36048b4286e2"},"vehicle_type_id":"4","last_reported":1738822401,"current_range_meters":28400,"station_id":"ce4bh2p2rcd13ifvqdi0","pricing_plan_id":"cebpf4jnsgd1na2vs0mg"},{"bike_id":"c90bee22-93e6-4769-a402-7c2dd626c38f","system_id":"levelo_inurba_marseille","lat":43.27632,"lon":5.36104,"is_reserved":false,"is_disabled":false,"rental_uris":{"android":"levelo://app?vid=c90bee22-93e6-4769-a402-7c2dd626c38f","ios":"levelo://app?vid=c90bee22-93e6-4769-a402-7c2dd626c38f"},"vehicle_type_id":"4","last_reported":1738822401,"current_range_meters":34000,"station_id":"ce4bgj92rcd13ifvqbe0","pricing_plan_id":"cebpf4jnsgd1na2vs0mg"},{"bike_id":"8a3d1279-b585-4015-a7be-c0f5483f4a37","system_id":"levelo_inurba_marseille","lat":43.27495,"lon":5.42489,"is_reserved":false,"is_disabled":false,"rental_uris":{"android":"levelo://app?vid=8a3d1279-b585-4015-a7be-c0f5483f4a37","ios":"levelo://app?vid=8a3d1279-b585-4015-a7be-c0f5483f4a37"},"vehicle_type_id":"4","last_reported":1738822401,"current_range_meters":10800,"station_id":"ce4bhn92rcd13ifvqgrg","pricing_plan_id":"cebpf4jnsgd1na2vs0mg"},{"bike_id":"865da38e-7662-4cd0-8259-ddab14436918","system_id":"levelo_inurba_marseille","lat":43.28433,"lon":5.39194,"is_reserved":false,"is_disabled":false,"rental_uris":{"android":"levelo://app?vid=865da38e-7662-4cd0-8259-ddab14436918","ios":"levelo://app?vid=865da38e-7662-4cd0-8259-ddab14436918"},"vehicle_type_id":"4","last_reported":1738822401,"current_range_meters":38800,"station_id":"ce4bhoh2rcd13ifvqh5g","pricing_plan_id":"cebpf4jnsgd1na2vs0mg"},{"bike_id":"d69c5a00-8b64-43d4-b324-26a3f1e144b0","system_id":"levelo_inurba_marseille","lat":43.292534,"lon":5.409029,"is_reserved":false,"is_disabled":false,"rental_uris":{"android":"levelo://app?vid=d69c5a00-8b64-43d4-b324-26a3f1e144b0","ios":"levelo://app?vid=d69c5a00-8b64-43d4-b324-26a3f1e144b0"},"vehicle_type_id":"4","last_reported":1738822401,"current_range_meters":36400,"station_id":"ce4bh192rcd13ifvqdc0","pricing_plan_id":"cebpf4jnsgd1na2vs0mg"},{"bike_id":"7f657d43-65c7-468d-ad0e-f606466b52ae","system_id":"levelo_inurba_marseille","lat":43.32463,"lon":5.36566,"is_reserved":false,"is_disabled":false,"rental_uris":{"android":"levelo://app?vid=7f657d43-65c7-468d-ad0e-f606466b52ae","ios":"levelo://app?vid=7f657d43-65c7-468d-ad0e-f606466b52ae"},"vehicle_type_id":"4","last_reported":1738822401,"current_range_meters":15200,"station_id":"ce4bhs12rcd13ifvqhvg","pricing_plan_id":"cebpf4jnsgd1na2vs0mg"},{"bike_id":"585829b3-6401-45a0-8835-1ef0bbd3a57c","system_id":"levelo_inurba_marseille","lat":43.28166,"lon":5.42647,"is_reserved":false,"is_disabled":false,"rental_uris":{"android":"levelo://app?vid=585829b3-6401-45a0-8835-1ef0bbd3a57c","ios":"levelo://app?vid=585829b3-6401-45a0-8835-1ef0bbd3a57c"},"vehicle_type_id":"4","last_reported":1738822401,"current_range_meters":25600,"station_id":"ce4bhnh2rcd13ifvqgug","pricing_plan_id":"cebpf4jnsgd1na2vs0mg"},{"bike_id":"0935962c-eaed-4167-8c21-8fd3dfde3c4f","system_id":"levelo_inurba_marseille","lat":43.26679,"lon":5.38269,"is_reserved":false,"is_disabled":false,"rental_uris":{"android":"levelo://app?vid=0935962c-eaed-4167-8c21-8fd3dfde3c4f","ios":"levelo://app?vid=0935962c-eaed-4167-8c21-8fd3dfde3c4f"},"vehicle_type_id":"4","last_reported":1738822401,"current_range_meters":27600,"station_id":"ce4bhg92rcd13ifvqf90","pricing_plan_id":"cebpf4jnsgd1na2vs0mg"},{"bike_id":"4a71a176-eb41-4410-abfa-fed6dcd64cff","system_id":"levelo_inurba_marseille","lat":43.31177,"lon":5.38707,"is_reserved":false,"is_disabled":false,"rental_uris":{"android":"levelo://app?vid=4a71a176-eb41-4410-abfa-fed6dcd64cff","ios":"levelo://app?vid=4a71a176-eb41-4410-abfa-fed6dcd64cff"},"vehicle_type_id":"4","last_reported":1738822401,"current_range_meters":39200,"station_id":"ce4bgv12rcd13ifvqcp0","pricing_plan_id":"cebpf4jnsgd1na2vs0mg"},{"bike_id":"456c2483-451e-4b48-9b76-5c5ac4c47346","system_id":"levelo_inurba_marseille","lat":43.28101,"lon":5.39647,"is_reserved":false,"is_disabled":false,"rental_uris":{"android":"levelo://app?vid=456c2483-451e-4b48-9b76-5c5ac4c47346","ios":"levelo://app?vid=456c2483-451e-4b48-9b76-5c5ac4c47346"},"vehicle_type_id":"4","last_reported":1738822401,"current_range_meters":10000,"station_id":"ce4bho12rcd13ifvqh2g","pricing_plan_id":"cebpf4jnsgd1na2vs0mg"},{"bike_id":"3715ef74-2343-44e5-af7f-05285560b3e5","system_id":"levelo_inurba_marseille","lat":43.28639,"lon":5.36387,"is_reserved":false,"is_disabled":false,"rental_uris":{"android":"levelo://app?vid=3715ef74-2343-44e5-af7f-05285560b3e5","ios":"levelo://app?vid=3715ef74-2343-44e5-af7f-05285560b3e5"},"vehicle_type_id":"4","last_reported":1738822401,"current_range_meters":38800,"station_id":"ce4bhah2rcd13ifvqej0","pricing_plan_id":"cebpf4jnsgd1na2vs0mg"},{"bike_id":"5beba67c-ea4a-4d78-a82b-da804eb7867e","system_id":"levelo_inurba_marseille","lat":43.30665,"lon":5.40056,"is_reserved":false,"is_disabled":false,"rental_uris":{"android":"levelo://app?vid=5beba67c-ea4a-4d78-a82b-da804eb7867e","ios":"levelo://app?vid=5beba67c-ea4a-4d78-a82b-da804eb7867e"},"vehicle_type_id":"4","last_reported":1738822401,"current_range_meters":8000,"station_id":"ce4bh112rcd13ifvqda0","pricing_plan_id":"cebpf4jnsgd1na2vs0mg"},{"bike_id":"c67d8e59-7626-453e-9b14-a4daf41b2b5f","system_id":"levelo_inurba_marseille","lat":43.28559,"lon":5.39499,"is_reserved":false,"is_disabled":false,"rental_uris":{"android":"levelo://app?vid=c67d8e59-7626-453e-9b14-a4daf41b2b5f","ios":"levelo://app?vid=c67d8e59-7626-453e-9b14-a4daf41b2b5f"},"vehicle_type_id":"4","last_reported":1738822401,"current_range_meters":38800,"station_id":"ce4bh292rcd13ifvqdg0","pricing_plan_id":"cebpf4jnsgd1na2vs0mg"},{"bike_id":"6712f04b-f35d-4e3a-a70d-c89aec85d9b2","system_id":"levelo_inurba_marseille","lat":43.2293,"lon":5.35397,"is_reserved":false,"is_disabled":false,"rental_uris":{"android":"levelo://app?vid=6712f04b-f35d-4e3a-a70d-c89aec85d9b2","ios":"levelo://app?vid=6712f04b-f35d-4e3a-a70d-c89aec85d9b2"},"vehicle_type_id":"4","last_reported":1738822401,"current_range_meters":38400,"station_id":"cpo3532slgdg3j2ikp40","pricing_plan_id":"cebpf4jnsgd1na2vs0mg"},{"bike_id":"7db43954-496b-4924-89e8-8ce217c559c1","system_id":"levelo_inurba_marseille","lat":43.29645,"lon":5.40586,"is_reserved":false,"is_disabled":false,"rental_uris":{"android":"levelo://app?vid=7db43954-496b-4924-89e8-8ce217c559c1","ios":"levelo://app?vid=7db43954-496b-4924-89e8-8ce217c559c1"},"vehicle_type_id":"4","last_reported":1738822401,"current_range_meters":36400,"station_id":"ce4bh0h2rcd13ifvqd60","pricing_plan_id":"cebpf4jnsgd1na2vs0mg"},{"bike_id":"9470dd73-7393-47ca-8f05-fd76cdac2879","system_id":"levelo_inurba_marseille","lat":43.24063,"lon":5.37776,"is_reserved":false,"is_disabled":false,"rental_uris":{"android":"levelo://app?vid=9470dd73-7393-47ca-8f05-fd76cdac2879","ios":"levelo://app?vid=9470dd73-7393-47ca-8f05-fd76cdac2879"},"vehicle_type_id":"4","last_reported":1738822401,"current_range_meters":38800,"station_id":"ce4bhnp2rcd13ifvqgvg","pricing_plan_id":"cebpf4jnsgd1na2vs0mg"},{"bike_id":"5169f958-fc07-489b-b19b-5b31b5506996","system_id":"levelo_inurba_marseille","lat":43.301445,"lon":5.380805,"is_reserved":false,"is_disabled":false,"rental_uris":{"android":"levelo://app?vid=5169f958-fc07-489b-b19b-5b31b5506996","ios":"levelo://app?vid=5169f958-fc07-489b-b19b-5b31b5506996"},"vehicle_type_id":"4","last_reported":1738822401,"current_range_meters":24800,"station_id":"ce4bgjp2rcd13ifvqbh0","pricing_plan_id":"cebpf4jnsgd1na2vs0mg"},{"bike_id":"cb2e142b-8956-4e08-816f-7dc7ab66ecae","system_id":"levelo_inurba_marseille","lat":43.317048,"lon":5.377603,"is_reserved":false,"is_disabled":false,"rental_uris":{"android":"levelo://app?vid=cb2e142b-8956-4e08-816f-7dc7ab66ecae","ios":"levelo://app?vid=cb2e142b-8956-4e08-816f-7dc7ab66ecae"},"vehicle_type_id":"4","last_reported":1738822401,"current_range_meters":38800,"station_id":"ce4bgth2rcd13ifvqch0","pricing_plan_id":"cebpf4jnsgd1na2vs0mg"},{"bike_id":"2c0e26dd-9e66-407f-9384-efd866399aa3","system_id":"levelo_inurba_marseille","lat":43.291698,"lon":5.371414,"is_reserved":false,"is_disabled":true,"rental_uris":{"android":"levelo://app?vid=2c0e26dd-9e66-407f-9384-efd866399aa3","ios":"levelo://app?vid=2c0e26dd-9e66-407f-9384-efd866399aa3"},"vehicle_type_id":"4","last_reported":1738822401,"current_range_meters":38400,"station_id":"ce4bha92rcd13ifvqeh0","pricing_plan_id":"cebpf4jnsgd1na2vs0mg"},{"bike_id":"dc7db974-d980-497c-8b46-2a77b822124c","system_id":"levelo_inurba_marseille","lat":43.29446,"lon":5.39742,"is_reserved":false,"is_disabled":false,"rental_uris":{"android":"levelo://app?vid=dc7db974-d980-497c-8b46-2a77b822124c","ios":"levelo://app?vid=dc7db974-d980-497c-8b46-2a77b822124c"},"vehicle_type_id":"4","last_reported":1738822401,"current_range_meters":30800,"station_id":"ce4bh3h2rcd13ifvqdo0","pricing_plan_id":"cebpf4jnsgd1na2vs0mg"},{"bike_id":"65ba0a5d-7185-49a0-ac1c-710fa5b31319","system_id":"levelo_inurba_marseille","lat":43.29216,"lon":5.36062,"is_reserved":false,"is_disabled":false,"rental_uris":{"android":"levelo://app?vid=65ba0a5d-7185-49a0-ac1c-710fa5b31319","ios":"levelo://app?vid=65ba0a5d-7185-49a0-ac1c-710fa5b31319"},"vehicle_type_id":"4","last_reported":1738822401,"current_range_meters":36800,"station_id":"ce4bhbh2rcd13ifvqeqg","pricing_plan_id":"cebpf4jnsgd1na2vs0mg"},{"bike_id":"de17b08d-e7c7-4305-ae96-d404f42cebb5","system_id":"levelo_inurba_marseille","lat":43.29929,"lon":5.3655,"is_reserved":false,"is_disabled":false,"rental_uris":{"android":"levelo://app?vid=de17b08d-e7c7-4305-ae96-d404f42cebb5","ios":"levelo://app?vid=de17b08d-e7c7-4305-ae96-d404f42cebb5"},"vehicle_type_id":"4","last_reported":1738822401,"current_range_meters":24000,"station_id":"ce4bgm92rcd13ifvqbr0","pricing_plan_id":"cebpf4jnsgd1na2vs0mg"},{"bike_id":"d2883f5c-c74b-4794-a67e-fcb675612689","system_id":"levelo_inurba_marseille","lat":43.298828,"lon":5.397441,"is_reserved":false,"is_disabled":false,"rental_uris":{"android":"levelo://app?vid=d2883f5c-c74b-4794-a67e-fcb675612689","ios":"levelo://app?vid=d2883f5c-c74b-4794-a67e-fcb675612689"},"vehicle_type_id":"4","last_reported":1738822401,"current_range_meters":35600,"station_id":"ce4bh0h2rcd13ifvqd50","pricing_plan_id":"cebpf4jnsgd1na2vs0mg"},{"bike_id":"96283d00-ede9-46ed-a906-e47bd3a98cc9","system_id":"levelo_inurba_marseille","lat":43.2792,"lon":5.39595,"is_reserved":false,"is_disabled":false,"rental_uris":{"android":"levelo://app?vid=96283d00-ede9-46ed-a906-e47bd3a98cc9","ios":"levelo://app?vid=96283d00-ede9-46ed-a906-e47bd3a98cc9"},"vehicle_type_id":"4","last_reported":1738822401,"current_range_meters":34800,"station_id":"ce4bhf92rcd13ifvqf40","pricing_plan_id":"cebpf4jnsgd1na2vs0mg"},{"bike_id":"12be4a65-e7b3-4220-9442-37e04da9989a","system_id":"levelo_inurba_marseille","lat":43.27179,"lon":5.40961,"is_reserved":false,"is_disabled":false,"rental_uris":{"android":"levelo://app?vid=12be4a65-e7b3-4220-9442-37e04da9989a","ios":"levelo://app?vid=12be4a65-e7b3-4220-9442-37e04da9989a"},"vehicle_type_id":"4","last_reported":1738822401,"current_range_meters":38800,"station_id":"ce4bhl12rcd13ifvqgf0","pricing_plan_id":"cebpf4jnsgd1na2vs0mg"},{"bike_id":"8604271a-1856-49cc-98e1-13f33c6adfc2","system_id":"levelo_inurba_marseille","lat":43.3136,"lon":5.367,"is_reserved":false,"is_disabled":false,"rental_uris":{"android":"levelo://app?vid=8604271a-1856-49cc-98e1-13f33c6adfc2","ios":"levelo://app?vid=8604271a-1856-49cc-98e1-13f33c6adfc2"},"vehicle_type_id":"4","last_reported":1738822401,"current_range_meters":38400,"station_id":"ce4bgr92rcd13ifvqc6g","pricing_plan_id":"cebpf4jnsgd1na2vs0mg"},{"bike_id":"091d41d7-c1d3-4cdf-9b5c-052439e6b669","system_id":"levelo_inurba_marseille","lat":43.30483,"lon":5.36678,"is_reserved":false,"is_disabled":true,"rental_uris":{"android":"levelo://app?vid=091d41d7-c1d3-4cdf-9b5c-052439e6b669","ios":"levelo://app?vid=091d41d7-c1d3-4cdf-9b5c-052439e6b669"},"vehicle_type_id":"4","last_reported":1738822401,"current_range_meters":24400,"station_id":"","pricing_plan_id":"cebpf4jnsgd1na2vs0mg"},{"bike_id":"205283b2-a0b9-4a6f-b278-0f0a01187f2c","system_id":"levelo_inurba_marseille","lat":43.30891,"lon":5.39639,"is_reserved":false,"is_disabled":false,"rental_uris":{"android":"levelo://app?vid=205283b2-a0b9-4a6f-b278-0f0a01187f2c","ios":"levelo://app?vid=205283b2-a0b9-4a6f-b278-0f0a01187f2c"},"vehicle_type_id":"4","last_reported":1738822401,"current_range_meters":38000,"station_id":"ce4bh012rcd13ifvqcv0","pricing_plan_id":"cebpf4jnsgd1na2vs0mg"},{"bike_id":"44dde5cf-c2f0-4ca3-a927-e2c7152ee089","system_id":"levelo_inurba_marseille","lat":43.278126,"lon":5.407114,"is_reserved":false,"is_disabled":false,"rental_uris":{"android":"levelo://app?vid=44dde5cf-c2f0-4ca3-a927-e2c7152ee089","ios":"levelo://app?vid=44dde5cf-c2f0-4ca3-a927-e2c7152ee089"},"vehicle_type_id":"4","last_reported":1738822401,"current_range_meters":38800,"station_id":"ce4bhnh2rcd13ifvqgtg","pricing_plan_id":"cebpf4jnsgd1na2vs0mg"},{"bike_id":"28ed67be-d274-4072-ac13-956e0df14b19","system_id":"levelo_inurba_marseille","lat":43.29859,"lon":5.39739,"is_reserved":false,"is_disabled":false,"rental_uris":{"android":"levelo://app?vid=28ed67be-d274-4072-ac13-956e0df14b19","ios":"levelo://app?vid=28ed67be-d274-4072-ac13-956e0df14b19"},"vehicle_type_id":"4","last_reported":1738822401,"current_range_meters":38800,"station_id":"ce4bh0h2rcd13ifvqd50","pricing_plan_id":"cebpf4jnsgd1na2vs0mg"},{"bike_id":"a6b2428a-7d23-4892-a3bf-86cc25978b7a","system_id":"levelo_inurba_marseille","lat":43.254899,"lon":5.376477,"is_reserved":false,"is_disabled":true,"rental_uris":{"android":"levelo://app?vid=a6b2428a-7d23-4892-a3bf-86cc25978b7a","ios":"levelo://app?vid=a6b2428a-7d23-4892-a3bf-86cc25978b7a"},"vehicle_type_id":"4","last_reported":1738822401,"current_range_meters":24000,"station_id":"ce4bhh12rcd13ifvqff0","pricing_plan_id":"cebpf4jnsgd1na2vs0mg"},{"bike_id":"8f55a9a2-e3bf-4734-b1cd-752d8460ce0f","system_id":"levelo_inurba_marseille","lat":43.29514,"lon":5.3941,"is_reserved":false,"is_disabled":false,"rental_uris":{"android":"levelo://app?vid=8f55a9a2-e3bf-4734-b1cd-752d8460ce0f","ios":"levelo://app?vid=8f55a9a2-e3bf-4734-b1cd-752d8460ce0f"},"vehicle_type_id":"4","last_reported":1738822401,"current_range_meters":38000,"station_id":"ce4bh292rcd13ifvqdf0","pricing_plan_id":"cebpf4jnsgd1na2vs0mg"},{"bike_id":"9e069c3b-a78d-4060-b3a9-a269e57bf4ef","system_id":"levelo_inurba_marseille","lat":43.29862,"lon":5.39725,"is_reserved":false,"is_disabled":false,"rental_uris":{"android":"levelo://app?vid=9e069c3b-a78d-4060-b3a9-a269e57bf4ef","ios":"levelo://app?vid=9e069c3b-a78d-4060-b3a9-a269e57bf4ef"},"vehicle_type_id":"4","last_reported":1738822401,"current_range_meters":39200,"station_id":"ce4bh0h2rcd13ifvqd50","pricing_plan_id":"cebpf4jnsgd1na2vs0mg"},{"bike_id":"c85a26e1-f53e-4ec1-b1ea-8b32d23f1f4d","system_id":"levelo_inurba_marseille","lat":43.23058,"lon":5.354894,"is_reserved":false,"is_disabled":false,"rental_uris":{"android":"levelo://app?vid=c85a26e1-f53e-4ec1-b1ea-8b32d23f1f4d","ios":"levelo://app?vid=c85a26e1-f53e-4ec1-b1ea-8b32d23f1f4d"},"vehicle_type_id":"4","last_reported":1738822401,"current_range_meters":18800,"station_id":"cpo3342slgdg3j2ifvpg","pricing_plan_id":"cebpf4jnsgd1na2vs0mg"},{"bike_id":"1368b82d-e5b6-4c03-95ce-b6cc44f0d8ef","system_id":"levelo_inurba_marseille","lat":43.28032,"lon":5.36946,"is_reserved":false,"is_disabled":false,"rental_uris":{"android":"levelo://app?vid=1368b82d-e5b6-4c03-95ce-b6cc44f0d8ef","ios":"levelo://app?vid=1368b82d-e5b6-4c03-95ce-b6cc44f0d8ef"},"vehicle_type_id":"4","last_reported":1738822401,"current_range_meters":38800,"station_id":"ce4bha12rcd13ifvqef0","pricing_plan_id":"cebpf4jnsgd1na2vs0mg"},{"bike_id":"c44714d4-d1ec-4f71-b2c6-cd30bee8b564","system_id":"levelo_inurba_marseille","lat":43.286991,"lon":5.399859,"is_reserved":false,"is_disabled":false,"rental_uris":{"android":"levelo://app?vid=c44714d4-d1ec-4f71-b2c6-cd30bee8b564","ios":"levelo://app?vid=c44714d4-d1ec-4f71-b2c6-cd30bee8b564"},"vehicle_type_id":"4","last_reported":1738822401,"current_range_meters":12800,"station_id":"ce4bho92rcd13ifvqh3g","pricing_plan_id":"cebpf4jnsgd1na2vs0mg"},{"bike_id":"7719c3fc-c35a-467e-a121-4f70bc9c738d","system_id":"levelo_inurba_marseille","lat":43.29201,"lon":5.35792,"is_reserved":false,"is_disabled":false,"rental_uris":{"android":"levelo://app?vid=7719c3fc-c35a-467e-a121-4f70bc9c738d","ios":"levelo://app?vid=7719c3fc-c35a-467e-a121-4f70bc9c738d"},"vehicle_type_id":"4","last_reported":1738822401,"current_range_meters":37600,"station_id":"ce4bhb12rcd13ifvqel0","pricing_plan_id":"cebpf4jnsgd1na2vs0mg"},{"bike_id":"d514230b-01d1-4e6e-b07b-dd83ae518c95","system_id":"levelo_inurba_marseille","lat":43.25073,"lon":5.39521,"is_reserved":false,"is_disabled":false,"rental_uris":{"android":"levelo://app?vid=d514230b-01d1-4e6e-b07b-dd83ae518c95","ios":"levelo://app?vid=d514230b-01d1-4e6e-b07b-dd83ae518c95"},"vehicle_type_id":"4","last_reported":1738822401,"current_range_meters":38800,"station_id":"ce4bhm12rcd13ifvqgkg","pricing_plan_id":"cebpf4jnsgd1na2vs0mg"},{"bike_id":"507e93c3-22fc-4f81-ba3f-14e58c053d5a","system_id":"levelo_inurba_marseille","lat":43.28154,"lon":5.42644,"is_reserved":false,"is_disabled":false,"rental_uris":{"android":"levelo://app?vid=507e93c3-22fc-4f81-ba3f-14e58c053d5a","ios":"levelo://app?vid=507e93c3-22fc-4f81-ba3f-14e58c053d5a"},"vehicle_type_id":"4","last_reported":1738822401,"current_range_meters":27200,"station_id":"ce4bhnh2rcd13ifvqgug","pricing_plan_id":"cebpf4jnsgd1na2vs0mg"},{"bike_id":"565d6fca-10b7-4b88-8101-89e4cbc6df92","system_id":"levelo_inurba_marseille","lat":43.28847,"lon":5.35833,"is_reserved":false,"is_disabled":false,"rental_uris":{"android":"levelo://app?vid=565d6fca-10b7-4b88-8101-89e4cbc6df92","ios":"levelo://app?vid=565d6fca-10b7-4b88-8101-89e4cbc6df92"},"vehicle_type_id":"4","last_reported":1738822401,"current_range_meters":36400,"station_id":"ce4bhb12rcd13ifvqem0","pricing_plan_id":"cebpf4jnsgd1na2vs0mg"},{"bike_id":"969c5b62-9428-4d6f-938f-e63db2f5c261","system_id":"levelo_inurba_marseille","lat":43.28351,"lon":5.38097,"is_reserved":false,"is_disabled":false,"rental_uris":{"android":"levelo://app?vid=969c5b62-9428-4d6f-938f-e63db2f5c261","ios":"levelo://app?vid=969c5b62-9428-4d6f-938f-e63db2f5c261"},"vehicle_type_id":"4","last_reported":1738822401,"current_range_meters":33600,"station_id":"ce4bh412rcd13ifvqdr0","pricing_plan_id":"cebpf4jnsgd1na2vs0mg"},{"bike_id":"dd7795bc-6f04-4f5c-9aaf-a58758621eff","system_id":"levelo_inurba_marseille","lat":43.30157,"lon":5.38083,"is_reserved":false,"is_disabled":false,"rental_uris":{"android":"levelo://app?vid=dd7795bc-6f04-4f5c-9aaf-a58758621eff","ios":"levelo://app?vid=dd7795bc-6f04-4f5c-9aaf-a58758621eff"},"vehicle_type_id":"4","last_reported":1738822401,"current_range_meters":39200,"station_id":"ce4bgjp2rcd13ifvqbh0","pricing_plan_id":"cebpf4jnsgd1na2vs0mg"},{"bike_id":"bfec391f-a951-48b3-8a91-fa55aac51292","system_id":"levelo_inurba_marseille","lat":43.28461,"lon":5.38542,"is_reserved":false,"is_disabled":false,"rental_uris":{"android":"levelo://app?vid=bfec391f-a951-48b3-8a91-fa55aac51292","ios":"levelo://app?vid=bfec391f-a951-48b3-8a91-fa55aac51292"},"vehicle_type_id":"4","last_reported":1738822401,"current_range_meters":30000,"station_id":"ce4bh8p2rcd13ifvqeb0","pricing_plan_id":"cebpf4jnsgd1na2vs0mg"},{"bike_id":"812dad00-db70-4b92-80f1-8322a13938cd","system_id":"levelo_inurba_marseille","lat":43.27205,"lon":5.39172,"is_reserved":false,"is_disabled":false,"rental_uris":{"android":"levelo://app?vid=812dad00-db70-4b92-80f1-8322a13938cd","ios":"levelo://app?vid=812dad00-db70-4b92-80f1-8322a13938cd"},"vehicle_type_id":"4","last_reported":1738822401,"current_range_meters":37600,"station_id":"ce4bhhp2rcd13ifvqfm0","pricing_plan_id":"cebpf4jnsgd1na2vs0mg"},{"bike_id":"c27d8cef-128f-467e-8ca2-b33835376bb2","system_id":"levelo_inurba_marseille","lat":43.306554,"lon":5.400933,"is_reserved":false,"is_disabled":false,"rental_uris":{"android":"levelo://app?vid=c27d8cef-128f-467e-8ca2-b33835376bb2","ios":"levelo://app?vid=c27d8cef-128f-467e-8ca2-b33835376bb2"},"vehicle_type_id":"4","last_reported":1738822401,"current_range_meters":35600,"station_id":"ce4bh112rcd13ifvqda0","pricing_plan_id":"cebpf4jnsgd1na2vs0mg"},{"bike_id":"2c4d57d8-c0e5-4f88-bda1-196c075659e5","system_id":"levelo_inurba_marseille","lat":43.28377,"lon":5.38646,"is_reserved":false,"is_disabled":false,"rental_uris":{"android":"levelo://app?vid=2c4d57d8-c0e5-4f88-bda1-196c075659e5","ios":"levelo://app?vid=2c4d57d8-c0e5-4f88-bda1-196c075659e5"},"vehicle_type_id":"4","last_reported":1738822401,"current_range_meters":12000,"station_id":"ce4bh492rcd13ifvqdvg","pricing_plan_id":"cebpf4jnsgd1na2vs0mg"},{"bike_id":"1f60af65-67e4-4506-92ce-b099d71368bc","system_id":"levelo_inurba_marseille","lat":43.2737,"lon":5.36262,"is_reserved":false,"is_disabled":false,"rental_uris":{"android":"levelo://app?vid=1f60af65-67e4-4506-92ce-b099d71368bc","ios":"levelo://app?vid=1f60af65-67e4-4506-92ce-b099d71368bc"},"vehicle_type_id":"4","last_reported":1738822401,"current_range_meters":38400,"station_id":"ce4bhbh2rcd13ifvqeo0","pricing_plan_id":"cebpf4jnsgd1na2vs0mg"},{"bike_id":"6a27999e-0121-4a82-b572-358c3f852734","system_id":"levelo_inurba_marseille","lat":43.29025,"lon":5.399554,"is_reserved":false,"is_disabled":false,"rental_uris":{"android":"levelo://app?vid=6a27999e-0121-4a82-b572-358c3f852734","ios":"levelo://app?vid=6a27999e-0121-4a82-b572-358c3f852734"},"vehicle_type_id":"4","last_reported":1738822401,"current_range_meters":38800,"station_id":"ce4bh392rcd13ifvqdm0","pricing_plan_id":"cebpf4jnsgd1na2vs0mg"},{"bike_id":"24014241-5b95-4a31-94b3-518cf14b5577","system_id":"levelo_inurba_marseille","lat":43.30798,"lon":5.37645,"is_reserved":false,"is_disabled":true,"rental_uris":{"android":"levelo://app?vid=24014241-5b95-4a31-94b3-518cf14b5577","ios":"levelo://app?vid=24014241-5b95-4a31-94b3-518cf14b5577"},"vehicle_type_id":"4","last_reported":1738822401,"current_range_meters":27200,"station_id":"ce4bgv92rcd13ifvqcq0","pricing_plan_id":"cebpf4jnsgd1na2vs0mg"},{"bike_id":"a9d2cdd8-e8cc-40c9-87d7-d5a1d12197b1","system_id":"levelo_inurba_marseille","lat":43.27497,"lon":5.42456,"is_reserved":false,"is_disabled":false,"rental_uris":{"android":"levelo://app?vid=a9d2cdd8-e8cc-40c9-87d7-d5a1d12197b1","ios":"levelo://app?vid=a9d2cdd8-e8cc-40c9-87d7-d5a1d12197b1"},"vehicle_type_id":"4","last_reported":1738822401,"current_range_meters":38800,"station_id":"ce4bhn92rcd13ifvqgrg","pricing_plan_id":"cebpf4jnsgd1na2vs0mg"},{"bike_id":"053fe29b-8a6c-40a9-966e-365491a47db8","system_id":"levelo_inurba_marseille","lat":43.258209,"lon":5.394276,"is_reserved":false,"is_disabled":false,"rental_uris":{"android":"levelo://app?vid=053fe29b-8a6c-40a9-966e-365491a47db8","ios":"levelo://app?vid=053fe29b-8a6c-40a9-966e-365491a47db8"},"vehicle_type_id":"4","last_reported":1738822401,"current_range_meters":38800,"station_id":"ce4bhip2rcd13ifvqft0","pricing_plan_id":"cebpf4jnsgd1na2vs0mg"},{"bike_id":"07c5ae97-d777-4a56-9742-df935bfa8469","system_id":"levelo_inurba_marseille","lat":43.28937,"lon":5.36396,"is_reserved":false,"is_disabled":false,"rental_uris":{"android":"levelo://app?vid=07c5ae97-d777-4a56-9742-df935bfa8469","ios":"levelo://app?vid=07c5ae97-d777-4a56-9742-df935bfa8469"},"vehicle_type_id":"4","last_reported":1738822401,"current_range_meters":28000,"station_id":"ce4bhc92rcd13ifvqetg","pricing_plan_id":"cebpf4jnsgd1na2vs0mg"},{"bike_id":"405a9b8c-5cf1-485c-b2f3-8353ace33ecd","system_id":"levelo_inurba_marseille","lat":43.298959,"lon":5.436593,"is_reserved":false,"is_disabled":false,"rental_uris":{"android":"levelo://app?vid=405a9b8c-5cf1-485c-b2f3-8353ace33ecd","ios":"levelo://app?vid=405a9b8c-5cf1-485c-b2f3-8353ace33ecd"},"vehicle_type_id":"4","last_reported":1738822401,"current_range_meters":37600,"station_id":"ce4bhpp2rcd13ifvqhfg","pricing_plan_id":"cebpf4jnsgd1na2vs0mg"},{"bike_id":"35b0fbe6-22db-46fb-a54a-76af362a8729","system_id":"levelo_inurba_marseille","lat":43.299669,"lon":5.413295,"is_reserved":false,"is_disabled":false,"rental_uris":{"android":"levelo://app?vid=35b0fbe6-22db-46fb-a54a-76af362a8729","ios":"levelo://app?vid=35b0fbe6-22db-46fb-a54a-76af362a8729"},"vehicle_type_id":"4","last_reported":1738822401,"current_range_meters":35200,"station_id":"ce4bhp12rcd13ifvqh9g","pricing_plan_id":"cebpf4jnsgd1na2vs0mg"},{"bike_id":"88ce7e1b-d6f8-4620-beef-be982f304f3e","system_id":"levelo_inurba_marseille","lat":43.321,"lon":5.36774,"is_reserved":false,"is_disabled":false,"rental_uris":{"android":"levelo://app?vid=88ce7e1b-d6f8-4620-beef-be982f304f3e","ios":"levelo://app?vid=88ce7e1b-d6f8-4620-beef-be982f304f3e"},"vehicle_type_id":"4","last_reported":1738822401,"current_range_meters":38400,"station_id":"ce4bhrh2rcd13ifvqhug","pricing_plan_id":"cebpf4jnsgd1na2vs0mg"},{"bike_id":"344d1955-5263-40eb-a201-ab603aa02c10","system_id":"levelo_inurba_marseille","lat":43.23967,"lon":5.36629,"is_reserved":false,"is_disabled":false,"rental_uris":{"android":"levelo://app?vid=344d1955-5263-40eb-a201-ab603aa02c10","ios":"levelo://app?vid=344d1955-5263-40eb-a201-ab603aa02c10"},"vehicle_type_id":"4","last_reported":1738822401,"current_range_meters":38400,"station_id":"ce4bhi12rcd13ifvqfp0","pricing_plan_id":"cebpf4jnsgd1na2vs0mg"},{"bike_id":"af9efeec-d435-4e66-ae86-464193110739","system_id":"levelo_inurba_marseille","lat":43.28659,"lon":5.36353,"is_reserved":false,"is_disabled":false,"rental_uris":{"android":"levelo://app?vid=af9efeec-d435-4e66-ae86-464193110739","ios":"levelo://app?vid=af9efeec-d435-4e66-ae86-464193110739"},"vehicle_type_id":"4","last_reported":1738822401,"current_range_meters":38800,"station_id":"ce4bhah2rcd13ifvqej0","pricing_plan_id":"cebpf4jnsgd1na2vs0mg"},{"bike_id":"2f9a6647-bfb0-4c5f-b2d5-6b23d0794b76","system_id":"levelo_inurba_marseille","lat":43.25579,"lon":5.3824,"is_reserved":false,"is_disabled":true,"rental_uris":{"android":"levelo://app?vid=2f9a6647-bfb0-4c5f-b2d5-6b23d0794b76","ios":"levelo://app?vid=2f9a6647-bfb0-4c5f-b2d5-6b23d0794b76"},"vehicle_type_id":"4","last_reported":1738822401,"current_range_meters":36000,"station_id":"ce4bhih2rcd13ifvqfs0","pricing_plan_id":"cebpf4jnsgd1na2vs0mg"},{"bike_id":"d25a4504-17d4-4308-88f8-6085b6b06f28","system_id":"levelo_inurba_marseille","lat":43.28942,"lon":5.36397,"is_reserved":false,"is_disabled":false,"rental_uris":{"android":"levelo://app?vid=d25a4504-17d4-4308-88f8-6085b6b06f28","ios":"levelo://app?vid=d25a4504-17d4-4308-88f8-6085b6b06f28"},"vehicle_type_id":"4","last_reported":1738822401,"current_range_meters":18000,"station_id":"ce4bhc92rcd13ifvqetg","pricing_plan_id":"cebpf4jnsgd1na2vs0mg"},{"bike_id":"8da43562-4f8d-4611-9168-8a0327349c39","system_id":"levelo_inurba_marseille","lat":43.2815,"lon":5.42643,"is_reserved":false,"is_disabled":false,"rental_uris":{"android":"levelo://app?vid=8da43562-4f8d-4611-9168-8a0327349c39","ios":"levelo://app?vid=8da43562-4f8d-4611-9168-8a0327349c39"},"vehicle_type_id":"4","last_reported":1738822401,"current_range_meters":8400,"station_id":"ce4bhnh2rcd13ifvqgug","pricing_plan_id":"cebpf4jnsgd1na2vs0mg"},{"bike_id":"786af5a6-7181-4746-8e7c-5055a97f6274","system_id":"levelo_inurba_marseille","lat":43.28154,"lon":5.42639,"is_reserved":false,"is_disabled":true,"rental_uris":{"android":"levelo://app?vid=786af5a6-7181-4746-8e7c-5055a97f6274","ios":"levelo://app?vid=786af5a6-7181-4746-8e7c-5055a97f6274"},"vehicle_type_id":"4","last_reported":1738822401,"current_range_meters":29600,"station_id":"ce4bhnh2rcd13ifvqgug","pricing_plan_id":"cebpf4jnsgd1na2vs0mg"},{"bike_id":"9df6a135-17ac-49e2-bd2d-cad87444e4c2","system_id":"levelo_inurba_marseille","lat":43.27411,"lon":5.39419,"is_reserved":false,"is_disabled":false,"rental_uris":{"android":"levelo://app?vid=9df6a135-17ac-49e2-bd2d-cad87444e4c2","ios":"levelo://app?vid=9df6a135-17ac-49e2-bd2d-cad87444e4c2"},"vehicle_type_id":"4","last_reported":1738822401,"current_range_meters":38800,"station_id":"ce4bhdp2rcd13ifvqf20","pricing_plan_id":"cebpf4jnsgd1na2vs0mg"},{"bike_id":"50b15991-9296-4df6-b1a6-725aba7e366c","system_id":"levelo_inurba_marseille","lat":43.258588,"lon":5.399078,"is_reserved":false,"is_disabled":false,"rental_uris":{"android":"levelo://app?vid=50b15991-9296-4df6-b1a6-725aba7e366c","ios":"levelo://app?vid=50b15991-9296-4df6-b1a6-725aba7e366c"},"vehicle_type_id":"4","last_reported":1738822401,"current_range_meters":37600,"station_id":"ce4bhl92rcd13ifvqghg","pricing_plan_id":"cebpf4jnsgd1na2vs0mg"},{"bike_id":"63a987ab-6ed3-470e-8dab-13bf0a9de29f","system_id":"levelo_inurba_marseille","lat":43.29174,"lon":5.3717,"is_reserved":false,"is_disabled":true,"rental_uris":{"android":"levelo://app?vid=63a987ab-6ed3-470e-8dab-13bf0a9de29f","ios":"levelo://app?vid=63a987ab-6ed3-470e-8dab-13bf0a9de29f"},"vehicle_type_id":"4","last_reported":1738822401,"current_range_meters":800,"station_id":"ce4bha92rcd13ifvqeh0","pricing_plan_id":"cebpf4jnsgd1na2vs0mg"},{"bike_id":"5cc5475e-2ea7-44b9-af80-c173cc086fba","system_id":"levelo_inurba_marseille","lat":43.29185,"lon":5.35801,"is_reserved":false,"is_disabled":false,"rental_uris":{"android":"levelo://app?vid=5cc5475e-2ea7-44b9-af80-c173cc086fba","ios":"levelo://app?vid=5cc5475e-2ea7-44b9-af80-c173cc086fba"},"vehicle_type_id":"4","last_reported":1738822401,"current_range_meters":35200,"station_id":"ce4bhb12rcd13ifvqel0","pricing_plan_id":"cebpf4jnsgd1na2vs0mg"},{"bike_id":"43dbcacd-347c-4beb-a600-5c3d96b4b244","system_id":"levelo_inurba_marseille","lat":43.23194,"lon":5.39973,"is_reserved":false,"is_disabled":false,"rental_uris":{"android":"levelo://app?vid=43dbcacd-347c-4beb-a600-5c3d96b4b244","ios":"levelo://app?vid=43dbcacd-347c-4beb-a600-5c3d96b4b244"},"vehicle_type_id":"4","last_reported":1738822401,"current_range_meters":39200,"station_id":"ce4bhn12rcd13ifvqgqg","pricing_plan_id":"cebpf4jnsgd1na2vs0mg"},{"bike_id":"f5fe99b2-e419-4e02-93e0-0d8550db63d7","system_id":"levelo_inurba_marseille","lat":43.28027,"lon":5.369501,"is_reserved":false,"is_disabled":false,"rental_uris":{"android":"levelo://app?vid=f5fe99b2-e419-4e02-93e0-0d8550db63d7","ios":"levelo://app?vid=f5fe99b2-e419-4e02-93e0-0d8550db63d7"},"vehicle_type_id":"4","last_reported":1738822401,"current_range_meters":38800,"station_id":"ce4bha12rcd13ifvqef0","pricing_plan_id":"cebpf4jnsgd1na2vs0mg"},{"bike_id":"9b7355dc-7165-40f0-8cd2-81f22484ab5d","system_id":"levelo_inurba_marseille","lat":43.23957,"lon":5.36628,"is_reserved":false,"is_disabled":false,"rental_uris":{"android":"levelo://app?vid=9b7355dc-7165-40f0-8cd2-81f22484ab5d","ios":"levelo://app?vid=9b7355dc-7165-40f0-8cd2-81f22484ab5d"},"vehicle_type_id":"4","last_reported":1738822401,"current_range_meters":33200,"station_id":"ce4bhi12rcd13ifvqfp0","pricing_plan_id":"cebpf4jnsgd1na2vs0mg"},{"bike_id":"54c388f1-da5e-41c0-a224-46f29db2acb3","system_id":"levelo_inurba_marseille","lat":43.28943,"lon":5.3641,"is_reserved":false,"is_disabled":false,"rental_uris":{"android":"levelo://app?vid=54c388f1-da5e-41c0-a224-46f29db2acb3","ios":"levelo://app?vid=54c388f1-da5e-41c0-a224-46f29db2acb3"},"vehicle_type_id":"4","last_reported":1738822401,"current_range_meters":38800,"station_id":"ce4bhc92rcd13ifvqetg","pricing_plan_id":"cebpf4jnsgd1na2vs0mg"},{"bike_id":"6e877c71-d8f4-4771-b792-26e0ac8e8caa","system_id":"levelo_inurba_marseille","lat":43.30147,"lon":5.38071,"is_reserved":false,"is_disabled":false,"rental_uris":{"android":"levelo://app?vid=6e877c71-d8f4-4771-b792-26e0ac8e8caa","ios":"levelo://app?vid=6e877c71-d8f4-4771-b792-26e0ac8e8caa"},"vehicle_type_id":"4","last_reported":1738822401,"current_range_meters":20000,"station_id":"ce4bgjp2rcd13ifvqbh0","pricing_plan_id":"cebpf4jnsgd1na2vs0mg"},{"bike_id":"67661f07-352c-4583-baef-f494f9de33b1","system_id":"levelo_inurba_marseille","lat":43.282623,"lon":5.350826,"is_reserved":false,"is_disabled":false,"rental_uris":{"android":"levelo://app?vid=67661f07-352c-4583-baef-f494f9de33b1","ios":"levelo://app?vid=67661f07-352c-4583-baef-f494f9de33b1"},"vehicle_type_id":"4","last_reported":1738822401,"current_range_meters":32800,"station_id":"ce4bhbp2rcd13ifvqerg","pricing_plan_id":"cebpf4jnsgd1na2vs0mg"},{"bike_id":"931c3b97-cce1-4ebe-a291-6c50a6f2810e","system_id":"levelo_inurba_marseille","lat":43.31817,"lon":5.37404,"is_reserved":false,"is_disabled":false,"rental_uris":{"android":"levelo://app?vid=931c3b97-cce1-4ebe-a291-6c50a6f2810e","ios":"levelo://app?vid=931c3b97-cce1-4ebe-a291-6c50a6f2810e"},"vehicle_type_id":"4","last_reported":1738822401,"current_range_meters":2800,"station_id":"","pricing_plan_id":"cebpf4jnsgd1na2vs0mg"},{"bike_id":"b9452b32-8f5d-4c98-bc11-fee58cf523e3","system_id":"levelo_inurba_marseille","lat":43.299043,"lon":5.436626,"is_reserved":false,"is_disabled":false,"rental_uris":{"android":"levelo://app?vid=b9452b32-8f5d-4c98-bc11-fee58cf523e3","ios":"levelo://app?vid=b9452b32-8f5d-4c98-bc11-fee58cf523e3"},"vehicle_type_id":"4","last_reported":1738822401,"current_range_meters":21600,"station_id":"ce4bhpp2rcd13ifvqhfg","pricing_plan_id":"cebpf4jnsgd1na2vs0mg"},{"bike_id":"d1d51ec2-e1ab-4b92-9a4b-f935b04ef436","system_id":"levelo_inurba_marseille","lat":43.25011,"lon":5.38954,"is_reserved":false,"is_disabled":false,"rental_uris":{"android":"levelo://app?vid=d1d51ec2-e1ab-4b92-9a4b-f935b04ef436","ios":"levelo://app?vid=d1d51ec2-e1ab-4b92-9a4b-f935b04ef436"},"vehicle_type_id":"4","last_reported":1738822401,"current_range_meters":19600,"station_id":"ce4bhgp2rcd13ifvqfd0","pricing_plan_id":"cebpf4jnsgd1na2vs0mg"},{"bike_id":"13b3b6a1-f920-47ec-ad77-f4e3fb2eb0d2","system_id":"levelo_inurba_marseille","lat":43.25815,"lon":5.39429,"is_reserved":false,"is_disabled":false,"rental_uris":{"android":"levelo://app?vid=13b3b6a1-f920-47ec-ad77-f4e3fb2eb0d2","ios":"levelo://app?vid=13b3b6a1-f920-47ec-ad77-f4e3fb2eb0d2"},"vehicle_type_id":"4","last_reported":1738822401,"current_range_meters":38800,"station_id":"ce4bhip2rcd13ifvqft0","pricing_plan_id":"cebpf4jnsgd1na2vs0mg"},{"bike_id":"af14dc48-28a4-4089-b8c3-97137c485b38","system_id":"levelo_inurba_marseille","lat":43.27828,"lon":5.39204,"is_reserved":false,"is_disabled":false,"rental_uris":{"android":"levelo://app?vid=af14dc48-28a4-4089-b8c3-97137c485b38","ios":"levelo://app?vid=af14dc48-28a4-4089-b8c3-97137c485b38"},"vehicle_type_id":"4","last_reported":1738822401,"current_range_meters":34000,"station_id":"ce4bhjp2rcd13ifvqga0","pricing_plan_id":"cebpf4jnsgd1na2vs0mg"},{"bike_id":"5311540c-f2de-40be-b07f-c5d752407480","system_id":"levelo_inurba_marseille","lat":43.33114,"lon":5.38217,"is_reserved":false,"is_disabled":false,"rental_uris":{"android":"levelo://app?vid=5311540c-f2de-40be-b07f-c5d752407480","ios":"levelo://app?vid=5311540c-f2de-40be-b07f-c5d752407480"},"vehicle_type_id":"4","last_reported":1738822401,"current_range_meters":32400,"station_id":"","pricing_plan_id":"cebpf4jnsgd1na2vs0mg"},{"bike_id":"537d0ead-6c8a-4234-a453-51140eba8f80","system_id":"levelo_inurba_marseille","lat":43.29007,"lon":5.35593,"is_reserved":false,"is_disabled":false,"rental_uris":{"android":"levelo://app?vid=537d0ead-6c8a-4234-a453-51140eba8f80","ios":"levelo://app?vid=537d0ead-6c8a-4234-a453-51140eba8f80"},"vehicle_type_id":"4","last_reported":1738822401,"current_range_meters":38000,"station_id":"ce4bhb92rcd13ifvqen0","pricing_plan_id":"cebpf4jnsgd1na2vs0mg"},{"bike_id":"6100990f-c4b7-4419-ab12-3d9c2a9f7c81","system_id":"levelo_inurba_marseille","lat":43.282682,"lon":5.350724,"is_reserved":false,"is_disabled":false,"rental_uris":{"android":"levelo://app?vid=6100990f-c4b7-4419-ab12-3d9c2a9f7c81","ios":"levelo://app?vid=6100990f-c4b7-4419-ab12-3d9c2a9f7c81"},"vehicle_type_id":"4","last_reported":1738822401,"current_range_meters":36000,"station_id":"ce4bhbp2rcd13ifvqerg","pricing_plan_id":"cebpf4jnsgd1na2vs0mg"},{"bike_id":"7c1b6cf3-9e25-432c-939a-d7e4e3eafaa9","system_id":"levelo_inurba_marseille","lat":43.291963,"lon":5.393266,"is_reserved":false,"is_disabled":false,"rental_uris":{"android":"levelo://app?vid=7c1b6cf3-9e25-432c-939a-d7e4e3eafaa9","ios":"levelo://app?vid=7c1b6cf3-9e25-432c-939a-d7e4e3eafaa9"},"vehicle_type_id":"4","last_reported":1738822401,"current_range_meters":38000,"station_id":"ce4bh192rcd13ifvqdd0","pricing_plan_id":"cebpf4jnsgd1na2vs0mg"},{"bike_id":"b4dd11d9-f5c3-4a76-8fd4-886358e2197a","system_id":"levelo_inurba_marseille","lat":43.28419,"lon":5.39192,"is_reserved":false,"is_disabled":false,"rental_uris":{"android":"levelo://app?vid=b4dd11d9-f5c3-4a76-8fd4-886358e2197a","ios":"levelo://app?vid=b4dd11d9-f5c3-4a76-8fd4-886358e2197a"},"vehicle_type_id":"4","last_reported":1738822401,"current_range_meters":38400,"station_id":"ce4bhoh2rcd13ifvqh5g","pricing_plan_id":"cebpf4jnsgd1na2vs0mg"},{"bike_id":"4632f171-cf04-4c40-bf57-85014fbe394d","system_id":"levelo_inurba_marseille","lat":43.28855,"lon":5.3932,"is_reserved":false,"is_disabled":false,"rental_uris":{"android":"levelo://app?vid=4632f171-cf04-4c40-bf57-85014fbe394d","ios":"levelo://app?vid=4632f171-cf04-4c40-bf57-85014fbe394d"},"vehicle_type_id":"4","last_reported":1738822401,"current_range_meters":30000,"station_id":"ce4bh2p2rcd13ifvqdi0","pricing_plan_id":"cebpf4jnsgd1na2vs0mg"},{"bike_id":"e1965185-8b7d-462c-abfb-9c1110c12af4","system_id":"levelo_inurba_marseille","lat":43.291939,"lon":5.3931,"is_reserved":false,"is_disabled":false,"rental_uris":{"android":"levelo://app?vid=e1965185-8b7d-462c-abfb-9c1110c12af4","ios":"levelo://app?vid=e1965185-8b7d-462c-abfb-9c1110c12af4"},"vehicle_type_id":"4","last_reported":1738822401,"current_range_meters":38000,"station_id":"ce4bh192rcd13ifvqdd0","pricing_plan_id":"cebpf4jnsgd1na2vs0mg"},{"bike_id":"753baeb7-2e77-4b96-96f4-de8ace8429a8","system_id":"levelo_inurba_marseille","lat":43.24692,"lon":5.38127,"is_reserved":false,"is_disabled":false,"rental_uris":{"android":"levelo://app?vid=753baeb7-2e77-4b96-96f4-de8ace8429a8","ios":"levelo://app?vid=753baeb7-2e77-4b96-96f4-de8ace8429a8"},"vehicle_type_id":"4","last_reported":1738822401,"current_range_meters":37600,"station_id":"ce4bhih2rcd13ifvqfr0","pricing_plan_id":"cebpf4jnsgd1na2vs0mg"},{"bike_id":"996e7d18-949b-415c-b2eb-96663b1c0c3c","system_id":"levelo_inurba_marseille","lat":43.30827,"lon":5.38166,"is_reserved":false,"is_disabled":false,"rental_uris":{"android":"levelo://app?vid=996e7d18-949b-415c-b2eb-96663b1c0c3c","ios":"levelo://app?vid=996e7d18-949b-415c-b2eb-96663b1c0c3c"},"vehicle_type_id":"4","last_reported":1738822401,"current_range_meters":38800,"station_id":"ce4bgt12rcd13ifvqce0","pricing_plan_id":"cebpf4jnsgd1na2vs0mg"},{"bike_id":"3112f45f-0119-4c79-97f5-b10928fae186","system_id":"levelo_inurba_marseille","lat":43.28609,"lon":5.37065,"is_reserved":false,"is_disabled":false,"rental_uris":{"android":"levelo://app?vid=3112f45f-0119-4c79-97f5-b10928fae186","ios":"levelo://app?vid=3112f45f-0119-4c79-97f5-b10928fae186"},"vehicle_type_id":"4","last_reported":1738822401,"current_range_meters":26800,"station_id":"ce4bht12rcd13ifvqi60","pricing_plan_id":"cebpf4jnsgd1na2vs0mg"},{"bike_id":"f0905a6d-679c-4b82-9981-9a5a6f538c14","system_id":"levelo_inurba_marseille","lat":43.29878,"lon":5.39713,"is_reserved":false,"is_disabled":false,"rental_uris":{"android":"levelo://app?vid=f0905a6d-679c-4b82-9981-9a5a6f538c14","ios":"levelo://app?vid=f0905a6d-679c-4b82-9981-9a5a6f538c14"},"vehicle_type_id":"4","last_reported":1738822401,"current_range_meters":38800,"station_id":"ce4bh0h2rcd13ifvqd50","pricing_plan_id":"cebpf4jnsgd1na2vs0mg"},{"bike_id":"585fe3f6-a722-4f6f-b2a6-5f7617e3a74b","system_id":"levelo_inurba_marseille","lat":43.25111,"lon":5.40322,"is_reserved":false,"is_disabled":false,"rental_uris":{"android":"levelo://app?vid=585fe3f6-a722-4f6f-b2a6-5f7617e3a74b","ios":"levelo://app?vid=585fe3f6-a722-4f6f-b2a6-5f7617e3a74b"},"vehicle_type_id":"4","last_reported":1738822401,"current_range_meters":38800,"station_id":"ce4bhlh2rcd13ifvqgig","pricing_plan_id":"cebpf4jnsgd1na2vs0mg"},{"bike_id":"a313022c-f1b4-4a19-8eef-2284eb49bf2c","system_id":"levelo_inurba_marseille","lat":43.29249,"lon":5.40908,"is_reserved":false,"is_disabled":false,"rental_uris":{"android":"levelo://app?vid=a313022c-f1b4-4a19-8eef-2284eb49bf2c","ios":"levelo://app?vid=a313022c-f1b4-4a19-8eef-2284eb49bf2c"},"vehicle_type_id":"4","last_reported":1738822401,"current_range_meters":31200,"station_id":"ce4bh192rcd13ifvqdc0","pricing_plan_id":"cebpf4jnsgd1na2vs0mg"},{"bike_id":"bc4186b3-1073-492b-ab95-0326a7b12d0e","system_id":"levelo_inurba_marseille","lat":43.28412,"lon":5.34985,"is_reserved":false,"is_disabled":false,"rental_uris":{"android":"levelo://app?vid=bc4186b3-1073-492b-ab95-0326a7b12d0e","ios":"levelo://app?vid=bc4186b3-1073-492b-ab95-0326a7b12d0e"},"vehicle_type_id":"4","last_reported":1738822401,"current_range_meters":32800,"station_id":"ce4bhbh2rcd13ifvqepg","pricing_plan_id":"cebpf4jnsgd1na2vs0mg"},{"bike_id":"70fbe035-321d-404d-abb5-90c57c24fee3","system_id":"levelo_inurba_marseille","lat":43.299082,"lon":5.381272,"is_reserved":false,"is_disabled":true,"rental_uris":{"android":"levelo://app?vid=70fbe035-321d-404d-abb5-90c57c24fee3","ios":"levelo://app?vid=70fbe035-321d-404d-abb5-90c57c24fee3"},"vehicle_type_id":"4","last_reported":1738822401,"current_range_meters":400,"station_id":"ce4bgj12rcd13ifvqbc0","pricing_plan_id":"cebpf4jnsgd1na2vs0mg"},{"bike_id":"715f9245-91da-4a7e-a344-95d8ba7af07c","system_id":"levelo_inurba_marseille","lat":43.2903,"lon":5.38642,"is_reserved":false,"is_disabled":true,"rental_uris":{"android":"levelo://app?vid=715f9245-91da-4a7e-a344-95d8ba7af07c","ios":"levelo://app?vid=715f9245-91da-4a7e-a344-95d8ba7af07c"},"vehicle_type_id":"4","last_reported":1738822401,"current_range_meters":29600,"station_id":"ce4bh4p2rcd13ifvqe0g","pricing_plan_id":"cebpf4jnsgd1na2vs0mg"},{"bike_id":"ca548841-038a-498c-a964-8af9b79f0f47","system_id":"levelo_inurba_marseille","lat":43.28033,"lon":5.36948,"is_reserved":false,"is_disabled":false,"rental_uris":{"android":"levelo://app?vid=ca548841-038a-498c-a964-8af9b79f0f47","ios":"levelo://app?vid=ca548841-038a-498c-a964-8af9b79f0f47"},"vehicle_type_id":"4","last_reported":1738822401,"current_range_meters":38800,"station_id":"ce4bha12rcd13ifvqef0","pricing_plan_id":"cebpf4jnsgd1na2vs0mg"},{"bike_id":"95823b3e-f00f-4f48-8ff1-d3edc43e838e","system_id":"levelo_inurba_marseille","lat":43.248159,"lon":5.374551,"is_reserved":false,"is_disabled":false,"rental_uris":{"android":"levelo://app?vid=95823b3e-f00f-4f48-8ff1-d3edc43e838e","ios":"levelo://app?vid=95823b3e-f00f-4f48-8ff1-d3edc43e838e"},"vehicle_type_id":"4","last_reported":1738822401,"current_range_meters":28400,"station_id":"ce4bhgh2rcd13ifvqfb0","pricing_plan_id":"cebpf4jnsgd1na2vs0mg"},{"bike_id":"d9fb1163-7c26-4de7-8fb7-a6aa0459ed13","system_id":"levelo_inurba_marseille","lat":43.284616,"lon":5.358874,"is_reserved":false,"is_disabled":false,"rental_uris":{"android":"levelo://app?vid=d9fb1163-7c26-4de7-8fb7-a6aa0459ed13","ios":"levelo://app?vid=d9fb1163-7c26-4de7-8fb7-a6aa0459ed13"},"vehicle_type_id":"4","last_reported":1738822401,"current_range_meters":34800,"station_id":"ce4bhah2rcd13ifvqei0","pricing_plan_id":"cebpf4jnsgd1na2vs0mg"},{"bike_id":"2b52254f-933d-4903-ac07-21eb27a1e798","system_id":"levelo_inurba_marseille","lat":43.27182,"lon":5.409971,"is_reserved":false,"is_disabled":false,"rental_uris":{"android":"levelo://app?vid=2b52254f-933d-4903-ac07-21eb27a1e798","ios":"levelo://app?vid=2b52254f-933d-4903-ac07-21eb27a1e798"},"vehicle_type_id":"4","last_reported":1738822401,"current_range_meters":36800,"station_id":"ce4bhl12rcd13ifvqgf0","pricing_plan_id":"cebpf4jnsgd1na2vs0mg"},{"bike_id":"de014929-e012-4fc2-baab-6ba4be581733","system_id":"levelo_inurba_marseille","lat":43.30415,"lon":5.41284,"is_reserved":false,"is_disabled":true,"rental_uris":{"android":"levelo://app?vid=de014929-e012-4fc2-baab-6ba4be581733","ios":"levelo://app?vid=de014929-e012-4fc2-baab-6ba4be581733"},"vehicle_type_id":"4","last_reported":1738822401,"current_range_meters":2000,"station_id":"ce4bhop2rcd13ifvqh8g","pricing_plan_id":"cebpf4jnsgd1na2vs0mg"},{"bike_id":"0bbb4e04-c71f-4c3c-a6b2-8a7e9b07e32b","system_id":"levelo_inurba_marseille","lat":43.285614,"lon":5.395034,"is_reserved":false,"is_disabled":false,"rental_uris":{"android":"levelo://app?vid=0bbb4e04-c71f-4c3c-a6b2-8a7e9b07e32b","ios":"levelo://app?vid=0bbb4e04-c71f-4c3c-a6b2-8a7e9b07e32b"},"vehicle_type_id":"4","last_reported":1738822401,"current_range_meters":28000,"station_id":"ce4bh292rcd13ifvqdg0","pricing_plan_id":"cebpf4jnsgd1na2vs0mg"},{"bike_id":"0bac15cc-6a2a-4ca7-9838-b4765dbc3f15","system_id":"levelo_inurba_marseille","lat":43.28706,"lon":5.39984,"is_reserved":false,"is_disabled":false,"rental_uris":{"android":"levelo://app?vid=0bac15cc-6a2a-4ca7-9838-b4765dbc3f15","ios":"levelo://app?vid=0bac15cc-6a2a-4ca7-9838-b4765dbc3f15"},"vehicle_type_id":"4","last_reported":1738822401,"current_range_meters":16800,"station_id":"ce4bho92rcd13ifvqh3g","pricing_plan_id":"cebpf4jnsgd1na2vs0mg"},{"bike_id":"52990ad3-a46b-4f6e-b6b0-37c9c50197a1","system_id":"levelo_inurba_marseille","lat":43.31773,"lon":5.39019,"is_reserved":false,"is_disabled":false,"rental_uris":{"android":"levelo://app?vid=52990ad3-a46b-4f6e-b6b0-37c9c50197a1","ios":"levelo://app?vid=52990ad3-a46b-4f6e-b6b0-37c9c50197a1"},"vehicle_type_id":"4","last_reported":1738822401,"current_range_meters":38800,"station_id":"ce4bhqp2rcd13ifvqhng","pricing_plan_id":"cebpf4jnsgd1na2vs0mg"},{"bike_id":"e7243432-da26-424a-a350-5dc6d22faec1","system_id":"levelo_inurba_marseille","lat":43.30102,"lon":5.39905,"is_reserved":false,"is_disabled":false,"rental_uris":{"android":"levelo://app?vid=e7243432-da26-424a-a350-5dc6d22faec1","ios":"levelo://app?vid=e7243432-da26-424a-a350-5dc6d22faec1"},"vehicle_type_id":"4","last_reported":1738822401,"current_range_meters":25600,"station_id":"ce4bh0h2rcd13ifvqd40","pricing_plan_id":"cebpf4jnsgd1na2vs0mg"},{"bike_id":"b0835b4d-5d4e-4b83-8d65-c34141a6bbbb","system_id":"levelo_inurba_marseille","lat":43.29034,"lon":5.35923,"is_reserved":false,"is_disabled":false,"rental_uris":{"android":"levelo://app?vid=b0835b4d-5d4e-4b83-8d65-c34141a6bbbb","ios":"levelo://app?vid=b0835b4d-5d4e-4b83-8d65-c34141a6bbbb"},"vehicle_type_id":"4","last_reported":1738822401,"current_range_meters":38800,"station_id":"ce4bha92rcd13ifvqeg0","pricing_plan_id":"cebpf4jnsgd1na2vs0mg"},{"bike_id":"2e00044a-5a76-4ef5-a945-7fbce486c3be","system_id":"levelo_inurba_marseille","lat":43.28036,"lon":5.36926,"is_reserved":false,"is_disabled":false,"rental_uris":{"android":"levelo://app?vid=2e00044a-5a76-4ef5-a945-7fbce486c3be","ios":"levelo://app?vid=2e00044a-5a76-4ef5-a945-7fbce486c3be"},"vehicle_type_id":"4","last_reported":1738822401,"current_range_meters":30000,"station_id":"ce4bha12rcd13ifvqef0","pricing_plan_id":"cebpf4jnsgd1na2vs0mg"},{"bike_id":"bc3a20aa-daf6-4c5e-ac1c-17a251997803","system_id":"levelo_inurba_marseille","lat":43.24543,"lon":5.39538,"is_reserved":false,"is_disabled":false,"rental_uris":{"android":"levelo://app?vid=bc3a20aa-daf6-4c5e-ac1c-17a251997803","ios":"levelo://app?vid=bc3a20aa-daf6-4c5e-ac1c-17a251997803"},"vehicle_type_id":"4","last_reported":1738822401,"current_range_meters":37600,"station_id":"ce4bhlp2rcd13ifvqgjg","pricing_plan_id":"cebpf4jnsgd1na2vs0mg"},{"bike_id":"b71a6766-e312-4101-9374-6428935a1975","system_id":"levelo_inurba_marseille","lat":43.287076,"lon":5.399849,"is_reserved":false,"is_disabled":false,"rental_uris":{"android":"levelo://app?vid=b71a6766-e312-4101-9374-6428935a1975","ios":"levelo://app?vid=b71a6766-e312-4101-9374-6428935a1975"},"vehicle_type_id":"4","last_reported":1738822401,"current_range_meters":25200,"station_id":"ce4bho92rcd13ifvqh3g","pricing_plan_id":"cebpf4jnsgd1na2vs0mg"},{"bike_id":"ee700b58-1831-45f5-9e03-082de2e2335d","system_id":"levelo_inurba_marseille","lat":43.304154,"lon":5.412847,"is_reserved":false,"is_disabled":false,"rental_uris":{"android":"levelo://app?vid=ee700b58-1831-45f5-9e03-082de2e2335d","ios":"levelo://app?vid=ee700b58-1831-45f5-9e03-082de2e2335d"},"vehicle_type_id":"4","last_reported":1738822401,"current_range_meters":31200,"station_id":"ce4bhop2rcd13ifvqh8g","pricing_plan_id":"cebpf4jnsgd1na2vs0mg"},{"bike_id":"9d014965-03fa-43ec-b7ec-0fa7a013040d","system_id":"levelo_inurba_marseille","lat":43.285645,"lon":5.394961,"is_reserved":false,"is_disabled":false,"rental_uris":{"android":"levelo://app?vid=9d014965-03fa-43ec-b7ec-0fa7a013040d","ios":"levelo://app?vid=9d014965-03fa-43ec-b7ec-0fa7a013040d"},"vehicle_type_id":"4","last_reported":1738822401,"current_range_meters":38800,"station_id":"ce4bh292rcd13ifvqdg0","pricing_plan_id":"cebpf4jnsgd1na2vs0mg"},{"bike_id":"eb4cf8e5-5ab3-4aa9-8edc-157defa74c74","system_id":"levelo_inurba_marseille","lat":43.2885,"lon":5.39316,"is_reserved":false,"is_disabled":false,"rental_uris":{"android":"levelo://app?vid=eb4cf8e5-5ab3-4aa9-8edc-157defa74c74","ios":"levelo://app?vid=eb4cf8e5-5ab3-4aa9-8edc-157defa74c74"},"vehicle_type_id":"4","last_reported":1738822401,"current_range_meters":32800,"station_id":"ce4bh2p2rcd13ifvqdi0","pricing_plan_id":"cebpf4jnsgd1na2vs0mg"},{"bike_id":"09963baf-f270-43fd-8845-1d0fc8b80973","system_id":"levelo_inurba_marseille","lat":43.29113,"lon":5.38138,"is_reserved":false,"is_disabled":true,"rental_uris":{"android":"levelo://app?vid=09963baf-f270-43fd-8845-1d0fc8b80973","ios":"levelo://app?vid=09963baf-f270-43fd-8845-1d0fc8b80973"},"vehicle_type_id":"4","last_reported":1738822401,"current_range_meters":800,"station_id":"ce4bh512rcd13ifvqe2g","pricing_plan_id":"cebpf4jnsgd1na2vs0mg"},{"bike_id":"a2a4e3b4-6370-4681-92b3-fb5219f2a691","system_id":"levelo_inurba_marseille","lat":43.27216,"lon":5.39173,"is_reserved":false,"is_disabled":false,"rental_uris":{"android":"levelo://app?vid=a2a4e3b4-6370-4681-92b3-fb5219f2a691","ios":"levelo://app?vid=a2a4e3b4-6370-4681-92b3-fb5219f2a691"},"vehicle_type_id":"4","last_reported":1738822401,"current_range_meters":38000,"station_id":"ce4bhhp2rcd13ifvqfm0","pricing_plan_id":"cebpf4jnsgd1na2vs0mg"},{"bike_id":"0095821e-8e41-41c5-8048-50b7e57b54f0","system_id":"levelo_inurba_marseille","lat":43.30824,"lon":5.38154,"is_reserved":false,"is_disabled":false,"rental_uris":{"android":"levelo://app?vid=0095821e-8e41-41c5-8048-50b7e57b54f0","ios":"levelo://app?vid=0095821e-8e41-41c5-8048-50b7e57b54f0"},"vehicle_type_id":"4","last_reported":1738822401,"current_range_meters":12400,"station_id":"ce4bgt12rcd13ifvqce0","pricing_plan_id":"cebpf4jnsgd1na2vs0mg"},{"bike_id":"9e1f3f21-cac8-4032-8cc5-7619214da968","system_id":"levelo_inurba_marseille","lat":43.28486,"lon":5.38559,"is_reserved":false,"is_disabled":false,"rental_uris":{"android":"levelo://app?vid=9e1f3f21-cac8-4032-8cc5-7619214da968","ios":"levelo://app?vid=9e1f3f21-cac8-4032-8cc5-7619214da968"},"vehicle_type_id":"4","last_reported":1738822401,"current_range_meters":39200,"station_id":"ce4bh8p2rcd13ifvqeb0","pricing_plan_id":"cebpf4jnsgd1na2vs0mg"},{"bike_id":"e4166247-c0cb-44bd-86de-c16fa3f40ccd","system_id":"levelo_inurba_marseille","lat":43.31081,"lon":5.38358,"is_reserved":false,"is_disabled":false,"rental_uris":{"android":"levelo://app?vid=e4166247-c0cb-44bd-86de-c16fa3f40ccd","ios":"levelo://app?vid=e4166247-c0cb-44bd-86de-c16fa3f40ccd"},"vehicle_type_id":"4","last_reported":1738822401,"current_range_meters":38400,"station_id":"ce4bgv92rcd13ifvqcr0","pricing_plan_id":"cebpf4jnsgd1na2vs0mg"},{"bike_id":"a9ee38d0-21e8-4d99-8e3f-cc643e32473e","system_id":"levelo_inurba_marseille","lat":43.278169,"lon":5.407162,"is_reserved":false,"is_disabled":false,"rental_uris":{"android":"levelo://app?vid=a9ee38d0-21e8-4d99-8e3f-cc643e32473e","ios":"levelo://app?vid=a9ee38d0-21e8-4d99-8e3f-cc643e32473e"},"vehicle_type_id":"4","last_reported":1738822401,"current_range_meters":36400,"station_id":"ce4bhnh2rcd13ifvqgtg","pricing_plan_id":"cebpf4jnsgd1na2vs0mg"},{"bike_id":"16c08f4f-5078-4227-884d-a77ebbaaee0c","system_id":"levelo_inurba_marseille","lat":43.28147,"lon":5.42655,"is_reserved":false,"is_disabled":false,"rental_uris":{"android":"levelo://app?vid=16c08f4f-5078-4227-884d-a77ebbaaee0c","ios":"levelo://app?vid=16c08f4f-5078-4227-884d-a77ebbaaee0c"},"vehicle_type_id":"4","last_reported":1738822401,"current_range_meters":38800,"station_id":"ce4bhnh2rcd13ifvqgug","pricing_plan_id":"cebpf4jnsgd1na2vs0mg"},{"bike_id":"9c81c1b8-1b89-413e-855b-6a07871bc1e0","system_id":"levelo_inurba_marseille","lat":43.23947,"lon":5.36658,"is_reserved":false,"is_disabled":false,"rental_uris":{"android":"levelo://app?vid=9c81c1b8-1b89-413e-855b-6a07871bc1e0","ios":"levelo://app?vid=9c81c1b8-1b89-413e-855b-6a07871bc1e0"},"vehicle_type_id":"4","last_reported":1738822401,"current_range_meters":22400,"station_id":"ce4bhi12rcd13ifvqfp0","pricing_plan_id":"cebpf4jnsgd1na2vs0mg"},{"bike_id":"dd44b27e-5cdd-40ef-9581-50edd772f436","system_id":"levelo_inurba_marseille","lat":43.30906,"lon":5.39661,"is_reserved":false,"is_disabled":false,"rental_uris":{"android":"levelo://app?vid=dd44b27e-5cdd-40ef-9581-50edd772f436","ios":"levelo://app?vid=dd44b27e-5cdd-40ef-9581-50edd772f436"},"vehicle_type_id":"4","last_reported":1738822401,"current_range_meters":10000,"station_id":"ce4bh012rcd13ifvqcv0","pricing_plan_id":"cebpf4jnsgd1na2vs0mg"},{"bike_id":"66c91f0e-d404-4399-99c9-77276ceb134d","system_id":"levelo_inurba_marseille","lat":43.30531,"lon":5.36568,"is_reserved":false,"is_disabled":true,"rental_uris":{"android":"levelo://app?vid=66c91f0e-d404-4399-99c9-77276ceb134d","ios":"levelo://app?vid=66c91f0e-d404-4399-99c9-77276ceb134d"},"vehicle_type_id":"4","last_reported":1738822401,"current_range_meters":36000,"station_id":"ce4bgs12rcd13ifvqcag","pricing_plan_id":"cebpf4jnsgd1na2vs0mg"},{"bike_id":"3d1d38d7-e37e-41a9-9885-0f5e96cdb53e","system_id":"levelo_inurba_marseille","lat":43.28456,"lon":5.35894,"is_reserved":false,"is_disabled":false,"rental_uris":{"android":"levelo://app?vid=3d1d38d7-e37e-41a9-9885-0f5e96cdb53e","ios":"levelo://app?vid=3d1d38d7-e37e-41a9-9885-0f5e96cdb53e"},"vehicle_type_id":"4","last_reported":1738822401,"current_range_meters":13600,"station_id":"ce4bhah2rcd13ifvqei0","pricing_plan_id":"cebpf4jnsgd1na2vs0mg"},{"bike_id":"bab07d03-5352-4a1b-80e4-e1f9df8edacd","system_id":"levelo_inurba_marseille","lat":43.23192,"lon":5.35549,"is_reserved":false,"is_disabled":false,"rental_uris":{"android":"levelo://app?vid=bab07d03-5352-4a1b-80e4-e1f9df8edacd","ios":"levelo://app?vid=bab07d03-5352-4a1b-80e4-e1f9df8edacd"},"vehicle_type_id":"4","last_reported":1738822401,"current_range_meters":35200,"station_id":"ce4bhu92rcd13ifvqi70","pricing_plan_id":"cebpf4jnsgd1na2vs0mg"},{"bike_id":"d6b02ddb-972e-4e31-a154-3f284d3774cf","system_id":"levelo_inurba_marseille","lat":43.287109,"lon":5.399853,"is_reserved":false,"is_disabled":false,"rental_uris":{"android":"levelo://app?vid=d6b02ddb-972e-4e31-a154-3f284d3774cf","ios":"levelo://app?vid=d6b02ddb-972e-4e31-a154-3f284d3774cf"},"vehicle_type_id":"4","last_reported":1738822401,"current_range_meters":35600,"station_id":"ce4bho92rcd13ifvqh3g","pricing_plan_id":"cebpf4jnsgd1na2vs0mg"},{"bike_id":"24b00351-87f7-42c4-a914-e5f1a157a3c5","system_id":"levelo_inurba_marseille","lat":43.27901,"lon":5.3801,"is_reserved":false,"is_disabled":false,"rental_uris":{"android":"levelo://app?vid=24b00351-87f7-42c4-a914-e5f1a157a3c5","ios":"levelo://app?vid=24b00351-87f7-42c4-a914-e5f1a157a3c5"},"vehicle_type_id":"4","last_reported":1738822401,"current_range_meters":38800,"station_id":"ce4bhf92rcd13ifvqf50","pricing_plan_id":"cebpf4jnsgd1na2vs0mg"},{"bike_id":"9ebcbce8-964a-4689-9667-09d1b3c783c6","system_id":"levelo_inurba_marseille","lat":43.30249,"lon":5.40058,"is_reserved":false,"is_disabled":false,"rental_uris":{"android":"levelo://app?vid=9ebcbce8-964a-4689-9667-09d1b3c783c6","ios":"levelo://app?vid=9ebcbce8-964a-4689-9667-09d1b3c783c6"},"vehicle_type_id":"4","last_reported":1738822401,"current_range_meters":38800,"station_id":"ce4bgvh2rcd13ifvqcs0","pricing_plan_id":"cebpf4jnsgd1na2vs0mg"},{"bike_id":"7a403815-4564-4bf5-91d5-f589fdaa975e","system_id":"levelo_inurba_marseille","lat":43.28619,"lon":5.35103,"is_reserved":false,"is_disabled":false,"rental_uris":{"android":"levelo://app?vid=7a403815-4564-4bf5-91d5-f589fdaa975e","ios":"levelo://app?vid=7a403815-4564-4bf5-91d5-f589fdaa975e"},"vehicle_type_id":"4","last_reported":1738822401,"current_range_meters":12000,"station_id":"ce4bhch2rcd13ifvqeug","pricing_plan_id":"cebpf4jnsgd1na2vs0mg"},{"bike_id":"fe6af45d-16c8-46c2-8c40-0e7d876a3309","system_id":"levelo_inurba_marseille","lat":43.29052,"lon":5.39977,"is_reserved":false,"is_disabled":true,"rental_uris":{"android":"levelo://app?vid=fe6af45d-16c8-46c2-8c40-0e7d876a3309","ios":"levelo://app?vid=fe6af45d-16c8-46c2-8c40-0e7d876a3309"},"vehicle_type_id":"4","last_reported":1738822401,"current_range_meters":0,"station_id":"ce4bh392rcd13ifvqdm0","pricing_plan_id":"cebpf4jnsgd1na2vs0mg"},{"bike_id":"56915f38-ec53-48db-9554-671348a1f6cb","system_id":"levelo_inurba_marseille","lat":43.33019,"lon":5.39047,"is_reserved":false,"is_disabled":false,"rental_uris":{"android":"levelo://app?vid=56915f38-ec53-48db-9554-671348a1f6cb","ios":"levelo://app?vid=56915f38-ec53-48db-9554-671348a1f6cb"},"vehicle_type_id":"4","last_reported":1738822401,"current_range_meters":36400,"station_id":"ce4bhr92rcd13ifvqhrg","pricing_plan_id":"cebpf4jnsgd1na2vs0mg"},{"bike_id":"595588ff-42cd-4170-8c75-046e92bfb34d","system_id":"levelo_inurba_marseille","lat":43.30491,"lon":5.37892,"is_reserved":false,"is_disabled":false,"rental_uris":{"android":"levelo://app?vid=595588ff-42cd-4170-8c75-046e92bfb34d","ios":"levelo://app?vid=595588ff-42cd-4170-8c75-046e92bfb34d"},"vehicle_type_id":"4","last_reported":1738822401,"current_range_meters":16000,"station_id":"ce4bho92rcd13ifvqh3g","pricing_plan_id":"cebpf4jnsgd1na2vs0mg"},{"bike_id":"ddb48a2e-0e7a-4db9-bb08-d15c6b7ecf4a","system_id":"levelo_inurba_marseille","lat":43.27626,"lon":5.36122,"is_reserved":false,"is_disabled":false,"rental_uris":{"android":"levelo://app?vid=ddb48a2e-0e7a-4db9-bb08-d15c6b7ecf4a","ios":"levelo://app?vid=ddb48a2e-0e7a-4db9-bb08-d15c6b7ecf4a"},"vehicle_type_id":"4","last_reported":1738822401,"current_range_meters":36800,"station_id":"ce4bgj92rcd13ifvqbe0","pricing_plan_id":"cebpf4jnsgd1na2vs0mg"},{"bike_id":"039d6344-780f-4135-a3ba-fc6df29ecbb3","system_id":"levelo_inurba_marseille","lat":43.27371,"lon":5.36284,"is_reserved":false,"is_disabled":false,"rental_uris":{"android":"levelo://app?vid=039d6344-780f-4135-a3ba-fc6df29ecbb3","ios":"levelo://app?vid=039d6344-780f-4135-a3ba-fc6df29ecbb3"},"vehicle_type_id":"4","last_reported":1738822401,"current_range_meters":38800,"station_id":"ce4bhbh2rcd13ifvqeo0","pricing_plan_id":"cebpf4jnsgd1na2vs0mg"},{"bike_id":"e7d31327-323a-443c-bb67-39186722e63f","system_id":"levelo_inurba_marseille","lat":43.33774,"lon":5.37419,"is_reserved":false,"is_disabled":false,"rental_uris":{"android":"levelo://app?vid=e7d31327-323a-443c-bb67-39186722e63f","ios":"levelo://app?vid=e7d31327-323a-443c-bb67-39186722e63f"},"vehicle_type_id":"4","last_reported":1738822401,"current_range_meters":4800,"station_id":"","pricing_plan_id":"cebpf4jnsgd1na2vs0mg"},{"bike_id":"77d0bb19-6c4a-4d00-b1b8-dce2827fec64","system_id":"levelo_inurba_marseille","lat":43.31277,"lon":5.40164,"is_reserved":false,"is_disabled":false,"rental_uris":{"android":"levelo://app?vid=77d0bb19-6c4a-4d00-b1b8-dce2827fec64","ios":"levelo://app?vid=77d0bb19-6c4a-4d00-b1b8-dce2827fec64"},"vehicle_type_id":"4","last_reported":1738822401,"current_range_meters":29600,"station_id":"ce4bh092rcd13ifvqd30","pricing_plan_id":"cebpf4jnsgd1na2vs0mg"},{"bike_id":"2572fdac-e7f3-4485-9667-c97086ae89fa","system_id":"levelo_inurba_marseille","lat":43.28726,"lon":5.360798,"is_reserved":false,"is_disabled":false,"rental_uris":{"android":"levelo://app?vid=2572fdac-e7f3-4485-9667-c97086ae89fa","ios":"levelo://app?vid=2572fdac-e7f3-4485-9667-c97086ae89fa"},"vehicle_type_id":"4","last_reported":1738822401,"current_range_meters":25600,"station_id":"cki0cbj6b192h4jlfktg","pricing_plan_id":"cebpf4jnsgd1na2vs0mg"},{"bike_id":"ea7a8bb1-94dd-46c6-b544-7e1ff1a7bb1f","system_id":"levelo_inurba_marseille","lat":43.31717,"lon":5.37771,"is_reserved":false,"is_disabled":false,"rental_uris":{"android":"levelo://app?vid=ea7a8bb1-94dd-46c6-b544-7e1ff1a7bb1f","ios":"levelo://app?vid=ea7a8bb1-94dd-46c6-b544-7e1ff1a7bb1f"},"vehicle_type_id":"4","last_reported":1738822401,"current_range_meters":38800,"station_id":"ce4bgth2rcd13ifvqch0","pricing_plan_id":"cebpf4jnsgd1na2vs0mg"},{"bike_id":"3cfb7099-62ec-4f80-a90a-a4428295d8b8","system_id":"levelo_inurba_marseille","lat":43.28068,"lon":5.39651,"is_reserved":false,"is_disabled":false,"rental_uris":{"android":"levelo://app?vid=3cfb7099-62ec-4f80-a90a-a4428295d8b8","ios":"levelo://app?vid=3cfb7099-62ec-4f80-a90a-a4428295d8b8"},"vehicle_type_id":"4","last_reported":1738822401,"current_range_meters":34800,"station_id":"ce4bho12rcd13ifvqh2g","pricing_plan_id":"cebpf4jnsgd1na2vs0mg"},{"bike_id":"f22c00d6-3566-4ae5-aa94-b50316485663","system_id":"levelo_inurba_marseille","lat":43.27945,"lon":5.410446,"is_reserved":false,"is_disabled":false,"rental_uris":{"android":"levelo://app?vid=f22c00d6-3566-4ae5-aa94-b50316485663","ios":"levelo://app?vid=f22c00d6-3566-4ae5-aa94-b50316485663"},"vehicle_type_id":"4","last_reported":1738822401,"current_range_meters":6400,"station_id":"ce4bhnp2rcd13ifvqh0g","pricing_plan_id":"cebpf4jnsgd1na2vs0mg"},{"bike_id":"6522239a-3688-4f94-bb02-adaf4a055ea5","system_id":"levelo_inurba_marseille","lat":43.231954,"lon":5.355499,"is_reserved":false,"is_disabled":false,"rental_uris":{"android":"levelo://app?vid=6522239a-3688-4f94-bb02-adaf4a055ea5","ios":"levelo://app?vid=6522239a-3688-4f94-bb02-adaf4a055ea5"},"vehicle_type_id":"4","last_reported":1738822401,"current_range_meters":38800,"station_id":"ce4bhu92rcd13ifvqi70","pricing_plan_id":"cebpf4jnsgd1na2vs0mg"},{"bike_id":"aee3719b-ff75-435e-aa1c-24b4bddf333e","system_id":"levelo_inurba_marseille","lat":43.24074,"lon":5.37764,"is_reserved":false,"is_disabled":false,"rental_uris":{"android":"levelo://app?vid=aee3719b-ff75-435e-aa1c-24b4bddf333e","ios":"levelo://app?vid=aee3719b-ff75-435e-aa1c-24b4bddf333e"},"vehicle_type_id":"4","last_reported":1738822401,"current_range_meters":17600,"station_id":"ce4bhnp2rcd13ifvqgvg","pricing_plan_id":"cebpf4jnsgd1na2vs0mg"},{"bike_id":"d97d59e1-9580-48c7-9ee3-34b0cdc67193","system_id":"levelo_inurba_marseille","lat":43.28111,"lon":5.37823,"is_reserved":false,"is_disabled":false,"rental_uris":{"android":"levelo://app?vid=d97d59e1-9580-48c7-9ee3-34b0cdc67193","ios":"levelo://app?vid=d97d59e1-9580-48c7-9ee3-34b0cdc67193"},"vehicle_type_id":"4","last_reported":1738822401,"current_range_meters":38000,"station_id":"ce4bha12rcd13ifvqee0","pricing_plan_id":"cebpf4jnsgd1na2vs0mg"},{"bike_id":"61857cc0-1da3-4716-a1df-4b82d2ea552c","system_id":"levelo_inurba_marseille","lat":43.251074,"lon":5.403276,"is_reserved":false,"is_disabled":false,"rental_uris":{"android":"levelo://app?vid=61857cc0-1da3-4716-a1df-4b82d2ea552c","ios":"levelo://app?vid=61857cc0-1da3-4716-a1df-4b82d2ea552c"},"vehicle_type_id":"4","last_reported":1738822401,"current_range_meters":38800,"station_id":"ce4bhlh2rcd13ifvqgig","pricing_plan_id":"cebpf4jnsgd1na2vs0mg"},{"bike_id":"cd07e062-2af1-406e-bcb9-5f1ec4730937","system_id":"levelo_inurba_marseille","lat":43.23063,"lon":5.35487,"is_reserved":false,"is_disabled":false,"rental_uris":{"android":"levelo://app?vid=cd07e062-2af1-406e-bcb9-5f1ec4730937","ios":"levelo://app?vid=cd07e062-2af1-406e-bcb9-5f1ec4730937"},"vehicle_type_id":"4","last_reported":1738822401,"current_range_meters":36800,"station_id":"cpo3342slgdg3j2ifvpg","pricing_plan_id":"cebpf4jnsgd1na2vs0mg"},{"bike_id":"c3644d12-8427-4602-9945-9ef42c46feca","system_id":"levelo_inurba_marseille","lat":43.241654,"lon":5.363985,"is_reserved":false,"is_disabled":false,"rental_uris":{"android":"levelo://app?vid=c3644d12-8427-4602-9945-9ef42c46feca","ios":"levelo://app?vid=c3644d12-8427-4602-9945-9ef42c46feca"},"vehicle_type_id":"4","last_reported":1738822401,"current_range_meters":36800,"station_id":"cpo36qri1sfpv3e86is0","pricing_plan_id":"cebpf4jnsgd1na2vs0mg"},{"bike_id":"6b38d43d-337c-4149-9167-ccfdd61c33a4","system_id":"levelo_inurba_marseille","lat":43.292171,"lon":5.360784,"is_reserved":false,"is_disabled":false,"rental_uris":{"android":"levelo://app?vid=6b38d43d-337c-4149-9167-ccfdd61c33a4","ios":"levelo://app?vid=6b38d43d-337c-4149-9167-ccfdd61c33a4"},"vehicle_type_id":"4","last_reported":1738822401,"current_range_meters":32800,"station_id":"ce4bhbh2rcd13ifvqeqg","pricing_plan_id":"cebpf4jnsgd1na2vs0mg"},{"bike_id":"274186d6-fcd1-4040-98ea-21465f7f35af","system_id":"levelo_inurba_marseille","lat":43.250017,"lon":5.389178,"is_reserved":false,"is_disabled":false,"rental_uris":{"android":"levelo://app?vid=274186d6-fcd1-4040-98ea-21465f7f35af","ios":"levelo://app?vid=274186d6-fcd1-4040-98ea-21465f7f35af"},"vehicle_type_id":"4","last_reported":1738822401,"current_range_meters":38800,"station_id":"ce4bhgp2rcd13ifvqfd0","pricing_plan_id":"cebpf4jnsgd1na2vs0mg"},{"bike_id":"1e7bde43-ab8f-4755-b59a-acd0a53ae759","system_id":"levelo_inurba_marseille","lat":43.317119,"lon":5.424109,"is_reserved":false,"is_disabled":true,"rental_uris":{"android":"levelo://app?vid=1e7bde43-ab8f-4755-b59a-acd0a53ae759","ios":"levelo://app?vid=1e7bde43-ab8f-4755-b59a-acd0a53ae759"},"vehicle_type_id":"4","last_reported":1738822401,"current_range_meters":0,"station_id":"ce4bhp92rcd13ifvqhbg","pricing_plan_id":"cebpf4jnsgd1na2vs0mg"},{"bike_id":"6bd6248f-e33a-486b-9935-fb7344f803b7","system_id":"levelo_inurba_marseille","lat":43.3205,"lon":5.41531,"is_reserved":false,"is_disabled":false,"rental_uris":{"android":"levelo://app?vid=6bd6248f-e33a-486b-9935-fb7344f803b7","ios":"levelo://app?vid=6bd6248f-e33a-486b-9935-fb7344f803b7"},"vehicle_type_id":"4","last_reported":1738822401,"current_range_meters":36400,"station_id":"ce4bhq92rcd13ifvqhkg","pricing_plan_id":"cebpf4jnsgd1na2vs0mg"},{"bike_id":"8514163f-de15-4d62-8df2-96f1b414b5e7","system_id":"levelo_inurba_marseille","lat":43.28695,"lon":5.38656,"is_reserved":false,"is_disabled":false,"rental_uris":{"android":"levelo://app?vid=8514163f-de15-4d62-8df2-96f1b414b5e7","ios":"levelo://app?vid=8514163f-de15-4d62-8df2-96f1b414b5e7"},"vehicle_type_id":"4","last_reported":1738822401,"current_range_meters":38800,"station_id":"ce4bh492rcd13ifvqdug","pricing_plan_id":"cebpf4jnsgd1na2vs0mg"},{"bike_id":"bd944b22-bdc4-45a8-9a31-0c38734abd7e","system_id":"levelo_inurba_marseille","lat":43.28944,"lon":5.36395,"is_reserved":false,"is_disabled":true,"rental_uris":{"android":"levelo://app?vid=bd944b22-bdc4-45a8-9a31-0c38734abd7e","ios":"levelo://app?vid=bd944b22-bdc4-45a8-9a31-0c38734abd7e"},"vehicle_type_id":"4","last_reported":1738822401,"current_range_meters":1200,"station_id":"ce4bhc92rcd13ifvqetg","pricing_plan_id":"cebpf4jnsgd1na2vs0mg"},{"bike_id":"dea8f2dd-d434-48f4-9202-71ab3e361aaa","system_id":"levelo_inurba_marseille","lat":43.28848,"lon":5.35904,"is_reserved":false,"is_disabled":false,"rental_uris":{"android":"levelo://app?vid=dea8f2dd-d434-48f4-9202-71ab3e361aaa","ios":"levelo://app?vid=dea8f2dd-d434-48f4-9202-71ab3e361aaa"},"vehicle_type_id":"4","last_reported":1738822401,"current_range_meters":38800,"station_id":"ce4bhb12rcd13ifvqem0","pricing_plan_id":"cebpf4jnsgd1na2vs0mg"},{"bike_id":"78a4c83f-4d73-437d-9527-15d2cb2bd443","system_id":"levelo_inurba_marseille","lat":43.28158,"lon":5.4264,"is_reserved":false,"is_disabled":false,"rental_uris":{"android":"levelo://app?vid=78a4c83f-4d73-437d-9527-15d2cb2bd443","ios":"levelo://app?vid=78a4c83f-4d73-437d-9527-15d2cb2bd443"},"vehicle_type_id":"4","last_reported":1738822401,"current_range_meters":38800,"station_id":"ce4bhnh2rcd13ifvqgug","pricing_plan_id":"cebpf4jnsgd1na2vs0mg"},{"bike_id":"9b65bab4-c48c-4080-b355-dc458d2b62bb","system_id":"levelo_inurba_marseille","lat":43.30939,"lon":5.40124,"is_reserved":false,"is_disabled":false,"rental_uris":{"android":"levelo://app?vid=9b65bab4-c48c-4080-b355-dc458d2b62bb","ios":"levelo://app?vid=9b65bab4-c48c-4080-b355-dc458d2b62bb"},"vehicle_type_id":"4","last_reported":1738822401,"current_range_meters":38800,"station_id":"ce4bgvp2rcd13ifvqct0","pricing_plan_id":"cebpf4jnsgd1na2vs0mg"},{"bike_id":"45a7daa2-2a2e-4454-90c3-1009aaecc5bd","system_id":"levelo_inurba_marseille","lat":43.23194,"lon":5.3553,"is_reserved":false,"is_disabled":false,"rental_uris":{"android":"levelo://app?vid=45a7daa2-2a2e-4454-90c3-1009aaecc5bd","ios":"levelo://app?vid=45a7daa2-2a2e-4454-90c3-1009aaecc5bd"},"vehicle_type_id":"4","last_reported":1738822401,"current_range_meters":38800,"station_id":"ce4bhu92rcd13ifvqi70","pricing_plan_id":"cebpf4jnsgd1na2vs0mg"},{"bike_id":"ee005bae-497c-4312-9b03-99403b18d5fb","system_id":"levelo_inurba_marseille","lat":43.2603,"lon":5.37551,"is_reserved":false,"is_disabled":false,"rental_uris":{"android":"levelo://app?vid=ee005bae-497c-4312-9b03-99403b18d5fb","ios":"levelo://app?vid=ee005bae-497c-4312-9b03-99403b18d5fb"},"vehicle_type_id":"4","last_reported":1738822401,"current_range_meters":12000,"station_id":"ce4bhgh2rcd13ifvqfa0","pricing_plan_id":"cebpf4jnsgd1na2vs0mg"},{"bike_id":"aece1634-918f-4f68-8bc7-9a7b7abafc1f","system_id":"levelo_inurba_marseille","lat":43.28152,"lon":5.42631,"is_reserved":false,"is_disabled":true,"rental_uris":{"android":"levelo://app?vid=aece1634-918f-4f68-8bc7-9a7b7abafc1f","ios":"levelo://app?vid=aece1634-918f-4f68-8bc7-9a7b7abafc1f"},"vehicle_type_id":"4","last_reported":1738822401,"current_range_meters":27600,"station_id":"ce4bhnh2rcd13ifvqgug","pricing_plan_id":"cebpf4jnsgd1na2vs0mg"},{"bike_id":"72e458a9-2a04-4d7d-a6ed-4033588f5b60","system_id":"levelo_inurba_marseille","lat":43.32378,"lon":5.38888,"is_reserved":false,"is_disabled":false,"rental_uris":{"android":"levelo://app?vid=72e458a9-2a04-4d7d-a6ed-4033588f5b60","ios":"levelo://app?vid=72e458a9-2a04-4d7d-a6ed-4033588f5b60"},"vehicle_type_id":"4","last_reported":1738822401,"current_range_meters":22400,"station_id":"ce4bhqp2rcd13ifvqhog","pricing_plan_id":"cebpf4jnsgd1na2vs0mg"},{"bike_id":"e4fbacd2-2c44-4b78-b9fc-d346dc2a77d1","system_id":"levelo_inurba_marseille","lat":43.32365,"lon":5.38883,"is_reserved":false,"is_disabled":false,"rental_uris":{"android":"levelo://app?vid=e4fbacd2-2c44-4b78-b9fc-d346dc2a77d1","ios":"levelo://app?vid=e4fbacd2-2c44-4b78-b9fc-d346dc2a77d1"},"vehicle_type_id":"4","last_reported":1738822401,"current_range_meters":37600,"station_id":"ce4bhqp2rcd13ifvqhog","pricing_plan_id":"cebpf4jnsgd1na2vs0mg"},{"bike_id":"3b1d5f28-8e2f-4cd2-84ee-32e60c8bc1d4","system_id":"levelo_inurba_marseille","lat":43.279544,"lon":5.387148,"is_reserved":false,"is_disabled":false,"rental_uris":{"android":"levelo://app?vid=3b1d5f28-8e2f-4cd2-84ee-32e60c8bc1d4","ios":"levelo://app?vid=3b1d5f28-8e2f-4cd2-84ee-32e60c8bc1d4"},"vehicle_type_id":"4","last_reported":1738822401,"current_range_meters":38400,"station_id":"ce4bhg12rcd13ifvqf80","pricing_plan_id":"cebpf4jnsgd1na2vs0mg"},{"bike_id":"dd71d97f-8b4b-4a1b-a8d7-a09a3041be67","system_id":"levelo_inurba_marseille","lat":43.2815,"lon":5.42647,"is_reserved":false,"is_disabled":false,"rental_uris":{"android":"levelo://app?vid=dd71d97f-8b4b-4a1b-a8d7-a09a3041be67","ios":"levelo://app?vid=dd71d97f-8b4b-4a1b-a8d7-a09a3041be67"},"vehicle_type_id":"4","last_reported":1738822401,"current_range_meters":38400,"station_id":"ce4bhnh2rcd13ifvqgug","pricing_plan_id":"cebpf4jnsgd1na2vs0mg"},{"bike_id":"a17b902b-bafc-49d0-9389-2ce74253b3a1","system_id":"levelo_inurba_marseille","lat":43.27188,"lon":5.4099,"is_reserved":false,"is_disabled":true,"rental_uris":{"android":"levelo://app?vid=a17b902b-bafc-49d0-9389-2ce74253b3a1","ios":"levelo://app?vid=a17b902b-bafc-49d0-9389-2ce74253b3a1"},"vehicle_type_id":"4","last_reported":1738822401,"current_range_meters":38800,"station_id":"ce4bhl12rcd13ifvqgf0","pricing_plan_id":"cebpf4jnsgd1na2vs0mg"},{"bike_id":"82928581-7cae-4db3-9a68-a5b9ec34a9ee","system_id":"levelo_inurba_marseille","lat":43.318922,"lon":5.433619,"is_reserved":false,"is_disabled":true,"rental_uris":{"android":"levelo://app?vid=82928581-7cae-4db3-9a68-a5b9ec34a9ee","ios":"levelo://app?vid=82928581-7cae-4db3-9a68-a5b9ec34a9ee"},"vehicle_type_id":"4","last_reported":1738822401,"current_range_meters":0,"station_id":"","pricing_plan_id":"cebpf4jnsgd1na2vs0mg"},{"bike_id":"9d71d304-2002-4ef9-bd23-de48bc17ac77","system_id":"levelo_inurba_marseille","lat":43.24067,"lon":5.37722,"is_reserved":false,"is_disabled":false,"rental_uris":{"android":"levelo://app?vid=9d71d304-2002-4ef9-bd23-de48bc17ac77","ios":"levelo://app?vid=9d71d304-2002-4ef9-bd23-de48bc17ac77"},"vehicle_type_id":"4","last_reported":1738822401,"current_range_meters":38800,"station_id":"ce4bhnp2rcd13ifvqgvg","pricing_plan_id":"cebpf4jnsgd1na2vs0mg"},{"bike_id":"ec2cdfb0-cfd0-4830-9e84-a7e02fd3873a","system_id":"levelo_inurba_marseille","lat":43.27178,"lon":5.40991,"is_reserved":false,"is_disabled":false,"rental_uris":{"android":"levelo://app?vid=ec2cdfb0-cfd0-4830-9e84-a7e02fd3873a","ios":"levelo://app?vid=ec2cdfb0-cfd0-4830-9e84-a7e02fd3873a"},"vehicle_type_id":"4","last_reported":1738822401,"current_range_meters":38800,"station_id":"ce4bhl12rcd13ifvqgf0","pricing_plan_id":"cebpf4jnsgd1na2vs0mg"},{"bike_id":"fcb9be0a-ba11-4a8c-a562-6318f237e122","system_id":"levelo_inurba_marseille","lat":43.28425,"lon":5.3499,"is_reserved":false,"is_disabled":false,"rental_uris":{"android":"levelo://app?vid=fcb9be0a-ba11-4a8c-a562-6318f237e122","ios":"levelo://app?vid=fcb9be0a-ba11-4a8c-a562-6318f237e122"},"vehicle_type_id":"4","last_reported":1738822401,"current_range_meters":37600,"station_id":"ce4bhbh2rcd13ifvqepg","pricing_plan_id":"cebpf4jnsgd1na2vs0mg"},{"bike_id":"39e48cdd-1e81-47f1-8caa-7197be9aaab1","system_id":"levelo_inurba_marseille","lat":43.31755,"lon":5.39023,"is_reserved":false,"is_disabled":false,"rental_uris":{"android":"levelo://app?vid=39e48cdd-1e81-47f1-8caa-7197be9aaab1","ios":"levelo://app?vid=39e48cdd-1e81-47f1-8caa-7197be9aaab1"},"vehicle_type_id":"4","last_reported":1738822401,"current_range_meters":38800,"station_id":"ce4bhqp2rcd13ifvqhng","pricing_plan_id":"cebpf4jnsgd1na2vs0mg"},{"bike_id":"fd7b8edb-625e-48d4-abfd-ac939dc84220","system_id":"levelo_inurba_marseille","lat":43.30259,"lon":5.40078,"is_reserved":false,"is_disabled":false,"rental_uris":{"android":"levelo://app?vid=fd7b8edb-625e-48d4-abfd-ac939dc84220","ios":"levelo://app?vid=fd7b8edb-625e-48d4-abfd-ac939dc84220"},"vehicle_type_id":"4","last_reported":1738822401,"current_range_meters":36800,"station_id":"ce4bgvh2rcd13ifvqcs0","pricing_plan_id":"cebpf4jnsgd1na2vs0mg"},{"bike_id":"8a3b1adc-e338-472b-9199-ede1c4fce4fb","system_id":"levelo_inurba_marseille","lat":43.30481,"lon":5.37905,"is_reserved":false,"is_disabled":false,"rental_uris":{"android":"levelo://app?vid=8a3b1adc-e338-472b-9199-ede1c4fce4fb","ios":"levelo://app?vid=8a3b1adc-e338-472b-9199-ede1c4fce4fb"},"vehicle_type_id":"4","last_reported":1738822401,"current_range_meters":18800,"station_id":"ce4bgup2rcd13ifvqcn0","pricing_plan_id":"cebpf4jnsgd1na2vs0mg"},{"bike_id":"93f89aed-45dc-4731-909b-005a8cc9c9bd","system_id":"levelo_inurba_marseille","lat":43.286105,"lon":5.370616,"is_reserved":false,"is_disabled":false,"rental_uris":{"android":"levelo://app?vid=93f89aed-45dc-4731-909b-005a8cc9c9bd","ios":"levelo://app?vid=93f89aed-45dc-4731-909b-005a8cc9c9bd"},"vehicle_type_id":"4","last_reported":1738822401,"current_range_meters":38800,"station_id":"ce4bht12rcd13ifvqi60","pricing_plan_id":"cebpf4jnsgd1na2vs0mg"},{"bike_id":"554e5e02-8015-4d2a-aeb7-01f85173ce07","system_id":"levelo_inurba_marseille","lat":43.2905,"lon":5.35898,"is_reserved":false,"is_disabled":false,"rental_uris":{"android":"levelo://app?vid=554e5e02-8015-4d2a-aeb7-01f85173ce07","ios":"levelo://app?vid=554e5e02-8015-4d2a-aeb7-01f85173ce07"},"vehicle_type_id":"4","last_reported":1738822401,"current_range_meters":38800,"station_id":"ce4bha92rcd13ifvqeg0","pricing_plan_id":"cebpf4jnsgd1na2vs0mg"},{"bike_id":"2118c82d-0143-415d-aaf1-22408e5c55b9","system_id":"levelo_inurba_marseille","lat":43.28428,"lon":5.39185,"is_reserved":false,"is_disabled":false,"rental_uris":{"android":"levelo://app?vid=2118c82d-0143-415d-aaf1-22408e5c55b9","ios":"levelo://app?vid=2118c82d-0143-415d-aaf1-22408e5c55b9"},"vehicle_type_id":"4","last_reported":1738822401,"current_range_meters":35600,"station_id":"ce4bhoh2rcd13ifvqh5g","pricing_plan_id":"cebpf4jnsgd1na2vs0mg"},{"bike_id":"0a1d80a5-8567-473e-862c-e2d2e710157a","system_id":"levelo_inurba_marseille","lat":43.28424,"lon":5.34991,"is_reserved":false,"is_disabled":false,"rental_uris":{"android":"levelo://app?vid=0a1d80a5-8567-473e-862c-e2d2e710157a","ios":"levelo://app?vid=0a1d80a5-8567-473e-862c-e2d2e710157a"},"vehicle_type_id":"4","last_reported":1738822401,"current_range_meters":30400,"station_id":"ce4bhbh2rcd13ifvqepg","pricing_plan_id":"cebpf4jnsgd1na2vs0mg"},