{"last_updated":1760209591,"ttl":60,"version":"2.2","data":{"bikes":[{"bike_id":"5516e87b-8441-4871-bd1c-dcd0126e113d","system_id":"levelo_inurba_marseille","lat":43.337444,"lon":5.374475,"is_reserved":false,"is_disabled":true,"rental_uris":{"android":"levelo://app?vid=5516e87b-8441-4871-bd1c-dcd0126e113d","ios":"levelo://app?vid=5516e87b-8441-4871-bd1c-dcd0126e113d"},"vehicle_type_id":"4","last_reported":1760209591,"current_range_meters":0,"station_id":"","pricing_plan_id":"cebpf4jnsgd1na2vs0mg"},{"bike_id":"f9ef6a8c-cc82-49e4-96c2-f46e0950a0fc","system_id":"levelo_inurba_marseille","lat":43.33771,"lon":5.37424,"is_reserved":false,"is_disabled":true,"rental_uris":{"android":"levelo://app?vid=f9ef6a8c-cc82-49e4-96c2-f46e0950a0fc","ios":"levelo://app?vid=f9ef6a8c-cc82-49e4-96c2-f46e0950a0fc"},"vehicle_type_id":"4","last_reported":1760209591,"current_range_meters":0,"station_id":"","pricing_plan_id":"cebpf4jnsgd1na2vs0mg"},{"bike_id":"f92995dc-d2e7-4f2e-bcaf-27995c98a1de","system_id":"levelo_inurba_marseille","lat":43.33751,"lon":5.37456,"is_reserved":false,"is_disabled":true,"rental_uris":{"android":"levelo://app?vid=f92995dc-d2e7-4f2e-bcaf-27995c98a1de","ios":"levelo://app?vid=f92995dc-d2e7-4f2e-bcaf-27995c98a1de"},"vehicle_type_id":"4","last_reported":1760209591,"current_range_meters":0,"station_id":"","pricing_plan_id":"cebpf4jnsgd1na2vs0mg"},{"bike_id":"092183e8-1e36-4ece-a29a-68743a5820f6","system_id":"levelo_inurba_marseille","lat":43.33747,"lon":5.37463,"is_reserved":false,"is_disabled":true,"rental_uris":{"android":"levelo://app?vid=092183e8-1e36-4ece-a29a-68743a5820f6","ios":"levelo://app?vid=092183e8-1e36-4ece-a29a-68743a5820f6"},"vehicle_type_id":"1","last_reported":1760209591,"current_range_meters":0,"station_id":"","pricing_plan_id":"cebpf4jnsgd1na2vs0mg"},{"bike_id":"268f0f13-c790-4518-9f6a-1fe45b445342","system_id":"levelo_inurba_marseille","lat":43.33737,"lon":5.37465,"is_reserved":false,"is_disabled":true,"rental_uris":{"android":"levelo://app?vid=268f0f13-c790-4518-9f6a-1fe45b445342","ios":"levelo://app?vid=268f0f13-c790-4518-9f6a-1fe45b445342"},"vehicle_type_id":"4","last_reported":1760209591,"current_range_meters":0,"station_id":"","pricing_plan_id":"cebpf4jnsgd1na2vs0mg"},{"bike_id":"844de8fa-b1ed-4b48-bbb0-8ea30f04e6fa","system_id":"levelo_inurba_marseille","lat":43.33755,"lon":5.37468,"is_reserved":false,"is_disabled":false,"rental_uris":{"android":"levelo://app?vid=844de8fa-b1ed-4b48-bbb0-8ea30f04e6fa","ios":"levelo://app?vid=844de8fa-b1ed-4b48-bbb0-8ea30f04e6fa"},"vehicle_type_id":"4","last_reported":1760209591,"current_range_meters":4000,"station_id":"","pricing_plan_id":"cebpf4jnsgd1na2vs0mg"},{"bike_id":"affea08d-2e61-49ad-9018-2db734fe38fb","system_id":"levelo_inurba_marseille","lat":43.337444,"lon":5.374475,"is_reserved":false,"is_disabled":true,"rental_uris":{"android":"levelo://app?vid=affea08d-2e61-49ad-9018-2db734fe38fb","ios":"levelo://app?vid=affea08d-2e61-49ad-9018-2db734fe38fb"},"vehicle_type_id":"4","last_reported":1760209591,"current_range_meters":0,"station_id":"","pricing_plan_id":"cebpf4jnsgd1na2vs0mg"},{"bike_id":"c80be3e3-26c1-4fd2-ab94-730bb8638bdc","system_id":"levelo_inurba_marseille","lat":43.337444,"lon":5.374475,"is_reserved":false,"is_disabled":true,"rental_uris":{"android":"levelo://app?vid=c80be3e3-26c1-4fd2-ab94-730bb8638bdc","ios":"levelo://app?vid=c80be3e3-26c1-4fd2-ab94-730bb8638bdc"},"vehicle_type_id":"4","last_reported":1760209591,"current_range_meters":0,"station_id":"","pricing_plan_id":"cebpf4jnsgd1na2vs0mg"},{"bike_id":"1d6245e4-562b-49a1-9e17-90a195bca958","system_id":"levelo_inurba_marseille","lat":43.22524,"lon":5.34843,"is_reserved":false,"is_disabled":true,"rental_uris":{"android":"levelo://app?vid=1d6245e4-562b-49a1-9e17-90a195bca958","ios":"levelo://app?vid=1d6245e4-562b-49a1-9e17-90a195bca958"},"vehicle_type_id":"4","last_reported":1760209591,"current_range_meters":0,"station_id":"","pricing_plan_id":"cebpf4jnsgd1na2vs0mg"},{"bike_id":"f8726700-64d6-4ff8-acc0-9adfce94dbe9","system_id":"levelo_inurba_marseille","lat":43.27846,"lon":5.38307,"is_reserved":false,"is_disabled":true,"rental_uris":{"android":"levelo://app?vid=f8726700-64d6-4ff8-acc0-9adfce94dbe9","ios":"levelo://app?vid=f8726700-64d6-4ff8-acc0-9adfce94dbe9"},"vehicle_type_id":"4","last_reported":1760209591,"current_range_meters":0,"station_id":"","pricing_plan_id":"cebpf4jnsgd1na2vs0mg"},{"bike_id":"b4e7ef10-af79-4cf8-a207-60ed0a922607","system_id":"levelo_inurba_marseille","lat":43.337444,"lon":5.374475,"is_reserved":false,"is_disabled":true,"rental_uris":{"android":"levelo://app?vid=b4e7ef10-af79-4cf8-a207-60ed0a922607","ios":"levelo://app?vid=b4e7ef10-af79-4cf8-a207-60ed0a922607"},"vehicle_type_id":"4","last_reported":1760209591,"current_range_meters":0,"station_id":"","pricing_plan_id":"cebpf4jnsgd1na2vs0mg"},{"bike_id":"4ccf7a59-029f-457f-b839-dc6f11286326","system_id":"levelo_inurba_marseille","lat":43.31767,"lon":5.422098,"is_reserved":false,"is_disabled":true,"rental_uris":{"android":"levelo://app?vid=4ccf7a59-029f-457f-b839-dc6f11286326","ios":"levelo://app?vid=4ccf7a59-029f-457f-b839-dc6f11286326"},"vehicle_type_id":"4","last_reported":1760209591,"current_range_meters":0,"station_id":"","pricing_plan_id":"cebpf4jnsgd1na2vs0mg"},{"bike_id":"942c97ed-d8ea-49ae-804d-813a3077960e","system_id":"levelo_inurba_marseille","lat":43.28584,"lon":5.3992,"is_reserved":false,"is_disabled":true,"rental_uris":{"android":"levelo://app?vid=942c97ed-d8ea-49ae-804d-813a3077960e","ios":"levelo://app?vid=942c97ed-d8ea-49ae-804d-813a3077960e"},"vehicle_type_id":"4","last_reported":1760209591,"current_range_meters":0,"station_id":"","pricing_plan_id":"cebpf4jnsgd1na2vs0mg"},{"bike_id":"bf0cd1f5-4a2b-4aae-9f11-cde060414574","system_id":"levelo_inurba_marseille","lat":43.2254,"lon":5.34825,"is_reserved":false,"is_disabled":true,"rental_uris":{"android":"levelo://app?vid=bf0cd1f5-4a2b-4aae-9f11-cde060414574","ios":"levelo://app?vid=bf0cd1f5-4a2b-4aae-9f11-cde060414574"},"vehicle_type_id":"4","last_reported":1760209591,"current_range_meters":0,"station_id":"","pricing_plan_id":"cebpf4jnsgd1na2vs0mg"},{"bike_id":"faf21e59-73fe-43ba-965b-23c7230d33c8","system_id":"levelo_inurba_marseille","lat":43.270557,"lon":5.392632,"is_reserved":false,"is_disabled":true,"rental_uris":{"android":"levelo://app?vid=faf21e59-73fe-43ba-965b-23c7230d33c8","ios":"levelo://app?vid=faf21e59-73fe-43ba-965b-23c7230d33c8"},"vehicle_type_id":"4","last_reported":1760209591,"current_range_meters":0,"station_id":"","pricing_plan_id":"cebpf4jnsgd1na2vs0mg"},{"bike_id":"23d8caef-49e9-488f-868e-0291d47b102a","system_id":"levelo_inurba_marseille","lat":43.29111,"lon":5.35927,"is_reserved":false,"is_disabled":true,"rental_uris":{"android":"levelo://app?vid=23d8caef-49e9-488f-868e-0291d47b102a","ios":"levelo://app?vid=23d8caef-49e9-488f-868e-0291d47b102a"},"vehicle_type_id":"4","last_reported":1760209591,"current_range_meters":0,"station_id":"","pricing_plan_id":"cebpf4jnsgd1na2vs0mg"},{"bike_id":"ec39affe-5e48-4259-a225-7a0d248d923e","system_id":"levelo_inurba_marseille","lat":43.29648,"lon":5.38037,"is_reserved":false,"is_disabled":true,"rental_uris":{"android":"levelo://app?vid=ec39affe-5e48-4259-a225-7a0d248d923e","ios":"levelo://app?vid=ec39affe-5e48-4259-a225-7a0d248d923e"},"vehicle_type_id":"4","last_reported":1760209591,"current_range_meters":0,"station_id":"","pricing_plan_id":"cebpf4jnsgd1na2vs0mg"},{"bike_id":"eb5fffed-df7a-43f3-a420-da04d36c95cc","system_id":"levelo_inurba_marseille","lat":43.28973,"lon":5.36629,"is_reserved":false,"is_disabled":true,"rental_uris":{"android":"levelo://app?vid=eb5fffed-df7a-43f3-a420-da04d36c95cc","ios":"levelo://app?vid=eb5fffed-df7a-43f3-a420-da04d36c95cc"},"vehicle_type_id":"4","last_reported":1760209591,"current_range_meters":0,"station_id":"","pricing_plan_id":"cebpf4jnsgd1na2vs0mg"},{"bike_id":"70142089-209c-4039-af8c-409e67b86f5f","system_id":"levelo_inurba_marseille","lat":43.30201,"lon":5.38049,"is_reserved":false,"is_disabled":true,"rental_uris":{"android":"levelo://app?vid=70142089-209c-4039-af8c-409e67b86f5f","ios":"levelo://app?vid=70142089-209c-4039-af8c-409e67b86f5f"},"vehicle_type_id":"4","last_reported":1760209591,"current_range_meters":0,"station_id":"","pricing_plan_id":"cebpf4jnsgd1na2vs0mg"},{"bike_id":"338739f4-c116-4bed-8ca5-8df2bb0329fd","system_id":"levelo_inurba_marseille","lat":43.29312,"lon":5.37156,"is_reserved":false,"is_disabled":true,"rental_uris":{"android":"levelo://app?vid=338739f4-c116-4bed-8ca5-8df2bb0329fd","ios":"levelo://app?vid=338739f4-c116-4bed-8ca5-8df2bb0329fd"},"vehicle_type_id":"4","last_reported":1760209591,"current_range_meters":0,"station_id":"ce4bgh92rcd13ifvqb40","pricing_plan_id":"cebpf4jnsgd1na2vs0mg"},{"bike_id":"cc933f22-5c5a-42f4-b9c7-953a70892073","system_id":"levelo_inurba_marseille","lat":43.29527,"lon":5.38552,"is_reserved":false,"is_disabled":true,"rental_uris":{"android":"levelo://app?vid=cc933f22-5c5a-42f4-b9c7-953a70892073","ios":"levelo://app?vid=cc933f22-5c5a-42f4-b9c7-953a70892073"},"vehicle_type_id":"4","last_reported":1760209591,"current_range_meters":0,"station_id":"ce4bgih2rcd13ifvqba0","pricing_plan_id":"cebpf4jnsgd1na2vs0mg"},{"bike_id":"ddafdf44-1c01-4233-9042-0588774109b4","system_id":"levelo_inurba_marseille","lat":43.29967,"lon":5.38497,"is_reserved":false,"is_disabled":true,"rental_uris":{"android":"levelo://app?vid=ddafdf44-1c01-4233-9042-0588774109b4","ios":"levelo://app?vid=ddafdf44-1c01-4233-9042-0588774109b4"},"vehicle_type_id":"4","last_reported":1760209591,"current_range_meters":0,"station_id":"ce4bgj92rcd13ifvqbd0","pricing_plan_id":"cebpf4jnsgd1na2vs0mg"},{"bike_id":"5356f857-9355-45c7-a509-bf0bac8b1b49","system_id":"levelo_inurba_marseille","lat":43.29964,"lon":5.38499,"is_reserved":false,"is_disabled":true,"rental_uris":{"android":"levelo://app?vid=5356f857-9355-45c7-a509-bf0bac8b1b49","ios":"levelo://app?vid=5356f857-9355-45c7-a509-bf0bac8b1b49"},"vehicle_type_id":"4","last_reported":1760209591,"current_range_meters":0,"station_id":"ce4bgj92rcd13ifvqbd0","pricing_plan_id":"cebpf4jnsgd1na2vs0mg"},{"bike_id":"46012dce-c47a-4f59-9769-201a7fdb79a7","system_id":"levelo_inurba_marseille","lat":43.29917,"lon":5.37472,"is_reserved":false,"is_disabled":true,"rental_uris":{"android":"levelo://app?vid=46012dce-c47a-4f59-9769-201a7fdb79a7","ios":"levelo://app?vid=46012dce-c47a-4f59-9769-201a7fdb79a7"},"vehicle_type_id":"4","last_reported":1760209591,"current_range_meters":0,"station_id":"ce4bgjh2rcd13ifvqbg0","pricing_plan_id":"cebpf4jnsgd1na2vs0mg"},{"bike_id":"eed5d8fc-5ff5-4cf0-958c-4b09b2674452","system_id":"levelo_inurba_marseille","lat":43.314927,"lon":5.373093,"is_reserved":false,"is_disabled":true,"rental_uris":{"android":"levelo://app?vid=eed5d8fc-5ff5-4cf0-958c-4b09b2674452","ios":"levelo://app?vid=eed5d8fc-5ff5-4cf0-958c-4b09b2674452"},"vehicle_type_id":"4","last_reported":1760209591,"current_range_meters":0,"station_id":"ce4bgt12rcd13ifvqcd0","pricing_plan_id":"cebpf4jnsgd1na2vs0mg"},{"bike_id":"41f9a2fc-8f59-460b-b1c0-e1eb5f57b7c1","system_id":"levelo_inurba_marseille","lat":43.31115,"lon":5.37778,"is_reserved":false,"is_disabled":true,"rental_uris":{"android":"levelo://app?vid=41f9a2fc-8f59-460b-b1c0-e1eb5f57b7c1","ios":"levelo://app?vid=41f9a2fc-8f59-460b-b1c0-e1eb5f57b7c1"},"vehicle_type_id":"4","last_reported":1760209591,"current_range_meters":0,"station_id":"ce4bgt92rcd13ifvqcg0","pricing_plan_id":"cebpf4jnsgd1na2vs0mg"},{"bike_id":"cccf236a-9273-4051-a573-8761e556ca18","system_id":"levelo_inurba_marseille","lat":43.309328,"lon":5.401545,"is_reserved":false,"is_disabled":true,"rental_uris":{"android":"levelo://app?vid=cccf236a-9273-4051-a573-8761e556ca18","ios":"levelo://app?vid=cccf236a-9273-4051-a573-8761e556ca18"},"vehicle_type_id":"4","last_reported":1760209591,"current_range_meters":0,"station_id":"ce4bgvp2rcd13ifvqct0","pricing_plan_id":"cebpf4jnsgd1na2vs0mg"},{"bike_id":"90bee144-32cd-4cdf-922d-2257ff3b894f","system_id":"levelo_inurba_marseille","lat":43.31333,"lon":5.3971,"is_reserved":false,"is_disabled":true,"rental_uris":{"android":"levelo://app?vid=90bee144-32cd-4cdf-922d-2257ff3b894f","ios":"levelo://app?vid=90bee144-32cd-4cdf-922d-2257ff3b894f"},"vehicle_type_id":"4","last_reported":1760209591,"current_range_meters":0,"station_id":"ce4bgvp2rcd13ifvqcu0","pricing_plan_id":"cebpf4jnsgd1na2vs0mg"},{"bike_id":"bd28807f-fe55-4614-87a8-ec585c9f9cca","system_id":"levelo_inurba_marseille","lat":43.29265,"lon":5.40154,"is_reserved":false,"is_disabled":true,"rental_uris":{"android":"levelo://app?vid=bd28807f-fe55-4614-87a8-ec585c9f9cca","ios":"levelo://app?vid=bd28807f-fe55-4614-87a8-ec585c9f9cca"},"vehicle_type_id":"4","last_reported":1760209591,"current_range_meters":0,"station_id":"ce4bh312rcd13ifvqdk0","pricing_plan_id":"cebpf4jnsgd1na2vs0mg"},{"bike_id":"ad9f793c-16a4-4849-bcc9-7311ad6951d5","system_id":"levelo_inurba_marseille","lat":43.29038,"lon":5.38653,"is_reserved":false,"is_disabled":true,"rental_uris":{"android":"levelo://app?vid=ad9f793c-16a4-4849-bcc9-7311ad6951d5","ios":"levelo://app?vid=ad9f793c-16a4-4849-bcc9-7311ad6951d5"},"vehicle_type_id":"4","last_reported":1760209591,"current_range_meters":0,"station_id":"ce4bh4p2rcd13ifvqe0g","pricing_plan_id":"cebpf4jnsgd1na2vs0mg"},{"bike_id":"1e217379-81fc-498c-ab5f-050b06faee8c","system_id":"levelo_inurba_marseille","lat":43.28029,"lon":5.36918,"is_reserved":false,"is_disabled":true,"rental_uris":{"android":"levelo://app?vid=1e217379-81fc-498c-ab5f-050b06faee8c","ios":"levelo://app?vid=1e217379-81fc-498c-ab5f-050b06faee8c"},"vehicle_type_id":"4","last_reported":1760209591,"current_range_meters":0,"station_id":"ce4bha12rcd13ifvqef0","pricing_plan_id":"cebpf4jnsgd1na2vs0mg"},{"bike_id":"84dccce7-fc3d-49d7-b7bf-e6afc617658c","system_id":"levelo_inurba_marseille","lat":43.28614,"lon":5.35112,"is_reserved":false,"is_disabled":true,"rental_uris":{"android":"levelo://app?vid=84dccce7-fc3d-49d7-b7bf-e6afc617658c","ios":"levelo://app?vid=84dccce7-fc3d-49d7-b7bf-e6afc617658c"},"vehicle_type_id":"4","last_reported":1760209591,"current_range_meters":0,"station_id":"ce4bhch2rcd13ifvqeug","pricing_plan_id":"cebpf4jnsgd1na2vs0mg"},{"bike_id":"99104d02-7115-48f0-80a2-950140aa773b","system_id":"levelo_inurba_marseille","lat":43.26546,"lon":5.37282,"is_reserved":false,"is_disabled":true,"rental_uris":{"android":"levelo://app?vid=99104d02-7115-48f0-80a2-950140aa773b","ios":"levelo://app?vid=99104d02-7115-48f0-80a2-950140aa773b"},"vehicle_type_id":"4","last_reported":1760209591,"current_range_meters":0,"station_id":"ce4bhg12rcd13ifvqf70","pricing_plan_id":"cebpf4jnsgd1na2vs0mg"},{"bike_id":"e5c8ede6-6d4a-4685-9b22-0f82dde5dc29","system_id":"levelo_inurba_marseille","lat":43.24823,"lon":5.37449,"is_reserved":false,"is_disabled":true,"rental_uris":{"android":"levelo://app?vid=e5c8ede6-6d4a-4685-9b22-0f82dde5dc29","ios":"levelo://app?vid=e5c8ede6-6d4a-4685-9b22-0f82dde5dc29"},"vehicle_type_id":"4","last_reported":1760209591,"current_range_meters":0,"station_id":"ce4bhgh2rcd13ifvqfb0","pricing_plan_id":"cebpf4jnsgd1na2vs0mg"},{"bike_id":"c3a1707d-0ff8-437e-92c7-4e0be5ac5fea","system_id":"levelo_inurba_marseille","lat":43.25865,"lon":5.39901,"is_reserved":false,"is_disabled":true,"rental_uris":{"android":"levelo://app?vid=c3a1707d-0ff8-437e-92c7-4e0be5ac5fea","ios":"levelo://app?vid=c3a1707d-0ff8-437e-92c7-4e0be5ac5fea"},"vehicle_type_id":"4","last_reported":1760209591,"current_range_meters":0,"station_id":"ce4bhl92rcd13ifvqghg","pricing_plan_id":"cebpf4jnsgd1na2vs0mg"},{"bike_id":"b8f2f7c7-e08a-4589-bf41-154013c54438","system_id":"levelo_inurba_marseille","lat":43.28201,"lon":5.39053,"is_reserved":false,"is_disabled":false,"rental_uris":{"android":"levelo://app?vid=b8f2f7c7-e08a-4589-bf41-154013c54438","ios":"levelo://app?vid=b8f2f7c7-e08a-4589-bf41-154013c54438"},"vehicle_type_id":"4","last_reported":1760209591,"current_range_meters":0,"station_id":"ce4bhn92rcd13ifvqgsg","pricing_plan_id":"cebpf4jnsgd1na2vs0mg"},{"bike_id":"f0d6ddf4-078d-440a-8bbf-7256c19cf93b","system_id":"levelo_inurba_marseille","lat":43.24066,"lon":5.37765,"is_reserved":false,"is_disabled":true,"rental_uris":{"android":"levelo://app?vid=f0d6ddf4-078d-440a-8bbf-7256c19cf93b","ios":"levelo://app?vid=f0d6ddf4-078d-440a-8bbf-7256c19cf93b"},"vehicle_type_id":"4","last_reported":1760209591,"current_range_meters":0,"station_id":"ce4bhnp2rcd13ifvqgvg","pricing_plan_id":"cebpf4jnsgd1na2vs0mg"},{"bike_id":"fbfa4d7e-35ce-4e27-bf1d-65ee20435e7a","system_id":"levelo_inurba_marseille","lat":43.27994,"lon":5.40019,"is_reserved":false,"is_disabled":true,"rental_uris":{"android":"levelo://app?vid=fbfa4d7e-35ce-4e27-bf1d-65ee20435e7a","ios":"levelo://app?vid=fbfa4d7e-35ce-4e27-bf1d-65ee20435e7a"},"vehicle_type_id":"4","last_reported":1760209591,"current_range_meters":0,"station_id":"ce4bho92rcd13ifvqh4g","pricing_plan_id":"cebpf4jnsgd1na2vs0mg"},{"bike_id":"b2e2b38d-36f4-4e15-986e-723132819a60","system_id":"levelo_inurba_marseille","lat":43.30804,"lon":5.4355,"is_reserved":false,"is_disabled":true,"rental_uris":{"android":"levelo://app?vid=b2e2b38d-36f4-4e15-986e-723132819a60","ios":"levelo://app?vid=b2e2b38d-36f4-4e15-986e-723132819a60"},"vehicle_type_id":"4","last_reported":1760209591,"current_range_meters":0,"station_id":"ce4bhph2rcd13ifvqheg","pricing_plan_id":"cebpf4jnsgd1na2vs0mg"},{"bike_id":"0ff28379-d69e-46fd-a711-ef84b1b06a74","system_id":"levelo_inurba_marseille","lat":43.21766,"lon":5.34603,"is_reserved":false,"is_disabled":true,"rental_uris":{"android":"levelo://app?vid=0ff28379-d69e-46fd-a711-ef84b1b06a74","ios":"levelo://app?vid=0ff28379-d69e-46fd-a711-ef84b1b06a74"},"vehicle_type_id":"4","last_reported":1760209591,"current_range_meters":0,"station_id":"st_cvj6r9ubvosntc0bgbag","pricing_plan_id":"cebpf4jnsgd1na2vs0mg"},{"bike_id":"bc508d92-e055-4123-8e72-1c0771f1f4a0","system_id":"levelo_inurba_marseille","lat":43.21747,"lon":5.34609,"is_reserved":false,"is_disabled":true,"rental_uris":{"android":"levelo://app?vid=bc508d92-e055-4123-8e72-1c0771f1f4a0","ios":"levelo://app?vid=bc508d92-e055-4123-8e72-1c0771f1f4a0"},"vehicle_type_id":"4","last_reported":1760209591,"current_range_meters":0,"station_id":"st_cvj6r9ubvosntc0bgbag","pricing_plan_id":"cebpf4jnsgd1na2vs0mg"},{"bike_id":"86eca012-edfb-4c20-9aef-d37ce3cadbda","system_id":"levelo_inurba_marseille","lat":43.21193,"lon":5.35073,"is_reserved":false,"is_disabled":true,"rental_uris":{"android":"levelo://app?vid=86eca012-edfb-4c20-9aef-d37ce3cadbda","ios":"levelo://app?vid=86eca012-edfb-4c20-9aef-d37ce3cadbda"},"vehicle_type_id":"4","last_reported":1760209591,"current_range_meters":0,"station_id":"st_cvj6sg6p6f1abm77japg","pricing_plan_id":"cebpf4jnsgd1na2vs0mg"},{"bike_id":"5206f34d-5c08-42bd-b24d-21b13734d2e6","system_id":"levelo_inurba_marseille","lat":43.21186,"lon":5.35074,"is_reserved":false,"is_disabled":true,"rental_uris":{"android":"levelo://app?vid=5206f34d-5c08-42bd-b24d-21b13734d2e6","ios":"levelo://app?vid=5206f34d-5c08-42bd-b24d-21b13734d2e6"},"vehicle_type_id":"4","last_reported":1760209591,"current_range_meters":0,"station_id":"st_cvj6sg6p6f1abm77japg","pricing_plan_id":"cebpf4jnsgd1na2vs0mg"},{"bike_id":"5a1f50b1-f1f9-4f02-a3c5-363250f2c45b","system_id":"levelo_inurba_marseille","lat":43.212,"lon":5.35073,"is_reserved":false,"is_disabled":true,"rental_uris":{"android":"levelo://app?vid=5a1f50b1-f1f9-4f02-a3c5-363250f2c45b","ios":"levelo://app?vid=5a1f50b1-f1f9-4f02-a3c5-363250f2c45b"},"vehicle_type_id":"4","last_reported":1760209591,"current_range_meters":0,"station_id":"st_cvj6sg6p6f1abm77japg","pricing_plan_id":"cebpf4jnsgd1na2vs0mg"},{"bike_id":"c31f5b0e-d798-4f12-be52-283c24a28126","system_id":"levelo_inurba_marseille","lat":43.21206,"lon":5.35072,"is_reserved":false,"is_disabled":true,"rental_uris":{"android":"levelo://app?vid=c31f5b0e-d798-4f12-be52-283c24a28126","ios":"levelo://app?vid=c31f5b0e-d798-4f12-be52-283c24a28126"},"vehicle_type_id":"4","last_reported":1760209591,"current_range_meters":0,"station_id":"st_cvj6sg6p6f1abm77japg","pricing_plan_id":"cebpf4jnsgd1na2vs0mg"},{"bike_id":"48a0041b-83a8-40b4-8366-8550bbaec9ea","system_id":"levelo_inurba_marseille","lat":43.21204,"lon":5.3507,"is_reserved":false,"is_disabled":true,"rental_uris":{"android":"levelo://app?vid=48a0041b-83a8-40b4-8366-8550bbaec9ea","ios":"levelo://app?vid=48a0041b-83a8-40b4-8366-8550bbaec9ea"},"vehicle_type_id":"4","last_reported":1760209591,"current_range_meters":0,"station_id":"st_cvj6sg6p6f1abm77japg","pricing_plan_id":"cebpf4jnsgd1na2vs0mg"},{"bike_id":"318f22a7-5f50-43d5-95c9-0eb28a028a8f","system_id":"levelo_inurba_marseille","lat":43.225668,"lon":5.416272,"is_reserved":false,"is_disabled":true,"rental_uris":{"android":"levelo://app?vid=318f22a7-5f50-43d5-95c9-0eb28a028a8f","ios":"levelo://app?vid=318f22a7-5f50-43d5-95c9-0eb28a028a8f"},"vehicle_type_id":"4","last_reported":1760209591,"current_range_meters":0,"station_id":"st_d2o4gvlbi1j2169b742g","pricing_plan_id":"cebpf4jnsgd1na2vs0mg"},{"bike_id":"6789b0b1-4cdb-4364-8db0-2230f3507239","system_id":"levelo_inurba_marseille","lat":43.29472,"lon":5.43318,"is_reserved":false,"is_disabled":true,"rental_uris":{"android":"levelo://app?vid=6789b0b1-4cdb-4364-8db0-2230f3507239","ios":"levelo://app?vid=6789b0b1-4cdb-4364-8db0-2230f3507239"},"vehicle_type_id":"4","last_reported":1760209591,"current_range_meters":0,"station_id":"st_d3j5ugp08ojc73fj9d10","pricing_plan_id":"cebpf4jnsgd1na2vs0mg"},{"bike_id":"5f646aa8-a364-4741-96af-23aaa57962fe","system_id":"levelo_inurba_marseille","lat":43.298891,"lon":5.385119,"is_reserved":false,"is_disabled":true,"rental_uris":{"android":"levelo://app?vid=5f646aa8-a364-4741-96af-23aaa57962fe","ios":"levelo://app?vid=5f646aa8-a364-4741-96af-23aaa57962fe"},"vehicle_type_id":"4","last_reported":1760209591,"current_range_meters":400,"station_id":"ce4bgj92rcd13ifvqbd0","pricing_plan_id":"cebpf4jnsgd1na2vs0mg"},{"bike_id":"4b934606-ecc2-49b2-a918-0579ee335c0f","system_id":"levelo_inurba_marseille","lat":43.29198,"lon":5.39317,"is_reserved":false,"is_disabled":true,"rental_uris":{"android":"levelo://app?vid=4b934606-ecc2-49b2-a918-0579ee335c0f","ios":"levelo://app?vid=4b934606-ecc2-49b2-a918-0579ee335c0f"},"vehicle_type_id":"4","last_reported":1760209591,"current_range_meters":400,"station_id":"ce4bh192rcd13ifvqdd0","pricing_plan_id":"cebpf4jnsgd1na2vs0mg"},{"bike_id":"f9393001-3c65-48bd-ae4e-67982ba4ca22","system_id":"levelo_inurba_marseille","lat":43.21761,"lon":5.34594,"is_reserved":false,"is_disabled":true,"rental_uris":{"android":"levelo://app?vid=f9393001-3c65-48bd-ae4e-67982ba4ca22","ios":"levelo://app?vid=f9393001-3c65-48bd-ae4e-67982ba4ca22"},"vehicle_type_id":"4","last_reported":1760209591,"current_range_meters":400,"station_id":"st_cvj6r9ubvosntc0bgbag","pricing_plan_id":"cebpf4jnsgd1na2vs0mg"},{"bike_id":"f9189c34-73f3-400e-a578-d61fdb98e03d","system_id":"levelo_inurba_marseille","lat":43.304966,"lon":5.36592,"is_reserved":false,"is_disabled":true,"rental_uris":{"android":"levelo://app?vid=f9189c34-73f3-400e-a578-d61fdb98e03d","ios":"levelo://app?vid=f9189c34-73f3-400e-a578-d61fdb98e03d"},"vehicle_type_id":"4","last_reported":1760209591,"current_range_meters":800,"station_id":"","pricing_plan_id":"cebpf4jnsgd1na2vs0mg"},{"bike_id":"bfc5afed-4871-4ace-9af5-74e623cb952a","system_id":"levelo_inurba_marseille","lat":43.30141,"lon":5.38767,"is_reserved":false,"is_disabled":true,"rental_uris":{"android":"levelo://app?vid=bfc5afed-4871-4ace-9af5-74e623cb952a","ios":"levelo://app?vid=bfc5afed-4871-4ace-9af5-74e623cb952a"},"vehicle_type_id":"4","last_reported":1760209591,"current_range_meters":800,"station_id":"ce4bghh2rcd13ifvqb60","pricing_plan_id":"cebpf4jnsgd1na2vs0mg"},{"bike_id":"07b2362e-321e-4eb4-a796-65eea205ee68","system_id":"levelo_inurba_marseille","lat":43.29907,"lon":5.38146,"is_reserved":false,"is_disabled":true,"rental_uris":{"android":"levelo://app?vid=07b2362e-321e-4eb4-a796-65eea205ee68","ios":"levelo://app?vid=07b2362e-321e-4eb4-a796-65eea205ee68"},"vehicle_type_id":"4","last_reported":1760209591,"current_range_meters":800,"station_id":"ce4bgj12rcd13ifvqbc0","pricing_plan_id":"cebpf4jnsgd1na2vs0mg"},{"bike_id":"9d95115c-9dba-4fe7-87ab-e623cf9515c6","system_id":"levelo_inurba_marseille","lat":43.303036,"lon":5.392098,"is_reserved":false,"is_disabled":true,"rental_uris":{"android":"levelo://app?vid=9d95115c-9dba-4fe7-87ab-e623cf9515c6","ios":"levelo://app?vid=9d95115c-9dba-4fe7-87ab-e623cf9515c6"},"vehicle_type_id":"4","last_reported":1760209591,"current_range_meters":800,"station_id":"ce4bgkh2rcd13ifvqbk0","pricing_plan_id":"cebpf4jnsgd1na2vs0mg"},{"bike_id":"2b5d5b57-0bec-4afb-a2b0-ef392a151d50","system_id":"levelo_inurba_marseille","lat":43.31118,"lon":5.377516,"is_reserved":false,"is_disabled":true,"rental_uris":{"android":"levelo://app?vid=2b5d5b57-0bec-4afb-a2b0-ef392a151d50","ios":"levelo://app?vid=2b5d5b57-0bec-4afb-a2b0-ef392a151d50"},"vehicle_type_id":"4","last_reported":1760209591,"current_range_meters":800,"station_id":"ce4bgt92rcd13ifvqcg0","pricing_plan_id":"cebpf4jnsgd1na2vs0mg"},{"bike_id":"c63e2109-81c2-4a47-a1db-e48311bbc64b","system_id":"levelo_inurba_marseille","lat":43.31072,"lon":5.38352,"is_reserved":false,"is_disabled":true,"rental_uris":{"android":"levelo://app?vid=c63e2109-81c2-4a47-a1db-e48311bbc64b","ios":"levelo://app?vid=c63e2109-81c2-4a47-a1db-e48311bbc64b"},"vehicle_type_id":"4","last_reported":1760209591,"current_range_meters":800,"station_id":"ce4bgv92rcd13ifvqcr0","pricing_plan_id":"cebpf4jnsgd1na2vs0mg"},{"bike_id":"12c1c4a2-52bd-4876-bf0b-28b113e9f923","system_id":"levelo_inurba_marseille","lat":43.306454,"lon":5.400809,"is_reserved":false,"is_disabled":true,"rental_uris":{"android":"levelo://app?vid=12c1c4a2-52bd-4876-bf0b-28b113e9f923","ios":"levelo://app?vid=12c1c4a2-52bd-4876-bf0b-28b113e9f923"},"vehicle_type_id":"4","last_reported":1760209591,"current_range_meters":800,"station_id":"ce4bh112rcd13ifvqda0","pricing_plan_id":"cebpf4jnsgd1na2vs0mg"},{"bike_id":"12cfe068-0821-4927-a2e4-0d71958ac3a3","system_id":"levelo_inurba_marseille","lat":43.29252,"lon":5.38438,"is_reserved":false,"is_disabled":true,"rental_uris":{"android":"levelo://app?vid=12cfe068-0821-4927-a2e4-0d71958ac3a3","ios":"levelo://app?vid=12cfe068-0821-4927-a2e4-0d71958ac3a3"},"vehicle_type_id":"4","last_reported":1760209591,"current_range_meters":800,"station_id":"ce4bh692rcd13ifvqea0","pricing_plan_id":"cebpf4jnsgd1na2vs0mg"},{"bike_id":"a630f870-dfb6-4a2e-b3da-71be9fb41641","system_id":"levelo_inurba_marseille","lat":43.2738,"lon":5.36254,"is_reserved":false,"is_disabled":true,"rental_uris":{"android":"levelo://app?vid=a630f870-dfb6-4a2e-b3da-71be9fb41641","ios":"levelo://app?vid=a630f870-dfb6-4a2e-b3da-71be9fb41641"},"vehicle_type_id":"4","last_reported":1760209591,"current_range_meters":800,"station_id":"ce4bhbh2rcd13ifvqeo0","pricing_plan_id":"cebpf4jnsgd1na2vs0mg"},{"bike_id":"5fcf373e-63a2-4090-9e5a-5ddad8509b0d","system_id":"levelo_inurba_marseille","lat":43.287815,"lon":5.400346,"is_reserved":false,"is_disabled":true,"rental_uris":{"android":"levelo://app?vid=5fcf373e-63a2-4090-9e5a-5ddad8509b0d","ios":"levelo://app?vid=5fcf373e-63a2-4090-9e5a-5ddad8509b0d"},"vehicle_type_id":"4","last_reported":1760209591,"current_range_meters":800,"station_id":"ce4bho92rcd13ifvqh3g","pricing_plan_id":"cebpf4jnsgd1na2vs0mg"},{"bike_id":"cf1f5b36-e546-40a1-9eae-40b1d47bbe02","system_id":"levelo_inurba_marseille","lat":43.217461,"lon":5.346037,"is_reserved":false,"is_disabled":true,"rental_uris":{"android":"levelo://app?vid=cf1f5b36-e546-40a1-9eae-40b1d47bbe02","ios":"levelo://app?vid=cf1f5b36-e546-40a1-9eae-40b1d47bbe02"},"vehicle_type_id":"4","last_reported":1760209591,"current_range_meters":800,"station_id":"st_cvj6r9ubvosntc0bgbag","pricing_plan_id":"cebpf4jnsgd1na2vs0mg"},{"bike_id":"8f2a7ab2-aca6-46d7-b646-8b76230702af","system_id":"levelo_inurba_marseille","lat":43.292725,"lon":5.368497,"is_reserved":false,"is_disabled":true,"rental_uris":{"android":"levelo://app?vid=8f2a7ab2-aca6-46d7-b646-8b76230702af","ios":"levelo://app?vid=8f2a7ab2-aca6-46d7-b646-8b76230702af"},"vehicle_type_id":"4","last_reported":1760209591,"current_range_meters":1200,"station_id":"","pricing_plan_id":"cebpf4jnsgd1na2vs0mg"},{"bike_id":"ff184afb-2150-4d18-aa01-5760266b1039","system_id":"levelo_inurba_marseille","lat":43.292572,"lon":5.376214,"is_reserved":false,"is_disabled":true,"rental_uris":{"android":"levelo://app?vid=ff184afb-2150-4d18-aa01-5760266b1039","ios":"levelo://app?vid=ff184afb-2150-4d18-aa01-5760266b1039"},"vehicle_type_id":"4","last_reported":1760209591,"current_range_meters":1200,"station_id":"ce4bgi12rcd13ifvqb80","pricing_plan_id":"cebpf4jnsgd1na2vs0mg"},{"bike_id":"7cd19abb-b195-4ff0-bf6b-d8602777eb31","system_id":"levelo_inurba_marseille","lat":43.2834,"lon":5.38108,"is_reserved":false,"is_disabled":true,"rental_uris":{"android":"levelo://app?vid=7cd19abb-b195-4ff0-bf6b-d8602777eb31","ios":"levelo://app?vid=7cd19abb-b195-4ff0-bf6b-d8602777eb31"},"vehicle_type_id":"4","last_reported":1760209591,"current_range_meters":1200,"station_id":"ce4bh412rcd13ifvqdr0","pricing_plan_id":"cebpf4jnsgd1na2vs0mg"},{"bike_id":"de920bd0-751c-4670-93f1-c8395affe5fd","system_id":"levelo_inurba_marseille","lat":43.284135,"lon":5.375093,"is_reserved":false,"is_disabled":true,"rental_uris":{"android":"levelo://app?vid=de920bd0-751c-4670-93f1-c8395affe5fd","ios":"levelo://app?vid=de920bd0-751c-4670-93f1-c8395affe5fd"},"vehicle_type_id":"4","last_reported":1760209591,"current_range_meters":1200,"station_id":"ce4bh412rcd13ifvqds0","pricing_plan_id":"cebpf4jnsgd1na2vs0mg"},{"bike_id":"cba56992-3c63-4f84-98cc-508de17884dd","system_id":"levelo_inurba_marseille","lat":43.2928,"lon":5.36847,"is_reserved":false,"is_disabled":true,"rental_uris":{"android":"levelo://app?vid=cba56992-3c63-4f84-98cc-508de17884dd","ios":"levelo://app?vid=cba56992-3c63-4f84-98cc-508de17884dd"},"vehicle_type_id":"4","last_reported":1760209591,"current_range_meters":1200,"station_id":"ce4bhbp2rcd13ifvqesg","pricing_plan_id":"cebpf4jnsgd1na2vs0mg"},{"bike_id":"13c02fae-d17b-45e0-85dd-a7954ede836e","system_id":"levelo_inurba_marseille","lat":43.265706,"lon":5.389969,"is_reserved":false,"is_disabled":true,"rental_uris":{"android":"levelo://app?vid=13c02fae-d17b-45e0-85dd-a7954ede836e","ios":"levelo://app?vid=13c02fae-d17b-45e0-85dd-a7954ede836e"},"vehicle_type_id":"4","last_reported":1760209591,"current_range_meters":1200,"station_id":"ce4bhe12rcd13ifvqf30","pricing_plan_id":"cebpf4jnsgd1na2vs0mg"},{"bike_id":"3c82e58e-894c-4eeb-b06b-2d2b3c1c2247","system_id":"levelo_inurba_marseille","lat":43.262252,"lon":5.404452,"is_reserved":false,"is_disabled":true,"rental_uris":{"android":"levelo://app?vid=3c82e58e-894c-4eeb-b06b-2d2b3c1c2247","ios":"levelo://app?vid=3c82e58e-894c-4eeb-b06b-2d2b3c1c2247"},"vehicle_type_id":"4","last_reported":1760209591,"current_range_meters":1600,"station_id":"","pricing_plan_id":"cebpf4jnsgd1na2vs0mg"},{"bike_id":"455faa5f-1542-41d7-b191-43e2c4bba95b","system_id":"levelo_inurba_marseille","lat":43.26226,"lon":5.37454,"is_reserved":false,"is_disabled":true,"rental_uris":{"android":"levelo://app?vid=455faa5f-1542-41d7-b191-43e2c4bba95b","ios":"levelo://app?vid=455faa5f-1542-41d7-b191-43e2c4bba95b"},"vehicle_type_id":"4","last_reported":1760209591,"current_range_meters":1600,"station_id":"","pricing_plan_id":"cebpf4jnsgd1na2vs0mg"},{"bike_id":"d1d4026a-1755-468a-a128-32adb62747c2","system_id":"levelo_inurba_marseille","lat":43.319433,"lon":5.408237,"is_reserved":false,"is_disabled":true,"rental_uris":{"android":"levelo://app?vid=d1d4026a-1755-468a-a128-32adb62747c2","ios":"levelo://app?vid=d1d4026a-1755-468a-a128-32adb62747c2"},"vehicle_type_id":"4","last_reported":1760209591,"current_range_meters":1600,"station_id":"","pricing_plan_id":"cebpf4jnsgd1na2vs0mg"},{"bike_id":"bfa889ba-34e9-4fd2-96f3-3bd7634021c0","system_id":"levelo_inurba_marseille","lat":43.29847,"lon":5.36289,"is_reserved":false,"is_disabled":true,"rental_uris":{"android":"levelo://app?vid=bfa889ba-34e9-4fd2-96f3-3bd7634021c0","ios":"levelo://app?vid=bfa889ba-34e9-4fd2-96f3-3bd7634021c0"},"vehicle_type_id":"4","last_reported":1760209591,"current_range_meters":1600,"station_id":"ce4bgpp2rcd13ifvqc3g","pricing_plan_id":"cebpf4jnsgd1na2vs0mg"},{"bike_id":"5f6ef5a9-e7e1-4fdc-a6c5-620021fbcad4","system_id":"levelo_inurba_marseille","lat":43.28942,"lon":5.39625,"is_reserved":false,"is_disabled":true,"rental_uris":{"android":"levelo://app?vid=5f6ef5a9-e7e1-4fdc-a6c5-620021fbcad4","ios":"levelo://app?vid=5f6ef5a9-e7e1-4fdc-a6c5-620021fbcad4"},"vehicle_type_id":"4","last_reported":1760209591,"current_range_meters":1600,"station_id":"ce4bh3h2rcd13ifvqdn0","pricing_plan_id":"cebpf4jnsgd1na2vs0mg"},{"bike_id":"f2ec2975-ded7-49d7-ac9a-193707dd2c96","system_id":"levelo_inurba_marseille","lat":43.298397,"lon":5.362724,"is_reserved":false,"is_disabled":true,"rental_uris":{"android":"levelo://app?vid=f2ec2975-ded7-49d7-ac9a-193707dd2c96","ios":"levelo://app?vid=f2ec2975-ded7-49d7-ac9a-193707dd2c96"},"vehicle_type_id":"4","last_reported":1760209591,"current_range_meters":1600,"station_id":"ce4bhbp2rcd13ifvqesg","pricing_plan_id":"cebpf4jnsgd1na2vs0mg"},{"bike_id":"65623f02-4a1c-47b5-ac86-67e92a2d42ee","system_id":"levelo_inurba_marseille","lat":43.279212,"lon":5.395832,"is_reserved":false,"is_disabled":true,"rental_uris":{"android":"levelo://app?vid=65623f02-4a1c-47b5-ac86-67e92a2d42ee","ios":"levelo://app?vid=65623f02-4a1c-47b5-ac86-67e92a2d42ee"},"vehicle_type_id":"4","last_reported":1760209591,"current_range_meters":1600,"station_id":"ce4bhf92rcd13ifvqf40","pricing_plan_id":"cebpf4jnsgd1na2vs0mg"},{"bike_id":"8bdecf6d-4f0b-43c2-bedd-02392e081012","system_id":"levelo_inurba_marseille","lat":43.30784,"lon":5.43533,"is_reserved":false,"is_disabled":true,"rental_uris":{"android":"levelo://app?vid=8bdecf6d-4f0b-43c2-bedd-02392e081012","ios":"levelo://app?vid=8bdecf6d-4f0b-43c2-bedd-02392e081012"},"vehicle_type_id":"4","last_reported":1760209591,"current_range_meters":1600,"station_id":"ce4bhph2rcd13ifvqheg","pricing_plan_id":"cebpf4jnsgd1na2vs0mg"},{"bike_id":"2e6f2fb5-df0c-413c-a59a-241d17d92f32","system_id":"levelo_inurba_marseille","lat":43.30425,"lon":5.38886,"is_reserved":false,"is_disabled":true,"rental_uris":{"android":"levelo://app?vid=2e6f2fb5-df0c-413c-a59a-241d17d92f32","ios":"levelo://app?vid=2e6f2fb5-df0c-413c-a59a-241d17d92f32"},"vehicle_type_id":"4","last_reported":1760209591,"current_range_meters":2000,"station_id":"ce4bgk12rcd13ifvqbi0","pricing_plan_id":"cebpf4jnsgd1na2vs0mg"},{"bike_id":"fc4a6887-6cb3-48fd-845a-81d37920297e","system_id":"levelo_inurba_marseille","lat":43.298706,"lon":5.389163,"is_reserved":false,"is_disabled":true,"rental_uris":{"android":"levelo://app?vid=fc4a6887-6cb3-48fd-845a-81d37920297e","ios":"levelo://app?vid=fc4a6887-6cb3-48fd-845a-81d37920297e"},"vehicle_type_id":"4","last_reported":1760209591,"current_range_meters":2000,"station_id":"ce4bh392rcd13ifvqdl0","pricing_plan_id":"cebpf4jnsgd1na2vs0mg"},{"bike_id":"6de69448-6e53-4c39-ab6e-b0c91b62adb2","system_id":"levelo_inurba_marseille","lat":43.284827,"lon":5.38575,"is_reserved":false,"is_disabled":true,"rental_uris":{"android":"levelo://app?vid=6de69448-6e53-4c39-ab6e-b0c91b62adb2","ios":"levelo://app?vid=6de69448-6e53-4c39-ab6e-b0c91b62adb2"},"vehicle_type_id":"4","last_reported":1760209591,"current_range_meters":2000,"station_id":"ce4bh8p2rcd13ifvqeb0","pricing_plan_id":"cebpf4jnsgd1na2vs0mg"},{"bike_id":"32a74dd1-6b4e-4c05-bb4b-e7377531e822","system_id":"levelo_inurba_marseille","lat":43.26582,"lon":5.39035,"is_reserved":false,"is_disabled":true,"rental_uris":{"android":"levelo://app?vid=32a74dd1-6b4e-4c05-bb4b-e7377531e822","ios":"levelo://app?vid=32a74dd1-6b4e-4c05-bb4b-e7377531e822"},"vehicle_type_id":"4","last_reported":1760209591,"current_range_meters":2000,"station_id":"ce4bhe12rcd13ifvqf30","pricing_plan_id":"cebpf4jnsgd1na2vs0mg"},{"bike_id":"0f599ef7-98ac-4140-9827-c8557b1c0d0a","system_id":"levelo_inurba_marseille","lat":43.27053,"lon":5.40265,"is_reserved":false,"is_disabled":true,"rental_uris":{"android":"levelo://app?vid=0f599ef7-98ac-4140-9827-c8557b1c0d0a","ios":"levelo://app?vid=0f599ef7-98ac-4140-9827-c8557b1c0d0a"},"vehicle_type_id":"4","last_reported":1760209591,"current_range_meters":2000,"station_id":"ce4bhk92rcd13ifvqgc0","pricing_plan_id":"cebpf4jnsgd1na2vs0mg"},{"bike_id":"1508e37c-ddee-4fca-a836-8777a02263a4","system_id":"levelo_inurba_marseille","lat":43.297229,"lon":5.380115,"is_reserved":false,"is_disabled":false,"rental_uris":{"android":"levelo://app?vid=1508e37c-ddee-4fca-a836-8777a02263a4","ios":"levelo://app?vid=1508e37c-ddee-4fca-a836-8777a02263a4"},"vehicle_type_id":"4","last_reported":1760209591,"current_range_meters":3200,"station_id":"","pricing_plan_id":"cebpf4jnsgd1na2vs0mg"},{"bike_id":"164d6faa-d0ba-4434-a8c2-d9a900aa3a7f","system_id":"levelo_inurba_marseille","lat":43.29621,"lon":5.37173,"is_reserved":false,"is_disabled":false,"rental_uris":{"android":"levelo://app?vid=164d6faa-d0ba-4434-a8c2-d9a900aa3a7f","ios":"levelo://app?vid=164d6faa-d0ba-4434-a8c2-d9a900aa3a7f"},"vehicle_type_id":"4","last_reported":1760209591,"current_range_meters":3200,"station_id":"ce4bgnh2rcd13ifvqc0g","pricing_plan_id":"cebpf4jnsgd1na2vs0mg"},{"bike_id":"083e8399-604a-4226-b480-46da426cb68f","system_id":"levelo_inurba_marseille","lat":43.302155,"lon":5.3947,"is_reserved":false,"is_disabled":false,"rental_uris":{"android":"levelo://app?vid=083e8399-604a-4226-b480-46da426cb68f","ios":"levelo://app?vid=083e8399-604a-4226-b480-46da426cb68f"},"vehicle_type_id":"4","last_reported":1760209591,"current_range_meters":3200,"station_id":"ce4bh0p2rcd13ifvqd70","pricing_plan_id":"cebpf4jnsgd1na2vs0mg"},{"bike_id":"f837f1d3-2641-403e-bf90-2324e47a7390","system_id":"levelo_inurba_marseille","lat":43.29746,"lon":5.42781,"is_reserved":false,"is_disabled":false,"rental_uris":{"android":"levelo://app?vid=f837f1d3-2641-403e-bf90-2324e47a7390","ios":"levelo://app?vid=f837f1d3-2641-403e-bf90-2324e47a7390"},"vehicle_type_id":"4","last_reported":1760209591,"current_range_meters":3600,"station_id":"","pricing_plan_id":"cebpf4jnsgd1na2vs0mg"},{"bike_id":"3affab94-da80-47f8-9a7c-aa8e5a25c330","system_id":"levelo_inurba_marseille","lat":43.29306,"lon":5.37179,"is_reserved":false,"is_disabled":false,"rental_uris":{"android":"levelo://app?vid=3affab94-da80-47f8-9a7c-aa8e5a25c330","ios":"levelo://app?vid=3affab94-da80-47f8-9a7c-aa8e5a25c330"},"vehicle_type_id":"4","last_reported":1760209591,"current_range_meters":3600,"station_id":"ce4bgh92rcd13ifvqb40","pricing_plan_id":"cebpf4jnsgd1na2vs0mg"},{"bike_id":"7595c629-b3f7-4267-a01b-40ab0c4461ae","system_id":"levelo_inurba_marseille","lat":43.29579,"lon":5.36738,"is_reserved":false,"is_disabled":false,"rental_uris":{"android":"levelo://app?vid=7595c629-b3f7-4267-a01b-40ab0c4461ae","ios":"levelo://app?vid=7595c629-b3f7-4267-a01b-40ab0c4461ae"},"vehicle_type_id":"4","last_reported":1760209591,"current_range_meters":3600,"station_id":"ce4bgph2rcd13ifvqc2g","pricing_plan_id":"cebpf4jnsgd1na2vs0mg"},{"bike_id":"8fcbae8f-e8e9-4db0-869d-53f26a08fb92","system_id":"levelo_inurba_marseille","lat":43.28483,"lon":5.3841,"is_reserved":false,"is_disabled":false,"rental_uris":{"android":"levelo://app?vid=8fcbae8f-e8e9-4db0-869d-53f26a08fb92","ios":"levelo://app?vid=8fcbae8f-e8e9-4db0-869d-53f26a08fb92"},"vehicle_type_id":"4","last_reported":1760209591,"current_range_meters":3600,"station_id":"ce4bh512rcd13ifvqe3g","pricing_plan_id":"cebpf4jnsgd1na2vs0mg"},{"bike_id":"d477414b-3e5b-4ae6-a730-782d0cf7b539","system_id":"levelo_inurba_marseille","lat":43.28727,"lon":5.37933,"is_reserved":false,"is_disabled":false,"rental_uris":{"android":"levelo://app?vid=d477414b-3e5b-4ae6-a730-782d0cf7b539","ios":"levelo://app?vid=d477414b-3e5b-4ae6-a730-782d0cf7b539"},"vehicle_type_id":"4","last_reported":1760209591,"current_range_meters":3600,"station_id":"ce4bh9p2rcd13ifvqec0","pricing_plan_id":"cebpf4jnsgd1na2vs0mg"},{"bike_id":"c0308988-dfd8-4646-a90c-acd453248df5","system_id":"levelo_inurba_marseille","lat":43.25117,"lon":5.40319,"is_reserved":false,"is_disabled":false,"rental_uris":{"android":"levelo://app?vid=c0308988-dfd8-4646-a90c-acd453248df5","ios":"levelo://app?vid=c0308988-dfd8-4646-a90c-acd453248df5"},"vehicle_type_id":"4","last_reported":1760209591,"current_range_meters":3600,"station_id":"ce4bhlh2rcd13ifvqgig","pricing_plan_id":"cebpf4jnsgd1na2vs0mg"},{"bike_id":"15136314-afe1-4adc-9ad2-5f556ecc476a","system_id":"levelo_inurba_marseille","lat":43.295465,"lon":5.394435,"is_reserved":false,"is_disabled":false,"rental_uris":{"android":"levelo://app?vid=15136314-afe1-4adc-9ad2-5f556ecc476a","ios":"levelo://app?vid=15136314-afe1-4adc-9ad2-5f556ecc476a"},"vehicle_type_id":"4","last_reported":1760209591,"current_range_meters":4000,"station_id":"ce4bh292rcd13ifvqdf0","pricing_plan_id":"cebpf4jnsgd1na2vs0mg"},{"bike_id":"ad1a70e0-b9b8-4a25-83a4-5fee06902054","system_id":"levelo_inurba_marseille","lat":43.26884,"lon":5.40241,"is_reserved":false,"is_disabled":false,"rental_uris":{"android":"levelo://app?vid=ad1a70e0-b9b8-4a25-83a4-5fee06902054","ios":"levelo://app?vid=ad1a70e0-b9b8-4a25-83a4-5fee06902054"},"vehicle_type_id":"4","last_reported":1760209591,"current_range_meters":4400,"station_id":"","pricing_plan_id":"cebpf4jnsgd1na2vs0mg"},{"bike_id":"963791dc-e0b3-4d19-a9c2-ad06713a7ea4","system_id":"levelo_inurba_marseille","lat":43.30901,"lon":5.36867,"is_reserved":false,"is_disabled":false,"rental_uris":{"android":"levelo://app?vid=963791dc-e0b3-4d19-a9c2-ad06713a7ea4","ios":"levelo://app?vid=963791dc-e0b3-4d19-a9c2-ad06713a7ea4"},"vehicle_type_id":"4","last_reported":1760209591,"current_range_meters":4400,"station_id":"ce4bgn92rcd13ifvqbvg","pricing_plan_id":"cebpf4jnsgd1na2vs0mg"},{"bike_id":"b78b5754-5baf-400a-a99e-05e1273ea38b","system_id":"levelo_inurba_marseille","lat":43.260269,"lon":5.375512,"is_reserved":false,"is_disabled":false,"rental_uris":{"android":"levelo://app?vid=b78b5754-5baf-400a-a99e-05e1273ea38b","ios":"levelo://app?vid=b78b5754-5baf-400a-a99e-05e1273ea38b"},"vehicle_type_id":"4","last_reported":1760209591,"current_range_meters":4400,"station_id":"ce4bhgh2rcd13ifvqfa0","pricing_plan_id":"cebpf4jnsgd1na2vs0mg"},{"bike_id":"21c6d5e4-d5cd-4299-9983-e3a7e2e6ad67","system_id":"levelo_inurba_marseille","lat":43.29844,"lon":5.36274,"is_reserved":false,"is_disabled":false,"rental_uris":{"android":"levelo://app?vid=21c6d5e4-d5cd-4299-9983-e3a7e2e6ad67","ios":"levelo://app?vid=21c6d5e4-d5cd-4299-9983-e3a7e2e6ad67"},"vehicle_type_id":"4","last_reported":1760209591,"current_range_meters":4800,"station_id":"ce4bgpp2rcd13ifvqc3g","pricing_plan_id":"cebpf4jnsgd1na2vs0mg"},{"bike_id":"34faf833-0581-493e-81b1-84c07042a4dd","system_id":"levelo_inurba_marseille","lat":43.28839,"lon":5.3932,"is_reserved":false,"is_disabled":false,"rental_uris":{"android":"levelo://app?vid=34faf833-0581-493e-81b1-84c07042a4dd","ios":"levelo://app?vid=34faf833-0581-493e-81b1-84c07042a4dd"},"vehicle_type_id":"4","last_reported":1760209591,"current_range_meters":4800,"station_id":"ce4bh2p2rcd13ifvqdi0","pricing_plan_id":"cebpf4jnsgd1na2vs0mg"},{"bike_id":"4a412824-bb5f-486c-9fb8-8a58f0ab002c","system_id":"levelo_inurba_marseille","lat":43.286499,"lon":5.385741,"is_reserved":false,"is_disabled":false,"rental_uris":{"android":"levelo://app?vid=4a412824-bb5f-486c-9fb8-8a58f0ab002c","ios":"levelo://app?vid=4a412824-bb5f-486c-9fb8-8a58f0ab002c"},"vehicle_type_id":"4","last_reported":1760209591,"current_range_meters":4800,"station_id":"ce4bh492rcd13ifvqdug","pricing_plan_id":"cebpf4jnsgd1na2vs0mg"},{"bike_id":"29fa7a6a-60bb-4b8a-9aee-d207765fa3bd","system_id":"levelo_inurba_marseille","lat":43.241778,"lon":5.397327,"is_reserved":false,"is_disabled":true,"rental_uris":{"android":"levelo://app?vid=29fa7a6a-60bb-4b8a-9aee-d207765fa3bd","ios":"levelo://app?vid=29fa7a6a-60bb-4b8a-9aee-d207765fa3bd"},"vehicle_type_id":"4","last_reported":1760209591,"current_range_meters":4800,"station_id":"ce4bhn12rcd13ifvqgpg","pricing_plan_id":"cebpf4jnsgd1na2vs0mg"},{"bike_id":"fc0561ed-fc91-4536-b8b8-d52511d461e4","system_id":"levelo_inurba_marseille","lat":43.29364,"lon":5.37835,"is_reserved":false,"is_disabled":false,"rental_uris":{"android":"levelo://app?vid=fc0561ed-fc91-4536-b8b8-d52511d461e4","ios":"levelo://app?vid=fc0561ed-fc91-4536-b8b8-d52511d461e4"},"vehicle_type_id":"4","last_reported":1760209591,"current_range_meters":5600,"station_id":"ce4bgjh2rcd13ifvqbf0","pricing_plan_id":"cebpf4jnsgd1na2vs0mg"},{"bike_id":"2e56aa2b-bb1a-4620-b94c-03bf7c12f02b","system_id":"levelo_inurba_marseille","lat":43.29848,"lon":5.36272,"is_reserved":false,"is_disabled":false,"rental_uris":{"android":"levelo://app?vid=2e56aa2b-bb1a-4620-b94c-03bf7c12f02b","ios":"levelo://app?vid=2e56aa2b-bb1a-4620-b94c-03bf7c12f02b"},"vehicle_type_id":"4","last_reported":1760209591,"current_range_meters":5600,"station_id":"ce4bgpp2rcd13ifvqc3g","pricing_plan_id":"cebpf4jnsgd1na2vs0mg"},{"bike_id":"9e3b66e1-6cd1-4cd6-b006-09ab49b6faf5","system_id":"levelo_inurba_marseille","lat":43.29848,"lon":5.36289,"is_reserved":false,"is_disabled":false,"rental_uris":{"android":"levelo://app?vid=9e3b66e1-6cd1-4cd6-b006-09ab49b6faf5","ios":"levelo://app?vid=9e3b66e1-6cd1-4cd6-b006-09ab49b6faf5"},"vehicle_type_id":"4","last_reported":1760209591,"current_range_meters":5600,"station_id":"ce4bgpp2rcd13ifvqc3g","pricing_plan_id":"cebpf4jnsgd1na2vs0mg"},{"bike_id":"fdae1f43-5960-4f59-8e90-25dcd7807c28","system_id":"levelo_inurba_marseille","lat":43.27179,"lon":5.40998,"is_reserved":false,"is_disabled":false,"rental_uris":{"android":"levelo://app?vid=fdae1f43-5960-4f59-8e90-25dcd7807c28","ios":"levelo://app?vid=fdae1f43-5960-4f59-8e90-25dcd7807c28"},"vehicle_type_id":"4","last_reported":1760209591,"current_range_meters":5600,"station_id":"ce4bhl12rcd13ifvqgf0","pricing_plan_id":"cebpf4jnsgd1na2vs0mg"},{"bike_id":"2da28add-792e-4514-8906-87144a9b164e","system_id":"levelo_inurba_marseille","lat":43.30427,"lon":5.38895,"is_reserved":false,"is_disabled":false,"rental_uris":{"android":"levelo://app?vid=2da28add-792e-4514-8906-87144a9b164e","ios":"levelo://app?vid=2da28add-792e-4514-8906-87144a9b164e"},"vehicle_type_id":"4","last_reported":1760209591,"current_range_meters":6000,"station_id":"ce4bgk12rcd13ifvqbi0","pricing_plan_id":"cebpf4jnsgd1na2vs0mg"},{"bike_id":"ae50cca7-c0ef-46f4-b3b4-6b34e195927e","system_id":"levelo_inurba_marseille","lat":43.29715,"lon":5.36584,"is_reserved":false,"is_disabled":false,"rental_uris":{"android":"levelo://app?vid=ae50cca7-c0ef-46f4-b3b4-6b34e195927e","ios":"levelo://app?vid=ae50cca7-c0ef-46f4-b3b4-6b34e195927e"},"vehicle_type_id":"4","last_reported":1760209591,"current_range_meters":6000,"station_id":"ce4bgn12rcd13ifvqbt0","pricing_plan_id":"cebpf4jnsgd1na2vs0mg"},{"bike_id":"0293e58c-fc09-4fd0-bd1f-1648a2a59d0b","system_id":"levelo_inurba_marseille","lat":43.2849,"lon":5.38416,"is_reserved":false,"is_disabled":false,"rental_uris":{"android":"levelo://app?vid=0293e58c-fc09-4fd0-bd1f-1648a2a59d0b","ios":"levelo://app?vid=0293e58c-fc09-4fd0-bd1f-1648a2a59d0b"},"vehicle_type_id":"4","last_reported":1760209591,"current_range_meters":6000,"station_id":"ce4bh512rcd13ifvqe3g","pricing_plan_id":"cebpf4jnsgd1na2vs0mg"},{"bike_id":"93e0cb9d-6ad1-4109-82c6-c97bb21d7866","system_id":"levelo_inurba_marseille","lat":43.29161,"lon":5.37161,"is_reserved":false,"is_disabled":false,"rental_uris":{"android":"levelo://app?vid=93e0cb9d-6ad1-4109-82c6-c97bb21d7866","ios":"levelo://app?vid=93e0cb9d-6ad1-4109-82c6-c97bb21d7866"},"vehicle_type_id":"4","last_reported":1760209591,"current_range_meters":6000,"station_id":"ce4bha92rcd13ifvqeh0","pricing_plan_id":"cebpf4jnsgd1na2vs0mg"},{"bike_id":"243b0120-15ee-40a4-a6a2-6c99bd046ccf","system_id":"levelo_inurba_marseille","lat":43.31696,"lon":5.43721,"is_reserved":false,"is_disabled":false,"rental_uris":{"android":"levelo://app?vid=243b0120-15ee-40a4-a6a2-6c99bd046ccf","ios":"levelo://app?vid=243b0120-15ee-40a4-a6a2-6c99bd046ccf"},"vehicle_type_id":"4","last_reported":1760209591,"current_range_meters":6000,"station_id":"ce4bhp92rcd13ifvqhcg","pricing_plan_id":"cebpf4jnsgd1na2vs0mg"},{"bike_id":"7c1a4890-b9ac-4fe5-a571-cd86038dad29","system_id":"levelo_inurba_marseille","lat":43.26732,"lon":5.40167,"is_reserved":false,"is_disabled":false,"rental_uris":{"android":"levelo://app?vid=7c1a4890-b9ac-4fe5-a571-cd86038dad29","ios":"levelo://app?vid=7c1a4890-b9ac-4fe5-a571-cd86038dad29"},"vehicle_type_id":"4","last_reported":1760209591,"current_range_meters":6400,"station_id":"","pricing_plan_id":"cebpf4jnsgd1na2vs0mg"},{"bike_id":"e9e42d2d-7e53-4efc-b575-031b106766c7","system_id":"levelo_inurba_marseille","lat":43.297386,"lon":5.36875,"is_reserved":false,"is_disabled":false,"rental_uris":{"android":"levelo://app?vid=e9e42d2d-7e53-4efc-b575-031b106766c7","ios":"levelo://app?vid=e9e42d2d-7e53-4efc-b575-031b106766c7"},"vehicle_type_id":"4","last_reported":1760209591,"current_range_meters":6400,"station_id":"","pricing_plan_id":"cebpf4jnsgd1na2vs0mg"},{"bike_id":"c099b17a-c7ad-467a-a024-2beef8c3f4f0","system_id":"levelo_inurba_marseille","lat":43.29843,"lon":5.36279,"is_reserved":false,"is_disabled":false,"rental_uris":{"android":"levelo://app?vid=c099b17a-c7ad-467a-a024-2beef8c3f4f0","ios":"levelo://app?vid=c099b17a-c7ad-467a-a024-2beef8c3f4f0"},"vehicle_type_id":"4","last_reported":1760209591,"current_range_meters":6400,"station_id":"ce4bgpp2rcd13ifvqc3g","pricing_plan_id":"cebpf4jnsgd1na2vs0mg"},{"bike_id":"e092908f-de41-4def-9dab-a7f23364d1e1","system_id":"levelo_inurba_marseille","lat":43.30883,"lon":5.37202,"is_reserved":false,"is_disabled":false,"rental_uris":{"android":"levelo://app?vid=e092908f-de41-4def-9dab-a7f23364d1e1","ios":"levelo://app?vid=e092908f-de41-4def-9dab-a7f23364d1e1"},"vehicle_type_id":"4","last_reported":1760209591,"current_range_meters":6400,"station_id":"ce4bguh2rcd13ifvqckg","pricing_plan_id":"cebpf4jnsgd1na2vs0mg"},{"bike_id":"6f7f6e90-ba94-4f8f-b19e-a6dbe16a9d1b","system_id":"levelo_inurba_marseille","lat":43.290815,"lon":5.371617,"is_reserved":false,"is_disabled":false,"rental_uris":{"android":"levelo://app?vid=6f7f6e90-ba94-4f8f-b19e-a6dbe16a9d1b","ios":"levelo://app?vid=6f7f6e90-ba94-4f8f-b19e-a6dbe16a9d1b"},"vehicle_type_id":"4","last_reported":1760209591,"current_range_meters":6400,"station_id":"ce4bh5p2rcd13ifvqe4g","pricing_plan_id":"cebpf4jnsgd1na2vs0mg"},{"bike_id":"f6230fd9-67cb-4b5b-948a-97dd06743069","system_id":"levelo_inurba_marseille","lat":43.27819,"lon":5.4075,"is_reserved":false,"is_disabled":false,"rental_uris":{"android":"levelo://app?vid=f6230fd9-67cb-4b5b-948a-97dd06743069","ios":"levelo://app?vid=f6230fd9-67cb-4b5b-948a-97dd06743069"},"vehicle_type_id":"4","last_reported":1760209591,"current_range_meters":6400,"station_id":"ce4bhnh2rcd13ifvqgtg","pricing_plan_id":"cebpf4jnsgd1na2vs0mg"},{"bike_id":"edb50c03-533a-4b18-8e80-ae941ce8f7f2","system_id":"levelo_inurba_marseille","lat":43.29277,"lon":5.37452,"is_reserved":false,"is_disabled":false,"rental_uris":{"android":"levelo://app?vid=edb50c03-533a-4b18-8e80-ae941ce8f7f2","ios":"levelo://app?vid=edb50c03-533a-4b18-8e80-ae941ce8f7f2"},"vehicle_type_id":"4","last_reported":1760209591,"current_range_meters":6800,"station_id":"ce4bgi12rcd13ifvqb70","pricing_plan_id":"cebpf4jnsgd1na2vs0mg"},{"bike_id":"1311e2d7-eadb-4c31-a5c9-7bcf98d54d1e","system_id":"levelo_inurba_marseille","lat":43.2985,"lon":5.36285,"is_reserved":false,"is_disabled":false,"rental_uris":{"android":"levelo://app?vid=1311e2d7-eadb-4c31-a5c9-7bcf98d54d1e","ios":"levelo://app?vid=1311e2d7-eadb-4c31-a5c9-7bcf98d54d1e"},"vehicle_type_id":"4","last_reported":1760209591,"current_range_meters":6800,"station_id":"ce4bgpp2rcd13ifvqc3g","pricing_plan_id":"cebpf4jnsgd1na2vs0mg"},{"bike_id":"b8fb6d0a-8f1a-4f06-9594-26fb1da10049","system_id":"levelo_inurba_marseille","lat":43.31486,"lon":5.373,"is_reserved":false,"is_disabled":false,"rental_uris":{"android":"levelo://app?vid=b8fb6d0a-8f1a-4f06-9594-26fb1da10049","ios":"levelo://app?vid=b8fb6d0a-8f1a-4f06-9594-26fb1da10049"},"vehicle_type_id":"4","last_reported":1760209591,"current_range_meters":6800,"station_id":"ce4bgt12rcd13ifvqcd0","pricing_plan_id":"cebpf4jnsgd1na2vs0mg"},{"bike_id":"09172ad5-4ad0-4525-bb30-41538905e5e8","system_id":"levelo_inurba_marseille","lat":43.310778,"lon":5.383546,"is_reserved":false,"is_disabled":false,"rental_uris":{"android":"levelo://app?vid=09172ad5-4ad0-4525-bb30-41538905e5e8","ios":"levelo://app?vid=09172ad5-4ad0-4525-bb30-41538905e5e8"},"vehicle_type_id":"4","last_reported":1760209591,"current_range_meters":6800,"station_id":"ce4bgv92rcd13ifvqcr0","pricing_plan_id":"cebpf4jnsgd1na2vs0mg"},{"bike_id":"6d19cfff-3cff-4920-ab20-5f8b48d4c93d","system_id":"levelo_inurba_marseille","lat":43.31067,"lon":5.38351,"is_reserved":false,"is_disabled":false,"rental_uris":{"android":"levelo://app?vid=6d19cfff-3cff-4920-ab20-5f8b48d4c93d","ios":"levelo://app?vid=6d19cfff-3cff-4920-ab20-5f8b48d4c93d"},"vehicle_type_id":"4","last_reported":1760209591,"current_range_meters":6800,"station_id":"ce4bgv92rcd13ifvqcr0","pricing_plan_id":"cebpf4jnsgd1na2vs0mg"},{"bike_id":"cbf13a4e-29ac-48dc-8a5d-f68199801ad7","system_id":"levelo_inurba_marseille","lat":43.29451,"lon":5.39753,"is_reserved":false,"is_disabled":false,"rental_uris":{"android":"levelo://app?vid=cbf13a4e-29ac-48dc-8a5d-f68199801ad7","ios":"levelo://app?vid=cbf13a4e-29ac-48dc-8a5d-f68199801ad7"},"vehicle_type_id":"4","last_reported":1760209591,"current_range_meters":6800,"station_id":"ce4bh3h2rcd13ifvqdo0","pricing_plan_id":"cebpf4jnsgd1na2vs0mg"},{"bike_id":"4d7235c1-8077-4991-94e3-bb107e76b315","system_id":"levelo_inurba_marseille","lat":43.28711,"lon":5.37934,"is_reserved":false,"is_disabled":false,"rental_uris":{"android":"levelo://app?vid=4d7235c1-8077-4991-94e3-bb107e76b315","ios":"levelo://app?vid=4d7235c1-8077-4991-94e3-bb107e76b315"},"vehicle_type_id":"4","last_reported":1760209591,"current_range_meters":6800,"station_id":"ce4bh9p2rcd13ifvqec0","pricing_plan_id":"cebpf4jnsgd1na2vs0mg"},{"bike_id":"c8ee1a64-485e-4baf-ab08-a1b4812ef547","system_id":"levelo_inurba_marseille","lat":43.28537,"lon":5.44106,"is_reserved":false,"is_disabled":false,"rental_uris":{"android":"levelo://app?vid=c8ee1a64-485e-4baf-ab08-a1b4812ef547","ios":"levelo://app?vid=c8ee1a64-485e-4baf-ab08-a1b4812ef547"},"vehicle_type_id":"4","last_reported":1760209591,"current_range_meters":6800,"station_id":"st_d3j3df2ikq2c7380ej80","pricing_plan_id":"cebpf4jnsgd1na2vs0mg"},{"bike_id":"b7844ae4-20d5-4d81-8f4d-cd146b6f58ee","system_id":"levelo_inurba_marseille","lat":43.31803,"lon":5.37646,"is_reserved":false,"is_disabled":false,"rental_uris":{"android":"levelo://app?vid=b7844ae4-20d5-4d81-8f4d-cd146b6f58ee","ios":"levelo://app?vid=b7844ae4-20d5-4d81-8f4d-cd146b6f58ee"},"vehicle_type_id":"4","last_reported":1760209591,"current_range_meters":7200,"station_id":"","pricing_plan_id":"cebpf4jnsgd1na2vs0mg"},{"bike_id":"52200a09-8ba7-410d-a90b-e5b3068342be","system_id":"levelo_inurba_marseille","lat":43.29842,"lon":5.36268,"is_reserved":false,"is_disabled":false,"rental_uris":{"android":"levelo://app?vid=52200a09-8ba7-410d-a90b-e5b3068342be","ios":"levelo://app?vid=52200a09-8ba7-410d-a90b-e5b3068342be"},"vehicle_type_id":"4","last_reported":1760209591,"current_range_meters":7200,"station_id":"ce4bgpp2rcd13ifvqc3g","pricing_plan_id":"cebpf4jnsgd1na2vs0mg"},{"bike_id":"761a8cd3-16d3-4145-9ca7-971c24dd102e","system_id":"levelo_inurba_marseille","lat":43.28709,"lon":5.37939,"is_reserved":false,"is_disabled":false,"rental_uris":{"android":"levelo://app?vid=761a8cd3-16d3-4145-9ca7-971c24dd102e","ios":"levelo://app?vid=761a8cd3-16d3-4145-9ca7-971c24dd102e"},"vehicle_type_id":"4","last_reported":1760209591,"current_range_meters":7200,"station_id":"ce4bh9p2rcd13ifvqec0","pricing_plan_id":"cebpf4jnsgd1na2vs0mg"},{"bike_id":"7ecce9b3-6d8a-4b46-9e3e-06d9c28c905f","system_id":"levelo_inurba_marseille","lat":43.289104,"lon":5.390752,"is_reserved":false,"is_disabled":false,"rental_uris":{"android":"levelo://app?vid=7ecce9b3-6d8a-4b46-9e3e-06d9c28c905f","ios":"levelo://app?vid=7ecce9b3-6d8a-4b46-9e3e-06d9c28c905f"},"vehicle_type_id":"4","last_reported":1760209591,"current_range_meters":8000,"station_id":"","pricing_plan_id":"cebpf4jnsgd1na2vs0mg"},{"bike_id":"369d2504-65a5-4ebe-8b7b-5437adc610de","system_id":"levelo_inurba_marseille","lat":43.28257,"lon":5.39182,"is_reserved":false,"is_disabled":false,"rental_uris":{"android":"levelo://app?vid=369d2504-65a5-4ebe-8b7b-5437adc610de","ios":"levelo://app?vid=369d2504-65a5-4ebe-8b7b-5437adc610de"},"vehicle_type_id":"4","last_reported":1760209591,"current_range_meters":8000,"station_id":"","pricing_plan_id":"cebpf4jnsgd1na2vs0mg"},{"bike_id":"840f5367-4a8b-4bf8-aed3-ddf295d75be0","system_id":"levelo_inurba_marseille","lat":43.30428,"lon":5.371896,"is_reserved":false,"is_disabled":false,"rental_uris":{"android":"levelo://app?vid=840f5367-4a8b-4bf8-aed3-ddf295d75be0","ios":"levelo://app?vid=840f5367-4a8b-4bf8-aed3-ddf295d75be0"},"vehicle_type_id":"4","last_reported":1760209591,"current_range_meters":8000,"station_id":"","pricing_plan_id":"cebpf4jnsgd1na2vs0mg"},{"bike_id":"3ab22940-17b2-4d7f-87c3-e7dfd61d6492","system_id":"levelo_inurba_marseille","lat":43.3033,"lon":5.37574,"is_reserved":false,"is_disabled":false,"rental_uris":{"android":"levelo://app?vid=3ab22940-17b2-4d7f-87c3-e7dfd61d6492","ios":"levelo://app?vid=3ab22940-17b2-4d7f-87c3-e7dfd61d6492"},"vehicle_type_id":"4","last_reported":1760209591,"current_range_meters":8000,"station_id":"","pricing_plan_id":"cebpf4jnsgd1na2vs0mg"},{"bike_id":"056e6863-bab3-4ee7-a320-14b98a21160c","system_id":"levelo_inurba_marseille","lat":43.29314,"lon":5.37164,"is_reserved":false,"is_disabled":false,"rental_uris":{"android":"levelo://app?vid=056e6863-bab3-4ee7-a320-14b98a21160c","ios":"levelo://app?vid=056e6863-bab3-4ee7-a320-14b98a21160c"},"vehicle_type_id":"4","last_reported":1760209591,"current_range_meters":8000,"station_id":"ce4bgh92rcd13ifvqb40","pricing_plan_id":"cebpf4jnsgd1na2vs0mg"},{"bike_id":"2718527a-33ce-4e7d-8096-004b8fc7ecdc","system_id":"levelo_inurba_marseille","lat":43.29921,"lon":5.37469,"is_reserved":false,"is_disabled":false,"rental_uris":{"android":"levelo://app?vid=2718527a-33ce-4e7d-8096-004b8fc7ecdc","ios":"levelo://app?vid=2718527a-33ce-4e7d-8096-004b8fc7ecdc"},"vehicle_type_id":"4","last_reported":1760209591,"current_range_meters":8000,"station_id":"ce4bgjh2rcd13ifvqbg0","pricing_plan_id":"cebpf4jnsgd1na2vs0mg"},{"bike_id":"5bdf0e1a-df75-48d5-86fd-ada8614eb40b","system_id":"levelo_inurba_marseille","lat":43.30141,"lon":5.37414,"is_reserved":false,"is_disabled":false,"rental_uris":{"android":"levelo://app?vid=5bdf0e1a-df75-48d5-86fd-ada8614eb40b","ios":"levelo://app?vid=5bdf0e1a-df75-48d5-86fd-ada8614eb40b"},"vehicle_type_id":"4","last_reported":1760209591,"current_range_meters":8000,"station_id":"ce4bgs92rcd13ifvqcc0","pricing_plan_id":"cebpf4jnsgd1na2vs0mg"},{"bike_id":"1634ebdb-b3ba-442c-9afa-8e54f958a1ee","system_id":"levelo_inurba_marseille","lat":43.30589,"lon":5.39359,"is_reserved":false,"is_disabled":false,"rental_uris":{"android":"levelo://app?vid=1634ebdb-b3ba-442c-9afa-8e54f958a1ee","ios":"levelo://app?vid=1634ebdb-b3ba-442c-9afa-8e54f958a1ee"},"vehicle_type_id":"4","last_reported":1760209591,"current_range_meters":8000,"station_id":"ce4bh0p2rcd13ifvqd80","pricing_plan_id":"cebpf4jnsgd1na2vs0mg"},{"bike_id":"c30d743e-7f66-41f5-a36d-3113a6b60cc1","system_id":"levelo_inurba_marseille","lat":43.29266,"lon":5.36845,"is_reserved":false,"is_disabled":false,"rental_uris":{"android":"levelo://app?vid=c30d743e-7f66-41f5-a36d-3113a6b60cc1","ios":"levelo://app?vid=c30d743e-7f66-41f5-a36d-3113a6b60cc1"},"vehicle_type_id":"4","last_reported":1760209591,"current_range_meters":8000,"station_id":"ce4bhbp2rcd13ifvqesg","pricing_plan_id":"cebpf4jnsgd1na2vs0mg"},{"bike_id":"0458f03b-1910-440f-9167-c00670fba699","system_id":"levelo_inurba_marseille","lat":43.337444,"lon":5.374475,"is_reserved":false,"is_disabled":false,"rental_uris":{"android":"levelo://app?vid=0458f03b-1910-440f-9167-c00670fba699","ios":"levelo://app?vid=0458f03b-1910-440f-9167-c00670fba699"},"vehicle_type_id":"4","last_reported":1760209591,"current_range_meters":8400,"station_id":"","pricing_plan_id":"cebpf4jnsgd1na2vs0mg"},{"bike_id":"3d3d9f24-69ed-412a-824a-3bb9551f7bc2","system_id":"levelo_inurba_marseille","lat":43.32129,"lon":5.37137,"is_reserved":false,"is_disabled":false,"rental_uris":{"android":"levelo://app?vid=3d3d9f24-69ed-412a-824a-3bb9551f7bc2","ios":"levelo://app?vid=3d3d9f24-69ed-412a-824a-3bb9551f7bc2"},"vehicle_type_id":"4","last_reported":1760209591,"current_range_meters":8400,"station_id":"","pricing_plan_id":"cebpf4jnsgd1na2vs0mg"},{"bike_id":"388213b2-c7ae-4037-8ea5-c7aeaf838977","system_id":"levelo_inurba_marseille","lat":43.29529,"lon":5.38546,"is_reserved":false,"is_disabled":false,"rental_uris":{"android":"levelo://app?vid=388213b2-c7ae-4037-8ea5-c7aeaf838977","ios":"levelo://app?vid=388213b2-c7ae-4037-8ea5-c7aeaf838977"},"vehicle_type_id":"4","last_reported":1760209591,"current_range_meters":8400,"station_id":"ce4bgih2rcd13ifvqba0","pricing_plan_id":"cebpf4jnsgd1na2vs0mg"},{"bike_id":"b852d9f8-01ac-49cc-8c0a-64bdb8a0b7af","system_id":"levelo_inurba_marseille","lat":43.29531,"lon":5.38546,"is_reserved":false,"is_disabled":false,"rental_uris":{"android":"levelo://app?vid=b852d9f8-01ac-49cc-8c0a-64bdb8a0b7af","ios":"levelo://app?vid=b852d9f8-01ac-49cc-8c0a-64bdb8a0b7af"},"vehicle_type_id":"4","last_reported":1760209591,"current_range_meters":8400,"station_id":"ce4bgih2rcd13ifvqba0","pricing_plan_id":"cebpf4jnsgd1na2vs0mg"},{"bike_id":"557dbf70-01d6-45de-87d5-5c619db8ec2b","system_id":"levelo_inurba_marseille","lat":43.29848,"lon":5.36288,"is_reserved":false,"is_disabled":false,"rental_uris":{"android":"levelo://app?vid=557dbf70-01d6-45de-87d5-5c619db8ec2b","ios":"levelo://app?vid=557dbf70-01d6-45de-87d5-5c619db8ec2b"},"vehicle_type_id":"4","last_reported":1760209591,"current_range_meters":8400,"station_id":"ce4bgpp2rcd13ifvqc3g","pricing_plan_id":"cebpf4jnsgd1na2vs0mg"},{"bike_id":"4328df93-8e0e-4773-aedd-aec44122ebde","system_id":"levelo_inurba_marseille","lat":43.29072,"lon":5.37172,"is_reserved":false,"is_disabled":false,"rental_uris":{"android":"levelo://app?vid=4328df93-8e0e-4773-aedd-aec44122ebde","ios":"levelo://app?vid=4328df93-8e0e-4773-aedd-aec44122ebde"},"vehicle_type_id":"4","last_reported":1760209591,"current_range_meters":8400,"station_id":"ce4bh5p2rcd13ifvqe4g","pricing_plan_id":"cebpf4jnsgd1na2vs0mg"},{"bike_id":"4103ffc3-5c71-4e65-8f12-f0945953bb03","system_id":"levelo_inurba_marseille","lat":43.2925,"lon":5.38441,"is_reserved":false,"is_disabled":false,"rental_uris":{"android":"levelo://app?vid=4103ffc3-5c71-4e65-8f12-f0945953bb03","ios":"levelo://app?vid=4103ffc3-5c71-4e65-8f12-f0945953bb03"},"vehicle_type_id":"4","last_reported":1760209591,"current_range_meters":8400,"station_id":"ce4bh692rcd13ifvqea0","pricing_plan_id":"cebpf4jnsgd1na2vs0mg"},{"bike_id":"55385cca-5aba-43a5-ae6e-81a30b1cebf5","system_id":"levelo_inurba_marseille","lat":43.28036,"lon":5.36949,"is_reserved":false,"is_disabled":false,"rental_uris":{"android":"levelo://app?vid=55385cca-5aba-43a5-ae6e-81a30b1cebf5","ios":"levelo://app?vid=55385cca-5aba-43a5-ae6e-81a30b1cebf5"},"vehicle_type_id":"4","last_reported":1760209591,"current_range_meters":8400,"station_id":"ce4bha12rcd13ifvqef0","pricing_plan_id":"cebpf4jnsgd1na2vs0mg"},{"bike_id":"878a03e4-0061-4f7b-828e-ca766f1f4b0c","system_id":"levelo_inurba_marseille","lat":43.29273,"lon":5.3685,"is_reserved":false,"is_disabled":false,"rental_uris":{"android":"levelo://app?vid=878a03e4-0061-4f7b-828e-ca766f1f4b0c","ios":"levelo://app?vid=878a03e4-0061-4f7b-828e-ca766f1f4b0c"},"vehicle_type_id":"4","last_reported":1760209591,"current_range_meters":8400,"station_id":"ce4bhbp2rcd13ifvqesg","pricing_plan_id":"cebpf4jnsgd1na2vs0mg"},{"bike_id":"e79ae81d-5852-4fea-8a77-e96d279779ce","system_id":"levelo_inurba_marseille","lat":43.263454,"lon":5.422485,"is_reserved":false,"is_disabled":false,"rental_uris":{"android":"levelo://app?vid=e79ae81d-5852-4fea-8a77-e96d279779ce","ios":"levelo://app?vid=e79ae81d-5852-4fea-8a77-e96d279779ce"},"vehicle_type_id":"4","last_reported":1760209591,"current_range_meters":8800,"station_id":"","pricing_plan_id":"cebpf4jnsgd1na2vs0mg"},{"bike_id":"808fc25b-8782-4bae-a1c7-4af90bf617d9","system_id":"levelo_inurba_marseille","lat":43.29525,"lon":5.38549,"is_reserved":false,"is_disabled":false,"rental_uris":{"android":"levelo://app?vid=808fc25b-8782-4bae-a1c7-4af90bf617d9","ios":"levelo://app?vid=808fc25b-8782-4bae-a1c7-4af90bf617d9"},"vehicle_type_id":"4","last_reported":1760209591,"current_range_meters":8800,"station_id":"ce4bgih2rcd13ifvqba0","pricing_plan_id":"cebpf4jnsgd1na2vs0mg"},{"bike_id":"8ac0c9d9-1f66-4ab2-b46c-a41927e9787c","system_id":"levelo_inurba_marseille","lat":43.29523,"lon":5.3855,"is_reserved":false,"is_disabled":false,"rental_uris":{"android":"levelo://app?vid=8ac0c9d9-1f66-4ab2-b46c-a41927e9787c","ios":"levelo://app?vid=8ac0c9d9-1f66-4ab2-b46c-a41927e9787c"},"vehicle_type_id":"4","last_reported":1760209591,"current_range_meters":8800,"station_id":"ce4bgih2rcd13ifvqba0","pricing_plan_id":"cebpf4jnsgd1na2vs0mg"},{"bike_id":"81f5c30f-dd5f-47a7-a27b-0b7574ba3281","system_id":"levelo_inurba_marseille","lat":43.31325,"lon":5.39696,"is_reserved":false,"is_disabled":false,"rental_uris":{"android":"levelo://app?vid=81f5c30f-dd5f-47a7-a27b-0b7574ba3281","ios":"levelo://app?vid=81f5c30f-dd5f-47a7-a27b-0b7574ba3281"},"vehicle_type_id":"4","last_reported":1760209591,"current_range_meters":8800,"station_id":"ce4bgvp2rcd13ifvqcu0","pricing_plan_id":"cebpf4jnsgd1na2vs0mg"},{"bike_id":"9f9edaa2-34b7-4837-8925-898705819e49","system_id":"levelo_inurba_marseille","lat":43.32371,"lon":5.36791,"is_reserved":false,"is_disabled":false,"rental_uris":{"android":"levelo://app?vid=9f9edaa2-34b7-4837-8925-898705819e49","ios":"levelo://app?vid=9f9edaa2-34b7-4837-8925-898705819e49"},"vehicle_type_id":"4","last_reported":1760209591,"current_range_meters":8800,"station_id":"ce4bhsh2rcd13ifvqi2g","pricing_plan_id":"cebpf4jnsgd1na2vs0mg"},{"bike_id":"b5039fe5-0bd8-49a5-826a-7593be169ea8","system_id":"levelo_inurba_marseille","lat":43.30118,"lon":5.43112,"is_reserved":false,"is_disabled":false,"rental_uris":{"android":"levelo://app?vid=b5039fe5-0bd8-49a5-826a-7593be169ea8","ios":"levelo://app?vid=b5039fe5-0bd8-49a5-826a-7593be169ea8"},"vehicle_type_id":"4","last_reported":1760209591,"current_range_meters":8800,"station_id":"st_d3js3co5814s73ftftug","pricing_plan_id":"cebpf4jnsgd1na2vs0mg"},{"bike_id":"a091fa2a-de07-4635-870e-3375376348fb","system_id":"levelo_inurba_marseille","lat":43.30027,"lon":5.38643,"is_reserved":false,"is_disabled":false,"rental_uris":{"android":"levelo://app?vid=a091fa2a-de07-4635-870e-3375376348fb","ios":"levelo://app?vid=a091fa2a-de07-4635-870e-3375376348fb"},"vehicle_type_id":"4","last_reported":1760209591,"current_range_meters":9200,"station_id":"","pricing_plan_id":"cebpf4jnsgd1na2vs0mg"},{"bike_id":"f84db39b-1588-467c-a7d6-3417c55d68b1","system_id":"levelo_inurba_marseille","lat":43.29377,"lon":5.37596,"is_reserved":false,"is_disabled":false,"rental_uris":{"android":"levelo://app?vid=f84db39b-1588-467c-a7d6-3417c55d68b1","ios":"levelo://app?vid=f84db39b-1588-467c-a7d6-3417c55d68b1"},"vehicle_type_id":"4","last_reported":1760209591,"current_range_meters":9200,"station_id":"","pricing_plan_id":"cebpf4jnsgd1na2vs0mg"},{"bike_id":"431c2e70-433d-4af0-acf4-957ec8670f40","system_id":"levelo_inurba_marseille","lat":43.2954,"lon":5.383068,"is_reserved":false,"is_disabled":false,"rental_uris":{"android":"levelo://app?vid=431c2e70-433d-4af0-acf4-957ec8670f40","ios":"levelo://app?vid=431c2e70-433d-4af0-acf4-957ec8670f40"},"vehicle_type_id":"4","last_reported":1760209591,"current_range_meters":9200,"station_id":"","pricing_plan_id":"cebpf4jnsgd1na2vs0mg"},{"bike_id":"07e1a346-1162-45b3-9030-d7845ecee16f","system_id":"levelo_inurba_marseille","lat":43.2953,"lon":5.38537,"is_reserved":false,"is_disabled":false,"rental_uris":{"android":"levelo://app?vid=07e1a346-1162-45b3-9030-d7845ecee16f","ios":"levelo://app?vid=07e1a346-1162-45b3-9030-d7845ecee16f"},"vehicle_type_id":"4","last_reported":1760209591,"current_range_meters":9200,"station_id":"ce4bgih2rcd13ifvqba0","pricing_plan_id":"cebpf4jnsgd1na2vs0mg"},{"bike_id":"25871ec6-92b0-43a4-aff5-df01f3c5ddf9","system_id":"levelo_inurba_marseille","lat":43.30793,"lon":5.38163,"is_reserved":false,"is_disabled":false,"rental_uris":{"android":"levelo://app?vid=25871ec6-92b0-43a4-aff5-df01f3c5ddf9","ios":"levelo://app?vid=25871ec6-92b0-43a4-aff5-df01f3c5ddf9"},"vehicle_type_id":"4","last_reported":1760209591,"current_range_meters":9200,"station_id":"ce4bgt12rcd13ifvqce0","pricing_plan_id":"cebpf4jnsgd1na2vs0mg"},{"bike_id":"68cae32d-4222-4674-aee0-f6f81c003a3b","system_id":"levelo_inurba_marseille","lat":43.22533,"lon":5.34835,"is_reserved":false,"is_disabled":false,"rental_uris":{"android":"levelo://app?vid=68cae32d-4222-4674-aee0-f6f81c003a3b","ios":"levelo://app?vid=68cae32d-4222-4674-aee0-f6f81c003a3b"},"vehicle_type_id":"4","last_reported":1760209591,"current_range_meters":9600,"station_id":"","pricing_plan_id":"cebpf4jnsgd1na2vs0mg"},{"bike_id":"31b30198-3dda-4b0b-8621-60e80968a9fd","system_id":"levelo_inurba_marseille","lat":43.29533,"lon":5.38559,"is_reserved":false,"is_disabled":false,"rental_uris":{"android":"levelo://app?vid=31b30198-3dda-4b0b-8621-60e80968a9fd","ios":"levelo://app?vid=31b30198-3dda-4b0b-8621-60e80968a9fd"},"vehicle_type_id":"4","last_reported":1760209591,"current_range_meters":9600,"station_id":"ce4bgih2rcd13ifvqba0","pricing_plan_id":"cebpf4jnsgd1na2vs0mg"},{"bike_id":"bcb75a38-0bb1-4f7c-b02e-f5efa7b88063","system_id":"levelo_inurba_marseille","lat":43.29838,"lon":5.3627,"is_reserved":false,"is_disabled":false,"rental_uris":{"android":"levelo://app?vid=bcb75a38-0bb1-4f7c-b02e-f5efa7b88063","ios":"levelo://app?vid=bcb75a38-0bb1-4f7c-b02e-f5efa7b88063"},"vehicle_type_id":"4","last_reported":1760209591,"current_range_meters":9600,"station_id":"ce4bgpp2rcd13ifvqc3g","pricing_plan_id":"cebpf4jnsgd1na2vs0mg"},{"bike_id":"942d4ba3-ebb9-42ff-9a1d-cccbb6dc9d5d","system_id":"levelo_inurba_marseille","lat":43.28371,"lon":5.38631,"is_reserved":false,"is_disabled":false,"rental_uris":{"android":"levelo://app?vid=942d4ba3-ebb9-42ff-9a1d-cccbb6dc9d5d","ios":"levelo://app?vid=942d4ba3-ebb9-42ff-9a1d-cccbb6dc9d5d"},"vehicle_type_id":"4","last_reported":1760209591,"current_range_meters":9600,"station_id":"ce4bh492rcd13ifvqdvg","pricing_plan_id":"cebpf4jnsgd1na2vs0mg"},{"bike_id":"f5977594-7990-4b5d-91b0-6de8de5d172d","system_id":"levelo_inurba_marseille","lat":43.29021,"lon":5.38143,"is_reserved":false,"is_disabled":false,"rental_uris":{"android":"levelo://app?vid=f5977594-7990-4b5d-91b0-6de8de5d172d","ios":"levelo://app?vid=f5977594-7990-4b5d-91b0-6de8de5d172d"},"vehicle_type_id":"4","last_reported":1760209591,"current_range_meters":9600,"station_id":"ce4bh4p2rcd13ifvqe1g","pricing_plan_id":"cebpf4jnsgd1na2vs0mg"},{"bike_id":"8f5f7955-093d-4ea4-8937-a2e4c96e9720","system_id":"levelo_inurba_marseille","lat":43.29263,"lon":5.38445,"is_reserved":false,"is_disabled":false,"rental_uris":{"android":"levelo://app?vid=8f5f7955-093d-4ea4-8937-a2e4c96e9720","ios":"levelo://app?vid=8f5f7955-093d-4ea4-8937-a2e4c96e9720"},"vehicle_type_id":"4","last_reported":1760209591,"current_range_meters":9600,"station_id":"ce4bh692rcd13ifvqea0","pricing_plan_id":"cebpf4jnsgd1na2vs0mg"},{"bike_id":"37723e22-3124-40be-b1a0-e1c9c15e764c","system_id":"levelo_inurba_marseille","lat":43.2407,"lon":5.37765,"is_reserved":false,"is_disabled":false,"rental_uris":{"android":"levelo://app?vid=37723e22-3124-40be-b1a0-e1c9c15e764c","ios":"levelo://app?vid=37723e22-3124-40be-b1a0-e1c9c15e764c"},"vehicle_type_id":"4","last_reported":1760209591,"current_range_meters":9600,"station_id":"ce4bhnp2rcd13ifvqgvg","pricing_plan_id":"cebpf4jnsgd1na2vs0mg"},{"bike_id":"10dcd84d-95f8-42be-8a70-9944d9262c4d","system_id":"levelo_inurba_marseille","lat":43.25361,"lon":5.41934,"is_reserved":false,"is_disabled":false,"rental_uris":{"android":"levelo://app?vid=10dcd84d-95f8-42be-8a70-9944d9262c4d","ios":"levelo://app?vid=10dcd84d-95f8-42be-8a70-9944d9262c4d"},"vehicle_type_id":"4","last_reported":1760209591,"current_range_meters":10000,"station_id":"","pricing_plan_id":"cebpf4jnsgd1na2vs0mg"},{"bike_id":"908d5fba-b8ad-4a0b-968d-5542a91e3807","system_id":"levelo_inurba_marseille","lat":43.29252,"lon":5.38452,"is_reserved":false,"is_disabled":false,"rental_uris":{"android":"levelo://app?vid=908d5fba-b8ad-4a0b-968d-5542a91e3807","ios":"levelo://app?vid=908d5fba-b8ad-4a0b-968d-5542a91e3807"},"vehicle_type_id":"4","last_reported":1760209591,"current_range_meters":10000,"station_id":"ce4bh692rcd13ifvqea0","pricing_plan_id":"cebpf4jnsgd1na2vs0mg"},{"bike_id":"faed3920-4b9b-4557-b50e-ab69257f904d","system_id":"levelo_inurba_marseille","lat":43.29257,"lon":5.38442,"is_reserved":false,"is_disabled":false,"rental_uris":{"android":"levelo://app?vid=faed3920-4b9b-4557-b50e-ab69257f904d","ios":"levelo://app?vid=faed3920-4b9b-4557-b50e-ab69257f904d"},"vehicle_type_id":"4","last_reported":1760209591,"current_range_meters":10000,"station_id":"ce4bh692rcd13ifvqea0","pricing_plan_id":"cebpf4jnsgd1na2vs0mg"},{"bike_id":"41bae330-80a0-42c1-a1a8-74f7d5133bc8","system_id":"levelo_inurba_marseille","lat":43.301208,"lon":5.431152,"is_reserved":false,"is_disabled":false,"rental_uris":{"android":"levelo://app?vid=41bae330-80a0-42c1-a1a8-74f7d5133bc8","ios":"levelo://app?vid=41bae330-80a0-42c1-a1a8-74f7d5133bc8"},"vehicle_type_id":"4","last_reported":1760209591,"current_range_meters":10000,"station_id":"st_d3js3co5814s73ftftug","pricing_plan_id":"cebpf4jnsgd1na2vs0mg"},{"bike_id":"80b5fdd6-8044-4280-9733-7a4992e6b8f6","system_id":"levelo_inurba_marseille","lat":43.292676,"lon":5.376168,"is_reserved":false,"is_disabled":false,"rental_uris":{"android":"levelo://app?vid=80b5fdd6-8044-4280-9733-7a4992e6b8f6","ios":"levelo://app?vid=80b5fdd6-8044-4280-9733-7a4992e6b8f6"},"vehicle_type_id":"4","last_reported":1760209591,"current_range_meters":10800,"station_id":"","pricing_plan_id":"cebpf4jnsgd1na2vs0mg"},{"bike_id":"3c72f118-8fc4-417a-a37b-fe09f26e5ff6","system_id":"levelo_inurba_marseille","lat":43.30337,"lon":5.40089,"is_reserved":false,"is_disabled":false,"rental_uris":{"android":"levelo://app?vid=3c72f118-8fc4-417a-a37b-fe09f26e5ff6","ios":"levelo://app?vid=3c72f118-8fc4-417a-a37b-fe09f26e5ff6"},"vehicle_type_id":"4","last_reported":1760209591,"current_range_meters":10800,"station_id":"","pricing_plan_id":"cebpf4jnsgd1na2vs0mg"},{"bike_id":"f9eede49-d25d-4ca5-a308-3cdeb2114203","system_id":"levelo_inurba_marseille","lat":43.29295,"lon":5.37466,"is_reserved":false,"is_disabled":false,"rental_uris":{"android":"levelo://app?vid=f9eede49-d25d-4ca5-a308-3cdeb2114203","ios":"levelo://app?vid=f9eede49-d25d-4ca5-a308-3cdeb2114203"},"vehicle_type_id":"4","last_reported":1760209591,"current_range_meters":10800,"station_id":"ce4bgi12rcd13ifvqb70","pricing_plan_id":"cebpf4jnsgd1na2vs0mg"},{"bike_id":"2d94688d-b7f4-4de9-9d08-9185d27eb6b3","system_id":"levelo_inurba_marseille","lat":43.2959,"lon":5.38101,"is_reserved":false,"is_disabled":false,"rental_uris":{"android":"levelo://app?vid=2d94688d-b7f4-4de9-9d08-9185d27eb6b3","ios":"levelo://app?vid=2d94688d-b7f4-4de9-9d08-9185d27eb6b3"},"vehicle_type_id":"4","last_reported":1760209591,"current_range_meters":10800,"station_id":"ce4bgl12rcd13ifvqbo0","pricing_plan_id":"cebpf4jnsgd1na2vs0mg"},{"bike_id":"050d8a56-1599-4f7c-b871-6367b79e1a84","system_id":"levelo_inurba_marseille","lat":43.29839,"lon":5.36286,"is_reserved":false,"is_disabled":false,"rental_uris":{"android":"levelo://app?vid=050d8a56-1599-4f7c-b871-6367b79e1a84","ios":"levelo://app?vid=050d8a56-1599-4f7c-b871-6367b79e1a84"},"vehicle_type_id":"4","last_reported":1760209591,"current_range_meters":10800,"station_id":"ce4bgpp2rcd13ifvqc3g","pricing_plan_id":"cebpf4jnsgd1na2vs0mg"},{"bike_id":"159bdfbc-4ac7-473c-90d4-767dbd980ba7","system_id":"levelo_inurba_marseille","lat":43.29846,"lon":5.36268,"is_reserved":false,"is_disabled":false,"rental_uris":{"android":"levelo://app?vid=159bdfbc-4ac7-473c-90d4-767dbd980ba7","ios":"levelo://app?vid=159bdfbc-4ac7-473c-90d4-767dbd980ba7"},"vehicle_type_id":"4","last_reported":1760209591,"current_range_meters":10800,"station_id":"ce4bgpp2rcd13ifvqc3g","pricing_plan_id":"cebpf4jnsgd1na2vs0mg"},{"bike_id":"6bc9c508-bb64-4740-aa44-83dfcc398806","system_id":"levelo_inurba_marseille","lat":43.29091,"lon":5.38164,"is_reserved":false,"is_disabled":false,"rental_uris":{"android":"levelo://app?vid=6bc9c508-bb64-4740-aa44-83dfcc398806","ios":"levelo://app?vid=6bc9c508-bb64-4740-aa44-83dfcc398806"},"vehicle_type_id":"4","last_reported":1760209591,"current_range_meters":10800,"station_id":"ce4bh512rcd13ifvqe2g","pricing_plan_id":"cebpf4jnsgd1na2vs0mg"},{"bike_id":"0935f9b8-471f-4409-bf95-8e52a023d632","system_id":"levelo_inurba_marseille","lat":43.30732,"lon":5.42442,"is_reserved":false,"is_disabled":false,"rental_uris":{"android":"levelo://app?vid=0935f9b8-471f-4409-bf95-8e52a023d632","ios":"levelo://app?vid=0935f9b8-471f-4409-bf95-8e52a023d632"},"vehicle_type_id":"4","last_reported":1760209591,"current_range_meters":10800,"station_id":"st_cvj6ca6bvosntc0bfgr0","pricing_plan_id":"cebpf4jnsgd1na2vs0mg"},{"bike_id":"d15b25e8-9b5b-48ab-beb5-c1c3d7497a7c","system_id":"levelo_inurba_marseille","lat":43.30906,"lon":5.36844,"is_reserved":false,"is_disabled":false,"rental_uris":{"android":"levelo://app?vid=d15b25e8-9b5b-48ab-beb5-c1c3d7497a7c","ios":"levelo://app?vid=d15b25e8-9b5b-48ab-beb5-c1c3d7497a7c"},"vehicle_type_id":"4","last_reported":1760209591,"current_range_meters":11200,"station_id":"ce4bgn92rcd13ifvqbvg","pricing_plan_id":"cebpf4jnsgd1na2vs0mg"},{"bike_id":"cce03767-69c5-45bd-b4d3-38d2cab6bc60","system_id":"levelo_inurba_marseille","lat":43.30614,"lon":5.37247,"is_reserved":false,"is_disabled":false,"rental_uris":{"android":"levelo://app?vid=cce03767-69c5-45bd-b4d3-38d2cab6bc60","ios":"levelo://app?vid=cce03767-69c5-45bd-b4d3-38d2cab6bc60"},"vehicle_type_id":"4","last_reported":1760209591,"current_range_meters":11200,"station_id":"ce4bgqh2rcd13ifvqc4g","pricing_plan_id":"cebpf4jnsgd1na2vs0mg"},{"bike_id":"7b046a5a-33ea-4f88-bdc0-00a3c5f171ef","system_id":"levelo_inurba_marseille","lat":43.283553,"lon":5.381124,"is_reserved":false,"is_disabled":false,"rental_uris":{"android":"levelo://app?vid=7b046a5a-33ea-4f88-bdc0-00a3c5f171ef","ios":"levelo://app?vid=7b046a5a-33ea-4f88-bdc0-00a3c5f171ef"},"vehicle_type_id":"4","last_reported":1760209591,"current_range_meters":11200,"station_id":"ce4bh412rcd13ifvqdr0","pricing_plan_id":"cebpf4jnsgd1na2vs0mg"},{"bike_id":"f88aa716-9870-4e37-9096-2f288ea3d309","system_id":"levelo_inurba_marseille","lat":43.22558,"lon":5.41633,"is_reserved":false,"is_disabled":false,"rental_uris":{"android":"levelo://app?vid=f88aa716-9870-4e37-9096-2f288ea3d309","ios":"levelo://app?vid=f88aa716-9870-4e37-9096-2f288ea3d309"},"vehicle_type_id":"4","last_reported":1760209591,"current_range_meters":11200,"station_id":"st_d2o4gvlbi1j2169b742g","pricing_plan_id":"cebpf4jnsgd1na2vs0mg"},{"bike_id":"a94a398d-4feb-4f42-8a13-1975f67c7c6c","system_id":"levelo_inurba_marseille","lat":43.29528,"lon":5.38556,"is_reserved":false,"is_disabled":false,"rental_uris":{"android":"levelo://app?vid=a94a398d-4feb-4f42-8a13-1975f67c7c6c","ios":"levelo://app?vid=a94a398d-4feb-4f42-8a13-1975f67c7c6c"},"vehicle_type_id":"4","last_reported":1760209591,"current_range_meters":11600,"station_id":"ce4bgih2rcd13ifvqba0","pricing_plan_id":"cebpf4jnsgd1na2vs0mg"},{"bike_id":"eab20017-cef4-4d4a-af13-9f1a4bbd7bea","system_id":"levelo_inurba_marseille","lat":43.29531,"lon":5.36751,"is_reserved":false,"is_disabled":false,"rental_uris":{"android":"levelo://app?vid=eab20017-cef4-4d4a-af13-9f1a4bbd7bea","ios":"levelo://app?vid=eab20017-cef4-4d4a-af13-9f1a4bbd7bea"},"vehicle_type_id":"4","last_reported":1760209591,"current_range_meters":11600,"station_id":"ce4bgph2rcd13ifvqc2g","pricing_plan_id":"cebpf4jnsgd1na2vs0mg"},{"bike_id":"d87f5e9f-6614-4781-ab84-f2f765d1a3d0","system_id":"levelo_inurba_marseille","lat":43.2984,"lon":5.36262,"is_reserved":false,"is_disabled":false,"rental_uris":{"android":"levelo://app?vid=d87f5e9f-6614-4781-ab84-f2f765d1a3d0","ios":"levelo://app?vid=d87f5e9f-6614-4781-ab84-f2f765d1a3d0"},"vehicle_type_id":"4","last_reported":1760209591,"current_range_meters":11600,"station_id":"ce4bgpp2rcd13ifvqc3g","pricing_plan_id":"cebpf4jnsgd1na2vs0mg"},{"bike_id":"9ee628e4-9be5-4190-85a8-fdf7d64198da","system_id":"levelo_inurba_marseille","lat":43.29245,"lon":5.38446,"is_reserved":false,"is_disabled":false,"rental_uris":{"android":"levelo://app?vid=9ee628e4-9be5-4190-85a8-fdf7d64198da","ios":"levelo://app?vid=9ee628e4-9be5-4190-85a8-fdf7d64198da"},"vehicle_type_id":"4","last_reported":1760209591,"current_range_meters":11600,"station_id":"ce4bh692rcd13ifvqea0","pricing_plan_id":"cebpf4jnsgd1na2vs0mg"},{"bike_id":"9eec1a65-67bd-488e-bfd6-3773aa5c5cc6","system_id":"levelo_inurba_marseille","lat":43.240732,"lon":5.37763,"is_reserved":false,"is_disabled":false,"rental_uris":{"android":"levelo://app?vid=9eec1a65-67bd-488e-bfd6-3773aa5c5cc6","ios":"levelo://app?vid=9eec1a65-67bd-488e-bfd6-3773aa5c5cc6"},"vehicle_type_id":"4","last_reported":1760209591,"current_range_meters":11600,"station_id":"ce4bhnp2rcd13ifvqgvg","pricing_plan_id":"cebpf4jnsgd1na2vs0mg"},{"bike_id":"442ee9d9-b547-45e9-9836-adc01eacc39d","system_id":"levelo_inurba_marseille","lat":43.24062,"lon":5.37711,"is_reserved":false,"is_disabled":false,"rental_uris":{"android":"levelo://app?vid=442ee9d9-b547-45e9-9836-adc01eacc39d","ios":"levelo://app?vid=442ee9d9-b547-45e9-9836-adc01eacc39d"},"vehicle_type_id":"4","last_reported":1760209591,"current_range_meters":11600,"station_id":"ce4bhnp2rcd13ifvqgvg","pricing_plan_id":"cebpf4jnsgd1na2vs0mg"},{"bike_id":"96189567-9f56-4467-99e1-85c33efa20b5","system_id":"levelo_inurba_marseille","lat":43.22539,"lon":5.41658,"is_reserved":false,"is_disabled":false,"rental_uris":{"android":"levelo://app?vid=96189567-9f56-4467-99e1-85c33efa20b5","ios":"levelo://app?vid=96189567-9f56-4467-99e1-85c33efa20b5"},"vehicle_type_id":"4","last_reported":1760209591,"current_range_meters":11600,"station_id":"st_d2o4gvlbi1j2169b742g","pricing_plan_id":"cebpf4jnsgd1na2vs0mg"},{"bike_id":"df2fdcfd-9b2f-4cf0-8a37-826706a7eda8","system_id":"levelo_inurba_marseille","lat":43.27145,"lon":5.39218,"is_reserved":false,"is_disabled":false,"rental_uris":{"android":"levelo://app?vid=df2fdcfd-9b2f-4cf0-8a37-826706a7eda8","ios":"levelo://app?vid=df2fdcfd-9b2f-4cf0-8a37-826706a7eda8"},"vehicle_type_id":"4","last_reported":1760209591,"current_range_meters":12000,"station_id":"","pricing_plan_id":"cebpf4jnsgd1na2vs0mg"},{"bike_id":"47cba53e-33d0-4923-88da-30683b3480eb","system_id":"levelo_inurba_marseille","lat":43.29301,"lon":5.3744,"is_reserved":false,"is_disabled":false,"rental_uris":{"android":"levelo://app?vid=47cba53e-33d0-4923-88da-30683b3480eb","ios":"levelo://app?vid=47cba53e-33d0-4923-88da-30683b3480eb"},"vehicle_type_id":"4","last_reported":1760209591,"current_range_meters":12000,"station_id":"ce4bgi12rcd13ifvqb70","pricing_plan_id":"cebpf4jnsgd1na2vs0mg"},{"bike_id":"149b79ae-9225-4ac1-b6b2-d285f928d1bd","system_id":"levelo_inurba_marseille","lat":43.30908,"lon":5.36854,"is_reserved":false,"is_disabled":false,"rental_uris":{"android":"levelo://app?vid=149b79ae-9225-4ac1-b6b2-d285f928d1bd","ios":"levelo://app?vid=149b79ae-9225-4ac1-b6b2-d285f928d1bd"},"vehicle_type_id":"4","last_reported":1760209591,"current_range_meters":12000,"station_id":"ce4bgn92rcd13ifvqbvg","pricing_plan_id":"cebpf4jnsgd1na2vs0mg"},{"bike_id":"f1b141eb-dfe9-40a2-a30b-4d92cecc2366","system_id":"levelo_inurba_marseille","lat":43.29848,"lon":5.36287,"is_reserved":false,"is_disabled":false,"rental_uris":{"android":"levelo://app?vid=f1b141eb-dfe9-40a2-a30b-4d92cecc2366","ios":"levelo://app?vid=f1b141eb-dfe9-40a2-a30b-4d92cecc2366"},"vehicle_type_id":"4","last_reported":1760209591,"current_range_meters":12000,"station_id":"ce4bgpp2rcd13ifvqc3g","pricing_plan_id":"cebpf4jnsgd1na2vs0mg"},{"bike_id":"5846693b-ba33-4f18-974d-a7535129aaae","system_id":"levelo_inurba_marseille","lat":43.31702,"lon":5.37738,"is_reserved":false,"is_disabled":false,"rental_uris":{"android":"levelo://app?vid=5846693b-ba33-4f18-974d-a7535129aaae","ios":"levelo://app?vid=5846693b-ba33-4f18-974d-a7535129aaae"},"vehicle_type_id":"4","last_reported":1760209591,"current_range_meters":12000,"station_id":"ce4bgth2rcd13ifvqch0","pricing_plan_id":"cebpf4jnsgd1na2vs0mg"},{"bike_id":"08fcdb32-2bb9-48aa-82a9-a8f703dd0269","system_id":"levelo_inurba_marseille","lat":43.25398,"lon":5.41898,"is_reserved":false,"is_disabled":false,"rental_uris":{"android":"levelo://app?vid=08fcdb32-2bb9-48aa-82a9-a8f703dd0269","ios":"levelo://app?vid=08fcdb32-2bb9-48aa-82a9-a8f703dd0269"},"vehicle_type_id":"4","last_reported":1760209591,"current_range_meters":12400,"station_id":"","pricing_plan_id":"cebpf4jnsgd1na2vs0mg"},{"bike_id":"aa755f9a-d4d5-40c4-b35e-fdacf4e6834e","system_id":"levelo_inurba_marseille","lat":43.2953,"lon":5.38547,"is_reserved":false,"is_disabled":false,"rental_uris":{"android":"levelo://app?vid=aa755f9a-d4d5-40c4-b35e-fdacf4e6834e","ios":"levelo://app?vid=aa755f9a-d4d5-40c4-b35e-fdacf4e6834e"},"vehicle_type_id":"4","last_reported":1760209591,"current_range_meters":12400,"station_id":"ce4bgih2rcd13ifvqba0","pricing_plan_id":"cebpf4jnsgd1na2vs0mg"},{"bike_id":"03ed6263-97de-4cf5-ab05-bf22ada767f4","system_id":"levelo_inurba_marseille","lat":43.29591,"lon":5.36731,"is_reserved":false,"is_disabled":false,"rental_uris":{"android":"levelo://app?vid=03ed6263-97de-4cf5-ab05-bf22ada767f4","ios":"levelo://app?vid=03ed6263-97de-4cf5-ab05-bf22ada767f4"},"vehicle_type_id":"4","last_reported":1760209591,"current_range_meters":12400,"station_id":"ce4bgph2rcd13ifvqc2g","pricing_plan_id":"cebpf4jnsgd1na2vs0mg"},{"bike_id":"064c4866-2130-4a0d-a763-d49188b57f38","system_id":"levelo_inurba_marseille","lat":43.307968,"lon":5.381425,"is_reserved":false,"is_disabled":false,"rental_uris":{"android":"levelo://app?vid=064c4866-2130-4a0d-a763-d49188b57f38","ios":"levelo://app?vid=064c4866-2130-4a0d-a763-d49188b57f38"},"vehicle_type_id":"4","last_reported":1760209591,"current_range_meters":12400,"station_id":"ce4bgt12rcd13ifvqce0","pricing_plan_id":"cebpf4jnsgd1na2vs0mg"},{"bike_id":"00042e33-3ebd-4e61-b5a9-0fc665854f86","system_id":"levelo_inurba_marseille","lat":43.28478,"lon":5.3841,"is_reserved":false,"is_disabled":false,"rental_uris":{"android":"levelo://app?vid=00042e33-3ebd-4e61-b5a9-0fc665854f86","ios":"levelo://app?vid=00042e33-3ebd-4e61-b5a9-0fc665854f86"},"vehicle_type_id":"4","last_reported":1760209591,"current_range_meters":12400,"station_id":"ce4bh512rcd13ifvqe3g","pricing_plan_id":"cebpf4jnsgd1na2vs0mg"},{"bike_id":"1fcfadf6-124a-4301-bd59-8d332db12570","system_id":"levelo_inurba_marseille","lat":43.29249,"lon":5.38446,"is_reserved":false,"is_disabled":false,"rental_uris":{"android":"levelo://app?vid=1fcfadf6-124a-4301-bd59-8d332db12570","ios":"levelo://app?vid=1fcfadf6-124a-4301-bd59-8d332db12570"},"vehicle_type_id":"4","last_reported":1760209591,"current_range_meters":12400,"station_id":"ce4bh692rcd13ifvqea0","pricing_plan_id":"cebpf4jnsgd1na2vs0mg"},{"bike_id":"1cb582ef-79d0-49c8-8114-25df3e91567a","system_id":"levelo_inurba_marseille","lat":43.29271,"lon":5.36845,"is_reserved":false,"is_disabled":false,"rental_uris":{"android":"levelo://app?vid=1cb582ef-79d0-49c8-8114-25df3e91567a","ios":"levelo://app?vid=1cb582ef-79d0-49c8-8114-25df3e91567a"},"vehicle_type_id":"4","last_reported":1760209591,"current_range_meters":12400,"station_id":"ce4bhbp2rcd13ifvqesg","pricing_plan_id":"cebpf4jnsgd1na2vs0mg"},{"bike_id":"cf5f0dcd-2a38-4dc7-a063-14b523c2a594","system_id":"levelo_inurba_marseille","lat":43.27571,"lon":5.38426,"is_reserved":false,"is_disabled":false,"rental_uris":{"android":"levelo://app?vid=cf5f0dcd-2a38-4dc7-a063-14b523c2a594","ios":"levelo://app?vid=cf5f0dcd-2a38-4dc7-a063-14b523c2a594"},"vehicle_type_id":"4","last_reported":1760209591,"current_range_meters":12400,"station_id":"ce4bhh92rcd13ifvqfi0","pricing_plan_id":"cebpf4jnsgd1na2vs0mg"},{"bike_id":"66749502-99b0-4d64-9cc5-bd8651dc310b","system_id":"levelo_inurba_marseille","lat":43.29618,"lon":5.38094,"is_reserved":false,"is_disabled":false,"rental_uris":{"android":"levelo://app?vid=66749502-99b0-4d64-9cc5-bd8651dc310b","ios":"levelo://app?vid=66749502-99b0-4d64-9cc5-bd8651dc310b"},"vehicle_type_id":"4","last_reported":1760209591,"current_range_meters":12800,"station_id":"ce4bgl12rcd13ifvqbo0","pricing_plan_id":"cebpf4jnsgd1na2vs0mg"},{"bike_id":"2f091719-c91c-4194-bd7e-5d4bd0e072e3","system_id":"levelo_inurba_marseille","lat":43.29846,"lon":5.36283,"is_reserved":false,"is_disabled":false,"rental_uris":{"android":"levelo://app?vid=2f091719-c91c-4194-bd7e-5d4bd0e072e3","ios":"levelo://app?vid=2f091719-c91c-4194-bd7e-5d4bd0e072e3"},"vehicle_type_id":"4","last_reported":1760209591,"current_range_meters":12800,"station_id":"ce4bgpp2rcd13ifvqc3g","pricing_plan_id":"cebpf4jnsgd1na2vs0mg"},{"bike_id":"c05aeb01-37bc-423b-9e35-742f295be8ba","system_id":"levelo_inurba_marseille","lat":43.29029,"lon":5.37571,"is_reserved":false,"is_disabled":false,"rental_uris":{"android":"levelo://app?vid=c05aeb01-37bc-423b-9e35-742f295be8ba","ios":"levelo://app?vid=c05aeb01-37bc-423b-9e35-742f295be8ba"},"vehicle_type_id":"4","last_reported":1760209591,"current_range_meters":12800,"station_id":"ce4bh692rcd13ifvqe90","pricing_plan_id":"cebpf4jnsgd1na2vs0mg"},{"bike_id":"9a3f78ca-b0c6-4f72-8a79-592b18fbedf7","system_id":"levelo_inurba_marseille","lat":43.240675,"lon":5.377765,"is_reserved":false,"is_disabled":false,"rental_uris":{"android":"levelo://app?vid=9a3f78ca-b0c6-4f72-8a79-592b18fbedf7","ios":"levelo://app?vid=9a3f78ca-b0c6-4f72-8a79-592b18fbedf7"},"vehicle_type_id":"4","last_reported":1760209591,"current_range_meters":12800,"station_id":"ce4bhnp2rcd13ifvqgvg","pricing_plan_id":"cebpf4jnsgd1na2vs0mg"},{"bike_id":"36852a13-f383-442f-9a01-f153febeeef2","system_id":"levelo_inurba_marseille","lat":43.30199,"lon":5.3689,"is_reserved":false,"is_disabled":false,"rental_uris":{"android":"levelo://app?vid=36852a13-f383-442f-9a01-f153febeeef2","ios":"levelo://app?vid=36852a13-f383-442f-9a01-f153febeeef2"},"vehicle_type_id":"4","last_reported":1760209591,"current_range_meters":13600,"station_id":"","pricing_plan_id":"cebpf4jnsgd1na2vs0mg"},{"bike_id":"288e8287-0c40-4815-986c-4c213cbfced4","system_id":"levelo_inurba_marseille","lat":43.299098,"lon":5.38161,"is_reserved":false,"is_disabled":false,"rental_uris":{"android":"levelo://app?vid=288e8287-0c40-4815-986c-4c213cbfced4","ios":"levelo://app?vid=288e8287-0c40-4815-986c-4c213cbfced4"},"vehicle_type_id":"4","last_reported":1760209591,"current_range_meters":13600,"station_id":"ce4bgj12rcd13ifvqbc0","pricing_plan_id":"cebpf4jnsgd1na2vs0mg"},{"bike_id":"226a2d73-ff7a-4115-8984-20a39e1873a2","system_id":"levelo_inurba_marseille","lat":43.29038,"lon":5.37575,"is_reserved":false,"is_disabled":false,"rental_uris":{"android":"levelo://app?vid=226a2d73-ff7a-4115-8984-20a39e1873a2","ios":"levelo://app?vid=226a2d73-ff7a-4115-8984-20a39e1873a2"},"vehicle_type_id":"4","last_reported":1760209591,"current_range_meters":13600,"station_id":"ce4bh692rcd13ifvqe90","pricing_plan_id":"cebpf4jnsgd1na2vs0mg"},{"bike_id":"5062204b-f110-4dca-8787-67dc14b27757","system_id":"levelo_inurba_marseille","lat":43.22563,"lon":5.41624,"is_reserved":false,"is_disabled":false,"rental_uris":{"android":"levelo://app?vid=5062204b-f110-4dca-8787-67dc14b27757","ios":"levelo://app?vid=5062204b-f110-4dca-8787-67dc14b27757"},"vehicle_type_id":"4","last_reported":1760209591,"current_range_meters":13600,"station_id":"st_d2o4gvlbi1j2169b742g","pricing_plan_id":"cebpf4jnsgd1na2vs0mg"},{"bike_id":"fb7c55ac-beb6-4d83-a8ba-2d9fb5e17a0b","system_id":"levelo_inurba_marseille","lat":43.29933,"lon":5.38547,"is_reserved":false,"is_disabled":false,"rental_uris":{"android":"levelo://app?vid=fb7c55ac-beb6-4d83-a8ba-2d9fb5e17a0b","ios":"levelo://app?vid=fb7c55ac-beb6-4d83-a8ba-2d9fb5e17a0b"},"vehicle_type_id":"4","last_reported":1760209591,"current_range_meters":14000,"station_id":"","pricing_plan_id":"cebpf4jnsgd1na2vs0mg"},{"bike_id":"a88b7eec-46af-47d7-a0bf-d5854d080a7b","system_id":"levelo_inurba_marseille","lat":43.284642,"lon":5.358866,"is_reserved":false,"is_disabled":false,"rental_uris":{"android":"levelo://app?vid=a88b7eec-46af-47d7-a0bf-d5854d080a7b","ios":"levelo://app?vid=a88b7eec-46af-47d7-a0bf-d5854d080a7b"},"vehicle_type_id":"4","last_reported":1760209591,"current_range_meters":14000,"station_id":"","pricing_plan_id":"cebpf4jnsgd1na2vs0mg"},{"bike_id":"7ddbda7e-aa44-4246-8bc9-09674dab99cd","system_id":"levelo_inurba_marseille","lat":43.302185,"lon":5.394624,"is_reserved":false,"is_disabled":false,"rental_uris":{"android":"levelo://app?vid=7ddbda7e-aa44-4246-8bc9-09674dab99cd","ios":"levelo://app?vid=7ddbda7e-aa44-4246-8bc9-09674dab99cd"},"vehicle_type_id":"4","last_reported":1760209591,"current_range_meters":14000,"station_id":"ce4bgm92rcd13ifvqbr0","pricing_plan_id":"cebpf4jnsgd1na2vs0mg"},{"bike_id":"7c49e4be-6512-4af0-8f09-03275c245c90","system_id":"levelo_inurba_marseille","lat":43.29848,"lon":5.3626,"is_reserved":false,"is_disabled":false,"rental_uris":{"android":"levelo://app?vid=7c49e4be-6512-4af0-8f09-03275c245c90","ios":"levelo://app?vid=7c49e4be-6512-4af0-8f09-03275c245c90"},"vehicle_type_id":"4","last_reported":1760209591,"current_range_meters":14000,"station_id":"ce4bgpp2rcd13ifvqc3g","pricing_plan_id":"cebpf4jnsgd1na2vs0mg"},{"bike_id":"815d5392-130e-4e47-9b80-b5daabff742f","system_id":"levelo_inurba_marseille","lat":43.31321,"lon":5.39704,"is_reserved":false,"is_disabled":false,"rental_uris":{"android":"levelo://app?vid=815d5392-130e-4e47-9b80-b5daabff742f","ios":"levelo://app?vid=815d5392-130e-4e47-9b80-b5daabff742f"},"vehicle_type_id":"4","last_reported":1760209591,"current_range_meters":14000,"station_id":"ce4bgvp2rcd13ifvqcu0","pricing_plan_id":"cebpf4jnsgd1na2vs0mg"},{"bike_id":"af60312e-4742-460f-b595-3d34798011fa","system_id":"levelo_inurba_marseille","lat":43.288484,"lon":5.393144,"is_reserved":false,"is_disabled":false,"rental_uris":{"android":"levelo://app?vid=af60312e-4742-460f-b595-3d34798011fa","ios":"levelo://app?vid=af60312e-4742-460f-b595-3d34798011fa"},"vehicle_type_id":"4","last_reported":1760209591,"current_range_meters":14000,"station_id":"ce4bh2p2rcd13ifvqdi0","pricing_plan_id":"cebpf4jnsgd1na2vs0mg"},{"bike_id":"9f2756a7-003d-4c0d-aed5-f83060c12c64","system_id":"levelo_inurba_marseille","lat":43.29036,"lon":5.38657,"is_reserved":false,"is_disabled":false,"rental_uris":{"android":"levelo://app?vid=9f2756a7-003d-4c0d-aed5-f83060c12c64","ios":"levelo://app?vid=9f2756a7-003d-4c0d-aed5-f83060c12c64"},"vehicle_type_id":"4","last_reported":1760209591,"current_range_meters":14000,"station_id":"ce4bh4p2rcd13ifvqe0g","pricing_plan_id":"cebpf4jnsgd1na2vs0mg"},{"bike_id":"acc6d056-98ae-4cb7-b076-aa7cf64ac893","system_id":"levelo_inurba_marseille","lat":43.26676,"lon":5.38269,"is_reserved":false,"is_disabled":false,"rental_uris":{"android":"levelo://app?vid=acc6d056-98ae-4cb7-b076-aa7cf64ac893","ios":"levelo://app?vid=acc6d056-98ae-4cb7-b076-aa7cf64ac893"},"vehicle_type_id":"4","last_reported":1760209591,"current_range_meters":14000,"station_id":"ce4bhg92rcd13ifvqf90","pricing_plan_id":"cebpf4jnsgd1na2vs0mg"},{"bike_id":"82baf6b2-db84-4e3e-953d-903ad4ca6acf","system_id":"levelo_inurba_marseille","lat":43.26812,"lon":5.40247,"is_reserved":false,"is_disabled":false,"rental_uris":{"android":"levelo://app?vid=82baf6b2-db84-4e3e-953d-903ad4ca6acf","ios":"levelo://app?vid=82baf6b2-db84-4e3e-953d-903ad4ca6acf"},"vehicle_type_id":"4","last_reported":1760209591,"current_range_meters":14000,"station_id":"ce501612rcd8frsf0b60","pricing_plan_id":"cebpf4jnsgd1na2vs0mg"},{"bike_id":"187cf0d8-0607-43fc-8eaa-6af12fda0dee","system_id":"levelo_inurba_marseille","lat":43.22428,"lon":5.34657,"is_reserved":false,"is_disabled":false,"rental_uris":{"android":"levelo://app?vid=187cf0d8-0607-43fc-8eaa-6af12fda0dee","ios":"levelo://app?vid=187cf0d8-0607-43fc-8eaa-6af12fda0dee"},"vehicle_type_id":"4","last_reported":1760209591,"current_range_meters":14400,"station_id":"","pricing_plan_id":"cebpf4jnsgd1na2vs0mg"},{"bike_id":"f643732a-737c-4023-9ce1-91073dd626a3","system_id":"levelo_inurba_marseille","lat":43.31598,"lon":5.38135,"is_reserved":false,"is_disabled":false,"rental_uris":{"android":"levelo://app?vid=f643732a-737c-4023-9ce1-91073dd626a3","ios":"levelo://app?vid=f643732a-737c-4023-9ce1-91073dd626a3"},"vehicle_type_id":"4","last_reported":1760209591,"current_range_meters":14400,"station_id":"","pricing_plan_id":"cebpf4jnsgd1na2vs0mg"},{"bike_id":"de1732bb-cecf-4a41-9aba-510739b18fe0","system_id":"levelo_inurba_marseille","lat":43.29307,"lon":5.37187,"is_reserved":false,"is_disabled":false,"rental_uris":{"android":"levelo://app?vid=de1732bb-cecf-4a41-9aba-510739b18fe0","ios":"levelo://app?vid=de1732bb-cecf-4a41-9aba-510739b18fe0"},"vehicle_type_id":"4","last_reported":1760209591,"current_range_meters":14400,"station_id":"ce4bgh92rcd13ifvqb40","pricing_plan_id":"cebpf4jnsgd1na2vs0mg"},{"bike_id":"e417770e-4077-46a1-a797-4c4e7b15c9f3","system_id":"levelo_inurba_marseille","lat":43.29851,"lon":5.36289,"is_reserved":false,"is_disabled":false,"rental_uris":{"android":"levelo://app?vid=e417770e-4077-46a1-a797-4c4e7b15c9f3","ios":"levelo://app?vid=e417770e-4077-46a1-a797-4c4e7b15c9f3"},"vehicle_type_id":"4","last_reported":1760209591,"current_range_meters":14400,"station_id":"ce4bgpp2rcd13ifvqc3g","pricing_plan_id":"cebpf4jnsgd1na2vs0mg"},{"bike_id":"b97ae111-34c5-40a3-bc58-02103404c0ba","system_id":"levelo_inurba_marseille","lat":43.305516,"lon":5.367039,"is_reserved":false,"is_disabled":false,"rental_uris":{"android":"levelo://app?vid=b97ae111-34c5-40a3-bc58-02103404c0ba","ios":"levelo://app?vid=b97ae111-34c5-40a3-bc58-02103404c0ba"},"vehicle_type_id":"4","last_reported":1760209591,"current_range_meters":14400,"station_id":"ce4bgrp2rcd13ifvqc9g","pricing_plan_id":"cebpf4jnsgd1na2vs0mg"},{"bike_id":"d6a79484-4956-4e4e-b163-7ae9c51b4693","system_id":"levelo_inurba_marseille","lat":43.2924,"lon":5.38452,"is_reserved":false,"is_disabled":false,"rental_uris":{"android":"levelo://app?vid=d6a79484-4956-4e4e-b163-7ae9c51b4693","ios":"levelo://app?vid=d6a79484-4956-4e4e-b163-7ae9c51b4693"},"vehicle_type_id":"4","last_reported":1760209591,"current_range_meters":14400,"station_id":"ce4bh692rcd13ifvqea0","pricing_plan_id":"cebpf4jnsgd1na2vs0mg"},{"bike_id":"9969933e-460f-4d94-a7f2-405309287fe8","system_id":"levelo_inurba_marseille","lat":43.29172,"lon":5.37155,"is_reserved":false,"is_disabled":false,"rental_uris":{"android":"levelo://app?vid=9969933e-460f-4d94-a7f2-405309287fe8","ios":"levelo://app?vid=9969933e-460f-4d94-a7f2-405309287fe8"},"vehicle_type_id":"4","last_reported":1760209591,"current_range_meters":14400,"station_id":"ce4bha92rcd13ifvqeh0","pricing_plan_id":"cebpf4jnsgd1na2vs0mg"},{"bike_id":"8378e909-cd4a-440b-b225-15503c9a49d1","system_id":"levelo_inurba_marseille","lat":43.2407,"lon":5.37764,"is_reserved":false,"is_disabled":false,"rental_uris":{"android":"levelo://app?vid=8378e909-cd4a-440b-b225-15503c9a49d1","ios":"levelo://app?vid=8378e909-cd4a-440b-b225-15503c9a49d1"},"vehicle_type_id":"4","last_reported":1760209591,"current_range_meters":14400,"station_id":"ce4bhnp2rcd13ifvqgvg","pricing_plan_id":"cebpf4jnsgd1na2vs0mg"},