{"last_updated":1741421325,"ttl":60,"version":"2.2","data":{"bikes":[{"bike_id":"6586fa75-b490-48b3-977b-0d4cf9c41c80","system_id":"levelo_inurba_marseille","lat":43.30461,"lon":5.37906,"is_reserved":false,"is_disabled":false,"rental_uris":{"android":"levelo://app?vid=6586fa75-b490-48b3-977b-0d4cf9c41c80","ios":"levelo://app?vid=6586fa75-b490-48b3-977b-0d4cf9c41c80"},"vehicle_type_id":"4","last_reported":1741421325,"current_range_meters":2800,"station_id":"ce4bgup2rcd13ifvqcn0","pricing_plan_id":"cebpf4jnsgd1na2vs0mg"},{"bike_id":"6648da09-b4ed-4929-bbc3-b63e4d34d9e8","system_id":"levelo_inurba_marseille","lat":43.28484,"lon":5.35874,"is_reserved":false,"is_disabled":false,"rental_uris":{"android":"levelo://app?vid=6648da09-b4ed-4929-bbc3-b63e4d34d9e8","ios":"levelo://app?vid=6648da09-b4ed-4929-bbc3-b63e4d34d9e8"},"vehicle_type_id":"4","last_reported":1741421325,"current_range_meters":2800,"station_id":"ce4bhah2rcd13ifvqei0","pricing_plan_id":"cebpf4jnsgd1na2vs0mg"},{"bike_id":"d93bdeca-d0ff-402c-a1ae-de5375476d11","system_id":"levelo_inurba_marseille","lat":43.28237,"lon":5.40309,"is_reserved":false,"is_disabled":true,"rental_uris":{"android":"levelo://app?vid=d93bdeca-d0ff-402c-a1ae-de5375476d11","ios":"levelo://app?vid=d93bdeca-d0ff-402c-a1ae-de5375476d11"},"vehicle_type_id":"4","last_reported":1741421325,"current_range_meters":3200,"station_id":"","pricing_plan_id":"cebpf4jnsgd1na2vs0mg"},{"bike_id":"f7a85f1b-5528-4bd4-98d9-a65f1b6b8628","system_id":"levelo_inurba_marseille","lat":43.289123,"lon":5.354416,"is_reserved":false,"is_disabled":false,"rental_uris":{"android":"levelo://app?vid=f7a85f1b-5528-4bd4-98d9-a65f1b6b8628","ios":"levelo://app?vid=f7a85f1b-5528-4bd4-98d9-a65f1b6b8628"},"vehicle_type_id":"4","last_reported":1741421325,"current_range_meters":3200,"station_id":"","pricing_plan_id":"cebpf4jnsgd1na2vs0mg"},{"bike_id":"914bbafb-3768-41ed-9924-1947bd4ab869","system_id":"levelo_inurba_marseille","lat":43.30138,"lon":5.38381,"is_reserved":false,"is_disabled":false,"rental_uris":{"android":"levelo://app?vid=914bbafb-3768-41ed-9924-1947bd4ab869","ios":"levelo://app?vid=914bbafb-3768-41ed-9924-1947bd4ab869"},"vehicle_type_id":"4","last_reported":1741421325,"current_range_meters":3200,"station_id":"","pricing_plan_id":"cebpf4jnsgd1na2vs0mg"},{"bike_id":"c5d9a748-fb84-4751-9008-dc4467d9ed9a","system_id":"levelo_inurba_marseille","lat":43.23223,"lon":5.35527,"is_reserved":false,"is_disabled":false,"rental_uris":{"android":"levelo://app?vid=c5d9a748-fb84-4751-9008-dc4467d9ed9a","ios":"levelo://app?vid=c5d9a748-fb84-4751-9008-dc4467d9ed9a"},"vehicle_type_id":"4","last_reported":1741421325,"current_range_meters":3600,"station_id":"ce4bhu92rcd13ifvqi70","pricing_plan_id":"cebpf4jnsgd1na2vs0mg"},{"bike_id":"24df224d-ffa5-472e-acc0-380979001d96","system_id":"levelo_inurba_marseille","lat":43.25699,"lon":5.41085,"is_reserved":false,"is_disabled":false,"rental_uris":{"android":"levelo://app?vid=24df224d-ffa5-472e-acc0-380979001d96","ios":"levelo://app?vid=24df224d-ffa5-472e-acc0-380979001d96"},"vehicle_type_id":"4","last_reported":1741421325,"current_range_meters":3600,"station_id":"ce4bhkp2rcd13ifvqgd0","pricing_plan_id":"cebpf4jnsgd1na2vs0mg"},{"bike_id":"1b34c58c-f011-43f3-baac-47c6cf7523c0","system_id":"levelo_inurba_marseille","lat":43.29893,"lon":5.43668,"is_reserved":false,"is_disabled":false,"rental_uris":{"android":"levelo://app?vid=1b34c58c-f011-43f3-baac-47c6cf7523c0","ios":"levelo://app?vid=1b34c58c-f011-43f3-baac-47c6cf7523c0"},"vehicle_type_id":"4","last_reported":1741421325,"current_range_meters":4000,"station_id":"ce4bhpp2rcd13ifvqhfg","pricing_plan_id":"cebpf4jnsgd1na2vs0mg"},{"bike_id":"55993612-dd7a-4524-96a2-fae311f51d5b","system_id":"levelo_inurba_marseille","lat":43.287277,"lon":5.39987,"is_reserved":false,"is_disabled":false,"rental_uris":{"android":"levelo://app?vid=55993612-dd7a-4524-96a2-fae311f51d5b","ios":"levelo://app?vid=55993612-dd7a-4524-96a2-fae311f51d5b"},"vehicle_type_id":"4","last_reported":1741421325,"current_range_meters":4000,"station_id":"ce4bho92rcd13ifvqh3g","pricing_plan_id":"cebpf4jnsgd1na2vs0mg"},{"bike_id":"bb05f23e-14b8-454c-8b5f-3dfc96887b02","system_id":"levelo_inurba_marseille","lat":43.26239,"lon":5.40468,"is_reserved":false,"is_disabled":false,"rental_uris":{"android":"levelo://app?vid=bb05f23e-14b8-454c-8b5f-3dfc96887b02","ios":"levelo://app?vid=bb05f23e-14b8-454c-8b5f-3dfc96887b02"},"vehicle_type_id":"4","last_reported":1741421325,"current_range_meters":4000,"station_id":"ce4bhmh2rcd13ifvqgmg","pricing_plan_id":"cebpf4jnsgd1na2vs0mg"},{"bike_id":"3763ca09-281c-481c-9755-79dce3edd104","system_id":"levelo_inurba_marseille","lat":43.31987,"lon":5.38155,"is_reserved":false,"is_disabled":false,"rental_uris":{"android":"levelo://app?vid=3763ca09-281c-481c-9755-79dce3edd104","ios":"levelo://app?vid=3763ca09-281c-481c-9755-79dce3edd104"},"vehicle_type_id":"4","last_reported":1741421325,"current_range_meters":4000,"station_id":"ce4bhr12rcd13ifvqhpg","pricing_plan_id":"cebpf4jnsgd1na2vs0mg"},{"bike_id":"ca1b5ebb-a98e-491d-bd88-b70456e19fba","system_id":"levelo_inurba_marseille","lat":43.276203,"lon":5.361266,"is_reserved":false,"is_disabled":false,"rental_uris":{"android":"levelo://app?vid=ca1b5ebb-a98e-491d-bd88-b70456e19fba","ios":"levelo://app?vid=ca1b5ebb-a98e-491d-bd88-b70456e19fba"},"vehicle_type_id":"4","last_reported":1741421325,"current_range_meters":4400,"station_id":"ce4bgj92rcd13ifvqbe0","pricing_plan_id":"cebpf4jnsgd1na2vs0mg"},{"bike_id":"023cc0e9-d30c-44e3-ab91-91789c99fd43","system_id":"levelo_inurba_marseille","lat":43.28144,"lon":5.39882,"is_reserved":false,"is_disabled":false,"rental_uris":{"android":"levelo://app?vid=023cc0e9-d30c-44e3-ab91-91789c99fd43","ios":"levelo://app?vid=023cc0e9-d30c-44e3-ab91-91789c99fd43"},"vehicle_type_id":"4","last_reported":1741421325,"current_range_meters":4400,"station_id":"","pricing_plan_id":"cebpf4jnsgd1na2vs0mg"},{"bike_id":"5a7dcbc3-86d4-4d96-8819-bfde5635cd39","system_id":"levelo_inurba_marseille","lat":43.313266,"lon":5.397011,"is_reserved":false,"is_disabled":false,"rental_uris":{"android":"levelo://app?vid=5a7dcbc3-86d4-4d96-8819-bfde5635cd39","ios":"levelo://app?vid=5a7dcbc3-86d4-4d96-8819-bfde5635cd39"},"vehicle_type_id":"4","last_reported":1741421325,"current_range_meters":4400,"station_id":"ce4bgvp2rcd13ifvqcu0","pricing_plan_id":"cebpf4jnsgd1na2vs0mg"},{"bike_id":"bb3cad49-1f44-4ca8-8b53-a9a721609bc8","system_id":"levelo_inurba_marseille","lat":43.31321,"lon":5.397,"is_reserved":false,"is_disabled":false,"rental_uris":{"android":"levelo://app?vid=bb3cad49-1f44-4ca8-8b53-a9a721609bc8","ios":"levelo://app?vid=bb3cad49-1f44-4ca8-8b53-a9a721609bc8"},"vehicle_type_id":"4","last_reported":1741421325,"current_range_meters":4800,"station_id":"ce4bgvp2rcd13ifvqcu0","pricing_plan_id":"cebpf4jnsgd1na2vs0mg"},{"bike_id":"73cc5456-8943-4526-8ec4-8dd8434c5e2d","system_id":"levelo_inurba_marseille","lat":43.23955,"lon":5.36649,"is_reserved":false,"is_disabled":false,"rental_uris":{"android":"levelo://app?vid=73cc5456-8943-4526-8ec4-8dd8434c5e2d","ios":"levelo://app?vid=73cc5456-8943-4526-8ec4-8dd8434c5e2d"},"vehicle_type_id":"4","last_reported":1741421325,"current_range_meters":4800,"station_id":"ce4bhi12rcd13ifvqfp0","pricing_plan_id":"cebpf4jnsgd1na2vs0mg"},{"bike_id":"43bc5e18-7bfb-4e30-b758-942e653f0d5a","system_id":"levelo_inurba_marseille","lat":43.24634,"lon":5.40269,"is_reserved":false,"is_disabled":false,"rental_uris":{"android":"levelo://app?vid=43bc5e18-7bfb-4e30-b758-942e653f0d5a","ios":"levelo://app?vid=43bc5e18-7bfb-4e30-b758-942e653f0d5a"},"vehicle_type_id":"4","last_reported":1741421325,"current_range_meters":4800,"station_id":"","pricing_plan_id":"cebpf4jnsgd1na2vs0mg"},{"bike_id":"143b74fc-ab7b-4910-8495-ffc1ad22971d","system_id":"levelo_inurba_marseille","lat":43.250088,"lon":5.389204,"is_reserved":false,"is_disabled":true,"rental_uris":{"android":"levelo://app?vid=143b74fc-ab7b-4910-8495-ffc1ad22971d","ios":"levelo://app?vid=143b74fc-ab7b-4910-8495-ffc1ad22971d"},"vehicle_type_id":"4","last_reported":1741421325,"current_range_meters":4800,"station_id":"ce4bhgp2rcd13ifvqfd0","pricing_plan_id":"cebpf4jnsgd1na2vs0mg"},{"bike_id":"c9151ceb-fd35-4b40-9877-b7757062111e","system_id":"levelo_inurba_marseille","lat":43.27822,"lon":5.40736,"is_reserved":false,"is_disabled":false,"rental_uris":{"android":"levelo://app?vid=c9151ceb-fd35-4b40-9877-b7757062111e","ios":"levelo://app?vid=c9151ceb-fd35-4b40-9877-b7757062111e"},"vehicle_type_id":"4","last_reported":1741421325,"current_range_meters":4800,"station_id":"ce4bhnh2rcd13ifvqgtg","pricing_plan_id":"cebpf4jnsgd1na2vs0mg"},{"bike_id":"c7b856f3-5384-43d0-9239-d897a865fee4","system_id":"levelo_inurba_marseille","lat":43.23059,"lon":5.35489,"is_reserved":false,"is_disabled":false,"rental_uris":{"android":"levelo://app?vid=c7b856f3-5384-43d0-9239-d897a865fee4","ios":"levelo://app?vid=c7b856f3-5384-43d0-9239-d897a865fee4"},"vehicle_type_id":"4","last_reported":1741421325,"current_range_meters":4800,"station_id":"cpo3342slgdg3j2ifvpg","pricing_plan_id":"cebpf4jnsgd1na2vs0mg"},{"bike_id":"50f5ca4f-a6ae-46f0-9d15-dbacaf8750a8","system_id":"levelo_inurba_marseille","lat":43.28982,"lon":5.37847,"is_reserved":false,"is_disabled":false,"rental_uris":{"android":"levelo://app?vid=50f5ca4f-a6ae-46f0-9d15-dbacaf8750a8","ios":"levelo://app?vid=50f5ca4f-a6ae-46f0-9d15-dbacaf8750a8"},"vehicle_type_id":"4","last_reported":1741421325,"current_range_meters":4800,"station_id":"ce4bh9p2rcd13ifvqed0","pricing_plan_id":"cebpf4jnsgd1na2vs0mg"},{"bike_id":"e82b73a7-d1ae-43c3-a107-e0b413d5ff48","system_id":"levelo_inurba_marseille","lat":43.3265,"lon":5.41006,"is_reserved":false,"is_disabled":false,"rental_uris":{"android":"levelo://app?vid=e82b73a7-d1ae-43c3-a107-e0b413d5ff48","ios":"levelo://app?vid=e82b73a7-d1ae-43c3-a107-e0b413d5ff48"},"vehicle_type_id":"4","last_reported":1741421325,"current_range_meters":4800,"station_id":"ce4bhpp2rcd13ifvqhgg","pricing_plan_id":"cebpf4jnsgd1na2vs0mg"},{"bike_id":"b189cad6-b42a-41b1-9d8e-4b9a01f1f838","system_id":"levelo_inurba_marseille","lat":43.29049,"lon":5.39963,"is_reserved":false,"is_disabled":false,"rental_uris":{"android":"levelo://app?vid=b189cad6-b42a-41b1-9d8e-4b9a01f1f838","ios":"levelo://app?vid=b189cad6-b42a-41b1-9d8e-4b9a01f1f838"},"vehicle_type_id":"4","last_reported":1741421325,"current_range_meters":5600,"station_id":"ce4bh392rcd13ifvqdm0","pricing_plan_id":"cebpf4jnsgd1na2vs0mg"},{"bike_id":"3332297b-ddda-468e-86eb-33cdac2c9b94","system_id":"levelo_inurba_marseille","lat":43.30355,"lon":5.41885,"is_reserved":false,"is_disabled":false,"rental_uris":{"android":"levelo://app?vid=3332297b-ddda-468e-86eb-33cdac2c9b94","ios":"levelo://app?vid=3332297b-ddda-468e-86eb-33cdac2c9b94"},"vehicle_type_id":"4","last_reported":1741421325,"current_range_meters":5600,"station_id":"ce4bhop2rcd13ifvqh7g","pricing_plan_id":"cebpf4jnsgd1na2vs0mg"},{"bike_id":"53ba06d6-3b6c-4f49-bc80-8f7e1937ded3","system_id":"levelo_inurba_marseille","lat":43.278982,"lon":5.412435,"is_reserved":false,"is_disabled":false,"rental_uris":{"android":"levelo://app?vid=53ba06d6-3b6c-4f49-bc80-8f7e1937ded3","ios":"levelo://app?vid=53ba06d6-3b6c-4f49-bc80-8f7e1937ded3"},"vehicle_type_id":"4","last_reported":1741421325,"current_range_meters":5600,"station_id":"","pricing_plan_id":"cebpf4jnsgd1na2vs0mg"},{"bike_id":"d6d8f87b-25ab-4e84-9c2a-1348cf230730","system_id":"levelo_inurba_marseille","lat":43.281538,"lon":5.402184,"is_reserved":false,"is_disabled":true,"rental_uris":{"android":"levelo://app?vid=d6d8f87b-25ab-4e84-9c2a-1348cf230730","ios":"levelo://app?vid=d6d8f87b-25ab-4e84-9c2a-1348cf230730"},"vehicle_type_id":"4","last_reported":1741421325,"current_range_meters":5600,"station_id":"","pricing_plan_id":"cebpf4jnsgd1na2vs0mg"},{"bike_id":"5ece6216-c140-461a-8332-f5b985568faf","system_id":"levelo_inurba_marseille","lat":43.27962,"lon":5.38714,"is_reserved":false,"is_disabled":false,"rental_uris":{"android":"levelo://app?vid=5ece6216-c140-461a-8332-f5b985568faf","ios":"levelo://app?vid=5ece6216-c140-461a-8332-f5b985568faf"},"vehicle_type_id":"4","last_reported":1741421325,"current_range_meters":5600,"station_id":"ce4bhg12rcd13ifvqf80","pricing_plan_id":"cebpf4jnsgd1na2vs0mg"},{"bike_id":"49e447c4-9df3-4fee-b11c-69e7b7cc6724","system_id":"levelo_inurba_marseille","lat":43.27659,"lon":5.38928,"is_reserved":false,"is_disabled":false,"rental_uris":{"android":"levelo://app?vid=49e447c4-9df3-4fee-b11c-69e7b7cc6724","ios":"levelo://app?vid=49e447c4-9df3-4fee-b11c-69e7b7cc6724"},"vehicle_type_id":"4","last_reported":1741421325,"current_range_meters":6000,"station_id":"ce4bhi12rcd13ifvqfo0","pricing_plan_id":"cebpf4jnsgd1na2vs0mg"},{"bike_id":"a8412a7a-010e-484a-b42c-cb34a76c7697","system_id":"levelo_inurba_marseille","lat":43.3267,"lon":5.40985,"is_reserved":false,"is_disabled":false,"rental_uris":{"android":"levelo://app?vid=a8412a7a-010e-484a-b42c-cb34a76c7697","ios":"levelo://app?vid=a8412a7a-010e-484a-b42c-cb34a76c7697"},"vehicle_type_id":"4","last_reported":1741421325,"current_range_meters":6000,"station_id":"ce4bhpp2rcd13ifvqhgg","pricing_plan_id":"cebpf4jnsgd1na2vs0mg"},{"bike_id":"47136122-5181-47cf-87a8-d1e744325349","system_id":"levelo_inurba_marseille","lat":43.2942,"lon":5.38609,"is_reserved":false,"is_disabled":false,"rental_uris":{"android":"levelo://app?vid=47136122-5181-47cf-87a8-d1e744325349","ios":"levelo://app?vid=47136122-5181-47cf-87a8-d1e744325349"},"vehicle_type_id":"4","last_reported":1741421325,"current_range_meters":6000,"station_id":"ce4bh2h2rcd13ifvqdh0","pricing_plan_id":"cebpf4jnsgd1na2vs0mg"},{"bike_id":"72ad35d5-229e-4395-b775-8a505aad1b5e","system_id":"levelo_inurba_marseille","lat":43.276164,"lon":5.361139,"is_reserved":false,"is_disabled":false,"rental_uris":{"android":"levelo://app?vid=72ad35d5-229e-4395-b775-8a505aad1b5e","ios":"levelo://app?vid=72ad35d5-229e-4395-b775-8a505aad1b5e"},"vehicle_type_id":"4","last_reported":1741421325,"current_range_meters":6000,"station_id":"ce4bgj92rcd13ifvqbe0","pricing_plan_id":"cebpf4jnsgd1na2vs0mg"},{"bike_id":"3a090aba-8792-4e90-ae22-5154f3f7f1bc","system_id":"levelo_inurba_marseille","lat":43.32102,"lon":5.36808,"is_reserved":false,"is_disabled":false,"rental_uris":{"android":"levelo://app?vid=3a090aba-8792-4e90-ae22-5154f3f7f1bc","ios":"levelo://app?vid=3a090aba-8792-4e90-ae22-5154f3f7f1bc"},"vehicle_type_id":"4","last_reported":1741421325,"current_range_meters":6000,"station_id":"ce4bhrh2rcd13ifvqhug","pricing_plan_id":"cebpf4jnsgd1na2vs0mg"},{"bike_id":"a45eda30-93db-4cd6-bc29-df6c0e7b5378","system_id":"levelo_inurba_marseille","lat":43.23966,"lon":5.36617,"is_reserved":false,"is_disabled":false,"rental_uris":{"android":"levelo://app?vid=a45eda30-93db-4cd6-bc29-df6c0e7b5378","ios":"levelo://app?vid=a45eda30-93db-4cd6-bc29-df6c0e7b5378"},"vehicle_type_id":"4","last_reported":1741421325,"current_range_meters":6400,"station_id":"ce4bhi12rcd13ifvqfp0","pricing_plan_id":"cebpf4jnsgd1na2vs0mg"},{"bike_id":"3f60858d-19a4-4d90-b076-d0db701352bd","system_id":"levelo_inurba_marseille","lat":43.30315,"lon":5.40463,"is_reserved":false,"is_disabled":false,"rental_uris":{"android":"levelo://app?vid=3f60858d-19a4-4d90-b076-d0db701352bd","ios":"levelo://app?vid=3f60858d-19a4-4d90-b076-d0db701352bd"},"vehicle_type_id":"4","last_reported":1741421325,"current_range_meters":6400,"station_id":"ce4bh012rcd13ifvqd10","pricing_plan_id":"cebpf4jnsgd1na2vs0mg"},{"bike_id":"35130f87-b313-43ca-86df-0e44026654c1","system_id":"levelo_inurba_marseille","lat":43.30818,"lon":5.38048,"is_reserved":false,"is_disabled":false,"rental_uris":{"android":"levelo://app?vid=35130f87-b313-43ca-86df-0e44026654c1","ios":"levelo://app?vid=35130f87-b313-43ca-86df-0e44026654c1"},"vehicle_type_id":"4","last_reported":1741421325,"current_range_meters":6400,"station_id":"","pricing_plan_id":"cebpf4jnsgd1na2vs0mg"},{"bike_id":"979987e2-dfc4-42fc-8f32-b517c3f9a62d","system_id":"levelo_inurba_marseille","lat":43.284345,"lon":5.391939,"is_reserved":false,"is_disabled":false,"rental_uris":{"android":"levelo://app?vid=979987e2-dfc4-42fc-8f32-b517c3f9a62d","ios":"levelo://app?vid=979987e2-dfc4-42fc-8f32-b517c3f9a62d"},"vehicle_type_id":"4","last_reported":1741421325,"current_range_meters":6400,"station_id":"ce4bhoh2rcd13ifvqh5g","pricing_plan_id":"cebpf4jnsgd1na2vs0mg"},{"bike_id":"75881a35-738a-4140-bcbe-13738ae5e680","system_id":"levelo_inurba_marseille","lat":43.29039,"lon":5.39955,"is_reserved":false,"is_disabled":false,"rental_uris":{"android":"levelo://app?vid=75881a35-738a-4140-bcbe-13738ae5e680","ios":"levelo://app?vid=75881a35-738a-4140-bcbe-13738ae5e680"},"vehicle_type_id":"4","last_reported":1741421325,"current_range_meters":6400,"station_id":"ce4bh392rcd13ifvqdm0","pricing_plan_id":"cebpf4jnsgd1na2vs0mg"},{"bike_id":"df1135d9-71e6-431d-9f57-cc8492b2b7bf","system_id":"levelo_inurba_marseille","lat":43.29931,"lon":5.36545,"is_reserved":false,"is_disabled":false,"rental_uris":{"android":"levelo://app?vid=df1135d9-71e6-431d-9f57-cc8492b2b7bf","ios":"levelo://app?vid=df1135d9-71e6-431d-9f57-cc8492b2b7bf"},"vehicle_type_id":"4","last_reported":1741421325,"current_range_meters":6800,"station_id":"ce4bgm92rcd13ifvqbr0","pricing_plan_id":"cebpf4jnsgd1na2vs0mg"},{"bike_id":"0af30f24-954a-46d7-b033-51d52f807b8c","system_id":"levelo_inurba_marseille","lat":43.25002,"lon":5.38927,"is_reserved":false,"is_disabled":false,"rental_uris":{"android":"levelo://app?vid=0af30f24-954a-46d7-b033-51d52f807b8c","ios":"levelo://app?vid=0af30f24-954a-46d7-b033-51d52f807b8c"},"vehicle_type_id":"4","last_reported":1741421325,"current_range_meters":6800,"station_id":"ce4bhgp2rcd13ifvqfd0","pricing_plan_id":"cebpf4jnsgd1na2vs0mg"},{"bike_id":"e97fa5ad-0900-4543-9049-806f928acaa4","system_id":"levelo_inurba_marseille","lat":43.28994,"lon":5.3783,"is_reserved":false,"is_disabled":false,"rental_uris":{"android":"levelo://app?vid=e97fa5ad-0900-4543-9049-806f928acaa4","ios":"levelo://app?vid=e97fa5ad-0900-4543-9049-806f928acaa4"},"vehicle_type_id":"4","last_reported":1741421325,"current_range_meters":6800,"station_id":"ce4bh9p2rcd13ifvqed0","pricing_plan_id":"cebpf4jnsgd1na2vs0mg"},{"bike_id":"b2cada68-d22d-4962-a15a-eab832155af1","system_id":"levelo_inurba_marseille","lat":43.31362,"lon":5.39738,"is_reserved":false,"is_disabled":false,"rental_uris":{"android":"levelo://app?vid=b2cada68-d22d-4962-a15a-eab832155af1","ios":"levelo://app?vid=b2cada68-d22d-4962-a15a-eab832155af1"},"vehicle_type_id":"4","last_reported":1741421325,"current_range_meters":6800,"station_id":"","pricing_plan_id":"cebpf4jnsgd1na2vs0mg"},{"bike_id":"b68a5300-e50a-412b-b025-bde7e19054bf","system_id":"levelo_inurba_marseille","lat":43.290436,"lon":5.381242,"is_reserved":false,"is_disabled":false,"rental_uris":{"android":"levelo://app?vid=b68a5300-e50a-412b-b025-bde7e19054bf","ios":"levelo://app?vid=b68a5300-e50a-412b-b025-bde7e19054bf"},"vehicle_type_id":"4","last_reported":1741421325,"current_range_meters":6800,"station_id":"ce4bh512rcd13ifvqe2g","pricing_plan_id":"cebpf4jnsgd1na2vs0mg"},{"bike_id":"54dd401d-68e9-4373-b878-02cc9c29a6fc","system_id":"levelo_inurba_marseille","lat":43.310766,"lon":5.383478,"is_reserved":false,"is_disabled":false,"rental_uris":{"android":"levelo://app?vid=54dd401d-68e9-4373-b878-02cc9c29a6fc","ios":"levelo://app?vid=54dd401d-68e9-4373-b878-02cc9c29a6fc"},"vehicle_type_id":"4","last_reported":1741421325,"current_range_meters":6800,"station_id":"ce4bgv92rcd13ifvqcr0","pricing_plan_id":"cebpf4jnsgd1na2vs0mg"},{"bike_id":"54868156-3501-4485-b64a-600156c1037f","system_id":"levelo_inurba_marseille","lat":43.24664,"lon":5.38206,"is_reserved":false,"is_disabled":false,"rental_uris":{"android":"levelo://app?vid=54868156-3501-4485-b64a-600156c1037f","ios":"levelo://app?vid=54868156-3501-4485-b64a-600156c1037f"},"vehicle_type_id":"4","last_reported":1741421325,"current_range_meters":6800,"station_id":"ce4bhih2rcd13ifvqfr0","pricing_plan_id":"cebpf4jnsgd1na2vs0mg"},{"bike_id":"62391f34-3130-43d3-9ff9-87e80b4db075","system_id":"levelo_inurba_marseille","lat":43.32153,"lon":5.36918,"is_reserved":false,"is_disabled":false,"rental_uris":{"android":"levelo://app?vid=62391f34-3130-43d3-9ff9-87e80b4db075","ios":"levelo://app?vid=62391f34-3130-43d3-9ff9-87e80b4db075"},"vehicle_type_id":"4","last_reported":1741421325,"current_range_meters":7200,"station_id":"","pricing_plan_id":"cebpf4jnsgd1na2vs0mg"},{"bike_id":"51510a95-54e3-4b84-9b22-bfa3391426f3","system_id":"levelo_inurba_marseille","lat":43.23212,"lon":5.35573,"is_reserved":false,"is_disabled":false,"rental_uris":{"android":"levelo://app?vid=51510a95-54e3-4b84-9b22-bfa3391426f3","ios":"levelo://app?vid=51510a95-54e3-4b84-9b22-bfa3391426f3"},"vehicle_type_id":"4","last_reported":1741421325,"current_range_meters":7200,"station_id":"ce4bhu92rcd13ifvqi70","pricing_plan_id":"cebpf4jnsgd1na2vs0mg"},{"bike_id":"1f1b69c5-067d-4677-a02d-6299a5fc1bb9","system_id":"levelo_inurba_marseille","lat":43.23973,"lon":5.36621,"is_reserved":false,"is_disabled":false,"rental_uris":{"android":"levelo://app?vid=1f1b69c5-067d-4677-a02d-6299a5fc1bb9","ios":"levelo://app?vid=1f1b69c5-067d-4677-a02d-6299a5fc1bb9"},"vehicle_type_id":"4","last_reported":1741421325,"current_range_meters":7200,"station_id":"ce4bhi12rcd13ifvqfp0","pricing_plan_id":"cebpf4jnsgd1na2vs0mg"},{"bike_id":"c9723caa-a021-462e-9ea1-3988c00ce85c","system_id":"levelo_inurba_marseille","lat":43.28459,"lon":5.35877,"is_reserved":false,"is_disabled":false,"rental_uris":{"android":"levelo://app?vid=c9723caa-a021-462e-9ea1-3988c00ce85c","ios":"levelo://app?vid=c9723caa-a021-462e-9ea1-3988c00ce85c"},"vehicle_type_id":"4","last_reported":1741421325,"current_range_meters":7200,"station_id":"ce4bhah2rcd13ifvqei0","pricing_plan_id":"cebpf4jnsgd1na2vs0mg"},{"bike_id":"5a6842ae-c0b9-41cc-a935-1573a6ab60b1","system_id":"levelo_inurba_marseille","lat":43.29869,"lon":5.36232,"is_reserved":false,"is_disabled":false,"rental_uris":{"android":"levelo://app?vid=5a6842ae-c0b9-41cc-a935-1573a6ab60b1","ios":"levelo://app?vid=5a6842ae-c0b9-41cc-a935-1573a6ab60b1"},"vehicle_type_id":"4","last_reported":1741421325,"current_range_meters":7200,"station_id":"ce4bgpp2rcd13ifvqc3g","pricing_plan_id":"cebpf4jnsgd1na2vs0mg"},{"bike_id":"7b5f97b7-1674-45a7-ab0f-2a238fa04db1","system_id":"levelo_inurba_marseille","lat":43.32323,"lon":5.4061,"is_reserved":false,"is_disabled":false,"rental_uris":{"android":"levelo://app?vid=7b5f97b7-1674-45a7-ab0f-2a238fa04db1","ios":"levelo://app?vid=7b5f97b7-1674-45a7-ab0f-2a238fa04db1"},"vehicle_type_id":"4","last_reported":1741421325,"current_range_meters":8000,"station_id":"ce4bhq92rcd13ifvqhjg","pricing_plan_id":"cebpf4jnsgd1na2vs0mg"},{"bike_id":"228c14e7-ee76-4f7b-9cf2-3d60557e8af9","system_id":"levelo_inurba_marseille","lat":43.23154,"lon":5.43714,"is_reserved":false,"is_disabled":false,"rental_uris":{"android":"levelo://app?vid=228c14e7-ee76-4f7b-9cf2-3d60557e8af9","ios":"levelo://app?vid=228c14e7-ee76-4f7b-9cf2-3d60557e8af9"},"vehicle_type_id":"4","last_reported":1741421325,"current_range_meters":8000,"station_id":"ce4bhmp2rcd13ifvqgog","pricing_plan_id":"cebpf4jnsgd1na2vs0mg"},{"bike_id":"d16b4063-55dc-4066-b4f3-6329c6701757","system_id":"levelo_inurba_marseille","lat":43.2407,"lon":5.37763,"is_reserved":false,"is_disabled":false,"rental_uris":{"android":"levelo://app?vid=d16b4063-55dc-4066-b4f3-6329c6701757","ios":"levelo://app?vid=d16b4063-55dc-4066-b4f3-6329c6701757"},"vehicle_type_id":"4","last_reported":1741421325,"current_range_meters":8000,"station_id":"ce4bhnp2rcd13ifvqgvg","pricing_plan_id":"cebpf4jnsgd1na2vs0mg"},{"bike_id":"59ef7ab1-f072-4315-9e2a-a3482cc569d5","system_id":"levelo_inurba_marseille","lat":43.29889,"lon":5.43666,"is_reserved":false,"is_disabled":false,"rental_uris":{"android":"levelo://app?vid=59ef7ab1-f072-4315-9e2a-a3482cc569d5","ios":"levelo://app?vid=59ef7ab1-f072-4315-9e2a-a3482cc569d5"},"vehicle_type_id":"4","last_reported":1741421325,"current_range_meters":8000,"station_id":"ce4bhpp2rcd13ifvqhfg","pricing_plan_id":"cebpf4jnsgd1na2vs0mg"},{"bike_id":"a6639f99-e13b-44f9-91cd-0038654bbc9d","system_id":"levelo_inurba_marseille","lat":43.30802,"lon":5.38156,"is_reserved":false,"is_disabled":false,"rental_uris":{"android":"levelo://app?vid=a6639f99-e13b-44f9-91cd-0038654bbc9d","ios":"levelo://app?vid=a6639f99-e13b-44f9-91cd-0038654bbc9d"},"vehicle_type_id":"4","last_reported":1741421325,"current_range_meters":8000,"station_id":"ce4bgt12rcd13ifvqce0","pricing_plan_id":"cebpf4jnsgd1na2vs0mg"},{"bike_id":"a0064ca1-11b8-4ea4-8af4-fd4364d07a7b","system_id":"levelo_inurba_marseille","lat":43.27496,"lon":5.42457,"is_reserved":false,"is_disabled":false,"rental_uris":{"android":"levelo://app?vid=a0064ca1-11b8-4ea4-8af4-fd4364d07a7b","ios":"levelo://app?vid=a0064ca1-11b8-4ea4-8af4-fd4364d07a7b"},"vehicle_type_id":"4","last_reported":1741421325,"current_range_meters":8000,"station_id":"ce4bhn92rcd13ifvqgrg","pricing_plan_id":"cebpf4jnsgd1na2vs0mg"},{"bike_id":"88315901-c9a6-41af-ab68-786f17caae47","system_id":"levelo_inurba_marseille","lat":43.2796,"lon":5.38735,"is_reserved":false,"is_disabled":false,"rental_uris":{"android":"levelo://app?vid=88315901-c9a6-41af-ab68-786f17caae47","ios":"levelo://app?vid=88315901-c9a6-41af-ab68-786f17caae47"},"vehicle_type_id":"4","last_reported":1741421325,"current_range_meters":8000,"station_id":"ce4bhg12rcd13ifvqf80","pricing_plan_id":"cebpf4jnsgd1na2vs0mg"},{"bike_id":"bd1ca430-15b2-40f5-ab85-6f767aed8061","system_id":"levelo_inurba_marseille","lat":43.23065,"lon":5.35516,"is_reserved":false,"is_disabled":false,"rental_uris":{"android":"levelo://app?vid=bd1ca430-15b2-40f5-ab85-6f767aed8061","ios":"levelo://app?vid=bd1ca430-15b2-40f5-ab85-6f767aed8061"},"vehicle_type_id":"4","last_reported":1741421325,"current_range_meters":8000,"station_id":"cpo3342slgdg3j2ifvpg","pricing_plan_id":"cebpf4jnsgd1na2vs0mg"},{"bike_id":"086d469f-dff5-4ec5-8e53-42a42c799cc9","system_id":"levelo_inurba_marseille","lat":43.295559,"lon":5.422927,"is_reserved":false,"is_disabled":false,"rental_uris":{"android":"levelo://app?vid=086d469f-dff5-4ec5-8e53-42a42c799cc9","ios":"levelo://app?vid=086d469f-dff5-4ec5-8e53-42a42c799cc9"},"vehicle_type_id":"4","last_reported":1741421325,"current_range_meters":8000,"station_id":"ce4bhph2rcd13ifvqhdg","pricing_plan_id":"cebpf4jnsgd1na2vs0mg"},{"bike_id":"904a8371-ebed-45e5-8cc3-b64b65860481","system_id":"levelo_inurba_marseille","lat":43.31714,"lon":5.37764,"is_reserved":false,"is_disabled":false,"rental_uris":{"android":"levelo://app?vid=904a8371-ebed-45e5-8cc3-b64b65860481","ios":"levelo://app?vid=904a8371-ebed-45e5-8cc3-b64b65860481"},"vehicle_type_id":"4","last_reported":1741421325,"current_range_meters":8000,"station_id":"ce4bgth2rcd13ifvqch0","pricing_plan_id":"cebpf4jnsgd1na2vs0mg"},{"bike_id":"71aa6c10-92c8-46fa-9b26-7d2f3112c4a7","system_id":"levelo_inurba_marseille","lat":43.29016,"lon":5.37821,"is_reserved":false,"is_disabled":false,"rental_uris":{"android":"levelo://app?vid=71aa6c10-92c8-46fa-9b26-7d2f3112c4a7","ios":"levelo://app?vid=71aa6c10-92c8-46fa-9b26-7d2f3112c4a7"},"vehicle_type_id":"4","last_reported":1741421325,"current_range_meters":8000,"station_id":"ce4bh9p2rcd13ifvqed0","pricing_plan_id":"cebpf4jnsgd1na2vs0mg"},{"bike_id":"67e94c61-e7ab-42f6-adc4-4f5482dd7f96","system_id":"levelo_inurba_marseille","lat":43.23185,"lon":5.39979,"is_reserved":false,"is_disabled":false,"rental_uris":{"android":"levelo://app?vid=67e94c61-e7ab-42f6-adc4-4f5482dd7f96","ios":"levelo://app?vid=67e94c61-e7ab-42f6-adc4-4f5482dd7f96"},"vehicle_type_id":"4","last_reported":1741421325,"current_range_meters":8000,"station_id":"ce4bhn12rcd13ifvqgqg","pricing_plan_id":"cebpf4jnsgd1na2vs0mg"},{"bike_id":"d48130b3-37bc-4a44-a1a5-703b23f990ba","system_id":"levelo_inurba_marseille","lat":43.29266,"lon":5.36888,"is_reserved":false,"is_disabled":true,"rental_uris":{"android":"levelo://app?vid=d48130b3-37bc-4a44-a1a5-703b23f990ba","ios":"levelo://app?vid=d48130b3-37bc-4a44-a1a5-703b23f990ba"},"vehicle_type_id":"4","last_reported":1741421325,"current_range_meters":8000,"station_id":"ce4bhbp2rcd13ifvqesg","pricing_plan_id":"cebpf4jnsgd1na2vs0mg"},{"bike_id":"6105c00a-6a00-4712-879c-7310584d8193","system_id":"levelo_inurba_marseille","lat":43.29057,"lon":5.39916,"is_reserved":false,"is_disabled":false,"rental_uris":{"android":"levelo://app?vid=6105c00a-6a00-4712-879c-7310584d8193","ios":"levelo://app?vid=6105c00a-6a00-4712-879c-7310584d8193"},"vehicle_type_id":"4","last_reported":1741421325,"current_range_meters":8000,"station_id":"ce4bh392rcd13ifvqdm0","pricing_plan_id":"cebpf4jnsgd1na2vs0mg"},{"bike_id":"614a7087-f4a8-4d81-aec9-42c73e7dc999","system_id":"levelo_inurba_marseille","lat":43.28441,"lon":5.3842,"is_reserved":false,"is_disabled":false,"rental_uris":{"android":"levelo://app?vid=614a7087-f4a8-4d81-aec9-42c73e7dc999","ios":"levelo://app?vid=614a7087-f4a8-4d81-aec9-42c73e7dc999"},"vehicle_type_id":"4","last_reported":1741421325,"current_range_meters":8400,"station_id":"ce4bh512rcd13ifvqe3g","pricing_plan_id":"cebpf4jnsgd1na2vs0mg"},{"bike_id":"f6be68ab-9cb2-44d7-afdd-542a6e777840","system_id":"levelo_inurba_marseille","lat":43.29628,"lon":5.40595,"is_reserved":false,"is_disabled":false,"rental_uris":{"android":"levelo://app?vid=f6be68ab-9cb2-44d7-afdd-542a6e777840","ios":"levelo://app?vid=f6be68ab-9cb2-44d7-afdd-542a6e777840"},"vehicle_type_id":"4","last_reported":1741421325,"current_range_meters":8400,"station_id":"ce4bh0h2rcd13ifvqd60","pricing_plan_id":"cebpf4jnsgd1na2vs0mg"},{"bike_id":"fb60a980-d328-41e8-aa92-3a872b6bdff6","system_id":"levelo_inurba_marseille","lat":43.309377,"lon":5.401613,"is_reserved":false,"is_disabled":false,"rental_uris":{"android":"levelo://app?vid=fb60a980-d328-41e8-aa92-3a872b6bdff6","ios":"levelo://app?vid=fb60a980-d328-41e8-aa92-3a872b6bdff6"},"vehicle_type_id":"4","last_reported":1741421325,"current_range_meters":8400,"station_id":"ce4bgvp2rcd13ifvqct0","pricing_plan_id":"cebpf4jnsgd1na2vs0mg"},{"bike_id":"4d517a9e-ab79-4f8b-954d-3480d9f209ce","system_id":"levelo_inurba_marseille","lat":43.29706,"lon":5.37704,"is_reserved":false,"is_disabled":false,"rental_uris":{"android":"levelo://app?vid=4d517a9e-ab79-4f8b-954d-3480d9f209ce","ios":"levelo://app?vid=4d517a9e-ab79-4f8b-954d-3480d9f209ce"},"vehicle_type_id":"4","last_reported":1741421325,"current_range_meters":8400,"station_id":"ce4bgkh2rcd13ifvqbl0","pricing_plan_id":"cebpf4jnsgd1na2vs0mg"},{"bike_id":"3047e59d-f1cb-465b-b6cd-b5c66d974104","system_id":"levelo_inurba_marseille","lat":43.26049,"lon":5.39411,"is_reserved":false,"is_disabled":false,"rental_uris":{"android":"levelo://app?vid=3047e59d-f1cb-465b-b6cd-b5c66d974104","ios":"levelo://app?vid=3047e59d-f1cb-465b-b6cd-b5c66d974104"},"vehicle_type_id":"4","last_reported":1741421325,"current_range_meters":8400,"station_id":"ce4bhh92rcd13ifvqfj0","pricing_plan_id":"cebpf4jnsgd1na2vs0mg"},{"bike_id":"daa48c53-c5de-46aa-94fc-655cbd710c8c","system_id":"levelo_inurba_marseille","lat":43.22931,"lon":5.35387,"is_reserved":false,"is_disabled":false,"rental_uris":{"android":"levelo://app?vid=daa48c53-c5de-46aa-94fc-655cbd710c8c","ios":"levelo://app?vid=daa48c53-c5de-46aa-94fc-655cbd710c8c"},"vehicle_type_id":"4","last_reported":1741421325,"current_range_meters":8400,"station_id":"cpo3532slgdg3j2ikp40","pricing_plan_id":"cebpf4jnsgd1na2vs0mg"},{"bike_id":"67a06def-8841-4af6-bc40-592ac0712e97","system_id":"levelo_inurba_marseille","lat":43.31531,"lon":5.38032,"is_reserved":false,"is_disabled":false,"rental_uris":{"android":"levelo://app?vid=67a06def-8841-4af6-bc40-592ac0712e97","ios":"levelo://app?vid=67a06def-8841-4af6-bc40-592ac0712e97"},"vehicle_type_id":"4","last_reported":1741421325,"current_range_meters":8800,"station_id":"ce4bhsp2rcd13ifvqi50","pricing_plan_id":"cebpf4jnsgd1na2vs0mg"},{"bike_id":"aae44d1b-d265-4f47-b2f3-12ade30c6b9c","system_id":"levelo_inurba_marseille","lat":43.30256,"lon":5.39403,"is_reserved":false,"is_disabled":false,"rental_uris":{"android":"levelo://app?vid=aae44d1b-d265-4f47-b2f3-12ade30c6b9c","ios":"levelo://app?vid=aae44d1b-d265-4f47-b2f3-12ade30c6b9c"},"vehicle_type_id":"4","last_reported":1741421325,"current_range_meters":8800,"station_id":"","pricing_plan_id":"cebpf4jnsgd1na2vs0mg"},{"bike_id":"9aaf7108-40c9-464f-ba54-b07198205b5d","system_id":"levelo_inurba_marseille","lat":43.31686,"lon":5.40482,"is_reserved":false,"is_disabled":false,"rental_uris":{"android":"levelo://app?vid=9aaf7108-40c9-464f-ba54-b07198205b5d","ios":"levelo://app?vid=9aaf7108-40c9-464f-ba54-b07198205b5d"},"vehicle_type_id":"4","last_reported":1741421325,"current_range_meters":8800,"station_id":"ce4bh012rcd13ifvqd00","pricing_plan_id":"cebpf4jnsgd1na2vs0mg"},{"bike_id":"accdcb62-8c05-4506-9ad4-05b193a7d8c9","system_id":"levelo_inurba_marseille","lat":43.27983,"lon":5.41649,"is_reserved":false,"is_disabled":false,"rental_uris":{"android":"levelo://app?vid=accdcb62-8c05-4506-9ad4-05b193a7d8c9","ios":"levelo://app?vid=accdcb62-8c05-4506-9ad4-05b193a7d8c9"},"vehicle_type_id":"4","last_reported":1741421325,"current_range_meters":8800,"station_id":"ce4bho12rcd13ifvqh1g","pricing_plan_id":"cebpf4jnsgd1na2vs0mg"},{"bike_id":"7b62c62b-d961-49e1-afe1-b0b21a291801","system_id":"levelo_inurba_marseille","lat":43.27848,"lon":5.41764,"is_reserved":false,"is_disabled":true,"rental_uris":{"android":"levelo://app?vid=7b62c62b-d961-49e1-afe1-b0b21a291801","ios":"levelo://app?vid=7b62c62b-d961-49e1-afe1-b0b21a291801"},"vehicle_type_id":"4","last_reported":1741421325,"current_range_meters":8800,"station_id":"","pricing_plan_id":"cebpf4jnsgd1na2vs0mg"},{"bike_id":"8009abed-8ef3-4add-b3ea-8c956dff9a9a","system_id":"levelo_inurba_marseille","lat":43.30138,"lon":5.38781,"is_reserved":false,"is_disabled":false,"rental_uris":{"android":"levelo://app?vid=8009abed-8ef3-4add-b3ea-8c956dff9a9a","ios":"levelo://app?vid=8009abed-8ef3-4add-b3ea-8c956dff9a9a"},"vehicle_type_id":"4","last_reported":1741421325,"current_range_meters":9200,"station_id":"ce4bghh2rcd13ifvqb60","pricing_plan_id":"cebpf4jnsgd1na2vs0mg"},{"bike_id":"b6865d90-a821-406a-8f81-68a973482a93","system_id":"levelo_inurba_marseille","lat":43.30961,"lon":5.40166,"is_reserved":false,"is_disabled":false,"rental_uris":{"android":"levelo://app?vid=b6865d90-a821-406a-8f81-68a973482a93","ios":"levelo://app?vid=b6865d90-a821-406a-8f81-68a973482a93"},"vehicle_type_id":"4","last_reported":1741421325,"current_range_meters":8800,"station_id":"ce4bgvp2rcd13ifvqct0","pricing_plan_id":"cebpf4jnsgd1na2vs0mg"},{"bike_id":"60fba7df-4520-4d63-9c5b-9a7a002cedfb","system_id":"levelo_inurba_marseille","lat":43.28055,"lon":5.39144,"is_reserved":false,"is_disabled":false,"rental_uris":{"android":"levelo://app?vid=60fba7df-4520-4d63-9c5b-9a7a002cedfb","ios":"levelo://app?vid=60fba7df-4520-4d63-9c5b-9a7a002cedfb"},"vehicle_type_id":"4","last_reported":1741421325,"current_range_meters":8800,"station_id":"","pricing_plan_id":"cebpf4jnsgd1na2vs0mg"},{"bike_id":"6e495f08-0359-415b-a6d0-7827c5b65999","system_id":"levelo_inurba_marseille","lat":43.31063,"lon":5.38353,"is_reserved":false,"is_disabled":false,"rental_uris":{"android":"levelo://app?vid=6e495f08-0359-415b-a6d0-7827c5b65999","ios":"levelo://app?vid=6e495f08-0359-415b-a6d0-7827c5b65999"},"vehicle_type_id":"4","last_reported":1741421325,"current_range_meters":8800,"station_id":"ce4bgv92rcd13ifvqcr0","pricing_plan_id":"cebpf4jnsgd1na2vs0mg"},{"bike_id":"01a6afe2-d645-4130-8890-22799000c76a","system_id":"levelo_inurba_marseille","lat":43.28005,"lon":5.40004,"is_reserved":false,"is_disabled":false,"rental_uris":{"android":"levelo://app?vid=01a6afe2-d645-4130-8890-22799000c76a","ios":"levelo://app?vid=01a6afe2-d645-4130-8890-22799000c76a"},"vehicle_type_id":"4","last_reported":1741421325,"current_range_meters":8800,"station_id":"ce4bho92rcd13ifvqh4g","pricing_plan_id":"cebpf4jnsgd1na2vs0mg"},{"bike_id":"4ce1148f-94dc-4742-8f6c-b798d2b0023b","system_id":"levelo_inurba_marseille","lat":43.27998,"lon":5.41652,"is_reserved":false,"is_disabled":false,"rental_uris":{"android":"levelo://app?vid=4ce1148f-94dc-4742-8f6c-b798d2b0023b","ios":"levelo://app?vid=4ce1148f-94dc-4742-8f6c-b798d2b0023b"},"vehicle_type_id":"4","last_reported":1741421325,"current_range_meters":8800,"station_id":"ce4bho12rcd13ifvqh1g","pricing_plan_id":"cebpf4jnsgd1na2vs0mg"},{"bike_id":"1afdf865-9f6c-4bea-99fe-f8f2d36b2395","system_id":"levelo_inurba_marseille","lat":43.26187,"lon":5.37951,"is_reserved":false,"is_disabled":false,"rental_uris":{"android":"levelo://app?vid=1afdf865-9f6c-4bea-99fe-f8f2d36b2395","ios":"levelo://app?vid=1afdf865-9f6c-4bea-99fe-f8f2d36b2395"},"vehicle_type_id":"4","last_reported":1741421325,"current_range_meters":8800,"station_id":"ce4bhjp2rcd13ifvqg90","pricing_plan_id":"cebpf4jnsgd1na2vs0mg"},{"bike_id":"86f827c8-2eac-42a7-ae81-71829af00d33","system_id":"levelo_inurba_marseille","lat":43.29579,"lon":5.37514,"is_reserved":false,"is_disabled":false,"rental_uris":{"android":"levelo://app?vid=86f827c8-2eac-42a7-ae81-71829af00d33","ios":"levelo://app?vid=86f827c8-2eac-42a7-ae81-71829af00d33"},"vehicle_type_id":"4","last_reported":1741421325,"current_range_meters":8800,"station_id":"ce4bgh92rcd13ifvqb50","pricing_plan_id":"cebpf4jnsgd1na2vs0mg"},{"bike_id":"d7cfe9af-c3c6-4e9b-afff-ab6e19b29b2a","system_id":"levelo_inurba_marseille","lat":43.26559,"lon":5.39015,"is_reserved":false,"is_disabled":false,"rental_uris":{"android":"levelo://app?vid=d7cfe9af-c3c6-4e9b-afff-ab6e19b29b2a","ios":"levelo://app?vid=d7cfe9af-c3c6-4e9b-afff-ab6e19b29b2a"},"vehicle_type_id":"4","last_reported":1741421325,"current_range_meters":9200,"station_id":"ce4bhe12rcd13ifvqf30","pricing_plan_id":"cebpf4jnsgd1na2vs0mg"},{"bike_id":"db7cd95b-0159-457d-aa08-f78ad0493427","system_id":"levelo_inurba_marseille","lat":43.32359,"lon":5.38882,"is_reserved":false,"is_disabled":false,"rental_uris":{"android":"levelo://app?vid=db7cd95b-0159-457d-aa08-f78ad0493427","ios":"levelo://app?vid=db7cd95b-0159-457d-aa08-f78ad0493427"},"vehicle_type_id":"4","last_reported":1741421325,"current_range_meters":9200,"station_id":"ce4bhqp2rcd13ifvqhog","pricing_plan_id":"cebpf4jnsgd1na2vs0mg"},{"bike_id":"c431da30-a9a9-4b95-8e9b-f032fccb58f5","system_id":"levelo_inurba_marseille","lat":43.3059,"lon":5.37222,"is_reserved":false,"is_disabled":false,"rental_uris":{"android":"levelo://app?vid=c431da30-a9a9-4b95-8e9b-f032fccb58f5","ios":"levelo://app?vid=c431da30-a9a9-4b95-8e9b-f032fccb58f5"},"vehicle_type_id":"4","last_reported":1741421325,"current_range_meters":9200,"station_id":"","pricing_plan_id":"cebpf4jnsgd1na2vs0mg"},{"bike_id":"93ffcf42-62d1-405d-9fbb-65480462b3b0","system_id":"levelo_inurba_marseille","lat":43.30465,"lon":5.37909,"is_reserved":false,"is_disabled":false,"rental_uris":{"android":"levelo://app?vid=93ffcf42-62d1-405d-9fbb-65480462b3b0","ios":"levelo://app?vid=93ffcf42-62d1-405d-9fbb-65480462b3b0"},"vehicle_type_id":"4","last_reported":1741421325,"current_range_meters":9200,"station_id":"ce4bgup2rcd13ifvqcn0","pricing_plan_id":"cebpf4jnsgd1na2vs0mg"},{"bike_id":"63e6b2b0-8c04-48fa-b2f7-e73ce8a29afe","system_id":"levelo_inurba_marseille","lat":43.26492,"lon":5.39552,"is_reserved":false,"is_disabled":false,"rental_uris":{"android":"levelo://app?vid=63e6b2b0-8c04-48fa-b2f7-e73ce8a29afe","ios":"levelo://app?vid=63e6b2b0-8c04-48fa-b2f7-e73ce8a29afe"},"vehicle_type_id":"4","last_reported":1741421325,"current_range_meters":9200,"station_id":"ce4bhi12rcd13ifvqfq0","pricing_plan_id":"cebpf4jnsgd1na2vs0mg"},{"bike_id":"ae99eef4-0d01-432b-b9f3-30beda5f0e73","system_id":"levelo_inurba_marseille","lat":43.29899,"lon":5.43675,"is_reserved":false,"is_disabled":false,"rental_uris":{"android":"levelo://app?vid=ae99eef4-0d01-432b-b9f3-30beda5f0e73","ios":"levelo://app?vid=ae99eef4-0d01-432b-b9f3-30beda5f0e73"},"vehicle_type_id":"4","last_reported":1741421325,"current_range_meters":9600,"station_id":"ce4bhpp2rcd13ifvqhfg","pricing_plan_id":"cebpf4jnsgd1na2vs0mg"},{"bike_id":"1a821925-01c2-4d99-a758-108e2149a6a8","system_id":"levelo_inurba_marseille","lat":43.27498,"lon":5.42457,"is_reserved":false,"is_disabled":false,"rental_uris":{"android":"levelo://app?vid=1a821925-01c2-4d99-a758-108e2149a6a8","ios":"levelo://app?vid=1a821925-01c2-4d99-a758-108e2149a6a8"},"vehicle_type_id":"4","last_reported":1741421325,"current_range_meters":9600,"station_id":"ce4bhn92rcd13ifvqgrg","pricing_plan_id":"cebpf4jnsgd1na2vs0mg"},{"bike_id":"e524bcef-a391-41b2-bad2-673eae53ea51","system_id":"levelo_inurba_marseille","lat":43.31714,"lon":5.43704,"is_reserved":false,"is_disabled":false,"rental_uris":{"android":"levelo://app?vid=e524bcef-a391-41b2-bad2-673eae53ea51","ios":"levelo://app?vid=e524bcef-a391-41b2-bad2-673eae53ea51"},"vehicle_type_id":"4","last_reported":1741421325,"current_range_meters":9600,"station_id":"ce4bhp92rcd13ifvqhcg","pricing_plan_id":"cebpf4jnsgd1na2vs0mg"},{"bike_id":"dac09d9e-9ab6-4c54-8fe2-7fcfc9203869","system_id":"levelo_inurba_marseille","lat":43.26524,"lon":5.37387,"is_reserved":false,"is_disabled":false,"rental_uris":{"android":"levelo://app?vid=dac09d9e-9ab6-4c54-8fe2-7fcfc9203869","ios":"levelo://app?vid=dac09d9e-9ab6-4c54-8fe2-7fcfc9203869"},"vehicle_type_id":"4","last_reported":1741421325,"current_range_meters":9600,"station_id":"ce4bhg12rcd13ifvqf70","pricing_plan_id":"cebpf4jnsgd1na2vs0mg"},{"bike_id":"0e674cb4-f37d-4bd5-aaff-7ec953d386c6","system_id":"levelo_inurba_marseille","lat":43.24171,"lon":5.36399,"is_reserved":false,"is_disabled":false,"rental_uris":{"android":"levelo://app?vid=0e674cb4-f37d-4bd5-aaff-7ec953d386c6","ios":"levelo://app?vid=0e674cb4-f37d-4bd5-aaff-7ec953d386c6"},"vehicle_type_id":"4","last_reported":1741421325,"current_range_meters":9600,"station_id":"cpo36qri1sfpv3e86is0","pricing_plan_id":"cebpf4jnsgd1na2vs0mg"},{"bike_id":"eefe66a8-9b10-4ded-8e0a-619e66601e02","system_id":"levelo_inurba_marseille","lat":43.296243,"lon":5.426057,"is_reserved":false,"is_disabled":false,"rental_uris":{"android":"levelo://app?vid=eefe66a8-9b10-4ded-8e0a-619e66601e02","ios":"levelo://app?vid=eefe66a8-9b10-4ded-8e0a-619e66601e02"},"vehicle_type_id":"4","last_reported":1741421325,"current_range_meters":9600,"station_id":"","pricing_plan_id":"cebpf4jnsgd1na2vs0mg"},{"bike_id":"8acc0161-6d56-47de-8e22-73ec3b03dbae","system_id":"levelo_inurba_marseille","lat":43.30941,"lon":5.40166,"is_reserved":false,"is_disabled":false,"rental_uris":{"android":"levelo://app?vid=8acc0161-6d56-47de-8e22-73ec3b03dbae","ios":"levelo://app?vid=8acc0161-6d56-47de-8e22-73ec3b03dbae"},"vehicle_type_id":"4","last_reported":1741421325,"current_range_meters":9600,"station_id":"ce4bgvp2rcd13ifvqct0","pricing_plan_id":"cebpf4jnsgd1na2vs0mg"},{"bike_id":"ac269663-43a8-4f28-8118-be61d0478060","system_id":"levelo_inurba_marseille","lat":43.287028,"lon":5.407424,"is_reserved":false,"is_disabled":false,"rental_uris":{"android":"levelo://app?vid=ac269663-43a8-4f28-8118-be61d0478060","ios":"levelo://app?vid=ac269663-43a8-4f28-8118-be61d0478060"},"vehicle_type_id":"4","last_reported":1741421325,"current_range_meters":9600,"station_id":"","pricing_plan_id":"cebpf4jnsgd1na2vs0mg"},{"bike_id":"17862a34-3eec-4197-9fce-46ac0067e359","system_id":"levelo_inurba_marseille","lat":43.27209,"lon":5.39188,"is_reserved":false,"is_disabled":false,"rental_uris":{"android":"levelo://app?vid=17862a34-3eec-4197-9fce-46ac0067e359","ios":"levelo://app?vid=17862a34-3eec-4197-9fce-46ac0067e359"},"vehicle_type_id":"4","last_reported":1741421325,"current_range_meters":9600,"station_id":"ce4bhhp2rcd13ifvqfm0","pricing_plan_id":"cebpf4jnsgd1na2vs0mg"},{"bike_id":"ae6f6ceb-6daf-46a2-ac8f-71dd310aa775","system_id":"levelo_inurba_marseille","lat":43.25742,"lon":5.41111,"is_reserved":false,"is_disabled":false,"rental_uris":{"android":"levelo://app?vid=ae6f6ceb-6daf-46a2-ac8f-71dd310aa775","ios":"levelo://app?vid=ae6f6ceb-6daf-46a2-ac8f-71dd310aa775"},"vehicle_type_id":"4","last_reported":1741421325,"current_range_meters":10000,"station_id":"ce4bhkp2rcd13ifvqgd0","pricing_plan_id":"cebpf4jnsgd1na2vs0mg"},{"bike_id":"ba1993c2-4a65-43bb-a1cc-36e375788125","system_id":"levelo_inurba_marseille","lat":43.27996,"lon":5.400125,"is_reserved":false,"is_disabled":false,"rental_uris":{"android":"levelo://app?vid=ba1993c2-4a65-43bb-a1cc-36e375788125","ios":"levelo://app?vid=ba1993c2-4a65-43bb-a1cc-36e375788125"},"vehicle_type_id":"4","last_reported":1741421325,"current_range_meters":10000,"station_id":"ce4bho92rcd13ifvqh4g","pricing_plan_id":"cebpf4jnsgd1na2vs0mg"},{"bike_id":"7a6390d5-30f1-42a9-81f6-77c4114cf172","system_id":"levelo_inurba_marseille","lat":43.278149,"lon":5.407096,"is_reserved":false,"is_disabled":false,"rental_uris":{"android":"levelo://app?vid=7a6390d5-30f1-42a9-81f6-77c4114cf172","ios":"levelo://app?vid=7a6390d5-30f1-42a9-81f6-77c4114cf172"},"vehicle_type_id":"4","last_reported":1741421325,"current_range_meters":10000,"station_id":"ce4bhnh2rcd13ifvqgtg","pricing_plan_id":"cebpf4jnsgd1na2vs0mg"},{"bike_id":"e77e3c8b-0be5-4f42-901d-4f2d857477a7","system_id":"levelo_inurba_marseille","lat":43.29195,"lon":5.40113,"is_reserved":false,"is_disabled":false,"rental_uris":{"android":"levelo://app?vid=e77e3c8b-0be5-4f42-901d-4f2d857477a7","ios":"levelo://app?vid=e77e3c8b-0be5-4f42-901d-4f2d857477a7"},"vehicle_type_id":"4","last_reported":1741421325,"current_range_meters":10000,"station_id":"","pricing_plan_id":"cebpf4jnsgd1na2vs0mg"},{"bike_id":"4048f4cb-c79a-4e84-a8e6-068b2a53463d","system_id":"levelo_inurba_marseille","lat":43.297249,"lon":5.393976,"is_reserved":false,"is_disabled":false,"rental_uris":{"android":"levelo://app?vid=4048f4cb-c79a-4e84-a8e6-068b2a53463d","ios":"levelo://app?vid=4048f4cb-c79a-4e84-a8e6-068b2a53463d"},"vehicle_type_id":"4","last_reported":1741421325,"current_range_meters":10000,"station_id":"","pricing_plan_id":"cebpf4jnsgd1na2vs0mg"},{"bike_id":"d19dc49d-d5b2-43dd-8daa-0e29d78ead71","system_id":"levelo_inurba_marseille","lat":43.29281,"lon":5.40137,"is_reserved":false,"is_disabled":false,"rental_uris":{"android":"levelo://app?vid=d19dc49d-d5b2-43dd-8daa-0e29d78ead71","ios":"levelo://app?vid=d19dc49d-d5b2-43dd-8daa-0e29d78ead71"},"vehicle_type_id":"4","last_reported":1741421325,"current_range_meters":10000,"station_id":"ce4bh312rcd13ifvqdk0","pricing_plan_id":"cebpf4jnsgd1na2vs0mg"},{"bike_id":"c1cdfde2-35c3-4cd2-87f0-f14eb46ed8f4","system_id":"levelo_inurba_marseille","lat":43.2418,"lon":5.39721,"is_reserved":false,"is_disabled":false,"rental_uris":{"android":"levelo://app?vid=c1cdfde2-35c3-4cd2-87f0-f14eb46ed8f4","ios":"levelo://app?vid=c1cdfde2-35c3-4cd2-87f0-f14eb46ed8f4"},"vehicle_type_id":"4","last_reported":1741421325,"current_range_meters":10000,"station_id":"ce4bhn12rcd13ifvqgpg","pricing_plan_id":"cebpf4jnsgd1na2vs0mg"},{"bike_id":"201e16e9-1f9c-45a3-8dec-2d516ef1efcb","system_id":"levelo_inurba_marseille","lat":43.239649,"lon":5.366293,"is_reserved":false,"is_disabled":false,"rental_uris":{"android":"levelo://app?vid=201e16e9-1f9c-45a3-8dec-2d516ef1efcb","ios":"levelo://app?vid=201e16e9-1f9c-45a3-8dec-2d516ef1efcb"},"vehicle_type_id":"4","last_reported":1741421325,"current_range_meters":10000,"station_id":"ce4bhi12rcd13ifvqfp0","pricing_plan_id":"cebpf4jnsgd1na2vs0mg"},{"bike_id":"9b8789be-c150-4679-b8ba-e1d5e4639da2","system_id":"levelo_inurba_marseille","lat":43.25739,"lon":5.41137,"is_reserved":false,"is_disabled":false,"rental_uris":{"android":"levelo://app?vid=9b8789be-c150-4679-b8ba-e1d5e4639da2","ios":"levelo://app?vid=9b8789be-c150-4679-b8ba-e1d5e4639da2"},"vehicle_type_id":"4","last_reported":1741421325,"current_range_meters":10000,"station_id":"ce4bhkp2rcd13ifvqgd0","pricing_plan_id":"cebpf4jnsgd1na2vs0mg"},{"bike_id":"e31092ac-b6a1-414f-bdb8-1f248314f867","system_id":"levelo_inurba_marseille","lat":43.27521,"lon":5.38463,"is_reserved":false,"is_disabled":false,"rental_uris":{"android":"levelo://app?vid=e31092ac-b6a1-414f-bdb8-1f248314f867","ios":"levelo://app?vid=e31092ac-b6a1-414f-bdb8-1f248314f867"},"vehicle_type_id":"4","last_reported":1741421325,"current_range_meters":10000,"station_id":"ce4bhh92rcd13ifvqfi0","pricing_plan_id":"cebpf4jnsgd1na2vs0mg"},{"bike_id":"f434f250-6f3b-4f81-87f7-8be1eb48cad2","system_id":"levelo_inurba_marseille","lat":43.257161,"lon":5.411071,"is_reserved":false,"is_disabled":false,"rental_uris":{"android":"levelo://app?vid=f434f250-6f3b-4f81-87f7-8be1eb48cad2","ios":"levelo://app?vid=f434f250-6f3b-4f81-87f7-8be1eb48cad2"},"vehicle_type_id":"4","last_reported":1741421325,"current_range_meters":10800,"station_id":"ce4bhkp2rcd13ifvqgd0","pricing_plan_id":"cebpf4jnsgd1na2vs0mg"},{"bike_id":"ca139617-9374-4268-888c-8db46d229f2d","system_id":"levelo_inurba_marseille","lat":43.323502,"lon":5.388915,"is_reserved":false,"is_disabled":false,"rental_uris":{"android":"levelo://app?vid=ca139617-9374-4268-888c-8db46d229f2d","ios":"levelo://app?vid=ca139617-9374-4268-888c-8db46d229f2d"},"vehicle_type_id":"4","last_reported":1741421325,"current_range_meters":10800,"station_id":"ce4bhqp2rcd13ifvqhog","pricing_plan_id":"cebpf4jnsgd1na2vs0mg"},{"bike_id":"4f508b50-1e3d-40c5-be77-1e6495edbe07","system_id":"levelo_inurba_marseille","lat":43.25712,"lon":5.41113,"is_reserved":false,"is_disabled":false,"rental_uris":{"android":"levelo://app?vid=4f508b50-1e3d-40c5-be77-1e6495edbe07","ios":"levelo://app?vid=4f508b50-1e3d-40c5-be77-1e6495edbe07"},"vehicle_type_id":"4","last_reported":1741421325,"current_range_meters":10800,"station_id":"ce4bhkp2rcd13ifvqgd0","pricing_plan_id":"cebpf4jnsgd1na2vs0mg"},{"bike_id":"c787a0ef-03a5-4d36-b53c-60238e9036da","system_id":"levelo_inurba_marseille","lat":43.23197,"lon":5.39981,"is_reserved":false,"is_disabled":false,"rental_uris":{"android":"levelo://app?vid=c787a0ef-03a5-4d36-b53c-60238e9036da","ios":"levelo://app?vid=c787a0ef-03a5-4d36-b53c-60238e9036da"},"vehicle_type_id":"4","last_reported":1741421325,"current_range_meters":36400,"station_id":"ce4bhn12rcd13ifvqgqg","pricing_plan_id":"cebpf4jnsgd1na2vs0mg"},{"bike_id":"f3944bdb-c1ff-446d-843f-a632abc8f614","system_id":"levelo_inurba_marseille","lat":43.29622,"lon":5.37703,"is_reserved":false,"is_disabled":false,"rental_uris":{"android":"levelo://app?vid=f3944bdb-c1ff-446d-843f-a632abc8f614","ios":"levelo://app?vid=f3944bdb-c1ff-446d-843f-a632abc8f614"},"vehicle_type_id":"4","last_reported":1741421325,"current_range_meters":10800,"station_id":"ce4bgi92rcd13ifvqb90","pricing_plan_id":"cebpf4jnsgd1na2vs0mg"},{"bike_id":"b54292f7-ba5a-4ca2-851d-b34190bdf4a8","system_id":"levelo_inurba_marseille","lat":43.32999,"lon":5.39046,"is_reserved":false,"is_disabled":false,"rental_uris":{"android":"levelo://app?vid=b54292f7-ba5a-4ca2-851d-b34190bdf4a8","ios":"levelo://app?vid=b54292f7-ba5a-4ca2-851d-b34190bdf4a8"},"vehicle_type_id":"4","last_reported":1741421325,"current_range_meters":10800,"station_id":"ce4bhr92rcd13ifvqhrg","pricing_plan_id":"cebpf4jnsgd1na2vs0mg"},{"bike_id":"b9ed3ad1-8b89-463c-8438-ae1e70d9b4c0","system_id":"levelo_inurba_marseille","lat":43.29972,"lon":5.38492,"is_reserved":false,"is_disabled":false,"rental_uris":{"android":"levelo://app?vid=b9ed3ad1-8b89-463c-8438-ae1e70d9b4c0","ios":"levelo://app?vid=b9ed3ad1-8b89-463c-8438-ae1e70d9b4c0"},"vehicle_type_id":"4","last_reported":1741421325,"current_range_meters":11200,"station_id":"ce4bgj92rcd13ifvqbd0","pricing_plan_id":"cebpf4jnsgd1na2vs0mg"},{"bike_id":"b533f38f-df9a-4e01-86fb-08f4b9bfcdfb","system_id":"levelo_inurba_marseille","lat":43.26225,"lon":5.42132,"is_reserved":false,"is_disabled":false,"rental_uris":{"android":"levelo://app?vid=b533f38f-df9a-4e01-86fb-08f4b9bfcdfb","ios":"levelo://app?vid=b533f38f-df9a-4e01-86fb-08f4b9bfcdfb"},"vehicle_type_id":"4","last_reported":1741421325,"current_range_meters":10800,"station_id":"","pricing_plan_id":"cebpf4jnsgd1na2vs0mg"},{"bike_id":"f479a6d1-3cb4-4f96-b97e-51428b8374e3","system_id":"levelo_inurba_marseille","lat":43.28461,"lon":5.35888,"is_reserved":false,"is_disabled":false,"rental_uris":{"android":"levelo://app?vid=f479a6d1-3cb4-4f96-b97e-51428b8374e3","ios":"levelo://app?vid=f479a6d1-3cb4-4f96-b97e-51428b8374e3"},"vehicle_type_id":"4","last_reported":1741421325,"current_range_meters":10800,"station_id":"ce4bhah2rcd13ifvqei0","pricing_plan_id":"cebpf4jnsgd1na2vs0mg"},{"bike_id":"11e7fc3b-ed5a-4401-a0af-6e80583f87e8","system_id":"levelo_inurba_marseille","lat":43.27863,"lon":5.40716,"is_reserved":false,"is_disabled":false,"rental_uris":{"android":"levelo://app?vid=11e7fc3b-ed5a-4401-a0af-6e80583f87e8","ios":"levelo://app?vid=11e7fc3b-ed5a-4401-a0af-6e80583f87e8"},"vehicle_type_id":"4","last_reported":1741421325,"current_range_meters":10800,"station_id":"","pricing_plan_id":"cebpf4jnsgd1na2vs0mg"},{"bike_id":"bef8b1e1-1f3f-4f03-8b78-608ec9a93267","system_id":"levelo_inurba_marseille","lat":43.239614,"lon":5.366294,"is_reserved":false,"is_disabled":false,"rental_uris":{"android":"levelo://app?vid=bef8b1e1-1f3f-4f03-8b78-608ec9a93267","ios":"levelo://app?vid=bef8b1e1-1f3f-4f03-8b78-608ec9a93267"},"vehicle_type_id":"4","last_reported":1741421325,"current_range_meters":10800,"station_id":"ce4bhi12rcd13ifvqfp0","pricing_plan_id":"cebpf4jnsgd1na2vs0mg"},{"bike_id":"3b527087-0e58-4397-a11f-323037dd6298","system_id":"levelo_inurba_marseille","lat":43.315284,"lon":5.380301,"is_reserved":false,"is_disabled":false,"rental_uris":{"android":"levelo://app?vid=3b527087-0e58-4397-a11f-323037dd6298","ios":"levelo://app?vid=3b527087-0e58-4397-a11f-323037dd6298"},"vehicle_type_id":"4","last_reported":1741421325,"current_range_meters":10800,"station_id":"ce4bhsp2rcd13ifvqi50","pricing_plan_id":"cebpf4jnsgd1na2vs0mg"},{"bike_id":"46cbc045-e0a7-474d-afd0-7fbe0d96aee8","system_id":"levelo_inurba_marseille","lat":43.29305,"lon":5.37419,"is_reserved":false,"is_disabled":false,"rental_uris":{"android":"levelo://app?vid=46cbc045-e0a7-474d-afd0-7fbe0d96aee8","ios":"levelo://app?vid=46cbc045-e0a7-474d-afd0-7fbe0d96aee8"},"vehicle_type_id":"4","last_reported":1741421325,"current_range_meters":11200,"station_id":"ce4bgi12rcd13ifvqb70","pricing_plan_id":"cebpf4jnsgd1na2vs0mg"},{"bike_id":"ccb7fcbf-14b0-45c6-a15a-f360efd17a0d","system_id":"levelo_inurba_marseille","lat":43.24078,"lon":5.37749,"is_reserved":false,"is_disabled":false,"rental_uris":{"android":"levelo://app?vid=ccb7fcbf-14b0-45c6-a15a-f360efd17a0d","ios":"levelo://app?vid=ccb7fcbf-14b0-45c6-a15a-f360efd17a0d"},"vehicle_type_id":"4","last_reported":1741421325,"current_range_meters":11200,"station_id":"ce4bhnp2rcd13ifvqgvg","pricing_plan_id":"cebpf4jnsgd1na2vs0mg"},{"bike_id":"b1e189d2-cc2d-4bbc-9210-3d18e5683801","system_id":"levelo_inurba_marseille","lat":43.26946,"lon":5.40247,"is_reserved":false,"is_disabled":false,"rental_uris":{"android":"levelo://app?vid=b1e189d2-cc2d-4bbc-9210-3d18e5683801","ios":"levelo://app?vid=b1e189d2-cc2d-4bbc-9210-3d18e5683801"},"vehicle_type_id":"4","last_reported":1741421325,"current_range_meters":11600,"station_id":"cjm6bp8fraef2m0cb0m0","pricing_plan_id":"cebpf4jnsgd1na2vs0mg"},{"bike_id":"9b9912a1-cda6-4b6e-8236-6c79e235b387","system_id":"levelo_inurba_marseille","lat":43.32366,"lon":5.38879,"is_reserved":false,"is_disabled":false,"rental_uris":{"android":"levelo://app?vid=9b9912a1-cda6-4b6e-8236-6c79e235b387","ios":"levelo://app?vid=9b9912a1-cda6-4b6e-8236-6c79e235b387"},"vehicle_type_id":"4","last_reported":1741421325,"current_range_meters":11600,"station_id":"ce4bhqp2rcd13ifvqhog","pricing_plan_id":"cebpf4jnsgd1na2vs0mg"},{"bike_id":"5832083a-af6c-455b-9dbd-d8b68bd79a1e","system_id":"levelo_inurba_marseille","lat":43.29923,"lon":5.43658,"is_reserved":false,"is_disabled":false,"rental_uris":{"android":"levelo://app?vid=5832083a-af6c-455b-9dbd-d8b68bd79a1e","ios":"levelo://app?vid=5832083a-af6c-455b-9dbd-d8b68bd79a1e"},"vehicle_type_id":"4","last_reported":1741421325,"current_range_meters":11600,"station_id":"","pricing_plan_id":"cebpf4jnsgd1na2vs0mg"},{"bike_id":"9073ecd9-bf4b-4fcb-9af2-6eb07a1066f7","system_id":"levelo_inurba_marseille","lat":43.279883,"lon":5.416586,"is_reserved":false,"is_disabled":false,"rental_uris":{"android":"levelo://app?vid=9073ecd9-bf4b-4fcb-9af2-6eb07a1066f7","ios":"levelo://app?vid=9073ecd9-bf4b-4fcb-9af2-6eb07a1066f7"},"vehicle_type_id":"4","last_reported":1741421325,"current_range_meters":11600,"station_id":"ce4bho12rcd13ifvqh1g","pricing_plan_id":"cebpf4jnsgd1na2vs0mg"},{"bike_id":"7a8959cf-cba4-472b-a67f-21d9d3e5e3a1","system_id":"levelo_inurba_marseille","lat":43.24375,"lon":5.43813,"is_reserved":false,"is_disabled":false,"rental_uris":{"android":"levelo://app?vid=7a8959cf-cba4-472b-a67f-21d9d3e5e3a1","ios":"levelo://app?vid=7a8959cf-cba4-472b-a67f-21d9d3e5e3a1"},"vehicle_type_id":"4","last_reported":1741421325,"current_range_meters":12000,"station_id":"","pricing_plan_id":"cebpf4jnsgd1na2vs0mg"},{"bike_id":"3c7cb629-a989-4010-917f-b6565022dddc","system_id":"levelo_inurba_marseille","lat":43.3133,"lon":5.39698,"is_reserved":false,"is_disabled":false,"rental_uris":{"android":"levelo://app?vid=3c7cb629-a989-4010-917f-b6565022dddc","ios":"levelo://app?vid=3c7cb629-a989-4010-917f-b6565022dddc"},"vehicle_type_id":"4","last_reported":1741421325,"current_range_meters":12000,"station_id":"ce4bgvp2rcd13ifvqcu0","pricing_plan_id":"cebpf4jnsgd1na2vs0mg"},{"bike_id":"90a1ee3c-a390-473d-a212-a7a88e1a7482","system_id":"levelo_inurba_marseille","lat":43.24385,"lon":5.37062,"is_reserved":false,"is_disabled":false,"rental_uris":{"android":"levelo://app?vid=90a1ee3c-a390-473d-a212-a7a88e1a7482","ios":"levelo://app?vid=90a1ee3c-a390-473d-a212-a7a88e1a7482"},"vehicle_type_id":"4","last_reported":1741421325,"current_range_meters":12000,"station_id":"ce4bhhh2rcd13ifvqfk0","pricing_plan_id":"cebpf4jnsgd1na2vs0mg"},{"bike_id":"b2c2514d-58df-4080-9acc-0a3325c87525","system_id":"levelo_inurba_marseille","lat":43.32359,"lon":5.36773,"is_reserved":false,"is_disabled":false,"rental_uris":{"android":"levelo://app?vid=b2c2514d-58df-4080-9acc-0a3325c87525","ios":"levelo://app?vid=b2c2514d-58df-4080-9acc-0a3325c87525"},"vehicle_type_id":"4","last_reported":1741421325,"current_range_meters":12000,"station_id":"ce4bhsh2rcd13ifvqi2g","pricing_plan_id":"cebpf4jnsgd1na2vs0mg"},{"bike_id":"44c0f9a1-99ba-41cb-8f36-0e033c5e16cc","system_id":"levelo_inurba_marseille","lat":43.2618,"lon":5.37479,"is_reserved":false,"is_disabled":false,"rental_uris":{"android":"levelo://app?vid=44c0f9a1-99ba-41cb-8f36-0e033c5e16cc","ios":"levelo://app?vid=44c0f9a1-99ba-41cb-8f36-0e033c5e16cc"},"vehicle_type_id":"4","last_reported":1741421325,"current_range_meters":12000,"station_id":"","pricing_plan_id":"cebpf4jnsgd1na2vs0mg"},{"bike_id":"1ff664cb-f378-4a6c-b3c1-b47ee25a2174","system_id":"levelo_inurba_marseille","lat":43.3236,"lon":5.38889,"is_reserved":false,"is_disabled":false,"rental_uris":{"android":"levelo://app?vid=1ff664cb-f378-4a6c-b3c1-b47ee25a2174","ios":"levelo://app?vid=1ff664cb-f378-4a6c-b3c1-b47ee25a2174"},"vehicle_type_id":"4","last_reported":1741421325,"current_range_meters":12000,"station_id":"ce4bhqp2rcd13ifvqhog","pricing_plan_id":"cebpf4jnsgd1na2vs0mg"},{"bike_id":"4f3fa221-098c-4fe6-b19e-c2f6fa282fe7","system_id":"levelo_inurba_marseille","lat":43.28467,"lon":5.35889,"is_reserved":false,"is_disabled":false,"rental_uris":{"android":"levelo://app?vid=4f3fa221-098c-4fe6-b19e-c2f6fa282fe7","ios":"levelo://app?vid=4f3fa221-098c-4fe6-b19e-c2f6fa282fe7"},"vehicle_type_id":"4","last_reported":1741421325,"current_range_meters":12000,"station_id":"ce4bhah2rcd13ifvqei0","pricing_plan_id":"cebpf4jnsgd1na2vs0mg"},{"bike_id":"32d6224f-3720-4fe2-bc93-7516a3099209","system_id":"levelo_inurba_marseille","lat":43.26939,"lon":5.40251,"is_reserved":false,"is_disabled":false,"rental_uris":{"android":"levelo://app?vid=32d6224f-3720-4fe2-bc93-7516a3099209","ios":"levelo://app?vid=32d6224f-3720-4fe2-bc93-7516a3099209"},"vehicle_type_id":"4","last_reported":1741421325,"current_range_meters":12000,"station_id":"cjm6bp8fraef2m0cb0m0","pricing_plan_id":"cebpf4jnsgd1na2vs0mg"},{"bike_id":"dce9c371-c48f-4a91-964d-4d5face7e36d","system_id":"levelo_inurba_marseille","lat":43.29617,"lon":5.37174,"is_reserved":false,"is_disabled":false,"rental_uris":{"android":"levelo://app?vid=dce9c371-c48f-4a91-964d-4d5face7e36d","ios":"levelo://app?vid=dce9c371-c48f-4a91-964d-4d5face7e36d"},"vehicle_type_id":"4","last_reported":1741421325,"current_range_meters":12400,"station_id":"ce4bgnh2rcd13ifvqc0g","pricing_plan_id":"cebpf4jnsgd1na2vs0mg"},{"bike_id":"97d95439-94cf-421a-af98-a49a3db92d1a","system_id":"levelo_inurba_marseille","lat":43.24846,"lon":5.418,"is_reserved":false,"is_disabled":false,"rental_uris":{"android":"levelo://app?vid=97d95439-94cf-421a-af98-a49a3db92d1a","ios":"levelo://app?vid=97d95439-94cf-421a-af98-a49a3db92d1a"},"vehicle_type_id":"4","last_reported":1741421325,"current_range_meters":12400,"station_id":"","pricing_plan_id":"cebpf4jnsgd1na2vs0mg"},{"bike_id":"bb064bfe-a178-4f25-adb8-56387b3605e7","system_id":"levelo_inurba_marseille","lat":43.29637,"lon":5.40597,"is_reserved":false,"is_disabled":false,"rental_uris":{"android":"levelo://app?vid=bb064bfe-a178-4f25-adb8-56387b3605e7","ios":"levelo://app?vid=bb064bfe-a178-4f25-adb8-56387b3605e7"},"vehicle_type_id":"4","last_reported":1741421325,"current_range_meters":12400,"station_id":"ce4bh0h2rcd13ifvqd60","pricing_plan_id":"cebpf4jnsgd1na2vs0mg"},{"bike_id":"8b722601-abad-44fa-88e3-ce51624ce56d","system_id":"levelo_inurba_marseille","lat":43.31104,"lon":5.37785,"is_reserved":false,"is_disabled":false,"rental_uris":{"android":"levelo://app?vid=8b722601-abad-44fa-88e3-ce51624ce56d","ios":"levelo://app?vid=8b722601-abad-44fa-88e3-ce51624ce56d"},"vehicle_type_id":"4","last_reported":1741421325,"current_range_meters":12400,"station_id":"ce4bgt92rcd13ifvqcg0","pricing_plan_id":"cebpf4jnsgd1na2vs0mg"},{"bike_id":"6fe06bec-c76b-49c0-9d35-cf36345c068c","system_id":"levelo_inurba_marseille","lat":43.26189,"lon":5.37452,"is_reserved":false,"is_disabled":false,"rental_uris":{"android":"levelo://app?vid=6fe06bec-c76b-49c0-9d35-cf36345c068c","ios":"levelo://app?vid=6fe06bec-c76b-49c0-9d35-cf36345c068c"},"vehicle_type_id":"4","last_reported":1741421325,"current_range_meters":12400,"station_id":"ce4bhgp2rcd13ifvqfc0","pricing_plan_id":"cebpf4jnsgd1na2vs0mg"},{"bike_id":"65d2271a-97b5-4913-95aa-cf77a293f0eb","system_id":"levelo_inurba_marseille","lat":43.26034,"lon":5.37549,"is_reserved":false,"is_disabled":false,"rental_uris":{"android":"levelo://app?vid=65d2271a-97b5-4913-95aa-cf77a293f0eb","ios":"levelo://app?vid=65d2271a-97b5-4913-95aa-cf77a293f0eb"},"vehicle_type_id":"4","last_reported":1741421325,"current_range_meters":12400,"station_id":"ce4bhgh2rcd13ifvqfa0","pricing_plan_id":"cebpf4jnsgd1na2vs0mg"},{"bike_id":"bcfeabe6-8e8d-4b53-9855-82e54b99eb4c","system_id":"levelo_inurba_marseille","lat":43.319953,"lon":5.381583,"is_reserved":false,"is_disabled":false,"rental_uris":{"android":"levelo://app?vid=bcfeabe6-8e8d-4b53-9855-82e54b99eb4c","ios":"levelo://app?vid=bcfeabe6-8e8d-4b53-9855-82e54b99eb4c"},"vehicle_type_id":"4","last_reported":1741421325,"current_range_meters":12400,"station_id":"ce4bhr12rcd13ifvqhpg","pricing_plan_id":"cebpf4jnsgd1na2vs0mg"},{"bike_id":"c3821921-6f0e-4522-ac7a-982a8ffe12d7","system_id":"levelo_inurba_marseille","lat":43.2883,"lon":5.35868,"is_reserved":false,"is_disabled":false,"rental_uris":{"android":"levelo://app?vid=c3821921-6f0e-4522-ac7a-982a8ffe12d7","ios":"levelo://app?vid=c3821921-6f0e-4522-ac7a-982a8ffe12d7"},"vehicle_type_id":"4","last_reported":1741421325,"current_range_meters":12400,"station_id":"ce4bhb12rcd13ifvqem0","pricing_plan_id":"cebpf4jnsgd1na2vs0mg"},{"bike_id":"fbf804d7-6c73-46e9-abdb-acb74deb6dc4","system_id":"levelo_inurba_marseille","lat":43.23069,"lon":5.35491,"is_reserved":false,"is_disabled":false,"rental_uris":{"android":"levelo://app?vid=fbf804d7-6c73-46e9-abdb-acb74deb6dc4","ios":"levelo://app?vid=fbf804d7-6c73-46e9-abdb-acb74deb6dc4"},"vehicle_type_id":"4","last_reported":1741421325,"current_range_meters":12800,"station_id":"cpo3342slgdg3j2ifvpg","pricing_plan_id":"cebpf4jnsgd1na2vs0mg"},{"bike_id":"bfbfb8b2-951b-41e3-9abb-8ec2115a8df8","system_id":"levelo_inurba_marseille","lat":43.28436,"lon":5.35917,"is_reserved":false,"is_disabled":false,"rental_uris":{"android":"levelo://app?vid=bfbfb8b2-951b-41e3-9abb-8ec2115a8df8","ios":"levelo://app?vid=bfbfb8b2-951b-41e3-9abb-8ec2115a8df8"},"vehicle_type_id":"4","last_reported":1741421325,"current_range_meters":12800,"station_id":"ce4bhah2rcd13ifvqei0","pricing_plan_id":"cebpf4jnsgd1na2vs0mg"},{"bike_id":"388ea826-f5fa-4632-a530-45d13cc0a769","system_id":"levelo_inurba_marseille","lat":43.2319,"lon":5.3999,"is_reserved":false,"is_disabled":false,"rental_uris":{"android":"levelo://app?vid=388ea826-f5fa-4632-a530-45d13cc0a769","ios":"levelo://app?vid=388ea826-f5fa-4632-a530-45d13cc0a769"},"vehicle_type_id":"4","last_reported":1741421325,"current_range_meters":12800,"station_id":"ce4bhn12rcd13ifvqgqg","pricing_plan_id":"cebpf4jnsgd1na2vs0mg"},{"bike_id":"dd8cec60-8ea0-4242-b7e4-eb6de8ca7419","system_id":"levelo_inurba_marseille","lat":43.26804,"lon":5.40267,"is_reserved":false,"is_disabled":false,"rental_uris":{"android":"levelo://app?vid=dd8cec60-8ea0-4242-b7e4-eb6de8ca7419","ios":"levelo://app?vid=dd8cec60-8ea0-4242-b7e4-eb6de8ca7419"},"vehicle_type_id":"4","last_reported":1741421325,"current_range_meters":12800,"station_id":"ce501612rcd8frsf0b60","pricing_plan_id":"cebpf4jnsgd1na2vs0mg"},{"bike_id":"635beb12-73ff-4358-ad6f-b104a172d12b","system_id":"levelo_inurba_marseille","lat":43.27677,"lon":5.388999,"is_reserved":false,"is_disabled":false,"rental_uris":{"android":"levelo://app?vid=635beb12-73ff-4358-ad6f-b104a172d12b","ios":"levelo://app?vid=635beb12-73ff-4358-ad6f-b104a172d12b"},"vehicle_type_id":"4","last_reported":1741421325,"current_range_meters":13600,"station_id":"ce4bhi12rcd13ifvqfo0","pricing_plan_id":"cebpf4jnsgd1na2vs0mg"},{"bike_id":"ca1ac6f9-8304-441d-b17f-201bcc008dae","system_id":"levelo_inurba_marseille","lat":43.34389,"lon":5.39981,"is_reserved":false,"is_disabled":false,"rental_uris":{"android":"levelo://app?vid=ca1ac6f9-8304-441d-b17f-201bcc008dae","ios":"levelo://app?vid=ca1ac6f9-8304-441d-b17f-201bcc008dae"},"vehicle_type_id":"4","last_reported":1741421325,"current_range_meters":13600,"station_id":"","pricing_plan_id":"cebpf4jnsgd1na2vs0mg"},{"bike_id":"cdc6fa71-b8c0-46e7-902c-4e18b52385d2","system_id":"levelo_inurba_marseille","lat":43.28851,"lon":5.399995,"is_reserved":false,"is_disabled":false,"rental_uris":{"android":"levelo://app?vid=cdc6fa71-b8c0-46e7-902c-4e18b52385d2","ios":"levelo://app?vid=cdc6fa71-b8c0-46e7-902c-4e18b52385d2"},"vehicle_type_id":"4","last_reported":1741421325,"current_range_meters":13600,"station_id":"","pricing_plan_id":"cebpf4jnsgd1na2vs0mg"},{"bike_id":"c1c412b3-ae23-45ab-894a-fe5b494cc9e6","system_id":"levelo_inurba_marseille","lat":43.23188,"lon":5.35556,"is_reserved":false,"is_disabled":false,"rental_uris":{"android":"levelo://app?vid=c1c412b3-ae23-45ab-894a-fe5b494cc9e6","ios":"levelo://app?vid=c1c412b3-ae23-45ab-894a-fe5b494cc9e6"},"vehicle_type_id":"4","last_reported":1741421325,"current_range_meters":13600,"station_id":"ce4bhu92rcd13ifvqi70","pricing_plan_id":"cebpf4jnsgd1na2vs0mg"},{"bike_id":"ce182d56-6706-47c2-88ce-a9668ce002f2","system_id":"levelo_inurba_marseille","lat":43.251083,"lon":5.403291,"is_reserved":false,"is_disabled":false,"rental_uris":{"android":"levelo://app?vid=ce182d56-6706-47c2-88ce-a9668ce002f2","ios":"levelo://app?vid=ce182d56-6706-47c2-88ce-a9668ce002f2"},"vehicle_type_id":"4","last_reported":1741421325,"current_range_meters":14000,"station_id":"ce4bhlh2rcd13ifvqgig","pricing_plan_id":"cebpf4jnsgd1na2vs0mg"},{"bike_id":"0da4b025-c2c9-4c92-8128-932f98eb7ed9","system_id":"levelo_inurba_marseille","lat":43.323619,"lon":5.388826,"is_reserved":false,"is_disabled":false,"rental_uris":{"android":"levelo://app?vid=0da4b025-c2c9-4c92-8128-932f98eb7ed9","ios":"levelo://app?vid=0da4b025-c2c9-4c92-8128-932f98eb7ed9"},"vehicle_type_id":"4","last_reported":1741421325,"current_range_meters":14000,"station_id":"ce4bhqp2rcd13ifvqhog","pricing_plan_id":"cebpf4jnsgd1na2vs0mg"},{"bike_id":"21a97c5e-42a1-42dc-8f0b-c09a56ace1b8","system_id":"levelo_inurba_marseille","lat":43.30381,"lon":5.42506,"is_reserved":false,"is_disabled":true,"rental_uris":{"android":"levelo://app?vid=21a97c5e-42a1-42dc-8f0b-c09a56ace1b8","ios":"levelo://app?vid=21a97c5e-42a1-42dc-8f0b-c09a56ace1b8"},"vehicle_type_id":"4","last_reported":1741421325,"current_range_meters":14000,"station_id":"","pricing_plan_id":"cebpf4jnsgd1na2vs0mg"},{"bike_id":"19bbe8da-d7df-496e-a677-cbaab925cf5e","system_id":"levelo_inurba_marseille","lat":43.24879,"lon":5.42536,"is_reserved":false,"is_disabled":false,"rental_uris":{"android":"levelo://app?vid=19bbe8da-d7df-496e-a677-cbaab925cf5e","ios":"levelo://app?vid=19bbe8da-d7df-496e-a677-cbaab925cf5e"},"vehicle_type_id":"4","last_reported":1741421325,"current_range_meters":14400,"station_id":"","pricing_plan_id":"cebpf4jnsgd1na2vs0mg"},{"bike_id":"d15888b3-84cd-42f5-8973-07174fa936f9","system_id":"levelo_inurba_marseille","lat":43.31449,"lon":5.37404,"is_reserved":false,"is_disabled":false,"rental_uris":{"android":"levelo://app?vid=d15888b3-84cd-42f5-8973-07174fa936f9","ios":"levelo://app?vid=d15888b3-84cd-42f5-8973-07174fa936f9"},"vehicle_type_id":"4","last_reported":1741421325,"current_range_meters":14400,"station_id":"","pricing_plan_id":"cebpf4jnsgd1na2vs0mg"},{"bike_id":"c80cd476-eca8-434e-a1d5-c38ff7870905","system_id":"levelo_inurba_marseille","lat":43.25731,"lon":5.41157,"is_reserved":false,"is_disabled":false,"rental_uris":{"android":"levelo://app?vid=c80cd476-eca8-434e-a1d5-c38ff7870905","ios":"levelo://app?vid=c80cd476-eca8-434e-a1d5-c38ff7870905"},"vehicle_type_id":"4","last_reported":1741421325,"current_range_meters":14400,"station_id":"ce4bhkp2rcd13ifvqgd0","pricing_plan_id":"cebpf4jnsgd1na2vs0mg"},{"bike_id":"b2fab118-3a0f-4f25-8136-45d109cc78ee","system_id":"levelo_inurba_marseille","lat":43.26562,"lon":5.39023,"is_reserved":false,"is_disabled":false,"rental_uris":{"android":"levelo://app?vid=b2fab118-3a0f-4f25-8136-45d109cc78ee","ios":"levelo://app?vid=b2fab118-3a0f-4f25-8136-45d109cc78ee"},"vehicle_type_id":"4","last_reported":1741421325,"current_range_meters":14800,"station_id":"ce4bhe12rcd13ifvqf30","pricing_plan_id":"cebpf4jnsgd1na2vs0mg"},{"bike_id":"4fb73a25-455b-422b-961d-43b89f56a363","system_id":"levelo_inurba_marseille","lat":43.30921,"lon":5.401591,"is_reserved":false,"is_disabled":true,"rental_uris":{"android":"levelo://app?vid=4fb73a25-455b-422b-961d-43b89f56a363","ios":"levelo://app?vid=4fb73a25-455b-422b-961d-43b89f56a363"},"vehicle_type_id":"4","last_reported":1741421325,"current_range_meters":14800,"station_id":"ce4bgvp2rcd13ifvqct0","pricing_plan_id":"cebpf4jnsgd1na2vs0mg"},{"bike_id":"6b72a95e-2eb5-46e6-9b71-2291d64795b6","system_id":"levelo_inurba_marseille","lat":43.31332,"lon":5.39704,"is_reserved":false,"is_disabled":false,"rental_uris":{"android":"levelo://app?vid=6b72a95e-2eb5-46e6-9b71-2291d64795b6","ios":"levelo://app?vid=6b72a95e-2eb5-46e6-9b71-2291d64795b6"},"vehicle_type_id":"4","last_reported":1741421325,"current_range_meters":14800,"station_id":"ce4bgvp2rcd13ifvqcu0","pricing_plan_id":"cebpf4jnsgd1na2vs0mg"},{"bike_id":"7010ed15-b1c0-4687-82e0-c5a65b3df130","system_id":"levelo_inurba_marseille","lat":43.27975,"lon":5.41654,"is_reserved":false,"is_disabled":false,"rental_uris":{"android":"levelo://app?vid=7010ed15-b1c0-4687-82e0-c5a65b3df130","ios":"levelo://app?vid=7010ed15-b1c0-4687-82e0-c5a65b3df130"},"vehicle_type_id":"4","last_reported":1741421325,"current_range_meters":14800,"station_id":"ce4bho12rcd13ifvqh1g","pricing_plan_id":"cebpf4jnsgd1na2vs0mg"},{"bike_id":"0f239680-c97f-4c6e-be88-53dc6baf0e5e","system_id":"levelo_inurba_marseille","lat":43.30441,"lon":5.38874,"is_reserved":false,"is_disabled":false,"rental_uris":{"android":"levelo://app?vid=0f239680-c97f-4c6e-be88-53dc6baf0e5e","ios":"levelo://app?vid=0f239680-c97f-4c6e-be88-53dc6baf0e5e"},"vehicle_type_id":"4","last_reported":1741421325,"current_range_meters":14800,"station_id":"ce4bgk12rcd13ifvqbi0","pricing_plan_id":"cebpf4jnsgd1na2vs0mg"},{"bike_id":"6ddcbac4-ccbc-45bd-ad03-0b799322db2a","system_id":"levelo_inurba_marseille","lat":43.30327,"lon":5.4044,"is_reserved":false,"is_disabled":false,"rental_uris":{"android":"levelo://app?vid=6ddcbac4-ccbc-45bd-ad03-0b799322db2a","ios":"levelo://app?vid=6ddcbac4-ccbc-45bd-ad03-0b799322db2a"},"vehicle_type_id":"4","last_reported":1741421325,"current_range_meters":15200,"station_id":"ce4bh012rcd13ifvqd10","pricing_plan_id":"cebpf4jnsgd1na2vs0mg"},{"bike_id":"0a9bc1bd-e305-40d4-8852-5005300b12a0","system_id":"levelo_inurba_marseille","lat":43.22937,"lon":5.35404,"is_reserved":false,"is_disabled":false,"rental_uris":{"android":"levelo://app?vid=0a9bc1bd-e305-40d4-8852-5005300b12a0","ios":"levelo://app?vid=0a9bc1bd-e305-40d4-8852-5005300b12a0"},"vehicle_type_id":"4","last_reported":1741421325,"current_range_meters":16000,"station_id":"cpo3532slgdg3j2ikp40","pricing_plan_id":"cebpf4jnsgd1na2vs0mg"},{"bike_id":"0585489a-2e33-42dd-b423-1a3d409b30b4","system_id":"levelo_inurba_marseille","lat":43.25582,"lon":5.38229,"is_reserved":false,"is_disabled":false,"rental_uris":{"android":"levelo://app?vid=0585489a-2e33-42dd-b423-1a3d409b30b4","ios":"levelo://app?vid=0585489a-2e33-42dd-b423-1a3d409b30b4"},"vehicle_type_id":"4","last_reported":1741421325,"current_range_meters":16000,"station_id":"ce4bhih2rcd13ifvqfs0","pricing_plan_id":"cebpf4jnsgd1na2vs0mg"},{"bike_id":"32256b58-a068-4099-b6c2-6542b451259f","system_id":"levelo_inurba_marseille","lat":43.306395,"lon":5.40081,"is_reserved":false,"is_disabled":false,"rental_uris":{"android":"levelo://app?vid=32256b58-a068-4099-b6c2-6542b451259f","ios":"levelo://app?vid=32256b58-a068-4099-b6c2-6542b451259f"},"vehicle_type_id":"4","last_reported":1741421325,"current_range_meters":16400,"station_id":"ce4bh112rcd13ifvqda0","pricing_plan_id":"cebpf4jnsgd1na2vs0mg"},{"bike_id":"0d00a9c4-65ad-4e6d-9a9b-7a0eb9fbfb0b","system_id":"levelo_inurba_marseille","lat":43.32347,"lon":5.40616,"is_reserved":false,"is_disabled":false,"rental_uris":{"android":"levelo://app?vid=0d00a9c4-65ad-4e6d-9a9b-7a0eb9fbfb0b","ios":"levelo://app?vid=0d00a9c4-65ad-4e6d-9a9b-7a0eb9fbfb0b"},"vehicle_type_id":"4","last_reported":1741421325,"current_range_meters":16000,"station_id":"ce4bhq92rcd13ifvqhjg","pricing_plan_id":"cebpf4jnsgd1na2vs0mg"},{"bike_id":"f5bc50e0-18ac-466f-a238-faccbb25bd95","system_id":"levelo_inurba_marseille","lat":43.303164,"lon":5.404446,"is_reserved":false,"is_disabled":false,"rental_uris":{"android":"levelo://app?vid=f5bc50e0-18ac-466f-a238-faccbb25bd95","ios":"levelo://app?vid=f5bc50e0-18ac-466f-a238-faccbb25bd95"},"vehicle_type_id":"4","last_reported":1741421325,"current_range_meters":16000,"station_id":"ce4bh012rcd13ifvqd10","pricing_plan_id":"cebpf4jnsgd1na2vs0mg"},{"bike_id":"24774b1a-4116-4071-8a74-2e024106a3a3","system_id":"levelo_inurba_marseille","lat":43.29795,"lon":5.38104,"is_reserved":false,"is_disabled":false,"rental_uris":{"android":"levelo://app?vid=24774b1a-4116-4071-8a74-2e024106a3a3","ios":"levelo://app?vid=24774b1a-4116-4071-8a74-2e024106a3a3"},"vehicle_type_id":"4","last_reported":1741421325,"current_range_meters":16400,"station_id":"ce4bgip2rcd13ifvqbb0","pricing_plan_id":"cebpf4jnsgd1na2vs0mg"},{"bike_id":"fdc5f559-5f12-4056-9c87-5f014a441876","system_id":"levelo_inurba_marseille","lat":43.24065,"lon":5.37778,"is_reserved":false,"is_disabled":false,"rental_uris":{"android":"levelo://app?vid=fdc5f559-5f12-4056-9c87-5f014a441876","ios":"levelo://app?vid=fdc5f559-5f12-4056-9c87-5f014a441876"},"vehicle_type_id":"4","last_reported":1741421325,"current_range_meters":16400,"station_id":"ce4bhnp2rcd13ifvqgvg","pricing_plan_id":"cebpf4jnsgd1na2vs0mg"},{"bike_id":"e392d3fd-925c-43ce-bf40-51b5037fd1e5","system_id":"levelo_inurba_marseille","lat":43.32372,"lon":5.38863,"is_reserved":false,"is_disabled":false,"rental_uris":{"android":"levelo://app?vid=e392d3fd-925c-43ce-bf40-51b5037fd1e5","ios":"levelo://app?vid=e392d3fd-925c-43ce-bf40-51b5037fd1e5"},"vehicle_type_id":"4","last_reported":1741421325,"current_range_meters":16400,"station_id":"ce4bhqp2rcd13ifvqhog","pricing_plan_id":"cebpf4jnsgd1na2vs0mg"},{"bike_id":"bcdf98df-8d27-4828-8870-2c5bfb469a5a","system_id":"levelo_inurba_marseille","lat":43.28103,"lon":5.37846,"is_reserved":false,"is_disabled":true,"rental_uris":{"android":"levelo://app?vid=bcdf98df-8d27-4828-8870-2c5bfb469a5a","ios":"levelo://app?vid=bcdf98df-8d27-4828-8870-2c5bfb469a5a"},"vehicle_type_id":"4","last_reported":1741421325,"current_range_meters":16400,"station_id":"ce4bha12rcd13ifvqee0","pricing_plan_id":"cebpf4jnsgd1na2vs0mg"},{"bike_id":"1bdb3153-995a-4bb3-a025-8594f5e672d2","system_id":"levelo_inurba_marseille","lat":43.26947,"lon":5.38632,"is_reserved":false,"is_disabled":false,"rental_uris":{"android":"levelo://app?vid=1bdb3153-995a-4bb3-a025-8594f5e672d2","ios":"levelo://app?vid=1bdb3153-995a-4bb3-a025-8594f5e672d2"},"vehicle_type_id":"4","last_reported":1741421325,"current_range_meters":16400,"station_id":"ce4bhh92rcd13ifvqfh0","pricing_plan_id":"cebpf4jnsgd1na2vs0mg"},{"bike_id":"35c1791e-aa31-4855-b00e-94e87190641b","system_id":"levelo_inurba_marseille","lat":43.28011,"lon":5.41638,"is_reserved":false,"is_disabled":false,"rental_uris":{"android":"levelo://app?vid=35c1791e-aa31-4855-b00e-94e87190641b","ios":"levelo://app?vid=35c1791e-aa31-4855-b00e-94e87190641b"},"vehicle_type_id":"4","last_reported":1741421325,"current_range_meters":16400,"station_id":"ce4bho12rcd13ifvqh1g","pricing_plan_id":"cebpf4jnsgd1na2vs0mg"},{"bike_id":"e2ab9bf5-05f0-491c-8efb-7f85412ca83f","system_id":"levelo_inurba_marseille","lat":43.27988,"lon":5.40005,"is_reserved":false,"is_disabled":false,"rental_uris":{"android":"levelo://app?vid=e2ab9bf5-05f0-491c-8efb-7f85412ca83f","ios":"levelo://app?vid=e2ab9bf5-05f0-491c-8efb-7f85412ca83f"},"vehicle_type_id":"4","last_reported":1741421325,"current_range_meters":16400,"station_id":"ce4bho92rcd13ifvqh4g","pricing_plan_id":"cebpf4jnsgd1na2vs0mg"},{"bike_id":"93edefc9-bdcb-4a1c-aa18-6681c4e987ea","system_id":"levelo_inurba_marseille","lat":43.28704,"lon":5.39976,"is_reserved":false,"is_disabled":false,"rental_uris":{"android":"levelo://app?vid=93edefc9-bdcb-4a1c-aa18-6681c4e987ea","ios":"levelo://app?vid=93edefc9-bdcb-4a1c-aa18-6681c4e987ea"},"vehicle_type_id":"4","last_reported":1741421325,"current_range_meters":16400,"station_id":"ce4bho92rcd13ifvqh3g","pricing_plan_id":"cebpf4jnsgd1na2vs0mg"},{"bike_id":"fcdee4e4-775f-40a5-af36-ebe37031a563","system_id":"levelo_inurba_marseille","lat":43.274932,"lon":5.434961,"is_reserved":false,"is_disabled":false,"rental_uris":{"android":"levelo://app?vid=fcdee4e4-775f-40a5-af36-ebe37031a563","ios":"levelo://app?vid=fcdee4e4-775f-40a5-af36-ebe37031a563"},"vehicle_type_id":"4","last_reported":1741421325,"current_range_meters":16400,"station_id":"","pricing_plan_id":"cebpf4jnsgd1na2vs0mg"},{"bike_id":"7470f053-99e0-4222-a436-e5ac7880f722","system_id":"levelo_inurba_marseille","lat":43.22933,"lon":5.35382,"is_reserved":false,"is_disabled":false,"rental_uris":{"android":"levelo://app?vid=7470f053-99e0-4222-a436-e5ac7880f722","ios":"levelo://app?vid=7470f053-99e0-4222-a436-e5ac7880f722"},"vehicle_type_id":"4","last_reported":1741421325,"current_range_meters":16400,"station_id":"cpo3532slgdg3j2ikp40","pricing_plan_id":"cebpf4jnsgd1na2vs0mg"},{"bike_id":"c38e7fad-83e3-4ca2-8ae6-c576d9b74ac3","system_id":"levelo_inurba_marseille","lat":43.29771,"lon":5.39328,"is_reserved":false,"is_disabled":false,"rental_uris":{"android":"levelo://app?vid=c38e7fad-83e3-4ca2-8ae6-c576d9b74ac3","ios":"levelo://app?vid=c38e7fad-83e3-4ca2-8ae6-c576d9b74ac3"},"vehicle_type_id":"4","last_reported":1741421325,"current_range_meters":16800,"station_id":"chh1huq6cuj3fo74tm60","pricing_plan_id":"cebpf4jnsgd1na2vs0mg"},{"bike_id":"900570e9-b571-463d-adb9-2a6742257932","system_id":"levelo_inurba_marseille","lat":43.24385,"lon":5.37062,"is_reserved":false,"is_disabled":false,"rental_uris":{"android":"levelo://app?vid=900570e9-b571-463d-adb9-2a6742257932","ios":"levelo://app?vid=900570e9-b571-463d-adb9-2a6742257932"},"vehicle_type_id":"4","last_reported":1741421325,"current_range_meters":17200,"station_id":"ce4bhhh2rcd13ifvqfk0","pricing_plan_id":"cebpf4jnsgd1na2vs0mg"},{"bike_id":"e864a5f8-5d09-44e4-ac13-510caec44d44","system_id":"levelo_inurba_marseille","lat":43.2986,"lon":5.36251,"is_reserved":false,"is_disabled":false,"rental_uris":{"android":"levelo://app?vid=e864a5f8-5d09-44e4-ac13-510caec44d44","ios":"levelo://app?vid=e864a5f8-5d09-44e4-ac13-510caec44d44"},"vehicle_type_id":"4","last_reported":1741421325,"current_range_meters":16800,"station_id":"ce4bgpp2rcd13ifvqc3g","pricing_plan_id":"cebpf4jnsgd1na2vs0mg"},{"bike_id":"0b6b8dd8-3450-4779-834c-499fd12aab96","system_id":"levelo_inurba_marseille","lat":43.27815,"lon":5.40716,"is_reserved":false,"is_disabled":false,"rental_uris":{"android":"levelo://app?vid=0b6b8dd8-3450-4779-834c-499fd12aab96","ios":"levelo://app?vid=0b6b8dd8-3450-4779-834c-499fd12aab96"},"vehicle_type_id":"4","last_reported":1741421325,"current_range_meters":16800,"station_id":"ce4bhnh2rcd13ifvqgtg","pricing_plan_id":"cebpf4jnsgd1na2vs0mg"},{"bike_id":"69052652-a275-4779-b4a0-554abbb6f84d","system_id":"levelo_inurba_marseille","lat":43.23155,"lon":5.43712,"is_reserved":false,"is_disabled":false,"rental_uris":{"android":"levelo://app?vid=69052652-a275-4779-b4a0-554abbb6f84d","ios":"levelo://app?vid=69052652-a275-4779-b4a0-554abbb6f84d"},"vehicle_type_id":"4","last_reported":1741421325,"current_range_meters":16800,"station_id":"ce4bhmp2rcd13ifvqgog","pricing_plan_id":"cebpf4jnsgd1na2vs0mg"},{"bike_id":"28ee83e5-cc8d-4240-a7c5-3efee70e83a5","system_id":"levelo_inurba_marseille","lat":43.33447,"lon":5.40051,"is_reserved":false,"is_disabled":false,"rental_uris":{"android":"levelo://app?vid=28ee83e5-cc8d-4240-a7c5-3efee70e83a5","ios":"levelo://app?vid=28ee83e5-cc8d-4240-a7c5-3efee70e83a5"},"vehicle_type_id":"4","last_reported":1741421325,"current_range_meters":17200,"station_id":"","pricing_plan_id":"cebpf4jnsgd1na2vs0mg"},{"bike_id":"c6c1accb-d110-4b47-b267-c48b307d78ed","system_id":"levelo_inurba_marseille","lat":43.32357,"lon":5.38896,"is_reserved":false,"is_disabled":false,"rental_uris":{"android":"levelo://app?vid=c6c1accb-d110-4b47-b267-c48b307d78ed","ios":"levelo://app?vid=c6c1accb-d110-4b47-b267-c48b307d78ed"},"vehicle_type_id":"4","last_reported":1741421325,"current_range_meters":17200,"station_id":"ce4bhqp2rcd13ifvqhog","pricing_plan_id":"cebpf4jnsgd1na2vs0mg"},{"bike_id":"d10f4563-0230-4e9a-817d-5d1c1f2e8988","system_id":"levelo_inurba_marseille","lat":43.313345,"lon":5.396932,"is_reserved":false,"is_disabled":false,"rental_uris":{"android":"levelo://app?vid=d10f4563-0230-4e9a-817d-5d1c1f2e8988","ios":"levelo://app?vid=d10f4563-0230-4e9a-817d-5d1c1f2e8988"},"vehicle_type_id":"4","last_reported":1741421325,"current_range_meters":17200,"station_id":"ce4bgvp2rcd13ifvqcu0","pricing_plan_id":"cebpf4jnsgd1na2vs0mg"},{"bike_id":"adeda56f-14e9-48cf-aa68-626240587e69","system_id":"levelo_inurba_marseille","lat":43.283164,"lon":5.387125,"is_reserved":false,"is_disabled":false,"rental_uris":{"android":"levelo://app?vid=adeda56f-14e9-48cf-aa68-626240587e69","ios":"levelo://app?vid=adeda56f-14e9-48cf-aa68-626240587e69"},"vehicle_type_id":"4","last_reported":1741421325,"current_range_meters":17200,"station_id":"","pricing_plan_id":"cebpf4jnsgd1na2vs0mg"},{"bike_id":"89cdc5a5-a744-4269-a86d-3ed5ecc287d5","system_id":"levelo_inurba_marseille","lat":43.24202,"lon":5.39764,"is_reserved":false,"is_disabled":false,"rental_uris":{"android":"levelo://app?vid=89cdc5a5-a744-4269-a86d-3ed5ecc287d5","ios":"levelo://app?vid=89cdc5a5-a744-4269-a86d-3ed5ecc287d5"},"vehicle_type_id":"4","last_reported":1741421325,"current_range_meters":17200,"station_id":"ce4bhn12rcd13ifvqgpg","pricing_plan_id":"cebpf4jnsgd1na2vs0mg"},{"bike_id":"bc135b14-3294-4bd1-83f0-17ad07a32530","system_id":"levelo_inurba_marseille","lat":43.29259,"lon":5.409,"is_reserved":false,"is_disabled":false,"rental_uris":{"android":"levelo://app?vid=bc135b14-3294-4bd1-83f0-17ad07a32530","ios":"levelo://app?vid=bc135b14-3294-4bd1-83f0-17ad07a32530"},"vehicle_type_id":"4","last_reported":1741421325,"current_range_meters":17200,"station_id":"ce4bh192rcd13ifvqdc0","pricing_plan_id":"cebpf4jnsgd1na2vs0mg"},{"bike_id":"1c0184c6-72ad-4860-a550-18c4478dfce6","system_id":"levelo_inurba_marseille","lat":43.27953,"lon":5.41055,"is_reserved":false,"is_disabled":false,"rental_uris":{"android":"levelo://app?vid=1c0184c6-72ad-4860-a550-18c4478dfce6","ios":"levelo://app?vid=1c0184c6-72ad-4860-a550-18c4478dfce6"},"vehicle_type_id":"4","last_reported":1741421325,"current_range_meters":17600,"station_id":"ce4bhnp2rcd13ifvqh0g","pricing_plan_id":"cebpf4jnsgd1na2vs0mg"},{"bike_id":"f6a21c52-00c8-4b4b-931c-930f7a98513a","system_id":"levelo_inurba_marseille","lat":43.280154,"lon":5.387235,"is_reserved":false,"is_disabled":false,"rental_uris":{"android":"levelo://app?vid=f6a21c52-00c8-4b4b-931c-930f7a98513a","ios":"levelo://app?vid=f6a21c52-00c8-4b4b-931c-930f7a98513a"},"vehicle_type_id":"4","last_reported":1741421325,"current_range_meters":17600,"station_id":"ce4bha92rcd13ifvqeg0","pricing_plan_id":"cebpf4jnsgd1na2vs0mg"},{"bike_id":"df6f4490-3d0d-4af6-846d-67631c57cf2f","system_id":"levelo_inurba_marseille","lat":43.323635,"lon":5.388849,"is_reserved":false,"is_disabled":false,"rental_uris":{"android":"levelo://app?vid=df6f4490-3d0d-4af6-846d-67631c57cf2f","ios":"levelo://app?vid=df6f4490-3d0d-4af6-846d-67631c57cf2f"},"vehicle_type_id":"4","last_reported":1741421325,"current_range_meters":17600,"station_id":"ce4bhqp2rcd13ifvqhog","pricing_plan_id":"cebpf4jnsgd1na2vs0mg"},{"bike_id":"e9dab2ce-7c7d-40d2-82aa-ed5c703d86fd","system_id":"levelo_inurba_marseille","lat":43.32096,"lon":5.36816,"is_reserved":false,"is_disabled":false,"rental_uris":{"android":"levelo://app?vid=e9dab2ce-7c7d-40d2-82aa-ed5c703d86fd","ios":"levelo://app?vid=e9dab2ce-7c7d-40d2-82aa-ed5c703d86fd"},"vehicle_type_id":"4","last_reported":1741421325,"current_range_meters":17600,"station_id":"ce4bhrh2rcd13ifvqhug","pricing_plan_id":"cebpf4jnsgd1na2vs0mg"},{"bike_id":"e69b7ac1-acb6-40b1-a547-a9560a96060b","system_id":"levelo_inurba_marseille","lat":43.28041,"lon":5.36923,"is_reserved":false,"is_disabled":false,"rental_uris":{"android":"levelo://app?vid=e69b7ac1-acb6-40b1-a547-a9560a96060b","ios":"levelo://app?vid=e69b7ac1-acb6-40b1-a547-a9560a96060b"},"vehicle_type_id":"4","last_reported":1741421325,"current_range_meters":17600,"station_id":"ce4bha12rcd13ifvqef0","pricing_plan_id":"cebpf4jnsgd1na2vs0mg"},{"bike_id":"deb81f77-c6e9-45d2-b680-8c00a5704cb4","system_id":"levelo_inurba_marseille","lat":43.32113,"lon":5.36764,"is_reserved":false,"is_disabled":false,"rental_uris":{"android":"levelo://app?vid=deb81f77-c6e9-45d2-b680-8c00a5704cb4","ios":"levelo://app?vid=deb81f77-c6e9-45d2-b680-8c00a5704cb4"},"vehicle_type_id":"4","last_reported":1741421325,"current_range_meters":17600,"station_id":"ce4bhrh2rcd13ifvqhug","pricing_plan_id":"cebpf4jnsgd1na2vs0mg"},{"bike_id":"46ff68d1-1514-47d8-8937-a8b9acea88f9","system_id":"levelo_inurba_marseille","lat":43.30151,"lon":5.38096,"is_reserved":false,"is_disabled":false,"rental_uris":{"android":"levelo://app?vid=46ff68d1-1514-47d8-8937-a8b9acea88f9","ios":"levelo://app?vid=46ff68d1-1514-47d8-8937-a8b9acea88f9"},"vehicle_type_id":"4","last_reported":1741421325,"current_range_meters":17600,"station_id":"ce4bgjp2rcd13ifvqbh0","pricing_plan_id":"cebpf4jnsgd1na2vs0mg"},{"bike_id":"db18c68c-1e98-43e4-adcc-af61b1d5bf5d","system_id":"levelo_inurba_marseille","lat":43.28852,"lon":5.35841,"is_reserved":false,"is_disabled":false,"rental_uris":{"android":"levelo://app?vid=db18c68c-1e98-43e4-adcc-af61b1d5bf5d","ios":"levelo://app?vid=db18c68c-1e98-43e4-adcc-af61b1d5bf5d"},"vehicle_type_id":"4","last_reported":1741421325,"current_range_meters":17600,"station_id":"ce4bhb12rcd13ifvqem0","pricing_plan_id":"cebpf4jnsgd1na2vs0mg"},{"bike_id":"e2b59796-2c52-4043-b822-f3ff053132c2","system_id":"levelo_inurba_marseille","lat":43.311798,"lon":5.387214,"is_reserved":false,"is_disabled":false,"rental_uris":{"android":"levelo://app?vid=e2b59796-2c52-4043-b822-f3ff053132c2","ios":"levelo://app?vid=e2b59796-2c52-4043-b822-f3ff053132c2"},"vehicle_type_id":"4","last_reported":1741421325,"current_range_meters":17200,"station_id":"ce4bgv12rcd13ifvqcp0","pricing_plan_id":"cebpf4jnsgd1na2vs0mg"},{"bike_id":"34ba5e39-4cad-4da7-ac8a-ce9f762bd057","system_id":"levelo_inurba_marseille","lat":43.29568,"lon":5.39985,"is_reserved":false,"is_disabled":false,"rental_uris":{"android":"levelo://app?vid=34ba5e39-4cad-4da7-ac8a-ce9f762bd057","ios":"levelo://app?vid=34ba5e39-4cad-4da7-ac8a-ce9f762bd057"},"vehicle_type_id":"4","last_reported":1741421325,"current_range_meters":18000,"station_id":"ce4bh312rcd13ifvqdj0","pricing_plan_id":"cebpf4jnsgd1na2vs0mg"},{"bike_id":"826d6a2b-7801-4bef-b2e1-72b8daa9b530","system_id":"levelo_inurba_marseille","lat":43.262,"lon":5.37933,"is_reserved":false,"is_disabled":false,"rental_uris":{"android":"levelo://app?vid=826d6a2b-7801-4bef-b2e1-72b8daa9b530","ios":"levelo://app?vid=826d6a2b-7801-4bef-b2e1-72b8daa9b530"},"vehicle_type_id":"4","last_reported":1741421325,"current_range_meters":18000,"station_id":"ce4bhjp2rcd13ifvqg90","pricing_plan_id":"cebpf4jnsgd1na2vs0mg"},{"bike_id":"dc404e46-8217-49df-a9f9-0b1fb5b9d87a","system_id":"levelo_inurba_marseille","lat":43.27993,"lon":5.40446,"is_reserved":false,"is_disabled":false,"rental_uris":{"android":"levelo://app?vid=dc404e46-8217-49df-a9f9-0b1fb5b9d87a","ios":"levelo://app?vid=dc404e46-8217-49df-a9f9-0b1fb5b9d87a"},"vehicle_type_id":"4","last_reported":1741421325,"current_range_meters":17600,"station_id":"","pricing_plan_id":"cebpf4jnsgd1na2vs0mg"},{"bike_id":"c7698d1d-5cf4-4c5d-9d06-311e4394d263","system_id":"levelo_inurba_marseille","lat":43.31268,"lon":5.401679,"is_reserved":false,"is_disabled":false,"rental_uris":{"android":"levelo://app?vid=c7698d1d-5cf4-4c5d-9d06-311e4394d263","ios":"levelo://app?vid=c7698d1d-5cf4-4c5d-9d06-311e4394d263"},"vehicle_type_id":"4","last_reported":1741421325,"current_range_meters":17600,"station_id":"ce4bh092rcd13ifvqd30","pricing_plan_id":"cebpf4jnsgd1na2vs0mg"},{"bike_id":"d233bae5-fbce-48d0-859c-4c6a493a8da8","system_id":"levelo_inurba_marseille","lat":43.29571,"lon":5.399914,"is_reserved":false,"is_disabled":false,"rental_uris":{"android":"levelo://app?vid=d233bae5-fbce-48d0-859c-4c6a493a8da8","ios":"levelo://app?vid=d233bae5-fbce-48d0-859c-4c6a493a8da8"},"vehicle_type_id":"4","last_reported":1741421325,"current_range_meters":17600,"station_id":"ce4bh312rcd13ifvqdj0","pricing_plan_id":"cebpf4jnsgd1na2vs0mg"},{"bike_id":"c2776722-9161-41be-8e0b-e0e0b53827e0","system_id":"levelo_inurba_marseille","lat":43.29511,"lon":5.39051,"is_reserved":false,"is_disabled":false,"rental_uris":{"android":"levelo://app?vid=c2776722-9161-41be-8e0b-e0e0b53827e0","ios":"levelo://app?vid=c2776722-9161-41be-8e0b-e0e0b53827e0"},"vehicle_type_id":"4","last_reported":1741421325,"current_range_meters":17600,"station_id":"ce4bh3p2rcd13ifvqdp0","pricing_plan_id":"cebpf4jnsgd1na2vs0mg"},{"bike_id":"7d5784fa-4cd9-4805-80bd-e45d001be8a2","system_id":"levelo_inurba_marseille","lat":43.2571,"lon":5.41117,"is_reserved":false,"is_disabled":false,"rental_uris":{"android":"levelo://app?vid=7d5784fa-4cd9-4805-80bd-e45d001be8a2","ios":"levelo://app?vid=7d5784fa-4cd9-4805-80bd-e45d001be8a2"},"vehicle_type_id":"4","last_reported":1741421325,"current_range_meters":17600,"station_id":"ce4bhkp2rcd13ifvqgd0","pricing_plan_id":"cebpf4jnsgd1na2vs0mg"},{"bike_id":"565b1b4a-1009-4863-99c0-9d374f0a8928","system_id":"levelo_inurba_marseille","lat":43.30204,"lon":5.39471,"is_reserved":false,"is_disabled":false,"rental_uris":{"android":"levelo://app?vid=565b1b4a-1009-4863-99c0-9d374f0a8928","ios":"levelo://app?vid=565b1b4a-1009-4863-99c0-9d374f0a8928"},"vehicle_type_id":"4","last_reported":1741421325,"current_range_meters":17600,"station_id":"ce4bh0p2rcd13ifvqd70","pricing_plan_id":"cebpf4jnsgd1na2vs0mg"},{"bike_id":"314ad92b-893d-46d1-8bd4-e3add17e505e","system_id":"levelo_inurba_marseille","lat":43.30315,"lon":5.40442,"is_reserved":false,"is_disabled":false,"rental_uris":{"android":"levelo://app?vid=314ad92b-893d-46d1-8bd4-e3add17e505e","ios":"levelo://app?vid=314ad92b-893d-46d1-8bd4-e3add17e505e"},"vehicle_type_id":"4","last_reported":1741421325,"current_range_meters":18000,"station_id":"ce4bh012rcd13ifvqd10","pricing_plan_id":"cebpf4jnsgd1na2vs0mg"},{"bike_id":"a816c470-d17f-491d-87bc-9be88dbb2941","system_id":"levelo_inurba_marseille","lat":43.30242,"lon":5.40041,"is_reserved":false,"is_disabled":false,"rental_uris":{"android":"levelo://app?vid=a816c470-d17f-491d-87bc-9be88dbb2941","ios":"levelo://app?vid=a816c470-d17f-491d-87bc-9be88dbb2941"},"vehicle_type_id":"4","last_reported":1741421325,"current_range_meters":17600,"station_id":"ce4bgvh2rcd13ifvqcs0","pricing_plan_id":"cebpf4jnsgd1na2vs0mg"},{"bike_id":"de9161da-4603-4122-876c-63adf821d616","system_id":"levelo_inurba_marseille","lat":43.3213,"lon":5.36754,"is_reserved":false,"is_disabled":false,"rental_uris":{"android":"levelo://app?vid=de9161da-4603-4122-876c-63adf821d616","ios":"levelo://app?vid=de9161da-4603-4122-876c-63adf821d616"},"vehicle_type_id":"4","last_reported":1741421325,"current_range_meters":18000,"station_id":"ce4bhrh2rcd13ifvqhug","pricing_plan_id":"cebpf4jnsgd1na2vs0mg"},{"bike_id":"62f42a3b-8367-48ae-9dd8-9d068af010dd","system_id":"levelo_inurba_marseille","lat":43.26542,"lon":5.37303,"is_reserved":false,"is_disabled":false,"rental_uris":{"android":"levelo://app?vid=62f42a3b-8367-48ae-9dd8-9d068af010dd","ios":"levelo://app?vid=62f42a3b-8367-48ae-9dd8-9d068af010dd"},"vehicle_type_id":"4","last_reported":1741421325,"current_range_meters":18000,"station_id":"ce4bhg12rcd13ifvqf70","pricing_plan_id":"cebpf4jnsgd1na2vs0mg"},{"bike_id":"2d201668-e0ff-4085-9ec0-5c082a94ad30","system_id":"levelo_inurba_marseille","lat":43.33788,"lon":5.37447,"is_reserved":false,"is_disabled":false,"rental_uris":{"android":"levelo://app?vid=2d201668-e0ff-4085-9ec0-5c082a94ad30","ios":"levelo://app?vid=2d201668-e0ff-4085-9ec0-5c082a94ad30"},"vehicle_type_id":"4","last_reported":1741421325,"current_range_meters":18000,"station_id":"","pricing_plan_id":"cebpf4jnsgd1na2vs0mg"},{"bike_id":"a71f5391-91f9-4d09-a601-92c62e162a41","system_id":"levelo_inurba_marseille","lat":43.29355,"lon":5.37953,"is_reserved":false,"is_disabled":false,"rental_uris":{"android":"levelo://app?vid=a71f5391-91f9-4d09-a601-92c62e162a41","ios":"levelo://app?vid=a71f5391-91f9-4d09-a601-92c62e162a41"},"vehicle_type_id":"4","last_reported":1741421325,"current_range_meters":18000,"station_id":"","pricing_plan_id":"cebpf4jnsgd1na2vs0mg"},{"bike_id":"4c2f31be-d910-44a0-bf80-42c6447a123d","system_id":"levelo_inurba_marseille","lat":43.32081,"lon":5.41531,"is_reserved":false,"is_disabled":false,"rental_uris":{"android":"levelo://app?vid=4c2f31be-d910-44a0-bf80-42c6447a123d","ios":"levelo://app?vid=4c2f31be-d910-44a0-bf80-42c6447a123d"},"vehicle_type_id":"4","last_reported":1741421325,"current_range_meters":18000,"station_id":"ce4bhq92rcd13ifvqhkg","pricing_plan_id":"cebpf4jnsgd1na2vs0mg"},{"bike_id":"98d6b5e7-ab8a-48b4-a847-7124bae4afc6","system_id":"levelo_inurba_marseille","lat":43.23086,"lon":5.35484,"is_reserved":false,"is_disabled":false,"rental_uris":{"android":"levelo://app?vid=98d6b5e7-ab8a-48b4-a847-7124bae4afc6","ios":"levelo://app?vid=98d6b5e7-ab8a-48b4-a847-7124bae4afc6"},"vehicle_type_id":"4","last_reported":1741421325,"current_range_meters":18000,"station_id":"cpo3342slgdg3j2ifvpg","pricing_plan_id":"cebpf4jnsgd1na2vs0mg"},{"bike_id":"2325f299-496d-44ce-b12e-aca693742ab7","system_id":"levelo_inurba_marseille","lat":43.29009,"lon":5.37829,"is_reserved":false,"is_disabled":false,"rental_uris":{"android":"levelo://app?vid=2325f299-496d-44ce-b12e-aca693742ab7","ios":"levelo://app?vid=2325f299-496d-44ce-b12e-aca693742ab7"},"vehicle_type_id":"4","last_reported":1741421325,"current_range_meters":18000,"station_id":"ce4bh9p2rcd13ifvqed0","pricing_plan_id":"cebpf4jnsgd1na2vs0mg"},{"bike_id":"99e69bf6-dc57-4127-a1aa-9a36825d1a88","system_id":"levelo_inurba_marseille","lat":43.323545,"lon":5.36752,"is_reserved":false,"is_disabled":false,"rental_uris":{"android":"levelo://app?vid=99e69bf6-dc57-4127-a1aa-9a36825d1a88","ios":"levelo://app?vid=99e69bf6-dc57-4127-a1aa-9a36825d1a88"},"vehicle_type_id":"4","last_reported":1741421325,"current_range_meters":18000,"station_id":"ce4bhsh2rcd13ifvqi2g","pricing_plan_id":"cebpf4jnsgd1na2vs0mg"},{"bike_id":"07d8914a-442b-4e7c-ae21-575c3876c678","system_id":"levelo_inurba_marseille","lat":43.30132,"lon":5.39875,"is_reserved":false,"is_disabled":false,"rental_uris":{"android":"levelo://app?vid=07d8914a-442b-4e7c-ae21-575c3876c678","ios":"levelo://app?vid=07d8914a-442b-4e7c-ae21-575c3876c678"},"vehicle_type_id":"4","last_reported":1741421325,"current_range_meters":18000,"station_id":"ce4bh0h2rcd13ifvqd40","pricing_plan_id":"cebpf4jnsgd1na2vs0mg"},{"bike_id":"d60e34e1-ce35-48d5-bcac-cc2b044aa8d9","system_id":"levelo_inurba_marseille","lat":43.2928,"lon":5.40117,"is_reserved":false,"is_disabled":false,"rental_uris":{"android":"levelo://app?vid=d60e34e1-ce35-48d5-bcac-cc2b044aa8d9","ios":"levelo://app?vid=d60e34e1-ce35-48d5-bcac-cc2b044aa8d9"},"vehicle_type_id":"4","last_reported":1741421325,"current_range_meters":18000,"station_id":"ce4bh312rcd13ifvqdk0","pricing_plan_id":"cebpf4jnsgd1na2vs0mg"},{"bike_id":"e1a0293b-333d-4a97-9af3-0c51ffe4ad6e","system_id":"levelo_inurba_marseille","lat":43.26682,"lon":5.3829,"is_reserved":false,"is_disabled":false,"rental_uris":{"android":"levelo://app?vid=e1a0293b-333d-4a97-9af3-0c51ffe4ad6e","ios":"levelo://app?vid=e1a0293b-333d-4a97-9af3-0c51ffe4ad6e"},"vehicle_type_id":"4","last_reported":1741421325,"current_range_meters":18800,"station_id":"ce4bhg92rcd13ifvqf90","pricing_plan_id":"cebpf4jnsgd1na2vs0mg"},{"bike_id":"c1f9dc52-143f-4dd4-8141-1255b1ae6eaa","system_id":"levelo_inurba_marseille","lat":43.24386,"lon":5.37053,"is_reserved":false,"is_disabled":false,"rental_uris":{"android":"levelo://app?vid=c1f9dc52-143f-4dd4-8141-1255b1ae6eaa","ios":"levelo://app?vid=c1f9dc52-143f-4dd4-8141-1255b1ae6eaa"},"vehicle_type_id":"4","last_reported":1741421325,"current_range_meters":18800,"station_id":"ce4bhhh2rcd13ifvqfk0","pricing_plan_id":"cebpf4jnsgd1na2vs0mg"},{"bike_id":"7ca91c25-4995-42a7-880a-7d48df7ac3f1","system_id":"levelo_inurba_marseille","lat":43.28455,"lon":5.39146,"is_reserved":false,"is_disabled":false,"rental_uris":{"android":"levelo://app?vid=7ca91c25-4995-42a7-880a-7d48df7ac3f1","ios":"levelo://app?vid=7ca91c25-4995-42a7-880a-7d48df7ac3f1"},"vehicle_type_id":"4","last_reported":1741421325,"current_range_meters":18800,"station_id":"ce4bhoh2rcd13ifvqh5g","pricing_plan_id":"cebpf4jnsgd1na2vs0mg"},{"bike_id":"06aae4a1-fad8-421c-9b02-56d2c7921668","system_id":"levelo_inurba_marseille","lat":43.29033,"lon":5.39989,"is_reserved":false,"is_disabled":false,"rental_uris":{"android":"levelo://app?vid=06aae4a1-fad8-421c-9b02-56d2c7921668","ios":"levelo://app?vid=06aae4a1-fad8-421c-9b02-56d2c7921668"},"vehicle_type_id":"4","last_reported":1741421325,"current_range_meters":18800,"station_id":"ce4bh392rcd13ifvqdm0","pricing_plan_id":"cebpf4jnsgd1na2vs0mg"},{"bike_id":"b457ae90-869a-4eaa-9027-6c060a1776b3","system_id":"levelo_inurba_marseille","lat":43.28553,"lon":5.39513,"is_reserved":false,"is_disabled":false,"rental_uris":{"android":"levelo://app?vid=b457ae90-869a-4eaa-9027-6c060a1776b3","ios":"levelo://app?vid=b457ae90-869a-4eaa-9027-6c060a1776b3"},"vehicle_type_id":"4","last_reported":1741421325,"current_range_meters":18800,"station_id":"ce4bh292rcd13ifvqdg0","pricing_plan_id":"cebpf4jnsgd1na2vs0mg"},