{"last_updated":1745341785,"ttl":60,"version":"2.2","data":{"bikes":[{"bike_id":"3872ce0b-00ae-4193-8f27-ce429f729782","system_id":"levelo_inurba_marseille","lat":43.29962,"lon":5.38493,"is_reserved":false,"is_disabled":false,"rental_uris":{"android":"levelo://app?vid=3872ce0b-00ae-4193-8f27-ce429f729782","ios":"levelo://app?vid=3872ce0b-00ae-4193-8f27-ce429f729782"},"vehicle_type_id":"4","last_reported":1745341785,"current_range_meters":2800,"station_id":"ce4bgj92rcd13ifvqbd0","pricing_plan_id":"cebpf4jnsgd1na2vs0mg"},{"bike_id":"72708939-08f4-4c86-8d32-4196ad08b528","system_id":"levelo_inurba_marseille","lat":43.30896,"lon":5.37191,"is_reserved":false,"is_disabled":false,"rental_uris":{"android":"levelo://app?vid=72708939-08f4-4c86-8d32-4196ad08b528","ios":"levelo://app?vid=72708939-08f4-4c86-8d32-4196ad08b528"},"vehicle_type_id":"4","last_reported":1745341785,"current_range_meters":2800,"station_id":"ce4bguh2rcd13ifvqckg","pricing_plan_id":"cebpf4jnsgd1na2vs0mg"},{"bike_id":"3ff56ed4-6f7b-4d9d-82e3-c38137d41623","system_id":"levelo_inurba_marseille","lat":43.29916,"lon":5.37475,"is_reserved":false,"is_disabled":false,"rental_uris":{"android":"levelo://app?vid=3ff56ed4-6f7b-4d9d-82e3-c38137d41623","ios":"levelo://app?vid=3ff56ed4-6f7b-4d9d-82e3-c38137d41623"},"vehicle_type_id":"4","last_reported":1745341785,"current_range_meters":2800,"station_id":"ce4bgjh2rcd13ifvqbg0","pricing_plan_id":"cebpf4jnsgd1na2vs0mg"},{"bike_id":"b94e7816-01f1-4fe1-b8c8-def7ee2c3a1e","system_id":"levelo_inurba_marseille","lat":43.28704,"lon":5.39987,"is_reserved":false,"is_disabled":false,"rental_uris":{"android":"levelo://app?vid=b94e7816-01f1-4fe1-b8c8-def7ee2c3a1e","ios":"levelo://app?vid=b94e7816-01f1-4fe1-b8c8-def7ee2c3a1e"},"vehicle_type_id":"4","last_reported":1745341785,"current_range_meters":2800,"station_id":"ce4bho92rcd13ifvqh3g","pricing_plan_id":"cebpf4jnsgd1na2vs0mg"},{"bike_id":"feff877b-5e49-4409-b822-e14e8b9656c2","system_id":"levelo_inurba_marseille","lat":43.2804,"lon":5.36947,"is_reserved":false,"is_disabled":false,"rental_uris":{"android":"levelo://app?vid=feff877b-5e49-4409-b822-e14e8b9656c2","ios":"levelo://app?vid=feff877b-5e49-4409-b822-e14e8b9656c2"},"vehicle_type_id":"4","last_reported":1745341785,"current_range_meters":3200,"station_id":"ce4bha12rcd13ifvqef0","pricing_plan_id":"cebpf4jnsgd1na2vs0mg"},{"bike_id":"2560db06-3ac4-41f7-bd30-0c44a160cc11","system_id":"levelo_inurba_marseille","lat":43.25504,"lon":5.37644,"is_reserved":false,"is_disabled":false,"rental_uris":{"android":"levelo://app?vid=2560db06-3ac4-41f7-bd30-0c44a160cc11","ios":"levelo://app?vid=2560db06-3ac4-41f7-bd30-0c44a160cc11"},"vehicle_type_id":"4","last_reported":1745341785,"current_range_meters":3600,"station_id":"ce4bhh12rcd13ifvqff0","pricing_plan_id":"cebpf4jnsgd1na2vs0mg"},{"bike_id":"08adba7b-eac3-4cfc-9923-2ccf0cc4ffef","system_id":"levelo_inurba_marseille","lat":43.24574,"lon":5.41284,"is_reserved":false,"is_disabled":false,"rental_uris":{"android":"levelo://app?vid=08adba7b-eac3-4cfc-9923-2ccf0cc4ffef","ios":"levelo://app?vid=08adba7b-eac3-4cfc-9923-2ccf0cc4ffef"},"vehicle_type_id":"4","last_reported":1745341785,"current_range_meters":3600,"station_id":"","pricing_plan_id":"cebpf4jnsgd1na2vs0mg"},{"bike_id":"c712a562-aa83-4b6a-a7b0-67fb4d6a7319","system_id":"levelo_inurba_marseille","lat":43.21221,"lon":5.35095,"is_reserved":false,"is_disabled":false,"rental_uris":{"android":"levelo://app?vid=c712a562-aa83-4b6a-a7b0-67fb4d6a7319","ios":"levelo://app?vid=c712a562-aa83-4b6a-a7b0-67fb4d6a7319"},"vehicle_type_id":"4","last_reported":1745341785,"current_range_meters":3600,"station_id":"st_cvj6sg6p6f1abm77japg","pricing_plan_id":"cebpf4jnsgd1na2vs0mg"},{"bike_id":"82e688e0-a21c-468c-808d-a272d8f1b54a","system_id":"levelo_inurba_marseille","lat":43.29043,"lon":5.39969,"is_reserved":false,"is_disabled":false,"rental_uris":{"android":"levelo://app?vid=82e688e0-a21c-468c-808d-a272d8f1b54a","ios":"levelo://app?vid=82e688e0-a21c-468c-808d-a272d8f1b54a"},"vehicle_type_id":"4","last_reported":1745341785,"current_range_meters":3600,"station_id":"ce4bh392rcd13ifvqdm0","pricing_plan_id":"cebpf4jnsgd1na2vs0mg"},{"bike_id":"bfbfc88e-c977-47c5-b809-3b8795036371","system_id":"levelo_inurba_marseille","lat":43.293695,"lon":5.408208,"is_reserved":false,"is_disabled":false,"rental_uris":{"android":"levelo://app?vid=bfbfc88e-c977-47c5-b809-3b8795036371","ios":"levelo://app?vid=bfbfc88e-c977-47c5-b809-3b8795036371"},"vehicle_type_id":"4","last_reported":1745341785,"current_range_meters":3600,"station_id":"ce4bhbh2rcd13ifvqeqg","pricing_plan_id":"cebpf4jnsgd1na2vs0mg"},{"bike_id":"6529e4d2-1271-4f78-9eb3-3c71c1dd9c65","system_id":"levelo_inurba_marseille","lat":43.31182,"lon":5.38689,"is_reserved":false,"is_disabled":false,"rental_uris":{"android":"levelo://app?vid=6529e4d2-1271-4f78-9eb3-3c71c1dd9c65","ios":"levelo://app?vid=6529e4d2-1271-4f78-9eb3-3c71c1dd9c65"},"vehicle_type_id":"4","last_reported":1745341785,"current_range_meters":4000,"station_id":"ce4bgv12rcd13ifvqcp0","pricing_plan_id":"cebpf4jnsgd1na2vs0mg"},{"bike_id":"d1785a2f-421f-4dde-a76c-cc008ef2bd30","system_id":"levelo_inurba_marseille","lat":43.29262,"lon":5.40153,"is_reserved":false,"is_disabled":false,"rental_uris":{"android":"levelo://app?vid=d1785a2f-421f-4dde-a76c-cc008ef2bd30","ios":"levelo://app?vid=d1785a2f-421f-4dde-a76c-cc008ef2bd30"},"vehicle_type_id":"4","last_reported":1745341785,"current_range_meters":4000,"station_id":"ce4bh312rcd13ifvqdk0","pricing_plan_id":"cebpf4jnsgd1na2vs0mg"},{"bike_id":"cd545975-ea33-4f65-8596-135ab4dc0de2","system_id":"levelo_inurba_marseille","lat":43.27372,"lon":5.36258,"is_reserved":false,"is_disabled":false,"rental_uris":{"android":"levelo://app?vid=cd545975-ea33-4f65-8596-135ab4dc0de2","ios":"levelo://app?vid=cd545975-ea33-4f65-8596-135ab4dc0de2"},"vehicle_type_id":"4","last_reported":1745341785,"current_range_meters":4000,"station_id":"ce4bhbh2rcd13ifvqeo0","pricing_plan_id":"cebpf4jnsgd1na2vs0mg"},{"bike_id":"3b587743-68fd-4941-a304-e01dc05c1259","system_id":"levelo_inurba_marseille","lat":43.29932,"lon":5.36534,"is_reserved":false,"is_disabled":false,"rental_uris":{"android":"levelo://app?vid=3b587743-68fd-4941-a304-e01dc05c1259","ios":"levelo://app?vid=3b587743-68fd-4941-a304-e01dc05c1259"},"vehicle_type_id":"4","last_reported":1745341785,"current_range_meters":4000,"station_id":"ce4bgm92rcd13ifvqbr0","pricing_plan_id":"cebpf4jnsgd1na2vs0mg"},{"bike_id":"3e84a85d-c076-4cc9-961c-20e277b23148","system_id":"levelo_inurba_marseille","lat":43.2978,"lon":5.3711,"is_reserved":false,"is_disabled":false,"rental_uris":{"android":"levelo://app?vid=3e84a85d-c076-4cc9-961c-20e277b23148","ios":"levelo://app?vid=3e84a85d-c076-4cc9-961c-20e277b23148"},"vehicle_type_id":"4","last_reported":1745341785,"current_range_meters":3600,"station_id":"ce4bgop2rcd13ifvqc1g","pricing_plan_id":"cebpf4jnsgd1na2vs0mg"},{"bike_id":"93286e08-efa9-4fd5-b4b2-01c926969b32","system_id":"levelo_inurba_marseille","lat":43.29278,"lon":5.40133,"is_reserved":false,"is_disabled":false,"rental_uris":{"android":"levelo://app?vid=93286e08-efa9-4fd5-b4b2-01c926969b32","ios":"levelo://app?vid=93286e08-efa9-4fd5-b4b2-01c926969b32"},"vehicle_type_id":"4","last_reported":1745341785,"current_range_meters":4000,"station_id":"ce4bh312rcd13ifvqdk0","pricing_plan_id":"cebpf4jnsgd1na2vs0mg"},{"bike_id":"0ef23631-dbd2-4c68-adc1-77243fd0c5dd","system_id":"levelo_inurba_marseille","lat":43.29248,"lon":5.38521,"is_reserved":false,"is_disabled":false,"rental_uris":{"android":"levelo://app?vid=0ef23631-dbd2-4c68-adc1-77243fd0c5dd","ios":"levelo://app?vid=0ef23631-dbd2-4c68-adc1-77243fd0c5dd"},"vehicle_type_id":"4","last_reported":1745341785,"current_range_meters":4000,"station_id":"","pricing_plan_id":"cebpf4jnsgd1na2vs0mg"},{"bike_id":"cb33acc2-5eea-45c0-9b15-8f533d6ae3df","system_id":"levelo_inurba_marseille","lat":43.28521,"lon":5.3873,"is_reserved":false,"is_disabled":false,"rental_uris":{"android":"levelo://app?vid=cb33acc2-5eea-45c0-9b15-8f533d6ae3df","ios":"levelo://app?vid=cb33acc2-5eea-45c0-9b15-8f533d6ae3df"},"vehicle_type_id":"4","last_reported":1745341785,"current_range_meters":4000,"station_id":"","pricing_plan_id":"cebpf4jnsgd1na2vs0mg"},{"bike_id":"cae23ce4-794c-400c-aeb2-4421ece01cbe","system_id":"levelo_inurba_marseille","lat":43.27918,"lon":5.39617,"is_reserved":false,"is_disabled":false,"rental_uris":{"android":"levelo://app?vid=cae23ce4-794c-400c-aeb2-4421ece01cbe","ios":"levelo://app?vid=cae23ce4-794c-400c-aeb2-4421ece01cbe"},"vehicle_type_id":"4","last_reported":1745341785,"current_range_meters":4400,"station_id":"ce4bhf92rcd13ifvqf40","pricing_plan_id":"cebpf4jnsgd1na2vs0mg"},{"bike_id":"9bbf787d-828f-44a3-b8fc-8d0f3fea0fe6","system_id":"levelo_inurba_marseille","lat":43.30133,"lon":5.38783,"is_reserved":false,"is_disabled":false,"rental_uris":{"android":"levelo://app?vid=9bbf787d-828f-44a3-b8fc-8d0f3fea0fe6","ios":"levelo://app?vid=9bbf787d-828f-44a3-b8fc-8d0f3fea0fe6"},"vehicle_type_id":"4","last_reported":1745341785,"current_range_meters":4400,"station_id":"ce4bghh2rcd13ifvqb60","pricing_plan_id":"cebpf4jnsgd1na2vs0mg"},{"bike_id":"39b7ee85-9cbf-4904-a10a-75042515f95d","system_id":"levelo_inurba_marseille","lat":43.36254,"lon":5.34767,"is_reserved":false,"is_disabled":false,"rental_uris":{"android":"levelo://app?vid=39b7ee85-9cbf-4904-a10a-75042515f95d","ios":"levelo://app?vid=39b7ee85-9cbf-4904-a10a-75042515f95d"},"vehicle_type_id":"4","last_reported":1745341785,"current_range_meters":4800,"station_id":"","pricing_plan_id":"cebpf4jnsgd1na2vs0mg"},{"bike_id":"1f3052aa-0123-4154-a20d-2f0ab5141269","system_id":"levelo_inurba_marseille","lat":43.26937,"lon":5.40265,"is_reserved":false,"is_disabled":false,"rental_uris":{"android":"levelo://app?vid=1f3052aa-0123-4154-a20d-2f0ab5141269","ios":"levelo://app?vid=1f3052aa-0123-4154-a20d-2f0ab5141269"},"vehicle_type_id":"4","last_reported":1745341785,"current_range_meters":4800,"station_id":"cjm6bp8fraef2m0cb0m0","pricing_plan_id":"cebpf4jnsgd1na2vs0mg"},{"bike_id":"674fda14-24d6-44c5-868f-ee498c57fd70","system_id":"levelo_inurba_marseille","lat":43.2679,"lon":5.39414,"is_reserved":false,"is_disabled":false,"rental_uris":{"android":"levelo://app?vid=674fda14-24d6-44c5-868f-ee498c57fd70","ios":"levelo://app?vid=674fda14-24d6-44c5-868f-ee498c57fd70"},"vehicle_type_id":"4","last_reported":1745341785,"current_range_meters":4800,"station_id":"ce4bhh12rcd13ifvqfg0","pricing_plan_id":"cebpf4jnsgd1na2vs0mg"},{"bike_id":"6f0ff3df-91b5-4299-98e0-3c49587cb61d","system_id":"levelo_inurba_marseille","lat":43.22946,"lon":5.35379,"is_reserved":false,"is_disabled":false,"rental_uris":{"android":"levelo://app?vid=6f0ff3df-91b5-4299-98e0-3c49587cb61d","ios":"levelo://app?vid=6f0ff3df-91b5-4299-98e0-3c49587cb61d"},"vehicle_type_id":"4","last_reported":1745341785,"current_range_meters":4800,"station_id":"cpo3532slgdg3j2ikp40","pricing_plan_id":"cebpf4jnsgd1na2vs0mg"},{"bike_id":"fc55aefe-cc3e-4be6-ab17-2b7d6fb6a610","system_id":"levelo_inurba_marseille","lat":43.29534,"lon":5.385433,"is_reserved":false,"is_disabled":false,"rental_uris":{"android":"levelo://app?vid=fc55aefe-cc3e-4be6-ab17-2b7d6fb6a610","ios":"levelo://app?vid=fc55aefe-cc3e-4be6-ab17-2b7d6fb6a610"},"vehicle_type_id":"4","last_reported":1745341785,"current_range_meters":4800,"station_id":"ce4bgih2rcd13ifvqba0","pricing_plan_id":"cebpf4jnsgd1na2vs0mg"},{"bike_id":"59540ae1-2eee-4577-bdf6-2562ccc8d946","system_id":"levelo_inurba_marseille","lat":43.27919,"lon":5.3959,"is_reserved":false,"is_disabled":false,"rental_uris":{"android":"levelo://app?vid=59540ae1-2eee-4577-bdf6-2562ccc8d946","ios":"levelo://app?vid=59540ae1-2eee-4577-bdf6-2562ccc8d946"},"vehicle_type_id":"4","last_reported":1745341785,"current_range_meters":4800,"station_id":"ce4bhf92rcd13ifvqf40","pricing_plan_id":"cebpf4jnsgd1na2vs0mg"},{"bike_id":"a6edc2aa-989f-4479-9e08-5e9e2db94bb3","system_id":"levelo_inurba_marseille","lat":43.25116,"lon":5.40313,"is_reserved":false,"is_disabled":false,"rental_uris":{"android":"levelo://app?vid=a6edc2aa-989f-4479-9e08-5e9e2db94bb3","ios":"levelo://app?vid=a6edc2aa-989f-4479-9e08-5e9e2db94bb3"},"vehicle_type_id":"4","last_reported":1745341785,"current_range_meters":4800,"station_id":"ce4bhlh2rcd13ifvqgig","pricing_plan_id":"cebpf4jnsgd1na2vs0mg"},{"bike_id":"0fc93a2d-afea-4d4d-9b3f-a5f9af442d03","system_id":"levelo_inurba_marseille","lat":43.29528,"lon":5.39417,"is_reserved":false,"is_disabled":false,"rental_uris":{"android":"levelo://app?vid=0fc93a2d-afea-4d4d-9b3f-a5f9af442d03","ios":"levelo://app?vid=0fc93a2d-afea-4d4d-9b3f-a5f9af442d03"},"vehicle_type_id":"4","last_reported":1745341785,"current_range_meters":5600,"station_id":"ce4bh292rcd13ifvqdf0","pricing_plan_id":"cebpf4jnsgd1na2vs0mg"},{"bike_id":"b1461ff8-6e4c-463d-9838-fae378ec5b49","system_id":"levelo_inurba_marseille","lat":43.29228,"lon":5.36077,"is_reserved":false,"is_disabled":false,"rental_uris":{"android":"levelo://app?vid=b1461ff8-6e4c-463d-9838-fae378ec5b49","ios":"levelo://app?vid=b1461ff8-6e4c-463d-9838-fae378ec5b49"},"vehicle_type_id":"4","last_reported":1745341785,"current_range_meters":5600,"station_id":"ce4bhbh2rcd13ifvqeqg","pricing_plan_id":"cebpf4jnsgd1na2vs0mg"},{"bike_id":"e0a2edff-ea80-41a1-b039-465b85da29c3","system_id":"levelo_inurba_marseille","lat":43.28011,"lon":5.38779,"is_reserved":false,"is_disabled":false,"rental_uris":{"android":"levelo://app?vid=e0a2edff-ea80-41a1-b039-465b85da29c3","ios":"levelo://app?vid=e0a2edff-ea80-41a1-b039-465b85da29c3"},"vehicle_type_id":"4","last_reported":1745341785,"current_range_meters":5600,"station_id":"ce4bhg12rcd13ifvqf80","pricing_plan_id":"cebpf4jnsgd1na2vs0mg"},{"bike_id":"6bd7829c-3a46-4fe2-ae33-a166d0153383","system_id":"levelo_inurba_marseille","lat":43.275733,"lon":5.384307,"is_reserved":false,"is_disabled":false,"rental_uris":{"android":"levelo://app?vid=6bd7829c-3a46-4fe2-ae33-a166d0153383","ios":"levelo://app?vid=6bd7829c-3a46-4fe2-ae33-a166d0153383"},"vehicle_type_id":"4","last_reported":1745341785,"current_range_meters":5600,"station_id":"ce4bhh92rcd13ifvqfi0","pricing_plan_id":"cebpf4jnsgd1na2vs0mg"},{"bike_id":"412c8200-3791-4688-8a64-2b8c184c5f37","system_id":"levelo_inurba_marseille","lat":43.24651,"lon":5.38887,"is_reserved":false,"is_disabled":false,"rental_uris":{"android":"levelo://app?vid=412c8200-3791-4688-8a64-2b8c184c5f37","ios":"levelo://app?vid=412c8200-3791-4688-8a64-2b8c184c5f37"},"vehicle_type_id":"4","last_reported":1745341785,"current_range_meters":5600,"station_id":"ce4bhg12rcd13ifvqf60","pricing_plan_id":"cebpf4jnsgd1na2vs0mg"},{"bike_id":"2e111a51-dcbc-4940-b88c-68b528e450d4","system_id":"levelo_inurba_marseille","lat":43.29803,"lon":5.38101,"is_reserved":false,"is_disabled":false,"rental_uris":{"android":"levelo://app?vid=2e111a51-dcbc-4940-b88c-68b528e450d4","ios":"levelo://app?vid=2e111a51-dcbc-4940-b88c-68b528e450d4"},"vehicle_type_id":"4","last_reported":1745341785,"current_range_meters":6000,"station_id":"ce4bgip2rcd13ifvqbb0","pricing_plan_id":"cebpf4jnsgd1na2vs0mg"},{"bike_id":"63a2bd3c-e7be-4e59-adbb-2aed1db3f912","system_id":"levelo_inurba_marseille","lat":43.26227,"lon":5.40452,"is_reserved":false,"is_disabled":false,"rental_uris":{"android":"levelo://app?vid=63a2bd3c-e7be-4e59-adbb-2aed1db3f912","ios":"levelo://app?vid=63a2bd3c-e7be-4e59-adbb-2aed1db3f912"},"vehicle_type_id":"4","last_reported":1745341785,"current_range_meters":6000,"station_id":"ce4bhmh2rcd13ifvqgmg","pricing_plan_id":"cebpf4jnsgd1na2vs0mg"},{"bike_id":"ec709363-5ba9-40b0-8fe1-1b7cfe85bfc4","system_id":"levelo_inurba_marseille","lat":43.26027,"lon":5.37565,"is_reserved":false,"is_disabled":false,"rental_uris":{"android":"levelo://app?vid=ec709363-5ba9-40b0-8fe1-1b7cfe85bfc4","ios":"levelo://app?vid=ec709363-5ba9-40b0-8fe1-1b7cfe85bfc4"},"vehicle_type_id":"4","last_reported":1745341785,"current_range_meters":6000,"station_id":"ce4bhgh2rcd13ifvqfa0","pricing_plan_id":"cebpf4jnsgd1na2vs0mg"},{"bike_id":"4ccb40f1-3398-4d6b-aac4-f47349efcbd2","system_id":"levelo_inurba_marseille","lat":43.28616,"lon":5.35108,"is_reserved":false,"is_disabled":false,"rental_uris":{"android":"levelo://app?vid=4ccb40f1-3398-4d6b-aac4-f47349efcbd2","ios":"levelo://app?vid=4ccb40f1-3398-4d6b-aac4-f47349efcbd2"},"vehicle_type_id":"4","last_reported":1745341785,"current_range_meters":6000,"station_id":"ce4bhch2rcd13ifvqeug","pricing_plan_id":"cebpf4jnsgd1na2vs0mg"},{"bike_id":"811a4cdc-13cf-43d0-8d6f-0c92cce41853","system_id":"levelo_inurba_marseille","lat":43.25108,"lon":5.40322,"is_reserved":false,"is_disabled":false,"rental_uris":{"android":"levelo://app?vid=811a4cdc-13cf-43d0-8d6f-0c92cce41853","ios":"levelo://app?vid=811a4cdc-13cf-43d0-8d6f-0c92cce41853"},"vehicle_type_id":"4","last_reported":1745341785,"current_range_meters":6000,"station_id":"ce4bhlh2rcd13ifvqgig","pricing_plan_id":"cebpf4jnsgd1na2vs0mg"},{"bike_id":"f232544d-a366-4720-8200-0fbeee56940d","system_id":"levelo_inurba_marseille","lat":43.26237,"lon":5.40456,"is_reserved":false,"is_disabled":false,"rental_uris":{"android":"levelo://app?vid=f232544d-a366-4720-8200-0fbeee56940d","ios":"levelo://app?vid=f232544d-a366-4720-8200-0fbeee56940d"},"vehicle_type_id":"4","last_reported":1745341785,"current_range_meters":4800,"station_id":"ce4bhmh2rcd13ifvqgmg","pricing_plan_id":"cebpf4jnsgd1na2vs0mg"},{"bike_id":"f0354939-0047-48f6-8d17-a3060c18e0c0","system_id":"levelo_inurba_marseille","lat":43.29957,"lon":5.38498,"is_reserved":false,"is_disabled":false,"rental_uris":{"android":"levelo://app?vid=f0354939-0047-48f6-8d17-a3060c18e0c0","ios":"levelo://app?vid=f0354939-0047-48f6-8d17-a3060c18e0c0"},"vehicle_type_id":"4","last_reported":1745341785,"current_range_meters":6400,"station_id":"ce4bgj92rcd13ifvqbd0","pricing_plan_id":"cebpf4jnsgd1na2vs0mg"},{"bike_id":"20605c86-d6f9-4d18-8368-04d34dff0852","system_id":"levelo_inurba_marseille","lat":43.2953,"lon":5.38549,"is_reserved":false,"is_disabled":false,"rental_uris":{"android":"levelo://app?vid=20605c86-d6f9-4d18-8368-04d34dff0852","ios":"levelo://app?vid=20605c86-d6f9-4d18-8368-04d34dff0852"},"vehicle_type_id":"4","last_reported":1745341785,"current_range_meters":6400,"station_id":"ce4bgih2rcd13ifvqba0","pricing_plan_id":"cebpf4jnsgd1na2vs0mg"},{"bike_id":"4c0a38e1-5dda-436d-8a43-f3521cd051d3","system_id":"levelo_inurba_marseille","lat":43.29541,"lon":5.38551,"is_reserved":false,"is_disabled":true,"rental_uris":{"android":"levelo://app?vid=4c0a38e1-5dda-436d-8a43-f3521cd051d3","ios":"levelo://app?vid=4c0a38e1-5dda-436d-8a43-f3521cd051d3"},"vehicle_type_id":"4","last_reported":1745341785,"current_range_meters":6400,"station_id":"ce4bgih2rcd13ifvqba0","pricing_plan_id":"cebpf4jnsgd1na2vs0mg"},{"bike_id":"2e6df2f0-be76-418e-be9b-84987ca50899","system_id":"levelo_inurba_marseille","lat":43.28696,"lon":5.38675,"is_reserved":false,"is_disabled":false,"rental_uris":{"android":"levelo://app?vid=2e6df2f0-be76-418e-be9b-84987ca50899","ios":"levelo://app?vid=2e6df2f0-be76-418e-be9b-84987ca50899"},"vehicle_type_id":"4","last_reported":1745341785,"current_range_meters":6400,"station_id":"ce4bh492rcd13ifvqdug","pricing_plan_id":"cebpf4jnsgd1na2vs0mg"},{"bike_id":"49c807be-98e2-4c8c-b44b-9efb930bd021","system_id":"levelo_inurba_marseille","lat":43.28702,"lon":5.3999,"is_reserved":false,"is_disabled":false,"rental_uris":{"android":"levelo://app?vid=49c807be-98e2-4c8c-b44b-9efb930bd021","ios":"levelo://app?vid=49c807be-98e2-4c8c-b44b-9efb930bd021"},"vehicle_type_id":"4","last_reported":1745341785,"current_range_meters":6400,"station_id":"ce4bho92rcd13ifvqh3g","pricing_plan_id":"cebpf4jnsgd1na2vs0mg"},{"bike_id":"bc2ce52c-5c50-4a40-827e-e82d57132c0d","system_id":"levelo_inurba_marseille","lat":43.31146,"lon":5.38683,"is_reserved":false,"is_disabled":false,"rental_uris":{"android":"levelo://app?vid=bc2ce52c-5c50-4a40-827e-e82d57132c0d","ios":"levelo://app?vid=bc2ce52c-5c50-4a40-827e-e82d57132c0d"},"vehicle_type_id":"4","last_reported":1745341785,"current_range_meters":6400,"station_id":"ce4bgv12rcd13ifvqcp0","pricing_plan_id":"cebpf4jnsgd1na2vs0mg"},{"bike_id":"ac2a21e1-8506-45aa-8c53-593d56f42f40","system_id":"levelo_inurba_marseille","lat":43.29058,"lon":5.37188,"is_reserved":false,"is_disabled":false,"rental_uris":{"android":"levelo://app?vid=ac2a21e1-8506-45aa-8c53-593d56f42f40","ios":"levelo://app?vid=ac2a21e1-8506-45aa-8c53-593d56f42f40"},"vehicle_type_id":"4","last_reported":1745341785,"current_range_meters":6800,"station_id":"ce4bh5p2rcd13ifvqe4g","pricing_plan_id":"cebpf4jnsgd1na2vs0mg"},{"bike_id":"80349d4c-4a0e-48a3-a927-7fee52468c5c","system_id":"levelo_inurba_marseille","lat":43.32375,"lon":5.36775,"is_reserved":false,"is_disabled":false,"rental_uris":{"android":"levelo://app?vid=80349d4c-4a0e-48a3-a927-7fee52468c5c","ios":"levelo://app?vid=80349d4c-4a0e-48a3-a927-7fee52468c5c"},"vehicle_type_id":"4","last_reported":1745341785,"current_range_meters":6800,"station_id":"ce4bhsh2rcd13ifvqi2g","pricing_plan_id":"cebpf4jnsgd1na2vs0mg"},{"bike_id":"6339f536-606e-4a50-bfbc-ed5c673e8e1c","system_id":"levelo_inurba_marseille","lat":43.28155,"lon":5.42638,"is_reserved":false,"is_disabled":false,"rental_uris":{"android":"levelo://app?vid=6339f536-606e-4a50-bfbc-ed5c673e8e1c","ios":"levelo://app?vid=6339f536-606e-4a50-bfbc-ed5c673e8e1c"},"vehicle_type_id":"4","last_reported":1745341785,"current_range_meters":6800,"station_id":"ce4bhnh2rcd13ifvqgug","pricing_plan_id":"cebpf4jnsgd1na2vs0mg"},{"bike_id":"eb613738-fcdb-4c92-a9d3-e5b2de692e33","system_id":"levelo_inurba_marseille","lat":43.22929,"lon":5.35373,"is_reserved":false,"is_disabled":false,"rental_uris":{"android":"levelo://app?vid=eb613738-fcdb-4c92-a9d3-e5b2de692e33","ios":"levelo://app?vid=eb613738-fcdb-4c92-a9d3-e5b2de692e33"},"vehicle_type_id":"4","last_reported":1745341785,"current_range_meters":6800,"station_id":"cpo3532slgdg3j2ikp40","pricing_plan_id":"cebpf4jnsgd1na2vs0mg"},{"bike_id":"6da9da5c-9297-4da1-bbaf-0f124523da2c","system_id":"levelo_inurba_marseille","lat":43.29546,"lon":5.38547,"is_reserved":false,"is_disabled":false,"rental_uris":{"android":"levelo://app?vid=6da9da5c-9297-4da1-bbaf-0f124523da2c","ios":"levelo://app?vid=6da9da5c-9297-4da1-bbaf-0f124523da2c"},"vehicle_type_id":"4","last_reported":1745341785,"current_range_meters":6800,"station_id":"ce4bgih2rcd13ifvqba0","pricing_plan_id":"cebpf4jnsgd1na2vs0mg"},{"bike_id":"bd3c1754-f5f3-4d87-8dc7-96dd2b03d4d2","system_id":"levelo_inurba_marseille","lat":43.33376,"lon":5.4004,"is_reserved":false,"is_disabled":false,"rental_uris":{"android":"levelo://app?vid=bd3c1754-f5f3-4d87-8dc7-96dd2b03d4d2","ios":"levelo://app?vid=bd3c1754-f5f3-4d87-8dc7-96dd2b03d4d2"},"vehicle_type_id":"4","last_reported":1745341785,"current_range_meters":6800,"station_id":"","pricing_plan_id":"cebpf4jnsgd1na2vs0mg"},{"bike_id":"4f36b6ef-29bc-4601-88cc-ebb0328d55b7","system_id":"levelo_inurba_marseille","lat":43.24798,"lon":5.37449,"is_reserved":false,"is_disabled":false,"rental_uris":{"android":"levelo://app?vid=4f36b6ef-29bc-4601-88cc-ebb0328d55b7","ios":"levelo://app?vid=4f36b6ef-29bc-4601-88cc-ebb0328d55b7"},"vehicle_type_id":"4","last_reported":1745341785,"current_range_meters":7200,"station_id":"ce4bhgh2rcd13ifvqfb0","pricing_plan_id":"cebpf4jnsgd1na2vs0mg"},{"bike_id":"6ae07119-ea95-44b1-9e90-0900f2caf607","system_id":"levelo_inurba_marseille","lat":43.278567,"lon":5.409172,"is_reserved":false,"is_disabled":false,"rental_uris":{"android":"levelo://app?vid=6ae07119-ea95-44b1-9e90-0900f2caf607","ios":"levelo://app?vid=6ae07119-ea95-44b1-9e90-0900f2caf607"},"vehicle_type_id":"4","last_reported":1745341785,"current_range_meters":7200,"station_id":"ce4bhnh2rcd13ifvqgtg","pricing_plan_id":"cebpf4jnsgd1na2vs0mg"},{"bike_id":"5032ac85-441b-48bf-9ec6-f649cf9241c1","system_id":"levelo_inurba_marseille","lat":43.27435,"lon":5.39428,"is_reserved":false,"is_disabled":false,"rental_uris":{"android":"levelo://app?vid=5032ac85-441b-48bf-9ec6-f649cf9241c1","ios":"levelo://app?vid=5032ac85-441b-48bf-9ec6-f649cf9241c1"},"vehicle_type_id":"4","last_reported":1745341785,"current_range_meters":7200,"station_id":"ce4bh3p2rcd13ifvqdq0","pricing_plan_id":"cebpf4jnsgd1na2vs0mg"},{"bike_id":"d42da8b3-5312-4608-a60b-fef54c0c16d1","system_id":"levelo_inurba_marseille","lat":43.280764,"lon":5.396531,"is_reserved":false,"is_disabled":false,"rental_uris":{"android":"levelo://app?vid=d42da8b3-5312-4608-a60b-fef54c0c16d1","ios":"levelo://app?vid=d42da8b3-5312-4608-a60b-fef54c0c16d1"},"vehicle_type_id":"4","last_reported":1745341785,"current_range_meters":8000,"station_id":"ce4bho12rcd13ifvqh2g","pricing_plan_id":"cebpf4jnsgd1na2vs0mg"},{"bike_id":"1c755526-7610-4241-9257-348acde561d3","system_id":"levelo_inurba_marseille","lat":43.24853,"lon":5.38199,"is_reserved":false,"is_disabled":false,"rental_uris":{"android":"levelo://app?vid=1c755526-7610-4241-9257-348acde561d3","ios":"levelo://app?vid=1c755526-7610-4241-9257-348acde561d3"},"vehicle_type_id":"4","last_reported":1745341785,"current_range_meters":8000,"station_id":"","pricing_plan_id":"cebpf4jnsgd1na2vs0mg"},{"bike_id":"83b99b05-7013-4278-ad5e-0f7a49650a4b","system_id":"levelo_inurba_marseille","lat":43.297882,"lon":5.39345,"is_reserved":false,"is_disabled":false,"rental_uris":{"android":"levelo://app?vid=83b99b05-7013-4278-ad5e-0f7a49650a4b","ios":"levelo://app?vid=83b99b05-7013-4278-ad5e-0f7a49650a4b"},"vehicle_type_id":"4","last_reported":1745341785,"current_range_meters":8000,"station_id":"chh1huq6cuj3fo74tm60","pricing_plan_id":"cebpf4jnsgd1na2vs0mg"},{"bike_id":"7f832f32-0f76-4b53-9890-10d59814f7c7","system_id":"levelo_inurba_marseille","lat":43.29262,"lon":5.38443,"is_reserved":false,"is_disabled":false,"rental_uris":{"android":"levelo://app?vid=7f832f32-0f76-4b53-9890-10d59814f7c7","ios":"levelo://app?vid=7f832f32-0f76-4b53-9890-10d59814f7c7"},"vehicle_type_id":"4","last_reported":1745341785,"current_range_meters":8000,"station_id":"ce4bh692rcd13ifvqea0","pricing_plan_id":"cebpf4jnsgd1na2vs0mg"},{"bike_id":"927ebabc-1cd7-4390-b5bd-5646fe25ec01","system_id":"levelo_inurba_marseille","lat":43.29975,"lon":5.37235,"is_reserved":false,"is_disabled":false,"rental_uris":{"android":"levelo://app?vid=927ebabc-1cd7-4390-b5bd-5646fe25ec01","ios":"levelo://app?vid=927ebabc-1cd7-4390-b5bd-5646fe25ec01"},"vehicle_type_id":"4","last_reported":1745341785,"current_range_meters":8000,"station_id":"ce4bgr92rcd13ifvqc7g","pricing_plan_id":"cebpf4jnsgd1na2vs0mg"},{"bike_id":"9397a6bb-7010-489e-bda6-146bdeb4d6d1","system_id":"levelo_inurba_marseille","lat":43.28108,"lon":5.37867,"is_reserved":false,"is_disabled":false,"rental_uris":{"android":"levelo://app?vid=9397a6bb-7010-489e-bda6-146bdeb4d6d1","ios":"levelo://app?vid=9397a6bb-7010-489e-bda6-146bdeb4d6d1"},"vehicle_type_id":"4","last_reported":1745341785,"current_range_meters":8400,"station_id":"ce4bha12rcd13ifvqee0","pricing_plan_id":"cebpf4jnsgd1na2vs0mg"},{"bike_id":"b209be2d-285d-41fe-b98f-2f2bcc7ecc01","system_id":"levelo_inurba_marseille","lat":43.2558,"lon":5.3823,"is_reserved":false,"is_disabled":false,"rental_uris":{"android":"levelo://app?vid=b209be2d-285d-41fe-b98f-2f2bcc7ecc01","ios":"levelo://app?vid=b209be2d-285d-41fe-b98f-2f2bcc7ecc01"},"vehicle_type_id":"4","last_reported":1745341785,"current_range_meters":8400,"station_id":"ce4bhih2rcd13ifvqfs0","pricing_plan_id":"cebpf4jnsgd1na2vs0mg"},{"bike_id":"c1d6e6a7-33c5-4405-a4a7-39a5701a1992","system_id":"levelo_inurba_marseille","lat":43.29303,"lon":5.37179,"is_reserved":false,"is_disabled":true,"rental_uris":{"android":"levelo://app?vid=c1d6e6a7-33c5-4405-a4a7-39a5701a1992","ios":"levelo://app?vid=c1d6e6a7-33c5-4405-a4a7-39a5701a1992"},"vehicle_type_id":"4","last_reported":1745341785,"current_range_meters":8400,"station_id":"ce4bgh92rcd13ifvqb40","pricing_plan_id":"cebpf4jnsgd1na2vs0mg"},{"bike_id":"c542ea12-8121-49cc-97f6-20faa529896c","system_id":"levelo_inurba_marseille","lat":43.28031,"lon":5.36946,"is_reserved":false,"is_disabled":false,"rental_uris":{"android":"levelo://app?vid=c542ea12-8121-49cc-97f6-20faa529896c","ios":"levelo://app?vid=c542ea12-8121-49cc-97f6-20faa529896c"},"vehicle_type_id":"4","last_reported":1745341785,"current_range_meters":8400,"station_id":"ce4bha12rcd13ifvqef0","pricing_plan_id":"cebpf4jnsgd1na2vs0mg"},{"bike_id":"1b782a94-e7e8-428c-8de9-b3e2aeb2cb1d","system_id":"levelo_inurba_marseille","lat":43.31684,"lon":5.40462,"is_reserved":false,"is_disabled":false,"rental_uris":{"android":"levelo://app?vid=1b782a94-e7e8-428c-8de9-b3e2aeb2cb1d","ios":"levelo://app?vid=1b782a94-e7e8-428c-8de9-b3e2aeb2cb1d"},"vehicle_type_id":"4","last_reported":1745341785,"current_range_meters":8400,"station_id":"ce4bh012rcd13ifvqd00","pricing_plan_id":"cebpf4jnsgd1na2vs0mg"},{"bike_id":"4d8a432d-4a64-417a-8b3b-ac7ebad6ac86","system_id":"levelo_inurba_marseille","lat":43.261975,"lon":5.379223,"is_reserved":false,"is_disabled":false,"rental_uris":{"android":"levelo://app?vid=4d8a432d-4a64-417a-8b3b-ac7ebad6ac86","ios":"levelo://app?vid=4d8a432d-4a64-417a-8b3b-ac7ebad6ac86"},"vehicle_type_id":"4","last_reported":1745341785,"current_range_meters":8400,"station_id":"ce4bhjp2rcd13ifvqg90","pricing_plan_id":"cebpf4jnsgd1na2vs0mg"},{"bike_id":"5867cfa5-69b2-4f92-8770-428099fc4acd","system_id":"levelo_inurba_marseille","lat":43.30603,"lon":5.37221,"is_reserved":false,"is_disabled":false,"rental_uris":{"android":"levelo://app?vid=5867cfa5-69b2-4f92-8770-428099fc4acd","ios":"levelo://app?vid=5867cfa5-69b2-4f92-8770-428099fc4acd"},"vehicle_type_id":"4","last_reported":1745341785,"current_range_meters":8400,"station_id":"ce4bgqh2rcd13ifvqc4g","pricing_plan_id":"cebpf4jnsgd1na2vs0mg"},{"bike_id":"5aa9a154-32e5-4f14-af5c-8aab8e6fe380","system_id":"levelo_inurba_marseille","lat":43.28679,"lon":5.38676,"is_reserved":false,"is_disabled":false,"rental_uris":{"android":"levelo://app?vid=5aa9a154-32e5-4f14-af5c-8aab8e6fe380","ios":"levelo://app?vid=5aa9a154-32e5-4f14-af5c-8aab8e6fe380"},"vehicle_type_id":"4","last_reported":1745341785,"current_range_meters":8400,"station_id":"ce4bh492rcd13ifvqdug","pricing_plan_id":"cebpf4jnsgd1na2vs0mg"},{"bike_id":"5bbf78c3-9ff4-43fd-addb-7db8c52f9edd","system_id":"levelo_inurba_marseille","lat":43.32361,"lon":5.38891,"is_reserved":false,"is_disabled":false,"rental_uris":{"android":"levelo://app?vid=5bbf78c3-9ff4-43fd-addb-7db8c52f9edd","ios":"levelo://app?vid=5bbf78c3-9ff4-43fd-addb-7db8c52f9edd"},"vehicle_type_id":"4","last_reported":1745341785,"current_range_meters":8800,"station_id":"ce4bhqp2rcd13ifvqhog","pricing_plan_id":"cebpf4jnsgd1na2vs0mg"},{"bike_id":"772c5e6c-6794-4bf9-9264-1828c3c97376","system_id":"levelo_inurba_marseille","lat":43.29271,"lon":5.40134,"is_reserved":false,"is_disabled":false,"rental_uris":{"android":"levelo://app?vid=772c5e6c-6794-4bf9-9264-1828c3c97376","ios":"levelo://app?vid=772c5e6c-6794-4bf9-9264-1828c3c97376"},"vehicle_type_id":"4","last_reported":1745341785,"current_range_meters":8800,"station_id":"ce4bh312rcd13ifvqdk0","pricing_plan_id":"cebpf4jnsgd1na2vs0mg"},{"bike_id":"570d3bef-dd3f-4471-80a3-02c993b2e48d","system_id":"levelo_inurba_marseille","lat":43.28095,"lon":5.37833,"is_reserved":false,"is_disabled":false,"rental_uris":{"android":"levelo://app?vid=570d3bef-dd3f-4471-80a3-02c993b2e48d","ios":"levelo://app?vid=570d3bef-dd3f-4471-80a3-02c993b2e48d"},"vehicle_type_id":"4","last_reported":1745341785,"current_range_meters":8800,"station_id":"ce4bha12rcd13ifvqee0","pricing_plan_id":"cebpf4jnsgd1na2vs0mg"},{"bike_id":"7e205d63-a48b-4818-bc06-196cd750688e","system_id":"levelo_inurba_marseille","lat":43.307034,"lon":5.38265,"is_reserved":false,"is_disabled":false,"rental_uris":{"android":"levelo://app?vid=7e205d63-a48b-4818-bc06-196cd750688e","ios":"levelo://app?vid=7e205d63-a48b-4818-bc06-196cd750688e"},"vehicle_type_id":"4","last_reported":1745341785,"current_range_meters":8800,"station_id":"ce4bgt92rcd13ifvqcg0","pricing_plan_id":"cebpf4jnsgd1na2vs0mg"},{"bike_id":"d85f8e95-1685-4de7-8c58-139db215c613","system_id":"levelo_inurba_marseille","lat":43.28352,"lon":5.38094,"is_reserved":false,"is_disabled":false,"rental_uris":{"android":"levelo://app?vid=d85f8e95-1685-4de7-8c58-139db215c613","ios":"levelo://app?vid=d85f8e95-1685-4de7-8c58-139db215c613"},"vehicle_type_id":"4","last_reported":1745341785,"current_range_meters":8800,"station_id":"ce4bh412rcd13ifvqdr0","pricing_plan_id":"cebpf4jnsgd1na2vs0mg"},{"bike_id":"096ee8a7-39eb-472d-ad75-e6b949eae74f","system_id":"levelo_inurba_marseille","lat":43.30129,"lon":5.39862,"is_reserved":false,"is_disabled":false,"rental_uris":{"android":"levelo://app?vid=096ee8a7-39eb-472d-ad75-e6b949eae74f","ios":"levelo://app?vid=096ee8a7-39eb-472d-ad75-e6b949eae74f"},"vehicle_type_id":"4","last_reported":1745341785,"current_range_meters":8800,"station_id":"ce4bh0h2rcd13ifvqd40","pricing_plan_id":"cebpf4jnsgd1na2vs0mg"},{"bike_id":"d4740572-81fc-4a45-b7ed-160bd1098baa","system_id":"levelo_inurba_marseille","lat":43.29,"lon":5.35604,"is_reserved":false,"is_disabled":false,"rental_uris":{"android":"levelo://app?vid=d4740572-81fc-4a45-b7ed-160bd1098baa","ios":"levelo://app?vid=d4740572-81fc-4a45-b7ed-160bd1098baa"},"vehicle_type_id":"4","last_reported":1745341785,"current_range_meters":8800,"station_id":"ce4bhb92rcd13ifvqen0","pricing_plan_id":"cebpf4jnsgd1na2vs0mg"},{"bike_id":"62062a51-e4dc-4fdd-968c-6e5b8ddc6125","system_id":"levelo_inurba_marseille","lat":43.27609,"lon":5.36109,"is_reserved":false,"is_disabled":false,"rental_uris":{"android":"levelo://app?vid=62062a51-e4dc-4fdd-968c-6e5b8ddc6125","ios":"levelo://app?vid=62062a51-e4dc-4fdd-968c-6e5b8ddc6125"},"vehicle_type_id":"4","last_reported":1745341785,"current_range_meters":8800,"station_id":"","pricing_plan_id":"cebpf4jnsgd1na2vs0mg"},{"bike_id":"de804d2a-6831-4c0c-9a81-610106872b2a","system_id":"levelo_inurba_marseille","lat":43.275757,"lon":5.384421,"is_reserved":false,"is_disabled":false,"rental_uris":{"android":"levelo://app?vid=de804d2a-6831-4c0c-9a81-610106872b2a","ios":"levelo://app?vid=de804d2a-6831-4c0c-9a81-610106872b2a"},"vehicle_type_id":"4","last_reported":1745341785,"current_range_meters":9200,"station_id":"ce4bhh92rcd13ifvqfi0","pricing_plan_id":"cebpf4jnsgd1na2vs0mg"},{"bike_id":"ea690983-c4c0-4f5e-bd59-367d9bbe74d1","system_id":"levelo_inurba_marseille","lat":43.286553,"lon":5.385742,"is_reserved":false,"is_disabled":false,"rental_uris":{"android":"levelo://app?vid=ea690983-c4c0-4f5e-bd59-367d9bbe74d1","ios":"levelo://app?vid=ea690983-c4c0-4f5e-bd59-367d9bbe74d1"},"vehicle_type_id":"4","last_reported":1745341785,"current_range_meters":9200,"station_id":"ce4bhgp2rcd13ifvqfe0","pricing_plan_id":"cebpf4jnsgd1na2vs0mg"},{"bike_id":"aa10e686-cb40-4ad2-9e42-be6417ad5c7d","system_id":"levelo_inurba_marseille","lat":43.28112,"lon":5.37845,"is_reserved":false,"is_disabled":false,"rental_uris":{"android":"levelo://app?vid=aa10e686-cb40-4ad2-9e42-be6417ad5c7d","ios":"levelo://app?vid=aa10e686-cb40-4ad2-9e42-be6417ad5c7d"},"vehicle_type_id":"4","last_reported":1745341785,"current_range_meters":9200,"station_id":"ce4bha12rcd13ifvqee0","pricing_plan_id":"cebpf4jnsgd1na2vs0mg"},{"bike_id":"c10f08af-18b7-447a-8b67-bff77e4a8080","system_id":"levelo_inurba_marseille","lat":43.32356,"lon":5.36752,"is_reserved":false,"is_disabled":false,"rental_uris":{"android":"levelo://app?vid=c10f08af-18b7-447a-8b67-bff77e4a8080","ios":"levelo://app?vid=c10f08af-18b7-447a-8b67-bff77e4a8080"},"vehicle_type_id":"4","last_reported":1745341785,"current_range_meters":9200,"station_id":"ce4bhsh2rcd13ifvqi2g","pricing_plan_id":"cebpf4jnsgd1na2vs0mg"},{"bike_id":"766efbec-e270-483f-bd5f-60d61d3132ad","system_id":"levelo_inurba_marseille","lat":43.29303,"lon":5.37161,"is_reserved":false,"is_disabled":false,"rental_uris":{"android":"levelo://app?vid=766efbec-e270-483f-bd5f-60d61d3132ad","ios":"levelo://app?vid=766efbec-e270-483f-bd5f-60d61d3132ad"},"vehicle_type_id":"4","last_reported":1745341785,"current_range_meters":9200,"station_id":"ce4bgh92rcd13ifvqb40","pricing_plan_id":"cebpf4jnsgd1na2vs0mg"},{"bike_id":"2dc4e79a-33a8-48b0-bf03-f6328f1dc1f6","system_id":"levelo_inurba_marseille","lat":43.32332,"lon":5.38956,"is_reserved":false,"is_disabled":true,"rental_uris":{"android":"levelo://app?vid=2dc4e79a-33a8-48b0-bf03-f6328f1dc1f6","ios":"levelo://app?vid=2dc4e79a-33a8-48b0-bf03-f6328f1dc1f6"},"vehicle_type_id":"4","last_reported":1745341785,"current_range_meters":9200,"station_id":"","pricing_plan_id":"cebpf4jnsgd1na2vs0mg"},{"bike_id":"414c45c7-bff5-4a79-8946-280f479158c7","system_id":"levelo_inurba_marseille","lat":43.30887,"lon":5.37184,"is_reserved":false,"is_disabled":false,"rental_uris":{"android":"levelo://app?vid=414c45c7-bff5-4a79-8946-280f479158c7","ios":"levelo://app?vid=414c45c7-bff5-4a79-8946-280f479158c7"},"vehicle_type_id":"4","last_reported":1745341785,"current_range_meters":9200,"station_id":"ce4bguh2rcd13ifvqckg","pricing_plan_id":"cebpf4jnsgd1na2vs0mg"},{"bike_id":"5a8c9fcf-492d-4b31-82e3-1ecab095ed89","system_id":"levelo_inurba_marseille","lat":43.31166,"lon":5.38715,"is_reserved":false,"is_disabled":false,"rental_uris":{"android":"levelo://app?vid=5a8c9fcf-492d-4b31-82e3-1ecab095ed89","ios":"levelo://app?vid=5a8c9fcf-492d-4b31-82e3-1ecab095ed89"},"vehicle_type_id":"4","last_reported":1745341785,"current_range_meters":9200,"station_id":"ce4bgv12rcd13ifvqcp0","pricing_plan_id":"cebpf4jnsgd1na2vs0mg"},{"bike_id":"d3cb31b6-3dd7-42b5-85f6-426fd02f883c","system_id":"levelo_inurba_marseille","lat":43.31163,"lon":5.38722,"is_reserved":false,"is_disabled":false,"rental_uris":{"android":"levelo://app?vid=d3cb31b6-3dd7-42b5-85f6-426fd02f883c","ios":"levelo://app?vid=d3cb31b6-3dd7-42b5-85f6-426fd02f883c"},"vehicle_type_id":"4","last_reported":1745341785,"current_range_meters":9600,"station_id":"ce4bgv12rcd13ifvqcp0","pricing_plan_id":"cebpf4jnsgd1na2vs0mg"},{"bike_id":"63e80ac6-5b68-46f4-bca6-cdfbd1c6ad03","system_id":"levelo_inurba_marseille","lat":43.30185,"lon":5.36625,"is_reserved":false,"is_disabled":false,"rental_uris":{"android":"levelo://app?vid=63e80ac6-5b68-46f4-bca6-cdfbd1c6ad03","ios":"levelo://app?vid=63e80ac6-5b68-46f4-bca6-cdfbd1c6ad03"},"vehicle_type_id":"4","last_reported":1745341785,"current_range_meters":9600,"station_id":"ce4bgrh2rcd13ifvqc8g","pricing_plan_id":"cebpf4jnsgd1na2vs0mg"},{"bike_id":"a45ae1a9-c8cc-4065-9f5d-cdcd6714c67f","system_id":"levelo_inurba_marseille","lat":43.33708,"lon":5.39177,"is_reserved":false,"is_disabled":false,"rental_uris":{"android":"levelo://app?vid=a45ae1a9-c8cc-4065-9f5d-cdcd6714c67f","ios":"levelo://app?vid=a45ae1a9-c8cc-4065-9f5d-cdcd6714c67f"},"vehicle_type_id":"4","last_reported":1745341785,"current_range_meters":9600,"station_id":"ce4bhr92rcd13ifvqhsg","pricing_plan_id":"cebpf4jnsgd1na2vs0mg"},{"bike_id":"99f50a97-fcb7-4d42-b6f5-4d52ab29c28d","system_id":"levelo_inurba_marseille","lat":43.279212,"lon":5.395771,"is_reserved":false,"is_disabled":false,"rental_uris":{"android":"levelo://app?vid=99f50a97-fcb7-4d42-b6f5-4d52ab29c28d","ios":"levelo://app?vid=99f50a97-fcb7-4d42-b6f5-4d52ab29c28d"},"vehicle_type_id":"4","last_reported":1745341785,"current_range_meters":9600,"station_id":"ce4bhf92rcd13ifvqf40","pricing_plan_id":"cebpf4jnsgd1na2vs0mg"},{"bike_id":"b60f8387-f330-43cc-a064-5b7678cfb543","system_id":"levelo_inurba_marseille","lat":43.28448,"lon":5.35905,"is_reserved":false,"is_disabled":false,"rental_uris":{"android":"levelo://app?vid=b60f8387-f330-43cc-a064-5b7678cfb543","ios":"levelo://app?vid=b60f8387-f330-43cc-a064-5b7678cfb543"},"vehicle_type_id":"4","last_reported":1745341785,"current_range_meters":9600,"station_id":"ce4bhah2rcd13ifvqei0","pricing_plan_id":"cebpf4jnsgd1na2vs0mg"},{"bike_id":"de293dc3-85dc-487b-9edb-64f0e492480e","system_id":"levelo_inurba_marseille","lat":43.30108,"lon":5.38765,"is_reserved":false,"is_disabled":false,"rental_uris":{"android":"levelo://app?vid=de293dc3-85dc-487b-9edb-64f0e492480e","ios":"levelo://app?vid=de293dc3-85dc-487b-9edb-64f0e492480e"},"vehicle_type_id":"4","last_reported":1745341785,"current_range_meters":9600,"station_id":"ce4bghh2rcd13ifvqb60","pricing_plan_id":"cebpf4jnsgd1na2vs0mg"},{"bike_id":"c7d48ee3-3a20-49ca-b1c4-c16aa6d75924","system_id":"levelo_inurba_marseille","lat":43.28925,"lon":5.38387,"is_reserved":false,"is_disabled":false,"rental_uris":{"android":"levelo://app?vid=c7d48ee3-3a20-49ca-b1c4-c16aa6d75924","ios":"levelo://app?vid=c7d48ee3-3a20-49ca-b1c4-c16aa6d75924"},"vehicle_type_id":"4","last_reported":1745341785,"current_range_meters":9600,"station_id":"ce4bh612rcd13ifvqe6g","pricing_plan_id":"cebpf4jnsgd1na2vs0mg"},{"bike_id":"ecbdb4d8-c80c-4a11-b50b-aff98695a59d","system_id":"levelo_inurba_marseille","lat":43.27909,"lon":5.39582,"is_reserved":false,"is_disabled":false,"rental_uris":{"android":"levelo://app?vid=ecbdb4d8-c80c-4a11-b50b-aff98695a59d","ios":"levelo://app?vid=ecbdb4d8-c80c-4a11-b50b-aff98695a59d"},"vehicle_type_id":"4","last_reported":1745341785,"current_range_meters":9600,"station_id":"ce4bhf92rcd13ifvqf40","pricing_plan_id":"cebpf4jnsgd1na2vs0mg"},{"bike_id":"d8d27387-fb66-4c0a-90dc-eef7a69dc87d","system_id":"levelo_inurba_marseille","lat":43.21222,"lon":5.35087,"is_reserved":false,"is_disabled":false,"rental_uris":{"android":"levelo://app?vid=d8d27387-fb66-4c0a-90dc-eef7a69dc87d","ios":"levelo://app?vid=d8d27387-fb66-4c0a-90dc-eef7a69dc87d"},"vehicle_type_id":"4","last_reported":1745341785,"current_range_meters":9600,"station_id":"ce4bgh92rcd13ifvqb40","pricing_plan_id":"cebpf4jnsgd1na2vs0mg"},{"bike_id":"27782b09-6421-4df8-8852-291b24e55eee","system_id":"levelo_inurba_marseille","lat":43.28032,"lon":5.36951,"is_reserved":false,"is_disabled":false,"rental_uris":{"android":"levelo://app?vid=27782b09-6421-4df8-8852-291b24e55eee","ios":"levelo://app?vid=27782b09-6421-4df8-8852-291b24e55eee"},"vehicle_type_id":"4","last_reported":1745341785,"current_range_meters":9600,"station_id":"ce4bha12rcd13ifvqef0","pricing_plan_id":"cebpf4jnsgd1na2vs0mg"},{"bike_id":"b4bb6ed8-76c5-42cb-b662-c45d798b0d68","system_id":"levelo_inurba_marseille","lat":43.273196,"lon":5.390611,"is_reserved":false,"is_disabled":false,"rental_uris":{"android":"levelo://app?vid=b4bb6ed8-76c5-42cb-b662-c45d798b0d68","ios":"levelo://app?vid=b4bb6ed8-76c5-42cb-b662-c45d798b0d68"},"vehicle_type_id":"4","last_reported":1745341785,"current_range_meters":10000,"station_id":"ce4bhi12rcd13ifvqfq0","pricing_plan_id":"cebpf4jnsgd1na2vs0mg"},{"bike_id":"af66a236-21f6-4dac-9f5b-1a08e21d4696","system_id":"levelo_inurba_marseille","lat":43.29517,"lon":5.39044,"is_reserved":false,"is_disabled":false,"rental_uris":{"android":"levelo://app?vid=af66a236-21f6-4dac-9f5b-1a08e21d4696","ios":"levelo://app?vid=af66a236-21f6-4dac-9f5b-1a08e21d4696"},"vehicle_type_id":"4","last_reported":1745341785,"current_range_meters":10000,"station_id":"ce4bh3p2rcd13ifvqdp0","pricing_plan_id":"cebpf4jnsgd1na2vs0mg"},{"bike_id":"476a9fe5-6154-4202-b562-28b0995b6b4c","system_id":"levelo_inurba_marseille","lat":43.23189,"lon":5.3999,"is_reserved":false,"is_disabled":false,"rental_uris":{"android":"levelo://app?vid=476a9fe5-6154-4202-b562-28b0995b6b4c","ios":"levelo://app?vid=476a9fe5-6154-4202-b562-28b0995b6b4c"},"vehicle_type_id":"4","last_reported":1745341785,"current_range_meters":10000,"station_id":"ce4bhn12rcd13ifvqgqg","pricing_plan_id":"cebpf4jnsgd1na2vs0mg"},{"bike_id":"26e4deb2-6823-4923-bffc-5fa0997edf76","system_id":"levelo_inurba_marseille","lat":43.31168,"lon":5.38717,"is_reserved":false,"is_disabled":false,"rental_uris":{"android":"levelo://app?vid=26e4deb2-6823-4923-bffc-5fa0997edf76","ios":"levelo://app?vid=26e4deb2-6823-4923-bffc-5fa0997edf76"},"vehicle_type_id":"4","last_reported":1745341785,"current_range_meters":10800,"station_id":"ce4bgv12rcd13ifvqcp0","pricing_plan_id":"cebpf4jnsgd1na2vs0mg"},{"bike_id":"ecbe538c-17ea-40f6-8db4-06fc029249d2","system_id":"levelo_inurba_marseille","lat":43.29033,"lon":5.37573,"is_reserved":false,"is_disabled":false,"rental_uris":{"android":"levelo://app?vid=ecbe538c-17ea-40f6-8db4-06fc029249d2","ios":"levelo://app?vid=ecbe538c-17ea-40f6-8db4-06fc029249d2"},"vehicle_type_id":"4","last_reported":1745341785,"current_range_meters":10000,"station_id":"ce4bh692rcd13ifvqe90","pricing_plan_id":"cebpf4jnsgd1na2vs0mg"},{"bike_id":"2283b309-8c1a-44e7-b576-0b13fb8a162b","system_id":"levelo_inurba_marseille","lat":43.251231,"lon":5.403251,"is_reserved":false,"is_disabled":false,"rental_uris":{"android":"levelo://app?vid=2283b309-8c1a-44e7-b576-0b13fb8a162b","ios":"levelo://app?vid=2283b309-8c1a-44e7-b576-0b13fb8a162b"},"vehicle_type_id":"4","last_reported":1745341785,"current_range_meters":10800,"station_id":"ce4bhlh2rcd13ifvqgig","pricing_plan_id":"cebpf4jnsgd1na2vs0mg"},{"bike_id":"55c03ac0-e13d-43b4-bca9-082ac26d61f0","system_id":"levelo_inurba_marseille","lat":43.31215,"lon":5.36831,"is_reserved":false,"is_disabled":false,"rental_uris":{"android":"levelo://app?vid=55c03ac0-e13d-43b4-bca9-082ac26d61f0","ios":"levelo://app?vid=55c03ac0-e13d-43b4-bca9-082ac26d61f0"},"vehicle_type_id":"4","last_reported":1745341785,"current_range_meters":10000,"station_id":"ce4bgl92rcd13ifvqbq0","pricing_plan_id":"cebpf4jnsgd1na2vs0mg"},{"bike_id":"5f2c8890-a7d1-4836-ab1d-c4466ea72452","system_id":"levelo_inurba_marseille","lat":43.29226,"lon":5.36065,"is_reserved":false,"is_disabled":false,"rental_uris":{"android":"levelo://app?vid=5f2c8890-a7d1-4836-ab1d-c4466ea72452","ios":"levelo://app?vid=5f2c8890-a7d1-4836-ab1d-c4466ea72452"},"vehicle_type_id":"4","last_reported":1745341785,"current_range_meters":10800,"station_id":"ce4bhbh2rcd13ifvqeqg","pricing_plan_id":"cebpf4jnsgd1na2vs0mg"},{"bike_id":"54834a0a-6e39-4e93-af80-13f197870670","system_id":"levelo_inurba_marseille","lat":43.255,"lon":5.37646,"is_reserved":false,"is_disabled":false,"rental_uris":{"android":"levelo://app?vid=54834a0a-6e39-4e93-af80-13f197870670","ios":"levelo://app?vid=54834a0a-6e39-4e93-af80-13f197870670"},"vehicle_type_id":"4","last_reported":1745341785,"current_range_meters":10800,"station_id":"ce4bhh12rcd13ifvqff0","pricing_plan_id":"cebpf4jnsgd1na2vs0mg"},{"bike_id":"5b443061-6720-405a-aee6-21d384ed5a83","system_id":"levelo_inurba_marseille","lat":43.2979,"lon":5.3936,"is_reserved":false,"is_disabled":false,"rental_uris":{"android":"levelo://app?vid=5b443061-6720-405a-aee6-21d384ed5a83","ios":"levelo://app?vid=5b443061-6720-405a-aee6-21d384ed5a83"},"vehicle_type_id":"4","last_reported":1745341785,"current_range_meters":10000,"station_id":"chh1huq6cuj3fo74tm60","pricing_plan_id":"cebpf4jnsgd1na2vs0mg"},{"bike_id":"81459067-a6a4-4f63-b1e6-c14087959ffb","system_id":"levelo_inurba_marseille","lat":43.28722,"lon":5.36089,"is_reserved":false,"is_disabled":false,"rental_uris":{"android":"levelo://app?vid=81459067-a6a4-4f63-b1e6-c14087959ffb","ios":"levelo://app?vid=81459067-a6a4-4f63-b1e6-c14087959ffb"},"vehicle_type_id":"4","last_reported":1745341785,"current_range_meters":10000,"station_id":"cki0cbj6b192h4jlfktg","pricing_plan_id":"cebpf4jnsgd1na2vs0mg"},{"bike_id":"d569b482-2e80-40f8-974b-c00f88715b5d","system_id":"levelo_inurba_marseille","lat":43.306152,"lon":5.372313,"is_reserved":false,"is_disabled":false,"rental_uris":{"android":"levelo://app?vid=d569b482-2e80-40f8-974b-c00f88715b5d","ios":"levelo://app?vid=d569b482-2e80-40f8-974b-c00f88715b5d"},"vehicle_type_id":"4","last_reported":1745341785,"current_range_meters":10800,"station_id":"ce4bgip2rcd13ifvqbb0","pricing_plan_id":"cebpf4jnsgd1na2vs0mg"},{"bike_id":"7991efe5-7ae6-4770-a01e-dc78d4503950","system_id":"levelo_inurba_marseille","lat":43.30135,"lon":5.37412,"is_reserved":false,"is_disabled":false,"rental_uris":{"android":"levelo://app?vid=7991efe5-7ae6-4770-a01e-dc78d4503950","ios":"levelo://app?vid=7991efe5-7ae6-4770-a01e-dc78d4503950"},"vehicle_type_id":"4","last_reported":1745341785,"current_range_meters":10000,"station_id":"ce4bgs92rcd13ifvqcc0","pricing_plan_id":"cebpf4jnsgd1na2vs0mg"},{"bike_id":"753a20dc-530c-4e73-80de-84dc3a68bf14","system_id":"levelo_inurba_marseille","lat":43.268164,"lon":5.40297,"is_reserved":false,"is_disabled":false,"rental_uris":{"android":"levelo://app?vid=753a20dc-530c-4e73-80de-84dc3a68bf14","ios":"levelo://app?vid=753a20dc-530c-4e73-80de-84dc3a68bf14"},"vehicle_type_id":"4","last_reported":1745341785,"current_range_meters":11200,"station_id":"ce501612rcd8frsf0b60","pricing_plan_id":"cebpf4jnsgd1na2vs0mg"},{"bike_id":"f12118d1-8e63-4974-9ee7-0e47f3fd7c1b","system_id":"levelo_inurba_marseille","lat":43.3136,"lon":5.38504,"is_reserved":false,"is_disabled":false,"rental_uris":{"android":"levelo://app?vid=f12118d1-8e63-4974-9ee7-0e47f3fd7c1b","ios":"levelo://app?vid=f12118d1-8e63-4974-9ee7-0e47f3fd7c1b"},"vehicle_type_id":"4","last_reported":1745341785,"current_range_meters":8800,"station_id":"ce4bgt92rcd13ifvqcf0","pricing_plan_id":"cebpf4jnsgd1na2vs0mg"},{"bike_id":"17891344-6a7d-4507-8d3e-bf47e4488744","system_id":"levelo_inurba_marseille","lat":43.24072,"lon":5.37762,"is_reserved":false,"is_disabled":false,"rental_uris":{"android":"levelo://app?vid=17891344-6a7d-4507-8d3e-bf47e4488744","ios":"levelo://app?vid=17891344-6a7d-4507-8d3e-bf47e4488744"},"vehicle_type_id":"4","last_reported":1745341785,"current_range_meters":10800,"station_id":"ce4bhnp2rcd13ifvqgvg","pricing_plan_id":"cebpf4jnsgd1na2vs0mg"},{"bike_id":"2ce5d0bf-7f3e-46ce-9ac7-f7b4fd51109f","system_id":"levelo_inurba_marseille","lat":43.28617,"lon":5.35094,"is_reserved":false,"is_disabled":false,"rental_uris":{"android":"levelo://app?vid=2ce5d0bf-7f3e-46ce-9ac7-f7b4fd51109f","ios":"levelo://app?vid=2ce5d0bf-7f3e-46ce-9ac7-f7b4fd51109f"},"vehicle_type_id":"4","last_reported":1745341785,"current_range_meters":11200,"station_id":"ce4bhch2rcd13ifvqeug","pricing_plan_id":"cebpf4jnsgd1na2vs0mg"},{"bike_id":"376d0250-1e25-488b-bee2-bae11388c063","system_id":"levelo_inurba_marseille","lat":43.28429,"lon":5.38418,"is_reserved":false,"is_disabled":false,"rental_uris":{"android":"levelo://app?vid=376d0250-1e25-488b-bee2-bae11388c063","ios":"levelo://app?vid=376d0250-1e25-488b-bee2-bae11388c063"},"vehicle_type_id":"4","last_reported":1745341785,"current_range_meters":11200,"station_id":"","pricing_plan_id":"cebpf4jnsgd1na2vs0mg"},{"bike_id":"7fb4af84-abef-4e6f-b74d-bfa9e10e6b4b","system_id":"levelo_inurba_marseille","lat":43.28956,"lon":5.36412,"is_reserved":false,"is_disabled":false,"rental_uris":{"android":"levelo://app?vid=7fb4af84-abef-4e6f-b74d-bfa9e10e6b4b","ios":"levelo://app?vid=7fb4af84-abef-4e6f-b74d-bfa9e10e6b4b"},"vehicle_type_id":"4","last_reported":1745341785,"current_range_meters":11200,"station_id":"ce4bhc92rcd13ifvqetg","pricing_plan_id":"cebpf4jnsgd1na2vs0mg"},{"bike_id":"0d1ebedd-3512-4ce4-87fe-745c17edfd96","system_id":"levelo_inurba_marseille","lat":43.27871,"lon":5.35472,"is_reserved":false,"is_disabled":true,"rental_uris":{"android":"levelo://app?vid=0d1ebedd-3512-4ce4-87fe-745c17edfd96","ios":"levelo://app?vid=0d1ebedd-3512-4ce4-87fe-745c17edfd96"},"vehicle_type_id":"4","last_reported":1745341785,"current_range_meters":11600,"station_id":"","pricing_plan_id":"cebpf4jnsgd1na2vs0mg"},{"bike_id":"f1300840-291d-4ece-a09c-172514b0678c","system_id":"levelo_inurba_marseille","lat":43.2943,"lon":5.39752,"is_reserved":false,"is_disabled":true,"rental_uris":{"android":"levelo://app?vid=f1300840-291d-4ece-a09c-172514b0678c","ios":"levelo://app?vid=f1300840-291d-4ece-a09c-172514b0678c"},"vehicle_type_id":"4","last_reported":1745341785,"current_range_meters":11600,"station_id":"ce4bh3h2rcd13ifvqdo0","pricing_plan_id":"cebpf4jnsgd1na2vs0mg"},{"bike_id":"47768a28-4fff-4fc1-b4c4-b5ec8d452deb","system_id":"levelo_inurba_marseille","lat":43.29608,"lon":5.38129,"is_reserved":false,"is_disabled":true,"rental_uris":{"android":"levelo://app?vid=47768a28-4fff-4fc1-b4c4-b5ec8d452deb","ios":"levelo://app?vid=47768a28-4fff-4fc1-b4c4-b5ec8d452deb"},"vehicle_type_id":"4","last_reported":1745341785,"current_range_meters":11600,"station_id":"ce4bgl12rcd13ifvqbo0","pricing_plan_id":"cebpf4jnsgd1na2vs0mg"},{"bike_id":"0d7f938e-484c-46c3-9f21-efdc6e6a1193","system_id":"levelo_inurba_marseille","lat":43.29002,"lon":5.35597,"is_reserved":false,"is_disabled":false,"rental_uris":{"android":"levelo://app?vid=0d7f938e-484c-46c3-9f21-efdc6e6a1193","ios":"levelo://app?vid=0d7f938e-484c-46c3-9f21-efdc6e6a1193"},"vehicle_type_id":"4","last_reported":1745341785,"current_range_meters":11200,"station_id":"ce4bhb92rcd13ifvqen0","pricing_plan_id":"cebpf4jnsgd1na2vs0mg"},{"bike_id":"81aa2ed4-3523-481e-b21e-c82d07f19cca","system_id":"levelo_inurba_marseille","lat":43.27617,"lon":5.36104,"is_reserved":false,"is_disabled":false,"rental_uris":{"android":"levelo://app?vid=81aa2ed4-3523-481e-b21e-c82d07f19cca","ios":"levelo://app?vid=81aa2ed4-3523-481e-b21e-c82d07f19cca"},"vehicle_type_id":"4","last_reported":1745341785,"current_range_meters":11600,"station_id":"ce4bgj92rcd13ifvqbe0","pricing_plan_id":"cebpf4jnsgd1na2vs0mg"},{"bike_id":"9ae996f0-a7e1-4c3e-ba03-4c6f935a381a","system_id":"levelo_inurba_marseille","lat":43.302575,"lon":5.400567,"is_reserved":false,"is_disabled":false,"rental_uris":{"android":"levelo://app?vid=9ae996f0-a7e1-4c3e-ba03-4c6f935a381a","ios":"levelo://app?vid=9ae996f0-a7e1-4c3e-ba03-4c6f935a381a"},"vehicle_type_id":"4","last_reported":1745341785,"current_range_meters":12000,"station_id":"ce4bhip2rcd13ifvqft0","pricing_plan_id":"cebpf4jnsgd1na2vs0mg"},{"bike_id":"7bcc6da8-8cfb-42c8-9d13-5532e3d44b60","system_id":"levelo_inurba_marseille","lat":43.29415,"lon":5.38622,"is_reserved":false,"is_disabled":false,"rental_uris":{"android":"levelo://app?vid=7bcc6da8-8cfb-42c8-9d13-5532e3d44b60","ios":"levelo://app?vid=7bcc6da8-8cfb-42c8-9d13-5532e3d44b60"},"vehicle_type_id":"4","last_reported":1745341785,"current_range_meters":11600,"station_id":"ce4bh2h2rcd13ifvqdh0","pricing_plan_id":"cebpf4jnsgd1na2vs0mg"},{"bike_id":"73f79288-cfc7-46f0-8dd7-58d47b9dea43","system_id":"levelo_inurba_marseille","lat":43.30434,"lon":5.38896,"is_reserved":false,"is_disabled":false,"rental_uris":{"android":"levelo://app?vid=73f79288-cfc7-46f0-8dd7-58d47b9dea43","ios":"levelo://app?vid=73f79288-cfc7-46f0-8dd7-58d47b9dea43"},"vehicle_type_id":"4","last_reported":1745341785,"current_range_meters":12000,"station_id":"ce4bgk12rcd13ifvqbi0","pricing_plan_id":"cebpf4jnsgd1na2vs0mg"},{"bike_id":"71a7de4f-54c5-4926-8cb8-f681783fc99c","system_id":"levelo_inurba_marseille","lat":43.29424,"lon":5.38626,"is_reserved":false,"is_disabled":false,"rental_uris":{"android":"levelo://app?vid=71a7de4f-54c5-4926-8cb8-f681783fc99c","ios":"levelo://app?vid=71a7de4f-54c5-4926-8cb8-f681783fc99c"},"vehicle_type_id":"4","last_reported":1745341785,"current_range_meters":12000,"station_id":"ce4bh2h2rcd13ifvqdh0","pricing_plan_id":"cebpf4jnsgd1na2vs0mg"},{"bike_id":"7fcae92a-c91f-4915-9aca-589508fe0e13","system_id":"levelo_inurba_marseille","lat":43.32044,"lon":5.41539,"is_reserved":false,"is_disabled":false,"rental_uris":{"android":"levelo://app?vid=7fcae92a-c91f-4915-9aca-589508fe0e13","ios":"levelo://app?vid=7fcae92a-c91f-4915-9aca-589508fe0e13"},"vehicle_type_id":"4","last_reported":1745341785,"current_range_meters":12000,"station_id":"ce4bhq92rcd13ifvqhkg","pricing_plan_id":"cebpf4jnsgd1na2vs0mg"},{"bike_id":"9fea1087-0c3e-45f7-a841-70b13a620ea2","system_id":"levelo_inurba_marseille","lat":43.26191,"lon":5.3792,"is_reserved":false,"is_disabled":false,"rental_uris":{"android":"levelo://app?vid=9fea1087-0c3e-45f7-a841-70b13a620ea2","ios":"levelo://app?vid=9fea1087-0c3e-45f7-a841-70b13a620ea2"},"vehicle_type_id":"4","last_reported":1745341785,"current_range_meters":12000,"station_id":"ce4bhjp2rcd13ifvqg90","pricing_plan_id":"cebpf4jnsgd1na2vs0mg"},{"bike_id":"869b96a6-238c-4528-8f32-0e58709141a7","system_id":"levelo_inurba_marseille","lat":43.26066,"lon":5.39401,"is_reserved":false,"is_disabled":false,"rental_uris":{"android":"levelo://app?vid=869b96a6-238c-4528-8f32-0e58709141a7","ios":"levelo://app?vid=869b96a6-238c-4528-8f32-0e58709141a7"},"vehicle_type_id":"4","last_reported":1745341785,"current_range_meters":12000,"station_id":"ce4bhh92rcd13ifvqfj0","pricing_plan_id":"cebpf4jnsgd1na2vs0mg"},{"bike_id":"ecd9c509-3120-4166-8927-f60518d66aaa","system_id":"levelo_inurba_marseille","lat":43.29533,"lon":5.39397,"is_reserved":false,"is_disabled":true,"rental_uris":{"android":"levelo://app?vid=ecd9c509-3120-4166-8927-f60518d66aaa","ios":"levelo://app?vid=ecd9c509-3120-4166-8927-f60518d66aaa"},"vehicle_type_id":"4","last_reported":1745341785,"current_range_meters":12000,"station_id":"ce4bh292rcd13ifvqdf0","pricing_plan_id":"cebpf4jnsgd1na2vs0mg"},{"bike_id":"2ec52292-f495-4e5c-b68a-d6e04363b70a","system_id":"levelo_inurba_marseille","lat":43.30351,"lon":5.4188,"is_reserved":false,"is_disabled":false,"rental_uris":{"android":"levelo://app?vid=2ec52292-f495-4e5c-b68a-d6e04363b70a","ios":"levelo://app?vid=2ec52292-f495-4e5c-b68a-d6e04363b70a"},"vehicle_type_id":"4","last_reported":1745341785,"current_range_meters":12000,"station_id":"ce4bhop2rcd13ifvqh7g","pricing_plan_id":"cebpf4jnsgd1na2vs0mg"},{"bike_id":"f631b60b-762f-4ec3-9938-5555b4f5f312","system_id":"levelo_inurba_marseille","lat":43.29173,"lon":5.37162,"is_reserved":false,"is_disabled":false,"rental_uris":{"android":"levelo://app?vid=f631b60b-762f-4ec3-9938-5555b4f5f312","ios":"levelo://app?vid=f631b60b-762f-4ec3-9938-5555b4f5f312"},"vehicle_type_id":"4","last_reported":1745341785,"current_range_meters":12000,"station_id":"ce4bha92rcd13ifvqeh0","pricing_plan_id":"cebpf4jnsgd1na2vs0mg"},{"bike_id":"41cd4d50-3bdd-4fa7-b5d1-d715f5a540e6","system_id":"levelo_inurba_marseille","lat":43.323569,"lon":5.367632,"is_reserved":false,"is_disabled":false,"rental_uris":{"android":"levelo://app?vid=41cd4d50-3bdd-4fa7-b5d1-d715f5a540e6","ios":"levelo://app?vid=41cd4d50-3bdd-4fa7-b5d1-d715f5a540e6"},"vehicle_type_id":"4","last_reported":1745341785,"current_range_meters":12000,"station_id":"ce4bhsh2rcd13ifvqi2g","pricing_plan_id":"cebpf4jnsgd1na2vs0mg"},{"bike_id":"9eeabaca-41d3-49c4-85d1-db2f8b671aec","system_id":"levelo_inurba_marseille","lat":43.29039,"lon":5.39973,"is_reserved":false,"is_disabled":false,"rental_uris":{"android":"levelo://app?vid=9eeabaca-41d3-49c4-85d1-db2f8b671aec","ios":"levelo://app?vid=9eeabaca-41d3-49c4-85d1-db2f8b671aec"},"vehicle_type_id":"4","last_reported":1745341785,"current_range_meters":12400,"station_id":"ce4bh392rcd13ifvqdm0","pricing_plan_id":"cebpf4jnsgd1na2vs0mg"},{"bike_id":"a756bae3-49c1-4d6c-89e8-fcb7b0e7d2e2","system_id":"levelo_inurba_marseille","lat":43.29033,"lon":5.3589,"is_reserved":false,"is_disabled":true,"rental_uris":{"android":"levelo://app?vid=a756bae3-49c1-4d6c-89e8-fcb7b0e7d2e2","ios":"levelo://app?vid=a756bae3-49c1-4d6c-89e8-fcb7b0e7d2e2"},"vehicle_type_id":"4","last_reported":1745341785,"current_range_meters":12400,"station_id":"ce4bha92rcd13ifvqeg0","pricing_plan_id":"cebpf4jnsgd1na2vs0mg"},{"bike_id":"e6f7a45a-4fc9-4fd4-9eda-192f9b4a253c","system_id":"levelo_inurba_marseille","lat":43.29178,"lon":5.35817,"is_reserved":false,"is_disabled":false,"rental_uris":{"android":"levelo://app?vid=e6f7a45a-4fc9-4fd4-9eda-192f9b4a253c","ios":"levelo://app?vid=e6f7a45a-4fc9-4fd4-9eda-192f9b4a253c"},"vehicle_type_id":"4","last_reported":1745341785,"current_range_meters":12000,"station_id":"ce4bhb12rcd13ifvqel0","pricing_plan_id":"cebpf4jnsgd1na2vs0mg"},{"bike_id":"d5fa6a7e-ae6f-48cd-8dc8-6ec1473fc099","system_id":"levelo_inurba_marseille","lat":43.313888,"lon":5.367097,"is_reserved":false,"is_disabled":true,"rental_uris":{"android":"levelo://app?vid=d5fa6a7e-ae6f-48cd-8dc8-6ec1473fc099","ios":"levelo://app?vid=d5fa6a7e-ae6f-48cd-8dc8-6ec1473fc099"},"vehicle_type_id":"4","last_reported":1745341785,"current_range_meters":12400,"station_id":"ce4bgr92rcd13ifvqc6g","pricing_plan_id":"cebpf4jnsgd1na2vs0mg"},{"bike_id":"bcf59123-c0ca-4689-b22c-166c9c055995","system_id":"levelo_inurba_marseille","lat":43.32028,"lon":5.41561,"is_reserved":false,"is_disabled":false,"rental_uris":{"android":"levelo://app?vid=bcf59123-c0ca-4689-b22c-166c9c055995","ios":"levelo://app?vid=bcf59123-c0ca-4689-b22c-166c9c055995"},"vehicle_type_id":"4","last_reported":1745341785,"current_range_meters":12400,"station_id":"ce4bhq92rcd13ifvqhkg","pricing_plan_id":"cebpf4jnsgd1na2vs0mg"},{"bike_id":"d86b62e2-cbaa-4ed6-871d-67ec66e77367","system_id":"levelo_inurba_marseille","lat":43.30788,"lon":5.43525,"is_reserved":false,"is_disabled":false,"rental_uris":{"android":"levelo://app?vid=d86b62e2-cbaa-4ed6-871d-67ec66e77367","ios":"levelo://app?vid=d86b62e2-cbaa-4ed6-871d-67ec66e77367"},"vehicle_type_id":"4","last_reported":1745341785,"current_range_meters":12400,"station_id":"ce4bhph2rcd13ifvqheg","pricing_plan_id":"cebpf4jnsgd1na2vs0mg"},{"bike_id":"3abdcd1b-3e40-49b3-b30c-afbb47f093d8","system_id":"levelo_inurba_marseille","lat":43.31339,"lon":5.39692,"is_reserved":false,"is_disabled":false,"rental_uris":{"android":"levelo://app?vid=3abdcd1b-3e40-49b3-b30c-afbb47f093d8","ios":"levelo://app?vid=3abdcd1b-3e40-49b3-b30c-afbb47f093d8"},"vehicle_type_id":"4","last_reported":1745341785,"current_range_meters":12400,"station_id":"ce4bgvp2rcd13ifvqcu0","pricing_plan_id":"cebpf4jnsgd1na2vs0mg"},{"bike_id":"e9e21459-0141-43a3-9f99-2d720b6a2b30","system_id":"levelo_inurba_marseille","lat":43.28622,"lon":5.35077,"is_reserved":false,"is_disabled":false,"rental_uris":{"android":"levelo://app?vid=e9e21459-0141-43a3-9f99-2d720b6a2b30","ios":"levelo://app?vid=e9e21459-0141-43a3-9f99-2d720b6a2b30"},"vehicle_type_id":"4","last_reported":1745341785,"current_range_meters":12800,"station_id":"ce4bhch2rcd13ifvqeug","pricing_plan_id":"cebpf4jnsgd1na2vs0mg"},{"bike_id":"ceb357e2-3d79-417a-a943-1f72aa6d4eba","system_id":"levelo_inurba_marseille","lat":43.32295,"lon":5.38297,"is_reserved":false,"is_disabled":false,"rental_uris":{"android":"levelo://app?vid=ceb357e2-3d79-417a-a943-1f72aa6d4eba","ios":"levelo://app?vid=ceb357e2-3d79-417a-a943-1f72aa6d4eba"},"vehicle_type_id":"4","last_reported":1745341785,"current_range_meters":12800,"station_id":"ce4bhr12rcd13ifvqhqg","pricing_plan_id":"cebpf4jnsgd1na2vs0mg"},{"bike_id":"8c0d14bb-4242-4f4f-8a62-e312c5b2bf57","system_id":"levelo_inurba_marseille","lat":43.29441,"lon":5.38638,"is_reserved":false,"is_disabled":false,"rental_uris":{"android":"levelo://app?vid=8c0d14bb-4242-4f4f-8a62-e312c5b2bf57","ios":"levelo://app?vid=8c0d14bb-4242-4f4f-8a62-e312c5b2bf57"},"vehicle_type_id":"4","last_reported":1745341785,"current_range_meters":12800,"station_id":"ce4bh2h2rcd13ifvqdh0","pricing_plan_id":"cebpf4jnsgd1na2vs0mg"},{"bike_id":"46b4fe35-f673-4d9b-9cb6-0c775755a614","system_id":"levelo_inurba_marseille","lat":43.27958,"lon":5.41049,"is_reserved":false,"is_disabled":false,"rental_uris":{"android":"levelo://app?vid=46b4fe35-f673-4d9b-9cb6-0c775755a614","ios":"levelo://app?vid=46b4fe35-f673-4d9b-9cb6-0c775755a614"},"vehicle_type_id":"4","last_reported":1745341785,"current_range_meters":13600,"station_id":"ce4bhnp2rcd13ifvqh0g","pricing_plan_id":"cebpf4jnsgd1na2vs0mg"},{"bike_id":"bd09541a-9812-416f-88fa-272e03eadbad","system_id":"levelo_inurba_marseille","lat":43.28465,"lon":5.35892,"is_reserved":false,"is_disabled":false,"rental_uris":{"android":"levelo://app?vid=bd09541a-9812-416f-88fa-272e03eadbad","ios":"levelo://app?vid=bd09541a-9812-416f-88fa-272e03eadbad"},"vehicle_type_id":"4","last_reported":1745341785,"current_range_meters":13600,"station_id":"ce4bhah2rcd13ifvqei0","pricing_plan_id":"cebpf4jnsgd1na2vs0mg"},{"bike_id":"ff4f05de-475b-4fa4-9b77-0b42c615eed9","system_id":"levelo_inurba_marseille","lat":43.29224,"lon":5.3607,"is_reserved":false,"is_disabled":false,"rental_uris":{"android":"levelo://app?vid=ff4f05de-475b-4fa4-9b77-0b42c615eed9","ios":"levelo://app?vid=ff4f05de-475b-4fa4-9b77-0b42c615eed9"},"vehicle_type_id":"4","last_reported":1745341785,"current_range_meters":13600,"station_id":"ce4bhbh2rcd13ifvqeqg","pricing_plan_id":"cebpf4jnsgd1na2vs0mg"},{"bike_id":"d3363139-0dbd-4b34-a8a9-b22d2da56a7f","system_id":"levelo_inurba_marseille","lat":43.29103,"lon":5.38168,"is_reserved":false,"is_disabled":false,"rental_uris":{"android":"levelo://app?vid=d3363139-0dbd-4b34-a8a9-b22d2da56a7f","ios":"levelo://app?vid=d3363139-0dbd-4b34-a8a9-b22d2da56a7f"},"vehicle_type_id":"4","last_reported":1745341785,"current_range_meters":13600,"station_id":"ce4bh512rcd13ifvqe2g","pricing_plan_id":"cebpf4jnsgd1na2vs0mg"},{"bike_id":"6eede09b-2821-46a5-a28c-ae6d3a99331b","system_id":"levelo_inurba_marseille","lat":43.29006,"lon":5.35612,"is_reserved":false,"is_disabled":false,"rental_uris":{"android":"levelo://app?vid=6eede09b-2821-46a5-a28c-ae6d3a99331b","ios":"levelo://app?vid=6eede09b-2821-46a5-a28c-ae6d3a99331b"},"vehicle_type_id":"4","last_reported":1745341785,"current_range_meters":14000,"station_id":"ce4bhb92rcd13ifvqen0","pricing_plan_id":"cebpf4jnsgd1na2vs0mg"},{"bike_id":"c507238c-1143-4c7a-9260-8236adcfc360","system_id":"levelo_inurba_marseille","lat":43.24476,"lon":5.386749,"is_reserved":false,"is_disabled":false,"rental_uris":{"android":"levelo://app?vid=c507238c-1143-4c7a-9260-8236adcfc360","ios":"levelo://app?vid=c507238c-1143-4c7a-9260-8236adcfc360"},"vehicle_type_id":"4","last_reported":1745341785,"current_range_meters":14000,"station_id":"ce4bhi12rcd13ifvqfp0","pricing_plan_id":"cebpf4jnsgd1na2vs0mg"},{"bike_id":"55d35860-0e11-4bab-b3ad-ed44af2c3ed1","system_id":"levelo_inurba_marseille","lat":43.31174,"lon":5.38697,"is_reserved":false,"is_disabled":false,"rental_uris":{"android":"levelo://app?vid=55d35860-0e11-4bab-b3ad-ed44af2c3ed1","ios":"levelo://app?vid=55d35860-0e11-4bab-b3ad-ed44af2c3ed1"},"vehicle_type_id":"4","last_reported":1745341785,"current_range_meters":14000,"station_id":"ce4bgv12rcd13ifvqcp0","pricing_plan_id":"cebpf4jnsgd1na2vs0mg"},{"bike_id":"a91b160f-074c-4cc7-846a-413802250f97","system_id":"levelo_inurba_marseille","lat":43.26571,"lon":5.39009,"is_reserved":false,"is_disabled":false,"rental_uris":{"android":"levelo://app?vid=a91b160f-074c-4cc7-846a-413802250f97","ios":"levelo://app?vid=a91b160f-074c-4cc7-846a-413802250f97"},"vehicle_type_id":"4","last_reported":1745341785,"current_range_meters":14000,"station_id":"ce4bhe12rcd13ifvqf30","pricing_plan_id":"cebpf4jnsgd1na2vs0mg"},{"bike_id":"f0b959af-b425-421d-bd32-c4eb80f91e13","system_id":"levelo_inurba_marseille","lat":43.28157,"lon":5.42646,"is_reserved":false,"is_disabled":false,"rental_uris":{"android":"levelo://app?vid=f0b959af-b425-421d-bd32-c4eb80f91e13","ios":"levelo://app?vid=f0b959af-b425-421d-bd32-c4eb80f91e13"},"vehicle_type_id":"4","last_reported":1745341785,"current_range_meters":14000,"station_id":"ce4bhnh2rcd13ifvqgug","pricing_plan_id":"cebpf4jnsgd1na2vs0mg"},{"bike_id":"1ab727db-52be-4f13-9f81-2b6c5d018560","system_id":"levelo_inurba_marseille","lat":43.29365,"lon":5.3785,"is_reserved":false,"is_disabled":false,"rental_uris":{"android":"levelo://app?vid=1ab727db-52be-4f13-9f81-2b6c5d018560","ios":"levelo://app?vid=1ab727db-52be-4f13-9f81-2b6c5d018560"},"vehicle_type_id":"4","last_reported":1745341785,"current_range_meters":14000,"station_id":"ce4bgjh2rcd13ifvqbf0","pricing_plan_id":"cebpf4jnsgd1na2vs0mg"},{"bike_id":"92c09ad8-239a-4f45-963c-15e043aede65","system_id":"levelo_inurba_marseille","lat":43.28268,"lon":5.35068,"is_reserved":false,"is_disabled":false,"rental_uris":{"android":"levelo://app?vid=92c09ad8-239a-4f45-963c-15e043aede65","ios":"levelo://app?vid=92c09ad8-239a-4f45-963c-15e043aede65"},"vehicle_type_id":"4","last_reported":1745341785,"current_range_meters":14000,"station_id":"ce4bhbp2rcd13ifvqerg","pricing_plan_id":"cebpf4jnsgd1na2vs0mg"},{"bike_id":"8a6ba93b-ea96-4f2e-8258-f951906a8acc","system_id":"levelo_inurba_marseille","lat":43.27997,"lon":5.40016,"is_reserved":false,"is_disabled":false,"rental_uris":{"android":"levelo://app?vid=8a6ba93b-ea96-4f2e-8258-f951906a8acc","ios":"levelo://app?vid=8a6ba93b-ea96-4f2e-8258-f951906a8acc"},"vehicle_type_id":"4","last_reported":1745341785,"current_range_meters":14400,"station_id":"ce4bho92rcd13ifvqh4g","pricing_plan_id":"cebpf4jnsgd1na2vs0mg"},{"bike_id":"caccf6b1-eff9-41fc-9278-5e6f421f5468","system_id":"levelo_inurba_marseille","lat":43.284175,"lon":5.349837,"is_reserved":false,"is_disabled":false,"rental_uris":{"android":"levelo://app?vid=caccf6b1-eff9-41fc-9278-5e6f421f5468","ios":"levelo://app?vid=caccf6b1-eff9-41fc-9278-5e6f421f5468"},"vehicle_type_id":"4","last_reported":1745341785,"current_range_meters":14400,"station_id":"ce4bhbh2rcd13ifvqepg","pricing_plan_id":"cebpf4jnsgd1na2vs0mg"},{"bike_id":"afc1a72d-f3cd-4039-8f8e-8907957e6ee0","system_id":"levelo_inurba_marseille","lat":43.28421,"lon":5.37506,"is_reserved":false,"is_disabled":false,"rental_uris":{"android":"levelo://app?vid=afc1a72d-f3cd-4039-8f8e-8907957e6ee0","ios":"levelo://app?vid=afc1a72d-f3cd-4039-8f8e-8907957e6ee0"},"vehicle_type_id":"4","last_reported":1745341785,"current_range_meters":14400,"station_id":"ce4bh412rcd13ifvqds0","pricing_plan_id":"cebpf4jnsgd1na2vs0mg"},{"bike_id":"4e290db2-f99e-4321-b5d1-54c249831713","system_id":"levelo_inurba_marseille","lat":43.29001,"lon":5.35619,"is_reserved":false,"is_disabled":false,"rental_uris":{"android":"levelo://app?vid=4e290db2-f99e-4321-b5d1-54c249831713","ios":"levelo://app?vid=4e290db2-f99e-4321-b5d1-54c249831713"},"vehicle_type_id":"4","last_reported":1745341785,"current_range_meters":14400,"station_id":"ce4bhb92rcd13ifvqen0","pricing_plan_id":"cebpf4jnsgd1na2vs0mg"},{"bike_id":"d23493c5-6921-4ce7-87dc-0ef4eeaf8f55","system_id":"levelo_inurba_marseille","lat":43.28926,"lon":5.36644,"is_reserved":false,"is_disabled":false,"rental_uris":{"android":"levelo://app?vid=d23493c5-6921-4ce7-87dc-0ef4eeaf8f55","ios":"levelo://app?vid=d23493c5-6921-4ce7-87dc-0ef4eeaf8f55"},"vehicle_type_id":"4","last_reported":1745341785,"current_range_meters":14800,"station_id":"ce4bhap2rcd13ifvqek0","pricing_plan_id":"cebpf4jnsgd1na2vs0mg"},{"bike_id":"25fd591d-e125-432c-840e-f9cdf43a998c","system_id":"levelo_inurba_marseille","lat":43.29259,"lon":5.38438,"is_reserved":false,"is_disabled":false,"rental_uris":{"android":"levelo://app?vid=25fd591d-e125-432c-840e-f9cdf43a998c","ios":"levelo://app?vid=25fd591d-e125-432c-840e-f9cdf43a998c"},"vehicle_type_id":"4","last_reported":1745341785,"current_range_meters":14400,"station_id":"ce4bh692rcd13ifvqea0","pricing_plan_id":"cebpf4jnsgd1na2vs0mg"},{"bike_id":"17ce3b85-7346-4a42-9199-97bc3cf3327d","system_id":"levelo_inurba_marseille","lat":43.31682,"lon":5.40474,"is_reserved":false,"is_disabled":false,"rental_uris":{"android":"levelo://app?vid=17ce3b85-7346-4a42-9199-97bc3cf3327d","ios":"levelo://app?vid=17ce3b85-7346-4a42-9199-97bc3cf3327d"},"vehicle_type_id":"4","last_reported":1745341785,"current_range_meters":14800,"station_id":"ce4bh012rcd13ifvqd00","pricing_plan_id":"cebpf4jnsgd1na2vs0mg"},{"bike_id":"48939965-4329-495f-a3f1-b5cf562d2ecf","system_id":"levelo_inurba_marseille","lat":43.30684,"lon":5.401,"is_reserved":false,"is_disabled":true,"rental_uris":{"android":"levelo://app?vid=48939965-4329-495f-a3f1-b5cf562d2ecf","ios":"levelo://app?vid=48939965-4329-495f-a3f1-b5cf562d2ecf"},"vehicle_type_id":"4","last_reported":1745341785,"current_range_meters":14800,"station_id":"ce4bh112rcd13ifvqda0","pricing_plan_id":"cebpf4jnsgd1na2vs0mg"},{"bike_id":"e68da8d4-eae8-449d-93ab-c20bb99b64ac","system_id":"levelo_inurba_marseille","lat":43.2834,"lon":5.38095,"is_reserved":false,"is_disabled":false,"rental_uris":{"android":"levelo://app?vid=e68da8d4-eae8-449d-93ab-c20bb99b64ac","ios":"levelo://app?vid=e68da8d4-eae8-449d-93ab-c20bb99b64ac"},"vehicle_type_id":"4","last_reported":1745341785,"current_range_meters":14800,"station_id":"ce4bh412rcd13ifvqdr0","pricing_plan_id":"cebpf4jnsgd1na2vs0mg"},{"bike_id":"6cd96ef9-4992-44ce-b190-7e6e9a3c30e1","system_id":"levelo_inurba_marseille","lat":43.24803,"lon":5.37454,"is_reserved":false,"is_disabled":false,"rental_uris":{"android":"levelo://app?vid=6cd96ef9-4992-44ce-b190-7e6e9a3c30e1","ios":"levelo://app?vid=6cd96ef9-4992-44ce-b190-7e6e9a3c30e1"},"vehicle_type_id":"4","last_reported":1745341785,"current_range_meters":14800,"station_id":"ce4bhgh2rcd13ifvqfb0","pricing_plan_id":"cebpf4jnsgd1na2vs0mg"},{"bike_id":"e7c94640-7b97-435b-b66f-09b2274239bc","system_id":"levelo_inurba_marseille","lat":43.28266,"lon":5.35069,"is_reserved":false,"is_disabled":false,"rental_uris":{"android":"levelo://app?vid=e7c94640-7b97-435b-b66f-09b2274239bc","ios":"levelo://app?vid=e7c94640-7b97-435b-b66f-09b2274239bc"},"vehicle_type_id":"4","last_reported":1745341785,"current_range_meters":15200,"station_id":"ce4bhbp2rcd13ifvqerg","pricing_plan_id":"cebpf4jnsgd1na2vs0mg"},{"bike_id":"b0f1bdb0-c335-44d2-a7c8-ba36299226cd","system_id":"levelo_inurba_marseille","lat":43.2869,"lon":5.37382,"is_reserved":false,"is_disabled":false,"rental_uris":{"android":"levelo://app?vid=b0f1bdb0-c335-44d2-a7c8-ba36299226cd","ios":"levelo://app?vid=b0f1bdb0-c335-44d2-a7c8-ba36299226cd"},"vehicle_type_id":"4","last_reported":1745341785,"current_range_meters":15200,"station_id":"ce4bh3p2rcd13ifvqdq0","pricing_plan_id":"cebpf4jnsgd1na2vs0mg"},{"bike_id":"4baf13c7-c1e4-4962-8e34-7d0bc45538f3","system_id":"levelo_inurba_marseille","lat":43.29838,"lon":5.36266,"is_reserved":false,"is_disabled":false,"rental_uris":{"android":"levelo://app?vid=4baf13c7-c1e4-4962-8e34-7d0bc45538f3","ios":"levelo://app?vid=4baf13c7-c1e4-4962-8e34-7d0bc45538f3"},"vehicle_type_id":"4","last_reported":1745341785,"current_range_meters":15200,"station_id":"ce4bgpp2rcd13ifvqc3g","pricing_plan_id":"cebpf4jnsgd1na2vs0mg"},{"bike_id":"720e7c55-81ee-4df3-85dd-e0a8bd052c42","system_id":"levelo_inurba_marseille","lat":43.295225,"lon":5.390411,"is_reserved":false,"is_disabled":false,"rental_uris":{"android":"levelo://app?vid=720e7c55-81ee-4df3-85dd-e0a8bd052c42","ios":"levelo://app?vid=720e7c55-81ee-4df3-85dd-e0a8bd052c42"},"vehicle_type_id":"4","last_reported":1745341785,"current_range_meters":15200,"station_id":"ce4bh3p2rcd13ifvqdp0","pricing_plan_id":"cebpf4jnsgd1na2vs0mg"},{"bike_id":"e7ff7453-188b-4169-a368-15d344fe8d19","system_id":"levelo_inurba_marseille","lat":43.28698,"lon":5.39986,"is_reserved":false,"is_disabled":false,"rental_uris":{"android":"levelo://app?vid=e7ff7453-188b-4169-a368-15d344fe8d19","ios":"levelo://app?vid=e7ff7453-188b-4169-a368-15d344fe8d19"},"vehicle_type_id":"4","last_reported":1745341785,"current_range_meters":16000,"station_id":"ce4bho92rcd13ifvqh3g","pricing_plan_id":"cebpf4jnsgd1na2vs0mg"},{"bike_id":"ef748aab-dd07-49d5-9074-8be4876118ea","system_id":"levelo_inurba_marseille","lat":43.27962,"lon":5.38734,"is_reserved":false,"is_disabled":false,"rental_uris":{"android":"levelo://app?vid=ef748aab-dd07-49d5-9074-8be4876118ea","ios":"levelo://app?vid=ef748aab-dd07-49d5-9074-8be4876118ea"},"vehicle_type_id":"4","last_reported":1745341785,"current_range_meters":16000,"station_id":"ce4bhg12rcd13ifvqf80","pricing_plan_id":"cebpf4jnsgd1na2vs0mg"},{"bike_id":"b80de296-a991-412b-bfc3-0e676b555e05","system_id":"levelo_inurba_marseille","lat":43.29796,"lon":5.39361,"is_reserved":false,"is_disabled":false,"rental_uris":{"android":"levelo://app?vid=b80de296-a991-412b-bfc3-0e676b555e05","ios":"levelo://app?vid=b80de296-a991-412b-bfc3-0e676b555e05"},"vehicle_type_id":"4","last_reported":1745341785,"current_range_meters":16000,"station_id":"chh1huq6cuj3fo74tm60","pricing_plan_id":"cebpf4jnsgd1na2vs0mg"},{"bike_id":"1b4705eb-66e8-4b0c-91e6-17de5e5a2990","system_id":"levelo_inurba_marseille","lat":43.28463,"lon":5.35894,"is_reserved":false,"is_disabled":false,"rental_uris":{"android":"levelo://app?vid=1b4705eb-66e8-4b0c-91e6-17de5e5a2990","ios":"levelo://app?vid=1b4705eb-66e8-4b0c-91e6-17de5e5a2990"},"vehicle_type_id":"4","last_reported":1745341785,"current_range_meters":16000,"station_id":"ce4bhah2rcd13ifvqei0","pricing_plan_id":"cebpf4jnsgd1na2vs0mg"},{"bike_id":"759cac23-bae1-4539-b12c-80d314440cf5","system_id":"levelo_inurba_marseille","lat":43.26201,"lon":5.37925,"is_reserved":false,"is_disabled":false,"rental_uris":{"android":"levelo://app?vid=759cac23-bae1-4539-b12c-80d314440cf5","ios":"levelo://app?vid=759cac23-bae1-4539-b12c-80d314440cf5"},"vehicle_type_id":"4","last_reported":1745341785,"current_range_meters":16400,"station_id":"ce4bhjp2rcd13ifvqg90","pricing_plan_id":"cebpf4jnsgd1na2vs0mg"},{"bike_id":"2bce661c-2ff8-4a04-a4e4-7724b9fb4c91","system_id":"levelo_inurba_marseille","lat":43.31163,"lon":5.38722,"is_reserved":false,"is_disabled":false,"rental_uris":{"android":"levelo://app?vid=2bce661c-2ff8-4a04-a4e4-7724b9fb4c91","ios":"levelo://app?vid=2bce661c-2ff8-4a04-a4e4-7724b9fb4c91"},"vehicle_type_id":"4","last_reported":1745341785,"current_range_meters":16000,"station_id":"ce4bgv12rcd13ifvqcp0","pricing_plan_id":"cebpf4jnsgd1na2vs0mg"},{"bike_id":"abd226a8-d003-4133-b9d2-b7c952b7ead1","system_id":"levelo_inurba_marseille","lat":43.230568,"lon":5.354909,"is_reserved":false,"is_disabled":false,"rental_uris":{"android":"levelo://app?vid=abd226a8-d003-4133-b9d2-b7c952b7ead1","ios":"levelo://app?vid=abd226a8-d003-4133-b9d2-b7c952b7ead1"},"vehicle_type_id":"4","last_reported":1745341785,"current_range_meters":16400,"station_id":"cpo3342slgdg3j2ifvpg","pricing_plan_id":"cebpf4jnsgd1na2vs0mg"},{"bike_id":"acc5643c-c9e9-4357-bdfb-fc6d1b8a08b1","system_id":"levelo_inurba_marseille","lat":43.29529,"lon":5.38538,"is_reserved":false,"is_disabled":false,"rental_uris":{"android":"levelo://app?vid=acc5643c-c9e9-4357-bdfb-fc6d1b8a08b1","ios":"levelo://app?vid=acc5643c-c9e9-4357-bdfb-fc6d1b8a08b1"},"vehicle_type_id":"4","last_reported":1745341785,"current_range_meters":16400,"station_id":"ce4bgih2rcd13ifvqba0","pricing_plan_id":"cebpf4jnsgd1na2vs0mg"},{"bike_id":"758aac2a-4073-43a2-9fc7-761df0ac866b","system_id":"levelo_inurba_marseille","lat":43.307797,"lon":5.376438,"is_reserved":false,"is_disabled":false,"rental_uris":{"android":"levelo://app?vid=758aac2a-4073-43a2-9fc7-761df0ac866b","ios":"levelo://app?vid=758aac2a-4073-43a2-9fc7-761df0ac866b"},"vehicle_type_id":"4","last_reported":1745341785,"current_range_meters":16000,"station_id":"ce4bh9p2rcd13ifvqec0","pricing_plan_id":"cebpf4jnsgd1na2vs0mg"},{"bike_id":"60d957d7-b9cd-48dd-9362-1e4365e58dc2","system_id":"levelo_inurba_marseille","lat":43.29421,"lon":5.38619,"is_reserved":false,"is_disabled":false,"rental_uris":{"android":"levelo://app?vid=60d957d7-b9cd-48dd-9362-1e4365e58dc2","ios":"levelo://app?vid=60d957d7-b9cd-48dd-9362-1e4365e58dc2"},"vehicle_type_id":"4","last_reported":1745341785,"current_range_meters":16000,"station_id":"ce4bh2h2rcd13ifvqdh0","pricing_plan_id":"cebpf4jnsgd1na2vs0mg"},{"bike_id":"9c5c5425-75e9-4e29-91bb-75079da60ab4","system_id":"levelo_inurba_marseille","lat":43.30317,"lon":5.4043,"is_reserved":false,"is_disabled":false,"rental_uris":{"android":"levelo://app?vid=9c5c5425-75e9-4e29-91bb-75079da60ab4","ios":"levelo://app?vid=9c5c5425-75e9-4e29-91bb-75079da60ab4"},"vehicle_type_id":"4","last_reported":1745341785,"current_range_meters":16400,"station_id":"ce4bh012rcd13ifvqd10","pricing_plan_id":"cebpf4jnsgd1na2vs0mg"},{"bike_id":"dd0b5713-c7ed-4c5c-9ccb-a372661ac719","system_id":"levelo_inurba_marseille","lat":43.269432,"lon":5.402654,"is_reserved":false,"is_disabled":false,"rental_uris":{"android":"levelo://app?vid=dd0b5713-c7ed-4c5c-9ccb-a372661ac719","ios":"levelo://app?vid=dd0b5713-c7ed-4c5c-9ccb-a372661ac719"},"vehicle_type_id":"4","last_reported":1745341785,"current_range_meters":16400,"station_id":"ce4bhjp2rcd13ifvqga0","pricing_plan_id":"cebpf4jnsgd1na2vs0mg"},{"bike_id":"8cf3a5c9-4502-41d1-8242-c92a7f43ed7d","system_id":"levelo_inurba_marseille","lat":43.283707,"lon":5.386336,"is_reserved":false,"is_disabled":false,"rental_uris":{"android":"levelo://app?vid=8cf3a5c9-4502-41d1-8242-c92a7f43ed7d","ios":"levelo://app?vid=8cf3a5c9-4502-41d1-8242-c92a7f43ed7d"},"vehicle_type_id":"4","last_reported":1745341785,"current_range_meters":16800,"station_id":"ce4bh492rcd13ifvqdvg","pricing_plan_id":"cebpf4jnsgd1na2vs0mg"},{"bike_id":"8e20898e-f4a5-4e7c-b50a-4ab43a31e9df","system_id":"levelo_inurba_marseille","lat":43.294129,"lon":5.386234,"is_reserved":false,"is_disabled":false,"rental_uris":{"android":"levelo://app?vid=8e20898e-f4a5-4e7c-b50a-4ab43a31e9df","ios":"levelo://app?vid=8e20898e-f4a5-4e7c-b50a-4ab43a31e9df"},"vehicle_type_id":"4","last_reported":1745341785,"current_range_meters":16800,"station_id":"ce4bh2h2rcd13ifvqdh0","pricing_plan_id":"cebpf4jnsgd1na2vs0mg"},{"bike_id":"83119a63-b44c-4520-82d9-e89bedc00b4c","system_id":"levelo_inurba_marseille","lat":43.30956,"lon":5.39035,"is_reserved":false,"is_disabled":false,"rental_uris":{"android":"levelo://app?vid=83119a63-b44c-4520-82d9-e89bedc00b4c","ios":"levelo://app?vid=83119a63-b44c-4520-82d9-e89bedc00b4c"},"vehicle_type_id":"4","last_reported":1745341785,"current_range_meters":16400,"station_id":"ce4bgup2rcd13ifvqco0","pricing_plan_id":"cebpf4jnsgd1na2vs0mg"},{"bike_id":"43611d3a-4274-4d37-a853-85ee6c984057","system_id":"levelo_inurba_marseille","lat":43.27375,"lon":5.36252,"is_reserved":false,"is_disabled":false,"rental_uris":{"android":"levelo://app?vid=43611d3a-4274-4d37-a853-85ee6c984057","ios":"levelo://app?vid=43611d3a-4274-4d37-a853-85ee6c984057"},"vehicle_type_id":"4","last_reported":1745341785,"current_range_meters":17200,"station_id":"ce4bhbh2rcd13ifvqeo0","pricing_plan_id":"cebpf4jnsgd1na2vs0mg"},{"bike_id":"4058f62d-ca8f-492f-8fca-74ec3189f044","system_id":"levelo_inurba_marseille","lat":43.29915,"lon":5.39752,"is_reserved":false,"is_disabled":false,"rental_uris":{"android":"levelo://app?vid=4058f62d-ca8f-492f-8fca-74ec3189f044","ios":"levelo://app?vid=4058f62d-ca8f-492f-8fca-74ec3189f044"},"vehicle_type_id":"4","last_reported":1745341785,"current_range_meters":17200,"station_id":"","pricing_plan_id":"cebpf4jnsgd1na2vs0mg"},{"bike_id":"1a105606-3c27-4e5f-9a21-c9998c082734","system_id":"levelo_inurba_marseille","lat":43.291993,"lon":5.358006,"is_reserved":false,"is_disabled":false,"rental_uris":{"android":"levelo://app?vid=1a105606-3c27-4e5f-9a21-c9998c082734","ios":"levelo://app?vid=1a105606-3c27-4e5f-9a21-c9998c082734"},"vehicle_type_id":"4","last_reported":1745341785,"current_range_meters":17200,"station_id":"ce4bhb12rcd13ifvqel0","pricing_plan_id":"cebpf4jnsgd1na2vs0mg"},{"bike_id":"62fe05eb-a918-42fe-b437-517d502a07c0","system_id":"levelo_inurba_marseille","lat":43.27956,"lon":5.41054,"is_reserved":false,"is_disabled":false,"rental_uris":{"android":"levelo://app?vid=62fe05eb-a918-42fe-b437-517d502a07c0","ios":"levelo://app?vid=62fe05eb-a918-42fe-b437-517d502a07c0"},"vehicle_type_id":"4","last_reported":1745341785,"current_range_meters":17200,"station_id":"ce4bhnp2rcd13ifvqh0g","pricing_plan_id":"cebpf4jnsgd1na2vs0mg"},{"bike_id":"71e6f9f4-bfc0-4a5e-a9af-29fbd8a5190b","system_id":"levelo_inurba_marseille","lat":43.29003,"lon":5.35611,"is_reserved":false,"is_disabled":false,"rental_uris":{"android":"levelo://app?vid=71e6f9f4-bfc0-4a5e-a9af-29fbd8a5190b","ios":"levelo://app?vid=71e6f9f4-bfc0-4a5e-a9af-29fbd8a5190b"},"vehicle_type_id":"4","last_reported":1745341785,"current_range_meters":17200,"station_id":"ce4bhb92rcd13ifvqen0","pricing_plan_id":"cebpf4jnsgd1na2vs0mg"},{"bike_id":"1b903b38-38de-4714-9a2c-59836acfa168","system_id":"levelo_inurba_marseille","lat":43.31721,"lon":5.43713,"is_reserved":false,"is_disabled":true,"rental_uris":{"android":"levelo://app?vid=1b903b38-38de-4714-9a2c-59836acfa168","ios":"levelo://app?vid=1b903b38-38de-4714-9a2c-59836acfa168"},"vehicle_type_id":"4","last_reported":1745341785,"current_range_meters":17200,"station_id":"ce4bhp92rcd13ifvqhcg","pricing_plan_id":"cebpf4jnsgd1na2vs0mg"},{"bike_id":"85da4eb1-1a5c-4882-9998-97b058a95f67","system_id":"levelo_inurba_marseille","lat":43.30127,"lon":5.38779,"is_reserved":false,"is_disabled":false,"rental_uris":{"android":"levelo://app?vid=85da4eb1-1a5c-4882-9998-97b058a95f67","ios":"levelo://app?vid=85da4eb1-1a5c-4882-9998-97b058a95f67"},"vehicle_type_id":"4","last_reported":1745341785,"current_range_meters":17200,"station_id":"ce4bghh2rcd13ifvqb60","pricing_plan_id":"cebpf4jnsgd1na2vs0mg"},{"bike_id":"b6ce735c-f76a-4220-b9ec-0b18f41ba76f","system_id":"levelo_inurba_marseille","lat":43.28708,"lon":5.40002,"is_reserved":false,"is_disabled":false,"rental_uris":{"android":"levelo://app?vid=b6ce735c-f76a-4220-b9ec-0b18f41ba76f","ios":"levelo://app?vid=b6ce735c-f76a-4220-b9ec-0b18f41ba76f"},"vehicle_type_id":"4","last_reported":1745341785,"current_range_meters":17200,"station_id":"ce4bho92rcd13ifvqh3g","pricing_plan_id":"cebpf4jnsgd1na2vs0mg"},{"bike_id":"9f1e349e-7f44-420f-95ec-c319dae210f6","system_id":"levelo_inurba_marseille","lat":43.292113,"lon":5.383859,"is_reserved":false,"is_disabled":true,"rental_uris":{"android":"levelo://app?vid=9f1e349e-7f44-420f-95ec-c319dae210f6","ios":"levelo://app?vid=9f1e349e-7f44-420f-95ec-c319dae210f6"},"vehicle_type_id":"4","last_reported":1745341785,"current_range_meters":17600,"station_id":"","pricing_plan_id":"cebpf4jnsgd1na2vs0mg"},{"bike_id":"31337fe8-cb42-4062-87c7-95786bc0a6ad","system_id":"levelo_inurba_marseille","lat":43.32288,"lon":5.38279,"is_reserved":false,"is_disabled":false,"rental_uris":{"android":"levelo://app?vid=31337fe8-cb42-4062-87c7-95786bc0a6ad","ios":"levelo://app?vid=31337fe8-cb42-4062-87c7-95786bc0a6ad"},"vehicle_type_id":"4","last_reported":1745341785,"current_range_meters":17200,"station_id":"ce4bhr12rcd13ifvqhqg","pricing_plan_id":"cebpf4jnsgd1na2vs0mg"},{"bike_id":"d962937d-a2c0-4f7f-9d5f-d2025eec3422","system_id":"levelo_inurba_marseille","lat":43.25427,"lon":5.41867,"is_reserved":false,"is_disabled":false,"rental_uris":{"android":"levelo://app?vid=d962937d-a2c0-4f7f-9d5f-d2025eec3422","ios":"levelo://app?vid=d962937d-a2c0-4f7f-9d5f-d2025eec3422"},"vehicle_type_id":"4","last_reported":1745341785,"current_range_meters":17600,"station_id":"","pricing_plan_id":"cebpf4jnsgd1na2vs0mg"},{"bike_id":"2958702b-6f60-4c23-88d4-37649b2b931b","system_id":"levelo_inurba_marseille","lat":43.29915,"lon":5.39759,"is_reserved":false,"is_disabled":false,"rental_uris":{"android":"levelo://app?vid=2958702b-6f60-4c23-88d4-37649b2b931b","ios":"levelo://app?vid=2958702b-6f60-4c23-88d4-37649b2b931b"},"vehicle_type_id":"4","last_reported":1745341785,"current_range_meters":17600,"station_id":"","pricing_plan_id":"cebpf4jnsgd1na2vs0mg"},{"bike_id":"42fba871-6e5d-438a-af0f-50a9e7e10617","system_id":"levelo_inurba_marseille","lat":43.28097,"lon":5.37838,"is_reserved":false,"is_disabled":false,"rental_uris":{"android":"levelo://app?vid=42fba871-6e5d-438a-af0f-50a9e7e10617","ios":"levelo://app?vid=42fba871-6e5d-438a-af0f-50a9e7e10617"},"vehicle_type_id":"4","last_reported":1745341785,"current_range_meters":17600,"station_id":"ce4bha12rcd13ifvqee0","pricing_plan_id":"cebpf4jnsgd1na2vs0mg"},{"bike_id":"11dcf192-6a7e-46f1-a44b-da661b959227","system_id":"levelo_inurba_marseille","lat":43.2757,"lon":5.38418,"is_reserved":false,"is_disabled":false,"rental_uris":{"android":"levelo://app?vid=11dcf192-6a7e-46f1-a44b-da661b959227","ios":"levelo://app?vid=11dcf192-6a7e-46f1-a44b-da661b959227"},"vehicle_type_id":"4","last_reported":1745341785,"current_range_meters":17600,"station_id":"ce4bhh92rcd13ifvqfi0","pricing_plan_id":"cebpf4jnsgd1na2vs0mg"},{"bike_id":"ee2a061c-e182-4f6f-aebc-795981fed039","system_id":"levelo_inurba_marseille","lat":43.25584,"lon":5.38232,"is_reserved":false,"is_disabled":false,"rental_uris":{"android":"levelo://app?vid=ee2a061c-e182-4f6f-aebc-795981fed039","ios":"levelo://app?vid=ee2a061c-e182-4f6f-aebc-795981fed039"},"vehicle_type_id":"4","last_reported":1745341785,"current_range_meters":17600,"station_id":"ce4bhih2rcd13ifvqfs0","pricing_plan_id":"cebpf4jnsgd1na2vs0mg"},{"bike_id":"828a5221-04e8-422b-bece-3abeff50b548","system_id":"levelo_inurba_marseille","lat":43.29436,"lon":5.38639,"is_reserved":false,"is_disabled":false,"rental_uris":{"android":"levelo://app?vid=828a5221-04e8-422b-bece-3abeff50b548","ios":"levelo://app?vid=828a5221-04e8-422b-bece-3abeff50b548"},"vehicle_type_id":"4","last_reported":1745341785,"current_range_meters":18000,"station_id":"ce4bh2h2rcd13ifvqdh0","pricing_plan_id":"cebpf4jnsgd1na2vs0mg"},{"bike_id":"84cc6382-570a-48e1-95cf-2056bb88a115","system_id":"levelo_inurba_marseille","lat":43.3272,"lon":5.39179,"is_reserved":false,"is_disabled":false,"rental_uris":{"android":"levelo://app?vid=84cc6382-570a-48e1-95cf-2056bb88a115","ios":"levelo://app?vid=84cc6382-570a-48e1-95cf-2056bb88a115"},"vehicle_type_id":"4","last_reported":1745341785,"current_range_meters":18000,"station_id":"","pricing_plan_id":"cebpf4jnsgd1na2vs0mg"},{"bike_id":"2cb845ab-801d-4678-a555-a3f9d8c9746e","system_id":"levelo_inurba_marseille","lat":43.29322,"lon":5.37197,"is_reserved":false,"is_disabled":true,"rental_uris":{"android":"levelo://app?vid=2cb845ab-801d-4678-a555-a3f9d8c9746e","ios":"levelo://app?vid=2cb845ab-801d-4678-a555-a3f9d8c9746e"},"vehicle_type_id":"4","last_reported":1745341785,"current_range_meters":18800,"station_id":"ce4bgh92rcd13ifvqb40","pricing_plan_id":"cebpf4jnsgd1na2vs0mg"},{"bike_id":"a1835b16-9e05-4b53-baf5-10eeb04320bb","system_id":"levelo_inurba_marseille","lat":43.28688,"lon":5.37388,"is_reserved":false,"is_disabled":true,"rental_uris":{"android":"levelo://app?vid=a1835b16-9e05-4b53-baf5-10eeb04320bb","ios":"levelo://app?vid=a1835b16-9e05-4b53-baf5-10eeb04320bb"},"vehicle_type_id":"4","last_reported":1745341785,"current_range_meters":18800,"station_id":"ce4bh3p2rcd13ifvqdq0","pricing_plan_id":"cebpf4jnsgd1na2vs0mg"},{"bike_id":"7b2dc864-a4e9-468c-9cee-f3075a20977d","system_id":"levelo_inurba_marseille","lat":43.31422,"lon":5.37366,"is_reserved":false,"is_disabled":false,"rental_uris":{"android":"levelo://app?vid=7b2dc864-a4e9-468c-9cee-f3075a20977d","ios":"levelo://app?vid=7b2dc864-a4e9-468c-9cee-f3075a20977d"},"vehicle_type_id":"4","last_reported":1745341785,"current_range_meters":18800,"station_id":"","pricing_plan_id":"cebpf4jnsgd1na2vs0mg"},{"bike_id":"0529d891-2d9b-4d93-af79-27336fdd5c7e","system_id":"levelo_inurba_marseille","lat":43.28032,"lon":5.3694,"is_reserved":false,"is_disabled":false,"rental_uris":{"android":"levelo://app?vid=0529d891-2d9b-4d93-af79-27336fdd5c7e","ios":"levelo://app?vid=0529d891-2d9b-4d93-af79-27336fdd5c7e"},"vehicle_type_id":"4","last_reported":1745341785,"current_range_meters":18800,"station_id":"ce4bha12rcd13ifvqef0","pricing_plan_id":"cebpf4jnsgd1na2vs0mg"},{"bike_id":"d0301f0f-d1a5-4b41-96ee-955bc5d70023","system_id":"levelo_inurba_marseille","lat":43.28469,"lon":5.38415,"is_reserved":false,"is_disabled":false,"rental_uris":{"android":"levelo://app?vid=d0301f0f-d1a5-4b41-96ee-955bc5d70023","ios":"levelo://app?vid=d0301f0f-d1a5-4b41-96ee-955bc5d70023"},"vehicle_type_id":"4","last_reported":1745341785,"current_range_meters":18800,"station_id":"ce4bh512rcd13ifvqe3g","pricing_plan_id":"cebpf4jnsgd1na2vs0mg"},{"bike_id":"037635e7-b4f8-4c76-a555-7e0f53666617","system_id":"levelo_inurba_marseille","lat":43.28473,"lon":5.38412,"is_reserved":false,"is_disabled":false,"rental_uris":{"android":"levelo://app?vid=037635e7-b4f8-4c76-a555-7e0f53666617","ios":"levelo://app?vid=037635e7-b4f8-4c76-a555-7e0f53666617"},"vehicle_type_id":"4","last_reported":1745341785,"current_range_meters":18800,"station_id":"ce4bh512rcd13ifvqe3g","pricing_plan_id":"cebpf4jnsgd1na2vs0mg"},{"bike_id":"b54783e3-c9c9-4e23-9622-184e2fa41bba","system_id":"levelo_inurba_marseille","lat":43.2799,"lon":5.40022,"is_reserved":false,"is_disabled":false,"rental_uris":{"android":"levelo://app?vid=b54783e3-c9c9-4e23-9622-184e2fa41bba","ios":"levelo://app?vid=b54783e3-c9c9-4e23-9622-184e2fa41bba"},"vehicle_type_id":"4","last_reported":1745341785,"current_range_meters":18800,"station_id":"ce4bho92rcd13ifvqh4g","pricing_plan_id":"cebpf4jnsgd1na2vs0mg"},{"bike_id":"2f20e822-0a70-4928-9aa6-4b3727afe02f","system_id":"levelo_inurba_marseille","lat":43.2971,"lon":5.36613,"is_reserved":false,"is_disabled":true,"rental_uris":{"android":"levelo://app?vid=2f20e822-0a70-4928-9aa6-4b3727afe02f","ios":"levelo://app?vid=2f20e822-0a70-4928-9aa6-4b3727afe02f"},"vehicle_type_id":"4","last_reported":1745341785,"current_range_meters":18800,"station_id":"ce4bgn12rcd13ifvqbt0","pricing_plan_id":"cebpf4jnsgd1na2vs0mg"},{"bike_id":"a24962a5-f455-4c13-91da-db4f79c4f155","system_id":"levelo_inurba_marseille","lat":43.29505,"lon":5.39045,"is_reserved":false,"is_disabled":false,"rental_uris":{"android":"levelo://app?vid=a24962a5-f455-4c13-91da-db4f79c4f155","ios":"levelo://app?vid=a24962a5-f455-4c13-91da-db4f79c4f155"},"vehicle_type_id":"4","last_reported":1745341785,"current_range_meters":18800,"station_id":"ce4bh3p2rcd13ifvqdp0","pricing_plan_id":"cebpf4jnsgd1na2vs0mg"},{"bike_id":"7d900642-bca8-4c15-a562-14d32b2561e2","system_id":"levelo_inurba_marseille","lat":43.28419,"lon":5.37509,"is_reserved":false,"is_disabled":false,"rental_uris":{"android":"levelo://app?vid=7d900642-bca8-4c15-a562-14d32b2561e2","ios":"levelo://app?vid=7d900642-bca8-4c15-a562-14d32b2561e2"},"vehicle_type_id":"4","last_reported":1745341785,"current_range_meters":19200,"station_id":"ce4bh412rcd13ifvqds0","pricing_plan_id":"cebpf4jnsgd1na2vs0mg"},{"bike_id":"5d13c468-e50b-4703-8fc5-bbf31d4f868e","system_id":"levelo_inurba_marseille","lat":43.28596,"lon":5.35117,"is_reserved":false,"is_disabled":false,"rental_uris":{"android":"levelo://app?vid=5d13c468-e50b-4703-8fc5-bbf31d4f868e","ios":"levelo://app?vid=5d13c468-e50b-4703-8fc5-bbf31d4f868e"},"vehicle_type_id":"4","last_reported":1745341785,"current_range_meters":19200,"station_id":"ce4bhch2rcd13ifvqeug","pricing_plan_id":"cebpf4jnsgd1na2vs0mg"},{"bike_id":"95d37deb-ee71-449a-a9a8-61d09502bbcf","system_id":"levelo_inurba_marseille","lat":43.28261,"lon":5.35068,"is_reserved":false,"is_disabled":false,"rental_uris":{"android":"levelo://app?vid=95d37deb-ee71-449a-a9a8-61d09502bbcf","ios":"levelo://app?vid=95d37deb-ee71-449a-a9a8-61d09502bbcf"},"vehicle_type_id":"4","last_reported":1745341785,"current_range_meters":19200,"station_id":"ce4bhbp2rcd13ifvqerg","pricing_plan_id":"cebpf4jnsgd1na2vs0mg"},{"bike_id":"071f5220-d7ce-41a2-bc83-742374da9903","system_id":"levelo_inurba_marseille","lat":43.29265,"lon":5.38454,"is_reserved":false,"is_disabled":false,"rental_uris":{"android":"levelo://app?vid=071f5220-d7ce-41a2-bc83-742374da9903","ios":"levelo://app?vid=071f5220-d7ce-41a2-bc83-742374da9903"},"vehicle_type_id":"4","last_reported":1745341785,"current_range_meters":19200,"station_id":"ce4bh692rcd13ifvqea0","pricing_plan_id":"cebpf4jnsgd1na2vs0mg"},{"bike_id":"fa5c1889-173e-4666-aa4b-8eb1847250ee","system_id":"levelo_inurba_marseille","lat":43.2953,"lon":5.38543,"is_reserved":false,"is_disabled":false,"rental_uris":{"android":"levelo://app?vid=fa5c1889-173e-4666-aa4b-8eb1847250ee","ios":"levelo://app?vid=fa5c1889-173e-4666-aa4b-8eb1847250ee"},"vehicle_type_id":"4","last_reported":1745341785,"current_range_meters":19200,"station_id":"ce4bgih2rcd13ifvqba0","pricing_plan_id":"cebpf4jnsgd1na2vs0mg"},{"bike_id":"72eb915f-be86-4f6d-be4a-6d78d23e8dee","system_id":"levelo_inurba_marseille","lat":43.29048,"lon":5.3596,"is_reserved":false,"is_disabled":false,"rental_uris":{"android":"levelo://app?vid=72eb915f-be86-4f6d-be4a-6d78d23e8dee","ios":"levelo://app?vid=72eb915f-be86-4f6d-be4a-6d78d23e8dee"},"vehicle_type_id":"4","last_reported":1745341785,"current_range_meters":19200,"station_id":"ce4bha92rcd13ifvqeg0","pricing_plan_id":"cebpf4jnsgd1na2vs0mg"},{"bike_id":"d20e929c-75aa-460a-a593-efd1da3a752a","system_id":"levelo_inurba_marseille","lat":43.28079,"lon":5.39745,"is_reserved":false,"is_disabled":false,"rental_uris":{"android":"levelo://app?vid=d20e929c-75aa-460a-a593-efd1da3a752a","ios":"levelo://app?vid=d20e929c-75aa-460a-a593-efd1da3a752a"},"vehicle_type_id":"4","last_reported":1745341785,"current_range_meters":19200,"station_id":"","pricing_plan_id":"cebpf4jnsgd1na2vs0mg"},{"bike_id":"b5d609bf-0c9b-49e3-9426-ce02cb8383b8","system_id":"levelo_inurba_marseille","lat":43.34161,"lon":5.40922,"is_reserved":false,"is_disabled":true,"rental_uris":{"android":"levelo://app?vid=b5d609bf-0c9b-49e3-9426-ce02cb8383b8","ios":"levelo://app?vid=b5d609bf-0c9b-49e3-9426-ce02cb8383b8"},"vehicle_type_id":"4","last_reported":1745341785,"current_range_meters":19600,"station_id":"ce4bhqh2rcd13ifvqhlg","pricing_plan_id":"cebpf4jnsgd1na2vs0mg"},{"bike_id":"0902d775-109f-4326-869b-a04889228cd2","system_id":"levelo_inurba_marseille","lat":43.26575,"lon":5.39013,"is_reserved":false,"is_disabled":false,"rental_uris":{"android":"levelo://app?vid=0902d775-109f-4326-869b-a04889228cd2","ios":"levelo://app?vid=0902d775-109f-4326-869b-a04889228cd2"},"vehicle_type_id":"4","last_reported":1745341785,"current_range_meters":19600,"station_id":"ce4bhe12rcd13ifvqf30","pricing_plan_id":"cebpf4jnsgd1na2vs0mg"},{"bike_id":"0e72d1c4-c8a0-4d6d-820f-c21e94facb38","system_id":"levelo_inurba_marseille","lat":43.29224,"lon":5.36062,"is_reserved":false,"is_disabled":false,"rental_uris":{"android":"levelo://app?vid=0e72d1c4-c8a0-4d6d-820f-c21e94facb38","ios":"levelo://app?vid=0e72d1c4-c8a0-4d6d-820f-c21e94facb38"},"vehicle_type_id":"4","last_reported":1745341785,"current_range_meters":19600,"station_id":"ce4bhbh2rcd13ifvqeqg","pricing_plan_id":"cebpf4jnsgd1na2vs0mg"},{"bike_id":"47581d36-f42c-41f9-98e8-e61a318ed451","system_id":"levelo_inurba_marseille","lat":43.304167,"lon":5.412817,"is_reserved":false,"is_disabled":false,"rental_uris":{"android":"levelo://app?vid=47581d36-f42c-41f9-98e8-e61a318ed451","ios":"levelo://app?vid=47581d36-f42c-41f9-98e8-e61a318ed451"},"vehicle_type_id":"4","last_reported":1745341785,"current_range_meters":19600,"station_id":"ce4bhop2rcd13ifvqh8g","pricing_plan_id":"cebpf4jnsgd1na2vs0mg"},{"bike_id":"46374c49-3adc-4c5a-8966-e00f056c0d57","system_id":"levelo_inurba_marseille","lat":43.27846,"lon":5.35442,"is_reserved":false,"is_disabled":false,"rental_uris":{"android":"levelo://app?vid=46374c49-3adc-4c5a-8966-e00f056c0d57","ios":"levelo://app?vid=46374c49-3adc-4c5a-8966-e00f056c0d57"},"vehicle_type_id":"4","last_reported":1745341785,"current_range_meters":20000,"station_id":"","pricing_plan_id":"cebpf4jnsgd1na2vs0mg"},{"bike_id":"2c5d0a18-6758-4501-998f-8d2d6b367435","system_id":"levelo_inurba_marseille","lat":43.30421,"lon":5.38892,"is_reserved":false,"is_disabled":false,"rental_uris":{"android":"levelo://app?vid=2c5d0a18-6758-4501-998f-8d2d6b367435","ios":"levelo://app?vid=2c5d0a18-6758-4501-998f-8d2d6b367435"},"vehicle_type_id":"4","last_reported":1745341785,"current_range_meters":20000,"station_id":"ce4bgk12rcd13ifvqbi0","pricing_plan_id":"cebpf4jnsgd1na2vs0mg"},{"bike_id":"057ecee1-8707-4c50-b9f5-50ccc6147b4e","system_id":"levelo_inurba_marseille","lat":43.32363,"lon":5.38893,"is_reserved":false,"is_disabled":false,"rental_uris":{"android":"levelo://app?vid=057ecee1-8707-4c50-b9f5-50ccc6147b4e","ios":"levelo://app?vid=057ecee1-8707-4c50-b9f5-50ccc6147b4e"},"vehicle_type_id":"4","last_reported":1745341785,"current_range_meters":20000,"station_id":"ce4bhqp2rcd13ifvqhog","pricing_plan_id":"cebpf4jnsgd1na2vs0mg"},{"bike_id":"1df024cb-f047-4167-8814-6613ffc8f525","system_id":"levelo_inurba_marseille","lat":43.286255,"lon":5.351142,"is_reserved":false,"is_disabled":false,"rental_uris":{"android":"levelo://app?vid=1df024cb-f047-4167-8814-6613ffc8f525","ios":"levelo://app?vid=1df024cb-f047-4167-8814-6613ffc8f525"},"vehicle_type_id":"4","last_reported":1745341785,"current_range_meters":20000,"station_id":"ce4bhh12rcd13ifvqff0","pricing_plan_id":"cebpf4jnsgd1na2vs0mg"},{"bike_id":"9c62396a-2c16-476d-9f35-86b80baf0f4a","system_id":"levelo_inurba_marseille","lat":43.29524,"lon":5.39042,"is_reserved":false,"is_disabled":false,"rental_uris":{"android":"levelo://app?vid=9c62396a-2c16-476d-9f35-86b80baf0f4a","ios":"levelo://app?vid=9c62396a-2c16-476d-9f35-86b80baf0f4a"},"vehicle_type_id":"4","last_reported":1745341785,"current_range_meters":20400,"station_id":"ce4bh3p2rcd13ifvqdp0","pricing_plan_id":"cebpf4jnsgd1na2vs0mg"},