{"last_updated":1774084878,"ttl":60,"version":"2.2","data":{"bikes":[{"bike_id":"3bcd3f37-7909-4e8a-be03-a9562a2c0e45","system_id":"levelo_inurba_marseille","lat":43.28476,"lon":5.48391,"is_reserved":false,"is_disabled":false,"rental_uris":{"android":"levelo://app?vid=3bcd3f37-7909-4e8a-be03-a9562a2c0e45","ios":"levelo://app?vid=3bcd3f37-7909-4e8a-be03-a9562a2c0e45"},"vehicle_type_id":"4","last_reported":1774084879,"current_range_meters":2800,"station_id":"","pricing_plan_id":"cebpf4jnsgd1na2vs0mg"},{"bike_id":"c6b20400-3641-48f3-b609-b110a5527d07","system_id":"levelo_inurba_marseille","lat":43.22569,"lon":5.41635,"is_reserved":false,"is_disabled":false,"rental_uris":{"android":"levelo://app?vid=c6b20400-3641-48f3-b609-b110a5527d07","ios":"levelo://app?vid=c6b20400-3641-48f3-b609-b110a5527d07"},"vehicle_type_id":"4","last_reported":1774084879,"current_range_meters":2800,"station_id":"st_d2o4gvlbi1j2169b742g","pricing_plan_id":"cebpf4jnsgd1na2vs0mg"},{"bike_id":"33aaaea6-da5f-4b1f-8224-cb0605e84282","system_id":"levelo_inurba_marseille","lat":43.29229,"lon":5.36071,"is_reserved":false,"is_disabled":false,"rental_uris":{"android":"levelo://app?vid=33aaaea6-da5f-4b1f-8224-cb0605e84282","ios":"levelo://app?vid=33aaaea6-da5f-4b1f-8224-cb0605e84282"},"vehicle_type_id":"4","last_reported":1774084879,"current_range_meters":2800,"station_id":"ce4bhbh2rcd13ifvqeqg","pricing_plan_id":"cebpf4jnsgd1na2vs0mg"},{"bike_id":"2fe9f3f6-21e5-4dea-8ef9-0b1e8ae169d3","system_id":"levelo_inurba_marseille","lat":43.29055,"lon":5.37163,"is_reserved":false,"is_disabled":false,"rental_uris":{"android":"levelo://app?vid=2fe9f3f6-21e5-4dea-8ef9-0b1e8ae169d3","ios":"levelo://app?vid=2fe9f3f6-21e5-4dea-8ef9-0b1e8ae169d3"},"vehicle_type_id":"4","last_reported":1774084879,"current_range_meters":2800,"station_id":"ce4bh5p2rcd13ifvqe4g","pricing_plan_id":"cebpf4jnsgd1na2vs0mg"},{"bike_id":"e08d225b-8f4a-4ce0-895d-d9f7f842408c","system_id":"levelo_inurba_marseille","lat":43.24173,"lon":5.36385,"is_reserved":false,"is_disabled":false,"rental_uris":{"android":"levelo://app?vid=e08d225b-8f4a-4ce0-895d-d9f7f842408c","ios":"levelo://app?vid=e08d225b-8f4a-4ce0-895d-d9f7f842408c"},"vehicle_type_id":"4","last_reported":1774084879,"current_range_meters":2800,"station_id":"cpo36qri1sfpv3e86is0","pricing_plan_id":"cebpf4jnsgd1na2vs0mg"},{"bike_id":"3c76fb79-92b3-4803-a35d-7a9a81d21794","system_id":"levelo_inurba_marseille","lat":43.22944,"lon":5.35379,"is_reserved":false,"is_disabled":false,"rental_uris":{"android":"levelo://app?vid=3c76fb79-92b3-4803-a35d-7a9a81d21794","ios":"levelo://app?vid=3c76fb79-92b3-4803-a35d-7a9a81d21794"},"vehicle_type_id":"4","last_reported":1774084879,"current_range_meters":2800,"station_id":"cpo3532slgdg3j2ikp40","pricing_plan_id":"cebpf4jnsgd1na2vs0mg"},{"bike_id":"fef87f38-eb76-4e21-af65-48b38937984e","system_id":"levelo_inurba_marseille","lat":43.28618,"lon":5.35092,"is_reserved":false,"is_disabled":false,"rental_uris":{"android":"levelo://app?vid=fef87f38-eb76-4e21-af65-48b38937984e","ios":"levelo://app?vid=fef87f38-eb76-4e21-af65-48b38937984e"},"vehicle_type_id":"4","last_reported":1774084879,"current_range_meters":2800,"station_id":"ce4bhch2rcd13ifvqeug","pricing_plan_id":"cebpf4jnsgd1na2vs0mg"},{"bike_id":"4ed435a4-4c5a-4814-9b3b-3dc98f9cb2a8","system_id":"levelo_inurba_marseille","lat":43.33555,"lon":5.37456,"is_reserved":false,"is_disabled":false,"rental_uris":{"android":"levelo://app?vid=4ed435a4-4c5a-4814-9b3b-3dc98f9cb2a8","ios":"levelo://app?vid=4ed435a4-4c5a-4814-9b3b-3dc98f9cb2a8"},"vehicle_type_id":"4","last_reported":1774084879,"current_range_meters":2800,"station_id":"st_d46tts09ee8s73dlu43g","pricing_plan_id":"cebpf4jnsgd1na2vs0mg"},{"bike_id":"74d2b7ef-96c3-4722-b643-5a65bd2418ac","system_id":"levelo_inurba_marseille","lat":43.30392,"lon":5.42492,"is_reserved":false,"is_disabled":false,"rental_uris":{"android":"levelo://app?vid=74d2b7ef-96c3-4722-b643-5a65bd2418ac","ios":"levelo://app?vid=74d2b7ef-96c3-4722-b643-5a65bd2418ac"},"vehicle_type_id":"4","last_reported":1774084879,"current_range_meters":2800,"station_id":"ce4bhoh2rcd13ifvqh6g","pricing_plan_id":"cebpf4jnsgd1na2vs0mg"},{"bike_id":"fa1165b7-abb8-4e3e-a68f-92a93f5f8088","system_id":"levelo_inurba_marseille","lat":43.2467,"lon":5.3818,"is_reserved":false,"is_disabled":false,"rental_uris":{"android":"levelo://app?vid=fa1165b7-abb8-4e3e-a68f-92a93f5f8088","ios":"levelo://app?vid=fa1165b7-abb8-4e3e-a68f-92a93f5f8088"},"vehicle_type_id":"4","last_reported":1774084879,"current_range_meters":2800,"station_id":"ce4bhih2rcd13ifvqfr0","pricing_plan_id":"cebpf4jnsgd1na2vs0mg"},{"bike_id":"2a17477f-7ad3-440b-a32a-6ec6a1b88e4d","system_id":"levelo_inurba_marseille","lat":43.23948,"lon":5.36642,"is_reserved":false,"is_disabled":false,"rental_uris":{"android":"levelo://app?vid=2a17477f-7ad3-440b-a32a-6ec6a1b88e4d","ios":"levelo://app?vid=2a17477f-7ad3-440b-a32a-6ec6a1b88e4d"},"vehicle_type_id":"4","last_reported":1774084879,"current_range_meters":3200,"station_id":"ce4bhi12rcd13ifvqfp0","pricing_plan_id":"cebpf4jnsgd1na2vs0mg"},{"bike_id":"10d8533b-5997-474a-87ee-4e1776f0f0c6","system_id":"levelo_inurba_marseille","lat":43.29619,"lon":5.37915,"is_reserved":false,"is_disabled":false,"rental_uris":{"android":"levelo://app?vid=10d8533b-5997-474a-87ee-4e1776f0f0c6","ios":"levelo://app?vid=10d8533b-5997-474a-87ee-4e1776f0f0c6"},"vehicle_type_id":"4","last_reported":1774084879,"current_range_meters":3200,"station_id":"","pricing_plan_id":"cebpf4jnsgd1na2vs0mg"},{"bike_id":"9016f863-64ce-44c2-bc9a-8bfc450f376c","system_id":"levelo_inurba_marseille","lat":43.24806,"lon":5.37454,"is_reserved":false,"is_disabled":false,"rental_uris":{"android":"levelo://app?vid=9016f863-64ce-44c2-bc9a-8bfc450f376c","ios":"levelo://app?vid=9016f863-64ce-44c2-bc9a-8bfc450f376c"},"vehicle_type_id":"4","last_reported":1774084879,"current_range_meters":3200,"station_id":"ce4bhgh2rcd13ifvqfb0","pricing_plan_id":"cebpf4jnsgd1na2vs0mg"},{"bike_id":"e6efd3f7-63f1-464c-b2f5-01e465ed7711","system_id":"levelo_inurba_marseille","lat":43.337444,"lon":5.374475,"is_reserved":false,"is_disabled":false,"rental_uris":{"android":"levelo://app?vid=e6efd3f7-63f1-464c-b2f5-01e465ed7711","ios":"levelo://app?vid=e6efd3f7-63f1-464c-b2f5-01e465ed7711"},"vehicle_type_id":"4","last_reported":1774084879,"current_range_meters":3200,"station_id":"","pricing_plan_id":"cebpf4jnsgd1na2vs0mg"},{"bike_id":"f510aab5-c125-407f-aeb0-e610c0cdfef8","system_id":"levelo_inurba_marseille","lat":43.23811,"lon":5.36599,"is_reserved":false,"is_disabled":false,"rental_uris":{"android":"levelo://app?vid=f510aab5-c125-407f-aeb0-e610c0cdfef8","ios":"levelo://app?vid=f510aab5-c125-407f-aeb0-e610c0cdfef8"},"vehicle_type_id":"4","last_reported":1774084879,"current_range_meters":3200,"station_id":"st_d3nk18o9ro0c73en2l3g","pricing_plan_id":"cebpf4jnsgd1na2vs0mg"},{"bike_id":"c48440d7-f4d5-4be3-a842-7dc1a317748e","system_id":"levelo_inurba_marseille","lat":43.33951,"lon":5.35715,"is_reserved":false,"is_disabled":false,"rental_uris":{"android":"levelo://app?vid=c48440d7-f4d5-4be3-a842-7dc1a317748e","ios":"levelo://app?vid=c48440d7-f4d5-4be3-a842-7dc1a317748e"},"vehicle_type_id":"4","last_reported":1774084879,"current_range_meters":3200,"station_id":"","pricing_plan_id":"cebpf4jnsgd1na2vs0mg"},{"bike_id":"ec327ac2-9680-48a1-8584-22f43bc41c50","system_id":"levelo_inurba_marseille","lat":43.2927,"lon":5.3762,"is_reserved":false,"is_disabled":true,"rental_uris":{"android":"levelo://app?vid=ec327ac2-9680-48a1-8584-22f43bc41c50","ios":"levelo://app?vid=ec327ac2-9680-48a1-8584-22f43bc41c50"},"vehicle_type_id":"4","last_reported":1774084879,"current_range_meters":3200,"station_id":"","pricing_plan_id":"cebpf4jnsgd1na2vs0mg"},{"bike_id":"8ddaa4a1-a6ee-4818-a332-2ddaf3f5451b","system_id":"levelo_inurba_marseille","lat":43.27677,"lon":5.38878,"is_reserved":false,"is_disabled":false,"rental_uris":{"android":"levelo://app?vid=8ddaa4a1-a6ee-4818-a332-2ddaf3f5451b","ios":"levelo://app?vid=8ddaa4a1-a6ee-4818-a332-2ddaf3f5451b"},"vehicle_type_id":"4","last_reported":1774084879,"current_range_meters":3600,"station_id":"ce4bhi12rcd13ifvqfo0","pricing_plan_id":"cebpf4jnsgd1na2vs0mg"},{"bike_id":"3e5c7bdb-60ee-4795-a793-9681791a8e87","system_id":"levelo_inurba_marseille","lat":43.29779,"lon":5.42792,"is_reserved":false,"is_disabled":false,"rental_uris":{"android":"levelo://app?vid=3e5c7bdb-60ee-4795-a793-9681791a8e87","ios":"levelo://app?vid=3e5c7bdb-60ee-4795-a793-9681791a8e87"},"vehicle_type_id":"4","last_reported":1774084879,"current_range_meters":3600,"station_id":"st_d3md5207bmas73dh9klg","pricing_plan_id":"cebpf4jnsgd1na2vs0mg"},{"bike_id":"252979a8-7213-46d6-8c46-fb61a92ed41f","system_id":"levelo_inurba_marseille","lat":43.28939,"lon":5.39619,"is_reserved":false,"is_disabled":false,"rental_uris":{"android":"levelo://app?vid=252979a8-7213-46d6-8c46-fb61a92ed41f","ios":"levelo://app?vid=252979a8-7213-46d6-8c46-fb61a92ed41f"},"vehicle_type_id":"4","last_reported":1774084879,"current_range_meters":3600,"station_id":"ce4bh3h2rcd13ifvqdn0","pricing_plan_id":"cebpf4jnsgd1na2vs0mg"},{"bike_id":"86497ed2-28cd-480c-84e8-6fd0ec8d668f","system_id":"levelo_inurba_marseille","lat":43.27228,"lon":5.39175,"is_reserved":false,"is_disabled":false,"rental_uris":{"android":"levelo://app?vid=86497ed2-28cd-480c-84e8-6fd0ec8d668f","ios":"levelo://app?vid=86497ed2-28cd-480c-84e8-6fd0ec8d668f"},"vehicle_type_id":"4","last_reported":1774084879,"current_range_meters":3600,"station_id":"ce4bhhp2rcd13ifvqfm0","pricing_plan_id":"cebpf4jnsgd1na2vs0mg"},{"bike_id":"87c1f828-d648-4202-ac97-84b6bc128730","system_id":"levelo_inurba_marseille","lat":43.23955,"lon":5.3664,"is_reserved":false,"is_disabled":false,"rental_uris":{"android":"levelo://app?vid=87c1f828-d648-4202-ac97-84b6bc128730","ios":"levelo://app?vid=87c1f828-d648-4202-ac97-84b6bc128730"},"vehicle_type_id":"4","last_reported":1774084879,"current_range_meters":3600,"station_id":"ce4bhi12rcd13ifvqfp0","pricing_plan_id":"cebpf4jnsgd1na2vs0mg"},{"bike_id":"119d24bc-e3dd-4e47-a0b9-64bbbcc5b1ee","system_id":"levelo_inurba_marseille","lat":43.2175,"lon":5.346,"is_reserved":false,"is_disabled":true,"rental_uris":{"android":"levelo://app?vid=119d24bc-e3dd-4e47-a0b9-64bbbcc5b1ee","ios":"levelo://app?vid=119d24bc-e3dd-4e47-a0b9-64bbbcc5b1ee"},"vehicle_type_id":"4","last_reported":1774084879,"current_range_meters":3600,"station_id":"st_cvj6r9ubvosntc0bgbag","pricing_plan_id":"cebpf4jnsgd1na2vs0mg"},{"bike_id":"c142af26-b83c-4aa3-ab8b-699576493d34","system_id":"levelo_inurba_marseille","lat":43.21245,"lon":5.3504,"is_reserved":false,"is_disabled":true,"rental_uris":{"android":"levelo://app?vid=c142af26-b83c-4aa3-ab8b-699576493d34","ios":"levelo://app?vid=c142af26-b83c-4aa3-ab8b-699576493d34"},"vehicle_type_id":"4","last_reported":1774084879,"current_range_meters":3600,"station_id":"","pricing_plan_id":"cebpf4jnsgd1na2vs0mg"},{"bike_id":"29705345-7a8e-4bdd-8b65-5ba8856c877f","system_id":"levelo_inurba_marseille","lat":43.30303,"lon":5.44963,"is_reserved":false,"is_disabled":false,"rental_uris":{"android":"levelo://app?vid=29705345-7a8e-4bdd-8b65-5ba8856c877f","ios":"levelo://app?vid=29705345-7a8e-4bdd-8b65-5ba8856c877f"},"vehicle_type_id":"4","last_reported":1774084879,"current_range_meters":3600,"station_id":"","pricing_plan_id":"cebpf4jnsgd1na2vs0mg"},{"bike_id":"ae4e13a6-22eb-4f2d-b9dd-b8e27747e45b","system_id":"levelo_inurba_marseille","lat":43.27968,"lon":5.38735,"is_reserved":false,"is_disabled":false,"rental_uris":{"android":"levelo://app?vid=ae4e13a6-22eb-4f2d-b9dd-b8e27747e45b","ios":"levelo://app?vid=ae4e13a6-22eb-4f2d-b9dd-b8e27747e45b"},"vehicle_type_id":"4","last_reported":1774084879,"current_range_meters":3600,"station_id":"ce4bhg12rcd13ifvqf80","pricing_plan_id":"cebpf4jnsgd1na2vs0mg"},{"bike_id":"a5fa76af-4615-4d5d-9b58-ea337703eff8","system_id":"levelo_inurba_marseille","lat":43.29995,"lon":5.38623,"is_reserved":false,"is_disabled":false,"rental_uris":{"android":"levelo://app?vid=a5fa76af-4615-4d5d-9b58-ea337703eff8","ios":"levelo://app?vid=a5fa76af-4615-4d5d-9b58-ea337703eff8"},"vehicle_type_id":"4","last_reported":1774084879,"current_range_meters":3600,"station_id":"","pricing_plan_id":"cebpf4jnsgd1na2vs0mg"},{"bike_id":"0842d7ad-3d79-4df3-9d4c-4764878198a5","system_id":"levelo_inurba_marseille","lat":43.26447,"lon":5.41015,"is_reserved":false,"is_disabled":false,"rental_uris":{"android":"levelo://app?vid=0842d7ad-3d79-4df3-9d4c-4764878198a5","ios":"levelo://app?vid=0842d7ad-3d79-4df3-9d4c-4764878198a5"},"vehicle_type_id":"4","last_reported":1774084879,"current_range_meters":3600,"station_id":"st_d4e5ca6na9uc73bfl5fg","pricing_plan_id":"cebpf4jnsgd1na2vs0mg"},{"bike_id":"23c209c6-7d3c-4387-b04a-03a2b9a72d01","system_id":"levelo_inurba_marseille","lat":43.28337,"lon":5.43205,"is_reserved":false,"is_disabled":false,"rental_uris":{"android":"levelo://app?vid=23c209c6-7d3c-4387-b04a-03a2b9a72d01","ios":"levelo://app?vid=23c209c6-7d3c-4387-b04a-03a2b9a72d01"},"vehicle_type_id":"4","last_reported":1774084879,"current_range_meters":3600,"station_id":"","pricing_plan_id":"cebpf4jnsgd1na2vs0mg"},{"bike_id":"74ebb480-171b-43e5-b0fc-ba46b71dee8d","system_id":"levelo_inurba_marseille","lat":43.25344,"lon":5.42167,"is_reserved":false,"is_disabled":true,"rental_uris":{"android":"levelo://app?vid=74ebb480-171b-43e5-b0fc-ba46b71dee8d","ios":"levelo://app?vid=74ebb480-171b-43e5-b0fc-ba46b71dee8d"},"vehicle_type_id":"4","last_reported":1774084879,"current_range_meters":3600,"station_id":"st_d2m65c5bi1j21697t3ng","pricing_plan_id":"cebpf4jnsgd1na2vs0mg"},{"bike_id":"3d8b9441-846b-4bc6-a99f-7538b53156c2","system_id":"levelo_inurba_marseille","lat":43.29808,"lon":5.38081,"is_reserved":false,"is_disabled":true,"rental_uris":{"android":"levelo://app?vid=3d8b9441-846b-4bc6-a99f-7538b53156c2","ios":"levelo://app?vid=3d8b9441-846b-4bc6-a99f-7538b53156c2"},"vehicle_type_id":"4","last_reported":1774084879,"current_range_meters":4000,"station_id":"ce4bgip2rcd13ifvqbb0","pricing_plan_id":"cebpf4jnsgd1na2vs0mg"},{"bike_id":"0e8de8fe-0f95-43cb-9d85-185fbb85d49a","system_id":"levelo_inurba_marseille","lat":43.26069,"lon":5.39396,"is_reserved":false,"is_disabled":false,"rental_uris":{"android":"levelo://app?vid=0e8de8fe-0f95-43cb-9d85-185fbb85d49a","ios":"levelo://app?vid=0e8de8fe-0f95-43cb-9d85-185fbb85d49a"},"vehicle_type_id":"4","last_reported":1774084879,"current_range_meters":4000,"station_id":"ce4bhh92rcd13ifvqfj0","pricing_plan_id":"cebpf4jnsgd1na2vs0mg"},{"bike_id":"b55a15b5-780b-4c64-ba3a-138204b44562","system_id":"levelo_inurba_marseille","lat":43.27563,"lon":5.38418,"is_reserved":false,"is_disabled":false,"rental_uris":{"android":"levelo://app?vid=b55a15b5-780b-4c64-ba3a-138204b44562","ios":"levelo://app?vid=b55a15b5-780b-4c64-ba3a-138204b44562"},"vehicle_type_id":"4","last_reported":1774084879,"current_range_meters":4000,"station_id":"ce4bhh92rcd13ifvqfi0","pricing_plan_id":"cebpf4jnsgd1na2vs0mg"},{"bike_id":"c94e0638-c9c9-450d-b669-efdba8c722e1","system_id":"levelo_inurba_marseille","lat":43.292806,"lon":5.368413,"is_reserved":false,"is_disabled":false,"rental_uris":{"android":"levelo://app?vid=c94e0638-c9c9-450d-b669-efdba8c722e1","ios":"levelo://app?vid=c94e0638-c9c9-450d-b669-efdba8c722e1"},"vehicle_type_id":"4","last_reported":1774084879,"current_range_meters":4000,"station_id":"ce4bhbp2rcd13ifvqesg","pricing_plan_id":"cebpf4jnsgd1na2vs0mg"},{"bike_id":"5c37a49c-ab60-4c11-8a61-6592ff444186","system_id":"levelo_inurba_marseille","lat":43.27908,"lon":5.39175,"is_reserved":false,"is_disabled":false,"rental_uris":{"android":"levelo://app?vid=5c37a49c-ab60-4c11-8a61-6592ff444186","ios":"levelo://app?vid=5c37a49c-ab60-4c11-8a61-6592ff444186"},"vehicle_type_id":"4","last_reported":1774084879,"current_range_meters":4000,"station_id":"","pricing_plan_id":"cebpf4jnsgd1na2vs0mg"},{"bike_id":"5aec0789-e5b6-4a84-8565-5e5e6c6c6bdc","system_id":"levelo_inurba_marseille","lat":43.29854,"lon":5.36284,"is_reserved":false,"is_disabled":false,"rental_uris":{"android":"levelo://app?vid=5aec0789-e5b6-4a84-8565-5e5e6c6c6bdc","ios":"levelo://app?vid=5aec0789-e5b6-4a84-8565-5e5e6c6c6bdc"},"vehicle_type_id":"4","last_reported":1774084879,"current_range_meters":4000,"station_id":"ce4bgpp2rcd13ifvqc3g","pricing_plan_id":"cebpf4jnsgd1na2vs0mg"},{"bike_id":"c7cc5081-8a90-4664-8378-0ac0db8d74fb","system_id":"levelo_inurba_marseille","lat":43.29823,"lon":5.36739,"is_reserved":false,"is_disabled":false,"rental_uris":{"android":"levelo://app?vid=c7cc5081-8a90-4664-8378-0ac0db8d74fb","ios":"levelo://app?vid=c7cc5081-8a90-4664-8378-0ac0db8d74fb"},"vehicle_type_id":"4","last_reported":1774084879,"current_range_meters":4000,"station_id":"","pricing_plan_id":"cebpf4jnsgd1na2vs0mg"},{"bike_id":"ec805567-1bc2-4aa0-9a36-661edaf8b31c","system_id":"levelo_inurba_marseille","lat":43.29236,"lon":5.39241,"is_reserved":false,"is_disabled":false,"rental_uris":{"android":"levelo://app?vid=ec805567-1bc2-4aa0-9a36-661edaf8b31c","ios":"levelo://app?vid=ec805567-1bc2-4aa0-9a36-661edaf8b31c"},"vehicle_type_id":"4","last_reported":1774084879,"current_range_meters":4000,"station_id":"","pricing_plan_id":"cebpf4jnsgd1na2vs0mg"},{"bike_id":"46d8640d-c40a-4cbe-ac98-4493a5cb5553","system_id":"levelo_inurba_marseille","lat":43.29037,"lon":5.38137,"is_reserved":false,"is_disabled":false,"rental_uris":{"android":"levelo://app?vid=46d8640d-c40a-4cbe-ac98-4493a5cb5553","ios":"levelo://app?vid=46d8640d-c40a-4cbe-ac98-4493a5cb5553"},"vehicle_type_id":"4","last_reported":1774084879,"current_range_meters":4000,"station_id":"ce4bh4p2rcd13ifvqe1g","pricing_plan_id":"cebpf4jnsgd1na2vs0mg"},{"bike_id":"3e9dfe5f-6cc6-4178-a677-839c9e188c58","system_id":"levelo_inurba_marseille","lat":43.25503,"lon":5.37652,"is_reserved":false,"is_disabled":false,"rental_uris":{"android":"levelo://app?vid=3e9dfe5f-6cc6-4178-a677-839c9e188c58","ios":"levelo://app?vid=3e9dfe5f-6cc6-4178-a677-839c9e188c58"},"vehicle_type_id":"4","last_reported":1774084879,"current_range_meters":4000,"station_id":"ce4bhh12rcd13ifvqff0","pricing_plan_id":"cebpf4jnsgd1na2vs0mg"},{"bike_id":"29ceb06a-4df8-4e2a-9dd9-b070e185b37f","system_id":"levelo_inurba_marseille","lat":43.28498,"lon":5.48432,"is_reserved":false,"is_disabled":false,"rental_uris":{"android":"levelo://app?vid=29ceb06a-4df8-4e2a-9dd9-b070e185b37f","ios":"levelo://app?vid=29ceb06a-4df8-4e2a-9dd9-b070e185b37f"},"vehicle_type_id":"4","last_reported":1774084879,"current_range_meters":4000,"station_id":"","pricing_plan_id":"cebpf4jnsgd1na2vs0mg"},{"bike_id":"e5eba928-e3a4-441b-9540-937747ee47b9","system_id":"levelo_inurba_marseille","lat":43.22565,"lon":5.41616,"is_reserved":false,"is_disabled":false,"rental_uris":{"android":"levelo://app?vid=e5eba928-e3a4-441b-9540-937747ee47b9","ios":"levelo://app?vid=e5eba928-e3a4-441b-9540-937747ee47b9"},"vehicle_type_id":"4","last_reported":1774084879,"current_range_meters":4000,"station_id":"st_d2o4gvlbi1j2169b742g","pricing_plan_id":"cebpf4jnsgd1na2vs0mg"},{"bike_id":"f5c77617-75ce-4786-b5d1-e34b147cb104","system_id":"levelo_inurba_marseille","lat":43.26052,"lon":5.37535,"is_reserved":false,"is_disabled":false,"rental_uris":{"android":"levelo://app?vid=f5c77617-75ce-4786-b5d1-e34b147cb104","ios":"levelo://app?vid=f5c77617-75ce-4786-b5d1-e34b147cb104"},"vehicle_type_id":"4","last_reported":1774084879,"current_range_meters":4000,"station_id":"ce4bhgh2rcd13ifvqfa0","pricing_plan_id":"cebpf4jnsgd1na2vs0mg"},{"bike_id":"8273dccc-e6d5-4b39-a8f8-cc6685202d2b","system_id":"levelo_inurba_marseille","lat":43.24472,"lon":5.42543,"is_reserved":false,"is_disabled":false,"rental_uris":{"android":"levelo://app?vid=8273dccc-e6d5-4b39-a8f8-cc6685202d2b","ios":"levelo://app?vid=8273dccc-e6d5-4b39-a8f8-cc6685202d2b"},"vehicle_type_id":"4","last_reported":1774084879,"current_range_meters":4000,"station_id":"st_d4a3vfp97mjs738cd8kg","pricing_plan_id":"cebpf4jnsgd1na2vs0mg"},{"bike_id":"b14bb5e1-7882-4380-b389-98bb380dac81","system_id":"levelo_inurba_marseille","lat":43.2398,"lon":5.36636,"is_reserved":false,"is_disabled":false,"rental_uris":{"android":"levelo://app?vid=b14bb5e1-7882-4380-b389-98bb380dac81","ios":"levelo://app?vid=b14bb5e1-7882-4380-b389-98bb380dac81"},"vehicle_type_id":"4","last_reported":1774084879,"current_range_meters":4000,"station_id":"ce4bhi12rcd13ifvqfp0","pricing_plan_id":"cebpf4jnsgd1na2vs0mg"},{"bike_id":"f328e3b6-a38c-49fe-80e0-c552630893a5","system_id":"levelo_inurba_marseille","lat":43.22924,"lon":5.35365,"is_reserved":false,"is_disabled":false,"rental_uris":{"android":"levelo://app?vid=f328e3b6-a38c-49fe-80e0-c552630893a5","ios":"levelo://app?vid=f328e3b6-a38c-49fe-80e0-c552630893a5"},"vehicle_type_id":"4","last_reported":1774084879,"current_range_meters":4400,"station_id":"cpo3532slgdg3j2ikp40","pricing_plan_id":"cebpf4jnsgd1na2vs0mg"},{"bike_id":"a775511c-9985-4a58-8c4c-775aad7f3e36","system_id":"levelo_inurba_marseille","lat":43.29904,"lon":5.43663,"is_reserved":false,"is_disabled":false,"rental_uris":{"android":"levelo://app?vid=a775511c-9985-4a58-8c4c-775aad7f3e36","ios":"levelo://app?vid=a775511c-9985-4a58-8c4c-775aad7f3e36"},"vehicle_type_id":"4","last_reported":1774084879,"current_range_meters":4400,"station_id":"ce4bhpp2rcd13ifvqhfg","pricing_plan_id":"cebpf4jnsgd1na2vs0mg"},{"bike_id":"9654dd25-9012-4815-be48-421f37e2aaaa","system_id":"levelo_inurba_marseille","lat":43.28617,"lon":5.35114,"is_reserved":false,"is_disabled":false,"rental_uris":{"android":"levelo://app?vid=9654dd25-9012-4815-be48-421f37e2aaaa","ios":"levelo://app?vid=9654dd25-9012-4815-be48-421f37e2aaaa"},"vehicle_type_id":"4","last_reported":1774084879,"current_range_meters":4400,"station_id":"ce4bhch2rcd13ifvqeug","pricing_plan_id":"cebpf4jnsgd1na2vs0mg"},{"bike_id":"7a8d49f7-71a0-4ac9-afe8-12137176fb0e","system_id":"levelo_inurba_marseille","lat":43.30345,"lon":5.42992,"is_reserved":false,"is_disabled":false,"rental_uris":{"android":"levelo://app?vid=7a8d49f7-71a0-4ac9-afe8-12137176fb0e","ios":"levelo://app?vid=7a8d49f7-71a0-4ac9-afe8-12137176fb0e"},"vehicle_type_id":"4","last_reported":1774084879,"current_range_meters":4400,"station_id":"","pricing_plan_id":"cebpf4jnsgd1na2vs0mg"},{"bike_id":"c003f011-8d3c-44a8-8aa1-b12f6898603e","system_id":"levelo_inurba_marseille","lat":43.28268,"lon":5.35077,"is_reserved":false,"is_disabled":false,"rental_uris":{"android":"levelo://app?vid=c003f011-8d3c-44a8-8aa1-b12f6898603e","ios":"levelo://app?vid=c003f011-8d3c-44a8-8aa1-b12f6898603e"},"vehicle_type_id":"4","last_reported":1774084879,"current_range_meters":4400,"station_id":"ce4bhbp2rcd13ifvqerg","pricing_plan_id":"cebpf4jnsgd1na2vs0mg"},{"bike_id":"89ad46cf-ad84-4e5e-be57-87ac2cebe69c","system_id":"levelo_inurba_marseille","lat":43.2841,"lon":5.48192,"is_reserved":false,"is_disabled":false,"rental_uris":{"android":"levelo://app?vid=89ad46cf-ad84-4e5e-be57-87ac2cebe69c","ios":"levelo://app?vid=89ad46cf-ad84-4e5e-be57-87ac2cebe69c"},"vehicle_type_id":"4","last_reported":1774084879,"current_range_meters":4400,"station_id":"st_d3svhcjqgbts73a3dn0g","pricing_plan_id":"cebpf4jnsgd1na2vs0mg"},{"bike_id":"b02d6229-3b36-48a3-8959-dd92550a1e78","system_id":"levelo_inurba_marseille","lat":43.2315,"lon":5.43714,"is_reserved":false,"is_disabled":false,"rental_uris":{"android":"levelo://app?vid=b02d6229-3b36-48a3-8959-dd92550a1e78","ios":"levelo://app?vid=b02d6229-3b36-48a3-8959-dd92550a1e78"},"vehicle_type_id":"4","last_reported":1774084879,"current_range_meters":4400,"station_id":"ce4bhmp2rcd13ifvqgog","pricing_plan_id":"cebpf4jnsgd1na2vs0mg"},{"bike_id":"7a07ff46-eae3-40ed-bbc5-3678712bd529","system_id":"levelo_inurba_marseille","lat":43.21743,"lon":5.34603,"is_reserved":false,"is_disabled":false,"rental_uris":{"android":"levelo://app?vid=7a07ff46-eae3-40ed-bbc5-3678712bd529","ios":"levelo://app?vid=7a07ff46-eae3-40ed-bbc5-3678712bd529"},"vehicle_type_id":"4","last_reported":1774084879,"current_range_meters":4400,"station_id":"","pricing_plan_id":"cebpf4jnsgd1na2vs0mg"},{"bike_id":"3afca05d-c600-4d36-aada-2d3164b0b1d4","system_id":"levelo_inurba_marseille","lat":43.26783,"lon":5.39438,"is_reserved":false,"is_disabled":false,"rental_uris":{"android":"levelo://app?vid=3afca05d-c600-4d36-aada-2d3164b0b1d4","ios":"levelo://app?vid=3afca05d-c600-4d36-aada-2d3164b0b1d4"},"vehicle_type_id":"4","last_reported":1774084879,"current_range_meters":4400,"station_id":"ce4bhh12rcd13ifvqfg0","pricing_plan_id":"cebpf4jnsgd1na2vs0mg"},{"bike_id":"83675f3e-fe90-4bf0-8b69-f095eac9e73c","system_id":"levelo_inurba_marseille","lat":43.27071,"lon":5.42266,"is_reserved":false,"is_disabled":false,"rental_uris":{"android":"levelo://app?vid=83675f3e-fe90-4bf0-8b69-f095eac9e73c","ios":"levelo://app?vid=83675f3e-fe90-4bf0-8b69-f095eac9e73c"},"vehicle_type_id":"4","last_reported":1774084879,"current_range_meters":4400,"station_id":"ce4bhk92rcd13ifvqgb0","pricing_plan_id":"cebpf4jnsgd1na2vs0mg"},{"bike_id":"543e5320-298e-4cc8-963c-8de6614109f2","system_id":"levelo_inurba_marseille","lat":43.31751,"lon":5.43676,"is_reserved":false,"is_disabled":false,"rental_uris":{"android":"levelo://app?vid=543e5320-298e-4cc8-963c-8de6614109f2","ios":"levelo://app?vid=543e5320-298e-4cc8-963c-8de6614109f2"},"vehicle_type_id":"4","last_reported":1774084879,"current_range_meters":4400,"station_id":"","pricing_plan_id":"cebpf4jnsgd1na2vs0mg"},{"bike_id":"eecc0b55-41a0-4773-8e3e-47efdeae35f9","system_id":"levelo_inurba_marseille","lat":43.298845,"lon":5.397248,"is_reserved":false,"is_disabled":true,"rental_uris":{"android":"levelo://app?vid=eecc0b55-41a0-4773-8e3e-47efdeae35f9","ios":"levelo://app?vid=eecc0b55-41a0-4773-8e3e-47efdeae35f9"},"vehicle_type_id":"4","last_reported":1774084879,"current_range_meters":4800,"station_id":"ce4bh0h2rcd13ifvqd50","pricing_plan_id":"cebpf4jnsgd1na2vs0mg"},{"bike_id":"2a7b0605-b083-4804-bebf-4eb91f0c8051","system_id":"levelo_inurba_marseille","lat":43.26969,"lon":5.38657,"is_reserved":false,"is_disabled":false,"rental_uris":{"android":"levelo://app?vid=2a7b0605-b083-4804-bebf-4eb91f0c8051","ios":"levelo://app?vid=2a7b0605-b083-4804-bebf-4eb91f0c8051"},"vehicle_type_id":"4","last_reported":1774084879,"current_range_meters":4800,"station_id":"ce4bhh92rcd13ifvqfh0","pricing_plan_id":"cebpf4jnsgd1na2vs0mg"},{"bike_id":"3eab8e3c-e5f9-4ac5-b63c-c067b0f569b5","system_id":"levelo_inurba_marseille","lat":43.2627,"lon":5.37468,"is_reserved":false,"is_disabled":false,"rental_uris":{"android":"levelo://app?vid=3eab8e3c-e5f9-4ac5-b63c-c067b0f569b5","ios":"levelo://app?vid=3eab8e3c-e5f9-4ac5-b63c-c067b0f569b5"},"vehicle_type_id":"4","last_reported":1774084879,"current_range_meters":4800,"station_id":"ce4bhgp2rcd13ifvqfc0","pricing_plan_id":"cebpf4jnsgd1na2vs0mg"},{"bike_id":"a52ba6dc-1b15-4a85-8d00-b41ad0623a75","system_id":"levelo_inurba_marseille","lat":43.32364,"lon":5.367,"is_reserved":false,"is_disabled":false,"rental_uris":{"android":"levelo://app?vid=a52ba6dc-1b15-4a85-8d00-b41ad0623a75","ios":"levelo://app?vid=a52ba6dc-1b15-4a85-8d00-b41ad0623a75"},"vehicle_type_id":"4","last_reported":1774084879,"current_range_meters":4800,"station_id":"","pricing_plan_id":"cebpf4jnsgd1na2vs0mg"},{"bike_id":"e6d205a4-a7a0-4fa1-ad2a-e48ac8a7b420","system_id":"levelo_inurba_marseille","lat":43.2863,"lon":5.35098,"is_reserved":false,"is_disabled":false,"rental_uris":{"android":"levelo://app?vid=e6d205a4-a7a0-4fa1-ad2a-e48ac8a7b420","ios":"levelo://app?vid=e6d205a4-a7a0-4fa1-ad2a-e48ac8a7b420"},"vehicle_type_id":"4","last_reported":1774084879,"current_range_meters":4800,"station_id":"ce4bhch2rcd13ifvqeug","pricing_plan_id":"cebpf4jnsgd1na2vs0mg"},{"bike_id":"985581c5-2d51-479f-9a24-1a5b37b203f8","system_id":"levelo_inurba_marseille","lat":43.29023,"lon":5.38136,"is_reserved":false,"is_disabled":false,"rental_uris":{"android":"levelo://app?vid=985581c5-2d51-479f-9a24-1a5b37b203f8","ios":"levelo://app?vid=985581c5-2d51-479f-9a24-1a5b37b203f8"},"vehicle_type_id":"4","last_reported":1774084879,"current_range_meters":4800,"station_id":"ce4bh4p2rcd13ifvqe1g","pricing_plan_id":"cebpf4jnsgd1na2vs0mg"},{"bike_id":"53f48266-4564-420b-96ab-d243233055dc","system_id":"levelo_inurba_marseille","lat":43.28481,"lon":5.48399,"is_reserved":false,"is_disabled":false,"rental_uris":{"android":"levelo://app?vid=53f48266-4564-420b-96ab-d243233055dc","ios":"levelo://app?vid=53f48266-4564-420b-96ab-d243233055dc"},"vehicle_type_id":"4","last_reported":1774084879,"current_range_meters":5600,"station_id":"","pricing_plan_id":"cebpf4jnsgd1na2vs0mg"},{"bike_id":"0f699794-8202-4161-a052-1d39a341c5fa","system_id":"levelo_inurba_marseille","lat":43.31213,"lon":5.38715,"is_reserved":false,"is_disabled":true,"rental_uris":{"android":"levelo://app?vid=0f699794-8202-4161-a052-1d39a341c5fa","ios":"levelo://app?vid=0f699794-8202-4161-a052-1d39a341c5fa"},"vehicle_type_id":"4","last_reported":1774084879,"current_range_meters":5600,"station_id":"ce4bgv12rcd13ifvqcp0","pricing_plan_id":"cebpf4jnsgd1na2vs0mg"},{"bike_id":"e045cd46-4db7-4519-a2b5-aad6eed05714","system_id":"levelo_inurba_marseille","lat":43.29303,"lon":5.37456,"is_reserved":false,"is_disabled":false,"rental_uris":{"android":"levelo://app?vid=e045cd46-4db7-4519-a2b5-aad6eed05714","ios":"levelo://app?vid=e045cd46-4db7-4519-a2b5-aad6eed05714"},"vehicle_type_id":"4","last_reported":1774084879,"current_range_meters":5600,"station_id":"ce4bgi12rcd13ifvqb70","pricing_plan_id":"cebpf4jnsgd1na2vs0mg"},{"bike_id":"ea71251c-e6f2-4743-adf1-44fa0a938167","system_id":"levelo_inurba_marseille","lat":43.28657,"lon":5.36338,"is_reserved":false,"is_disabled":false,"rental_uris":{"android":"levelo://app?vid=ea71251c-e6f2-4743-adf1-44fa0a938167","ios":"levelo://app?vid=ea71251c-e6f2-4743-adf1-44fa0a938167"},"vehicle_type_id":"4","last_reported":1774084879,"current_range_meters":5600,"station_id":"ce4bhah2rcd13ifvqej0","pricing_plan_id":"cebpf4jnsgd1na2vs0mg"},{"bike_id":"133cffb0-2b3f-4044-96d3-d3dea08fbcd0","system_id":"levelo_inurba_marseille","lat":43.286694,"lon":5.363495,"is_reserved":false,"is_disabled":false,"rental_uris":{"android":"levelo://app?vid=133cffb0-2b3f-4044-96d3-d3dea08fbcd0","ios":"levelo://app?vid=133cffb0-2b3f-4044-96d3-d3dea08fbcd0"},"vehicle_type_id":"4","last_reported":1774084879,"current_range_meters":5600,"station_id":"ce4bhah2rcd13ifvqej0","pricing_plan_id":"cebpf4jnsgd1na2vs0mg"},{"bike_id":"ad9ed56a-add5-484f-82f8-d15a74d04484","system_id":"levelo_inurba_marseille","lat":43.31877,"lon":5.38424,"is_reserved":false,"is_disabled":false,"rental_uris":{"android":"levelo://app?vid=ad9ed56a-add5-484f-82f8-d15a74d04484","ios":"levelo://app?vid=ad9ed56a-add5-484f-82f8-d15a74d04484"},"vehicle_type_id":"4","last_reported":1774084879,"current_range_meters":5600,"station_id":"","pricing_plan_id":"cebpf4jnsgd1na2vs0mg"},{"bike_id":"6963426a-4978-40e2-82b9-04bace775265","system_id":"levelo_inurba_marseille","lat":43.29937,"lon":5.3654,"is_reserved":false,"is_disabled":false,"rental_uris":{"android":"levelo://app?vid=6963426a-4978-40e2-82b9-04bace775265","ios":"levelo://app?vid=6963426a-4978-40e2-82b9-04bace775265"},"vehicle_type_id":"4","last_reported":1774084879,"current_range_meters":5600,"station_id":"ce4bgm92rcd13ifvqbr0","pricing_plan_id":"cebpf4jnsgd1na2vs0mg"},{"bike_id":"7d13b695-efd2-4c4e-87d9-0e1b3e604a51","system_id":"levelo_inurba_marseille","lat":43.28718,"lon":5.37923,"is_reserved":false,"is_disabled":false,"rental_uris":{"android":"levelo://app?vid=7d13b695-efd2-4c4e-87d9-0e1b3e604a51","ios":"levelo://app?vid=7d13b695-efd2-4c4e-87d9-0e1b3e604a51"},"vehicle_type_id":"4","last_reported":1774084879,"current_range_meters":5600,"station_id":"ce4bh9p2rcd13ifvqec0","pricing_plan_id":"cebpf4jnsgd1na2vs0mg"},{"bike_id":"8384f279-4c48-4dc4-a681-cc4e6da61fb6","system_id":"levelo_inurba_marseille","lat":43.30791,"lon":5.37641,"is_reserved":false,"is_disabled":false,"rental_uris":{"android":"levelo://app?vid=8384f279-4c48-4dc4-a681-cc4e6da61fb6","ios":"levelo://app?vid=8384f279-4c48-4dc4-a681-cc4e6da61fb6"},"vehicle_type_id":"4","last_reported":1774084879,"current_range_meters":5600,"station_id":"ce4bgv92rcd13ifvqcq0","pricing_plan_id":"cebpf4jnsgd1na2vs0mg"},{"bike_id":"d4bdd173-78c7-4a96-b0a8-c9b4c4e56d68","system_id":"levelo_inurba_marseille","lat":43.28406,"lon":5.37509,"is_reserved":false,"is_disabled":true,"rental_uris":{"android":"levelo://app?vid=d4bdd173-78c7-4a96-b0a8-c9b4c4e56d68","ios":"levelo://app?vid=d4bdd173-78c7-4a96-b0a8-c9b4c4e56d68"},"vehicle_type_id":"4","last_reported":1774084879,"current_range_meters":6000,"station_id":"ce4bh412rcd13ifvqds0","pricing_plan_id":"cebpf4jnsgd1na2vs0mg"},{"bike_id":"7c4fdc26-3999-44a7-87e6-6b0716ec3ae6","system_id":"levelo_inurba_marseille","lat":43.30441,"lon":5.39733,"is_reserved":false,"is_disabled":false,"rental_uris":{"android":"levelo://app?vid=7c4fdc26-3999-44a7-87e6-6b0716ec3ae6","ios":"levelo://app?vid=7c4fdc26-3999-44a7-87e6-6b0716ec3ae6"},"vehicle_type_id":"4","last_reported":1774084879,"current_range_meters":6000,"station_id":"ce4bh092rcd13ifvqd20","pricing_plan_id":"cebpf4jnsgd1na2vs0mg"},{"bike_id":"ac4ca0f2-f5c2-4c9c-81db-9f7b20e89d0c","system_id":"levelo_inurba_marseille","lat":43.28539,"lon":5.44094,"is_reserved":false,"is_disabled":true,"rental_uris":{"android":"levelo://app?vid=ac4ca0f2-f5c2-4c9c-81db-9f7b20e89d0c","ios":"levelo://app?vid=ac4ca0f2-f5c2-4c9c-81db-9f7b20e89d0c"},"vehicle_type_id":"4","last_reported":1774084879,"current_range_meters":6000,"station_id":"st_d3j3df2ikq2c7380ej80","pricing_plan_id":"cebpf4jnsgd1na2vs0mg"},{"bike_id":"0229835b-c6fa-4fab-a5ec-1f44b1066777","system_id":"levelo_inurba_marseille","lat":43.29654,"lon":5.40597,"is_reserved":false,"is_disabled":false,"rental_uris":{"android":"levelo://app?vid=0229835b-c6fa-4fab-a5ec-1f44b1066777","ios":"levelo://app?vid=0229835b-c6fa-4fab-a5ec-1f44b1066777"},"vehicle_type_id":"4","last_reported":1774084879,"current_range_meters":6000,"station_id":"ce4bh0h2rcd13ifvqd60","pricing_plan_id":"cebpf4jnsgd1na2vs0mg"},{"bike_id":"b3b3bb0b-fb2d-4490-a557-6f80b344e03f","system_id":"levelo_inurba_marseille","lat":43.2894,"lon":5.39629,"is_reserved":false,"is_disabled":false,"rental_uris":{"android":"levelo://app?vid=b3b3bb0b-fb2d-4490-a557-6f80b344e03f","ios":"levelo://app?vid=b3b3bb0b-fb2d-4490-a557-6f80b344e03f"},"vehicle_type_id":"4","last_reported":1774084879,"current_range_meters":6000,"station_id":"ce4bh3h2rcd13ifvqdn0","pricing_plan_id":"cebpf4jnsgd1na2vs0mg"},{"bike_id":"7fa64d84-cd92-4f02-a79d-c348b129b15f","system_id":"levelo_inurba_marseille","lat":43.24221,"lon":5.36366,"is_reserved":false,"is_disabled":false,"rental_uris":{"android":"levelo://app?vid=7fa64d84-cd92-4f02-a79d-c348b129b15f","ios":"levelo://app?vid=7fa64d84-cd92-4f02-a79d-c348b129b15f"},"vehicle_type_id":"4","last_reported":1774084879,"current_range_meters":6000,"station_id":"cpo36qri1sfpv3e86is0","pricing_plan_id":"cebpf4jnsgd1na2vs0mg"},{"bike_id":"79c5ae9e-a270-4ec9-8ca8-4b21cf708331","system_id":"levelo_inurba_marseille","lat":43.28866,"lon":5.35862,"is_reserved":false,"is_disabled":false,"rental_uris":{"android":"levelo://app?vid=79c5ae9e-a270-4ec9-8ca8-4b21cf708331","ios":"levelo://app?vid=79c5ae9e-a270-4ec9-8ca8-4b21cf708331"},"vehicle_type_id":"4","last_reported":1774084879,"current_range_meters":6000,"station_id":"ce4bhb12rcd13ifvqem0","pricing_plan_id":"cebpf4jnsgd1na2vs0mg"},{"bike_id":"e993ff9c-95cf-4e66-b153-272f399cb6ad","system_id":"levelo_inurba_marseille","lat":43.27234,"lon":5.39178,"is_reserved":false,"is_disabled":false,"rental_uris":{"android":"levelo://app?vid=e993ff9c-95cf-4e66-b153-272f399cb6ad","ios":"levelo://app?vid=e993ff9c-95cf-4e66-b153-272f399cb6ad"},"vehicle_type_id":"4","last_reported":1774084879,"current_range_meters":6000,"station_id":"ce4bhhp2rcd13ifvqfm0","pricing_plan_id":"cebpf4jnsgd1na2vs0mg"},{"bike_id":"74e39939-39d8-42d2-a522-0fbb91581566","system_id":"levelo_inurba_marseille","lat":43.24487,"lon":5.39682,"is_reserved":false,"is_disabled":false,"rental_uris":{"android":"levelo://app?vid=74e39939-39d8-42d2-a522-0fbb91581566","ios":"levelo://app?vid=74e39939-39d8-42d2-a522-0fbb91581566"},"vehicle_type_id":"4","last_reported":1774084879,"current_range_meters":6000,"station_id":"","pricing_plan_id":"cebpf4jnsgd1na2vs0mg"},{"bike_id":"912e5f30-2e0b-48a9-85db-a984611241c9","system_id":"levelo_inurba_marseille","lat":43.2984,"lon":5.44104,"is_reserved":false,"is_disabled":false,"rental_uris":{"android":"levelo://app?vid=912e5f30-2e0b-48a9-85db-a984611241c9","ios":"levelo://app?vid=912e5f30-2e0b-48a9-85db-a984611241c9"},"vehicle_type_id":"4","last_reported":1774084879,"current_range_meters":6400,"station_id":"","pricing_plan_id":"cebpf4jnsgd1na2vs0mg"},{"bike_id":"e2420c11-4646-4145-aa2e-baedb91a43dc","system_id":"levelo_inurba_marseille","lat":43.32366,"lon":5.36735,"is_reserved":false,"is_disabled":false,"rental_uris":{"android":"levelo://app?vid=e2420c11-4646-4145-aa2e-baedb91a43dc","ios":"levelo://app?vid=e2420c11-4646-4145-aa2e-baedb91a43dc"},"vehicle_type_id":"4","last_reported":1774084879,"current_range_meters":6400,"station_id":"ce4bhsh2rcd13ifvqi2g","pricing_plan_id":"cebpf4jnsgd1na2vs0mg"},{"bike_id":"a8c8307b-e1e9-4950-a785-578e1a82f805","system_id":"levelo_inurba_marseille","lat":43.31276,"lon":5.37822,"is_reserved":false,"is_disabled":false,"rental_uris":{"android":"levelo://app?vid=a8c8307b-e1e9-4950-a785-578e1a82f805","ios":"levelo://app?vid=a8c8307b-e1e9-4950-a785-578e1a82f805"},"vehicle_type_id":"4","last_reported":1774084879,"current_range_meters":6400,"station_id":"","pricing_plan_id":"cebpf4jnsgd1na2vs0mg"},{"bike_id":"962e3e51-db50-4f61-a079-9b1c6a103eb5","system_id":"levelo_inurba_marseille","lat":43.30963,"lon":5.36814,"is_reserved":false,"is_disabled":false,"rental_uris":{"android":"levelo://app?vid=962e3e51-db50-4f61-a079-9b1c6a103eb5","ios":"levelo://app?vid=962e3e51-db50-4f61-a079-9b1c6a103eb5"},"vehicle_type_id":"4","last_reported":1774084879,"current_range_meters":6400,"station_id":"","pricing_plan_id":"cebpf4jnsgd1na2vs0mg"},{"bike_id":"24745fec-5e5c-40d7-b9a0-bd3cffa54daf","system_id":"levelo_inurba_marseille","lat":43.29278,"lon":5.36844,"is_reserved":false,"is_disabled":false,"rental_uris":{"android":"levelo://app?vid=24745fec-5e5c-40d7-b9a0-bd3cffa54daf","ios":"levelo://app?vid=24745fec-5e5c-40d7-b9a0-bd3cffa54daf"},"vehicle_type_id":"4","last_reported":1774084879,"current_range_meters":6400,"station_id":"ce4bhbp2rcd13ifvqesg","pricing_plan_id":"cebpf4jnsgd1na2vs0mg"},{"bike_id":"2cea9d46-c32a-4a24-9abe-5dc099975957","system_id":"levelo_inurba_marseille","lat":43.28486,"lon":5.48397,"is_reserved":false,"is_disabled":false,"rental_uris":{"android":"levelo://app?vid=2cea9d46-c32a-4a24-9abe-5dc099975957","ios":"levelo://app?vid=2cea9d46-c32a-4a24-9abe-5dc099975957"},"vehicle_type_id":"4","last_reported":1774084879,"current_range_meters":6400,"station_id":"","pricing_plan_id":"cebpf4jnsgd1na2vs0mg"},{"bike_id":"2d9e4754-9b17-40b5-bbeb-5b1c9c5bbe64","system_id":"levelo_inurba_marseille","lat":43.30132,"lon":5.38778,"is_reserved":false,"is_disabled":true,"rental_uris":{"android":"levelo://app?vid=2d9e4754-9b17-40b5-bbeb-5b1c9c5bbe64","ios":"levelo://app?vid=2d9e4754-9b17-40b5-bbeb-5b1c9c5bbe64"},"vehicle_type_id":"4","last_reported":1774084879,"current_range_meters":6400,"station_id":"ce4bghh2rcd13ifvqb60","pricing_plan_id":"cebpf4jnsgd1na2vs0mg"},{"bike_id":"9bedb971-6887-4d43-88c8-1762430f453d","system_id":"levelo_inurba_marseille","lat":43.24683,"lon":5.38174,"is_reserved":false,"is_disabled":true,"rental_uris":{"android":"levelo://app?vid=9bedb971-6887-4d43-88c8-1762430f453d","ios":"levelo://app?vid=9bedb971-6887-4d43-88c8-1762430f453d"},"vehicle_type_id":"4","last_reported":1774084879,"current_range_meters":6400,"station_id":"ce4bhih2rcd13ifvqfr0","pricing_plan_id":"cebpf4jnsgd1na2vs0mg"},{"bike_id":"bfcd297d-8eb3-4c95-ac63-338c1f23c812","system_id":"levelo_inurba_marseille","lat":43.26586,"lon":5.37334,"is_reserved":false,"is_disabled":false,"rental_uris":{"android":"levelo://app?vid=bfcd297d-8eb3-4c95-ac63-338c1f23c812","ios":"levelo://app?vid=bfcd297d-8eb3-4c95-ac63-338c1f23c812"},"vehicle_type_id":"4","last_reported":1774084879,"current_range_meters":6400,"station_id":"ce4bhg12rcd13ifvqf70","pricing_plan_id":"cebpf4jnsgd1na2vs0mg"},{"bike_id":"c7ca3395-61a6-424a-8b4e-14bb7ddfa33a","system_id":"levelo_inurba_marseille","lat":43.30146,"lon":5.38772,"is_reserved":false,"is_disabled":true,"rental_uris":{"android":"levelo://app?vid=c7ca3395-61a6-424a-8b4e-14bb7ddfa33a","ios":"levelo://app?vid=c7ca3395-61a6-424a-8b4e-14bb7ddfa33a"},"vehicle_type_id":"4","last_reported":1774084879,"current_range_meters":6400,"station_id":"ce4bghh2rcd13ifvqb60","pricing_plan_id":"cebpf4jnsgd1na2vs0mg"},{"bike_id":"4cfda525-c1a6-40b6-a6a8-f7d117c609ed","system_id":"levelo_inurba_marseille","lat":43.28865,"lon":5.39325,"is_reserved":false,"is_disabled":false,"rental_uris":{"android":"levelo://app?vid=4cfda525-c1a6-40b6-a6a8-f7d117c609ed","ios":"levelo://app?vid=4cfda525-c1a6-40b6-a6a8-f7d117c609ed"},"vehicle_type_id":"4","last_reported":1774084879,"current_range_meters":6400,"station_id":"ce4bh2p2rcd13ifvqdi0","pricing_plan_id":"cebpf4jnsgd1na2vs0mg"},{"bike_id":"9844774b-0798-4eaf-8d61-fe407c9c50ef","system_id":"levelo_inurba_marseille","lat":43.298665,"lon":5.397334,"is_reserved":false,"is_disabled":true,"rental_uris":{"android":"levelo://app?vid=9844774b-0798-4eaf-8d61-fe407c9c50ef","ios":"levelo://app?vid=9844774b-0798-4eaf-8d61-fe407c9c50ef"},"vehicle_type_id":"4","last_reported":1774084879,"current_range_meters":6800,"station_id":"ce4bh0h2rcd13ifvqd50","pricing_plan_id":"cebpf4jnsgd1na2vs0mg"},{"bike_id":"d00ce6b1-d263-4644-9ac8-801c3d34ac19","system_id":"levelo_inurba_marseille","lat":43.22571,"lon":5.41629,"is_reserved":false,"is_disabled":false,"rental_uris":{"android":"levelo://app?vid=d00ce6b1-d263-4644-9ac8-801c3d34ac19","ios":"levelo://app?vid=d00ce6b1-d263-4644-9ac8-801c3d34ac19"},"vehicle_type_id":"4","last_reported":1774084879,"current_range_meters":6800,"station_id":"st_d2o4gvlbi1j2169b742g","pricing_plan_id":"cebpf4jnsgd1na2vs0mg"},{"bike_id":"286fba00-1c70-49c5-9491-0b3044de24cb","system_id":"levelo_inurba_marseille","lat":43.26212,"lon":5.40455,"is_reserved":false,"is_disabled":true,"rental_uris":{"android":"levelo://app?vid=286fba00-1c70-49c5-9491-0b3044de24cb","ios":"levelo://app?vid=286fba00-1c70-49c5-9491-0b3044de24cb"},"vehicle_type_id":"4","last_reported":1774084879,"current_range_meters":6800,"station_id":"ce4bhmh2rcd13ifvqgmg","pricing_plan_id":"cebpf4jnsgd1na2vs0mg"},{"bike_id":"f3414e99-2d7c-4b03-96db-df8c1c6d3f2b","system_id":"levelo_inurba_marseille","lat":43.28498,"lon":5.48389,"is_reserved":false,"is_disabled":false,"rental_uris":{"android":"levelo://app?vid=f3414e99-2d7c-4b03-96db-df8c1c6d3f2b","ios":"levelo://app?vid=f3414e99-2d7c-4b03-96db-df8c1c6d3f2b"},"vehicle_type_id":"4","last_reported":1774084879,"current_range_meters":6800,"station_id":"","pricing_plan_id":"cebpf4jnsgd1na2vs0mg"},{"bike_id":"8648ff3d-a49d-4491-be6c-bab3f9812603","system_id":"levelo_inurba_marseille","lat":43.28282,"lon":5.43844,"is_reserved":false,"is_disabled":false,"rental_uris":{"android":"levelo://app?vid=8648ff3d-a49d-4491-be6c-bab3f9812603","ios":"levelo://app?vid=8648ff3d-a49d-4491-be6c-bab3f9812603"},"vehicle_type_id":"4","last_reported":1774084879,"current_range_meters":6800,"station_id":"","pricing_plan_id":"cebpf4jnsgd1na2vs0mg"},{"bike_id":"14168f6c-1c98-4b79-9136-727ba75766a2","system_id":"levelo_inurba_marseille","lat":43.27228,"lon":5.39171,"is_reserved":false,"is_disabled":false,"rental_uris":{"android":"levelo://app?vid=14168f6c-1c98-4b79-9136-727ba75766a2","ios":"levelo://app?vid=14168f6c-1c98-4b79-9136-727ba75766a2"},"vehicle_type_id":"4","last_reported":1774084879,"current_range_meters":6800,"station_id":"ce4bhhp2rcd13ifvqfm0","pricing_plan_id":"cebpf4jnsgd1na2vs0mg"},{"bike_id":"02bf4e22-4a59-4416-ba1c-3c09acf8d761","system_id":"levelo_inurba_marseille","lat":43.270692,"lon":5.422856,"is_reserved":false,"is_disabled":true,"rental_uris":{"android":"levelo://app?vid=02bf4e22-4a59-4416-ba1c-3c09acf8d761","ios":"levelo://app?vid=02bf4e22-4a59-4416-ba1c-3c09acf8d761"},"vehicle_type_id":"4","last_reported":1774084879,"current_range_meters":6800,"station_id":"ce4bhk92rcd13ifvqgb0","pricing_plan_id":"cebpf4jnsgd1na2vs0mg"},{"bike_id":"5086d9ad-e1a0-4b79-a7f2-c02e47240165","system_id":"levelo_inurba_marseille","lat":43.28867,"lon":5.4252,"is_reserved":false,"is_disabled":false,"rental_uris":{"android":"levelo://app?vid=5086d9ad-e1a0-4b79-a7f2-c02e47240165","ios":"levelo://app?vid=5086d9ad-e1a0-4b79-a7f2-c02e47240165"},"vehicle_type_id":"4","last_reported":1774084879,"current_range_meters":6800,"station_id":"","pricing_plan_id":"cebpf4jnsgd1na2vs0mg"},{"bike_id":"91724ce5-c020-483e-a3d5-2a0c84a8f033","system_id":"levelo_inurba_marseille","lat":43.29599,"lon":5.3995,"is_reserved":false,"is_disabled":false,"rental_uris":{"android":"levelo://app?vid=91724ce5-c020-483e-a3d5-2a0c84a8f033","ios":"levelo://app?vid=91724ce5-c020-483e-a3d5-2a0c84a8f033"},"vehicle_type_id":"4","last_reported":1774084879,"current_range_meters":6800,"station_id":"ce4bh312rcd13ifvqdj0","pricing_plan_id":"cebpf4jnsgd1na2vs0mg"},{"bike_id":"0c744d67-74b3-4bed-8fa1-274d8c3afbea","system_id":"levelo_inurba_marseille","lat":43.23791,"lon":5.36634,"is_reserved":false,"is_disabled":false,"rental_uris":{"android":"levelo://app?vid=0c744d67-74b3-4bed-8fa1-274d8c3afbea","ios":"levelo://app?vid=0c744d67-74b3-4bed-8fa1-274d8c3afbea"},"vehicle_type_id":"4","last_reported":1774084879,"current_range_meters":6800,"station_id":"st_d3nk18o9ro0c73en2l3g","pricing_plan_id":"cebpf4jnsgd1na2vs0mg"},{"bike_id":"72e035d0-dcc2-4dcf-8660-2e348be6861e","system_id":"levelo_inurba_marseille","lat":43.3147,"lon":5.45407,"is_reserved":false,"is_disabled":false,"rental_uris":{"android":"levelo://app?vid=72e035d0-dcc2-4dcf-8660-2e348be6861e","ios":"levelo://app?vid=72e035d0-dcc2-4dcf-8660-2e348be6861e"},"vehicle_type_id":"4","last_reported":1774084879,"current_range_meters":7200,"station_id":"","pricing_plan_id":"cebpf4jnsgd1na2vs0mg"},{"bike_id":"5053a012-d646-439d-b591-468fdeaa8c67","system_id":"levelo_inurba_marseille","lat":43.25346,"lon":5.42147,"is_reserved":false,"is_disabled":false,"rental_uris":{"android":"levelo://app?vid=5053a012-d646-439d-b591-468fdeaa8c67","ios":"levelo://app?vid=5053a012-d646-439d-b591-468fdeaa8c67"},"vehicle_type_id":"4","last_reported":1774084879,"current_range_meters":7200,"station_id":"st_d2m65c5bi1j21697t3ng","pricing_plan_id":"cebpf4jnsgd1na2vs0mg"},{"bike_id":"92f32112-8a58-4a2d-8380-c50aa46da344","system_id":"levelo_inurba_marseille","lat":43.24077,"lon":5.3639,"is_reserved":false,"is_disabled":false,"rental_uris":{"android":"levelo://app?vid=92f32112-8a58-4a2d-8380-c50aa46da344","ios":"levelo://app?vid=92f32112-8a58-4a2d-8380-c50aa46da344"},"vehicle_type_id":"4","last_reported":1774084879,"current_range_meters":7200,"station_id":"","pricing_plan_id":"cebpf4jnsgd1na2vs0mg"},{"bike_id":"1466758c-2c3d-4cc4-860b-d3d146ceb5ca","system_id":"levelo_inurba_marseille","lat":43.32656,"lon":5.40999,"is_reserved":false,"is_disabled":true,"rental_uris":{"android":"levelo://app?vid=1466758c-2c3d-4cc4-860b-d3d146ceb5ca","ios":"levelo://app?vid=1466758c-2c3d-4cc4-860b-d3d146ceb5ca"},"vehicle_type_id":"4","last_reported":1774084879,"current_range_meters":7200,"station_id":"ce4bhpp2rcd13ifvqhgg","pricing_plan_id":"cebpf4jnsgd1na2vs0mg"},{"bike_id":"ab77a418-345e-453b-bca3-3815a5ee3842","system_id":"levelo_inurba_marseille","lat":43.23202,"lon":5.35541,"is_reserved":false,"is_disabled":false,"rental_uris":{"android":"levelo://app?vid=ab77a418-345e-453b-bca3-3815a5ee3842","ios":"levelo://app?vid=ab77a418-345e-453b-bca3-3815a5ee3842"},"vehicle_type_id":"4","last_reported":1774084879,"current_range_meters":7200,"station_id":"ce4bhu92rcd13ifvqi70","pricing_plan_id":"cebpf4jnsgd1na2vs0mg"},{"bike_id":"bfa999de-7a32-454a-b31e-f99ace51a3fc","system_id":"levelo_inurba_marseille","lat":43.28475,"lon":5.48398,"is_reserved":false,"is_disabled":false,"rental_uris":{"android":"levelo://app?vid=bfa999de-7a32-454a-b31e-f99ace51a3fc","ios":"levelo://app?vid=bfa999de-7a32-454a-b31e-f99ace51a3fc"},"vehicle_type_id":"4","last_reported":1774084879,"current_range_meters":7200,"station_id":"","pricing_plan_id":"cebpf4jnsgd1na2vs0mg"},{"bike_id":"b79edf21-0164-4a0c-b31c-d86dd5687815","system_id":"levelo_inurba_marseille","lat":43.337572,"lon":5.37466,"is_reserved":false,"is_disabled":false,"rental_uris":{"android":"levelo://app?vid=b79edf21-0164-4a0c-b31c-d86dd5687815","ios":"levelo://app?vid=b79edf21-0164-4a0c-b31c-d86dd5687815"},"vehicle_type_id":"4","last_reported":1774084879,"current_range_meters":7200,"station_id":"","pricing_plan_id":"cebpf4jnsgd1na2vs0mg"},{"bike_id":"2f467092-75c2-4bc8-8879-d35c3e9f1350","system_id":"levelo_inurba_marseille","lat":43.29017,"lon":5.38136,"is_reserved":false,"is_disabled":false,"rental_uris":{"android":"levelo://app?vid=2f467092-75c2-4bc8-8879-d35c3e9f1350","ios":"levelo://app?vid=2f467092-75c2-4bc8-8879-d35c3e9f1350"},"vehicle_type_id":"4","last_reported":1774084879,"current_range_meters":7200,"station_id":"ce4bh4p2rcd13ifvqe1g","pricing_plan_id":"cebpf4jnsgd1na2vs0mg"},{"bike_id":"0f91a451-e71a-4abd-8416-2bb372e59a0f","system_id":"levelo_inurba_marseille","lat":43.28601,"lon":5.3989,"is_reserved":false,"is_disabled":false,"rental_uris":{"android":"levelo://app?vid=0f91a451-e71a-4abd-8416-2bb372e59a0f","ios":"levelo://app?vid=0f91a451-e71a-4abd-8416-2bb372e59a0f"},"vehicle_type_id":"4","last_reported":1774084879,"current_range_meters":7200,"station_id":"st_d4a7ka997mjs738ck50g","pricing_plan_id":"cebpf4jnsgd1na2vs0mg"},{"bike_id":"d7f7b4c2-9a6f-4d84-8c89-5776d23c3485","system_id":"levelo_inurba_marseille","lat":43.2902,"lon":5.38144,"is_reserved":false,"is_disabled":false,"rental_uris":{"android":"levelo://app?vid=d7f7b4c2-9a6f-4d84-8c89-5776d23c3485","ios":"levelo://app?vid=d7f7b4c2-9a6f-4d84-8c89-5776d23c3485"},"vehicle_type_id":"4","last_reported":1774084879,"current_range_meters":7200,"station_id":"ce4bh4p2rcd13ifvqe1g","pricing_plan_id":"cebpf4jnsgd1na2vs0mg"},{"bike_id":"21dcff95-3114-402a-9713-10e340a8f8dd","system_id":"levelo_inurba_marseille","lat":43.29293,"lon":5.37158,"is_reserved":false,"is_disabled":false,"rental_uris":{"android":"levelo://app?vid=21dcff95-3114-402a-9713-10e340a8f8dd","ios":"levelo://app?vid=21dcff95-3114-402a-9713-10e340a8f8dd"},"vehicle_type_id":"4","last_reported":1774084879,"current_range_meters":7200,"station_id":"ce4bgh92rcd13ifvqb40","pricing_plan_id":"cebpf4jnsgd1na2vs0mg"},{"bike_id":"e08bf893-c056-4125-8c2b-f7261af6c4ba","system_id":"levelo_inurba_marseille","lat":43.24417,"lon":5.37049,"is_reserved":false,"is_disabled":false,"rental_uris":{"android":"levelo://app?vid=e08bf893-c056-4125-8c2b-f7261af6c4ba","ios":"levelo://app?vid=e08bf893-c056-4125-8c2b-f7261af6c4ba"},"vehicle_type_id":"4","last_reported":1774084879,"current_range_meters":7200,"station_id":"ce4bhhh2rcd13ifvqfk0","pricing_plan_id":"cebpf4jnsgd1na2vs0mg"},{"bike_id":"f1554d98-cd96-4ecc-8f8a-df15611a5e4b","system_id":"levelo_inurba_marseille","lat":43.29264,"lon":5.38441,"is_reserved":false,"is_disabled":false,"rental_uris":{"android":"levelo://app?vid=f1554d98-cd96-4ecc-8f8a-df15611a5e4b","ios":"levelo://app?vid=f1554d98-cd96-4ecc-8f8a-df15611a5e4b"},"vehicle_type_id":"4","last_reported":1774084879,"current_range_meters":8000,"station_id":"ce4bh692rcd13ifvqea0","pricing_plan_id":"cebpf4jnsgd1na2vs0mg"},{"bike_id":"5672f140-f178-4766-bb60-5301b26a0e4e","system_id":"levelo_inurba_marseille","lat":43.2849,"lon":5.4837,"is_reserved":false,"is_disabled":false,"rental_uris":{"android":"levelo://app?vid=5672f140-f178-4766-bb60-5301b26a0e4e","ios":"levelo://app?vid=5672f140-f178-4766-bb60-5301b26a0e4e"},"vehicle_type_id":"4","last_reported":1774084879,"current_range_meters":8000,"station_id":"","pricing_plan_id":"cebpf4jnsgd1na2vs0mg"},{"bike_id":"96661709-d560-4d25-9e47-20e889d1f5a1","system_id":"levelo_inurba_marseille","lat":43.2894,"lon":5.36374,"is_reserved":false,"is_disabled":false,"rental_uris":{"android":"levelo://app?vid=96661709-d560-4d25-9e47-20e889d1f5a1","ios":"levelo://app?vid=96661709-d560-4d25-9e47-20e889d1f5a1"},"vehicle_type_id":"4","last_reported":1774084879,"current_range_meters":8000,"station_id":"ce4bhc92rcd13ifvqetg","pricing_plan_id":"cebpf4jnsgd1na2vs0mg"},{"bike_id":"71389fc3-a4c3-46c5-a0f9-4330fcbb165b","system_id":"levelo_inurba_marseille","lat":43.27988,"lon":5.41062,"is_reserved":false,"is_disabled":true,"rental_uris":{"android":"levelo://app?vid=71389fc3-a4c3-46c5-a0f9-4330fcbb165b","ios":"levelo://app?vid=71389fc3-a4c3-46c5-a0f9-4330fcbb165b"},"vehicle_type_id":"4","last_reported":1774084879,"current_range_meters":8000,"station_id":"ce4bhnp2rcd13ifvqh0g","pricing_plan_id":"cebpf4jnsgd1na2vs0mg"},{"bike_id":"63cda11a-b52e-45b3-9876-91b0e59b9a05","system_id":"levelo_inurba_marseille","lat":43.25809,"lon":5.39406,"is_reserved":false,"is_disabled":false,"rental_uris":{"android":"levelo://app?vid=63cda11a-b52e-45b3-9876-91b0e59b9a05","ios":"levelo://app?vid=63cda11a-b52e-45b3-9876-91b0e59b9a05"},"vehicle_type_id":"4","last_reported":1774084879,"current_range_meters":8000,"station_id":"ce4bhip2rcd13ifvqft0","pricing_plan_id":"cebpf4jnsgd1na2vs0mg"},{"bike_id":"933eeb7a-010b-4d86-84d5-89001e6729d6","system_id":"levelo_inurba_marseille","lat":43.27223,"lon":5.39201,"is_reserved":false,"is_disabled":false,"rental_uris":{"android":"levelo://app?vid=933eeb7a-010b-4d86-84d5-89001e6729d6","ios":"levelo://app?vid=933eeb7a-010b-4d86-84d5-89001e6729d6"},"vehicle_type_id":"4","last_reported":1774084879,"current_range_meters":8000,"station_id":"ce4bhhp2rcd13ifvqfm0","pricing_plan_id":"cebpf4jnsgd1na2vs0mg"},{"bike_id":"9fc3100e-4d82-48d6-89bc-f6f291702956","system_id":"levelo_inurba_marseille","lat":43.31762,"lon":5.38993,"is_reserved":false,"is_disabled":false,"rental_uris":{"android":"levelo://app?vid=9fc3100e-4d82-48d6-89bc-f6f291702956","ios":"levelo://app?vid=9fc3100e-4d82-48d6-89bc-f6f291702956"},"vehicle_type_id":"4","last_reported":1774084879,"current_range_meters":8000,"station_id":"ce4bhqp2rcd13ifvqhng","pricing_plan_id":"cebpf4jnsgd1na2vs0mg"},{"bike_id":"24019635-ea1a-4480-86f2-0e1d1bfa1d44","system_id":"levelo_inurba_marseille","lat":43.31063,"lon":5.37173,"is_reserved":false,"is_disabled":false,"rental_uris":{"android":"levelo://app?vid=24019635-ea1a-4480-86f2-0e1d1bfa1d44","ios":"levelo://app?vid=24019635-ea1a-4480-86f2-0e1d1bfa1d44"},"vehicle_type_id":"4","last_reported":1774084879,"current_range_meters":8000,"station_id":"st_d4kl2rp97mjs73e7tdfg","pricing_plan_id":"cebpf4jnsgd1na2vs0mg"},{"bike_id":"233dbf6d-4647-43f1-b294-b437351b9958","system_id":"levelo_inurba_marseille","lat":43.24684,"lon":5.38136,"is_reserved":false,"is_disabled":false,"rental_uris":{"android":"levelo://app?vid=233dbf6d-4647-43f1-b294-b437351b9958","ios":"levelo://app?vid=233dbf6d-4647-43f1-b294-b437351b9958"},"vehicle_type_id":"4","last_reported":1774084879,"current_range_meters":8000,"station_id":"ce4bhih2rcd13ifvqfr0","pricing_plan_id":"cebpf4jnsgd1na2vs0mg"},{"bike_id":"bbdddb31-e2a4-4269-aa30-a071bab4d5ac","system_id":"levelo_inurba_marseille","lat":43.25795,"lon":5.38575,"is_reserved":false,"is_disabled":false,"rental_uris":{"android":"levelo://app?vid=bbdddb31-e2a4-4269-aa30-a071bab4d5ac","ios":"levelo://app?vid=bbdddb31-e2a4-4269-aa30-a071bab4d5ac"},"vehicle_type_id":"4","last_reported":1774084879,"current_range_meters":8000,"station_id":"","pricing_plan_id":"cebpf4jnsgd1na2vs0mg"},{"bike_id":"5823234a-ebe5-4f73-a6ca-e22e8e37fb65","system_id":"levelo_inurba_marseille","lat":43.30786,"lon":5.37645,"is_reserved":false,"is_disabled":false,"rental_uris":{"android":"levelo://app?vid=5823234a-ebe5-4f73-a6ca-e22e8e37fb65","ios":"levelo://app?vid=5823234a-ebe5-4f73-a6ca-e22e8e37fb65"},"vehicle_type_id":"4","last_reported":1774084879,"current_range_meters":8000,"station_id":"ce4bgv92rcd13ifvqcq0","pricing_plan_id":"cebpf4jnsgd1na2vs0mg"},{"bike_id":"16fe25c4-6472-47d6-882b-5ff94101fa7d","system_id":"levelo_inurba_marseille","lat":43.21204,"lon":5.35064,"is_reserved":false,"is_disabled":false,"rental_uris":{"android":"levelo://app?vid=16fe25c4-6472-47d6-882b-5ff94101fa7d","ios":"levelo://app?vid=16fe25c4-6472-47d6-882b-5ff94101fa7d"},"vehicle_type_id":"4","last_reported":1774084879,"current_range_meters":8000,"station_id":"st_cvj6sg6p6f1abm77japg","pricing_plan_id":"cebpf4jnsgd1na2vs0mg"},{"bike_id":"3a69dd93-fcb0-4356-afaf-6f3063b4d56e","system_id":"levelo_inurba_marseille","lat":43.30158,"lon":5.38074,"is_reserved":false,"is_disabled":false,"rental_uris":{"android":"levelo://app?vid=3a69dd93-fcb0-4356-afaf-6f3063b4d56e","ios":"levelo://app?vid=3a69dd93-fcb0-4356-afaf-6f3063b4d56e"},"vehicle_type_id":"4","last_reported":1774084879,"current_range_meters":8000,"station_id":"ce4bgjp2rcd13ifvqbh0","pricing_plan_id":"cebpf4jnsgd1na2vs0mg"},{"bike_id":"7ee36349-7f69-4e6e-b197-7105e88db474","system_id":"levelo_inurba_marseille","lat":43.28075,"lon":5.39644,"is_reserved":false,"is_disabled":false,"rental_uris":{"android":"levelo://app?vid=7ee36349-7f69-4e6e-b197-7105e88db474","ios":"levelo://app?vid=7ee36349-7f69-4e6e-b197-7105e88db474"},"vehicle_type_id":"4","last_reported":1774084879,"current_range_meters":8000,"station_id":"ce4bho12rcd13ifvqh2g","pricing_plan_id":"cebpf4jnsgd1na2vs0mg"},{"bike_id":"3727d6e3-4577-49ea-959e-93a5e09450a3","system_id":"levelo_inurba_marseille","lat":43.3142,"lon":5.4006,"is_reserved":false,"is_disabled":false,"rental_uris":{"android":"levelo://app?vid=3727d6e3-4577-49ea-959e-93a5e09450a3","ios":"levelo://app?vid=3727d6e3-4577-49ea-959e-93a5e09450a3"},"vehicle_type_id":"4","last_reported":1774084879,"current_range_meters":8000,"station_id":"","pricing_plan_id":"cebpf4jnsgd1na2vs0mg"},{"bike_id":"37fd8b91-bebb-483f-9ede-850904204da2","system_id":"levelo_inurba_marseille","lat":43.3343,"lon":5.35671,"is_reserved":false,"is_disabled":false,"rental_uris":{"android":"levelo://app?vid=37fd8b91-bebb-483f-9ede-850904204da2","ios":"levelo://app?vid=37fd8b91-bebb-483f-9ede-850904204da2"},"vehicle_type_id":"4","last_reported":1774084879,"current_range_meters":8000,"station_id":"","pricing_plan_id":"cebpf4jnsgd1na2vs0mg"},{"bike_id":"ed8502d2-5248-44b9-8493-d669e884c4f2","system_id":"levelo_inurba_marseille","lat":43.21203,"lon":5.35106,"is_reserved":false,"is_disabled":false,"rental_uris":{"android":"levelo://app?vid=ed8502d2-5248-44b9-8493-d669e884c4f2","ios":"levelo://app?vid=ed8502d2-5248-44b9-8493-d669e884c4f2"},"vehicle_type_id":"4","last_reported":1774084879,"current_range_meters":8000,"station_id":"st_cvj6sg6p6f1abm77japg","pricing_plan_id":"cebpf4jnsgd1na2vs0mg"},{"bike_id":"01701e05-f3fc-4553-ab75-a9684624e160","system_id":"levelo_inurba_marseille","lat":43.30378,"lon":5.42515,"is_reserved":false,"is_disabled":false,"rental_uris":{"android":"levelo://app?vid=01701e05-f3fc-4553-ab75-a9684624e160","ios":"levelo://app?vid=01701e05-f3fc-4553-ab75-a9684624e160"},"vehicle_type_id":"4","last_reported":1774084879,"current_range_meters":8000,"station_id":"ce4bhoh2rcd13ifvqh6g","pricing_plan_id":"cebpf4jnsgd1na2vs0mg"},{"bike_id":"7da875a9-d5e7-4431-ad5a-b5896a32396f","system_id":"levelo_inurba_marseille","lat":43.28609,"lon":5.39886,"is_reserved":false,"is_disabled":false,"rental_uris":{"android":"levelo://app?vid=7da875a9-d5e7-4431-ad5a-b5896a32396f","ios":"levelo://app?vid=7da875a9-d5e7-4431-ad5a-b5896a32396f"},"vehicle_type_id":"4","last_reported":1774084879,"current_range_meters":8000,"station_id":"st_d4a7ka997mjs738ck50g","pricing_plan_id":"cebpf4jnsgd1na2vs0mg"},{"bike_id":"fdd2e384-ed3c-4de4-a253-6ee51b044b15","system_id":"levelo_inurba_marseille","lat":43.28999,"lon":5.35596,"is_reserved":false,"is_disabled":false,"rental_uris":{"android":"levelo://app?vid=fdd2e384-ed3c-4de4-a253-6ee51b044b15","ios":"levelo://app?vid=fdd2e384-ed3c-4de4-a253-6ee51b044b15"},"vehicle_type_id":"4","last_reported":1774084879,"current_range_meters":8000,"station_id":"ce4bhb92rcd13ifvqen0","pricing_plan_id":"cebpf4jnsgd1na2vs0mg"},{"bike_id":"b87d7938-28e4-46e7-994e-fdebd5392225","system_id":"levelo_inurba_marseille","lat":43.32134,"lon":5.36753,"is_reserved":false,"is_disabled":false,"rental_uris":{"android":"levelo://app?vid=b87d7938-28e4-46e7-994e-fdebd5392225","ios":"levelo://app?vid=b87d7938-28e4-46e7-994e-fdebd5392225"},"vehicle_type_id":"4","last_reported":1774084879,"current_range_meters":8000,"station_id":"","pricing_plan_id":"cebpf4jnsgd1na2vs0mg"},{"bike_id":"1e2adf88-445c-456f-86cd-d597e20a289e","system_id":"levelo_inurba_marseille","lat":43.29041,"lon":5.35888,"is_reserved":false,"is_disabled":false,"rental_uris":{"android":"levelo://app?vid=1e2adf88-445c-456f-86cd-d597e20a289e","ios":"levelo://app?vid=1e2adf88-445c-456f-86cd-d597e20a289e"},"vehicle_type_id":"4","last_reported":1774084879,"current_range_meters":8400,"station_id":"ce4bha92rcd13ifvqeg0","pricing_plan_id":"cebpf4jnsgd1na2vs0mg"},{"bike_id":"36750a5a-e715-404b-ab4e-4dfa557014c3","system_id":"levelo_inurba_marseille","lat":43.24463,"lon":5.4254,"is_reserved":false,"is_disabled":false,"rental_uris":{"android":"levelo://app?vid=36750a5a-e715-404b-ab4e-4dfa557014c3","ios":"levelo://app?vid=36750a5a-e715-404b-ab4e-4dfa557014c3"},"vehicle_type_id":"4","last_reported":1774084879,"current_range_meters":8400,"station_id":"st_d4a3vfp97mjs738cd8kg","pricing_plan_id":"cebpf4jnsgd1na2vs0mg"},{"bike_id":"2c8d5c30-577d-4925-9767-a3e8a27bf5b4","system_id":"levelo_inurba_marseille","lat":43.24045,"lon":5.3894,"is_reserved":false,"is_disabled":false,"rental_uris":{"android":"levelo://app?vid=2c8d5c30-577d-4925-9767-a3e8a27bf5b4","ios":"levelo://app?vid=2c8d5c30-577d-4925-9767-a3e8a27bf5b4"},"vehicle_type_id":"4","last_reported":1774084879,"current_range_meters":8400,"station_id":"","pricing_plan_id":"cebpf4jnsgd1na2vs0mg"},{"bike_id":"4a501649-1ae3-4f13-916a-d9d0102c5c57","system_id":"levelo_inurba_marseille","lat":43.22926,"lon":5.35388,"is_reserved":false,"is_disabled":false,"rental_uris":{"android":"levelo://app?vid=4a501649-1ae3-4f13-916a-d9d0102c5c57","ios":"levelo://app?vid=4a501649-1ae3-4f13-916a-d9d0102c5c57"},"vehicle_type_id":"4","last_reported":1774084879,"current_range_meters":8400,"station_id":"cpo3532slgdg3j2ikp40","pricing_plan_id":"cebpf4jnsgd1na2vs0mg"},{"bike_id":"df5ad533-8354-43dd-b4db-d4118becde63","system_id":"levelo_inurba_marseille","lat":43.28523,"lon":5.48316,"is_reserved":false,"is_disabled":false,"rental_uris":{"android":"levelo://app?vid=df5ad533-8354-43dd-b4db-d4118becde63","ios":"levelo://app?vid=df5ad533-8354-43dd-b4db-d4118becde63"},"vehicle_type_id":"4","last_reported":1774084879,"current_range_meters":8400,"station_id":"","pricing_plan_id":"cebpf4jnsgd1na2vs0mg"},{"bike_id":"afb19150-c761-4005-b74f-fc14737fc6b6","system_id":"levelo_inurba_marseille","lat":43.30153,"lon":5.3807,"is_reserved":false,"is_disabled":false,"rental_uris":{"android":"levelo://app?vid=afb19150-c761-4005-b74f-fc14737fc6b6","ios":"levelo://app?vid=afb19150-c761-4005-b74f-fc14737fc6b6"},"vehicle_type_id":"4","last_reported":1774084879,"current_range_meters":8400,"station_id":"ce4bgjp2rcd13ifvqbh0","pricing_plan_id":"cebpf4jnsgd1na2vs0mg"},{"bike_id":"15fb4bb8-4c0f-4ee3-a727-89e0f28d0a52","system_id":"levelo_inurba_marseille","lat":43.23797,"lon":5.36602,"is_reserved":false,"is_disabled":false,"rental_uris":{"android":"levelo://app?vid=15fb4bb8-4c0f-4ee3-a727-89e0f28d0a52","ios":"levelo://app?vid=15fb4bb8-4c0f-4ee3-a727-89e0f28d0a52"},"vehicle_type_id":"4","last_reported":1774084879,"current_range_meters":8400,"station_id":"st_d3nk18o9ro0c73en2l3g","pricing_plan_id":"cebpf4jnsgd1na2vs0mg"},{"bike_id":"e6891690-fe34-45fb-a32c-441c0f0b3887","system_id":"levelo_inurba_marseille","lat":43.23198,"lon":5.35561,"is_reserved":false,"is_disabled":false,"rental_uris":{"android":"levelo://app?vid=e6891690-fe34-45fb-a32c-441c0f0b3887","ios":"levelo://app?vid=e6891690-fe34-45fb-a32c-441c0f0b3887"},"vehicle_type_id":"4","last_reported":1774084879,"current_range_meters":8400,"station_id":"ce4bhu92rcd13ifvqi70","pricing_plan_id":"cebpf4jnsgd1na2vs0mg"},{"bike_id":"5b1c035b-7861-4232-8522-9ed56f3b7768","system_id":"levelo_inurba_marseille","lat":43.2964,"lon":5.37212,"is_reserved":false,"is_disabled":false,"rental_uris":{"android":"levelo://app?vid=5b1c035b-7861-4232-8522-9ed56f3b7768","ios":"levelo://app?vid=5b1c035b-7861-4232-8522-9ed56f3b7768"},"vehicle_type_id":"4","last_reported":1774084879,"current_range_meters":8400,"station_id":"","pricing_plan_id":"cebpf4jnsgd1na2vs0mg"},{"bike_id":"55ec694a-4d13-442c-981f-40b12a44db63","system_id":"levelo_inurba_marseille","lat":43.28132,"lon":5.42666,"is_reserved":false,"is_disabled":false,"rental_uris":{"android":"levelo://app?vid=55ec694a-4d13-442c-981f-40b12a44db63","ios":"levelo://app?vid=55ec694a-4d13-442c-981f-40b12a44db63"},"vehicle_type_id":"4","last_reported":1774084879,"current_range_meters":8400,"station_id":"ce4bhnh2rcd13ifvqgug","pricing_plan_id":"cebpf4jnsgd1na2vs0mg"},{"bike_id":"d9a2340f-4dc0-456b-89f0-454af4d93a65","system_id":"levelo_inurba_marseille","lat":43.28509,"lon":5.35116,"is_reserved":false,"is_disabled":false,"rental_uris":{"android":"levelo://app?vid=d9a2340f-4dc0-456b-89f0-454af4d93a65","ios":"levelo://app?vid=d9a2340f-4dc0-456b-89f0-454af4d93a65"},"vehicle_type_id":"4","last_reported":1774084879,"current_range_meters":8400,"station_id":"","pricing_plan_id":"cebpf4jnsgd1na2vs0mg"},{"bike_id":"ba2f8fd0-11ac-4347-b470-23519177c832","system_id":"levelo_inurba_marseille","lat":43.2981,"lon":5.43951,"is_reserved":false,"is_disabled":false,"rental_uris":{"android":"levelo://app?vid=ba2f8fd0-11ac-4347-b470-23519177c832","ios":"levelo://app?vid=ba2f8fd0-11ac-4347-b470-23519177c832"},"vehicle_type_id":"4","last_reported":1774084879,"current_range_meters":8400,"station_id":"st_d3jp68qikq2c7381ktn0","pricing_plan_id":"cebpf4jnsgd1na2vs0mg"},{"bike_id":"bb64248e-0e5d-4ee1-9d8f-d48a0dd77d66","system_id":"levelo_inurba_marseille","lat":43.21629,"lon":5.34488,"is_reserved":false,"is_disabled":false,"rental_uris":{"android":"levelo://app?vid=bb64248e-0e5d-4ee1-9d8f-d48a0dd77d66","ios":"levelo://app?vid=bb64248e-0e5d-4ee1-9d8f-d48a0dd77d66"},"vehicle_type_id":"4","last_reported":1774084879,"current_range_meters":8400,"station_id":"","pricing_plan_id":"cebpf4jnsgd1na2vs0mg"},{"bike_id":"b41295d4-f91d-409d-a4fc-3ec541f47d15","system_id":"levelo_inurba_marseille","lat":43.2439,"lon":5.37046,"is_reserved":false,"is_disabled":false,"rental_uris":{"android":"levelo://app?vid=b41295d4-f91d-409d-a4fc-3ec541f47d15","ios":"levelo://app?vid=b41295d4-f91d-409d-a4fc-3ec541f47d15"},"vehicle_type_id":"4","last_reported":1774084879,"current_range_meters":8400,"station_id":"ce4bhhh2rcd13ifvqfk0","pricing_plan_id":"cebpf4jnsgd1na2vs0mg"},{"bike_id":"42756e7d-c4cb-4732-87c5-fa47a18edca4","system_id":"levelo_inurba_marseille","lat":43.26591,"lon":5.39025,"is_reserved":false,"is_disabled":true,"rental_uris":{"android":"levelo://app?vid=42756e7d-c4cb-4732-87c5-fa47a18edca4","ios":"levelo://app?vid=42756e7d-c4cb-4732-87c5-fa47a18edca4"},"vehicle_type_id":"4","last_reported":1774084879,"current_range_meters":8400,"station_id":"ce4bhe12rcd13ifvqf30","pricing_plan_id":"cebpf4jnsgd1na2vs0mg"},{"bike_id":"c95d4be4-44e7-4527-bfe3-12e9cbbc5f78","system_id":"levelo_inurba_marseille","lat":43.30563,"lon":5.365718,"is_reserved":false,"is_disabled":false,"rental_uris":{"android":"levelo://app?vid=c95d4be4-44e7-4527-bfe3-12e9cbbc5f78","ios":"levelo://app?vid=c95d4be4-44e7-4527-bfe3-12e9cbbc5f78"},"vehicle_type_id":"4","last_reported":1774084879,"current_range_meters":8800,"station_id":"ce4bgs12rcd13ifvqcag","pricing_plan_id":"cebpf4jnsgd1na2vs0mg"},{"bike_id":"0f1600cf-6373-4569-a544-0b58888ac69a","system_id":"levelo_inurba_marseille","lat":43.24551,"lon":5.39522,"is_reserved":false,"is_disabled":false,"rental_uris":{"android":"levelo://app?vid=0f1600cf-6373-4569-a544-0b58888ac69a","ios":"levelo://app?vid=0f1600cf-6373-4569-a544-0b58888ac69a"},"vehicle_type_id":"4","last_reported":1774084879,"current_range_meters":8800,"station_id":"ce4bhlp2rcd13ifvqgjg","pricing_plan_id":"cebpf4jnsgd1na2vs0mg"},{"bike_id":"94fffad1-2fce-418d-8e84-dc141bfa239b","system_id":"levelo_inurba_marseille","lat":43.29679,"lon":5.37738,"is_reserved":false,"is_disabled":false,"rental_uris":{"android":"levelo://app?vid=94fffad1-2fce-418d-8e84-dc141bfa239b","ios":"levelo://app?vid=94fffad1-2fce-418d-8e84-dc141bfa239b"},"vehicle_type_id":"4","last_reported":1774084879,"current_range_meters":8800,"station_id":"","pricing_plan_id":"cebpf4jnsgd1na2vs0mg"},{"bike_id":"49095bc4-1f7c-4bd7-9170-e5e89b519f43","system_id":"levelo_inurba_marseille","lat":43.29275,"lon":5.36845,"is_reserved":false,"is_disabled":false,"rental_uris":{"android":"levelo://app?vid=49095bc4-1f7c-4bd7-9170-e5e89b519f43","ios":"levelo://app?vid=49095bc4-1f7c-4bd7-9170-e5e89b519f43"},"vehicle_type_id":"4","last_reported":1774084879,"current_range_meters":8800,"station_id":"ce4bhbp2rcd13ifvqesg","pricing_plan_id":"cebpf4jnsgd1na2vs0mg"},{"bike_id":"72cc7648-7442-4e35-ba43-2fa9934a1b8c","system_id":"levelo_inurba_marseille","lat":43.30149,"lon":5.38085,"is_reserved":false,"is_disabled":false,"rental_uris":{"android":"levelo://app?vid=72cc7648-7442-4e35-ba43-2fa9934a1b8c","ios":"levelo://app?vid=72cc7648-7442-4e35-ba43-2fa9934a1b8c"},"vehicle_type_id":"4","last_reported":1774084879,"current_range_meters":8800,"station_id":"ce4bgjp2rcd13ifvqbh0","pricing_plan_id":"cebpf4jnsgd1na2vs0mg"},{"bike_id":"3a538506-23da-4dbf-9552-9a8359966b73","system_id":"levelo_inurba_marseille","lat":43.25607,"lon":5.38204,"is_reserved":false,"is_disabled":false,"rental_uris":{"android":"levelo://app?vid=3a538506-23da-4dbf-9552-9a8359966b73","ios":"levelo://app?vid=3a538506-23da-4dbf-9552-9a8359966b73"},"vehicle_type_id":"4","last_reported":1774084879,"current_range_meters":8800,"station_id":"ce4bhih2rcd13ifvqfs0","pricing_plan_id":"cebpf4jnsgd1na2vs0mg"},{"bike_id":"881552ad-57ca-4484-9a05-f159c58f50d9","system_id":"levelo_inurba_marseille","lat":43.31769,"lon":5.38691,"is_reserved":false,"is_disabled":false,"rental_uris":{"android":"levelo://app?vid=881552ad-57ca-4484-9a05-f159c58f50d9","ios":"levelo://app?vid=881552ad-57ca-4484-9a05-f159c58f50d9"},"vehicle_type_id":"4","last_reported":1774084879,"current_range_meters":8800,"station_id":"","pricing_plan_id":"cebpf4jnsgd1na2vs0mg"},{"bike_id":"703efbe1-feef-417d-a9e3-0fca1a7eab74","system_id":"levelo_inurba_marseille","lat":43.34963,"lon":5.37928,"is_reserved":false,"is_disabled":false,"rental_uris":{"android":"levelo://app?vid=703efbe1-feef-417d-a9e3-0fca1a7eab74","ios":"levelo://app?vid=703efbe1-feef-417d-a9e3-0fca1a7eab74"},"vehicle_type_id":"4","last_reported":1774084879,"current_range_meters":8800,"station_id":"","pricing_plan_id":"cebpf4jnsgd1na2vs0mg"},{"bike_id":"efe4b101-a4c2-4a36-bd51-36393273087f","system_id":"levelo_inurba_marseille","lat":43.28487,"lon":5.48411,"is_reserved":false,"is_disabled":false,"rental_uris":{"android":"levelo://app?vid=efe4b101-a4c2-4a36-bd51-36393273087f","ios":"levelo://app?vid=efe4b101-a4c2-4a36-bd51-36393273087f"},"vehicle_type_id":"4","last_reported":1774084879,"current_range_meters":8800,"station_id":"","pricing_plan_id":"cebpf4jnsgd1na2vs0mg"},{"bike_id":"d0b715f5-b410-4542-aa2d-7caf4bb72688","system_id":"levelo_inurba_marseille","lat":43.27177,"lon":5.42247,"is_reserved":false,"is_disabled":false,"rental_uris":{"android":"levelo://app?vid=d0b715f5-b410-4542-aa2d-7caf4bb72688","ios":"levelo://app?vid=d0b715f5-b410-4542-aa2d-7caf4bb72688"},"vehicle_type_id":"4","last_reported":1774084879,"current_range_meters":8800,"station_id":"","pricing_plan_id":"cebpf4jnsgd1na2vs0mg"},{"bike_id":"4ba1b9f6-07de-4535-8bd4-47937fb9555a","system_id":"levelo_inurba_marseille","lat":43.3016,"lon":5.3808,"is_reserved":false,"is_disabled":false,"rental_uris":{"android":"levelo://app?vid=4ba1b9f6-07de-4535-8bd4-47937fb9555a","ios":"levelo://app?vid=4ba1b9f6-07de-4535-8bd4-47937fb9555a"},"vehicle_type_id":"4","last_reported":1774084879,"current_range_meters":8800,"station_id":"ce4bgjp2rcd13ifvqbh0","pricing_plan_id":"cebpf4jnsgd1na2vs0mg"},{"bike_id":"b6d1b705-250e-4beb-ab4e-c1caeb2386e3","system_id":"levelo_inurba_marseille","lat":43.28574,"lon":5.44082,"is_reserved":false,"is_disabled":false,"rental_uris":{"android":"levelo://app?vid=b6d1b705-250e-4beb-ab4e-c1caeb2386e3","ios":"levelo://app?vid=b6d1b705-250e-4beb-ab4e-c1caeb2386e3"},"vehicle_type_id":"4","last_reported":1774084879,"current_range_meters":8800,"station_id":"st_d3j3df2ikq2c7380ej80","pricing_plan_id":"cebpf4jnsgd1na2vs0mg"},{"bike_id":"6a0e5f42-628b-49f9-be58-7186fc3dc8d5","system_id":"levelo_inurba_marseille","lat":43.23054,"lon":5.35495,"is_reserved":false,"is_disabled":false,"rental_uris":{"android":"levelo://app?vid=6a0e5f42-628b-49f9-be58-7186fc3dc8d5","ios":"levelo://app?vid=6a0e5f42-628b-49f9-be58-7186fc3dc8d5"},"vehicle_type_id":"4","last_reported":1774084879,"current_range_meters":9200,"station_id":"cpo3342slgdg3j2ifvpg","pricing_plan_id":"cebpf4jnsgd1na2vs0mg"},{"bike_id":"f84df946-1fe9-4d68-b54f-3a23cc20fde7","system_id":"levelo_inurba_marseille","lat":43.29896,"lon":5.42099,"is_reserved":false,"is_disabled":false,"rental_uris":{"android":"levelo://app?vid=f84df946-1fe9-4d68-b54f-3a23cc20fde7","ios":"levelo://app?vid=f84df946-1fe9-4d68-b54f-3a23cc20fde7"},"vehicle_type_id":"4","last_reported":1774084879,"current_range_meters":9200,"station_id":"st_d6tc004otcvc738tfe70","pricing_plan_id":"cebpf4jnsgd1na2vs0mg"},{"bike_id":"79f442fd-5235-475f-8755-05bf15c31f5d","system_id":"levelo_inurba_marseille","lat":43.30391,"lon":5.42485,"is_reserved":false,"is_disabled":false,"rental_uris":{"android":"levelo://app?vid=79f442fd-5235-475f-8755-05bf15c31f5d","ios":"levelo://app?vid=79f442fd-5235-475f-8755-05bf15c31f5d"},"vehicle_type_id":"4","last_reported":1774084879,"current_range_meters":9200,"station_id":"ce4bhoh2rcd13ifvqh6g","pricing_plan_id":"cebpf4jnsgd1na2vs0mg"},{"bike_id":"b19a626a-93cd-41bf-8d4f-8b63d7aeec08","system_id":"levelo_inurba_marseille","lat":43.30131,"lon":5.43891,"is_reserved":false,"is_disabled":false,"rental_uris":{"android":"levelo://app?vid=b19a626a-93cd-41bf-8d4f-8b63d7aeec08","ios":"levelo://app?vid=b19a626a-93cd-41bf-8d4f-8b63d7aeec08"},"vehicle_type_id":"4","last_reported":1774084879,"current_range_meters":9200,"station_id":"","pricing_plan_id":"cebpf4jnsgd1na2vs0mg"},{"bike_id":"762d6c95-cc03-459c-99b6-2d43e7f2eee3","system_id":"levelo_inurba_marseille","lat":43.3038,"lon":5.42477,"is_reserved":false,"is_disabled":false,"rental_uris":{"android":"levelo://app?vid=762d6c95-cc03-459c-99b6-2d43e7f2eee3","ios":"levelo://app?vid=762d6c95-cc03-459c-99b6-2d43e7f2eee3"},"vehicle_type_id":"4","last_reported":1774084879,"current_range_meters":9200,"station_id":"ce4bhoh2rcd13ifvqh6g","pricing_plan_id":"cebpf4jnsgd1na2vs0mg"},{"bike_id":"e9216789-2da6-4ca9-9883-2c1c48487abb","system_id":"levelo_inurba_marseille","lat":43.29243,"lon":5.36894,"is_reserved":false,"is_disabled":false,"rental_uris":{"android":"levelo://app?vid=e9216789-2da6-4ca9-9883-2c1c48487abb","ios":"levelo://app?vid=e9216789-2da6-4ca9-9883-2c1c48487abb"},"vehicle_type_id":"4","last_reported":1774084879,"current_range_meters":9200,"station_id":"","pricing_plan_id":"cebpf4jnsgd1na2vs0mg"},{"bike_id":"5369d941-756a-4a39-ae59-10b7c47d2be3","system_id":"levelo_inurba_marseille","lat":43.31052,"lon":5.37174,"is_reserved":false,"is_disabled":false,"rental_uris":{"android":"levelo://app?vid=5369d941-756a-4a39-ae59-10b7c47d2be3","ios":"levelo://app?vid=5369d941-756a-4a39-ae59-10b7c47d2be3"},"vehicle_type_id":"4","last_reported":1774084879,"current_range_meters":9200,"station_id":"st_d4kl2rp97mjs73e7tdfg","pricing_plan_id":"cebpf4jnsgd1na2vs0mg"},{"bike_id":"6c1ac590-511b-4ef3-b19a-055f363bbc14","system_id":"levelo_inurba_marseille","lat":43.29888,"lon":5.43658,"is_reserved":false,"is_disabled":false,"rental_uris":{"android":"levelo://app?vid=6c1ac590-511b-4ef3-b19a-055f363bbc14","ios":"levelo://app?vid=6c1ac590-511b-4ef3-b19a-055f363bbc14"},"vehicle_type_id":"4","last_reported":1774084879,"current_range_meters":9200,"station_id":"ce4bhpp2rcd13ifvqhfg","pricing_plan_id":"cebpf4jnsgd1na2vs0mg"},{"bike_id":"7755de4e-b7dd-4e22-acde-1bbb25001c61","system_id":"levelo_inurba_marseille","lat":43.30384,"lon":5.42475,"is_reserved":false,"is_disabled":false,"rental_uris":{"android":"levelo://app?vid=7755de4e-b7dd-4e22-acde-1bbb25001c61","ios":"levelo://app?vid=7755de4e-b7dd-4e22-acde-1bbb25001c61"},"vehicle_type_id":"4","last_reported":1774084879,"current_range_meters":9600,"station_id":"ce4bhoh2rcd13ifvqh6g","pricing_plan_id":"cebpf4jnsgd1na2vs0mg"},{"bike_id":"718f9d6d-764e-4e13-bc65-ad368fbc290e","system_id":"levelo_inurba_marseille","lat":43.24459,"lon":5.42492,"is_reserved":false,"is_disabled":false,"rental_uris":{"android":"levelo://app?vid=718f9d6d-764e-4e13-bc65-ad368fbc290e","ios":"levelo://app?vid=718f9d6d-764e-4e13-bc65-ad368fbc290e"},"vehicle_type_id":"4","last_reported":1774084879,"current_range_meters":9600,"station_id":"","pricing_plan_id":"cebpf4jnsgd1na2vs0mg"},{"bike_id":"62ccf4a8-0426-42c8-92c7-60b92e2221c9","system_id":"levelo_inurba_marseille","lat":43.28492,"lon":5.48393,"is_reserved":false,"is_disabled":false,"rental_uris":{"android":"levelo://app?vid=62ccf4a8-0426-42c8-92c7-60b92e2221c9","ios":"levelo://app?vid=62ccf4a8-0426-42c8-92c7-60b92e2221c9"},"vehicle_type_id":"4","last_reported":1774084879,"current_range_meters":9600,"station_id":"","pricing_plan_id":"cebpf4jnsgd1na2vs0mg"},{"bike_id":"8483590a-6638-4043-bcac-eeb4f21b85fa","system_id":"levelo_inurba_marseille","lat":43.26217,"lon":5.37438,"is_reserved":false,"is_disabled":false,"rental_uris":{"android":"levelo://app?vid=8483590a-6638-4043-bcac-eeb4f21b85fa","ios":"levelo://app?vid=8483590a-6638-4043-bcac-eeb4f21b85fa"},"vehicle_type_id":"4","last_reported":1774084879,"current_range_meters":9600,"station_id":"ce4bhgp2rcd13ifvqfc0","pricing_plan_id":"cebpf4jnsgd1na2vs0mg"},{"bike_id":"34c091fc-8184-4773-bd2e-dd88d75d3a2c","system_id":"levelo_inurba_marseille","lat":43.25761,"lon":5.37641,"is_reserved":false,"is_disabled":false,"rental_uris":{"android":"levelo://app?vid=34c091fc-8184-4773-bd2e-dd88d75d3a2c","ios":"levelo://app?vid=34c091fc-8184-4773-bd2e-dd88d75d3a2c"},"vehicle_type_id":"4","last_reported":1774084879,"current_range_meters":9600,"station_id":"","pricing_plan_id":"cebpf4jnsgd1na2vs0mg"},{"bike_id":"1c9036cc-ff83-4723-989d-e9f822bea820","system_id":"levelo_inurba_marseille","lat":43.29198,"lon":5.3933,"is_reserved":false,"is_disabled":false,"rental_uris":{"android":"levelo://app?vid=1c9036cc-ff83-4723-989d-e9f822bea820","ios":"levelo://app?vid=1c9036cc-ff83-4723-989d-e9f822bea820"},"vehicle_type_id":"4","last_reported":1774084879,"current_range_meters":9600,"station_id":"ce4bh192rcd13ifvqdd0","pricing_plan_id":"cebpf4jnsgd1na2vs0mg"},{"bike_id":"f4ab0de3-dc79-4a98-80e3-f7a89f7628b3","system_id":"levelo_inurba_marseille","lat":43.2918,"lon":5.37172,"is_reserved":false,"is_disabled":false,"rental_uris":{"android":"levelo://app?vid=f4ab0de3-dc79-4a98-80e3-f7a89f7628b3","ios":"levelo://app?vid=f4ab0de3-dc79-4a98-80e3-f7a89f7628b3"},"vehicle_type_id":"4","last_reported":1774084879,"current_range_meters":9600,"station_id":"ce4bha92rcd13ifvqeh0","pricing_plan_id":"cebpf4jnsgd1na2vs0mg"},{"bike_id":"503df8da-9118-4827-9af8-3aebdb519853","system_id":"levelo_inurba_marseille","lat":43.22566,"lon":5.41632,"is_reserved":false,"is_disabled":false,"rental_uris":{"android":"levelo://app?vid=503df8da-9118-4827-9af8-3aebdb519853","ios":"levelo://app?vid=503df8da-9118-4827-9af8-3aebdb519853"},"vehicle_type_id":"4","last_reported":1774084879,"current_range_meters":9600,"station_id":"st_d2o4gvlbi1j2169b742g","pricing_plan_id":"cebpf4jnsgd1na2vs0mg"},{"bike_id":"d65bd890-bd76-40b1-a464-add252f480e6","system_id":"levelo_inurba_marseille","lat":43.31736,"lon":5.38999,"is_reserved":false,"is_disabled":false,"rental_uris":{"android":"levelo://app?vid=d65bd890-bd76-40b1-a464-add252f480e6","ios":"levelo://app?vid=d65bd890-bd76-40b1-a464-add252f480e6"},"vehicle_type_id":"4","last_reported":1774084879,"current_range_meters":9600,"station_id":"ce4bhqp2rcd13ifvqhng","pricing_plan_id":"cebpf4jnsgd1na2vs0mg"},{"bike_id":"a01071b8-3f33-4ffe-9e39-c92f5c147b32","system_id":"levelo_inurba_marseille","lat":43.24656,"lon":5.38171,"is_reserved":false,"is_disabled":false,"rental_uris":{"android":"levelo://app?vid=a01071b8-3f33-4ffe-9e39-c92f5c147b32","ios":"levelo://app?vid=a01071b8-3f33-4ffe-9e39-c92f5c147b32"},"vehicle_type_id":"4","last_reported":1774084879,"current_range_meters":9600,"station_id":"ce4bhih2rcd13ifvqfr0","pricing_plan_id":"cebpf4jnsgd1na2vs0mg"},{"bike_id":"0f513318-81f0-4e35-a6f9-2736a0c9b569","system_id":"levelo_inurba_marseille","lat":43.26552,"lon":5.37285,"is_reserved":false,"is_disabled":false,"rental_uris":{"android":"levelo://app?vid=0f513318-81f0-4e35-a6f9-2736a0c9b569","ios":"levelo://app?vid=0f513318-81f0-4e35-a6f9-2736a0c9b569"},"vehicle_type_id":"4","last_reported":1774084879,"current_range_meters":9600,"station_id":"ce4bhg12rcd13ifvqf70","pricing_plan_id":"cebpf4jnsgd1na2vs0mg"},{"bike_id":"c740e20c-eca7-406c-92dd-2b448718a645","system_id":"levelo_inurba_marseille","lat":43.28497,"lon":5.48407,"is_reserved":false,"is_disabled":false,"rental_uris":{"android":"levelo://app?vid=c740e20c-eca7-406c-92dd-2b448718a645","ios":"levelo://app?vid=c740e20c-eca7-406c-92dd-2b448718a645"},"vehicle_type_id":"4","last_reported":1774084879,"current_range_meters":9600,"station_id":"st_d3svhcjqgbts73a3dn0g","pricing_plan_id":"cebpf4jnsgd1na2vs0mg"},{"bike_id":"6a0aca4e-04d0-4c00-a6ae-bd130629c89e","system_id":"levelo_inurba_marseille","lat":43.26228,"lon":5.37437,"is_reserved":false,"is_disabled":false,"rental_uris":{"android":"levelo://app?vid=6a0aca4e-04d0-4c00-a6ae-bd130629c89e","ios":"levelo://app?vid=6a0aca4e-04d0-4c00-a6ae-bd130629c89e"},"vehicle_type_id":"4","last_reported":1774084879,"current_range_meters":9600,"station_id":"ce4bhgp2rcd13ifvqfc0","pricing_plan_id":"cebpf4jnsgd1na2vs0mg"},{"bike_id":"2198dd5a-8a9c-43a1-8743-28b676f91ab1","system_id":"levelo_inurba_marseille","lat":43.28997,"lon":5.36629,"is_reserved":false,"is_disabled":false,"rental_uris":{"android":"levelo://app?vid=2198dd5a-8a9c-43a1-8743-28b676f91ab1","ios":"levelo://app?vid=2198dd5a-8a9c-43a1-8743-28b676f91ab1"},"vehicle_type_id":"4","last_reported":1774084879,"current_range_meters":9600,"station_id":"","pricing_plan_id":"cebpf4jnsgd1na2vs0mg"},{"bike_id":"35939b35-432f-4730-9a4d-bca4477a51c8","system_id":"levelo_inurba_marseille","lat":43.32118,"lon":5.36779,"is_reserved":false,"is_disabled":false,"rental_uris":{"android":"levelo://app?vid=35939b35-432f-4730-9a4d-bca4477a51c8","ios":"levelo://app?vid=35939b35-432f-4730-9a4d-bca4477a51c8"},"vehicle_type_id":"4","last_reported":1774084879,"current_range_meters":9600,"station_id":"ce4bhrh2rcd13ifvqhug","pricing_plan_id":"cebpf4jnsgd1na2vs0mg"},{"bike_id":"1940125b-e4b1-46c4-9d1c-8fd1df759920","system_id":"levelo_inurba_marseille","lat":43.28428,"lon":5.34967,"is_reserved":false,"is_disabled":false,"rental_uris":{"android":"levelo://app?vid=1940125b-e4b1-46c4-9d1c-8fd1df759920","ios":"levelo://app?vid=1940125b-e4b1-46c4-9d1c-8fd1df759920"},"vehicle_type_id":"4","last_reported":1774084879,"current_range_meters":9600,"station_id":"ce4bhbh2rcd13ifvqepg","pricing_plan_id":"cebpf4jnsgd1na2vs0mg"},{"bike_id":"ef8cd562-295e-4308-aa28-51ee95bd4f8d","system_id":"levelo_inurba_marseille","lat":43.28173,"lon":5.42655,"is_reserved":false,"is_disabled":false,"rental_uris":{"android":"levelo://app?vid=ef8cd562-295e-4308-aa28-51ee95bd4f8d","ios":"levelo://app?vid=ef8cd562-295e-4308-aa28-51ee95bd4f8d"},"vehicle_type_id":"4","last_reported":1774084879,"current_range_meters":10000,"station_id":"ce4bhnh2rcd13ifvqgug","pricing_plan_id":"cebpf4jnsgd1na2vs0mg"},{"bike_id":"d4da46a1-3b9d-4dec-958a-07224dfcb10c","system_id":"levelo_inurba_marseille","lat":43.27312,"lon":5.39271,"is_reserved":false,"is_disabled":true,"rental_uris":{"android":"levelo://app?vid=d4da46a1-3b9d-4dec-958a-07224dfcb10c","ios":"levelo://app?vid=d4da46a1-3b9d-4dec-958a-07224dfcb10c"},"vehicle_type_id":"4","last_reported":1774084879,"current_range_meters":10000,"station_id":"","pricing_plan_id":"cebpf4jnsgd1na2vs0mg"},{"bike_id":"90a1ffc0-ede1-43be-8f41-0a916733bc1e","system_id":"levelo_inurba_marseille","lat":43.29351,"lon":5.37785,"is_reserved":false,"is_disabled":false,"rental_uris":{"android":"levelo://app?vid=90a1ffc0-ede1-43be-8f41-0a916733bc1e","ios":"levelo://app?vid=90a1ffc0-ede1-43be-8f41-0a916733bc1e"},"vehicle_type_id":"4","last_reported":1774084879,"current_range_meters":10000,"station_id":"ce4bgjh2rcd13ifvqbf0","pricing_plan_id":"cebpf4jnsgd1na2vs0mg"},{"bike_id":"88982f63-66e6-4089-8b7d-3322684bc37c","system_id":"levelo_inurba_marseille","lat":43.23154,"lon":5.43719,"is_reserved":false,"is_disabled":false,"rental_uris":{"android":"levelo://app?vid=88982f63-66e6-4089-8b7d-3322684bc37c","ios":"levelo://app?vid=88982f63-66e6-4089-8b7d-3322684bc37c"},"vehicle_type_id":"4","last_reported":1774084879,"current_range_meters":10000,"station_id":"ce4bhmp2rcd13ifvqgog","pricing_plan_id":"cebpf4jnsgd1na2vs0mg"},{"bike_id":"348b028b-7113-4df9-8c29-432c15b7b280","system_id":"levelo_inurba_marseille","lat":43.2396,"lon":5.36625,"is_reserved":false,"is_disabled":true,"rental_uris":{"android":"levelo://app?vid=348b028b-7113-4df9-8c29-432c15b7b280","ios":"levelo://app?vid=348b028b-7113-4df9-8c29-432c15b7b280"},"vehicle_type_id":"4","last_reported":1774084879,"current_range_meters":10000,"station_id":"ce4bhi12rcd13ifvqfp0","pricing_plan_id":"cebpf4jnsgd1na2vs0mg"},{"bike_id":"870b78c6-f5df-4165-a11c-29cbed3484f8","system_id":"levelo_inurba_marseille","lat":43.25807,"lon":5.39367,"is_reserved":false,"is_disabled":false,"rental_uris":{"android":"levelo://app?vid=870b78c6-f5df-4165-a11c-29cbed3484f8","ios":"levelo://app?vid=870b78c6-f5df-4165-a11c-29cbed3484f8"},"vehicle_type_id":"4","last_reported":1774084879,"current_range_meters":10000,"station_id":"","pricing_plan_id":"cebpf4jnsgd1na2vs0mg"},{"bike_id":"8294aced-9d8f-401e-9e74-4555a1438aad","system_id":"levelo_inurba_marseille","lat":43.31549,"lon":5.44553,"is_reserved":false,"is_disabled":false,"rental_uris":{"android":"levelo://app?vid=8294aced-9d8f-401e-9e74-4555a1438aad","ios":"levelo://app?vid=8294aced-9d8f-401e-9e74-4555a1438aad"},"vehicle_type_id":"4","last_reported":1774084879,"current_range_meters":10000,"station_id":"","pricing_plan_id":"cebpf4jnsgd1na2vs0mg"},{"bike_id":"f1c02f70-b1fb-452a-906b-317d88adff0b","system_id":"levelo_inurba_marseille","lat":43.24167,"lon":5.36388,"is_reserved":false,"is_disabled":false,"rental_uris":{"android":"levelo://app?vid=f1c02f70-b1fb-452a-906b-317d88adff0b","ios":"levelo://app?vid=f1c02f70-b1fb-452a-906b-317d88adff0b"},"vehicle_type_id":"4","last_reported":1774084879,"current_range_meters":10000,"station_id":"cpo36qri1sfpv3e86is0","pricing_plan_id":"cebpf4jnsgd1na2vs0mg"},{"bike_id":"6adce65c-5569-49c8-9914-3626291387f0","system_id":"levelo_inurba_marseille","lat":43.25731,"lon":5.41127,"is_reserved":false,"is_disabled":false,"rental_uris":{"android":"levelo://app?vid=6adce65c-5569-49c8-9914-3626291387f0","ios":"levelo://app?vid=6adce65c-5569-49c8-9914-3626291387f0"},"vehicle_type_id":"4","last_reported":1774084879,"current_range_meters":10000,"station_id":"ce4bhkp2rcd13ifvqgd0","pricing_plan_id":"cebpf4jnsgd1na2vs0mg"},{"bike_id":"b41ba9fd-1286-49b2-bb79-3ecc772ffeae","system_id":"levelo_inurba_marseille","lat":43.32133,"lon":5.36751,"is_reserved":false,"is_disabled":false,"rental_uris":{"android":"levelo://app?vid=b41ba9fd-1286-49b2-bb79-3ecc772ffeae","ios":"levelo://app?vid=b41ba9fd-1286-49b2-bb79-3ecc772ffeae"},"vehicle_type_id":"4","last_reported":1774084879,"current_range_meters":10000,"station_id":"ce4bhrh2rcd13ifvqhug","pricing_plan_id":"cebpf4jnsgd1na2vs0mg"},{"bike_id":"82918ebf-db0b-441c-be2e-745dd8531c0c","system_id":"levelo_inurba_marseille","lat":43.22574,"lon":5.41637,"is_reserved":false,"is_disabled":false,"rental_uris":{"android":"levelo://app?vid=82918ebf-db0b-441c-be2e-745dd8531c0c","ios":"levelo://app?vid=82918ebf-db0b-441c-be2e-745dd8531c0c"},"vehicle_type_id":"4","last_reported":1774084879,"current_range_meters":10000,"station_id":"st_d2o4gvlbi1j2169b742g","pricing_plan_id":"cebpf4jnsgd1na2vs0mg"},{"bike_id":"b8dca0a8-f15c-44ac-9bec-56df53cd8c15","system_id":"levelo_inurba_marseille","lat":43.30306,"lon":5.39327,"is_reserved":false,"is_disabled":false,"rental_uris":{"android":"levelo://app?vid=b8dca0a8-f15c-44ac-9bec-56df53cd8c15","ios":"levelo://app?vid=b8dca0a8-f15c-44ac-9bec-56df53cd8c15"},"vehicle_type_id":"4","last_reported":1774084879,"current_range_meters":10000,"station_id":"","pricing_plan_id":"cebpf4jnsgd1na2vs0mg"},{"bike_id":"cc777a7e-f3d4-4026-819d-66c6f1a5d2b6","system_id":"levelo_inurba_marseille","lat":43.29222,"lon":5.42587,"is_reserved":false,"is_disabled":false,"rental_uris":{"android":"levelo://app?vid=cc777a7e-f3d4-4026-819d-66c6f1a5d2b6","ios":"levelo://app?vid=cc777a7e-f3d4-4026-819d-66c6f1a5d2b6"},"vehicle_type_id":"4","last_reported":1774084879,"current_range_meters":10800,"station_id":"","pricing_plan_id":"cebpf4jnsgd1na2vs0mg"},{"bike_id":"48e73ee0-aa2b-4aff-b547-d29782d1ead9","system_id":"levelo_inurba_marseille","lat":43.24166,"lon":5.36319,"is_reserved":false,"is_disabled":false,"rental_uris":{"android":"levelo://app?vid=48e73ee0-aa2b-4aff-b547-d29782d1ead9","ios":"levelo://app?vid=48e73ee0-aa2b-4aff-b547-d29782d1ead9"},"vehicle_type_id":"4","last_reported":1774084879,"current_range_meters":10800,"station_id":"cpo36qri1sfpv3e86is0","pricing_plan_id":"cebpf4jnsgd1na2vs0mg"},{"bike_id":"89ba2023-6fff-4dff-abc8-fbf442cbd137","system_id":"levelo_inurba_marseille","lat":43.30421,"lon":5.36477,"is_reserved":false,"is_disabled":false,"rental_uris":{"android":"levelo://app?vid=89ba2023-6fff-4dff-abc8-fbf442cbd137","ios":"levelo://app?vid=89ba2023-6fff-4dff-abc8-fbf442cbd137"},"vehicle_type_id":"4","last_reported":1774084879,"current_range_meters":10800,"station_id":"","pricing_plan_id":"cebpf4jnsgd1na2vs0mg"},{"bike_id":"b48db811-f2cf-46ea-aa62-4aa4fcd788b4","system_id":"levelo_inurba_marseille","lat":43.29894,"lon":5.43675,"is_reserved":false,"is_disabled":false,"rental_uris":{"android":"levelo://app?vid=b48db811-f2cf-46ea-aa62-4aa4fcd788b4","ios":"levelo://app?vid=b48db811-f2cf-46ea-aa62-4aa4fcd788b4"},"vehicle_type_id":"4","last_reported":1774084879,"current_range_meters":10800,"station_id":"ce4bhpp2rcd13ifvqhfg","pricing_plan_id":"cebpf4jnsgd1na2vs0mg"},{"bike_id":"2d6d7c2d-62c0-410b-9072-ede78196496b","system_id":"levelo_inurba_marseille","lat":43.29809,"lon":5.44052,"is_reserved":false,"is_disabled":false,"rental_uris":{"android":"levelo://app?vid=2d6d7c2d-62c0-410b-9072-ede78196496b","ios":"levelo://app?vid=2d6d7c2d-62c0-410b-9072-ede78196496b"},"vehicle_type_id":"4","last_reported":1774084879,"current_range_meters":10800,"station_id":"st_d3jp68qikq2c7381ktn0","pricing_plan_id":"cebpf4jnsgd1na2vs0mg"},{"bike_id":"389bf602-8b8c-46cc-8fdf-e44a44ec22b1","system_id":"levelo_inurba_marseille","lat":43.30627,"lon":5.3723,"is_reserved":false,"is_disabled":false,"rental_uris":{"android":"levelo://app?vid=389bf602-8b8c-46cc-8fdf-e44a44ec22b1","ios":"levelo://app?vid=389bf602-8b8c-46cc-8fdf-e44a44ec22b1"},"vehicle_type_id":"4","last_reported":1774084879,"current_range_meters":10800,"station_id":"ce4bgqh2rcd13ifvqc4g","pricing_plan_id":"cebpf4jnsgd1na2vs0mg"},{"bike_id":"6e2ca02c-e7c9-483b-a0e1-70499ff42a06","system_id":"levelo_inurba_marseille","lat":43.33135,"lon":5.37824,"is_reserved":false,"is_disabled":false,"rental_uris":{"android":"levelo://app?vid=6e2ca02c-e7c9-483b-a0e1-70499ff42a06","ios":"levelo://app?vid=6e2ca02c-e7c9-483b-a0e1-70499ff42a06"},"vehicle_type_id":"4","last_reported":1774084879,"current_range_meters":10800,"station_id":"st_d46cu089ee8s73dldbu0","pricing_plan_id":"cebpf4jnsgd1na2vs0mg"},{"bike_id":"43896f5d-389e-42a0-8bc7-60817a7f1527","system_id":"levelo_inurba_marseille","lat":43.31725,"lon":5.37777,"is_reserved":false,"is_disabled":false,"rental_uris":{"android":"levelo://app?vid=43896f5d-389e-42a0-8bc7-60817a7f1527","ios":"levelo://app?vid=43896f5d-389e-42a0-8bc7-60817a7f1527"},"vehicle_type_id":"4","last_reported":1774084879,"current_range_meters":10800,"station_id":"ce4bgth2rcd13ifvqch0","pricing_plan_id":"cebpf4jnsgd1na2vs0mg"},{"bike_id":"ece478bd-d9c2-4980-92f3-5c02e7bcae17","system_id":"levelo_inurba_marseille","lat":43.24942,"lon":5.40492,"is_reserved":false,"is_disabled":false,"rental_uris":{"android":"levelo://app?vid=ece478bd-d9c2-4980-92f3-5c02e7bcae17","ios":"levelo://app?vid=ece478bd-d9c2-4980-92f3-5c02e7bcae17"},"vehicle_type_id":"4","last_reported":1774084879,"current_range_meters":10800,"station_id":"st_d2ngiaodas8pm72gd1h0","pricing_plan_id":"cebpf4jnsgd1na2vs0mg"},{"bike_id":"5cc8e008-a755-466d-8baa-e74085c439c8","system_id":"levelo_inurba_marseille","lat":43.33767,"lon":5.37468,"is_reserved":false,"is_disabled":false,"rental_uris":{"android":"levelo://app?vid=5cc8e008-a755-466d-8baa-e74085c439c8","ios":"levelo://app?vid=5cc8e008-a755-466d-8baa-e74085c439c8"},"vehicle_type_id":"4","last_reported":1774084879,"current_range_meters":10800,"station_id":"","pricing_plan_id":"cebpf4jnsgd1na2vs0mg"},{"bike_id":"87efe374-8d29-40b1-8c0c-1914c39a0aee","system_id":"levelo_inurba_marseille","lat":43.29069,"lon":5.37163,"is_reserved":false,"is_disabled":false,"rental_uris":{"android":"levelo://app?vid=87efe374-8d29-40b1-8c0c-1914c39a0aee","ios":"levelo://app?vid=87efe374-8d29-40b1-8c0c-1914c39a0aee"},"vehicle_type_id":"4","last_reported":1774084879,"current_range_meters":10800,"station_id":"ce4bh5p2rcd13ifvqe4g","pricing_plan_id":"cebpf4jnsgd1na2vs0mg"},{"bike_id":"ef756845-5e51-4884-8fd9-8be941a4fa51","system_id":"levelo_inurba_marseille","lat":43.30357,"lon":5.42983,"is_reserved":false,"is_disabled":false,"rental_uris":{"android":"levelo://app?vid=ef756845-5e51-4884-8fd9-8be941a4fa51","ios":"levelo://app?vid=ef756845-5e51-4884-8fd9-8be941a4fa51"},"vehicle_type_id":"4","last_reported":1774084879,"current_range_meters":10800,"station_id":"","pricing_plan_id":"cebpf4jnsgd1na2vs0mg"},{"bike_id":"978b04b5-300a-4cca-83cf-36cbae11385f","system_id":"levelo_inurba_marseille","lat":43.27313,"lon":5.39278,"is_reserved":false,"is_disabled":false,"rental_uris":{"android":"levelo://app?vid=978b04b5-300a-4cca-83cf-36cbae11385f","ios":"levelo://app?vid=978b04b5-300a-4cca-83cf-36cbae11385f"},"vehicle_type_id":"4","last_reported":1774084879,"current_range_meters":11200,"station_id":"","pricing_plan_id":"cebpf4jnsgd1na2vs0mg"},{"bike_id":"e55206dd-1f15-4e82-a5bd-d0c9070b5469","system_id":"levelo_inurba_marseille","lat":43.3042,"lon":5.412744,"is_reserved":false,"is_disabled":false,"rental_uris":{"android":"levelo://app?vid=e55206dd-1f15-4e82-a5bd-d0c9070b5469","ios":"levelo://app?vid=e55206dd-1f15-4e82-a5bd-d0c9070b5469"},"vehicle_type_id":"4","last_reported":1774084879,"current_range_meters":11200,"station_id":"ce4bhop2rcd13ifvqh8g","pricing_plan_id":"cebpf4jnsgd1na2vs0mg"},{"bike_id":"b8282293-9e5d-44c0-961a-c4ad312c5b39","system_id":"levelo_inurba_marseille","lat":43.28488,"lon":5.48403,"is_reserved":false,"is_disabled":false,"rental_uris":{"android":"levelo://app?vid=b8282293-9e5d-44c0-961a-c4ad312c5b39","ios":"levelo://app?vid=b8282293-9e5d-44c0-961a-c4ad312c5b39"},"vehicle_type_id":"4","last_reported":1774084879,"current_range_meters":11200,"station_id":"st_d3svhcjqgbts73a3dn0g","pricing_plan_id":"cebpf4jnsgd1na2vs0mg"},{"bike_id":"dd59220a-6bb2-4845-8016-d3c471a33c90","system_id":"levelo_inurba_marseille","lat":43.32343,"lon":5.36741,"is_reserved":false,"is_disabled":false,"rental_uris":{"android":"levelo://app?vid=dd59220a-6bb2-4845-8016-d3c471a33c90","ios":"levelo://app?vid=dd59220a-6bb2-4845-8016-d3c471a33c90"},"vehicle_type_id":"4","last_reported":1774084879,"current_range_meters":11200,"station_id":"ce4bhsh2rcd13ifvqi2g","pricing_plan_id":"cebpf4jnsgd1na2vs0mg"},{"bike_id":"268ffe33-8934-4735-9656-517059b49f96","system_id":"levelo_inurba_marseille","lat":43.255185,"lon":5.376515,"is_reserved":false,"is_disabled":false,"rental_uris":{"android":"levelo://app?vid=268ffe33-8934-4735-9656-517059b49f96","ios":"levelo://app?vid=268ffe33-8934-4735-9656-517059b49f96"},"vehicle_type_id":"4","last_reported":1774084879,"current_range_meters":11200,"station_id":"ce4bhh12rcd13ifvqff0","pricing_plan_id":"cebpf4jnsgd1na2vs0mg"},{"bike_id":"a0d5d352-c127-4a4c-86ba-ffa3161f3193","system_id":"levelo_inurba_marseille","lat":43.2257,"lon":5.4162,"is_reserved":false,"is_disabled":false,"rental_uris":{"android":"levelo://app?vid=a0d5d352-c127-4a4c-86ba-ffa3161f3193","ios":"levelo://app?vid=a0d5d352-c127-4a4c-86ba-ffa3161f3193"},"vehicle_type_id":"4","last_reported":1774084879,"current_range_meters":11200,"station_id":"st_d2o4gvlbi1j2169b742g","pricing_plan_id":"cebpf4jnsgd1na2vs0mg"},{"bike_id":"a06b86fd-d8d4-4c9f-97e8-2bc520d79cc7","system_id":"levelo_inurba_marseille","lat":43.24999,"lon":5.38934,"is_reserved":false,"is_disabled":false,"rental_uris":{"android":"levelo://app?vid=a06b86fd-d8d4-4c9f-97e8-2bc520d79cc7","ios":"levelo://app?vid=a06b86fd-d8d4-4c9f-97e8-2bc520d79cc7"},"vehicle_type_id":"4","last_reported":1774084879,"current_range_meters":11200,"station_id":"ce4bhgp2rcd13ifvqfd0","pricing_plan_id":"cebpf4jnsgd1na2vs0mg"},{"bike_id":"a4d26f2d-ebf9-4bb4-ac0d-a7f878a4833d","system_id":"levelo_inurba_marseille","lat":43.28469,"lon":5.38434,"is_reserved":false,"is_disabled":true,"rental_uris":{"android":"levelo://app?vid=a4d26f2d-ebf9-4bb4-ac0d-a7f878a4833d","ios":"levelo://app?vid=a4d26f2d-ebf9-4bb4-ac0d-a7f878a4833d"},"vehicle_type_id":"4","last_reported":1774084879,"current_range_meters":11200,"station_id":"ce4bh512rcd13ifvqe3g","pricing_plan_id":"cebpf4jnsgd1na2vs0mg"},{"bike_id":"66932eeb-f34c-4c0a-b11e-c438eb284008","system_id":"levelo_inurba_marseille","lat":43.27322,"lon":5.39098,"is_reserved":false,"is_disabled":false,"rental_uris":{"android":"levelo://app?vid=66932eeb-f34c-4c0a-b11e-c438eb284008","ios":"levelo://app?vid=66932eeb-f34c-4c0a-b11e-c438eb284008"},"vehicle_type_id":"4","last_reported":1774084879,"current_range_meters":11200,"station_id":"ce4bhgp2rcd13ifvqfe0","pricing_plan_id":"cebpf4jnsgd1na2vs0mg"},{"bike_id":"bb2bb087-057b-42f3-9513-f048d27083cc","system_id":"levelo_inurba_marseille","lat":43.28174,"lon":5.42808,"is_reserved":false,"is_disabled":false,"rental_uris":{"android":"levelo://app?vid=bb2bb087-057b-42f3-9513-f048d27083cc","ios":"levelo://app?vid=bb2bb087-057b-42f3-9513-f048d27083cc"},"vehicle_type_id":"4","last_reported":1774084879,"current_range_meters":11200,"station_id":"","pricing_plan_id":"cebpf4jnsgd1na2vs0mg"},{"bike_id":"ad0e6c40-bc62-4eed-91aa-b4166daa34ce","system_id":"levelo_inurba_marseille","lat":43.28612,"lon":5.39886,"is_reserved":false,"is_disabled":false,"rental_uris":{"android":"levelo://app?vid=ad0e6c40-bc62-4eed-91aa-b4166daa34ce","ios":"levelo://app?vid=ad0e6c40-bc62-4eed-91aa-b4166daa34ce"},"vehicle_type_id":"4","last_reported":1774084879,"current_range_meters":11200,"station_id":"st_d4a7ka997mjs738ck50g","pricing_plan_id":"cebpf4jnsgd1na2vs0mg"},{"bike_id":"26ac2f37-583d-48c7-a8e6-60f9b137298a","system_id":"levelo_inurba_marseille","lat":43.29203,"lon":5.35994,"is_reserved":false,"is_disabled":false,"rental_uris":{"android":"levelo://app?vid=26ac2f37-583d-48c7-a8e6-60f9b137298a","ios":"levelo://app?vid=26ac2f37-583d-48c7-a8e6-60f9b137298a"},"vehicle_type_id":"4","last_reported":1774084879,"current_range_meters":11600,"station_id":"ce4bhbh2rcd13ifvqeqg","pricing_plan_id":"cebpf4jnsgd1na2vs0mg"},{"bike_id":"9bd3f79a-0719-4c3f-b3c7-8051544625c1","system_id":"levelo_inurba_marseille","lat":43.26593,"lon":5.39023,"is_reserved":false,"is_disabled":true,"rental_uris":{"android":"levelo://app?vid=9bd3f79a-0719-4c3f-b3c7-8051544625c1","ios":"levelo://app?vid=9bd3f79a-0719-4c3f-b3c7-8051544625c1"},