{"last_updated":1766160812,"ttl":60,"version":"2.2","data":{"bikes":[{"bike_id":"600d55a4-2f20-4fd7-90f6-704497e65a89","system_id":"levelo_inurba_marseille","lat":43.292772,"lon":5.401137,"is_reserved":false,"is_disabled":false,"rental_uris":{"android":"levelo://app?vid=600d55a4-2f20-4fd7-90f6-704497e65a89","ios":"levelo://app?vid=600d55a4-2f20-4fd7-90f6-704497e65a89"},"vehicle_type_id":"4","last_reported":1766160813,"current_range_meters":2800,"station_id":"","pricing_plan_id":"cebpf4jnsgd1na2vs0mg"},{"bike_id":"fdb18b9b-3b90-486e-b306-62bb1a73300b","system_id":"levelo_inurba_marseille","lat":43.2465,"lon":5.38172,"is_reserved":false,"is_disabled":true,"rental_uris":{"android":"levelo://app?vid=fdb18b9b-3b90-486e-b306-62bb1a73300b","ios":"levelo://app?vid=fdb18b9b-3b90-486e-b306-62bb1a73300b"},"vehicle_type_id":"4","last_reported":1766160813,"current_range_meters":2800,"station_id":"ce4bhih2rcd13ifvqfr0","pricing_plan_id":"cebpf4jnsgd1na2vs0mg"},{"bike_id":"d88f83fc-7a24-4804-9301-839b1ae399e9","system_id":"levelo_inurba_marseille","lat":43.29519,"lon":5.37859,"is_reserved":false,"is_disabled":false,"rental_uris":{"android":"levelo://app?vid=d88f83fc-7a24-4804-9301-839b1ae399e9","ios":"levelo://app?vid=d88f83fc-7a24-4804-9301-839b1ae399e9"},"vehicle_type_id":"4","last_reported":1766160813,"current_range_meters":2800,"station_id":"","pricing_plan_id":"cebpf4jnsgd1na2vs0mg"},{"bike_id":"6d07110a-7017-4d12-b354-ee40a4150b50","system_id":"levelo_inurba_marseille","lat":43.29533,"lon":5.3855,"is_reserved":false,"is_disabled":false,"rental_uris":{"android":"levelo://app?vid=6d07110a-7017-4d12-b354-ee40a4150b50","ios":"levelo://app?vid=6d07110a-7017-4d12-b354-ee40a4150b50"},"vehicle_type_id":"4","last_reported":1766160813,"current_range_meters":2800,"station_id":"ce4bgih2rcd13ifvqba0","pricing_plan_id":"cebpf4jnsgd1na2vs0mg"},{"bike_id":"50e6eefe-8aea-4054-ab8f-87d6e301ff34","system_id":"levelo_inurba_marseille","lat":43.242998,"lon":5.438436,"is_reserved":false,"is_disabled":false,"rental_uris":{"android":"levelo://app?vid=50e6eefe-8aea-4054-ab8f-87d6e301ff34","ios":"levelo://app?vid=50e6eefe-8aea-4054-ab8f-87d6e301ff34"},"vehicle_type_id":"4","last_reported":1766160813,"current_range_meters":2800,"station_id":"","pricing_plan_id":"cebpf4jnsgd1na2vs0mg"},{"bike_id":"154dcd08-6b05-422e-8404-77a0bbf76fa4","system_id":"levelo_inurba_marseille","lat":43.28151,"lon":5.42651,"is_reserved":false,"is_disabled":false,"rental_uris":{"android":"levelo://app?vid=154dcd08-6b05-422e-8404-77a0bbf76fa4","ios":"levelo://app?vid=154dcd08-6b05-422e-8404-77a0bbf76fa4"},"vehicle_type_id":"4","last_reported":1766160813,"current_range_meters":2800,"station_id":"ce4bhnh2rcd13ifvqgug","pricing_plan_id":"cebpf4jnsgd1na2vs0mg"},{"bike_id":"37351d4f-c8c3-46c5-912a-802010927a49","system_id":"levelo_inurba_marseille","lat":43.29543,"lon":5.37479,"is_reserved":false,"is_disabled":false,"rental_uris":{"android":"levelo://app?vid=37351d4f-c8c3-46c5-912a-802010927a49","ios":"levelo://app?vid=37351d4f-c8c3-46c5-912a-802010927a49"},"vehicle_type_id":"4","last_reported":1766160813,"current_range_meters":2800,"station_id":"ce4bgkp2rcd13ifvqbmg","pricing_plan_id":"cebpf4jnsgd1na2vs0mg"},{"bike_id":"2fe34453-a70e-4370-be20-d0210da8f317","system_id":"levelo_inurba_marseille","lat":43.23178,"lon":5.39985,"is_reserved":false,"is_disabled":false,"rental_uris":{"android":"levelo://app?vid=2fe34453-a70e-4370-be20-d0210da8f317","ios":"levelo://app?vid=2fe34453-a70e-4370-be20-d0210da8f317"},"vehicle_type_id":"4","last_reported":1766160813,"current_range_meters":3200,"station_id":"ce4bhn12rcd13ifvqgqg","pricing_plan_id":"cebpf4jnsgd1na2vs0mg"},{"bike_id":"00fd2dcb-6faf-4c7a-8c99-525909084655","system_id":"levelo_inurba_marseille","lat":43.28157,"lon":5.42642,"is_reserved":false,"is_disabled":true,"rental_uris":{"android":"levelo://app?vid=00fd2dcb-6faf-4c7a-8c99-525909084655","ios":"levelo://app?vid=00fd2dcb-6faf-4c7a-8c99-525909084655"},"vehicle_type_id":"4","last_reported":1766160813,"current_range_meters":3200,"station_id":"ce4bhnh2rcd13ifvqgug","pricing_plan_id":"cebpf4jnsgd1na2vs0mg"},{"bike_id":"055ad84e-fa6c-4969-97aa-c4fb131bf2f8","system_id":"levelo_inurba_marseille","lat":43.26576,"lon":5.38987,"is_reserved":false,"is_disabled":false,"rental_uris":{"android":"levelo://app?vid=055ad84e-fa6c-4969-97aa-c4fb131bf2f8","ios":"levelo://app?vid=055ad84e-fa6c-4969-97aa-c4fb131bf2f8"},"vehicle_type_id":"4","last_reported":1766160813,"current_range_meters":3200,"station_id":"ce4bhe12rcd13ifvqf30","pricing_plan_id":"cebpf4jnsgd1na2vs0mg"},{"bike_id":"116278f1-c1f6-4978-beb9-3e199a9963ca","system_id":"levelo_inurba_marseille","lat":43.28536,"lon":5.44095,"is_reserved":false,"is_disabled":false,"rental_uris":{"android":"levelo://app?vid=116278f1-c1f6-4978-beb9-3e199a9963ca","ios":"levelo://app?vid=116278f1-c1f6-4978-beb9-3e199a9963ca"},"vehicle_type_id":"4","last_reported":1766160813,"current_range_meters":3200,"station_id":"st_d3j3df2ikq2c7380ej80","pricing_plan_id":"cebpf4jnsgd1na2vs0mg"},{"bike_id":"d2bcf7e6-9e6c-48c1-8c64-5337f19dad07","system_id":"levelo_inurba_marseille","lat":43.22872,"lon":5.39956,"is_reserved":false,"is_disabled":false,"rental_uris":{"android":"levelo://app?vid=d2bcf7e6-9e6c-48c1-8c64-5337f19dad07","ios":"levelo://app?vid=d2bcf7e6-9e6c-48c1-8c64-5337f19dad07"},"vehicle_type_id":"4","last_reported":1766160813,"current_range_meters":3200,"station_id":"","pricing_plan_id":"cebpf4jnsgd1na2vs0mg"},{"bike_id":"a9adc8bf-52f1-4c31-a2de-42743dd086bf","system_id":"levelo_inurba_marseille","lat":43.33723,"lon":5.3748,"is_reserved":false,"is_disabled":false,"rental_uris":{"android":"levelo://app?vid=a9adc8bf-52f1-4c31-a2de-42743dd086bf","ios":"levelo://app?vid=a9adc8bf-52f1-4c31-a2de-42743dd086bf"},"vehicle_type_id":"4","last_reported":1766160813,"current_range_meters":3600,"station_id":"","pricing_plan_id":"cebpf4jnsgd1na2vs0mg"},{"bike_id":"dabf3938-42ca-4324-8a69-2dd3c20c2869","system_id":"levelo_inurba_marseille","lat":43.291,"lon":5.38113,"is_reserved":false,"is_disabled":false,"rental_uris":{"android":"levelo://app?vid=dabf3938-42ca-4324-8a69-2dd3c20c2869","ios":"levelo://app?vid=dabf3938-42ca-4324-8a69-2dd3c20c2869"},"vehicle_type_id":"4","last_reported":1766160813,"current_range_meters":3600,"station_id":"ce4bh512rcd13ifvqe2g","pricing_plan_id":"cebpf4jnsgd1na2vs0mg"},{"bike_id":"4b439048-867f-4a4a-b665-2720c68c45fd","system_id":"levelo_inurba_marseille","lat":43.31711,"lon":5.43702,"is_reserved":false,"is_disabled":false,"rental_uris":{"android":"levelo://app?vid=4b439048-867f-4a4a-b665-2720c68c45fd","ios":"levelo://app?vid=4b439048-867f-4a4a-b665-2720c68c45fd"},"vehicle_type_id":"4","last_reported":1766160813,"current_range_meters":3600,"station_id":"ce4bhp92rcd13ifvqhcg","pricing_plan_id":"cebpf4jnsgd1na2vs0mg"},{"bike_id":"c935715d-4020-4114-a0d1-a3eb83427b17","system_id":"levelo_inurba_marseille","lat":43.28613,"lon":5.35099,"is_reserved":false,"is_disabled":false,"rental_uris":{"android":"levelo://app?vid=c935715d-4020-4114-a0d1-a3eb83427b17","ios":"levelo://app?vid=c935715d-4020-4114-a0d1-a3eb83427b17"},"vehicle_type_id":"4","last_reported":1766160813,"current_range_meters":4000,"station_id":"ce4bhch2rcd13ifvqeug","pricing_plan_id":"cebpf4jnsgd1na2vs0mg"},{"bike_id":"3dc4191e-fa99-4148-be98-b989bfcb5d48","system_id":"levelo_inurba_marseille","lat":43.2996,"lon":5.41324,"is_reserved":false,"is_disabled":false,"rental_uris":{"android":"levelo://app?vid=3dc4191e-fa99-4148-be98-b989bfcb5d48","ios":"levelo://app?vid=3dc4191e-fa99-4148-be98-b989bfcb5d48"},"vehicle_type_id":"4","last_reported":1766160813,"current_range_meters":4000,"station_id":"ce4bhp12rcd13ifvqh9g","pricing_plan_id":"cebpf4jnsgd1na2vs0mg"},{"bike_id":"3cde007c-a409-4597-91e7-ca2461274ad1","system_id":"levelo_inurba_marseille","lat":43.26574,"lon":5.40182,"is_reserved":false,"is_disabled":false,"rental_uris":{"android":"levelo://app?vid=3cde007c-a409-4597-91e7-ca2461274ad1","ios":"levelo://app?vid=3cde007c-a409-4597-91e7-ca2461274ad1"},"vehicle_type_id":"4","last_reported":1766160813,"current_range_meters":4400,"station_id":"","pricing_plan_id":"cebpf4jnsgd1na2vs0mg"},{"bike_id":"43bf7a8b-6319-416f-a2c2-6a913eddb12a","system_id":"levelo_inurba_marseille","lat":43.27253,"lon":5.39234,"is_reserved":false,"is_disabled":false,"rental_uris":{"android":"levelo://app?vid=43bf7a8b-6319-416f-a2c2-6a913eddb12a","ios":"levelo://app?vid=43bf7a8b-6319-416f-a2c2-6a913eddb12a"},"vehicle_type_id":"4","last_reported":1766160813,"current_range_meters":4400,"station_id":"ce4bhhp2rcd13ifvqfm0","pricing_plan_id":"cebpf4jnsgd1na2vs0mg"},{"bike_id":"81508f0a-e327-4705-ae72-228165570b37","system_id":"levelo_inurba_marseille","lat":43.25097,"lon":5.38945,"is_reserved":false,"is_disabled":false,"rental_uris":{"android":"levelo://app?vid=81508f0a-e327-4705-ae72-228165570b37","ios":"levelo://app?vid=81508f0a-e327-4705-ae72-228165570b37"},"vehicle_type_id":"4","last_reported":1766160813,"current_range_meters":4400,"station_id":"","pricing_plan_id":"cebpf4jnsgd1na2vs0mg"},{"bike_id":"2086225a-a747-4f9f-9bfb-723b2da30c0e","system_id":"levelo_inurba_marseille","lat":43.24758,"lon":5.39588,"is_reserved":false,"is_disabled":false,"rental_uris":{"android":"levelo://app?vid=2086225a-a747-4f9f-9bfb-723b2da30c0e","ios":"levelo://app?vid=2086225a-a747-4f9f-9bfb-723b2da30c0e"},"vehicle_type_id":"4","last_reported":1766160813,"current_range_meters":4400,"station_id":"","pricing_plan_id":"cebpf4jnsgd1na2vs0mg"},{"bike_id":"653f46d9-639f-4bc8-9ccf-5c1dda5f0dea","system_id":"levelo_inurba_marseille","lat":43.27997,"lon":5.40019,"is_reserved":false,"is_disabled":false,"rental_uris":{"android":"levelo://app?vid=653f46d9-639f-4bc8-9ccf-5c1dda5f0dea","ios":"levelo://app?vid=653f46d9-639f-4bc8-9ccf-5c1dda5f0dea"},"vehicle_type_id":"4","last_reported":1766160813,"current_range_meters":4800,"station_id":"ce4bho92rcd13ifvqh4g","pricing_plan_id":"cebpf4jnsgd1na2vs0mg"},{"bike_id":"603d7358-4d55-4bb9-864f-8005cd57b171","system_id":"levelo_inurba_marseille","lat":43.293078,"lon":5.371543,"is_reserved":false,"is_disabled":false,"rental_uris":{"android":"levelo://app?vid=603d7358-4d55-4bb9-864f-8005cd57b171","ios":"levelo://app?vid=603d7358-4d55-4bb9-864f-8005cd57b171"},"vehicle_type_id":"4","last_reported":1766160813,"current_range_meters":5600,"station_id":"ce4bgh92rcd13ifvqb40","pricing_plan_id":"cebpf4jnsgd1na2vs0mg"},{"bike_id":"0f790576-6061-4c09-aa76-5fb8223294e2","system_id":"levelo_inurba_marseille","lat":43.273241,"lon":5.390715,"is_reserved":false,"is_disabled":true,"rental_uris":{"android":"levelo://app?vid=0f790576-6061-4c09-aa76-5fb8223294e2","ios":"levelo://app?vid=0f790576-6061-4c09-aa76-5fb8223294e2"},"vehicle_type_id":"4","last_reported":1766160813,"current_range_meters":5600,"station_id":"","pricing_plan_id":"cebpf4jnsgd1na2vs0mg"},{"bike_id":"f297c977-3380-4557-a67a-a111ce73bc2d","system_id":"levelo_inurba_marseille","lat":43.296371,"lon":5.405967,"is_reserved":false,"is_disabled":false,"rental_uris":{"android":"levelo://app?vid=f297c977-3380-4557-a67a-a111ce73bc2d","ios":"levelo://app?vid=f297c977-3380-4557-a67a-a111ce73bc2d"},"vehicle_type_id":"4","last_reported":1766160813,"current_range_meters":5600,"station_id":"","pricing_plan_id":"cebpf4jnsgd1na2vs0mg"},{"bike_id":"bb13204a-e097-434e-860f-1d3c0c3d0d0a","system_id":"levelo_inurba_marseille","lat":43.28663,"lon":5.36357,"is_reserved":false,"is_disabled":false,"rental_uris":{"android":"levelo://app?vid=bb13204a-e097-434e-860f-1d3c0c3d0d0a","ios":"levelo://app?vid=bb13204a-e097-434e-860f-1d3c0c3d0d0a"},"vehicle_type_id":"4","last_reported":1766160813,"current_range_meters":5600,"station_id":"ce4bhah2rcd13ifvqej0","pricing_plan_id":"cebpf4jnsgd1na2vs0mg"},{"bike_id":"da18a3b0-ce97-43eb-b181-936e440b40e5","system_id":"levelo_inurba_marseille","lat":43.31706,"lon":5.40387,"is_reserved":false,"is_disabled":false,"rental_uris":{"android":"levelo://app?vid=da18a3b0-ce97-43eb-b181-936e440b40e5","ios":"levelo://app?vid=da18a3b0-ce97-43eb-b181-936e440b40e5"},"vehicle_type_id":"4","last_reported":1766160813,"current_range_meters":5600,"station_id":"","pricing_plan_id":"cebpf4jnsgd1na2vs0mg"},{"bike_id":"5652a8f9-45a7-4eae-b785-3a6fece1807a","system_id":"levelo_inurba_marseille","lat":43.27443,"lon":5.39411,"is_reserved":false,"is_disabled":false,"rental_uris":{"android":"levelo://app?vid=5652a8f9-45a7-4eae-b785-3a6fece1807a","ios":"levelo://app?vid=5652a8f9-45a7-4eae-b785-3a6fece1807a"},"vehicle_type_id":"4","last_reported":1766160813,"current_range_meters":6000,"station_id":"ce4bhdp2rcd13ifvqf20","pricing_plan_id":"cebpf4jnsgd1na2vs0mg"},{"bike_id":"40c51ff6-bcdf-4189-b2f9-53259a9dc236","system_id":"levelo_inurba_marseille","lat":43.28306,"lon":5.38919,"is_reserved":false,"is_disabled":true,"rental_uris":{"android":"levelo://app?vid=40c51ff6-bcdf-4189-b2f9-53259a9dc236","ios":"levelo://app?vid=40c51ff6-bcdf-4189-b2f9-53259a9dc236"},"vehicle_type_id":"4","last_reported":1766160813,"current_range_meters":6000,"station_id":"","pricing_plan_id":"cebpf4jnsgd1na2vs0mg"},{"bike_id":"e37e2a78-07a1-418d-91e4-854e5e8c6306","system_id":"levelo_inurba_marseille","lat":43.28536,"lon":5.44098,"is_reserved":false,"is_disabled":false,"rental_uris":{"android":"levelo://app?vid=e37e2a78-07a1-418d-91e4-854e5e8c6306","ios":"levelo://app?vid=e37e2a78-07a1-418d-91e4-854e5e8c6306"},"vehicle_type_id":"4","last_reported":1766160813,"current_range_meters":6000,"station_id":"st_d3j3df2ikq2c7380ej80","pricing_plan_id":"cebpf4jnsgd1na2vs0mg"},{"bike_id":"553abde9-08d7-4cbc-9694-bbb60655d29c","system_id":"levelo_inurba_marseille","lat":43.26777,"lon":5.39421,"is_reserved":false,"is_disabled":false,"rental_uris":{"android":"levelo://app?vid=553abde9-08d7-4cbc-9694-bbb60655d29c","ios":"levelo://app?vid=553abde9-08d7-4cbc-9694-bbb60655d29c"},"vehicle_type_id":"4","last_reported":1766160813,"current_range_meters":6000,"station_id":"ce4bhh12rcd13ifvqfg0","pricing_plan_id":"cebpf4jnsgd1na2vs0mg"},{"bike_id":"67fe2471-1cc2-49f3-8860-6c45a1e6b28e","system_id":"levelo_inurba_marseille","lat":43.273742,"lon":5.362622,"is_reserved":false,"is_disabled":false,"rental_uris":{"android":"levelo://app?vid=67fe2471-1cc2-49f3-8860-6c45a1e6b28e","ios":"levelo://app?vid=67fe2471-1cc2-49f3-8860-6c45a1e6b28e"},"vehicle_type_id":"4","last_reported":1766160813,"current_range_meters":6000,"station_id":"ce4bhbh2rcd13ifvqeo0","pricing_plan_id":"cebpf4jnsgd1na2vs0mg"},{"bike_id":"47db493c-b3e4-48e3-a56b-77380c036db2","system_id":"levelo_inurba_marseille","lat":43.30127,"lon":5.3986,"is_reserved":false,"is_disabled":false,"rental_uris":{"android":"levelo://app?vid=47db493c-b3e4-48e3-a56b-77380c036db2","ios":"levelo://app?vid=47db493c-b3e4-48e3-a56b-77380c036db2"},"vehicle_type_id":"4","last_reported":1766160813,"current_range_meters":6000,"station_id":"ce4bh0h2rcd13ifvqd40","pricing_plan_id":"cebpf4jnsgd1na2vs0mg"},{"bike_id":"467517c8-ed87-4e02-bef8-4ed63963538d","system_id":"levelo_inurba_marseille","lat":43.27195,"lon":5.41008,"is_reserved":false,"is_disabled":true,"rental_uris":{"android":"levelo://app?vid=467517c8-ed87-4e02-bef8-4ed63963538d","ios":"levelo://app?vid=467517c8-ed87-4e02-bef8-4ed63963538d"},"vehicle_type_id":"4","last_reported":1766160813,"current_range_meters":6400,"station_id":"ce4bhl12rcd13ifvqgf0","pricing_plan_id":"cebpf4jnsgd1na2vs0mg"},{"bike_id":"4bf75feb-9009-460d-a6c8-fc38d85a87da","system_id":"levelo_inurba_marseille","lat":43.25512,"lon":5.37655,"is_reserved":false,"is_disabled":false,"rental_uris":{"android":"levelo://app?vid=4bf75feb-9009-460d-a6c8-fc38d85a87da","ios":"levelo://app?vid=4bf75feb-9009-460d-a6c8-fc38d85a87da"},"vehicle_type_id":"4","last_reported":1766160813,"current_range_meters":6400,"station_id":"ce4bhh12rcd13ifvqff0","pricing_plan_id":"cebpf4jnsgd1na2vs0mg"},{"bike_id":"fdf77999-ee8b-43ac-9f7b-71c6f431c05a","system_id":"levelo_inurba_marseille","lat":43.27671,"lon":5.38876,"is_reserved":false,"is_disabled":false,"rental_uris":{"android":"levelo://app?vid=fdf77999-ee8b-43ac-9f7b-71c6f431c05a","ios":"levelo://app?vid=fdf77999-ee8b-43ac-9f7b-71c6f431c05a"},"vehicle_type_id":"4","last_reported":1766160813,"current_range_meters":6400,"station_id":"ce4bhi12rcd13ifvqfo0","pricing_plan_id":"cebpf4jnsgd1na2vs0mg"},{"bike_id":"2ae4427b-8195-4716-8b66-63435550358c","system_id":"levelo_inurba_marseille","lat":43.317308,"lon":5.424014,"is_reserved":false,"is_disabled":false,"rental_uris":{"android":"levelo://app?vid=2ae4427b-8195-4716-8b66-63435550358c","ios":"levelo://app?vid=2ae4427b-8195-4716-8b66-63435550358c"},"vehicle_type_id":"4","last_reported":1766160813,"current_range_meters":6400,"station_id":"ce4bhp92rcd13ifvqhbg","pricing_plan_id":"cebpf4jnsgd1na2vs0mg"},{"bike_id":"ff84a541-8304-4987-80b6-d59e6c72d111","system_id":"levelo_inurba_marseille","lat":43.29637,"lon":5.37136,"is_reserved":false,"is_disabled":false,"rental_uris":{"android":"levelo://app?vid=ff84a541-8304-4987-80b6-d59e6c72d111","ios":"levelo://app?vid=ff84a541-8304-4987-80b6-d59e6c72d111"},"vehicle_type_id":"4","last_reported":1766160813,"current_range_meters":6800,"station_id":"ce4bgnh2rcd13ifvqc0g","pricing_plan_id":"cebpf4jnsgd1na2vs0mg"},{"bike_id":"cf0e2dfe-8751-4251-bbd3-3ad00be9f3ad","system_id":"levelo_inurba_marseille","lat":43.28483,"lon":5.48396,"is_reserved":false,"is_disabled":false,"rental_uris":{"android":"levelo://app?vid=cf0e2dfe-8751-4251-bbd3-3ad00be9f3ad","ios":"levelo://app?vid=cf0e2dfe-8751-4251-bbd3-3ad00be9f3ad"},"vehicle_type_id":"4","last_reported":1766160813,"current_range_meters":6800,"station_id":"","pricing_plan_id":"cebpf4jnsgd1na2vs0mg"},{"bike_id":"25e3be96-a93e-43fa-a5b8-9fe078034d8a","system_id":"levelo_inurba_marseille","lat":43.29493,"lon":5.43304,"is_reserved":false,"is_disabled":false,"rental_uris":{"android":"levelo://app?vid=25e3be96-a93e-43fa-a5b8-9fe078034d8a","ios":"levelo://app?vid=25e3be96-a93e-43fa-a5b8-9fe078034d8a"},"vehicle_type_id":"4","last_reported":1766160813,"current_range_meters":6800,"station_id":"st_d3j5ugp08ojc73fj9d10","pricing_plan_id":"cebpf4jnsgd1na2vs0mg"},{"bike_id":"0a598fce-978f-4f90-b03f-b8be1902feff","system_id":"levelo_inurba_marseille","lat":43.31276,"lon":5.37846,"is_reserved":false,"is_disabled":false,"rental_uris":{"android":"levelo://app?vid=0a598fce-978f-4f90-b03f-b8be1902feff","ios":"levelo://app?vid=0a598fce-978f-4f90-b03f-b8be1902feff"},"vehicle_type_id":"4","last_reported":1766160813,"current_range_meters":7200,"station_id":"","pricing_plan_id":"cebpf4jnsgd1na2vs0mg"},{"bike_id":"bd828d31-568e-480e-b065-1206e1b58d4e","system_id":"levelo_inurba_marseille","lat":43.22936,"lon":5.35382,"is_reserved":false,"is_disabled":false,"rental_uris":{"android":"levelo://app?vid=bd828d31-568e-480e-b065-1206e1b58d4e","ios":"levelo://app?vid=bd828d31-568e-480e-b065-1206e1b58d4e"},"vehicle_type_id":"4","last_reported":1766160813,"current_range_meters":7200,"station_id":"cpo3532slgdg3j2ikp40","pricing_plan_id":"cebpf4jnsgd1na2vs0mg"},{"bike_id":"436e467e-3ef8-4484-b12e-82fd46509f97","system_id":"levelo_inurba_marseille","lat":43.23298,"lon":5.444,"is_reserved":false,"is_disabled":false,"rental_uris":{"android":"levelo://app?vid=436e467e-3ef8-4484-b12e-82fd46509f97","ios":"levelo://app?vid=436e467e-3ef8-4484-b12e-82fd46509f97"},"vehicle_type_id":"4","last_reported":1766160813,"current_range_meters":8000,"station_id":"","pricing_plan_id":"cebpf4jnsgd1na2vs0mg"},{"bike_id":"4a614ce4-d61c-499d-8955-0569e02f377b","system_id":"levelo_inurba_marseille","lat":43.275169,"lon":5.372631,"is_reserved":false,"is_disabled":false,"rental_uris":{"android":"levelo://app?vid=4a614ce4-d61c-499d-8955-0569e02f377b","ios":"levelo://app?vid=4a614ce4-d61c-499d-8955-0569e02f377b"},"vehicle_type_id":"4","last_reported":1766160813,"current_range_meters":8000,"station_id":"","pricing_plan_id":"cebpf4jnsgd1na2vs0mg"},{"bike_id":"93fb4e31-d0cb-49f0-937d-931f3c483440","system_id":"levelo_inurba_marseille","lat":43.25338,"lon":5.42159,"is_reserved":false,"is_disabled":false,"rental_uris":{"android":"levelo://app?vid=93fb4e31-d0cb-49f0-937d-931f3c483440","ios":"levelo://app?vid=93fb4e31-d0cb-49f0-937d-931f3c483440"},"vehicle_type_id":"4","last_reported":1766160813,"current_range_meters":8000,"station_id":"st_d2m65c5bi1j21697t3ng","pricing_plan_id":"cebpf4jnsgd1na2vs0mg"},{"bike_id":"402bda39-a8ce-48e8-8206-1ba8db03d00c","system_id":"levelo_inurba_marseille","lat":43.28452,"lon":5.39201,"is_reserved":false,"is_disabled":false,"rental_uris":{"android":"levelo://app?vid=402bda39-a8ce-48e8-8206-1ba8db03d00c","ios":"levelo://app?vid=402bda39-a8ce-48e8-8206-1ba8db03d00c"},"vehicle_type_id":"4","last_reported":1766160813,"current_range_meters":8400,"station_id":"ce4bhoh2rcd13ifvqh5g","pricing_plan_id":"cebpf4jnsgd1na2vs0mg"},{"bike_id":"ee6f7e5c-24b4-4046-a3ec-072080785116","system_id":"levelo_inurba_marseille","lat":43.21746,"lon":5.34594,"is_reserved":false,"is_disabled":true,"rental_uris":{"android":"levelo://app?vid=ee6f7e5c-24b4-4046-a3ec-072080785116","ios":"levelo://app?vid=ee6f7e5c-24b4-4046-a3ec-072080785116"},"vehicle_type_id":"4","last_reported":1766160813,"current_range_meters":8400,"station_id":"st_cvj6r9ubvosntc0bgbag","pricing_plan_id":"cebpf4jnsgd1na2vs0mg"},{"bike_id":"c5365846-c619-4f12-8c92-97c9f9725a15","system_id":"levelo_inurba_marseille","lat":43.29499,"lon":5.37936,"is_reserved":false,"is_disabled":false,"rental_uris":{"android":"levelo://app?vid=c5365846-c619-4f12-8c92-97c9f9725a15","ios":"levelo://app?vid=c5365846-c619-4f12-8c92-97c9f9725a15"},"vehicle_type_id":"4","last_reported":1766160813,"current_range_meters":8400,"station_id":"","pricing_plan_id":"cebpf4jnsgd1na2vs0mg"},{"bike_id":"796f98fc-31b8-45e9-85b6-d761c4849a0a","system_id":"levelo_inurba_marseille","lat":43.29024,"lon":5.35559,"is_reserved":false,"is_disabled":false,"rental_uris":{"android":"levelo://app?vid=796f98fc-31b8-45e9-85b6-d761c4849a0a","ios":"levelo://app?vid=796f98fc-31b8-45e9-85b6-d761c4849a0a"},"vehicle_type_id":"4","last_reported":1766160813,"current_range_meters":8400,"station_id":"ce4bhb92rcd13ifvqen0","pricing_plan_id":"cebpf4jnsgd1na2vs0mg"},{"bike_id":"aa72968c-3d8f-4bbf-8081-0367e3d01729","system_id":"levelo_inurba_marseille","lat":43.28628,"lon":5.35099,"is_reserved":false,"is_disabled":false,"rental_uris":{"android":"levelo://app?vid=aa72968c-3d8f-4bbf-8081-0367e3d01729","ios":"levelo://app?vid=aa72968c-3d8f-4bbf-8081-0367e3d01729"},"vehicle_type_id":"4","last_reported":1766160813,"current_range_meters":8800,"station_id":"ce4bhch2rcd13ifvqeug","pricing_plan_id":"cebpf4jnsgd1na2vs0mg"},{"bike_id":"1f8bf9e3-c9bd-4c05-9201-34f9580d25af","system_id":"levelo_inurba_marseille","lat":43.21189,"lon":5.35071,"is_reserved":false,"is_disabled":false,"rental_uris":{"android":"levelo://app?vid=1f8bf9e3-c9bd-4c05-9201-34f9580d25af","ios":"levelo://app?vid=1f8bf9e3-c9bd-4c05-9201-34f9580d25af"},"vehicle_type_id":"4","last_reported":1766160813,"current_range_meters":8800,"station_id":"st_cvj6sg6p6f1abm77japg","pricing_plan_id":"cebpf4jnsgd1na2vs0mg"},{"bike_id":"91dc96a9-ec51-4128-814e-ce3aa80480d3","system_id":"levelo_inurba_marseille","lat":43.30034,"lon":5.38065,"is_reserved":false,"is_disabled":false,"rental_uris":{"android":"levelo://app?vid=91dc96a9-ec51-4128-814e-ce3aa80480d3","ios":"levelo://app?vid=91dc96a9-ec51-4128-814e-ce3aa80480d3"},"vehicle_type_id":"4","last_reported":1766160813,"current_range_meters":8800,"station_id":"","pricing_plan_id":"cebpf4jnsgd1na2vs0mg"},{"bike_id":"cf44767d-5241-4ac2-93a9-f72e40f384bb","system_id":"levelo_inurba_marseille","lat":43.2656,"lon":5.39025,"is_reserved":false,"is_disabled":false,"rental_uris":{"android":"levelo://app?vid=cf44767d-5241-4ac2-93a9-f72e40f384bb","ios":"levelo://app?vid=cf44767d-5241-4ac2-93a9-f72e40f384bb"},"vehicle_type_id":"4","last_reported":1766160813,"current_range_meters":8800,"station_id":"ce4bhe12rcd13ifvqf30","pricing_plan_id":"cebpf4jnsgd1na2vs0mg"},{"bike_id":"96c47a82-fb1e-4c87-a00f-42a530d343ae","system_id":"levelo_inurba_marseille","lat":43.290161,"lon":5.381286,"is_reserved":false,"is_disabled":false,"rental_uris":{"android":"levelo://app?vid=96c47a82-fb1e-4c87-a00f-42a530d343ae","ios":"levelo://app?vid=96c47a82-fb1e-4c87-a00f-42a530d343ae"},"vehicle_type_id":"4","last_reported":1766160813,"current_range_meters":8800,"station_id":"ce4bh4p2rcd13ifvqe1g","pricing_plan_id":"cebpf4jnsgd1na2vs0mg"},{"bike_id":"374a0371-4968-4fe9-88a9-ac5ffa94b236","system_id":"levelo_inurba_marseille","lat":43.31456,"lon":5.45377,"is_reserved":false,"is_disabled":false,"rental_uris":{"android":"levelo://app?vid=374a0371-4968-4fe9-88a9-ac5ffa94b236","ios":"levelo://app?vid=374a0371-4968-4fe9-88a9-ac5ffa94b236"},"vehicle_type_id":"4","last_reported":1766160813,"current_range_meters":8800,"station_id":"","pricing_plan_id":"cebpf4jnsgd1na2vs0mg"},{"bike_id":"a6bb7fde-2db0-447e-8cac-38a0c3844ce6","system_id":"levelo_inurba_marseille","lat":43.27789,"lon":5.38827,"is_reserved":false,"is_disabled":false,"rental_uris":{"android":"levelo://app?vid=a6bb7fde-2db0-447e-8cac-38a0c3844ce6","ios":"levelo://app?vid=a6bb7fde-2db0-447e-8cac-38a0c3844ce6"},"vehicle_type_id":"4","last_reported":1766160813,"current_range_meters":9200,"station_id":"","pricing_plan_id":"cebpf4jnsgd1na2vs0mg"},{"bike_id":"305412fd-41fd-4f48-b0ce-d25b5a7eb63f","system_id":"levelo_inurba_marseille","lat":43.32674,"lon":5.38859,"is_reserved":false,"is_disabled":false,"rental_uris":{"android":"levelo://app?vid=305412fd-41fd-4f48-b0ce-d25b5a7eb63f","ios":"levelo://app?vid=305412fd-41fd-4f48-b0ce-d25b5a7eb63f"},"vehicle_type_id":"4","last_reported":1766160813,"current_range_meters":9200,"station_id":"","pricing_plan_id":"cebpf4jnsgd1na2vs0mg"},{"bike_id":"cd8ea67b-02ff-44a2-9f1e-0f06c2acc51a","system_id":"levelo_inurba_marseille","lat":43.33163,"lon":5.37685,"is_reserved":false,"is_disabled":false,"rental_uris":{"android":"levelo://app?vid=cd8ea67b-02ff-44a2-9f1e-0f06c2acc51a","ios":"levelo://app?vid=cd8ea67b-02ff-44a2-9f1e-0f06c2acc51a"},"vehicle_type_id":"4","last_reported":1766160813,"current_range_meters":9200,"station_id":"st_d46cu089ee8s73dldbu0","pricing_plan_id":"cebpf4jnsgd1na2vs0mg"},{"bike_id":"cf5eb2c1-c87d-4ae3-9256-41d8d82f1276","system_id":"levelo_inurba_marseille","lat":43.29224,"lon":5.36069,"is_reserved":false,"is_disabled":false,"rental_uris":{"android":"levelo://app?vid=cf5eb2c1-c87d-4ae3-9256-41d8d82f1276","ios":"levelo://app?vid=cf5eb2c1-c87d-4ae3-9256-41d8d82f1276"},"vehicle_type_id":"4","last_reported":1766160813,"current_range_meters":9200,"station_id":"ce4bhbh2rcd13ifvqeqg","pricing_plan_id":"cebpf4jnsgd1na2vs0mg"},{"bike_id":"f3a4c2fd-c27a-4ca6-bbe5-3949d2a88808","system_id":"levelo_inurba_marseille","lat":43.28584,"lon":5.43,"is_reserved":false,"is_disabled":false,"rental_uris":{"android":"levelo://app?vid=f3a4c2fd-c27a-4ca6-bbe5-3949d2a88808","ios":"levelo://app?vid=f3a4c2fd-c27a-4ca6-bbe5-3949d2a88808"},"vehicle_type_id":"4","last_reported":1766160813,"current_range_meters":9200,"station_id":"","pricing_plan_id":"cebpf4jnsgd1na2vs0mg"},{"bike_id":"17a49efb-d179-4b85-b20c-4afe87c0613f","system_id":"levelo_inurba_marseille","lat":43.310525,"lon":5.371794,"is_reserved":false,"is_disabled":true,"rental_uris":{"android":"levelo://app?vid=17a49efb-d179-4b85-b20c-4afe87c0613f","ios":"levelo://app?vid=17a49efb-d179-4b85-b20c-4afe87c0613f"},"vehicle_type_id":"4","last_reported":1766160813,"current_range_meters":9200,"station_id":"st_d4kl2rp97mjs73e7tdfg","pricing_plan_id":"cebpf4jnsgd1na2vs0mg"},{"bike_id":"48e30a46-3a61-4ed5-93c8-2b0ee8661bac","system_id":"levelo_inurba_marseille","lat":43.29761,"lon":5.37953,"is_reserved":false,"is_disabled":false,"rental_uris":{"android":"levelo://app?vid=48e30a46-3a61-4ed5-93c8-2b0ee8661bac","ios":"levelo://app?vid=48e30a46-3a61-4ed5-93c8-2b0ee8661bac"},"vehicle_type_id":"4","last_reported":1766160813,"current_range_meters":9200,"station_id":"","pricing_plan_id":"cebpf4jnsgd1na2vs0mg"},{"bike_id":"86ffd166-9c1d-485d-8aea-9f66030c620d","system_id":"levelo_inurba_marseille","lat":43.25576,"lon":5.38236,"is_reserved":false,"is_disabled":false,"rental_uris":{"android":"levelo://app?vid=86ffd166-9c1d-485d-8aea-9f66030c620d","ios":"levelo://app?vid=86ffd166-9c1d-485d-8aea-9f66030c620d"},"vehicle_type_id":"4","last_reported":1766160813,"current_range_meters":9600,"station_id":"ce4bhih2rcd13ifvqfs0","pricing_plan_id":"cebpf4jnsgd1na2vs0mg"},{"bike_id":"413557ff-13d9-40fb-81ee-6ad5e7d92bea","system_id":"levelo_inurba_marseille","lat":43.2119,"lon":5.35098,"is_reserved":false,"is_disabled":false,"rental_uris":{"android":"levelo://app?vid=413557ff-13d9-40fb-81ee-6ad5e7d92bea","ios":"levelo://app?vid=413557ff-13d9-40fb-81ee-6ad5e7d92bea"},"vehicle_type_id":"4","last_reported":1766160813,"current_range_meters":9600,"station_id":"st_cvj6sg6p6f1abm77japg","pricing_plan_id":"cebpf4jnsgd1na2vs0mg"},{"bike_id":"55732066-12e5-4347-9f53-840ae58de829","system_id":"levelo_inurba_marseille","lat":43.29974,"lon":5.37189,"is_reserved":false,"is_disabled":false,"rental_uris":{"android":"levelo://app?vid=55732066-12e5-4347-9f53-840ae58de829","ios":"levelo://app?vid=55732066-12e5-4347-9f53-840ae58de829"},"vehicle_type_id":"4","last_reported":1766160813,"current_range_meters":9600,"station_id":"ce4bgr92rcd13ifvqc7g","pricing_plan_id":"cebpf4jnsgd1na2vs0mg"},{"bike_id":"cc5267c5-b0d3-4dda-b918-43728ab5ecf7","system_id":"levelo_inurba_marseille","lat":43.28005,"lon":5.41668,"is_reserved":false,"is_disabled":false,"rental_uris":{"android":"levelo://app?vid=cc5267c5-b0d3-4dda-b918-43728ab5ecf7","ios":"levelo://app?vid=cc5267c5-b0d3-4dda-b918-43728ab5ecf7"},"vehicle_type_id":"4","last_reported":1766160813,"current_range_meters":9600,"station_id":"ce4bho12rcd13ifvqh1g","pricing_plan_id":"cebpf4jnsgd1na2vs0mg"},{"bike_id":"085acbb2-5d74-4722-90ba-13cf5a1e6238","system_id":"levelo_inurba_marseille","lat":43.2903,"lon":5.37558,"is_reserved":false,"is_disabled":false,"rental_uris":{"android":"levelo://app?vid=085acbb2-5d74-4722-90ba-13cf5a1e6238","ios":"levelo://app?vid=085acbb2-5d74-4722-90ba-13cf5a1e6238"},"vehicle_type_id":"4","last_reported":1766160813,"current_range_meters":9600,"station_id":"ce4bh692rcd13ifvqe90","pricing_plan_id":"cebpf4jnsgd1na2vs0mg"},{"bike_id":"a1811a19-d485-467f-9a3d-50dfb9a55442","system_id":"levelo_inurba_marseille","lat":43.30135,"lon":5.3879,"is_reserved":false,"is_disabled":false,"rental_uris":{"android":"levelo://app?vid=a1811a19-d485-467f-9a3d-50dfb9a55442","ios":"levelo://app?vid=a1811a19-d485-467f-9a3d-50dfb9a55442"},"vehicle_type_id":"4","last_reported":1766160813,"current_range_meters":9600,"station_id":"ce4bghh2rcd13ifvqb60","pricing_plan_id":"cebpf4jnsgd1na2vs0mg"},{"bike_id":"2f5bad4c-e678-4d6b-bb1d-ee473caa9d97","system_id":"levelo_inurba_marseille","lat":43.3014,"lon":5.37401,"is_reserved":false,"is_disabled":false,"rental_uris":{"android":"levelo://app?vid=2f5bad4c-e678-4d6b-bb1d-ee473caa9d97","ios":"levelo://app?vid=2f5bad4c-e678-4d6b-bb1d-ee473caa9d97"},"vehicle_type_id":"4","last_reported":1766160813,"current_range_meters":10000,"station_id":"ce4bgs92rcd13ifvqcc0","pricing_plan_id":"cebpf4jnsgd1na2vs0mg"},{"bike_id":"e27887cd-daf8-40f5-8111-f0fea05f0c7e","system_id":"levelo_inurba_marseille","lat":43.27917,"lon":5.39579,"is_reserved":false,"is_disabled":false,"rental_uris":{"android":"levelo://app?vid=e27887cd-daf8-40f5-8111-f0fea05f0c7e","ios":"levelo://app?vid=e27887cd-daf8-40f5-8111-f0fea05f0c7e"},"vehicle_type_id":"4","last_reported":1766160813,"current_range_meters":10000,"station_id":"ce4bhf92rcd13ifvqf40","pricing_plan_id":"cebpf4jnsgd1na2vs0mg"},{"bike_id":"bb1a4ad0-96cf-4976-b7ef-f710869ce918","system_id":"levelo_inurba_marseille","lat":43.25094,"lon":5.39539,"is_reserved":false,"is_disabled":false,"rental_uris":{"android":"levelo://app?vid=bb1a4ad0-96cf-4976-b7ef-f710869ce918","ios":"levelo://app?vid=bb1a4ad0-96cf-4976-b7ef-f710869ce918"},"vehicle_type_id":"4","last_reported":1766160813,"current_range_meters":10000,"station_id":"ce4bhm12rcd13ifvqgkg","pricing_plan_id":"cebpf4jnsgd1na2vs0mg"},{"bike_id":"212913cc-edbe-465e-9367-b63552bde39f","system_id":"levelo_inurba_marseille","lat":43.28995,"lon":5.35615,"is_reserved":false,"is_disabled":false,"rental_uris":{"android":"levelo://app?vid=212913cc-edbe-465e-9367-b63552bde39f","ios":"levelo://app?vid=212913cc-edbe-465e-9367-b63552bde39f"},"vehicle_type_id":"4","last_reported":1766160813,"current_range_meters":10000,"station_id":"ce4bhb92rcd13ifvqen0","pricing_plan_id":"cebpf4jnsgd1na2vs0mg"},{"bike_id":"28e7ea25-d676-49ca-8be6-ac1c19bc94ea","system_id":"levelo_inurba_marseille","lat":43.33426,"lon":5.40067,"is_reserved":false,"is_disabled":false,"rental_uris":{"android":"levelo://app?vid=28e7ea25-d676-49ca-8be6-ac1c19bc94ea","ios":"levelo://app?vid=28e7ea25-d676-49ca-8be6-ac1c19bc94ea"},"vehicle_type_id":"4","last_reported":1766160813,"current_range_meters":10000,"station_id":"","pricing_plan_id":"cebpf4jnsgd1na2vs0mg"},{"bike_id":"7c7ea4af-bb75-4279-961d-65bbfa6e5e24","system_id":"levelo_inurba_marseille","lat":43.30131,"lon":5.3987,"is_reserved":false,"is_disabled":false,"rental_uris":{"android":"levelo://app?vid=7c7ea4af-bb75-4279-961d-65bbfa6e5e24","ios":"levelo://app?vid=7c7ea4af-bb75-4279-961d-65bbfa6e5e24"},"vehicle_type_id":"4","last_reported":1766160813,"current_range_meters":10000,"station_id":"ce4bh0h2rcd13ifvqd40","pricing_plan_id":"cebpf4jnsgd1na2vs0mg"},{"bike_id":"700442f5-a082-454e-8bc7-ab3bbb77bfce","system_id":"levelo_inurba_marseille","lat":43.26678,"lon":5.3743,"is_reserved":false,"is_disabled":false,"rental_uris":{"android":"levelo://app?vid=700442f5-a082-454e-8bc7-ab3bbb77bfce","ios":"levelo://app?vid=700442f5-a082-454e-8bc7-ab3bbb77bfce"},"vehicle_type_id":"4","last_reported":1766160813,"current_range_meters":10000,"station_id":"","pricing_plan_id":"cebpf4jnsgd1na2vs0mg"},{"bike_id":"acd1113f-9fa8-47d0-afe0-3d4b6286c877","system_id":"levelo_inurba_marseille","lat":43.31216,"lon":5.36846,"is_reserved":false,"is_disabled":false,"rental_uris":{"android":"levelo://app?vid=acd1113f-9fa8-47d0-afe0-3d4b6286c877","ios":"levelo://app?vid=acd1113f-9fa8-47d0-afe0-3d4b6286c877"},"vehicle_type_id":"4","last_reported":1766160813,"current_range_meters":10000,"station_id":"ce4bgl92rcd13ifvqbq0","pricing_plan_id":"cebpf4jnsgd1na2vs0mg"},{"bike_id":"76fb7a73-a5f9-4340-855e-fcbbe13e759a","system_id":"levelo_inurba_marseille","lat":43.31874,"lon":5.39988,"is_reserved":false,"is_disabled":false,"rental_uris":{"android":"levelo://app?vid=76fb7a73-a5f9-4340-855e-fcbbe13e759a","ios":"levelo://app?vid=76fb7a73-a5f9-4340-855e-fcbbe13e759a"},"vehicle_type_id":"4","last_reported":1766160813,"current_range_meters":10800,"station_id":"","pricing_plan_id":"cebpf4jnsgd1na2vs0mg"},{"bike_id":"1c79eb29-135e-40c1-8651-901759d4aaa6","system_id":"levelo_inurba_marseille","lat":43.28576,"lon":5.35296,"is_reserved":false,"is_disabled":false,"rental_uris":{"android":"levelo://app?vid=1c79eb29-135e-40c1-8651-901759d4aaa6","ios":"levelo://app?vid=1c79eb29-135e-40c1-8651-901759d4aaa6"},"vehicle_type_id":"4","last_reported":1766160813,"current_range_meters":10800,"station_id":"","pricing_plan_id":"cebpf4jnsgd1na2vs0mg"},{"bike_id":"aa56cf9b-d522-4748-a959-9f58ea980825","system_id":"levelo_inurba_marseille","lat":43.29641,"lon":5.3773,"is_reserved":false,"is_disabled":false,"rental_uris":{"android":"levelo://app?vid=aa56cf9b-d522-4748-a959-9f58ea980825","ios":"levelo://app?vid=aa56cf9b-d522-4748-a959-9f58ea980825"},"vehicle_type_id":"4","last_reported":1766160813,"current_range_meters":10800,"station_id":"ce4bgi92rcd13ifvqb90","pricing_plan_id":"cebpf4jnsgd1na2vs0mg"},{"bike_id":"51850788-6d18-4067-a22e-183a3dbd8b5e","system_id":"levelo_inurba_marseille","lat":43.28622,"lon":5.35103,"is_reserved":false,"is_disabled":false,"rental_uris":{"android":"levelo://app?vid=51850788-6d18-4067-a22e-183a3dbd8b5e","ios":"levelo://app?vid=51850788-6d18-4067-a22e-183a3dbd8b5e"},"vehicle_type_id":"4","last_reported":1766160813,"current_range_meters":10800,"station_id":"ce4bhch2rcd13ifvqeug","pricing_plan_id":"cebpf4jnsgd1na2vs0mg"},{"bike_id":"689e1e25-96b9-418c-bbe1-0e8f9558c52f","system_id":"levelo_inurba_marseille","lat":43.31372,"lon":5.37697,"is_reserved":false,"is_disabled":false,"rental_uris":{"android":"levelo://app?vid=689e1e25-96b9-418c-bbe1-0e8f9558c52f","ios":"levelo://app?vid=689e1e25-96b9-418c-bbe1-0e8f9558c52f"},"vehicle_type_id":"4","last_reported":1766160813,"current_range_meters":10800,"station_id":"","pricing_plan_id":"cebpf4jnsgd1na2vs0mg"},{"bike_id":"47b454cd-01f9-4de3-b129-3f7a7abb6370","system_id":"levelo_inurba_marseille","lat":43.29238,"lon":5.36048,"is_reserved":false,"is_disabled":false,"rental_uris":{"android":"levelo://app?vid=47b454cd-01f9-4de3-b129-3f7a7abb6370","ios":"levelo://app?vid=47b454cd-01f9-4de3-b129-3f7a7abb6370"},"vehicle_type_id":"4","last_reported":1766160813,"current_range_meters":11200,"station_id":"ce4bhbh2rcd13ifvqeqg","pricing_plan_id":"cebpf4jnsgd1na2vs0mg"},{"bike_id":"87528428-91ec-4a5b-b934-ead2fd81910b","system_id":"levelo_inurba_marseille","lat":43.284738,"lon":5.38416,"is_reserved":false,"is_disabled":false,"rental_uris":{"android":"levelo://app?vid=87528428-91ec-4a5b-b934-ead2fd81910b","ios":"levelo://app?vid=87528428-91ec-4a5b-b934-ead2fd81910b"},"vehicle_type_id":"4","last_reported":1766160813,"current_range_meters":11200,"station_id":"ce4bh512rcd13ifvqe3g","pricing_plan_id":"cebpf4jnsgd1na2vs0mg"},{"bike_id":"a1fd8253-edff-49f6-95c0-f7c7da314418","system_id":"levelo_inurba_marseille","lat":43.297845,"lon":5.393422,"is_reserved":false,"is_disabled":false,"rental_uris":{"android":"levelo://app?vid=a1fd8253-edff-49f6-95c0-f7c7da314418","ios":"levelo://app?vid=a1fd8253-edff-49f6-95c0-f7c7da314418"},"vehicle_type_id":"4","last_reported":1766160813,"current_range_meters":11200,"station_id":"chh1huq6cuj3fo74tm60","pricing_plan_id":"cebpf4jnsgd1na2vs0mg"},{"bike_id":"655388c8-86ca-47de-bc0f-c435d8e77721","system_id":"levelo_inurba_marseille","lat":43.27368,"lon":5.36248,"is_reserved":false,"is_disabled":false,"rental_uris":{"android":"levelo://app?vid=655388c8-86ca-47de-bc0f-c435d8e77721","ios":"levelo://app?vid=655388c8-86ca-47de-bc0f-c435d8e77721"},"vehicle_type_id":"4","last_reported":1766160813,"current_range_meters":11200,"station_id":"ce4bhbh2rcd13ifvqeo0","pricing_plan_id":"cebpf4jnsgd1na2vs0mg"},{"bike_id":"09edc5cc-f96d-4ae1-9922-c4e1183c757c","system_id":"levelo_inurba_marseille","lat":43.24177,"lon":5.39738,"is_reserved":false,"is_disabled":false,"rental_uris":{"android":"levelo://app?vid=09edc5cc-f96d-4ae1-9922-c4e1183c757c","ios":"levelo://app?vid=09edc5cc-f96d-4ae1-9922-c4e1183c757c"},"vehicle_type_id":"4","last_reported":1766160813,"current_range_meters":11200,"station_id":"ce4bhn12rcd13ifvqgpg","pricing_plan_id":"cebpf4jnsgd1na2vs0mg"},{"bike_id":"8df0bda0-0676-4ae1-8d2b-b0f54cb0a846","system_id":"levelo_inurba_marseille","lat":43.30303,"lon":5.39209,"is_reserved":false,"is_disabled":false,"rental_uris":{"android":"levelo://app?vid=8df0bda0-0676-4ae1-8d2b-b0f54cb0a846","ios":"levelo://app?vid=8df0bda0-0676-4ae1-8d2b-b0f54cb0a846"},"vehicle_type_id":"4","last_reported":1766160813,"current_range_meters":11200,"station_id":"ce4bgkh2rcd13ifvqbk0","pricing_plan_id":"cebpf4jnsgd1na2vs0mg"},{"bike_id":"eace70d9-abc4-463e-ad30-564a1fb2f71d","system_id":"levelo_inurba_marseille","lat":43.2587,"lon":5.39897,"is_reserved":false,"is_disabled":false,"rental_uris":{"android":"levelo://app?vid=eace70d9-abc4-463e-ad30-564a1fb2f71d","ios":"levelo://app?vid=eace70d9-abc4-463e-ad30-564a1fb2f71d"},"vehicle_type_id":"4","last_reported":1766160813,"current_range_meters":11600,"station_id":"ce4bhl92rcd13ifvqghg","pricing_plan_id":"cebpf4jnsgd1na2vs0mg"},{"bike_id":"29ff8d65-fbca-42c1-b12e-cd4dc579808a","system_id":"levelo_inurba_marseille","lat":43.30151,"lon":5.37407,"is_reserved":false,"is_disabled":false,"rental_uris":{"android":"levelo://app?vid=29ff8d65-fbca-42c1-b12e-cd4dc579808a","ios":"levelo://app?vid=29ff8d65-fbca-42c1-b12e-cd4dc579808a"},"vehicle_type_id":"4","last_reported":1766160813,"current_range_meters":11600,"station_id":"ce4bgs92rcd13ifvqcc0","pricing_plan_id":"cebpf4jnsgd1na2vs0mg"},{"bike_id":"353191d5-c85e-4d2b-8a88-8af8c037e499","system_id":"levelo_inurba_marseille","lat":43.30149,"lon":5.37398,"is_reserved":false,"is_disabled":false,"rental_uris":{"android":"levelo://app?vid=353191d5-c85e-4d2b-8a88-8af8c037e499","ios":"levelo://app?vid=353191d5-c85e-4d2b-8a88-8af8c037e499"},"vehicle_type_id":"4","last_reported":1766160813,"current_range_meters":11600,"station_id":"ce4bgs92rcd13ifvqcc0","pricing_plan_id":"cebpf4jnsgd1na2vs0mg"},{"bike_id":"e0effb5a-e8c9-4234-ae32-e89cc890b254","system_id":"levelo_inurba_marseille","lat":43.288627,"lon":5.425214,"is_reserved":false,"is_disabled":false,"rental_uris":{"android":"levelo://app?vid=e0effb5a-e8c9-4234-ae32-e89cc890b254","ios":"levelo://app?vid=e0effb5a-e8c9-4234-ae32-e89cc890b254"},"vehicle_type_id":"4","last_reported":1766160813,"current_range_meters":11600,"station_id":"st_d3b462108ojc7389ooeg","pricing_plan_id":"cebpf4jnsgd1na2vs0mg"},{"bike_id":"84b0495d-fbaf-4d6a-9501-86968f61d2ec","system_id":"levelo_inurba_marseille","lat":43.29268,"lon":5.38441,"is_reserved":false,"is_disabled":false,"rental_uris":{"android":"levelo://app?vid=84b0495d-fbaf-4d6a-9501-86968f61d2ec","ios":"levelo://app?vid=84b0495d-fbaf-4d6a-9501-86968f61d2ec"},"vehicle_type_id":"4","last_reported":1766160813,"current_range_meters":11600,"station_id":"ce4bh692rcd13ifvqea0","pricing_plan_id":"cebpf4jnsgd1na2vs0mg"},{"bike_id":"25d10222-c173-4842-83dc-73c159ca8d0d","system_id":"levelo_inurba_marseille","lat":43.304389,"lon":5.378854,"is_reserved":false,"is_disabled":false,"rental_uris":{"android":"levelo://app?vid=25d10222-c173-4842-83dc-73c159ca8d0d","ios":"levelo://app?vid=25d10222-c173-4842-83dc-73c159ca8d0d"},"vehicle_type_id":"4","last_reported":1766160813,"current_range_meters":11600,"station_id":"ce4bgup2rcd13ifvqcn0","pricing_plan_id":"cebpf4jnsgd1na2vs0mg"},{"bike_id":"1c70b115-e95b-4353-a432-5565caadd1b0","system_id":"levelo_inurba_marseille","lat":43.28706,"lon":5.37394,"is_reserved":false,"is_disabled":false,"rental_uris":{"android":"levelo://app?vid=1c70b115-e95b-4353-a432-5565caadd1b0","ios":"levelo://app?vid=1c70b115-e95b-4353-a432-5565caadd1b0"},"vehicle_type_id":"4","last_reported":1766160813,"current_range_meters":11600,"station_id":"ce4bh3p2rcd13ifvqdq0","pricing_plan_id":"cebpf4jnsgd1na2vs0mg"},{"bike_id":"81cdd19c-9eb0-4b68-8437-f268e3e9b7c5","system_id":"levelo_inurba_marseille","lat":43.264972,"lon":5.395361,"is_reserved":false,"is_disabled":false,"rental_uris":{"android":"levelo://app?vid=81cdd19c-9eb0-4b68-8437-f268e3e9b7c5","ios":"levelo://app?vid=81cdd19c-9eb0-4b68-8437-f268e3e9b7c5"},"vehicle_type_id":"4","last_reported":1766160813,"current_range_meters":12000,"station_id":"ce4bhi12rcd13ifvqfq0","pricing_plan_id":"cebpf4jnsgd1na2vs0mg"},{"bike_id":"fcae12e9-dde1-430e-95a7-f5567d679aa5","system_id":"levelo_inurba_marseille","lat":43.29254,"lon":5.38436,"is_reserved":false,"is_disabled":true,"rental_uris":{"android":"levelo://app?vid=fcae12e9-dde1-430e-95a7-f5567d679aa5","ios":"levelo://app?vid=fcae12e9-dde1-430e-95a7-f5567d679aa5"},"vehicle_type_id":"4","last_reported":1766160813,"current_range_meters":12000,"station_id":"ce4bh692rcd13ifvqea0","pricing_plan_id":"cebpf4jnsgd1na2vs0mg"},{"bike_id":"fea8c6ab-10d2-4ad1-bd5d-1b4509d677ce","system_id":"levelo_inurba_marseille","lat":43.29892,"lon":5.45434,"is_reserved":false,"is_disabled":false,"rental_uris":{"android":"levelo://app?vid=fea8c6ab-10d2-4ad1-bd5d-1b4509d677ce","ios":"levelo://app?vid=fea8c6ab-10d2-4ad1-bd5d-1b4509d677ce"},"vehicle_type_id":"4","last_reported":1766160813,"current_range_meters":12000,"station_id":"ce4bhhp2rcd13ifvqfm0","pricing_plan_id":"cebpf4jnsgd1na2vs0mg"},{"bike_id":"128f68df-e6c8-471d-bf6e-3a9c347712de","system_id":"levelo_inurba_marseille","lat":43.29234,"lon":5.40898,"is_reserved":false,"is_disabled":false,"rental_uris":{"android":"levelo://app?vid=128f68df-e6c8-471d-bf6e-3a9c347712de","ios":"levelo://app?vid=128f68df-e6c8-471d-bf6e-3a9c347712de"},"vehicle_type_id":"4","last_reported":1766160813,"current_range_meters":12000,"station_id":"ce4bh192rcd13ifvqdc0","pricing_plan_id":"cebpf4jnsgd1na2vs0mg"},{"bike_id":"d4019682-44c3-455d-93b8-3f5cb1951937","system_id":"levelo_inurba_marseille","lat":43.2622,"lon":5.37454,"is_reserved":false,"is_disabled":false,"rental_uris":{"android":"levelo://app?vid=d4019682-44c3-455d-93b8-3f5cb1951937","ios":"levelo://app?vid=d4019682-44c3-455d-93b8-3f5cb1951937"},"vehicle_type_id":"4","last_reported":1766160813,"current_range_meters":12000,"station_id":"ce4bhgp2rcd13ifvqfc0","pricing_plan_id":"cebpf4jnsgd1na2vs0mg"},{"bike_id":"67486f1b-a40b-4e91-8dc3-2d661fa8d1bb","system_id":"levelo_inurba_marseille","lat":43.29221,"lon":5.36067,"is_reserved":false,"is_disabled":false,"rental_uris":{"android":"levelo://app?vid=67486f1b-a40b-4e91-8dc3-2d661fa8d1bb","ios":"levelo://app?vid=67486f1b-a40b-4e91-8dc3-2d661fa8d1bb"},"vehicle_type_id":"4","last_reported":1766160813,"current_range_meters":12000,"station_id":"ce4bhbh2rcd13ifvqeqg","pricing_plan_id":"cebpf4jnsgd1na2vs0mg"},{"bike_id":"2804a5d3-faa8-4e3b-a458-ce91cd4919af","system_id":"levelo_inurba_marseille","lat":43.29235,"lon":5.36082,"is_reserved":false,"is_disabled":false,"rental_uris":{"android":"levelo://app?vid=2804a5d3-faa8-4e3b-a458-ce91cd4919af","ios":"levelo://app?vid=2804a5d3-faa8-4e3b-a458-ce91cd4919af"},"vehicle_type_id":"4","last_reported":1766160813,"current_range_meters":12000,"station_id":"ce4bhbh2rcd13ifvqeqg","pricing_plan_id":"cebpf4jnsgd1na2vs0mg"},{"bike_id":"bffb0268-f669-46f4-a17a-6fb5f5025ce7","system_id":"levelo_inurba_marseille","lat":43.29867,"lon":5.39731,"is_reserved":false,"is_disabled":false,"rental_uris":{"android":"levelo://app?vid=bffb0268-f669-46f4-a17a-6fb5f5025ce7","ios":"levelo://app?vid=bffb0268-f669-46f4-a17a-6fb5f5025ce7"},"vehicle_type_id":"4","last_reported":1766160813,"current_range_meters":12000,"station_id":"ce4bh0h2rcd13ifvqd50","pricing_plan_id":"cebpf4jnsgd1na2vs0mg"},{"bike_id":"d54651ee-52a6-40c2-8c73-798568414042","system_id":"levelo_inurba_marseille","lat":43.30149,"lon":5.3808,"is_reserved":false,"is_disabled":false,"rental_uris":{"android":"levelo://app?vid=d54651ee-52a6-40c2-8c73-798568414042","ios":"levelo://app?vid=d54651ee-52a6-40c2-8c73-798568414042"},"vehicle_type_id":"4","last_reported":1766160813,"current_range_meters":12000,"station_id":"ce4bgjp2rcd13ifvqbh0","pricing_plan_id":"cebpf4jnsgd1na2vs0mg"},{"bike_id":"822421de-ecbe-44a0-9324-e69ab56f2f17","system_id":"levelo_inurba_marseille","lat":43.24543,"lon":5.39523,"is_reserved":false,"is_disabled":false,"rental_uris":{"android":"levelo://app?vid=822421de-ecbe-44a0-9324-e69ab56f2f17","ios":"levelo://app?vid=822421de-ecbe-44a0-9324-e69ab56f2f17"},"vehicle_type_id":"4","last_reported":1766160813,"current_range_meters":12000,"station_id":"ce4bhlp2rcd13ifvqgjg","pricing_plan_id":"cebpf4jnsgd1na2vs0mg"},{"bike_id":"6ec9a6be-eed9-4adb-a34f-9a64c85ea37b","system_id":"levelo_inurba_marseille","lat":43.30589,"lon":5.37596,"is_reserved":false,"is_disabled":false,"rental_uris":{"android":"levelo://app?vid=6ec9a6be-eed9-4adb-a34f-9a64c85ea37b","ios":"levelo://app?vid=6ec9a6be-eed9-4adb-a34f-9a64c85ea37b"},"vehicle_type_id":"4","last_reported":1766160813,"current_range_meters":12000,"station_id":"","pricing_plan_id":"cebpf4jnsgd1na2vs0mg"},{"bike_id":"02cb24cc-e062-4b73-80fd-141f91a697f7","system_id":"levelo_inurba_marseille","lat":43.31569,"lon":5.37662,"is_reserved":false,"is_disabled":false,"rental_uris":{"android":"levelo://app?vid=02cb24cc-e062-4b73-80fd-141f91a697f7","ios":"levelo://app?vid=02cb24cc-e062-4b73-80fd-141f91a697f7"},"vehicle_type_id":"4","last_reported":1766160813,"current_range_meters":12000,"station_id":"","pricing_plan_id":"cebpf4jnsgd1na2vs0mg"},{"bike_id":"7c631a3f-3b42-4b5c-9ad2-150a47e3ad7c","system_id":"levelo_inurba_marseille","lat":43.24996,"lon":5.38938,"is_reserved":false,"is_disabled":false,"rental_uris":{"android":"levelo://app?vid=7c631a3f-3b42-4b5c-9ad2-150a47e3ad7c","ios":"levelo://app?vid=7c631a3f-3b42-4b5c-9ad2-150a47e3ad7c"},"vehicle_type_id":"4","last_reported":1766160813,"current_range_meters":12000,"station_id":"ce4bhgp2rcd13ifvqfd0","pricing_plan_id":"cebpf4jnsgd1na2vs0mg"},{"bike_id":"906a1da3-e459-40c8-8412-5a449ff1a00a","system_id":"levelo_inurba_marseille","lat":43.30461,"lon":5.37898,"is_reserved":false,"is_disabled":false,"rental_uris":{"android":"levelo://app?vid=906a1da3-e459-40c8-8412-5a449ff1a00a","ios":"levelo://app?vid=906a1da3-e459-40c8-8412-5a449ff1a00a"},"vehicle_type_id":"4","last_reported":1766160813,"current_range_meters":12400,"station_id":"ce4bgup2rcd13ifvqcn0","pricing_plan_id":"cebpf4jnsgd1na2vs0mg"},{"bike_id":"cd56ed7d-d5b2-4bc7-b68c-0dbca99a77e9","system_id":"levelo_inurba_marseille","lat":43.30882,"lon":5.39656,"is_reserved":false,"is_disabled":false,"rental_uris":{"android":"levelo://app?vid=cd56ed7d-d5b2-4bc7-b68c-0dbca99a77e9","ios":"levelo://app?vid=cd56ed7d-d5b2-4bc7-b68c-0dbca99a77e9"},"vehicle_type_id":"4","last_reported":1766160813,"current_range_meters":12400,"station_id":"ce4bh012rcd13ifvqcv0","pricing_plan_id":"cebpf4jnsgd1na2vs0mg"},{"bike_id":"caf2dc66-b4bc-4c71-a229-058d19632abd","system_id":"levelo_inurba_marseille","lat":43.330233,"lon":5.390373,"is_reserved":false,"is_disabled":false,"rental_uris":{"android":"levelo://app?vid=caf2dc66-b4bc-4c71-a229-058d19632abd","ios":"levelo://app?vid=caf2dc66-b4bc-4c71-a229-058d19632abd"},"vehicle_type_id":"4","last_reported":1766160813,"current_range_meters":12400,"station_id":"ce4bhr92rcd13ifvqhrg","pricing_plan_id":"cebpf4jnsgd1na2vs0mg"},{"bike_id":"00a29bb1-88ca-440d-9219-07d673c689ed","system_id":"levelo_inurba_marseille","lat":43.30476,"lon":5.36698,"is_reserved":false,"is_disabled":false,"rental_uris":{"android":"levelo://app?vid=00a29bb1-88ca-440d-9219-07d673c689ed","ios":"levelo://app?vid=00a29bb1-88ca-440d-9219-07d673c689ed"},"vehicle_type_id":"4","last_reported":1766160813,"current_range_meters":12400,"station_id":"","pricing_plan_id":"cebpf4jnsgd1na2vs0mg"},{"bike_id":"50f85479-fec1-46fd-b398-b47031d6d2bf","system_id":"levelo_inurba_marseille","lat":43.30542,"lon":5.36687,"is_reserved":false,"is_disabled":false,"rental_uris":{"android":"levelo://app?vid=50f85479-fec1-46fd-b398-b47031d6d2bf","ios":"levelo://app?vid=50f85479-fec1-46fd-b398-b47031d6d2bf"},"vehicle_type_id":"4","last_reported":1766160813,"current_range_meters":12400,"station_id":"ce4bgrp2rcd13ifvqc9g","pricing_plan_id":"cebpf4jnsgd1na2vs0mg"},{"bike_id":"dcf784f4-8fb6-484a-a880-b53a6c3cae38","system_id":"levelo_inurba_marseille","lat":43.24469,"lon":5.42533,"is_reserved":false,"is_disabled":false,"rental_uris":{"android":"levelo://app?vid=dcf784f4-8fb6-484a-a880-b53a6c3cae38","ios":"levelo://app?vid=dcf784f4-8fb6-484a-a880-b53a6c3cae38"},"vehicle_type_id":"4","last_reported":1766160813,"current_range_meters":12400,"station_id":"st_d4a3vfp97mjs738cd8kg","pricing_plan_id":"cebpf4jnsgd1na2vs0mg"},{"bike_id":"0e831b8a-ba65-4401-84c3-afd3e8869534","system_id":"levelo_inurba_marseille","lat":43.29627,"lon":5.37145,"is_reserved":false,"is_disabled":false,"rental_uris":{"android":"levelo://app?vid=0e831b8a-ba65-4401-84c3-afd3e8869534","ios":"levelo://app?vid=0e831b8a-ba65-4401-84c3-afd3e8869534"},"vehicle_type_id":"4","last_reported":1766160813,"current_range_meters":12400,"station_id":"ce4bgnh2rcd13ifvqc0g","pricing_plan_id":"cebpf4jnsgd1na2vs0mg"},{"bike_id":"38fbca3d-84ff-4072-a4e3-90b133a10a07","system_id":"levelo_inurba_marseille","lat":43.31363,"lon":5.38493,"is_reserved":false,"is_disabled":false,"rental_uris":{"android":"levelo://app?vid=38fbca3d-84ff-4072-a4e3-90b133a10a07","ios":"levelo://app?vid=38fbca3d-84ff-4072-a4e3-90b133a10a07"},"vehicle_type_id":"4","last_reported":1766160813,"current_range_meters":12400,"station_id":"ce4bgt92rcd13ifvqcf0","pricing_plan_id":"cebpf4jnsgd1na2vs0mg"},{"bike_id":"e0f84bae-cbb0-4084-a9dd-e2f11ef77ffa","system_id":"levelo_inurba_marseille","lat":43.31072,"lon":5.38365,"is_reserved":false,"is_disabled":false,"rental_uris":{"android":"levelo://app?vid=e0f84bae-cbb0-4084-a9dd-e2f11ef77ffa","ios":"levelo://app?vid=e0f84bae-cbb0-4084-a9dd-e2f11ef77ffa"},"vehicle_type_id":"4","last_reported":1766160813,"current_range_meters":12400,"station_id":"ce4bgv92rcd13ifvqcr0","pricing_plan_id":"cebpf4jnsgd1na2vs0mg"},{"bike_id":"3adb05f0-fa0f-4f18-8370-2877e879af9b","system_id":"levelo_inurba_marseille","lat":43.26775,"lon":5.39422,"is_reserved":false,"is_disabled":false,"rental_uris":{"android":"levelo://app?vid=3adb05f0-fa0f-4f18-8370-2877e879af9b","ios":"levelo://app?vid=3adb05f0-fa0f-4f18-8370-2877e879af9b"},"vehicle_type_id":"4","last_reported":1766160813,"current_range_meters":12400,"station_id":"ce4bhh12rcd13ifvqfg0","pricing_plan_id":"cebpf4jnsgd1na2vs0mg"},{"bike_id":"fcd75001-1344-42ec-a013-2f4c6240ace8","system_id":"levelo_inurba_marseille","lat":43.29804,"lon":5.38646,"is_reserved":false,"is_disabled":false,"rental_uris":{"android":"levelo://app?vid=fcd75001-1344-42ec-a013-2f4c6240ace8","ios":"levelo://app?vid=fcd75001-1344-42ec-a013-2f4c6240ace8"},"vehicle_type_id":"4","last_reported":1766160813,"current_range_meters":12800,"station_id":"","pricing_plan_id":"cebpf4jnsgd1na2vs0mg"},{"bike_id":"26c560a8-e56e-4fe2-af99-2e37881a612a","system_id":"levelo_inurba_marseille","lat":43.31117,"lon":5.37766,"is_reserved":false,"is_disabled":false,"rental_uris":{"android":"levelo://app?vid=26c560a8-e56e-4fe2-af99-2e37881a612a","ios":"levelo://app?vid=26c560a8-e56e-4fe2-af99-2e37881a612a"},"vehicle_type_id":"4","last_reported":1766160813,"current_range_meters":12800,"station_id":"ce4bgt92rcd13ifvqcg0","pricing_plan_id":"cebpf4jnsgd1na2vs0mg"},{"bike_id":"f76f9e4d-d309-41e5-bccd-e5b55b3c97ca","system_id":"levelo_inurba_marseille","lat":43.2862,"lon":5.3509,"is_reserved":false,"is_disabled":false,"rental_uris":{"android":"levelo://app?vid=f76f9e4d-d309-41e5-bccd-e5b55b3c97ca","ios":"levelo://app?vid=f76f9e4d-d309-41e5-bccd-e5b55b3c97ca"},"vehicle_type_id":"4","last_reported":1766160813,"current_range_meters":12800,"station_id":"ce4bhch2rcd13ifvqeug","pricing_plan_id":"cebpf4jnsgd1na2vs0mg"},{"bike_id":"657677ff-bd0f-45b9-a985-0cee09b5fde2","system_id":"levelo_inurba_marseille","lat":43.31707,"lon":5.43693,"is_reserved":false,"is_disabled":false,"rental_uris":{"android":"levelo://app?vid=657677ff-bd0f-45b9-a985-0cee09b5fde2","ios":"levelo://app?vid=657677ff-bd0f-45b9-a985-0cee09b5fde2"},"vehicle_type_id":"4","last_reported":1766160813,"current_range_meters":12800,"station_id":"ce4bhp92rcd13ifvqhcg","pricing_plan_id":"cebpf4jnsgd1na2vs0mg"},{"bike_id":"342831ac-e927-49d6-8b43-22fa72e5bef8","system_id":"levelo_inurba_marseille","lat":43.27969,"lon":5.38729,"is_reserved":false,"is_disabled":false,"rental_uris":{"android":"levelo://app?vid=342831ac-e927-49d6-8b43-22fa72e5bef8","ios":"levelo://app?vid=342831ac-e927-49d6-8b43-22fa72e5bef8"},"vehicle_type_id":"4","last_reported":1766160813,"current_range_meters":12800,"station_id":"ce4bhg12rcd13ifvqf80","pricing_plan_id":"cebpf4jnsgd1na2vs0mg"},{"bike_id":"5cfdf108-64c2-4b38-8628-9d012576cd8b","system_id":"levelo_inurba_marseille","lat":43.335405,"lon":5.374705,"is_reserved":false,"is_disabled":false,"rental_uris":{"android":"levelo://app?vid=5cfdf108-64c2-4b38-8628-9d012576cd8b","ios":"levelo://app?vid=5cfdf108-64c2-4b38-8628-9d012576cd8b"},"vehicle_type_id":"4","last_reported":1766160813,"current_range_meters":12800,"station_id":"st_d46tts09ee8s73dlu43g","pricing_plan_id":"cebpf4jnsgd1na2vs0mg"},{"bike_id":"cef4d77b-7da2-4b0f-acf6-3766144447f1","system_id":"levelo_inurba_marseille","lat":43.29002,"lon":5.3561,"is_reserved":false,"is_disabled":false,"rental_uris":{"android":"levelo://app?vid=cef4d77b-7da2-4b0f-acf6-3766144447f1","ios":"levelo://app?vid=cef4d77b-7da2-4b0f-acf6-3766144447f1"},"vehicle_type_id":"4","last_reported":1766160813,"current_range_meters":12800,"station_id":"ce4bhb92rcd13ifvqen0","pricing_plan_id":"cebpf4jnsgd1na2vs0mg"},{"bike_id":"000c23a2-96e3-4495-abaa-9e9cf217828b","system_id":"levelo_inurba_marseille","lat":43.29795,"lon":5.38088,"is_reserved":false,"is_disabled":false,"rental_uris":{"android":"levelo://app?vid=000c23a2-96e3-4495-abaa-9e9cf217828b","ios":"levelo://app?vid=000c23a2-96e3-4495-abaa-9e9cf217828b"},"vehicle_type_id":"4","last_reported":1766160813,"current_range_meters":13600,"station_id":"ce4bgip2rcd13ifvqbb0","pricing_plan_id":"cebpf4jnsgd1na2vs0mg"},{"bike_id":"572d18d1-388e-446b-b652-a351df440543","system_id":"levelo_inurba_marseille","lat":43.29974,"lon":5.38491,"is_reserved":false,"is_disabled":false,"rental_uris":{"android":"levelo://app?vid=572d18d1-388e-446b-b652-a351df440543","ios":"levelo://app?vid=572d18d1-388e-446b-b652-a351df440543"},"vehicle_type_id":"4","last_reported":1766160813,"current_range_meters":13600,"station_id":"ce4bgj92rcd13ifvqbd0","pricing_plan_id":"cebpf4jnsgd1na2vs0mg"},{"bike_id":"5dc013a0-6d5f-425a-8554-3da4042bc007","system_id":"levelo_inurba_marseille","lat":43.22937,"lon":5.35376,"is_reserved":false,"is_disabled":false,"rental_uris":{"android":"levelo://app?vid=5dc013a0-6d5f-425a-8554-3da4042bc007","ios":"levelo://app?vid=5dc013a0-6d5f-425a-8554-3da4042bc007"},"vehicle_type_id":"4","last_reported":1766160813,"current_range_meters":13600,"station_id":"cpo3532slgdg3j2ikp40","pricing_plan_id":"cebpf4jnsgd1na2vs0mg"},{"bike_id":"0d9297ce-f2d0-4d3a-b34b-40c0d18a1dd9","system_id":"levelo_inurba_marseille","lat":43.229231,"lon":5.353775,"is_reserved":false,"is_disabled":true,"rental_uris":{"android":"levelo://app?vid=0d9297ce-f2d0-4d3a-b34b-40c0d18a1dd9","ios":"levelo://app?vid=0d9297ce-f2d0-4d3a-b34b-40c0d18a1dd9"},"vehicle_type_id":"4","last_reported":1766160813,"current_range_meters":13600,"station_id":"cpo3532slgdg3j2ikp40","pricing_plan_id":"cebpf4jnsgd1na2vs0mg"},{"bike_id":"0d303fc7-606f-4943-9629-57c31a744736","system_id":"levelo_inurba_marseille","lat":43.28517,"lon":5.44056,"is_reserved":false,"is_disabled":false,"rental_uris":{"android":"levelo://app?vid=0d303fc7-606f-4943-9629-57c31a744736","ios":"levelo://app?vid=0d303fc7-606f-4943-9629-57c31a744736"},"vehicle_type_id":"4","last_reported":1766160813,"current_range_meters":13600,"station_id":"st_d3j3df2ikq2c7380ej80","pricing_plan_id":"cebpf4jnsgd1na2vs0mg"},{"bike_id":"207776d7-b88e-48a6-b74f-2b1aae5e54c7","system_id":"levelo_inurba_marseille","lat":43.268961,"lon":5.387159,"is_reserved":false,"is_disabled":false,"rental_uris":{"android":"levelo://app?vid=207776d7-b88e-48a6-b74f-2b1aae5e54c7","ios":"levelo://app?vid=207776d7-b88e-48a6-b74f-2b1aae5e54c7"},"vehicle_type_id":"4","last_reported":1766160813,"current_range_meters":13600,"station_id":"","pricing_plan_id":"cebpf4jnsgd1na2vs0mg"},{"bike_id":"6dd02831-3476-40a3-9648-da8b220f9ce0","system_id":"levelo_inurba_marseille","lat":43.30152,"lon":5.381,"is_reserved":false,"is_disabled":false,"rental_uris":{"android":"levelo://app?vid=6dd02831-3476-40a3-9648-da8b220f9ce0","ios":"levelo://app?vid=6dd02831-3476-40a3-9648-da8b220f9ce0"},"vehicle_type_id":"4","last_reported":1766160813,"current_range_meters":13600,"station_id":"ce4bgjp2rcd13ifvqbh0","pricing_plan_id":"cebpf4jnsgd1na2vs0mg"},{"bike_id":"bb67b255-5e37-444f-b7a3-316dd67e2430","system_id":"levelo_inurba_marseille","lat":43.29177,"lon":5.35789,"is_reserved":false,"is_disabled":false,"rental_uris":{"android":"levelo://app?vid=bb67b255-5e37-444f-b7a3-316dd67e2430","ios":"levelo://app?vid=bb67b255-5e37-444f-b7a3-316dd67e2430"},"vehicle_type_id":"4","last_reported":1766160813,"current_range_meters":13600,"station_id":"ce4bgh92rcd13ifvqb40","pricing_plan_id":"cebpf4jnsgd1na2vs0mg"},{"bike_id":"8ddf5f0b-8638-4227-b0ee-efe27c023df6","system_id":"levelo_inurba_marseille","lat":43.308014,"lon":5.381433,"is_reserved":false,"is_disabled":false,"rental_uris":{"android":"levelo://app?vid=8ddf5f0b-8638-4227-b0ee-efe27c023df6","ios":"levelo://app?vid=8ddf5f0b-8638-4227-b0ee-efe27c023df6"},"vehicle_type_id":"4","last_reported":1766160813,"current_range_meters":13600,"station_id":"ce4bgjp2rcd13ifvqbh0","pricing_plan_id":"cebpf4jnsgd1na2vs0mg"},{"bike_id":"305ed03b-15ad-425e-810c-5ccb0dbadc90","system_id":"levelo_inurba_marseille","lat":43.30164,"lon":5.37422,"is_reserved":false,"is_disabled":false,"rental_uris":{"android":"levelo://app?vid=305ed03b-15ad-425e-810c-5ccb0dbadc90","ios":"levelo://app?vid=305ed03b-15ad-425e-810c-5ccb0dbadc90"},"vehicle_type_id":"4","last_reported":1766160813,"current_range_meters":13600,"station_id":"ce4bgs92rcd13ifvqcc0","pricing_plan_id":"cebpf4jnsgd1na2vs0mg"},{"bike_id":"7457a7d7-030f-4bff-8dc2-09546b34dfaa","system_id":"levelo_inurba_marseille","lat":43.29032,"lon":5.39988,"is_reserved":false,"is_disabled":false,"rental_uris":{"android":"levelo://app?vid=7457a7d7-030f-4bff-8dc2-09546b34dfaa","ios":"levelo://app?vid=7457a7d7-030f-4bff-8dc2-09546b34dfaa"},"vehicle_type_id":"4","last_reported":1766160813,"current_range_meters":13600,"station_id":"ce4bh392rcd13ifvqdm0","pricing_plan_id":"cebpf4jnsgd1na2vs0mg"},{"bike_id":"177fd090-0076-4f92-9832-62b1c96ea1ea","system_id":"levelo_inurba_marseille","lat":43.25332,"lon":5.42176,"is_reserved":false,"is_disabled":true,"rental_uris":{"android":"levelo://app?vid=177fd090-0076-4f92-9832-62b1c96ea1ea","ios":"levelo://app?vid=177fd090-0076-4f92-9832-62b1c96ea1ea"},"vehicle_type_id":"4","last_reported":1766160813,"current_range_meters":13600,"station_id":"st_d2m65c5bi1j21697t3ng","pricing_plan_id":"cebpf4jnsgd1na2vs0mg"},{"bike_id":"8caff94a-1c79-489d-8a26-f350f2d2f369","system_id":"levelo_inurba_marseille","lat":43.27066,"lon":5.42278,"is_reserved":false,"is_disabled":false,"rental_uris":{"android":"levelo://app?vid=8caff94a-1c79-489d-8a26-f350f2d2f369","ios":"levelo://app?vid=8caff94a-1c79-489d-8a26-f350f2d2f369"},"vehicle_type_id":"4","last_reported":1766160813,"current_range_meters":13600,"station_id":"ce4bhk92rcd13ifvqgb0","pricing_plan_id":"cebpf4jnsgd1na2vs0mg"},{"bike_id":"d7e1c304-f702-4ea5-ad17-e3d770bf7140","system_id":"levelo_inurba_marseille","lat":43.28719,"lon":5.37928,"is_reserved":false,"is_disabled":false,"rental_uris":{"android":"levelo://app?vid=d7e1c304-f702-4ea5-ad17-e3d770bf7140","ios":"levelo://app?vid=d7e1c304-f702-4ea5-ad17-e3d770bf7140"},"vehicle_type_id":"4","last_reported":1766160813,"current_range_meters":13600,"station_id":"ce4bh9p2rcd13ifvqec0","pricing_plan_id":"cebpf4jnsgd1na2vs0mg"},{"bike_id":"62f5c004-1e9f-4d5e-afaa-33b08a7310d9","system_id":"levelo_inurba_marseille","lat":43.273645,"lon":5.393153,"is_reserved":false,"is_disabled":false,"rental_uris":{"android":"levelo://app?vid=62f5c004-1e9f-4d5e-afaa-33b08a7310d9","ios":"levelo://app?vid=62f5c004-1e9f-4d5e-afaa-33b08a7310d9"},"vehicle_type_id":"4","last_reported":1766160813,"current_range_meters":14000,"station_id":"","pricing_plan_id":"cebpf4jnsgd1na2vs0mg"},{"bike_id":"c770c5ef-15e0-436a-803e-ab05afe1a0d7","system_id":"levelo_inurba_marseille","lat":43.29627,"lon":5.37752,"is_reserved":false,"is_disabled":false,"rental_uris":{"android":"levelo://app?vid=c770c5ef-15e0-436a-803e-ab05afe1a0d7","ios":"levelo://app?vid=c770c5ef-15e0-436a-803e-ab05afe1a0d7"},"vehicle_type_id":"4","last_reported":1766160813,"current_range_meters":14000,"station_id":"ce4bgi92rcd13ifvqb90","pricing_plan_id":"cebpf4jnsgd1na2vs0mg"},{"bike_id":"f1c6ef30-df40-4531-b632-19b3b8de3f93","system_id":"levelo_inurba_marseille","lat":43.337444,"lon":5.374475,"is_reserved":false,"is_disabled":false,"rental_uris":{"android":"levelo://app?vid=f1c6ef30-df40-4531-b632-19b3b8de3f93","ios":"levelo://app?vid=f1c6ef30-df40-4531-b632-19b3b8de3f93"},"vehicle_type_id":"4","last_reported":1766160813,"current_range_meters":14000,"station_id":"","pricing_plan_id":"cebpf4jnsgd1na2vs0mg"},{"bike_id":"bcb638ec-1f7a-45bb-913f-62a7a0a453a1","system_id":"levelo_inurba_marseille","lat":43.298334,"lon":5.385736,"is_reserved":false,"is_disabled":false,"rental_uris":{"android":"levelo://app?vid=bcb638ec-1f7a-45bb-913f-62a7a0a453a1","ios":"levelo://app?vid=bcb638ec-1f7a-45bb-913f-62a7a0a453a1"},"vehicle_type_id":"4","last_reported":1766160813,"current_range_meters":14000,"station_id":"","pricing_plan_id":"cebpf4jnsgd1na2vs0mg"},{"bike_id":"1e80a204-7357-4919-a1b8-d655b46214a5","system_id":"levelo_inurba_marseille","lat":43.32364,"lon":5.38874,"is_reserved":false,"is_disabled":false,"rental_uris":{"android":"levelo://app?vid=1e80a204-7357-4919-a1b8-d655b46214a5","ios":"levelo://app?vid=1e80a204-7357-4919-a1b8-d655b46214a5"},"vehicle_type_id":"4","last_reported":1766160813,"current_range_meters":14000,"station_id":"ce4bhqp2rcd13ifvqhog","pricing_plan_id":"cebpf4jnsgd1na2vs0mg"},{"bike_id":"af81b170-e7fd-4b5c-8871-33c65aa890a2","system_id":"levelo_inurba_marseille","lat":43.274231,"lon":5.394209,"is_reserved":false,"is_disabled":false,"rental_uris":{"android":"levelo://app?vid=af81b170-e7fd-4b5c-8871-33c65aa890a2","ios":"levelo://app?vid=af81b170-e7fd-4b5c-8871-33c65aa890a2"},"vehicle_type_id":"4","last_reported":1766160813,"current_range_meters":14000,"station_id":"ce4bhdp2rcd13ifvqf20","pricing_plan_id":"cebpf4jnsgd1na2vs0mg"},{"bike_id":"ca146c2e-28d6-4f35-80b1-efb3bde5d07a","system_id":"levelo_inurba_marseille","lat":43.26558,"lon":5.37287,"is_reserved":false,"is_disabled":false,"rental_uris":{"android":"levelo://app?vid=ca146c2e-28d6-4f35-80b1-efb3bde5d07a","ios":"levelo://app?vid=ca146c2e-28d6-4f35-80b1-efb3bde5d07a"},"vehicle_type_id":"4","last_reported":1766160813,"current_range_meters":14000,"station_id":"ce4bhg12rcd13ifvqf70","pricing_plan_id":"cebpf4jnsgd1na2vs0mg"},{"bike_id":"e8b68253-44c0-4693-aa5c-510214b59dcd","system_id":"levelo_inurba_marseille","lat":43.29582,"lon":5.37509,"is_reserved":false,"is_disabled":false,"rental_uris":{"android":"levelo://app?vid=e8b68253-44c0-4693-aa5c-510214b59dcd","ios":"levelo://app?vid=e8b68253-44c0-4693-aa5c-510214b59dcd"},"vehicle_type_id":"4","last_reported":1766160813,"current_range_meters":14000,"station_id":"ce4bgh92rcd13ifvqb50","pricing_plan_id":"cebpf4jnsgd1na2vs0mg"},{"bike_id":"f93aff0a-41aa-45d3-89ca-fd3b31822f0f","system_id":"levelo_inurba_marseille","lat":43.2318,"lon":5.39985,"is_reserved":false,"is_disabled":false,"rental_uris":{"android":"levelo://app?vid=f93aff0a-41aa-45d3-89ca-fd3b31822f0f","ios":"levelo://app?vid=f93aff0a-41aa-45d3-89ca-fd3b31822f0f"},"vehicle_type_id":"4","last_reported":1766160813,"current_range_meters":14000,"station_id":"ce4bhn12rcd13ifvqgqg","pricing_plan_id":"cebpf4jnsgd1na2vs0mg"},{"bike_id":"63b71f61-0ce8-4f6b-8098-b32775a7e568","system_id":"levelo_inurba_marseille","lat":43.32101,"lon":5.36759,"is_reserved":false,"is_disabled":false,"rental_uris":{"android":"levelo://app?vid=63b71f61-0ce8-4f6b-8098-b32775a7e568","ios":"levelo://app?vid=63b71f61-0ce8-4f6b-8098-b32775a7e568"},"vehicle_type_id":"4","last_reported":1766160813,"current_range_meters":14400,"station_id":"ce4bhrh2rcd13ifvqhug","pricing_plan_id":"cebpf4jnsgd1na2vs0mg"},{"bike_id":"68b52151-88b1-4698-96c1-adf80b02a94c","system_id":"levelo_inurba_marseille","lat":43.27822,"lon":5.40708,"is_reserved":false,"is_disabled":false,"rental_uris":{"android":"levelo://app?vid=68b52151-88b1-4698-96c1-adf80b02a94c","ios":"levelo://app?vid=68b52151-88b1-4698-96c1-adf80b02a94c"},"vehicle_type_id":"4","last_reported":1766160813,"current_range_meters":14400,"station_id":"ce4bhnh2rcd13ifvqgtg","pricing_plan_id":"cebpf4jnsgd1na2vs0mg"},{"bike_id":"99ad97c1-5a83-4b1c-9cf1-08492f7d7210","system_id":"levelo_inurba_marseille","lat":43.29249,"lon":5.409,"is_reserved":false,"is_disabled":false,"rental_uris":{"android":"levelo://app?vid=99ad97c1-5a83-4b1c-9cf1-08492f7d7210","ios":"levelo://app?vid=99ad97c1-5a83-4b1c-9cf1-08492f7d7210"},"vehicle_type_id":"4","last_reported":1766160813,"current_range_meters":14400,"station_id":"ce4bh192rcd13ifvqdc0","pricing_plan_id":"cebpf4jnsgd1na2vs0mg"},{"bike_id":"d796ac3e-d924-4d00-9348-0900ac0099ff","system_id":"levelo_inurba_marseille","lat":43.244661,"lon":5.425398,"is_reserved":false,"is_disabled":false,"rental_uris":{"android":"levelo://app?vid=d796ac3e-d924-4d00-9348-0900ac0099ff","ios":"levelo://app?vid=d796ac3e-d924-4d00-9348-0900ac0099ff"},"vehicle_type_id":"4","last_reported":1766160813,"current_range_meters":14400,"station_id":"","pricing_plan_id":"cebpf4jnsgd1na2vs0mg"},{"bike_id":"37ad0014-e20e-4970-a8b5-6a81c900e08e","system_id":"levelo_inurba_marseille","lat":43.26565,"lon":5.38989,"is_reserved":false,"is_disabled":false,"rental_uris":{"android":"levelo://app?vid=37ad0014-e20e-4970-a8b5-6a81c900e08e","ios":"levelo://app?vid=37ad0014-e20e-4970-a8b5-6a81c900e08e"},"vehicle_type_id":"4","last_reported":1766160813,"current_range_meters":14400,"station_id":"ce4bhe12rcd13ifvqf30","pricing_plan_id":"cebpf4jnsgd1na2vs0mg"},{"bike_id":"49eaeb99-01db-4a25-87fd-cb6c87f1647c","system_id":"levelo_inurba_marseille","lat":43.301199,"lon":5.431194,"is_reserved":false,"is_disabled":false,"rental_uris":{"android":"levelo://app?vid=49eaeb99-01db-4a25-87fd-cb6c87f1647c","ios":"levelo://app?vid=49eaeb99-01db-4a25-87fd-cb6c87f1647c"},"vehicle_type_id":"4","last_reported":1766160813,"current_range_meters":14400,"station_id":"st_d3js3co5814s73ftftug","pricing_plan_id":"cebpf4jnsgd1na2vs0mg"},{"bike_id":"afa5fd55-936a-4206-9a78-3b99fc5ef497","system_id":"levelo_inurba_marseille","lat":43.28077,"lon":5.39659,"is_reserved":false,"is_disabled":false,"rental_uris":{"android":"levelo://app?vid=afa5fd55-936a-4206-9a78-3b99fc5ef497","ios":"levelo://app?vid=afa5fd55-936a-4206-9a78-3b99fc5ef497"},"vehicle_type_id":"4","last_reported":1766160813,"current_range_meters":14400,"station_id":"ce4bho12rcd13ifvqh2g","pricing_plan_id":"cebpf4jnsgd1na2vs0mg"},{"bike_id":"e18d88c4-447f-4613-ac8f-5a6e3bb9a21c","system_id":"levelo_inurba_marseille","lat":43.29817,"lon":5.4407,"is_reserved":false,"is_disabled":false,"rental_uris":{"android":"levelo://app?vid=e18d88c4-447f-4613-ac8f-5a6e3bb9a21c","ios":"levelo://app?vid=e18d88c4-447f-4613-ac8f-5a6e3bb9a21c"},"vehicle_type_id":"4","last_reported":1766160813,"current_range_meters":14400,"station_id":"st_d3jp68qikq2c7381ktn0","pricing_plan_id":"cebpf4jnsgd1na2vs0mg"},{"bike_id":"6147b2c8-629e-4457-b54b-c0dc21f0f0aa","system_id":"levelo_inurba_marseille","lat":43.30901,"lon":5.3721,"is_reserved":false,"is_disabled":true,"rental_uris":{"android":"levelo://app?vid=6147b2c8-629e-4457-b54b-c0dc21f0f0aa","ios":"levelo://app?vid=6147b2c8-629e-4457-b54b-c0dc21f0f0aa"},"vehicle_type_id":"4","last_reported":1766160813,"current_range_meters":14400,"station_id":"ce4bguh2rcd13ifvqckg","pricing_plan_id":"cebpf4jnsgd1na2vs0mg"},{"bike_id":"9f5740fa-3153-4a01-8cd2-77e06ccb53bc","system_id":"levelo_inurba_marseille","lat":43.29712,"lon":5.37663,"is_reserved":false,"is_disabled":false,"rental_uris":{"android":"levelo://app?vid=9f5740fa-3153-4a01-8cd2-77e06ccb53bc","ios":"levelo://app?vid=9f5740fa-3153-4a01-8cd2-77e06ccb53bc"},"vehicle_type_id":"4","last_reported":1766160813,"current_range_meters":14400,"station_id":"ce4bgkh2rcd13ifvqbl0","pricing_plan_id":"cebpf4jnsgd1na2vs0mg"},{"bike_id":"6bf5e328-7d94-4624-839a-1b075cf7d3fe","system_id":"levelo_inurba_marseille","lat":43.28694,"lon":5.37404,"is_reserved":false,"is_disabled":false,"rental_uris":{"android":"levelo://app?vid=6bf5e328-7d94-4624-839a-1b075cf7d3fe","ios":"levelo://app?vid=6bf5e328-7d94-4624-839a-1b075cf7d3fe"},"vehicle_type_id":"4","last_reported":1766160813,"current_range_meters":14400,"station_id":"ce4bh3p2rcd13ifvqdq0","pricing_plan_id":"cebpf4jnsgd1na2vs0mg"},{"bike_id":"8fcf17e9-6f12-40c5-b477-90499f0bb83c","system_id":"levelo_inurba_marseille","lat":43.337444,"lon":5.374475,"is_reserved":false,"is_disabled":false,"rental_uris":{"android":"levelo://app?vid=8fcf17e9-6f12-40c5-b477-90499f0bb83c","ios":"levelo://app?vid=8fcf17e9-6f12-40c5-b477-90499f0bb83c"},"vehicle_type_id":"4","last_reported":1766160813,"current_range_meters":14800,"station_id":"","pricing_plan_id":"cebpf4jnsgd1na2vs0mg"},{"bike_id":"eb1341ba-ba7e-4c28-827b-ac87efb87a9d","system_id":"levelo_inurba_marseille","lat":43.23777,"lon":5.36626,"is_reserved":false,"is_disabled":false,"rental_uris":{"android":"levelo://app?vid=eb1341ba-ba7e-4c28-827b-ac87efb87a9d","ios":"levelo://app?vid=eb1341ba-ba7e-4c28-827b-ac87efb87a9d"},"vehicle_type_id":"4","last_reported":1766160813,"current_range_meters":14800,"station_id":"st_d3nk18o9ro0c73en2l3g","pricing_plan_id":"cebpf4jnsgd1na2vs0mg"},{"bike_id":"960000b9-5f6a-4874-8ba2-61bf0329fc25","system_id":"levelo_inurba_marseille","lat":43.306488,"lon":5.410016,"is_reserved":false,"is_disabled":false,"rental_uris":{"android":"levelo://app?vid=960000b9-5f6a-4874-8ba2-61bf0329fc25","ios":"levelo://app?vid=960000b9-5f6a-4874-8ba2-61bf0329fc25"},"vehicle_type_id":"4","last_reported":1766160813,"current_range_meters":14800,"station_id":"","pricing_plan_id":"cebpf4jnsgd1na2vs0mg"},{"bike_id":"f2364b2e-178e-40c8-8681-6c34f1d777d6","system_id":"levelo_inurba_marseille","lat":43.3079,"lon":5.37654,"is_reserved":false,"is_disabled":false,"rental_uris":{"android":"levelo://app?vid=f2364b2e-178e-40c8-8681-6c34f1d777d6","ios":"levelo://app?vid=f2364b2e-178e-40c8-8681-6c34f1d777d6"},"vehicle_type_id":"4","last_reported":1766160813,"current_range_meters":14800,"station_id":"ce4bgv92rcd13ifvqcq0","pricing_plan_id":"cebpf4jnsgd1na2vs0mg"},{"bike_id":"d6d2bb3a-fbb7-4a3d-8530-972c5de173fe","system_id":"levelo_inurba_marseille","lat":43.231979,"lon":5.355559,"is_reserved":false,"is_disabled":false,"rental_uris":{"android":"levelo://app?vid=d6d2bb3a-fbb7-4a3d-8530-972c5de173fe","ios":"levelo://app?vid=d6d2bb3a-fbb7-4a3d-8530-972c5de173fe"},"vehicle_type_id":"4","last_reported":1766160813,"current_range_meters":14800,"station_id":"ce4bhu92rcd13ifvqi70","pricing_plan_id":"cebpf4jnsgd1na2vs0mg"},{"bike_id":"5aa6494d-0eee-4a3c-bc5e-0d25343561e5","system_id":"levelo_inurba_marseille","lat":43.270672,"lon":5.383046,"is_reserved":false,"is_disabled":false,"rental_uris":{"android":"levelo://app?vid=5aa6494d-0eee-4a3c-bc5e-0d25343561e5","ios":"levelo://app?vid=5aa6494d-0eee-4a3c-bc5e-0d25343561e5"},"vehicle_type_id":"4","last_reported":1766160813,"current_range_meters":14800,"station_id":"st_d3n2fo6cfp8s73cte1j0","pricing_plan_id":"cebpf4jnsgd1na2vs0mg"},{"bike_id":"20e9dd8e-ed66-4bff-9188-35cbfde59a24","system_id":"levelo_inurba_marseille","lat":43.32323,"lon":5.39369,"is_reserved":false,"is_disabled":false,"rental_uris":{"android":"levelo://app?vid=20e9dd8e-ed66-4bff-9188-35cbfde59a24","ios":"levelo://app?vid=20e9dd8e-ed66-4bff-9188-35cbfde59a24"},"vehicle_type_id":"4","last_reported":1766160813,"current_range_meters":14800,"station_id":"","pricing_plan_id":"cebpf4jnsgd1na2vs0mg"},{"bike_id":"3d8062de-4bd0-49c7-86a6-7bf3b5df4845","system_id":"levelo_inurba_marseille","lat":43.28479,"lon":5.48398,"is_reserved":false,"is_disabled":false,"rental_uris":{"android":"levelo://app?vid=3d8062de-4bd0-49c7-86a6-7bf3b5df4845","ios":"levelo://app?vid=3d8062de-4bd0-49c7-86a6-7bf3b5df4845"},"vehicle_type_id":"4","last_reported":1766160813,"current_range_meters":14800,"station_id":"st_d3svhcjqgbts73a3dn0g","pricing_plan_id":"cebpf4jnsgd1na2vs0mg"},{"bike_id":"fbf16823-b044-405a-871c-9376f7a0b4a6","system_id":"levelo_inurba_marseille","lat":43.29577,"lon":5.37528,"is_reserved":false,"is_disabled":false,"rental_uris":{"android":"levelo://app?vid=fbf16823-b044-405a-871c-9376f7a0b4a6","ios":"levelo://app?vid=fbf16823-b044-405a-871c-9376f7a0b4a6"},"vehicle_type_id":"4","last_reported":1766160813,"current_range_meters":14800,"station_id":"ce4bgh92rcd13ifvqb50","pricing_plan_id":"cebpf4jnsgd1na2vs0mg"},{"bike_id":"f7839686-7e1e-4ec1-b87e-d8478aa2b463","system_id":"levelo_inurba_marseille","lat":43.2872,"lon":5.37404,"is_reserved":false,"is_disabled":false,"rental_uris":{"android":"levelo://app?vid=f7839686-7e1e-4ec1-b87e-d8478aa2b463","ios":"levelo://app?vid=f7839686-7e1e-4ec1-b87e-d8478aa2b463"},"vehicle_type_id":"4","last_reported":1766160813,"current_range_meters":14800,"station_id":"ce4bh3p2rcd13ifvqdq0","pricing_plan_id":"cebpf4jnsgd1na2vs0mg"},{"bike_id":"69c3f84c-538e-44ec-83d7-afeadec5cdfe","system_id":"levelo_inurba_marseille","lat":43.233588,"lon":5.399359,"is_reserved":false,"is_disabled":false,"rental_uris":{"android":"levelo://app?vid=69c3f84c-538e-44ec-83d7-afeadec5cdfe","ios":"levelo://app?vid=69c3f84c-538e-44ec-83d7-afeadec5cdfe"},"vehicle_type_id":"4","last_reported":1766160813,"current_range_meters":14800,"station_id":"","pricing_plan_id":"cebpf4jnsgd1na2vs0mg"},{"bike_id":"025bcf3c-9127-4e0c-b7ed-8709d35ce958","system_id":"levelo_inurba_marseille","lat":43.31739,"lon":5.37205,"is_reserved":false,"is_disabled":false,"rental_uris":{"android":"levelo://app?vid=025bcf3c-9127-4e0c-b7ed-8709d35ce958","ios":"levelo://app?vid=025bcf3c-9127-4e0c-b7ed-8709d35ce958"},"vehicle_type_id":"4","last_reported":1766160813,"current_range_meters":15200,"station_id":"","pricing_plan_id":"cebpf4jnsgd1na2vs0mg"},{"bike_id":"e9d58d1e-c5b2-41a8-b6ef-892cd112849c","system_id":"levelo_inurba_marseille","lat":43.30145,"lon":5.38085,"is_reserved":false,"is_disabled":false,"rental_uris":{"android":"levelo://app?vid=e9d58d1e-c5b2-41a8-b6ef-892cd112849c","ios":"levelo://app?vid=e9d58d1e-c5b2-41a8-b6ef-892cd112849c"},"vehicle_type_id":"4","last_reported":1766160813,"current_range_meters":15200,"station_id":"ce4bgjp2rcd13ifvqbh0","pricing_plan_id":"cebpf4jnsgd1na2vs0mg"},{"bike_id":"9e1886ee-5978-4b4e-a4ad-7b1a3973e38d","system_id":"levelo_inurba_marseille","lat":43.311717,"lon":5.387126,"is_reserved":false,"is_disabled":false,"rental_uris":{"android":"levelo://app?vid=9e1886ee-5978-4b4e-a4ad-7b1a3973e38d","ios":"levelo://app?vid=9e1886ee-5978-4b4e-a4ad-7b1a3973e38d"},"vehicle_type_id":"4","last_reported":1766160813,"current_range_meters":15200,"station_id":"ce4bgv12rcd13ifvqcp0","pricing_plan_id":"cebpf4jnsgd1na2vs0mg"},{"bike_id":"7a2810d9-a7a2-4f55-a626-e3338912c6bf","system_id":"levelo_inurba_marseille","lat":43.33746,"lon":5.37477,"is_reserved":false,"is_disabled":false,"rental_uris":{"android":"levelo://app?vid=7a2810d9-a7a2-4f55-a626-e3338912c6bf","ios":"levelo://app?vid=7a2810d9-a7a2-4f55-a626-e3338912c6bf"},"vehicle_type_id":"4","last_reported":1766160813,"current_range_meters":15200,"station_id":"","pricing_plan_id":"cebpf4jnsgd1na2vs0mg"},{"bike_id":"1b5dbd7c-c63e-4ef4-99ed-0dfcb5187432","system_id":"levelo_inurba_marseille","lat":43.29029,"lon":5.38891,"is_reserved":false,"is_disabled":false,"rental_uris":{"android":"levelo://app?vid=1b5dbd7c-c63e-4ef4-99ed-0dfcb5187432","ios":"levelo://app?vid=1b5dbd7c-c63e-4ef4-99ed-0dfcb5187432"},"vehicle_type_id":"4","last_reported":1766160813,"current_range_meters":15200,"station_id":"","pricing_plan_id":"cebpf4jnsgd1na2vs0mg"},{"bike_id":"d9129087-e65b-4738-9724-11e0b12d85e5","system_id":"levelo_inurba_marseille","lat":43.29279,"lon":5.40138,"is_reserved":false,"is_disabled":false,"rental_uris":{"android":"levelo://app?vid=d9129087-e65b-4738-9724-11e0b12d85e5","ios":"levelo://app?vid=d9129087-e65b-4738-9724-11e0b12d85e5"},"vehicle_type_id":"4","last_reported":1766160813,"current_range_meters":15200,"station_id":"ce4bh312rcd13ifvqdk0","pricing_plan_id":"cebpf4jnsgd1na2vs0mg"},{"bike_id":"06c5fccb-feb8-4ccd-ba7b-a53b73e5ec3a","system_id":"levelo_inurba_marseille","lat":43.269334,"lon":5.389221,"is_reserved":false,"is_disabled":false,"rental_uris":{"android":"levelo://app?vid=06c5fccb-feb8-4ccd-ba7b-a53b73e5ec3a","ios":"levelo://app?vid=06c5fccb-feb8-4ccd-ba7b-a53b73e5ec3a"},"vehicle_type_id":"4","last_reported":1766160813,"current_range_meters":15200,"station_id":"ce4bhhh2rcd13ifvqfl0","pricing_plan_id":"cebpf4jnsgd1na2vs0mg"},{"bike_id":"6244ba23-4432-4050-a6de-b074545c45d3","system_id":"levelo_inurba_marseille","lat":43.24174,"lon":5.36414,"is_reserved":false,"is_disabled":false,"rental_uris":{"android":"levelo://app?vid=6244ba23-4432-4050-a6de-b074545c45d3","ios":"levelo://app?vid=6244ba23-4432-4050-a6de-b074545c45d3"},"vehicle_type_id":"4","last_reported":1766160813,"current_range_meters":15200,"station_id":"cpo36qri1sfpv3e86is0","pricing_plan_id":"cebpf4jnsgd1na2vs0mg"},{"bike_id":"ff400a14-182c-4479-9723-f211d61c81db","system_id":"levelo_inurba_marseille","lat":43.32001,"lon":5.40408,"is_reserved":false,"is_disabled":false,"rental_uris":{"android":"levelo://app?vid=ff400a14-182c-4479-9723-f211d61c81db","ios":"levelo://app?vid=ff400a14-182c-4479-9723-f211d61c81db"},"vehicle_type_id":"4","last_reported":1766160813,"current_range_meters":15200,"station_id":"","pricing_plan_id":"cebpf4jnsgd1na2vs0mg"},{"bike_id":"10db4bca-29de-47aa-8298-e82e9230661d","system_id":"levelo_inurba_marseille","lat":43.312753,"lon":5.401803,"is_reserved":false,"is_disabled":false,"rental_uris":{"android":"levelo://app?vid=10db4bca-29de-47aa-8298-e82e9230661d","ios":"levelo://app?vid=10db4bca-29de-47aa-8298-e82e9230661d"},"vehicle_type_id":"4","last_reported":1766160813,"current_range_meters":15200,"station_id":"","pricing_plan_id":"cebpf4jnsgd1na2vs0mg"},{"bike_id":"fb3d0d8b-6e6e-4592-945c-ee698f8b0527","system_id":"levelo_inurba_marseille","lat":43.22569,"lon":5.41631,"is_reserved":false,"is_disabled":false,"rental_uris":{"android":"levelo://app?vid=fb3d0d8b-6e6e-4592-945c-ee698f8b0527","ios":"levelo://app?vid=fb3d0d8b-6e6e-4592-945c-ee698f8b0527"},"vehicle_type_id":"4","last_reported":1766160813,"current_range_meters":15200,"station_id":"st_d2o4gvlbi1j2169b742g","pricing_plan_id":"cebpf4jnsgd1na2vs0mg"},{"bike_id":"eaa78c39-81ae-4e60-b205-821feda66770","system_id":"levelo_inurba_marseille","lat":43.272,"lon":5.39192,"is_reserved":false,"is_disabled":false,"rental_uris":{"android":"levelo://app?vid=eaa78c39-81ae-4e60-b205-821feda66770","ios":"levelo://app?vid=eaa78c39-81ae-4e60-b205-821feda66770"},"vehicle_type_id":"4","last_reported":1766160813,"current_range_meters":15200,"station_id":"ce4bhhp2rcd13ifvqfm0","pricing_plan_id":"cebpf4jnsgd1na2vs0mg"},{"bike_id":"d26729f5-210b-4096-acd6-99d477896379","system_id":"levelo_inurba_marseille","lat":43.25058,"lon":5.38945,"is_reserved":false,"is_disabled":false,"rental_uris":{"android":"levelo://app?vid=d26729f5-210b-4096-acd6-99d477896379","ios":"levelo://app?vid=d26729f5-210b-4096-acd6-99d477896379"},"vehicle_type_id":"4","last_reported":1766160813,"current_range_meters":15200,"station_id":"","pricing_plan_id":"cebpf4jnsgd1na2vs0mg"},{"bike_id":"025b4a43-9c11-4504-9502-51f200349bee","system_id":"levelo_inurba_marseille","lat":43.23189,"lon":5.39984,"is_reserved":false,"is_disabled":false,"rental_uris":{"android":"levelo://app?vid=025b4a43-9c11-4504-9502-51f200349bee","ios":"levelo://app?vid=025b4a43-9c11-4504-9502-51f200349bee"},"vehicle_type_id":"4","last_reported":1766160813,"current_range_meters":15200,"station_id":"ce4bhn12rcd13ifvqgqg","pricing_plan_id":"cebpf4jnsgd1na2vs0mg"},{"bike_id":"d2a86950-00b0-4344-a51f-0dc364389c5b","system_id":"levelo_inurba_marseille","lat":43.289387,"lon":5.366334,"is_reserved":false,"is_disabled":true,"rental_uris":{"android":"levelo://app?vid=d2a86950-00b0-4344-a51f-0dc364389c5b","ios":"levelo://app?vid=d2a86950-00b0-4344-a51f-0dc364389c5b"},"vehicle_type_id":"4","last_reported":1766160813,"current_range_meters":16000,"station_id":"","pricing_plan_id":"cebpf4jnsgd1na2vs0mg"},{"bike_id":"d3fcd822-177c-4652-bd1b-c4847def5cc0","system_id":"levelo_inurba_marseille","lat":43.30644,"lon":5.40108,"is_reserved":false,"is_disabled":false,"rental_uris":{"android":"levelo://app?vid=d3fcd822-177c-4652-bd1b-c4847def5cc0","ios":"levelo://app?vid=d3fcd822-177c-4652-bd1b-c4847def5cc0"},"vehicle_type_id":"4","last_reported":1766160813,"current_range_meters":16000,"station_id":"ce4bh112rcd13ifvqda0","pricing_plan_id":"cebpf4jnsgd1na2vs0mg"},{"bike_id":"320f03a8-c4c7-4d1f-be9f-3d7bc7f5d6b3","system_id":"levelo_inurba_marseille","lat":43.31099,"lon":5.37767,"is_reserved":false,"is_disabled":false,"rental_uris":{"android":"levelo://app?vid=320f03a8-c4c7-4d1f-be9f-3d7bc7f5d6b3","ios":"levelo://app?vid=320f03a8-c4c7-4d1f-be9f-3d7bc7f5d6b3"},"vehicle_type_id":"4","last_reported":1766160813,"current_range_meters":16000,"station_id":"ce4bgt92rcd13ifvqcg0","pricing_plan_id":"cebpf4jnsgd1na2vs0mg"},{"bike_id":"e38b8f28-f63b-4c54-b33c-3b917dffbe40","system_id":"levelo_inurba_marseille","lat":43.22543,"lon":5.34838,"is_reserved":false,"is_disabled":false,"rental_uris":{"android":"levelo://app?vid=e38b8f28-f63b-4c54-b33c-3b917dffbe40","ios":"levelo://app?vid=e38b8f28-f63b-4c54-b33c-3b917dffbe40"},"vehicle_type_id":"4","last_reported":1766160813,"current_range_meters":16000,"station_id":"","pricing_plan_id":"cebpf4jnsgd1na2vs0mg"},{"bike_id":"ea0cb858-c672-4968-9d99-1bdad19b0b97","system_id":"levelo_inurba_marseille","lat":43.24193,"lon":5.39727,"is_reserved":false,"is_disabled":false,"rental_uris":{"android":"levelo://app?vid=ea0cb858-c672-4968-9d99-1bdad19b0b97","ios":"levelo://app?vid=ea0cb858-c672-4968-9d99-1bdad19b0b97"},"vehicle_type_id":"4","last_reported":1766160813,"current_range_meters":16000,"station_id":"ce4bhn12rcd13ifvqgpg","pricing_plan_id":"cebpf4jnsgd1na2vs0mg"},{"bike_id":"26f6d6a5-5821-4875-a164-33d619759de8","system_id":"levelo_inurba_marseille","lat":43.2417,"lon":5.36401,"is_reserved":false,"is_disabled":false,"rental_uris":{"android":"levelo://app?vid=26f6d6a5-5821-4875-a164-33d619759de8","ios":"levelo://app?vid=26f6d6a5-5821-4875-a164-33d619759de8"},"vehicle_type_id":"4","last_reported":1766160813,"current_range_meters":16000,"station_id":"cpo36qri1sfpv3e86is0","pricing_plan_id":"cebpf4jnsgd1na2vs0mg"},{"bike_id":"78567a20-b1ed-46c4-a479-2ee451b65c20","system_id":"levelo_inurba_marseille","lat":43.29562,"lon":5.37498,"is_reserved":false,"is_disabled":false,"rental_uris":{"android":"levelo://app?vid=78567a20-b1ed-46c4-a479-2ee451b65c20","ios":"levelo://app?vid=78567a20-b1ed-46c4-a479-2ee451b65c20"},"vehicle_type_id":"4","last_reported":1766160813,"current_range_meters":16000,"station_id":"ce4bgh92rcd13ifvqb50","pricing_plan_id":"cebpf4jnsgd1na2vs0mg"},{"bike_id":"ce634916-e630-4474-8c32-4b2bfe924f7f","system_id":"levelo_inurba_marseille","lat":43.24654,"lon":5.43136,"is_reserved":false,"is_disabled":false,"rental_uris":{"android":"levelo://app?vid=ce634916-e630-4474-8c32-4b2bfe924f7f","ios":"levelo://app?vid=ce634916-e630-4474-8c32-4b2bfe924f7f"},"vehicle_type_id":"4","last_reported":1766160813,"current_range_meters":16000,"station_id":"st_d2m6c4gdas8pm72e190g","pricing_plan_id":"cebpf4jnsgd1na2vs0mg"},{"bike_id":"c0a3a8db-26e7-4eff-9dcf-c9cc1bfd4b0d","system_id":"levelo_inurba_marseille","lat":43.33017,"lon":5.39058,"is_reserved":false,"is_disabled":false,"rental_uris":{"android":"levelo://app?vid=c0a3a8db-26e7-4eff-9dcf-c9cc1bfd4b0d","ios":"levelo://app?vid=c0a3a8db-26e7-4eff-9dcf-c9cc1bfd4b0d"},"vehicle_type_id":"4","last_reported":1766160813,"current_range_meters":16000,"station_id":"ce4bhr92rcd13ifvqhrg","pricing_plan_id":"cebpf4jnsgd1na2vs0mg"},{"bike_id":"6bb7cf08-cc4f-43ae-aed3-8d6ab6b6c137","system_id":"levelo_inurba_marseille","lat":43.33156,"lon":5.37695,"is_reserved":false,"is_disabled":false,"rental_uris":{"android":"levelo://app?vid=6bb7cf08-cc4f-43ae-aed3-8d6ab6b6c137","ios":"levelo://app?vid=6bb7cf08-cc4f-43ae-aed3-8d6ab6b6c137"},"vehicle_type_id":"4","last_reported":1766160813,"current_range_meters":16000,"station_id":"st_d46cu089ee8s73dldbu0","pricing_plan_id":"cebpf4jnsgd1na2vs0mg"},{"bike_id":"2907ce0d-79d0-4529-8d39-8e8d7dbec5a6","system_id":"levelo_inurba_marseille","lat":43.31173,"lon":5.3872,"is_reserved":false,"is_disabled":false,"rental_uris":{"android":"levelo://app?vid=2907ce0d-79d0-4529-8d39-8e8d7dbec5a6","ios":"levelo://app?vid=2907ce0d-79d0-4529-8d39-8e8d7dbec5a6"},"vehicle_type_id":"4","last_reported":1766160813,"current_range_meters":16000,"station_id":"ce4bgv12rcd13ifvqcp0","pricing_plan_id":"cebpf4jnsgd1na2vs0mg"},{"bike_id":"8580f57b-5aa3-4bcd-953e-6f28ee58972f","system_id":"levelo_inurba_marseille","lat":43.24642,"lon":5.43136,"is_reserved":false,"is_disabled":false,"rental_uris":{"android":"levelo://app?vid=8580f57b-5aa3-4bcd-953e-6f28ee58972f","ios":"levelo://app?vid=8580f57b-5aa3-4bcd-953e-6f28ee58972f"},"vehicle_type_id":"4","last_reported":1766160813,"current_range_meters":16000,"station_id":"st_d2m6c4gdas8pm72e190g","pricing_plan_id":"cebpf4jnsgd1na2vs0mg"},{"bike_id":"576f1f90-c184-4b62-a057-c35da25b7107","system_id":"levelo_inurba_marseille","lat":43.292633,"lon":5.384487,"is_reserved":false,"is_disabled":false,"rental_uris":{"android":"levelo://app?vid=576f1f90-c184-4b62-a057-c35da25b7107","ios":"levelo://app?vid=576f1f90-c184-4b62-a057-c35da25b7107"},"vehicle_type_id":"4","last_reported":1766160813,"current_range_meters":16000,"station_id":"ce4bh692rcd13ifvqea0","pricing_plan_id":"cebpf4jnsgd1na2vs0mg"},{"bike_id":"a6d1802e-f3fd-4947-bde0-c36a33c24799","system_id":"levelo_inurba_marseille","lat":43.27904,"lon":5.38001,"is_reserved":false,"is_disabled":true,"rental_uris":{"android":"levelo://app?vid=a6d1802e-f3fd-4947-bde0-c36a33c24799","ios":"levelo://app?vid=a6d1802e-f3fd-4947-bde0-c36a33c24799"},"vehicle_type_id":"4","last_reported":1766160813,"current_range_meters":16400,"station_id":"ce4bhf92rcd13ifvqf50","pricing_plan_id":"cebpf4jnsgd1na2vs0mg"},{"bike_id":"68e50280-ceb0-4170-b546-77d57d5587a8","system_id":"levelo_inurba_marseille","lat":43.2657,"lon":5.38996,"is_reserved":false,"is_disabled":false,"rental_uris":{"android":"levelo://app?vid=68e50280-ceb0-4170-b546-77d57d5587a8","ios":"levelo://app?vid=68e50280-ceb0-4170-b546-77d57d5587a8"},"vehicle_type_id":"4","last_reported":1766160813,"current_range_meters":16400,"station_id":"ce4bhe12rcd13ifvqf30","pricing_plan_id":"cebpf4jnsgd1na2vs0mg"},{"bike_id":"dd02578a-3ce3-4a5b-a150-72db34f2d7af","system_id":"levelo_inurba_marseille","lat":43.28148,"lon":5.42635,"is_reserved":false,"is_disabled":false,"rental_uris":{"android":"levelo://app?vid=dd02578a-3ce3-4a5b-a150-72db34f2d7af","ios":"levelo://app?vid=dd02578a-3ce3-4a5b-a150-72db34f2d7af"},"vehicle_type_id":"4","last_reported":1766160813,"current_range_meters":16400,"station_id":"ce4bhnh2rcd13ifvqgug","pricing_plan_id":"cebpf4jnsgd1na2vs0mg"},{"bike_id":"e0011a5b-4330-4ab7-82d4-072f7e660e41","system_id":"levelo_inurba_marseille","lat":43.30667,"lon":5.38341,"is_reserved":false,"is_disabled":false,"rental_uris":{"android":"levelo://app?vid=e0011a5b-4330-4ab7-82d4-072f7e660e41","ios":"levelo://app?vid=e0011a5b-4330-4ab7-82d4-072f7e660e41"},"vehicle_type_id":"4","last_reported":1766160813,"current_range_meters":16400,"station_id":"","pricing_plan_id":"cebpf4jnsgd1na2vs0mg"},{"bike_id":"0c1f6896-cbd5-4c55-b68a-3cd9b92201dc","system_id":"levelo_inurba_marseille","lat":43.2989,"lon":5.43658,"is_reserved":false,"is_disabled":false,"rental_uris":{"android":"levelo://app?vid=0c1f6896-cbd5-4c55-b68a-3cd9b92201dc","ios":"levelo://app?vid=0c1f6896-cbd5-4c55-b68a-3cd9b92201dc"},"vehicle_type_id":"4","last_reported":1766160813,"current_range_meters":16400,"station_id":"ce4bhpp2rcd13ifvqhfg","pricing_plan_id":"cebpf4jnsgd1na2vs0mg"},{"bike_id":"19f83498-9c2c-438c-9319-9c90e9928c89","system_id":"levelo_inurba_marseille","lat":43.30355,"lon":5.37724,"is_reserved":false,"is_disabled":false,"rental_uris":{"android":"levelo://app?vid=19f83498-9c2c-438c-9319-9c90e9928c89","ios":"levelo://app?vid=19f83498-9c2c-438c-9319-9c90e9928c89"},"vehicle_type_id":"4","last_reported":1766160813,"current_range_meters":16400,"station_id":"ce4bguh2rcd13ifvqcj0","pricing_plan_id":"cebpf4jnsgd1na2vs0mg"},{"bike_id":"81d9b9c0-6984-4243-9b90-5a011f67b45b","system_id":"levelo_inurba_marseille","lat":43.265467,"lon":5.372973,"is_reserved":false,"is_disabled":false,"rental_uris":{"android":"levelo://app?vid=81d9b9c0-6984-4243-9b90-5a011f67b45b","ios":"levelo://app?vid=81d9b9c0-6984-4243-9b90-5a011f67b45b"},"vehicle_type_id":"4","last_reported":1766160813,"current_range_meters":16400,"station_id":"ce4bhg12rcd13ifvqf70","pricing_plan_id":"cebpf4jnsgd1na2vs0mg"},{"bike_id":"3ccfa2f1-df77-4b7d-9d7d-d9dac7bea617","system_id":"levelo_inurba_marseille","lat":43.30797,"lon":5.37656,"is_reserved":false,"is_disabled":false,"rental_uris":{"android":"levelo://app?vid=3ccfa2f1-df77-4b7d-9d7d-d9dac7bea617","ios":"levelo://app?vid=3ccfa2f1-df77-4b7d-9d7d-d9dac7bea617"},"vehicle_type_id":"4","last_reported":1766160813,"current_range_meters":16400,"station_id":"ce4bgv92rcd13ifvqcq0","pricing_plan_id":"cebpf4jnsgd1na2vs0mg"},{"bike_id":"9ed2abc5-3eb4-46ee-9006-c9e3411abb84","system_id":"levelo_inurba_marseille","lat":43.26359,"lon":5.39933,"is_reserved":false,"is_disabled":false,"rental_uris":{"android":"levelo://app?vid=9ed2abc5-3eb4-46ee-9006-c9e3411abb84","ios":"levelo://app?vid=9ed2abc5-3eb4-46ee-9006-c9e3411abb84"},"vehicle_type_id":"4","last_reported":1766160813,"current_range_meters":16400,"station_id":"","pricing_plan_id":"cebpf4jnsgd1na2vs0mg"},{"bike_id":"6f089e47-ead0-4dc6-89ea-3e3ab51578a0","system_id":"levelo_inurba_marseille","lat":43.25625,"lon":5.41783,"is_reserved":false,"is_disabled":false,"rental_uris":{"android":"levelo://app?vid=6f089e47-ead0-4dc6-89ea-3e3ab51578a0","ios":"levelo://app?vid=6f089e47-ead0-4dc6-89ea-3e3ab51578a0"},"vehicle_type_id":"4","last_reported":1766160813,"current_range_meters":16400,"station_id":"","pricing_plan_id":"cebpf4jnsgd1na2vs0mg"},{"bike_id":"da209044-0f71-4985-adef-7965d93cf3a4","system_id":"levelo_inurba_marseille","lat":43.32489,"lon":5.38295,"is_reserved":false,"is_disabled":false,"rental_uris":{"android":"levelo://app?vid=da209044-0f71-4985-adef-7965d93cf3a4","ios":"levelo://app?vid=da209044-0f71-4985-adef-7965d93cf3a4"},"vehicle_type_id":"4","last_reported":1766160813,"current_range_meters":16400,"station_id":"st_d4asgbiv49dc73anf9m0","pricing_plan_id":"cebpf4jnsgd1na2vs0mg"},{"bike_id":"e569664c-68ef-45b5-ab71-259a5e6d8829","system_id":"levelo_inurba_marseille","lat":43.25867,"lon":5.39908,"is_reserved":false,"is_disabled":false,"rental_uris":{"android":"levelo://app?vid=e569664c-68ef-45b5-ab71-259a5e6d8829","ios":"levelo://app?vid=e569664c-68ef-45b5-ab71-259a5e6d8829"},"vehicle_type_id":"4","last_reported":1766160813,"current_range_meters":16400,"station_id":"ce4bhl92rcd13ifvqghg","pricing_plan_id":"cebpf4jnsgd1na2vs0mg"},{"bike_id":"506ea47b-6c5e-4e8f-9396-088545e4aeb2","system_id":"levelo_inurba_marseille","lat":43.300099,"lon":5.374351,"is_reserved":false,"is_disabled":false,"rental_uris":{"android":"levelo://app?vid=506ea47b-6c5e-4e8f-9396-088545e4aeb2","ios":"levelo://app?vid=506ea47b-6c5e-4e8f-9396-088545e4aeb2"},"vehicle_type_id":"4","last_reported":1766160813,"current_range_meters":16400,"station_id":"ce4bgjh2rcd13ifvqbg0","pricing_plan_id":"cebpf4jnsgd1na2vs0mg"},{"bike_id":"f396a4b0-65c7-4098-8e69-d9ae30d83c8e","system_id":"levelo_inurba_marseille","lat":43.28248,"lon":5.391,"is_reserved":false,"is_disabled":false,"rental_uris":{"android":"levelo://app?vid=f396a4b0-65c7-4098-8e69-d9ae30d83c8e","ios":"levelo://app?vid=f396a4b0-65c7-4098-8e69-d9ae30d83c8e"},"vehicle_type_id":"4","last_reported":1766160813,"current_range_meters":16400,"station_id":"ce4bhn92rcd13ifvqgsg","pricing_plan_id":"cebpf4jnsgd1na2vs0mg"},{"bike_id":"4d1e7dc7-7191-4a46-9603-9a4857d7f9c3","system_id":"levelo_inurba_marseille","lat":43.30419,"lon":5.41285,"is_reserved":false,"is_disabled":false,"rental_uris":{"android":"levelo://app?vid=4d1e7dc7-7191-4a46-9603-9a4857d7f9c3","ios":"levelo://app?vid=4d1e7dc7-7191-4a46-9603-9a4857d7f9c3"},"vehicle_type_id":"4","last_reported":1766160813,"current_range_meters":16400,"station_id":"ce4bhop2rcd13ifvqh8g","pricing_plan_id":"cebpf4jnsgd1na2vs0mg"},{"bike_id":"606ddaea-fb30-46cf-be11-bc40fb7c2e53","system_id":"levelo_inurba_marseille","lat":43.30133,"lon":5.37416,"is_reserved":false,"is_disabled":false,"rental_uris":{"android":"levelo://app?vid=606ddaea-fb30-46cf-be11-bc40fb7c2e53","ios":"levelo://app?vid=606ddaea-fb30-46cf-be11-bc40fb7c2e53"},"vehicle_type_id":"4","last_reported":1766160813,"current_range_meters":16400,"station_id":"ce4bgs92rcd13ifvqcc0","pricing_plan_id":"cebpf4jnsgd1na2vs0mg"},{"bike_id":"20ce8cf1-9f9d-448e-ad1e-77f9e595930e","system_id":"levelo_inurba_marseille","lat":43.23802,"lon":5.36635,"is_reserved":false,"is_disabled":false,"rental_uris":{"android":"levelo://app?vid=20ce8cf1-9f9d-448e-ad1e-77f9e595930e","ios":"levelo://app?vid=20ce8cf1-9f9d-448e-ad1e-77f9e595930e"},"vehicle_type_id":"4","last_reported":1766160813,"current_range_meters":16800,"station_id":"st_d3nk18o9ro0c73en2l3g","pricing_plan_id":"cebpf4jnsgd1na2vs0mg"},{"bike_id":"f3deb7ab-a8fa-48f0-a15a-08692ac941f2","system_id":"levelo_inurba_marseille","lat":43.29431,"lon":5.3975,"is_reserved":false,"is_disabled":false,"rental_uris":{"android":"levelo://app?vid=f3deb7ab-a8fa-48f0-a15a-08692ac941f2","ios":"levelo://app?vid=f3deb7ab-a8fa-48f0-a15a-08692ac941f2"},"vehicle_type_id":"4","last_reported":1766160813,"current_range_meters":16800,"station_id":"ce4bh3h2rcd13ifvqdo0","pricing_plan_id":"cebpf4jnsgd1na2vs0mg"},{"bike_id":"25e5c877-c5c4-4780-b090-bb8c300cfc2d","system_id":"levelo_inurba_marseille","lat":43.311146,"lon":5.377744,"is_reserved":false,"is_disabled":false,"rental_uris":{"android":"levelo://app?vid=25e5c877-c5c4-4780-b090-bb8c300cfc2d","ios":"levelo://app?vid=25e5c877-c5c4-4780-b090-bb8c300cfc2d"},"vehicle_type_id":"4","last_reported":1766160813,"current_range_meters":16800,"station_id":"ce4bgt92rcd13ifvqcg0","pricing_plan_id":"cebpf4jnsgd1na2vs0mg"},{"bike_id":"26710569-0a32-4772-bdf2-90eda4871cac","system_id":"levelo_inurba_marseille","lat":43.298697,"lon":5.389107,"is_reserved":false,"is_disabled":true,"rental_uris":{"android":"levelo://app?vid=26710569-0a32-4772-bdf2-90eda4871cac","ios":"levelo://app?vid=26710569-0a32-4772-bdf2-90eda4871cac"},"vehicle_type_id":"4","last_reported":1766160813,"current_range_meters":16800,"station_id":"ce4bh392rcd13ifvqdl0","pricing_plan_id":"cebpf4jnsgd1na2vs0mg"},{"bike_id":"e42ac7ed-f66a-44b4-b394-3418e57e1ec0","system_id":"levelo_inurba_marseille","lat":43.21192,"lon":5.35075,"is_reserved":false,"is_disabled":false,"rental_uris":{"android":"levelo://app?vid=e42ac7ed-f66a-44b4-b394-3418e57e1ec0","ios":"levelo://app?vid=e42ac7ed-f66a-44b4-b394-3418e57e1ec0"},"vehicle_type_id":"4","last_reported":1766160813,"current_range_meters":16800,"station_id":"st_cvj6sg6p6f1abm77japg","pricing_plan_id":"cebpf4jnsgd1na2vs0mg"},{"bike_id":"d333f5c5-54f8-4cf5-940a-bb6a2ed8e5fd","system_id":"levelo_inurba_marseille","lat":43.30542,"lon":5.37621,"is_reserved":false,"is_disabled":false,"rental_uris":{"android":"levelo://app?vid=d333f5c5-54f8-4cf5-940a-bb6a2ed8e5fd","ios":"levelo://app?vid=d333f5c5-54f8-4cf5-940a-bb6a2ed8e5fd"},"vehicle_type_id":"4","last_reported":1766160813,"current_range_meters":16800,"station_id":"","pricing_plan_id":"cebpf4jnsgd1na2vs0mg"},{"bike_id":"a365dfd4-da81-4573-ac85-4dde18c0dffc","system_id":"levelo_inurba_marseille","lat":43.301588,"lon":5.380794,"is_reserved":false,"is_disabled":false,"rental_uris":{"android":"levelo://app?vid=a365dfd4-da81-4573-ac85-4dde18c0dffc","ios":"levelo://app?vid=a365dfd4-da81-4573-ac85-4dde18c0dffc"},"vehicle_type_id":"4","last_reported":1766160813,"current_range_meters":16800,"station_id":"ce4bgjp2rcd13ifvqbh0","pricing_plan_id":"cebpf4jnsgd1na2vs0mg"},{"bike_id":"eb8e69ef-cbc2-4129-9bd9-618dd3fc8708","system_id":"levelo_inurba_marseille","lat":43.29567,"lon":5.37515,"is_reserved":false,"is_disabled":false,"rental_uris":{"android":"levelo://app?vid=eb8e69ef-cbc2-4129-9bd9-618dd3fc8708","ios":"levelo://app?vid=eb8e69ef-cbc2-4129-9bd9-618dd3fc8708"},"vehicle_type_id":"4","last_reported":1766160813,"current_range_meters":16800,"station_id":"ce4bgh92rcd13ifvqb50","pricing_plan_id":"cebpf4jnsgd1na2vs0mg"},{"bike_id":"c62a1493-280b-4fc9-97c8-fdc8827dc747","system_id":"levelo_inurba_marseille","lat":43.24161,"lon":5.36384,"is_reserved":false,"is_disabled":false,"rental_uris":{"android":"levelo://app?vid=c62a1493-280b-4fc9-97c8-fdc8827dc747","ios":"levelo://app?vid=c62a1493-280b-4fc9-97c8-fdc8827dc747"},