{"last_updated":1742408016,"ttl":60,"version":"2.2","data":{"bikes":[{"bike_id":"8600fc0e-cac5-4d15-b21f-bcef0ddf590e","system_id":"levelo_inurba_marseille","lat":43.27999,"lon":5.41676,"is_reserved":false,"is_disabled":true,"rental_uris":{"android":"levelo://app?vid=8600fc0e-cac5-4d15-b21f-bcef0ddf590e","ios":"levelo://app?vid=8600fc0e-cac5-4d15-b21f-bcef0ddf590e"},"vehicle_type_id":"4","last_reported":1742408017,"current_range_meters":2800,"station_id":"ce4bho12rcd13ifvqh1g","pricing_plan_id":"cebpf4jnsgd1na2vs0mg"},{"bike_id":"33293431-497a-4dc6-b57e-110850513662","system_id":"levelo_inurba_marseille","lat":43.27968,"lon":5.38715,"is_reserved":false,"is_disabled":false,"rental_uris":{"android":"levelo://app?vid=33293431-497a-4dc6-b57e-110850513662","ios":"levelo://app?vid=33293431-497a-4dc6-b57e-110850513662"},"vehicle_type_id":"4","last_reported":1742408017,"current_range_meters":2800,"station_id":"ce4bhg12rcd13ifvqf80","pricing_plan_id":"cebpf4jnsgd1na2vs0mg"},{"bike_id":"6fb769a2-37f3-4fae-adbf-1e190602851c","system_id":"levelo_inurba_marseille","lat":43.28486,"lon":5.38422,"is_reserved":false,"is_disabled":false,"rental_uris":{"android":"levelo://app?vid=6fb769a2-37f3-4fae-adbf-1e190602851c","ios":"levelo://app?vid=6fb769a2-37f3-4fae-adbf-1e190602851c"},"vehicle_type_id":"4","last_reported":1742408017,"current_range_meters":2800,"station_id":"ce4bha12rcd13ifvqee0","pricing_plan_id":"cebpf4jnsgd1na2vs0mg"},{"bike_id":"8e98cbda-c4e3-402b-b76a-8219c41c2a13","system_id":"levelo_inurba_marseille","lat":43.31328,"lon":5.39691,"is_reserved":false,"is_disabled":false,"rental_uris":{"android":"levelo://app?vid=8e98cbda-c4e3-402b-b76a-8219c41c2a13","ios":"levelo://app?vid=8e98cbda-c4e3-402b-b76a-8219c41c2a13"},"vehicle_type_id":"4","last_reported":1742408017,"current_range_meters":2800,"station_id":"ce4bgvp2rcd13ifvqcu0","pricing_plan_id":"cebpf4jnsgd1na2vs0mg"},{"bike_id":"bc684fb0-b3cc-485b-a02f-cf532253de5c","system_id":"levelo_inurba_marseille","lat":43.25581,"lon":5.38235,"is_reserved":false,"is_disabled":false,"rental_uris":{"android":"levelo://app?vid=bc684fb0-b3cc-485b-a02f-cf532253de5c","ios":"levelo://app?vid=bc684fb0-b3cc-485b-a02f-cf532253de5c"},"vehicle_type_id":"4","last_reported":1742408017,"current_range_meters":3200,"station_id":"ce4bhih2rcd13ifvqfs0","pricing_plan_id":"cebpf4jnsgd1na2vs0mg"},{"bike_id":"4f6d11f4-8d23-4e35-8c59-e818e64ce7ab","system_id":"levelo_inurba_marseille","lat":43.29528,"lon":5.43899,"is_reserved":false,"is_disabled":false,"rental_uris":{"android":"levelo://app?vid=4f6d11f4-8d23-4e35-8c59-e818e64ce7ab","ios":"levelo://app?vid=4f6d11f4-8d23-4e35-8c59-e818e64ce7ab"},"vehicle_type_id":"4","last_reported":1742408017,"current_range_meters":3200,"station_id":"","pricing_plan_id":"cebpf4jnsgd1na2vs0mg"},{"bike_id":"73e76bed-394b-49e6-a65a-f7abed5787a9","system_id":"levelo_inurba_marseille","lat":43.2316,"lon":5.4366,"is_reserved":false,"is_disabled":true,"rental_uris":{"android":"levelo://app?vid=73e76bed-394b-49e6-a65a-f7abed5787a9","ios":"levelo://app?vid=73e76bed-394b-49e6-a65a-f7abed5787a9"},"vehicle_type_id":"4","last_reported":1742408017,"current_range_meters":3200,"station_id":"ce4bhmp2rcd13ifvqgog","pricing_plan_id":"cebpf4jnsgd1na2vs0mg"},{"bike_id":"8a2aee9f-027f-415a-9d5c-83912e4bbe0d","system_id":"levelo_inurba_marseille","lat":43.31764,"lon":5.3903,"is_reserved":false,"is_disabled":false,"rental_uris":{"android":"levelo://app?vid=8a2aee9f-027f-415a-9d5c-83912e4bbe0d","ios":"levelo://app?vid=8a2aee9f-027f-415a-9d5c-83912e4bbe0d"},"vehicle_type_id":"4","last_reported":1742408017,"current_range_meters":3200,"station_id":"ce4bhqp2rcd13ifvqhng","pricing_plan_id":"cebpf4jnsgd1na2vs0mg"},{"bike_id":"90aec765-5d96-4c4f-ab28-5efd4b0bd31c","system_id":"levelo_inurba_marseille","lat":43.28933,"lon":5.38383,"is_reserved":false,"is_disabled":false,"rental_uris":{"android":"levelo://app?vid=90aec765-5d96-4c4f-ab28-5efd4b0bd31c","ios":"levelo://app?vid=90aec765-5d96-4c4f-ab28-5efd4b0bd31c"},"vehicle_type_id":"4","last_reported":1742408017,"current_range_meters":3200,"station_id":"ce4bh612rcd13ifvqe6g","pricing_plan_id":"cebpf4jnsgd1na2vs0mg"},{"bike_id":"01abe29c-c6a3-4ce1-b81b-8d67cc851fde","system_id":"levelo_inurba_marseille","lat":43.28104,"lon":5.37843,"is_reserved":false,"is_disabled":false,"rental_uris":{"android":"levelo://app?vid=01abe29c-c6a3-4ce1-b81b-8d67cc851fde","ios":"levelo://app?vid=01abe29c-c6a3-4ce1-b81b-8d67cc851fde"},"vehicle_type_id":"4","last_reported":1742408017,"current_range_meters":3200,"station_id":"ce4bha12rcd13ifvqee0","pricing_plan_id":"cebpf4jnsgd1na2vs0mg"},{"bike_id":"e7aef694-bffd-4e4b-b091-b4f0ad6c2746","system_id":"levelo_inurba_marseille","lat":43.26555,"lon":5.39045,"is_reserved":false,"is_disabled":false,"rental_uris":{"android":"levelo://app?vid=e7aef694-bffd-4e4b-b091-b4f0ad6c2746","ios":"levelo://app?vid=e7aef694-bffd-4e4b-b091-b4f0ad6c2746"},"vehicle_type_id":"4","last_reported":1742408017,"current_range_meters":3200,"station_id":"ce4bhe12rcd13ifvqf30","pricing_plan_id":"cebpf4jnsgd1na2vs0mg"},{"bike_id":"3aea41c8-26f6-4b95-b0a4-a203fabe2e4e","system_id":"levelo_inurba_marseille","lat":43.23203,"lon":5.35551,"is_reserved":false,"is_disabled":false,"rental_uris":{"android":"levelo://app?vid=3aea41c8-26f6-4b95-b0a4-a203fabe2e4e","ios":"levelo://app?vid=3aea41c8-26f6-4b95-b0a4-a203fabe2e4e"},"vehicle_type_id":"4","last_reported":1742408017,"current_range_meters":3200,"station_id":"ce4bhu92rcd13ifvqi70","pricing_plan_id":"cebpf4jnsgd1na2vs0mg"},{"bike_id":"6368f354-6da7-4884-a394-062f1a963ed6","system_id":"levelo_inurba_marseille","lat":43.29288,"lon":5.4281,"is_reserved":false,"is_disabled":false,"rental_uris":{"android":"levelo://app?vid=6368f354-6da7-4884-a394-062f1a963ed6","ios":"levelo://app?vid=6368f354-6da7-4884-a394-062f1a963ed6"},"vehicle_type_id":"4","last_reported":1742408017,"current_range_meters":3200,"station_id":"","pricing_plan_id":"cebpf4jnsgd1na2vs0mg"},{"bike_id":"5a1cd899-4e0d-4ee6-833d-d3757b812ef0","system_id":"levelo_inurba_marseille","lat":43.25579,"lon":5.38241,"is_reserved":false,"is_disabled":false,"rental_uris":{"android":"levelo://app?vid=5a1cd899-4e0d-4ee6-833d-d3757b812ef0","ios":"levelo://app?vid=5a1cd899-4e0d-4ee6-833d-d3757b812ef0"},"vehicle_type_id":"4","last_reported":1742408017,"current_range_meters":3600,"station_id":"ce4bhih2rcd13ifvqfs0","pricing_plan_id":"cebpf4jnsgd1na2vs0mg"},{"bike_id":"e582d1fe-4879-4f27-8671-77ca2ba0d27e","system_id":"levelo_inurba_marseille","lat":43.24763,"lon":5.37447,"is_reserved":false,"is_disabled":false,"rental_uris":{"android":"levelo://app?vid=e582d1fe-4879-4f27-8671-77ca2ba0d27e","ios":"levelo://app?vid=e582d1fe-4879-4f27-8671-77ca2ba0d27e"},"vehicle_type_id":"4","last_reported":1742408017,"current_range_meters":3600,"station_id":"ce4bhgh2rcd13ifvqfb0","pricing_plan_id":"cebpf4jnsgd1na2vs0mg"},{"bike_id":"7be357ca-49f9-45d6-a962-754132a73fd4","system_id":"levelo_inurba_marseille","lat":43.30417,"lon":5.41291,"is_reserved":false,"is_disabled":false,"rental_uris":{"android":"levelo://app?vid=7be357ca-49f9-45d6-a962-754132a73fd4","ios":"levelo://app?vid=7be357ca-49f9-45d6-a962-754132a73fd4"},"vehicle_type_id":"4","last_reported":1742408017,"current_range_meters":3600,"station_id":"ce4bhop2rcd13ifvqh8g","pricing_plan_id":"cebpf4jnsgd1na2vs0mg"},{"bike_id":"b20b52e0-703f-438b-8ae8-c32a2e6580ca","system_id":"levelo_inurba_marseille","lat":43.30602,"lon":5.37241,"is_reserved":false,"is_disabled":false,"rental_uris":{"android":"levelo://app?vid=b20b52e0-703f-438b-8ae8-c32a2e6580ca","ios":"levelo://app?vid=b20b52e0-703f-438b-8ae8-c32a2e6580ca"},"vehicle_type_id":"4","last_reported":1742408017,"current_range_meters":3600,"station_id":"ce4bgqh2rcd13ifvqc4g","pricing_plan_id":"cebpf4jnsgd1na2vs0mg"},{"bike_id":"d835339a-815c-4f2d-bc5f-06df97638758","system_id":"levelo_inurba_marseille","lat":43.31395,"lon":5.38565,"is_reserved":false,"is_disabled":false,"rental_uris":{"android":"levelo://app?vid=d835339a-815c-4f2d-bc5f-06df97638758","ios":"levelo://app?vid=d835339a-815c-4f2d-bc5f-06df97638758"},"vehicle_type_id":"4","last_reported":1742408017,"current_range_meters":3600,"station_id":"","pricing_plan_id":"cebpf4jnsgd1na2vs0mg"},{"bike_id":"0395fe1c-0aba-4542-829f-2d8ec2c0588c","system_id":"levelo_inurba_marseille","lat":43.28671,"lon":5.38672,"is_reserved":false,"is_disabled":false,"rental_uris":{"android":"levelo://app?vid=0395fe1c-0aba-4542-829f-2d8ec2c0588c","ios":"levelo://app?vid=0395fe1c-0aba-4542-829f-2d8ec2c0588c"},"vehicle_type_id":"4","last_reported":1742408017,"current_range_meters":3600,"station_id":"ce4bh492rcd13ifvqdug","pricing_plan_id":"cebpf4jnsgd1na2vs0mg"},{"bike_id":"ec043347-97b7-4ceb-8dd3-5eb79dec6f87","system_id":"levelo_inurba_marseille","lat":43.30536,"lon":5.36539,"is_reserved":false,"is_disabled":false,"rental_uris":{"android":"levelo://app?vid=ec043347-97b7-4ceb-8dd3-5eb79dec6f87","ios":"levelo://app?vid=ec043347-97b7-4ceb-8dd3-5eb79dec6f87"},"vehicle_type_id":"4","last_reported":1742408017,"current_range_meters":3600,"station_id":"ce4bgs12rcd13ifvqcag","pricing_plan_id":"cebpf4jnsgd1na2vs0mg"},{"bike_id":"57eba945-4bbe-43ed-b1c3-008d8ea7c501","system_id":"levelo_inurba_marseille","lat":43.2981,"lon":5.40408,"is_reserved":false,"is_disabled":false,"rental_uris":{"android":"levelo://app?vid=57eba945-4bbe-43ed-b1c3-008d8ea7c501","ios":"levelo://app?vid=57eba945-4bbe-43ed-b1c3-008d8ea7c501"},"vehicle_type_id":"4","last_reported":1742408017,"current_range_meters":4000,"station_id":"ce4bh112rcd13ifvqd90","pricing_plan_id":"cebpf4jnsgd1na2vs0mg"},{"bike_id":"b1f63b11-b3f4-4089-bdd4-f08b3da75c9a","system_id":"levelo_inurba_marseille","lat":43.29009,"lon":5.35611,"is_reserved":false,"is_disabled":false,"rental_uris":{"android":"levelo://app?vid=b1f63b11-b3f4-4089-bdd4-f08b3da75c9a","ios":"levelo://app?vid=b1f63b11-b3f4-4089-bdd4-f08b3da75c9a"},"vehicle_type_id":"4","last_reported":1742408017,"current_range_meters":4000,"station_id":"ce4bhb92rcd13ifvqen0","pricing_plan_id":"cebpf4jnsgd1na2vs0mg"},{"bike_id":"97820cc4-93f7-472f-a6a3-bb0b3708ecd1","system_id":"levelo_inurba_marseille","lat":43.26553,"lon":5.37294,"is_reserved":false,"is_disabled":true,"rental_uris":{"android":"levelo://app?vid=97820cc4-93f7-472f-a6a3-bb0b3708ecd1","ios":"levelo://app?vid=97820cc4-93f7-472f-a6a3-bb0b3708ecd1"},"vehicle_type_id":"4","last_reported":1742408017,"current_range_meters":4000,"station_id":"ce4bhg12rcd13ifvqf70","pricing_plan_id":"cebpf4jnsgd1na2vs0mg"},{"bike_id":"9ae796bc-d523-4ae2-81a3-e354f3f71109","system_id":"levelo_inurba_marseille","lat":43.32361,"lon":5.38891,"is_reserved":false,"is_disabled":false,"rental_uris":{"android":"levelo://app?vid=9ae796bc-d523-4ae2-81a3-e354f3f71109","ios":"levelo://app?vid=9ae796bc-d523-4ae2-81a3-e354f3f71109"},"vehicle_type_id":"4","last_reported":1742408017,"current_range_meters":4800,"station_id":"ce4bhqp2rcd13ifvqhog","pricing_plan_id":"cebpf4jnsgd1na2vs0mg"},{"bike_id":"b10edf51-7bc2-46ff-b54c-699b0c728a22","system_id":"levelo_inurba_marseille","lat":43.29944,"lon":5.36552,"is_reserved":false,"is_disabled":false,"rental_uris":{"android":"levelo://app?vid=b10edf51-7bc2-46ff-b54c-699b0c728a22","ios":"levelo://app?vid=b10edf51-7bc2-46ff-b54c-699b0c728a22"},"vehicle_type_id":"4","last_reported":1742408017,"current_range_meters":4000,"station_id":"ce4bgm92rcd13ifvqbr0","pricing_plan_id":"cebpf4jnsgd1na2vs0mg"},{"bike_id":"8e6e40f9-b5a7-4bef-bf15-277c03f19d0d","system_id":"levelo_inurba_marseille","lat":43.32491,"lon":5.3657,"is_reserved":false,"is_disabled":false,"rental_uris":{"android":"levelo://app?vid=8e6e40f9-b5a7-4bef-bf15-277c03f19d0d","ios":"levelo://app?vid=8e6e40f9-b5a7-4bef-bf15-277c03f19d0d"},"vehicle_type_id":"4","last_reported":1742408017,"current_range_meters":4000,"station_id":"ce4bhs12rcd13ifvqhvg","pricing_plan_id":"cebpf4jnsgd1na2vs0mg"},{"bike_id":"b8f005ce-dd22-490d-aa51-8c2089bf6f7b","system_id":"levelo_inurba_marseille","lat":43.29281,"lon":5.36838,"is_reserved":false,"is_disabled":false,"rental_uris":{"android":"levelo://app?vid=b8f005ce-dd22-490d-aa51-8c2089bf6f7b","ios":"levelo://app?vid=b8f005ce-dd22-490d-aa51-8c2089bf6f7b"},"vehicle_type_id":"4","last_reported":1742408017,"current_range_meters":4000,"station_id":"ce4bhbp2rcd13ifvqesg","pricing_plan_id":"cebpf4jnsgd1na2vs0mg"},{"bike_id":"57d18b46-c48d-4fa6-a85f-837519cb43fe","system_id":"levelo_inurba_marseille","lat":43.29571,"lon":5.37518,"is_reserved":false,"is_disabled":false,"rental_uris":{"android":"levelo://app?vid=57d18b46-c48d-4fa6-a85f-837519cb43fe","ios":"levelo://app?vid=57d18b46-c48d-4fa6-a85f-837519cb43fe"},"vehicle_type_id":"4","last_reported":1742408017,"current_range_meters":4000,"station_id":"ce4bgh92rcd13ifvqb50","pricing_plan_id":"cebpf4jnsgd1na2vs0mg"},{"bike_id":"350a9bad-a273-420d-9287-c125de477455","system_id":"levelo_inurba_marseille","lat":43.30606,"lon":5.37233,"is_reserved":false,"is_disabled":false,"rental_uris":{"android":"levelo://app?vid=350a9bad-a273-420d-9287-c125de477455","ios":"levelo://app?vid=350a9bad-a273-420d-9287-c125de477455"},"vehicle_type_id":"4","last_reported":1742408017,"current_range_meters":4000,"station_id":"ce4bgqh2rcd13ifvqc4g","pricing_plan_id":"cebpf4jnsgd1na2vs0mg"},{"bike_id":"2e563d24-ecd5-47e3-a38a-0809cee140e1","system_id":"levelo_inurba_marseille","lat":43.28726,"lon":5.37936,"is_reserved":false,"is_disabled":false,"rental_uris":{"android":"levelo://app?vid=2e563d24-ecd5-47e3-a38a-0809cee140e1","ios":"levelo://app?vid=2e563d24-ecd5-47e3-a38a-0809cee140e1"},"vehicle_type_id":"4","last_reported":1742408017,"current_range_meters":4000,"station_id":"ce4bh9p2rcd13ifvqec0","pricing_plan_id":"cebpf4jnsgd1na2vs0mg"},{"bike_id":"41688625-9251-4983-811f-0a961a9a5087","system_id":"levelo_inurba_marseille","lat":43.28941,"lon":5.36401,"is_reserved":false,"is_disabled":false,"rental_uris":{"android":"levelo://app?vid=41688625-9251-4983-811f-0a961a9a5087","ios":"levelo://app?vid=41688625-9251-4983-811f-0a961a9a5087"},"vehicle_type_id":"4","last_reported":1742408017,"current_range_meters":4400,"station_id":"ce4bhc92rcd13ifvqetg","pricing_plan_id":"cebpf4jnsgd1na2vs0mg"},{"bike_id":"24ff1295-d614-4678-96ce-acb8d1116677","system_id":"levelo_inurba_marseille","lat":43.28944,"lon":5.3664,"is_reserved":false,"is_disabled":false,"rental_uris":{"android":"levelo://app?vid=24ff1295-d614-4678-96ce-acb8d1116677","ios":"levelo://app?vid=24ff1295-d614-4678-96ce-acb8d1116677"},"vehicle_type_id":"4","last_reported":1742408017,"current_range_meters":4400,"station_id":"ce4bhap2rcd13ifvqek0","pricing_plan_id":"cebpf4jnsgd1na2vs0mg"},{"bike_id":"55e8ed10-daa2-413a-980d-6a6eb45a229d","system_id":"levelo_inurba_marseille","lat":43.28372,"lon":5.38631,"is_reserved":false,"is_disabled":false,"rental_uris":{"android":"levelo://app?vid=55e8ed10-daa2-413a-980d-6a6eb45a229d","ios":"levelo://app?vid=55e8ed10-daa2-413a-980d-6a6eb45a229d"},"vehicle_type_id":"4","last_reported":1742408017,"current_range_meters":4400,"station_id":"ce4bh492rcd13ifvqdvg","pricing_plan_id":"cebpf4jnsgd1na2vs0mg"},{"bike_id":"a572e25f-e739-455a-ad67-335847fd4ac3","system_id":"levelo_inurba_marseille","lat":43.29277,"lon":5.38434,"is_reserved":false,"is_disabled":false,"rental_uris":{"android":"levelo://app?vid=a572e25f-e739-455a-ad67-335847fd4ac3","ios":"levelo://app?vid=a572e25f-e739-455a-ad67-335847fd4ac3"},"vehicle_type_id":"4","last_reported":1742408017,"current_range_meters":4400,"station_id":"ce4bh692rcd13ifvqea0","pricing_plan_id":"cebpf4jnsgd1na2vs0mg"},{"bike_id":"63733432-dde6-4784-b1ec-d2b3c3f62aaa","system_id":"levelo_inurba_marseille","lat":43.29541,"lon":5.39397,"is_reserved":false,"is_disabled":false,"rental_uris":{"android":"levelo://app?vid=63733432-dde6-4784-b1ec-d2b3c3f62aaa","ios":"levelo://app?vid=63733432-dde6-4784-b1ec-d2b3c3f62aaa"},"vehicle_type_id":"4","last_reported":1742408017,"current_range_meters":4400,"station_id":"ce4bh292rcd13ifvqdf0","pricing_plan_id":"cebpf4jnsgd1na2vs0mg"},{"bike_id":"8528cfd6-758c-4197-aaac-800294acfea6","system_id":"levelo_inurba_marseille","lat":43.25869,"lon":5.39911,"is_reserved":false,"is_disabled":false,"rental_uris":{"android":"levelo://app?vid=8528cfd6-758c-4197-aaac-800294acfea6","ios":"levelo://app?vid=8528cfd6-758c-4197-aaac-800294acfea6"},"vehicle_type_id":"4","last_reported":1742408017,"current_range_meters":4400,"station_id":"ce4bhl92rcd13ifvqghg","pricing_plan_id":"cebpf4jnsgd1na2vs0mg"},{"bike_id":"400f329e-ac9f-4e2e-b0ba-f9db79eb790f","system_id":"levelo_inurba_marseille","lat":43.2658,"lon":5.39055,"is_reserved":false,"is_disabled":false,"rental_uris":{"android":"levelo://app?vid=400f329e-ac9f-4e2e-b0ba-f9db79eb790f","ios":"levelo://app?vid=400f329e-ac9f-4e2e-b0ba-f9db79eb790f"},"vehicle_type_id":"4","last_reported":1742408017,"current_range_meters":4400,"station_id":"ce4bhe12rcd13ifvqf30","pricing_plan_id":"cebpf4jnsgd1na2vs0mg"},{"bike_id":"6e836711-e185-438e-a5b9-e188bca9d9fe","system_id":"levelo_inurba_marseille","lat":43.23188,"lon":5.3998,"is_reserved":false,"is_disabled":false,"rental_uris":{"android":"levelo://app?vid=6e836711-e185-438e-a5b9-e188bca9d9fe","ios":"levelo://app?vid=6e836711-e185-438e-a5b9-e188bca9d9fe"},"vehicle_type_id":"4","last_reported":1742408017,"current_range_meters":4400,"station_id":"ce4bhn12rcd13ifvqgqg","pricing_plan_id":"cebpf4jnsgd1na2vs0mg"},{"bike_id":"6c5fac9d-0e36-40de-8fef-513090a76549","system_id":"levelo_inurba_marseille","lat":43.28702,"lon":5.40007,"is_reserved":false,"is_disabled":false,"rental_uris":{"android":"levelo://app?vid=6c5fac9d-0e36-40de-8fef-513090a76549","ios":"levelo://app?vid=6c5fac9d-0e36-40de-8fef-513090a76549"},"vehicle_type_id":"4","last_reported":1742408017,"current_range_meters":4400,"station_id":"ce4bho92rcd13ifvqh3g","pricing_plan_id":"cebpf4jnsgd1na2vs0mg"},{"bike_id":"843080a1-35c2-49de-9a59-6bf7b67ac296","system_id":"levelo_inurba_marseille","lat":43.27085,"lon":5.42287,"is_reserved":false,"is_disabled":false,"rental_uris":{"android":"levelo://app?vid=843080a1-35c2-49de-9a59-6bf7b67ac296","ios":"levelo://app?vid=843080a1-35c2-49de-9a59-6bf7b67ac296"},"vehicle_type_id":"4","last_reported":1742408017,"current_range_meters":5600,"station_id":"ce4bhk92rcd13ifvqgb0","pricing_plan_id":"cebpf4jnsgd1na2vs0mg"},{"bike_id":"b5683e8d-8f7f-4046-86fe-70ddaa0a8c78","system_id":"levelo_inurba_marseille","lat":43.28085,"lon":5.39659,"is_reserved":false,"is_disabled":false,"rental_uris":{"android":"levelo://app?vid=b5683e8d-8f7f-4046-86fe-70ddaa0a8c78","ios":"levelo://app?vid=b5683e8d-8f7f-4046-86fe-70ddaa0a8c78"},"vehicle_type_id":"4","last_reported":1742408017,"current_range_meters":4400,"station_id":"ce4bho12rcd13ifvqh2g","pricing_plan_id":"cebpf4jnsgd1na2vs0mg"},{"bike_id":"1a4580d6-8a2e-434e-8afa-4c672588fbf5","system_id":"levelo_inurba_marseille","lat":43.29605,"lon":5.38091,"is_reserved":false,"is_disabled":false,"rental_uris":{"android":"levelo://app?vid=1a4580d6-8a2e-434e-8afa-4c672588fbf5","ios":"levelo://app?vid=1a4580d6-8a2e-434e-8afa-4c672588fbf5"},"vehicle_type_id":"4","last_reported":1742408017,"current_range_meters":4800,"station_id":"ce4bgl12rcd13ifvqbo0","pricing_plan_id":"cebpf4jnsgd1na2vs0mg"},{"bike_id":"a24eed54-6587-4320-af03-d015940e3b38","system_id":"levelo_inurba_marseille","lat":43.31759,"lon":5.39016,"is_reserved":false,"is_disabled":false,"rental_uris":{"android":"levelo://app?vid=a24eed54-6587-4320-af03-d015940e3b38","ios":"levelo://app?vid=a24eed54-6587-4320-af03-d015940e3b38"},"vehicle_type_id":"4","last_reported":1742408017,"current_range_meters":4800,"station_id":"ce4bhqp2rcd13ifvqhng","pricing_plan_id":"cebpf4jnsgd1na2vs0mg"},{"bike_id":"aa9ca6cd-cd65-4e42-be13-9ba23023fb2f","system_id":"levelo_inurba_marseille","lat":43.27375,"lon":5.36261,"is_reserved":false,"is_disabled":false,"rental_uris":{"android":"levelo://app?vid=aa9ca6cd-cd65-4e42-be13-9ba23023fb2f","ios":"levelo://app?vid=aa9ca6cd-cd65-4e42-be13-9ba23023fb2f"},"vehicle_type_id":"4","last_reported":1742408017,"current_range_meters":4800,"station_id":"ce4bhbh2rcd13ifvqeo0","pricing_plan_id":"cebpf4jnsgd1na2vs0mg"},{"bike_id":"6592c982-6760-4f64-a0be-eeb03f439ec6","system_id":"levelo_inurba_marseille","lat":43.3059,"lon":5.39352,"is_reserved":false,"is_disabled":false,"rental_uris":{"android":"levelo://app?vid=6592c982-6760-4f64-a0be-eeb03f439ec6","ios":"levelo://app?vid=6592c982-6760-4f64-a0be-eeb03f439ec6"},"vehicle_type_id":"4","last_reported":1742408017,"current_range_meters":4800,"station_id":"ce4bh0p2rcd13ifvqd80","pricing_plan_id":"cebpf4jnsgd1na2vs0mg"},{"bike_id":"4ab60c3c-0e31-4a02-9d5f-acb594ff22ad","system_id":"levelo_inurba_marseille","lat":43.29934,"lon":5.3745,"is_reserved":false,"is_disabled":true,"rental_uris":{"android":"levelo://app?vid=4ab60c3c-0e31-4a02-9d5f-acb594ff22ad","ios":"levelo://app?vid=4ab60c3c-0e31-4a02-9d5f-acb594ff22ad"},"vehicle_type_id":"4","last_reported":1742408017,"current_range_meters":5600,"station_id":"ce4bgjh2rcd13ifvqbg0","pricing_plan_id":"cebpf4jnsgd1na2vs0mg"},{"bike_id":"61e9e054-76f7-4ae3-8d7b-f656c2a86204","system_id":"levelo_inurba_marseille","lat":43.29231,"lon":5.36074,"is_reserved":false,"is_disabled":false,"rental_uris":{"android":"levelo://app?vid=61e9e054-76f7-4ae3-8d7b-f656c2a86204","ios":"levelo://app?vid=61e9e054-76f7-4ae3-8d7b-f656c2a86204"},"vehicle_type_id":"4","last_reported":1742408017,"current_range_meters":5600,"station_id":"ce4bhbh2rcd13ifvqeqg","pricing_plan_id":"cebpf4jnsgd1na2vs0mg"},{"bike_id":"dd8419bd-cf17-4608-999b-08aad10dc248","system_id":"levelo_inurba_marseille","lat":43.2784,"lon":5.39209,"is_reserved":false,"is_disabled":false,"rental_uris":{"android":"levelo://app?vid=dd8419bd-cf17-4608-999b-08aad10dc248","ios":"levelo://app?vid=dd8419bd-cf17-4608-999b-08aad10dc248"},"vehicle_type_id":"4","last_reported":1742408017,"current_range_meters":5600,"station_id":"ce4bhjp2rcd13ifvqga0","pricing_plan_id":"cebpf4jnsgd1na2vs0mg"},{"bike_id":"2fc9495d-c829-4229-a4db-5c8674880d7a","system_id":"levelo_inurba_marseille","lat":43.23044,"lon":5.35503,"is_reserved":false,"is_disabled":false,"rental_uris":{"android":"levelo://app?vid=2fc9495d-c829-4229-a4db-5c8674880d7a","ios":"levelo://app?vid=2fc9495d-c829-4229-a4db-5c8674880d7a"},"vehicle_type_id":"4","last_reported":1742408017,"current_range_meters":5600,"station_id":"cpo3342slgdg3j2ifvpg","pricing_plan_id":"cebpf4jnsgd1na2vs0mg"},{"bike_id":"e09b1838-d3a6-468c-98b3-750b49c7d153","system_id":"levelo_inurba_marseille","lat":43.2811,"lon":5.37825,"is_reserved":false,"is_disabled":false,"rental_uris":{"android":"levelo://app?vid=e09b1838-d3a6-468c-98b3-750b49c7d153","ios":"levelo://app?vid=e09b1838-d3a6-468c-98b3-750b49c7d153"},"vehicle_type_id":"4","last_reported":1742408017,"current_range_meters":5600,"station_id":"ce4bha12rcd13ifvqee0","pricing_plan_id":"cebpf4jnsgd1na2vs0mg"},{"bike_id":"b627c9ad-3c9c-4e71-ac51-64e10127430c","system_id":"levelo_inurba_marseille","lat":43.27906,"lon":5.38015,"is_reserved":false,"is_disabled":false,"rental_uris":{"android":"levelo://app?vid=b627c9ad-3c9c-4e71-ac51-64e10127430c","ios":"levelo://app?vid=b627c9ad-3c9c-4e71-ac51-64e10127430c"},"vehicle_type_id":"4","last_reported":1742408017,"current_range_meters":6000,"station_id":"ce4bhf92rcd13ifvqf50","pricing_plan_id":"cebpf4jnsgd1na2vs0mg"},{"bike_id":"fcb182cf-832e-4f7a-94eb-85378fa38b2e","system_id":"levelo_inurba_marseille","lat":43.31371,"lon":5.385,"is_reserved":false,"is_disabled":false,"rental_uris":{"android":"levelo://app?vid=fcb182cf-832e-4f7a-94eb-85378fa38b2e","ios":"levelo://app?vid=fcb182cf-832e-4f7a-94eb-85378fa38b2e"},"vehicle_type_id":"4","last_reported":1742408017,"current_range_meters":5600,"station_id":"ce4bgt92rcd13ifvqcf0","pricing_plan_id":"cebpf4jnsgd1na2vs0mg"},{"bike_id":"adc3bbf6-2e0f-4fc7-a766-a528d6d9ebe5","system_id":"levelo_inurba_marseille","lat":43.25114,"lon":5.4032,"is_reserved":false,"is_disabled":false,"rental_uris":{"android":"levelo://app?vid=adc3bbf6-2e0f-4fc7-a766-a528d6d9ebe5","ios":"levelo://app?vid=adc3bbf6-2e0f-4fc7-a766-a528d6d9ebe5"},"vehicle_type_id":"4","last_reported":1742408017,"current_range_meters":6000,"station_id":"ce4bhlh2rcd13ifvqgig","pricing_plan_id":"cebpf4jnsgd1na2vs0mg"},{"bike_id":"a4758e8b-3a7e-4820-bc8e-80e8d085a981","system_id":"levelo_inurba_marseille","lat":43.25121,"lon":5.40318,"is_reserved":false,"is_disabled":false,"rental_uris":{"android":"levelo://app?vid=a4758e8b-3a7e-4820-bc8e-80e8d085a981","ios":"levelo://app?vid=a4758e8b-3a7e-4820-bc8e-80e8d085a981"},"vehicle_type_id":"4","last_reported":1742408017,"current_range_meters":6000,"station_id":"ce4bhlh2rcd13ifvqgig","pricing_plan_id":"cebpf4jnsgd1na2vs0mg"},{"bike_id":"aa316bad-6c77-4393-a348-58343ab6d1d3","system_id":"levelo_inurba_marseille","lat":43.32335,"lon":5.4062,"is_reserved":false,"is_disabled":false,"rental_uris":{"android":"levelo://app?vid=aa316bad-6c77-4393-a348-58343ab6d1d3","ios":"levelo://app?vid=aa316bad-6c77-4393-a348-58343ab6d1d3"},"vehicle_type_id":"4","last_reported":1742408017,"current_range_meters":6000,"station_id":"ce4bhq92rcd13ifvqhjg","pricing_plan_id":"cebpf4jnsgd1na2vs0mg"},{"bike_id":"d68386ef-2417-4911-a7d1-e6373bd5a83e","system_id":"levelo_inurba_marseille","lat":43.2953,"lon":5.3904,"is_reserved":false,"is_disabled":false,"rental_uris":{"android":"levelo://app?vid=d68386ef-2417-4911-a7d1-e6373bd5a83e","ios":"levelo://app?vid=d68386ef-2417-4911-a7d1-e6373bd5a83e"},"vehicle_type_id":"4","last_reported":1742408017,"current_range_meters":6000,"station_id":"ce4bh3p2rcd13ifvqdp0","pricing_plan_id":"cebpf4jnsgd1na2vs0mg"},{"bike_id":"0b60e72b-d8b1-4266-9b63-b94b87c1ad4b","system_id":"levelo_inurba_marseille","lat":43.232,"lon":5.39993,"is_reserved":false,"is_disabled":false,"rental_uris":{"android":"levelo://app?vid=0b60e72b-d8b1-4266-9b63-b94b87c1ad4b","ios":"levelo://app?vid=0b60e72b-d8b1-4266-9b63-b94b87c1ad4b"},"vehicle_type_id":"4","last_reported":1742408017,"current_range_meters":6400,"station_id":"ce4bhn12rcd13ifvqgqg","pricing_plan_id":"cebpf4jnsgd1na2vs0mg"},{"bike_id":"b7fe0a32-1a3f-409b-9c7f-fb33f87f180a","system_id":"levelo_inurba_marseille","lat":43.28157,"lon":5.42647,"is_reserved":false,"is_disabled":false,"rental_uris":{"android":"levelo://app?vid=b7fe0a32-1a3f-409b-9c7f-fb33f87f180a","ios":"levelo://app?vid=b7fe0a32-1a3f-409b-9c7f-fb33f87f180a"},"vehicle_type_id":"4","last_reported":1742408017,"current_range_meters":6400,"station_id":"ce4bhnh2rcd13ifvqgug","pricing_plan_id":"cebpf4jnsgd1na2vs0mg"},{"bike_id":"6ae6f76c-6a01-4d75-9d3f-dfa610803a78","system_id":"levelo_inurba_marseille","lat":43.23068,"lon":5.3549,"is_reserved":false,"is_disabled":false,"rental_uris":{"android":"levelo://app?vid=6ae6f76c-6a01-4d75-9d3f-dfa610803a78","ios":"levelo://app?vid=6ae6f76c-6a01-4d75-9d3f-dfa610803a78"},"vehicle_type_id":"4","last_reported":1742408017,"current_range_meters":6400,"station_id":"cpo3342slgdg3j2ifvpg","pricing_plan_id":"cebpf4jnsgd1na2vs0mg"},{"bike_id":"3f4218af-9fbb-4521-843b-ccef5a7738d8","system_id":"levelo_inurba_marseille","lat":43.29572,"lon":5.39966,"is_reserved":false,"is_disabled":false,"rental_uris":{"android":"levelo://app?vid=3f4218af-9fbb-4521-843b-ccef5a7738d8","ios":"levelo://app?vid=3f4218af-9fbb-4521-843b-ccef5a7738d8"},"vehicle_type_id":"4","last_reported":1742408017,"current_range_meters":6400,"station_id":"ce4bh312rcd13ifvqdj0","pricing_plan_id":"cebpf4jnsgd1na2vs0mg"},{"bike_id":"41ccd72c-504a-4b33-907d-e3b6bd114bcb","system_id":"levelo_inurba_marseille","lat":43.23215,"lon":5.35539,"is_reserved":false,"is_disabled":false,"rental_uris":{"android":"levelo://app?vid=41ccd72c-504a-4b33-907d-e3b6bd114bcb","ios":"levelo://app?vid=41ccd72c-504a-4b33-907d-e3b6bd114bcb"},"vehicle_type_id":"4","last_reported":1742408017,"current_range_meters":6400,"station_id":"ce4bhu92rcd13ifvqi70","pricing_plan_id":"cebpf4jnsgd1na2vs0mg"},{"bike_id":"852a308d-d48d-46f4-a3f0-05690533f2a2","system_id":"levelo_inurba_marseille","lat":43.2923,"lon":5.36077,"is_reserved":false,"is_disabled":false,"rental_uris":{"android":"levelo://app?vid=852a308d-d48d-46f4-a3f0-05690533f2a2","ios":"levelo://app?vid=852a308d-d48d-46f4-a3f0-05690533f2a2"},"vehicle_type_id":"4","last_reported":1742408017,"current_range_meters":6400,"station_id":"ce4bhbh2rcd13ifvqeqg","pricing_plan_id":"cebpf4jnsgd1na2vs0mg"},{"bike_id":"2150dd07-4c88-47f9-8dd8-e9d3ef709f3a","system_id":"levelo_inurba_marseille","lat":43.30805,"lon":5.43528,"is_reserved":false,"is_disabled":false,"rental_uris":{"android":"levelo://app?vid=2150dd07-4c88-47f9-8dd8-e9d3ef709f3a","ios":"levelo://app?vid=2150dd07-4c88-47f9-8dd8-e9d3ef709f3a"},"vehicle_type_id":"4","last_reported":1742408017,"current_range_meters":6400,"station_id":"ce4bhph2rcd13ifvqheg","pricing_plan_id":"cebpf4jnsgd1na2vs0mg"},{"bike_id":"39ef946b-00f3-4c59-a189-76cc4da59a98","system_id":"levelo_inurba_marseille","lat":43.3061,"lon":5.37225,"is_reserved":false,"is_disabled":false,"rental_uris":{"android":"levelo://app?vid=39ef946b-00f3-4c59-a189-76cc4da59a98","ios":"levelo://app?vid=39ef946b-00f3-4c59-a189-76cc4da59a98"},"vehicle_type_id":"4","last_reported":1742408017,"current_range_meters":6400,"station_id":"ce4bgqh2rcd13ifvqc4g","pricing_plan_id":"cebpf4jnsgd1na2vs0mg"},{"bike_id":"0de96fef-fec8-4548-ae00-8b6e576c7565","system_id":"levelo_inurba_marseille","lat":43.298798,"lon":5.389044,"is_reserved":false,"is_disabled":false,"rental_uris":{"android":"levelo://app?vid=0de96fef-fec8-4548-ae00-8b6e576c7565","ios":"levelo://app?vid=0de96fef-fec8-4548-ae00-8b6e576c7565"},"vehicle_type_id":"4","last_reported":1742408017,"current_range_meters":6400,"station_id":"ce4bh392rcd13ifvqdl0","pricing_plan_id":"cebpf4jnsgd1na2vs0mg"},{"bike_id":"f58b7ec3-4216-4c72-a877-d681794fe890","system_id":"levelo_inurba_marseille","lat":43.28728,"lon":5.37949,"is_reserved":false,"is_disabled":false,"rental_uris":{"android":"levelo://app?vid=f58b7ec3-4216-4c72-a877-d681794fe890","ios":"levelo://app?vid=f58b7ec3-4216-4c72-a877-d681794fe890"},"vehicle_type_id":"4","last_reported":1742408017,"current_range_meters":6400,"station_id":"ce4bh9p2rcd13ifvqec0","pricing_plan_id":"cebpf4jnsgd1na2vs0mg"},{"bike_id":"e8cc8a2b-d028-4330-b4f3-4606e4f04fbb","system_id":"levelo_inurba_marseille","lat":43.31073,"lon":5.38348,"is_reserved":false,"is_disabled":false,"rental_uris":{"android":"levelo://app?vid=e8cc8a2b-d028-4330-b4f3-4606e4f04fbb","ios":"levelo://app?vid=e8cc8a2b-d028-4330-b4f3-4606e4f04fbb"},"vehicle_type_id":"4","last_reported":1742408017,"current_range_meters":6400,"station_id":"ce4bgv92rcd13ifvqcr0","pricing_plan_id":"cebpf4jnsgd1na2vs0mg"},{"bike_id":"687f92ca-476d-4b73-9856-5dea25b138f3","system_id":"levelo_inurba_marseille","lat":43.26953,"lon":5.38627,"is_reserved":false,"is_disabled":false,"rental_uris":{"android":"levelo://app?vid=687f92ca-476d-4b73-9856-5dea25b138f3","ios":"levelo://app?vid=687f92ca-476d-4b73-9856-5dea25b138f3"},"vehicle_type_id":"4","last_reported":1742408017,"current_range_meters":6400,"station_id":"ce4bhh92rcd13ifvqfh0","pricing_plan_id":"cebpf4jnsgd1na2vs0mg"},{"bike_id":"ea28acd0-36df-4e22-930e-210ae842664e","system_id":"levelo_inurba_marseille","lat":43.24657,"lon":5.38885,"is_reserved":false,"is_disabled":false,"rental_uris":{"android":"levelo://app?vid=ea28acd0-36df-4e22-930e-210ae842664e","ios":"levelo://app?vid=ea28acd0-36df-4e22-930e-210ae842664e"},"vehicle_type_id":"4","last_reported":1742408017,"current_range_meters":6400,"station_id":"ce4bhg12rcd13ifvqf60","pricing_plan_id":"cebpf4jnsgd1na2vs0mg"},{"bike_id":"dcc6e5a5-419a-404e-a324-99a5532086bd","system_id":"levelo_inurba_marseille","lat":43.24076,"lon":5.3776,"is_reserved":false,"is_disabled":false,"rental_uris":{"android":"levelo://app?vid=dcc6e5a5-419a-404e-a324-99a5532086bd","ios":"levelo://app?vid=dcc6e5a5-419a-404e-a324-99a5532086bd"},"vehicle_type_id":"4","last_reported":1742408017,"current_range_meters":6800,"station_id":"ce4bhnp2rcd13ifvqgvg","pricing_plan_id":"cebpf4jnsgd1na2vs0mg"},{"bike_id":"6069f061-7e44-4953-8b73-fa272b3738f1","system_id":"levelo_inurba_marseille","lat":43.29199,"lon":5.35803,"is_reserved":false,"is_disabled":false,"rental_uris":{"android":"levelo://app?vid=6069f061-7e44-4953-8b73-fa272b3738f1","ios":"levelo://app?vid=6069f061-7e44-4953-8b73-fa272b3738f1"},"vehicle_type_id":"4","last_reported":1742408017,"current_range_meters":6800,"station_id":"ce4bhb12rcd13ifvqel0","pricing_plan_id":"cebpf4jnsgd1na2vs0mg"},{"bike_id":"59178e30-46d4-43d2-80d4-d1da58ee1f4e","system_id":"levelo_inurba_marseille","lat":43.33025,"lon":5.39046,"is_reserved":false,"is_disabled":false,"rental_uris":{"android":"levelo://app?vid=59178e30-46d4-43d2-80d4-d1da58ee1f4e","ios":"levelo://app?vid=59178e30-46d4-43d2-80d4-d1da58ee1f4e"},"vehicle_type_id":"4","last_reported":1742408017,"current_range_meters":6800,"station_id":"ce4bhr92rcd13ifvqhrg","pricing_plan_id":"cebpf4jnsgd1na2vs0mg"},{"bike_id":"c1ccf0a5-89fe-4d49-a5d7-808fb720c652","system_id":"levelo_inurba_marseille","lat":43.260274,"lon":5.417406,"is_reserved":false,"is_disabled":false,"rental_uris":{"android":"levelo://app?vid=c1ccf0a5-89fe-4d49-a5d7-808fb720c652","ios":"levelo://app?vid=c1ccf0a5-89fe-4d49-a5d7-808fb720c652"},"vehicle_type_id":"4","last_reported":1742408017,"current_range_meters":6800,"station_id":"","pricing_plan_id":"cebpf4jnsgd1na2vs0mg"},{"bike_id":"80a5237d-971a-445e-b202-972c838aa7e4","system_id":"levelo_inurba_marseille","lat":43.31183,"lon":5.38716,"is_reserved":false,"is_disabled":false,"rental_uris":{"android":"levelo://app?vid=80a5237d-971a-445e-b202-972c838aa7e4","ios":"levelo://app?vid=80a5237d-971a-445e-b202-972c838aa7e4"},"vehicle_type_id":"4","last_reported":1742408017,"current_range_meters":6800,"station_id":"ce4bgv12rcd13ifvqcp0","pricing_plan_id":"cebpf4jnsgd1na2vs0mg"},{"bike_id":"29177bd9-b05a-46e3-a7c6-0bab8134bba2","system_id":"levelo_inurba_marseille","lat":43.27181,"lon":5.41013,"is_reserved":false,"is_disabled":false,"rental_uris":{"android":"levelo://app?vid=29177bd9-b05a-46e3-a7c6-0bab8134bba2","ios":"levelo://app?vid=29177bd9-b05a-46e3-a7c6-0bab8134bba2"},"vehicle_type_id":"4","last_reported":1742408017,"current_range_meters":6800,"station_id":"ce4bhl12rcd13ifvqgf0","pricing_plan_id":"cebpf4jnsgd1na2vs0mg"},{"bike_id":"43a47041-1fac-4235-a6cf-9b3b5fac24e9","system_id":"levelo_inurba_marseille","lat":43.30423,"lon":5.41285,"is_reserved":false,"is_disabled":false,"rental_uris":{"android":"levelo://app?vid=43a47041-1fac-4235-a6cf-9b3b5fac24e9","ios":"levelo://app?vid=43a47041-1fac-4235-a6cf-9b3b5fac24e9"},"vehicle_type_id":"4","last_reported":1742408017,"current_range_meters":6800,"station_id":"ce4bhop2rcd13ifvqh8g","pricing_plan_id":"cebpf4jnsgd1na2vs0mg"},{"bike_id":"ca1c0a28-8faf-435f-9d8b-370c3a07ff34","system_id":"levelo_inurba_marseille","lat":43.24168,"lon":5.36404,"is_reserved":false,"is_disabled":false,"rental_uris":{"android":"levelo://app?vid=ca1c0a28-8faf-435f-9d8b-370c3a07ff34","ios":"levelo://app?vid=ca1c0a28-8faf-435f-9d8b-370c3a07ff34"},"vehicle_type_id":"4","last_reported":1742408017,"current_range_meters":6800,"station_id":"cpo36qri1sfpv3e86is0","pricing_plan_id":"cebpf4jnsgd1na2vs0mg"},{"bike_id":"d1654f97-e65a-47b9-b967-bff40d652649","system_id":"levelo_inurba_marseille","lat":43.3043,"lon":5.38897,"is_reserved":false,"is_disabled":false,"rental_uris":{"android":"levelo://app?vid=d1654f97-e65a-47b9-b967-bff40d652649","ios":"levelo://app?vid=d1654f97-e65a-47b9-b967-bff40d652649"},"vehicle_type_id":"4","last_reported":1742408017,"current_range_meters":6800,"station_id":"ce4bgk12rcd13ifvqbi0","pricing_plan_id":"cebpf4jnsgd1na2vs0mg"},{"bike_id":"c88c6e30-8917-4206-a18b-06b9fc35bebd","system_id":"levelo_inurba_marseille","lat":43.28271,"lon":5.35062,"is_reserved":false,"is_disabled":false,"rental_uris":{"android":"levelo://app?vid=c88c6e30-8917-4206-a18b-06b9fc35bebd","ios":"levelo://app?vid=c88c6e30-8917-4206-a18b-06b9fc35bebd"},"vehicle_type_id":"4","last_reported":1742408017,"current_range_meters":6800,"station_id":"ce4bhbp2rcd13ifvqerg","pricing_plan_id":"cebpf4jnsgd1na2vs0mg"},{"bike_id":"4557e539-e1ea-4680-b967-601a10cfaeff","system_id":"levelo_inurba_marseille","lat":43.28409,"lon":5.37495,"is_reserved":false,"is_disabled":false,"rental_uris":{"android":"levelo://app?vid=4557e539-e1ea-4680-b967-601a10cfaeff","ios":"levelo://app?vid=4557e539-e1ea-4680-b967-601a10cfaeff"},"vehicle_type_id":"4","last_reported":1742408017,"current_range_meters":6800,"station_id":"ce4bh412rcd13ifvqds0","pricing_plan_id":"cebpf4jnsgd1na2vs0mg"},{"bike_id":"bc2f0409-f8fb-480a-8b6f-96a641c00e78","system_id":"levelo_inurba_marseille","lat":43.24073,"lon":5.37765,"is_reserved":false,"is_disabled":false,"rental_uris":{"android":"levelo://app?vid=bc2f0409-f8fb-480a-8b6f-96a641c00e78","ios":"levelo://app?vid=bc2f0409-f8fb-480a-8b6f-96a641c00e78"},"vehicle_type_id":"4","last_reported":1742408017,"current_range_meters":6800,"station_id":"ce4bhnp2rcd13ifvqgvg","pricing_plan_id":"cebpf4jnsgd1na2vs0mg"},{"bike_id":"59963d7f-e15d-4349-829c-4dfcb87aede5","system_id":"levelo_inurba_marseille","lat":43.28461,"lon":5.3589,"is_reserved":false,"is_disabled":false,"rental_uris":{"android":"levelo://app?vid=59963d7f-e15d-4349-829c-4dfcb87aede5","ios":"levelo://app?vid=59963d7f-e15d-4349-829c-4dfcb87aede5"},"vehicle_type_id":"4","last_reported":1742408017,"current_range_meters":7200,"station_id":"ce4bhah2rcd13ifvqei0","pricing_plan_id":"cebpf4jnsgd1na2vs0mg"},{"bike_id":"6f956e3a-b900-4473-a763-e685d396223e","system_id":"levelo_inurba_marseille","lat":43.32655,"lon":5.40986,"is_reserved":false,"is_disabled":false,"rental_uris":{"android":"levelo://app?vid=6f956e3a-b900-4473-a763-e685d396223e","ios":"levelo://app?vid=6f956e3a-b900-4473-a763-e685d396223e"},"vehicle_type_id":"4","last_reported":1742408017,"current_range_meters":7200,"station_id":"ce4bhpp2rcd13ifvqhgg","pricing_plan_id":"cebpf4jnsgd1na2vs0mg"},{"bike_id":"ddd255cc-c46b-46fc-ba51-164f4dfc3b76","system_id":"levelo_inurba_marseille","lat":43.26229,"lon":5.40464,"is_reserved":false,"is_disabled":false,"rental_uris":{"android":"levelo://app?vid=ddd255cc-c46b-46fc-ba51-164f4dfc3b76","ios":"levelo://app?vid=ddd255cc-c46b-46fc-ba51-164f4dfc3b76"},"vehicle_type_id":"4","last_reported":1742408017,"current_range_meters":7200,"station_id":"ce4bhmh2rcd13ifvqgmg","pricing_plan_id":"cebpf4jnsgd1na2vs0mg"},{"bike_id":"d8c6e5aa-2229-4d0c-8cd4-48ee6276dc0f","system_id":"levelo_inurba_marseille","lat":43.33608,"lon":5.41033,"is_reserved":false,"is_disabled":false,"rental_uris":{"android":"levelo://app?vid=d8c6e5aa-2229-4d0c-8cd4-48ee6276dc0f","ios":"levelo://app?vid=d8c6e5aa-2229-4d0c-8cd4-48ee6276dc0f"},"vehicle_type_id":"4","last_reported":1742408017,"current_range_meters":7200,"station_id":"ce4bhqh2rcd13ifvqhmg","pricing_plan_id":"cebpf4jnsgd1na2vs0mg"},{"bike_id":"a342afa1-fe1b-4de5-8f98-f3f81167fac6","system_id":"levelo_inurba_marseille","lat":43.22935,"lon":5.35402,"is_reserved":false,"is_disabled":false,"rental_uris":{"android":"levelo://app?vid=a342afa1-fe1b-4de5-8f98-f3f81167fac6","ios":"levelo://app?vid=a342afa1-fe1b-4de5-8f98-f3f81167fac6"},"vehicle_type_id":"4","last_reported":1742408017,"current_range_meters":7200,"station_id":"cpo3532slgdg3j2ikp40","pricing_plan_id":"cebpf4jnsgd1na2vs0mg"},{"bike_id":"6de697d5-7f2d-455f-9b6c-131c9daa8b38","system_id":"levelo_inurba_marseille","lat":43.30888,"lon":5.38077,"is_reserved":false,"is_disabled":false,"rental_uris":{"android":"levelo://app?vid=6de697d5-7f2d-455f-9b6c-131c9daa8b38","ios":"levelo://app?vid=6de697d5-7f2d-455f-9b6c-131c9daa8b38"},"vehicle_type_id":"4","last_reported":1742408017,"current_range_meters":7200,"station_id":"ce4bgt12rcd13ifvqce0","pricing_plan_id":"cebpf4jnsgd1na2vs0mg"},{"bike_id":"de015e41-02e8-4171-8684-443268fcd31c","system_id":"levelo_inurba_marseille","lat":43.29079,"lon":5.3722,"is_reserved":false,"is_disabled":false,"rental_uris":{"android":"levelo://app?vid=de015e41-02e8-4171-8684-443268fcd31c","ios":"levelo://app?vid=de015e41-02e8-4171-8684-443268fcd31c"},"vehicle_type_id":"4","last_reported":1742408017,"current_range_meters":6800,"station_id":"ce4bh5p2rcd13ifvqe4g","pricing_plan_id":"cebpf4jnsgd1na2vs0mg"},{"bike_id":"63e37657-c599-45c6-beda-29ad2b78c914","system_id":"levelo_inurba_marseille","lat":43.24079,"lon":5.37687,"is_reserved":false,"is_disabled":false,"rental_uris":{"android":"levelo://app?vid=63e37657-c599-45c6-beda-29ad2b78c914","ios":"levelo://app?vid=63e37657-c599-45c6-beda-29ad2b78c914"},"vehicle_type_id":"4","last_reported":1742408017,"current_range_meters":7200,"station_id":"ce4bhnp2rcd13ifvqgvg","pricing_plan_id":"cebpf4jnsgd1na2vs0mg"},{"bike_id":"4156866b-a0ed-4dcf-b9d2-e7765ca102e2","system_id":"levelo_inurba_marseille","lat":43.30523,"lon":5.36716,"is_reserved":false,"is_disabled":true,"rental_uris":{"android":"levelo://app?vid=4156866b-a0ed-4dcf-b9d2-e7765ca102e2","ios":"levelo://app?vid=4156866b-a0ed-4dcf-b9d2-e7765ca102e2"},"vehicle_type_id":"4","last_reported":1742408017,"current_range_meters":7200,"station_id":"ce4bgrp2rcd13ifvqc9g","pricing_plan_id":"cebpf4jnsgd1na2vs0mg"},{"bike_id":"80199900-8dce-4757-bbc9-50ebf2191700","system_id":"levelo_inurba_marseille","lat":43.26953,"lon":5.40249,"is_reserved":false,"is_disabled":false,"rental_uris":{"android":"levelo://app?vid=80199900-8dce-4757-bbc9-50ebf2191700","ios":"levelo://app?vid=80199900-8dce-4757-bbc9-50ebf2191700"},"vehicle_type_id":"4","last_reported":1742408017,"current_range_meters":7200,"station_id":"cjm6bp8fraef2m0cb0m0","pricing_plan_id":"cebpf4jnsgd1na2vs0mg"},{"bike_id":"0cc38e92-a044-4865-9cf4-220b53361aa4","system_id":"levelo_inurba_marseille","lat":43.284668,"lon":5.349763,"is_reserved":false,"is_disabled":false,"rental_uris":{"android":"levelo://app?vid=0cc38e92-a044-4865-9cf4-220b53361aa4","ios":"levelo://app?vid=0cc38e92-a044-4865-9cf4-220b53361aa4"},"vehicle_type_id":"4","last_reported":1742408017,"current_range_meters":6800,"station_id":"ce4bhbp2rcd13ifvqerg","pricing_plan_id":"cebpf4jnsgd1na2vs0mg"},{"bike_id":"6a02b16b-6b01-401c-9ecc-2a4df284b787","system_id":"levelo_inurba_marseille","lat":43.29785,"lon":5.38101,"is_reserved":false,"is_disabled":false,"rental_uris":{"android":"levelo://app?vid=6a02b16b-6b01-401c-9ecc-2a4df284b787","ios":"levelo://app?vid=6a02b16b-6b01-401c-9ecc-2a4df284b787"},"vehicle_type_id":"4","last_reported":1742408017,"current_range_meters":7200,"station_id":"ce4bgip2rcd13ifvqbb0","pricing_plan_id":"cebpf4jnsgd1na2vs0mg"},{"bike_id":"cd3f6418-d471-43bd-a8af-c4289f0429a3","system_id":"levelo_inurba_marseille","lat":43.24181,"lon":5.39736,"is_reserved":false,"is_disabled":false,"rental_uris":{"android":"levelo://app?vid=cd3f6418-d471-43bd-a8af-c4289f0429a3","ios":"levelo://app?vid=cd3f6418-d471-43bd-a8af-c4289f0429a3"},"vehicle_type_id":"4","last_reported":1742408017,"current_range_meters":8000,"station_id":"ce4bhn12rcd13ifvqgpg","pricing_plan_id":"cebpf4jnsgd1na2vs0mg"},{"bike_id":"8763b2fb-df4c-43b9-b66c-3b696e0664a4","system_id":"levelo_inurba_marseille","lat":43.28,"lon":5.41686,"is_reserved":false,"is_disabled":false,"rental_uris":{"android":"levelo://app?vid=8763b2fb-df4c-43b9-b66c-3b696e0664a4","ios":"levelo://app?vid=8763b2fb-df4c-43b9-b66c-3b696e0664a4"},"vehicle_type_id":"4","last_reported":1742408017,"current_range_meters":8000,"station_id":"ce4bho12rcd13ifvqh1g","pricing_plan_id":"cebpf4jnsgd1na2vs0mg"},{"bike_id":"fc8d7ccf-d751-4ee5-8cf9-61381f646b96","system_id":"levelo_inurba_marseille","lat":43.29638,"lon":5.4059,"is_reserved":false,"is_disabled":false,"rental_uris":{"android":"levelo://app?vid=fc8d7ccf-d751-4ee5-8cf9-61381f646b96","ios":"levelo://app?vid=fc8d7ccf-d751-4ee5-8cf9-61381f646b96"},"vehicle_type_id":"4","last_reported":1742408017,"current_range_meters":8000,"station_id":"ce4bh0h2rcd13ifvqd60","pricing_plan_id":"cebpf4jnsgd1na2vs0mg"},{"bike_id":"73b936df-5dd4-44e0-8d03-c4ea42e5ccd8","system_id":"levelo_inurba_marseille","lat":43.24995,"lon":5.38933,"is_reserved":false,"is_disabled":false,"rental_uris":{"android":"levelo://app?vid=73b936df-5dd4-44e0-8d03-c4ea42e5ccd8","ios":"levelo://app?vid=73b936df-5dd4-44e0-8d03-c4ea42e5ccd8"},"vehicle_type_id":"4","last_reported":1742408017,"current_range_meters":8000,"station_id":"ce4bhgp2rcd13ifvqfd0","pricing_plan_id":"cebpf4jnsgd1na2vs0mg"},{"bike_id":"cf817709-fbaf-4d02-b0ac-82d1d400bae0","system_id":"levelo_inurba_marseille","lat":43.27943,"lon":5.41051,"is_reserved":false,"is_disabled":false,"rental_uris":{"android":"levelo://app?vid=cf817709-fbaf-4d02-b0ac-82d1d400bae0","ios":"levelo://app?vid=cf817709-fbaf-4d02-b0ac-82d1d400bae0"},"vehicle_type_id":"4","last_reported":1742408017,"current_range_meters":8000,"station_id":"ce4bhnp2rcd13ifvqh0g","pricing_plan_id":"cebpf4jnsgd1na2vs0mg"},{"bike_id":"60d05abf-4798-46ba-83b1-019d7a987be0","system_id":"levelo_inurba_marseille","lat":43.28726,"lon":5.37922,"is_reserved":false,"is_disabled":false,"rental_uris":{"android":"levelo://app?vid=60d05abf-4798-46ba-83b1-019d7a987be0","ios":"levelo://app?vid=60d05abf-4798-46ba-83b1-019d7a987be0"},"vehicle_type_id":"4","last_reported":1742408017,"current_range_meters":8000,"station_id":"ce4bh9p2rcd13ifvqec0","pricing_plan_id":"cebpf4jnsgd1na2vs0mg"},{"bike_id":"3c0f86bf-2134-4462-a7ab-79aaede557c9","system_id":"levelo_inurba_marseille","lat":43.31709,"lon":5.43703,"is_reserved":false,"is_disabled":false,"rental_uris":{"android":"levelo://app?vid=3c0f86bf-2134-4462-a7ab-79aaede557c9","ios":"levelo://app?vid=3c0f86bf-2134-4462-a7ab-79aaede557c9"},"vehicle_type_id":"4","last_reported":1742408017,"current_range_meters":8000,"station_id":"ce4bhp92rcd13ifvqhcg","pricing_plan_id":"cebpf4jnsgd1na2vs0mg"},{"bike_id":"4f70ebff-4208-422e-8c95-09d5bebf9c84","system_id":"levelo_inurba_marseille","lat":43.27929,"lon":5.39572,"is_reserved":false,"is_disabled":false,"rental_uris":{"android":"levelo://app?vid=4f70ebff-4208-422e-8c95-09d5bebf9c84","ios":"levelo://app?vid=4f70ebff-4208-422e-8c95-09d5bebf9c84"},"vehicle_type_id":"4","last_reported":1742408017,"current_range_meters":8000,"station_id":"ce4bhf92rcd13ifvqf40","pricing_plan_id":"cebpf4jnsgd1na2vs0mg"},{"bike_id":"6b162ed9-3599-4156-a34b-2df90433ae5c","system_id":"levelo_inurba_marseille","lat":43.24175,"lon":5.39721,"is_reserved":false,"is_disabled":false,"rental_uris":{"android":"levelo://app?vid=6b162ed9-3599-4156-a34b-2df90433ae5c","ios":"levelo://app?vid=6b162ed9-3599-4156-a34b-2df90433ae5c"},"vehicle_type_id":"4","last_reported":1742408017,"current_range_meters":8000,"station_id":"ce4bhn12rcd13ifvqgpg","pricing_plan_id":"cebpf4jnsgd1na2vs0mg"},{"bike_id":"3c11d993-3e16-47c1-90d5-7175d09fc3e7","system_id":"levelo_inurba_marseille","lat":43.30803,"lon":5.38159,"is_reserved":false,"is_disabled":false,"rental_uris":{"android":"levelo://app?vid=3c11d993-3e16-47c1-90d5-7175d09fc3e7","ios":"levelo://app?vid=3c11d993-3e16-47c1-90d5-7175d09fc3e7"},"vehicle_type_id":"4","last_reported":1742408017,"current_range_meters":8000,"station_id":"ce4bgt12rcd13ifvqce0","pricing_plan_id":"cebpf4jnsgd1na2vs0mg"},{"bike_id":"20df28b8-63d2-4593-9af7-4b359afeb27a","system_id":"levelo_inurba_marseille","lat":43.27551,"lon":5.38444,"is_reserved":false,"is_disabled":false,"rental_uris":{"android":"levelo://app?vid=20df28b8-63d2-4593-9af7-4b359afeb27a","ios":"levelo://app?vid=20df28b8-63d2-4593-9af7-4b359afeb27a"},"vehicle_type_id":"4","last_reported":1742408017,"current_range_meters":8000,"station_id":"ce4bhh92rcd13ifvqfi0","pricing_plan_id":"cebpf4jnsgd1na2vs0mg"},{"bike_id":"1fe8cbb2-e61f-4748-8f3f-eff906305549","system_id":"levelo_inurba_marseille","lat":43.23084,"lon":5.35498,"is_reserved":false,"is_disabled":false,"rental_uris":{"android":"levelo://app?vid=1fe8cbb2-e61f-4748-8f3f-eff906305549","ios":"levelo://app?vid=1fe8cbb2-e61f-4748-8f3f-eff906305549"},"vehicle_type_id":"4","last_reported":1742408017,"current_range_meters":8400,"station_id":"cpo3342slgdg3j2ifvpg","pricing_plan_id":"cebpf4jnsgd1na2vs0mg"},{"bike_id":"25793b0d-d8a7-4fb7-bbd3-bb61178801a0","system_id":"levelo_inurba_marseille","lat":43.30989,"lon":5.37013,"is_reserved":false,"is_disabled":false,"rental_uris":{"android":"levelo://app?vid=25793b0d-d8a7-4fb7-bbd3-bb61178801a0","ios":"levelo://app?vid=25793b0d-d8a7-4fb7-bbd3-bb61178801a0"},"vehicle_type_id":"4","last_reported":1742408017,"current_range_meters":8400,"station_id":"","pricing_plan_id":"cebpf4jnsgd1na2vs0mg"},{"bike_id":"10eed6fd-0341-4510-a4a6-4c8769f4a4be","system_id":"levelo_inurba_marseille","lat":43.26725,"lon":5.38267,"is_reserved":false,"is_disabled":false,"rental_uris":{"android":"levelo://app?vid=10eed6fd-0341-4510-a4a6-4c8769f4a4be","ios":"levelo://app?vid=10eed6fd-0341-4510-a4a6-4c8769f4a4be"},"vehicle_type_id":"4","last_reported":1742408017,"current_range_meters":8400,"station_id":"ce4bhg92rcd13ifvqf90","pricing_plan_id":"cebpf4jnsgd1na2vs0mg"},{"bike_id":"25b38b80-d7c5-42a9-8144-532276408f5e","system_id":"levelo_inurba_marseille","lat":43.30894,"lon":5.37187,"is_reserved":false,"is_disabled":false,"rental_uris":{"android":"levelo://app?vid=25b38b80-d7c5-42a9-8144-532276408f5e","ios":"levelo://app?vid=25b38b80-d7c5-42a9-8144-532276408f5e"},"vehicle_type_id":"4","last_reported":1742408017,"current_range_meters":8400,"station_id":"ce4bguh2rcd13ifvqckg","pricing_plan_id":"cebpf4jnsgd1na2vs0mg"},{"bike_id":"ed32af05-a93a-40af-b3e3-3171404acc80","system_id":"levelo_inurba_marseille","lat":43.27379,"lon":5.36254,"is_reserved":false,"is_disabled":false,"rental_uris":{"android":"levelo://app?vid=ed32af05-a93a-40af-b3e3-3171404acc80","ios":"levelo://app?vid=ed32af05-a93a-40af-b3e3-3171404acc80"},"vehicle_type_id":"4","last_reported":1742408017,"current_range_meters":8400,"station_id":"ce4bhbh2rcd13ifvqeo0","pricing_plan_id":"cebpf4jnsgd1na2vs0mg"},{"bike_id":"2090a3a4-4a7b-495a-a897-7e05681365f8","system_id":"levelo_inurba_marseille","lat":43.30217,"lon":5.3947,"is_reserved":false,"is_disabled":false,"rental_uris":{"android":"levelo://app?vid=2090a3a4-4a7b-495a-a897-7e05681365f8","ios":"levelo://app?vid=2090a3a4-4a7b-495a-a897-7e05681365f8"},"vehicle_type_id":"4","last_reported":1742408017,"current_range_meters":8000,"station_id":"ce4bh0p2rcd13ifvqd70","pricing_plan_id":"cebpf4jnsgd1na2vs0mg"},{"bike_id":"f900da6c-7e5c-4ec1-bb80-501e71312a52","system_id":"levelo_inurba_marseille","lat":43.27375,"lon":5.36255,"is_reserved":false,"is_disabled":false,"rental_uris":{"android":"levelo://app?vid=f900da6c-7e5c-4ec1-bb80-501e71312a52","ios":"levelo://app?vid=f900da6c-7e5c-4ec1-bb80-501e71312a52"},"vehicle_type_id":"4","last_reported":1742408017,"current_range_meters":8400,"station_id":"ce4bhbh2rcd13ifvqeo0","pricing_plan_id":"cebpf4jnsgd1na2vs0mg"},{"bike_id":"4858167e-edc8-4792-9d1c-05670cc1275f","system_id":"levelo_inurba_marseille","lat":43.29286,"lon":5.42759,"is_reserved":false,"is_disabled":false,"rental_uris":{"android":"levelo://app?vid=4858167e-edc8-4792-9d1c-05670cc1275f","ios":"levelo://app?vid=4858167e-edc8-4792-9d1c-05670cc1275f"},"vehicle_type_id":"4","last_reported":1742408017,"current_range_meters":8400,"station_id":"","pricing_plan_id":"cebpf4jnsgd1na2vs0mg"},{"bike_id":"c88fbe28-9402-4ce3-9d2b-7ab1e41f63e4","system_id":"levelo_inurba_marseille","lat":43.27621,"lon":5.36131,"is_reserved":false,"is_disabled":false,"rental_uris":{"android":"levelo://app?vid=c88fbe28-9402-4ce3-9d2b-7ab1e41f63e4","ios":"levelo://app?vid=c88fbe28-9402-4ce3-9d2b-7ab1e41f63e4"},"vehicle_type_id":"4","last_reported":1742408017,"current_range_meters":8400,"station_id":"ce4bgj92rcd13ifvqbe0","pricing_plan_id":"cebpf4jnsgd1na2vs0mg"},{"bike_id":"4fa0322d-b201-409d-9218-57726b4a4ca2","system_id":"levelo_inurba_marseille","lat":43.30653,"lon":5.40091,"is_reserved":false,"is_disabled":false,"rental_uris":{"android":"levelo://app?vid=4fa0322d-b201-409d-9218-57726b4a4ca2","ios":"levelo://app?vid=4fa0322d-b201-409d-9218-57726b4a4ca2"},"vehicle_type_id":"4","last_reported":1742408017,"current_range_meters":8400,"station_id":"ce4bh112rcd13ifvqda0","pricing_plan_id":"cebpf4jnsgd1na2vs0mg"},{"bike_id":"dfd4787a-8f83-47ad-9e31-85c3f8ce5b3f","system_id":"levelo_inurba_marseille","lat":43.24807,"lon":5.37458,"is_reserved":false,"is_disabled":false,"rental_uris":{"android":"levelo://app?vid=dfd4787a-8f83-47ad-9e31-85c3f8ce5b3f","ios":"levelo://app?vid=dfd4787a-8f83-47ad-9e31-85c3f8ce5b3f"},"vehicle_type_id":"4","last_reported":1742408017,"current_range_meters":8800,"station_id":"ce4bhgh2rcd13ifvqfb0","pricing_plan_id":"cebpf4jnsgd1na2vs0mg"},{"bike_id":"f9ff2843-6a11-4e3b-9e65-9998fbe82454","system_id":"levelo_inurba_marseille","lat":43.25097,"lon":5.40333,"is_reserved":false,"is_disabled":false,"rental_uris":{"android":"levelo://app?vid=f9ff2843-6a11-4e3b-9e65-9998fbe82454","ios":"levelo://app?vid=f9ff2843-6a11-4e3b-9e65-9998fbe82454"},"vehicle_type_id":"4","last_reported":1742408017,"current_range_meters":8800,"station_id":"ce4bhlh2rcd13ifvqgig","pricing_plan_id":"cebpf4jnsgd1na2vs0mg"},{"bike_id":"7f6c1303-31a0-4d11-9f6d-e9fb8b9c97b5","system_id":"levelo_inurba_marseille","lat":43.28723,"lon":5.37949,"is_reserved":false,"is_disabled":false,"rental_uris":{"android":"levelo://app?vid=7f6c1303-31a0-4d11-9f6d-e9fb8b9c97b5","ios":"levelo://app?vid=7f6c1303-31a0-4d11-9f6d-e9fb8b9c97b5"},"vehicle_type_id":"4","last_reported":1742408017,"current_range_meters":8800,"station_id":"ce4bh9p2rcd13ifvqec0","pricing_plan_id":"cebpf4jnsgd1na2vs0mg"},{"bike_id":"6786c331-a419-48ba-83fc-59d7657234cc","system_id":"levelo_inurba_marseille","lat":43.29804,"lon":5.40408,"is_reserved":false,"is_disabled":false,"rental_uris":{"android":"levelo://app?vid=6786c331-a419-48ba-83fc-59d7657234cc","ios":"levelo://app?vid=6786c331-a419-48ba-83fc-59d7657234cc"},"vehicle_type_id":"4","last_reported":1742408017,"current_range_meters":8800,"station_id":"ce4bh112rcd13ifvqd90","pricing_plan_id":"cebpf4jnsgd1na2vs0mg"},{"bike_id":"2dae0cb0-2158-49fe-8a9d-24a0462315f0","system_id":"levelo_inurba_marseille","lat":43.316922,"lon":5.377816,"is_reserved":false,"is_disabled":false,"rental_uris":{"android":"levelo://app?vid=2dae0cb0-2158-49fe-8a9d-24a0462315f0","ios":"levelo://app?vid=2dae0cb0-2158-49fe-8a9d-24a0462315f0"},"vehicle_type_id":"4","last_reported":1742408017,"current_range_meters":8800,"station_id":"ce4bhr12rcd13ifvqhqg","pricing_plan_id":"cebpf4jnsgd1na2vs0mg"},{"bike_id":"e70b343d-b145-444c-8073-42b80304fea4","system_id":"levelo_inurba_marseille","lat":43.24662,"lon":5.38177,"is_reserved":false,"is_disabled":false,"rental_uris":{"android":"levelo://app?vid=e70b343d-b145-444c-8073-42b80304fea4","ios":"levelo://app?vid=e70b343d-b145-444c-8073-42b80304fea4"},"vehicle_type_id":"4","last_reported":1742408017,"current_range_meters":8800,"station_id":"ce4bhih2rcd13ifvqfr0","pricing_plan_id":"cebpf4jnsgd1na2vs0mg"},{"bike_id":"ee6c91ae-48e5-4aa7-bc90-dbfd5be48dab","system_id":"levelo_inurba_marseille","lat":43.26551,"lon":5.37304,"is_reserved":false,"is_disabled":false,"rental_uris":{"android":"levelo://app?vid=ee6c91ae-48e5-4aa7-bc90-dbfd5be48dab","ios":"levelo://app?vid=ee6c91ae-48e5-4aa7-bc90-dbfd5be48dab"},"vehicle_type_id":"4","last_reported":1742408017,"current_range_meters":8800,"station_id":"ce4bhg12rcd13ifvqf70","pricing_plan_id":"cebpf4jnsgd1na2vs0mg"},{"bike_id":"64667a88-9e63-4d8e-b496-fb585f96f30e","system_id":"levelo_inurba_marseille","lat":43.28682,"lon":5.38669,"is_reserved":false,"is_disabled":false,"rental_uris":{"android":"levelo://app?vid=64667a88-9e63-4d8e-b496-fb585f96f30e","ios":"levelo://app?vid=64667a88-9e63-4d8e-b496-fb585f96f30e"},"vehicle_type_id":"4","last_reported":1742408017,"current_range_meters":8800,"station_id":"ce4bh492rcd13ifvqdug","pricing_plan_id":"cebpf4jnsgd1na2vs0mg"},{"bike_id":"b914c546-78ee-4624-a575-a4df7c1a12da","system_id":"levelo_inurba_marseille","lat":43.29338,"lon":5.411648,"is_reserved":false,"is_disabled":false,"rental_uris":{"android":"levelo://app?vid=b914c546-78ee-4624-a575-a4df7c1a12da","ios":"levelo://app?vid=b914c546-78ee-4624-a575-a4df7c1a12da"},"vehicle_type_id":"4","last_reported":1742408017,"current_range_meters":8800,"station_id":"","pricing_plan_id":"cebpf4jnsgd1na2vs0mg"},{"bike_id":"054b79e5-3c6c-4562-a1d6-d64bd099ac6b","system_id":"levelo_inurba_marseille","lat":43.2466,"lon":5.38188,"is_reserved":false,"is_disabled":false,"rental_uris":{"android":"levelo://app?vid=054b79e5-3c6c-4562-a1d6-d64bd099ac6b","ios":"levelo://app?vid=054b79e5-3c6c-4562-a1d6-d64bd099ac6b"},"vehicle_type_id":"4","last_reported":1742408017,"current_range_meters":8800,"station_id":"ce4bhih2rcd13ifvqfr0","pricing_plan_id":"cebpf4jnsgd1na2vs0mg"},{"bike_id":"43352b38-be74-4948-b8cf-0b141bee9bb4","system_id":"levelo_inurba_marseille","lat":43.27071,"lon":5.42274,"is_reserved":false,"is_disabled":false,"rental_uris":{"android":"levelo://app?vid=43352b38-be74-4948-b8cf-0b141bee9bb4","ios":"levelo://app?vid=43352b38-be74-4948-b8cf-0b141bee9bb4"},"vehicle_type_id":"4","last_reported":1742408017,"current_range_meters":8800,"station_id":"ce4bhk92rcd13ifvqgb0","pricing_plan_id":"cebpf4jnsgd1na2vs0mg"},{"bike_id":"ca5ec2af-d9c0-4bf6-a9d8-72576ec4b622","system_id":"levelo_inurba_marseille","lat":43.27951,"lon":5.39542,"is_reserved":false,"is_disabled":false,"rental_uris":{"android":"levelo://app?vid=ca5ec2af-d9c0-4bf6-a9d8-72576ec4b622","ios":"levelo://app?vid=ca5ec2af-d9c0-4bf6-a9d8-72576ec4b622"},"vehicle_type_id":"4","last_reported":1742408017,"current_range_meters":9200,"station_id":"ce4bhf92rcd13ifvqf40","pricing_plan_id":"cebpf4jnsgd1na2vs0mg"},{"bike_id":"ebd45e7b-1c45-4b94-a31a-e5fdc9535d41","system_id":"levelo_inurba_marseille","lat":43.23968,"lon":5.36632,"is_reserved":false,"is_disabled":false,"rental_uris":{"android":"levelo://app?vid=ebd45e7b-1c45-4b94-a31a-e5fdc9535d41","ios":"levelo://app?vid=ebd45e7b-1c45-4b94-a31a-e5fdc9535d41"},"vehicle_type_id":"4","last_reported":1742408017,"current_range_meters":9200,"station_id":"ce4bhi12rcd13ifvqfp0","pricing_plan_id":"cebpf4jnsgd1na2vs0mg"},{"bike_id":"3455258b-4135-46b9-9a26-10bf95160e40","system_id":"levelo_inurba_marseille","lat":43.23193,"lon":5.3556,"is_reserved":false,"is_disabled":false,"rental_uris":{"android":"levelo://app?vid=3455258b-4135-46b9-9a26-10bf95160e40","ios":"levelo://app?vid=3455258b-4135-46b9-9a26-10bf95160e40"},"vehicle_type_id":"4","last_reported":1742408017,"current_range_meters":9200,"station_id":"ce4bhu92rcd13ifvqi70","pricing_plan_id":"cebpf4jnsgd1na2vs0mg"},{"bike_id":"dff22bde-84fd-490a-8837-d6c39b979395","system_id":"levelo_inurba_marseille","lat":43.28604,"lon":5.3706,"is_reserved":false,"is_disabled":false,"rental_uris":{"android":"levelo://app?vid=dff22bde-84fd-490a-8837-d6c39b979395","ios":"levelo://app?vid=dff22bde-84fd-490a-8837-d6c39b979395"},"vehicle_type_id":"4","last_reported":1742408017,"current_range_meters":9200,"station_id":"ce4bht12rcd13ifvqi60","pricing_plan_id":"cebpf4jnsgd1na2vs0mg"},{"bike_id":"fe43f2e2-68ef-4fcd-bb23-84fd515f2ed0","system_id":"levelo_inurba_marseille","lat":43.31287,"lon":5.40157,"is_reserved":false,"is_disabled":false,"rental_uris":{"android":"levelo://app?vid=fe43f2e2-68ef-4fcd-bb23-84fd515f2ed0","ios":"levelo://app?vid=fe43f2e2-68ef-4fcd-bb23-84fd515f2ed0"},"vehicle_type_id":"4","last_reported":1742408017,"current_range_meters":9200,"station_id":"ce4bh092rcd13ifvqd30","pricing_plan_id":"cebpf4jnsgd1na2vs0mg"},{"bike_id":"778d5bb8-bc8b-4336-bfe8-a436019957fd","system_id":"levelo_inurba_marseille","lat":43.29009,"lon":5.3561,"is_reserved":false,"is_disabled":false,"rental_uris":{"android":"levelo://app?vid=778d5bb8-bc8b-4336-bfe8-a436019957fd","ios":"levelo://app?vid=778d5bb8-bc8b-4336-bfe8-a436019957fd"},"vehicle_type_id":"4","last_reported":1742408017,"current_range_meters":9200,"station_id":"ce4bhb92rcd13ifvqen0","pricing_plan_id":"cebpf4jnsgd1na2vs0mg"},{"bike_id":"deb6031e-91bc-49d4-8f41-f252f523b2c5","system_id":"levelo_inurba_marseille","lat":43.27949,"lon":5.41044,"is_reserved":false,"is_disabled":false,"rental_uris":{"android":"levelo://app?vid=deb6031e-91bc-49d4-8f41-f252f523b2c5","ios":"levelo://app?vid=deb6031e-91bc-49d4-8f41-f252f523b2c5"},"vehicle_type_id":"4","last_reported":1742408017,"current_range_meters":9600,"station_id":"ce4bhnp2rcd13ifvqh0g","pricing_plan_id":"cebpf4jnsgd1na2vs0mg"},{"bike_id":"71f2cd9d-ef15-44a1-a9cf-33002d842832","system_id":"levelo_inurba_marseille","lat":43.24661,"lon":5.38184,"is_reserved":false,"is_disabled":false,"rental_uris":{"android":"levelo://app?vid=71f2cd9d-ef15-44a1-a9cf-33002d842832","ios":"levelo://app?vid=71f2cd9d-ef15-44a1-a9cf-33002d842832"},"vehicle_type_id":"4","last_reported":1742408017,"current_range_meters":9600,"station_id":"ce4bhih2rcd13ifvqfr0","pricing_plan_id":"cebpf4jnsgd1na2vs0mg"},{"bike_id":"bb34003c-a843-49d4-98f1-0e63e8bbf6ec","system_id":"levelo_inurba_marseille","lat":43.28631,"lon":5.38549,"is_reserved":false,"is_disabled":false,"rental_uris":{"android":"levelo://app?vid=bb34003c-a843-49d4-98f1-0e63e8bbf6ec","ios":"levelo://app?vid=bb34003c-a843-49d4-98f1-0e63e8bbf6ec"},"vehicle_type_id":"4","last_reported":1742408017,"current_range_meters":9600,"station_id":"ce4bh492rcd13ifvqdvg","pricing_plan_id":"cebpf4jnsgd1na2vs0mg"},{"bike_id":"568db082-8949-4a48-9581-eb25b858fb65","system_id":"levelo_inurba_marseille","lat":43.33027,"lon":5.39049,"is_reserved":false,"is_disabled":false,"rental_uris":{"android":"levelo://app?vid=568db082-8949-4a48-9581-eb25b858fb65","ios":"levelo://app?vid=568db082-8949-4a48-9581-eb25b858fb65"},"vehicle_type_id":"4","last_reported":1742408017,"current_range_meters":9600,"station_id":"ce4bhr92rcd13ifvqhrg","pricing_plan_id":"cebpf4jnsgd1na2vs0mg"},{"bike_id":"d45aa902-4bcb-471b-8a0f-8cdc3416ec8c","system_id":"levelo_inurba_marseille","lat":43.27629,"lon":5.36129,"is_reserved":false,"is_disabled":false,"rental_uris":{"android":"levelo://app?vid=d45aa902-4bcb-471b-8a0f-8cdc3416ec8c","ios":"levelo://app?vid=d45aa902-4bcb-471b-8a0f-8cdc3416ec8c"},"vehicle_type_id":"4","last_reported":1742408017,"current_range_meters":9600,"station_id":"ce4bgj92rcd13ifvqbe0","pricing_plan_id":"cebpf4jnsgd1na2vs0mg"},{"bike_id":"d1fc988b-09d8-4dba-890a-9392751657d9","system_id":"levelo_inurba_marseille","lat":43.27217,"lon":5.39173,"is_reserved":false,"is_disabled":false,"rental_uris":{"android":"levelo://app?vid=d1fc988b-09d8-4dba-890a-9392751657d9","ios":"levelo://app?vid=d1fc988b-09d8-4dba-890a-9392751657d9"},"vehicle_type_id":"4","last_reported":1742408017,"current_range_meters":9600,"station_id":"ce4bhhp2rcd13ifvqfm0","pricing_plan_id":"cebpf4jnsgd1na2vs0mg"},{"bike_id":"b3ab2806-f410-4cce-8b04-fb1a4b877921","system_id":"levelo_inurba_marseille","lat":43.24173,"lon":5.3974,"is_reserved":false,"is_disabled":false,"rental_uris":{"android":"levelo://app?vid=b3ab2806-f410-4cce-8b04-fb1a4b877921","ios":"levelo://app?vid=b3ab2806-f410-4cce-8b04-fb1a4b877921"},"vehicle_type_id":"4","last_reported":1742408017,"current_range_meters":9600,"station_id":"ce4bhn12rcd13ifvqgpg","pricing_plan_id":"cebpf4jnsgd1na2vs0mg"},{"bike_id":"d3269e03-9275-4322-bf89-882128b5d35e","system_id":"levelo_inurba_marseille","lat":43.31264,"lon":5.40177,"is_reserved":false,"is_disabled":false,"rental_uris":{"android":"levelo://app?vid=d3269e03-9275-4322-bf89-882128b5d35e","ios":"levelo://app?vid=d3269e03-9275-4322-bf89-882128b5d35e"},"vehicle_type_id":"4","last_reported":1742408017,"current_range_meters":9600,"station_id":"ce4bh092rcd13ifvqd30","pricing_plan_id":"cebpf4jnsgd1na2vs0mg"},{"bike_id":"0cf839ab-e587-4ab8-b08d-84e42ef6ef98","system_id":"levelo_inurba_marseille","lat":43.23967,"lon":5.36632,"is_reserved":false,"is_disabled":false,"rental_uris":{"android":"levelo://app?vid=0cf839ab-e587-4ab8-b08d-84e42ef6ef98","ios":"levelo://app?vid=0cf839ab-e587-4ab8-b08d-84e42ef6ef98"},"vehicle_type_id":"4","last_reported":1742408017,"current_range_meters":9600,"station_id":"ce4bhi12rcd13ifvqfp0","pricing_plan_id":"cebpf4jnsgd1na2vs0mg"},{"bike_id":"3da64548-8b6a-42d6-898f-dc427d7ab309","system_id":"levelo_inurba_marseille","lat":43.27964,"lon":5.4106,"is_reserved":false,"is_disabled":false,"rental_uris":{"android":"levelo://app?vid=3da64548-8b6a-42d6-898f-dc427d7ab309","ios":"levelo://app?vid=3da64548-8b6a-42d6-898f-dc427d7ab309"},"vehicle_type_id":"4","last_reported":1742408017,"current_range_meters":9600,"station_id":"ce4bhnp2rcd13ifvqh0g","pricing_plan_id":"cebpf4jnsgd1na2vs0mg"},{"bike_id":"c0b3f368-26b0-48fb-9e66-b3f8a6fc8e61","system_id":"levelo_inurba_marseille","lat":43.31762,"lon":5.37453,"is_reserved":false,"is_disabled":false,"rental_uris":{"android":"levelo://app?vid=c0b3f368-26b0-48fb-9e66-b3f8a6fc8e61","ios":"levelo://app?vid=c0b3f368-26b0-48fb-9e66-b3f8a6fc8e61"},"vehicle_type_id":"4","last_reported":1742408017,"current_range_meters":9600,"station_id":"","pricing_plan_id":"cebpf4jnsgd1na2vs0mg"},{"bike_id":"1fea0b3c-94ab-41af-b18e-d9bbaa7dda49","system_id":"levelo_inurba_marseille","lat":43.31718,"lon":5.43722,"is_reserved":false,"is_disabled":false,"rental_uris":{"android":"levelo://app?vid=1fea0b3c-94ab-41af-b18e-d9bbaa7dda49","ios":"levelo://app?vid=1fea0b3c-94ab-41af-b18e-d9bbaa7dda49"},"vehicle_type_id":"4","last_reported":1742408017,"current_range_meters":9600,"station_id":"ce4bhp92rcd13ifvqhcg","pricing_plan_id":"cebpf4jnsgd1na2vs0mg"},{"bike_id":"963a17fa-4222-4f93-b414-09c4cce8d25a","system_id":"levelo_inurba_marseille","lat":43.28407,"lon":5.38494,"is_reserved":false,"is_disabled":false,"rental_uris":{"android":"levelo://app?vid=963a17fa-4222-4f93-b414-09c4cce8d25a","ios":"levelo://app?vid=963a17fa-4222-4f93-b414-09c4cce8d25a"},"vehicle_type_id":"4","last_reported":1742408017,"current_range_meters":9600,"station_id":"","pricing_plan_id":"cebpf4jnsgd1na2vs0mg"},{"bike_id":"f6a78bb5-2d34-41c9-b3ce-d9d80d7d1885","system_id":"levelo_inurba_marseille","lat":43.27499,"lon":5.42453,"is_reserved":false,"is_disabled":false,"rental_uris":{"android":"levelo://app?vid=f6a78bb5-2d34-41c9-b3ce-d9d80d7d1885","ios":"levelo://app?vid=f6a78bb5-2d34-41c9-b3ce-d9d80d7d1885"},"vehicle_type_id":"4","last_reported":1742408017,"current_range_meters":9600,"station_id":"ce4bhn92rcd13ifvqgrg","pricing_plan_id":"cebpf4jnsgd1na2vs0mg"},{"bike_id":"bfd67b10-fd7c-4b25-bc6e-0830b23c1f4b","system_id":"levelo_inurba_marseille","lat":43.25826,"lon":5.3944,"is_reserved":false,"is_disabled":false,"rental_uris":{"android":"levelo://app?vid=bfd67b10-fd7c-4b25-bc6e-0830b23c1f4b","ios":"levelo://app?vid=bfd67b10-fd7c-4b25-bc6e-0830b23c1f4b"},"vehicle_type_id":"4","last_reported":1742408017,"current_range_meters":10000,"station_id":"ce4bhip2rcd13ifvqft0","pricing_plan_id":"cebpf4jnsgd1na2vs0mg"},{"bike_id":"8a254b8f-7a0a-4bbb-9a80-3b88eb92a4d8","system_id":"levelo_inurba_marseille","lat":43.27807,"lon":5.40723,"is_reserved":false,"is_disabled":false,"rental_uris":{"android":"levelo://app?vid=8a254b8f-7a0a-4bbb-9a80-3b88eb92a4d8","ios":"levelo://app?vid=8a254b8f-7a0a-4bbb-9a80-3b88eb92a4d8"},"vehicle_type_id":"4","last_reported":1742408017,"current_range_meters":10000,"station_id":"ce4bhnh2rcd13ifvqgtg","pricing_plan_id":"cebpf4jnsgd1na2vs0mg"},{"bike_id":"78b95c41-f57f-46b7-8807-c311e5a77278","system_id":"levelo_inurba_marseille","lat":43.23969,"lon":5.36628,"is_reserved":false,"is_disabled":false,"rental_uris":{"android":"levelo://app?vid=78b95c41-f57f-46b7-8807-c311e5a77278","ios":"levelo://app?vid=78b95c41-f57f-46b7-8807-c311e5a77278"},"vehicle_type_id":"4","last_reported":1742408017,"current_range_meters":10000,"station_id":"ce4bhi12rcd13ifvqfp0","pricing_plan_id":"cebpf4jnsgd1na2vs0mg"},{"bike_id":"88ccd002-5cc7-4436-b03a-a5333eda4374","system_id":"levelo_inurba_marseille","lat":43.26699,"lon":5.38269,"is_reserved":false,"is_disabled":false,"rental_uris":{"android":"levelo://app?vid=88ccd002-5cc7-4436-b03a-a5333eda4374","ios":"levelo://app?vid=88ccd002-5cc7-4436-b03a-a5333eda4374"},"vehicle_type_id":"4","last_reported":1742408017,"current_range_meters":10000,"station_id":"ce4bhg92rcd13ifvqf90","pricing_plan_id":"cebpf4jnsgd1na2vs0mg"},{"bike_id":"f830c3ea-789a-4fab-8908-95b2ddb579a5","system_id":"levelo_inurba_marseille","lat":43.29267,"lon":5.38437,"is_reserved":false,"is_disabled":false,"rental_uris":{"android":"levelo://app?vid=f830c3ea-789a-4fab-8908-95b2ddb579a5","ios":"levelo://app?vid=f830c3ea-789a-4fab-8908-95b2ddb579a5"},"vehicle_type_id":"4","last_reported":1742408017,"current_range_meters":10000,"station_id":"ce4bh692rcd13ifvqea0","pricing_plan_id":"cebpf4jnsgd1na2vs0mg"},{"bike_id":"96c79031-88be-472f-ba9e-6813fb6bce9e","system_id":"levelo_inurba_marseille","lat":43.30123,"lon":5.39871,"is_reserved":false,"is_disabled":false,"rental_uris":{"android":"levelo://app?vid=96c79031-88be-472f-ba9e-6813fb6bce9e","ios":"levelo://app?vid=96c79031-88be-472f-ba9e-6813fb6bce9e"},"vehicle_type_id":"4","last_reported":1742408017,"current_range_meters":10000,"station_id":"ce4bh0h2rcd13ifvqd40","pricing_plan_id":"cebpf4jnsgd1na2vs0mg"},{"bike_id":"dde8e756-589c-4e38-b99d-9a569942cb6a","system_id":"levelo_inurba_marseille","lat":43.28929,"lon":5.38401,"is_reserved":false,"is_disabled":false,"rental_uris":{"android":"levelo://app?vid=dde8e756-589c-4e38-b99d-9a569942cb6a","ios":"levelo://app?vid=dde8e756-589c-4e38-b99d-9a569942cb6a"},"vehicle_type_id":"4","last_reported":1742408017,"current_range_meters":10000,"station_id":"ce4bh612rcd13ifvqe6g","pricing_plan_id":"cebpf4jnsgd1na2vs0mg"},{"bike_id":"618d13ad-82a6-4fc2-ab74-bbd4fbea0f10","system_id":"levelo_inurba_marseille","lat":43.29855,"lon":5.36292,"is_reserved":false,"is_disabled":false,"rental_uris":{"android":"levelo://app?vid=618d13ad-82a6-4fc2-ab74-bbd4fbea0f10","ios":"levelo://app?vid=618d13ad-82a6-4fc2-ab74-bbd4fbea0f10"},"vehicle_type_id":"4","last_reported":1742408017,"current_range_meters":10000,"station_id":"ce4bgpp2rcd13ifvqc3g","pricing_plan_id":"cebpf4jnsgd1na2vs0mg"},{"bike_id":"46b028d9-6b69-4d97-bbc1-bb3fbb108364","system_id":"levelo_inurba_marseille","lat":43.30795,"lon":5.38162,"is_reserved":false,"is_disabled":false,"rental_uris":{"android":"levelo://app?vid=46b028d9-6b69-4d97-bbc1-bb3fbb108364","ios":"levelo://app?vid=46b028d9-6b69-4d97-bbc1-bb3fbb108364"},"vehicle_type_id":"4","last_reported":1742408017,"current_range_meters":10000,"station_id":"ce4bgt12rcd13ifvqce0","pricing_plan_id":"cebpf4jnsgd1na2vs0mg"},{"bike_id":"e1fa0614-3607-4872-874d-ae6dc41acfb8","system_id":"levelo_inurba_marseille","lat":43.24081,"lon":5.37755,"is_reserved":false,"is_disabled":false,"rental_uris":{"android":"levelo://app?vid=e1fa0614-3607-4872-874d-ae6dc41acfb8","ios":"levelo://app?vid=e1fa0614-3607-4872-874d-ae6dc41acfb8"},"vehicle_type_id":"4","last_reported":1742408017,"current_range_meters":10000,"station_id":"ce4bhnp2rcd13ifvqgvg","pricing_plan_id":"cebpf4jnsgd1na2vs0mg"},{"bike_id":"b2b64755-5470-4927-824e-6794e66b858f","system_id":"levelo_inurba_marseille","lat":43.27923,"lon":5.39586,"is_reserved":false,"is_disabled":false,"rental_uris":{"android":"levelo://app?vid=b2b64755-5470-4927-824e-6794e66b858f","ios":"levelo://app?vid=b2b64755-5470-4927-824e-6794e66b858f"},"vehicle_type_id":"4","last_reported":1742408017,"current_range_meters":10000,"station_id":"ce4bhf92rcd13ifvqf40","pricing_plan_id":"cebpf4jnsgd1na2vs0mg"},{"bike_id":"32d1f1d5-6810-4da6-8afc-99172c3bda3d","system_id":"levelo_inurba_marseille","lat":43.28463,"lon":5.35884,"is_reserved":false,"is_disabled":false,"rental_uris":{"android":"levelo://app?vid=32d1f1d5-6810-4da6-8afc-99172c3bda3d","ios":"levelo://app?vid=32d1f1d5-6810-4da6-8afc-99172c3bda3d"},"vehicle_type_id":"4","last_reported":1742408017,"current_range_meters":10800,"station_id":"ce4bhah2rcd13ifvqei0","pricing_plan_id":"cebpf4jnsgd1na2vs0mg"},{"bike_id":"a8b8dae1-87ef-4f8a-a2c8-fe9fd9bf0f77","system_id":"levelo_inurba_marseille","lat":43.23524,"lon":5.37764,"is_reserved":false,"is_disabled":false,"rental_uris":{"android":"levelo://app?vid=a8b8dae1-87ef-4f8a-a2c8-fe9fd9bf0f77","ios":"levelo://app?vid=a8b8dae1-87ef-4f8a-a2c8-fe9fd9bf0f77"},"vehicle_type_id":"4","last_reported":1742408017,"current_range_meters":10800,"station_id":"","pricing_plan_id":"cebpf4jnsgd1na2vs0mg"},{"bike_id":"77300180-5e21-4ab7-a53a-6c2286259c79","system_id":"levelo_inurba_marseille","lat":43.31702,"lon":5.3778,"is_reserved":false,"is_disabled":false,"rental_uris":{"android":"levelo://app?vid=77300180-5e21-4ab7-a53a-6c2286259c79","ios":"levelo://app?vid=77300180-5e21-4ab7-a53a-6c2286259c79"},"vehicle_type_id":"4","last_reported":1742408017,"current_range_meters":10800,"station_id":"ce4bgth2rcd13ifvqch0","pricing_plan_id":"cebpf4jnsgd1na2vs0mg"},{"bike_id":"be0da14a-f6a7-4d62-8a63-e3546ab234fd","system_id":"levelo_inurba_marseille","lat":43.30964,"lon":5.39037,"is_reserved":false,"is_disabled":false,"rental_uris":{"android":"levelo://app?vid=be0da14a-f6a7-4d62-8a63-e3546ab234fd","ios":"levelo://app?vid=be0da14a-f6a7-4d62-8a63-e3546ab234fd"},"vehicle_type_id":"4","last_reported":1742408017,"current_range_meters":10800,"station_id":"ce4bgup2rcd13ifvqco0","pricing_plan_id":"cebpf4jnsgd1na2vs0mg"},{"bike_id":"313b0ddc-4b35-41ef-8f71-16492245204f","system_id":"levelo_inurba_marseille","lat":43.27813,"lon":5.40714,"is_reserved":false,"is_disabled":false,"rental_uris":{"android":"levelo://app?vid=313b0ddc-4b35-41ef-8f71-16492245204f","ios":"levelo://app?vid=313b0ddc-4b35-41ef-8f71-16492245204f"},"vehicle_type_id":"4","last_reported":1742408017,"current_range_meters":10800,"station_id":"ce4bhnh2rcd13ifvqgtg","pricing_plan_id":"cebpf4jnsgd1na2vs0mg"},{"bike_id":"d88a0ac2-d1ba-49a6-863f-3f4f308ddb46","system_id":"levelo_inurba_marseille","lat":43.28709,"lon":5.37392,"is_reserved":false,"is_disabled":false,"rental_uris":{"android":"levelo://app?vid=d88a0ac2-d1ba-49a6-863f-3f4f308ddb46","ios":"levelo://app?vid=d88a0ac2-d1ba-49a6-863f-3f4f308ddb46"},"vehicle_type_id":"4","last_reported":1742408017,"current_range_meters":10800,"station_id":"ce4bh3p2rcd13ifvqdq0","pricing_plan_id":"cebpf4jnsgd1na2vs0mg"},{"bike_id":"573edf84-3408-4820-bcfd-34a468bdee5e","system_id":"levelo_inurba_marseille","lat":43.29281,"lon":5.36844,"is_reserved":false,"is_disabled":false,"rental_uris":{"android":"levelo://app?vid=573edf84-3408-4820-bcfd-34a468bdee5e","ios":"levelo://app?vid=573edf84-3408-4820-bcfd-34a468bdee5e"},"vehicle_type_id":"4","last_reported":1742408017,"current_range_meters":10800,"station_id":"ce4bhbp2rcd13ifvqesg","pricing_plan_id":"cebpf4jnsgd1na2vs0mg"},{"bike_id":"ee0f687c-08bb-4e36-98a2-e3de6b954481","system_id":"levelo_inurba_marseille","lat":43.24191,"lon":5.39721,"is_reserved":false,"is_disabled":false,"rental_uris":{"android":"levelo://app?vid=ee0f687c-08bb-4e36-98a2-e3de6b954481","ios":"levelo://app?vid=ee0f687c-08bb-4e36-98a2-e3de6b954481"},"vehicle_type_id":"4","last_reported":1742408017,"current_range_meters":10800,"station_id":"ce4bhn12rcd13ifvqgpg","pricing_plan_id":"cebpf4jnsgd1na2vs0mg"},{"bike_id":"5e0bf5e8-4b28-46e2-bee9-5ebcbe5bdbad","system_id":"levelo_inurba_marseille","lat":43.31884,"lon":5.40737,"is_reserved":false,"is_disabled":false,"rental_uris":{"android":"levelo://app?vid=5e0bf5e8-4b28-46e2-bee9-5ebcbe5bdbad","ios":"levelo://app?vid=5e0bf5e8-4b28-46e2-bee9-5ebcbe5bdbad"},"vehicle_type_id":"4","last_reported":1742408017,"current_range_meters":10800,"station_id":"ce4bhq12rcd13ifvqhig","pricing_plan_id":"cebpf4jnsgd1na2vs0mg"},{"bike_id":"02f43b01-3b74-45fa-a40e-2df823c84cda","system_id":"levelo_inurba_marseille","lat":43.24177,"lon":5.39706,"is_reserved":false,"is_disabled":false,"rental_uris":{"android":"levelo://app?vid=02f43b01-3b74-45fa-a40e-2df823c84cda","ios":"levelo://app?vid=02f43b01-3b74-45fa-a40e-2df823c84cda"},"vehicle_type_id":"4","last_reported":1742408017,"current_range_meters":10800,"station_id":"ce4bhn12rcd13ifvqgpg","pricing_plan_id":"cebpf4jnsgd1na2vs0mg"},{"bike_id":"149a7237-4b0c-4c09-b5e1-e29dc8e198e1","system_id":"levelo_inurba_marseille","lat":43.31273,"lon":5.40162,"is_reserved":false,"is_disabled":false,"rental_uris":{"android":"levelo://app?vid=149a7237-4b0c-4c09-b5e1-e29dc8e198e1","ios":"levelo://app?vid=149a7237-4b0c-4c09-b5e1-e29dc8e198e1"},"vehicle_type_id":"4","last_reported":1742408017,"current_range_meters":10800,"station_id":"ce4bh092rcd13ifvqd30","pricing_plan_id":"cebpf4jnsgd1na2vs0mg"},{"bike_id":"d1abc471-e00c-405c-ac49-59b49166866e","system_id":"levelo_inurba_marseille","lat":43.29045,"lon":5.38178,"is_reserved":false,"is_disabled":false,"rental_uris":{"android":"levelo://app?vid=d1abc471-e00c-405c-ac49-59b49166866e","ios":"levelo://app?vid=d1abc471-e00c-405c-ac49-59b49166866e"},"vehicle_type_id":"4","last_reported":1742408017,"current_range_meters":10800,"station_id":"ce4bh4p2rcd13ifvqe1g","pricing_plan_id":"cebpf4jnsgd1na2vs0mg"},{"bike_id":"b81f5100-48cd-484a-a38f-77673abf4225","system_id":"levelo_inurba_marseille","lat":43.28621,"lon":5.35104,"is_reserved":false,"is_disabled":false,"rental_uris":{"android":"levelo://app?vid=b81f5100-48cd-484a-a38f-77673abf4225","ios":"levelo://app?vid=b81f5100-48cd-484a-a38f-77673abf4225"},"vehicle_type_id":"4","last_reported":1742408017,"current_range_meters":10800,"station_id":"ce4bhch2rcd13ifvqeug","pricing_plan_id":"cebpf4jnsgd1na2vs0mg"},{"bike_id":"9d26c008-8ec1-4269-9cd2-f45774f03ccb","system_id":"levelo_inurba_marseille","lat":43.27939,"lon":5.37934,"is_reserved":false,"is_disabled":false,"rental_uris":{"android":"levelo://app?vid=9d26c008-8ec1-4269-9cd2-f45774f03ccb","ios":"levelo://app?vid=9d26c008-8ec1-4269-9cd2-f45774f03ccb"},"vehicle_type_id":"4","last_reported":1742408017,"current_range_meters":10800,"station_id":"","pricing_plan_id":"cebpf4jnsgd1na2vs0mg"},{"bike_id":"ac8acac2-b3c2-415f-a6ff-85488d005bb2","system_id":"levelo_inurba_marseille","lat":43.24813,"lon":5.37477,"is_reserved":false,"is_disabled":false,"rental_uris":{"android":"levelo://app?vid=ac8acac2-b3c2-415f-a6ff-85488d005bb2","ios":"levelo://app?vid=ac8acac2-b3c2-415f-a6ff-85488d005bb2"},"vehicle_type_id":"4","last_reported":1742408017,"current_range_meters":10800,"station_id":"ce4bhgh2rcd13ifvqfb0","pricing_plan_id":"cebpf4jnsgd1na2vs0mg"},{"bike_id":"6b467574-69f1-40a2-a88f-6859ed54971d","system_id":"levelo_inurba_marseille","lat":43.33413,"lon":5.40002,"is_reserved":false,"is_disabled":false,"rental_uris":{"android":"levelo://app?vid=6b467574-69f1-40a2-a88f-6859ed54971d","ios":"levelo://app?vid=6b467574-69f1-40a2-a88f-6859ed54971d"},"vehicle_type_id":"4","last_reported":1742408017,"current_range_meters":10800,"station_id":"","pricing_plan_id":"cebpf4jnsgd1na2vs0mg"},{"bike_id":"6eb98e18-92f8-411c-92c0-82d5569fb85c","system_id":"levelo_inurba_marseille","lat":43.32368,"lon":5.36761,"is_reserved":false,"is_disabled":false,"rental_uris":{"android":"levelo://app?vid=6eb98e18-92f8-411c-92c0-82d5569fb85c","ios":"levelo://app?vid=6eb98e18-92f8-411c-92c0-82d5569fb85c"},"vehicle_type_id":"4","last_reported":1742408017,"current_range_meters":11200,"station_id":"ce4bhsh2rcd13ifvqi2g","pricing_plan_id":"cebpf4jnsgd1na2vs0mg"},{"bike_id":"1b1ec436-6635-4409-82f6-91111ab86b60","system_id":"levelo_inurba_marseille","lat":43.26236,"lon":5.40465,"is_reserved":false,"is_disabled":false,"rental_uris":{"android":"levelo://app?vid=1b1ec436-6635-4409-82f6-91111ab86b60","ios":"levelo://app?vid=1b1ec436-6635-4409-82f6-91111ab86b60"},"vehicle_type_id":"4","last_reported":1742408017,"current_range_meters":11200,"station_id":"ce4bhmh2rcd13ifvqgmg","pricing_plan_id":"cebpf4jnsgd1na2vs0mg"},{"bike_id":"d89310ff-98de-4207-a38a-a0211b91e03a","system_id":"levelo_inurba_marseille","lat":43.3031,"lon":5.3921,"is_reserved":false,"is_disabled":false,"rental_uris":{"android":"levelo://app?vid=d89310ff-98de-4207-a38a-a0211b91e03a","ios":"levelo://app?vid=d89310ff-98de-4207-a38a-a0211b91e03a"},"vehicle_type_id":"4","last_reported":1742408017,"current_range_meters":11200,"station_id":"ce4bgkh2rcd13ifvqbk0","pricing_plan_id":"cebpf4jnsgd1na2vs0mg"},{"bike_id":"3e86ede8-611d-4655-9d29-7f612d6a90da","system_id":"levelo_inurba_marseille","lat":43.27823,"lon":5.40719,"is_reserved":false,"is_disabled":false,"rental_uris":{"android":"levelo://app?vid=3e86ede8-611d-4655-9d29-7f612d6a90da","ios":"levelo://app?vid=3e86ede8-611d-4655-9d29-7f612d6a90da"},"vehicle_type_id":"4","last_reported":1742408017,"current_range_meters":11200,"station_id":"ce4bhnh2rcd13ifvqgtg","pricing_plan_id":"cebpf4jnsgd1na2vs0mg"},{"bike_id":"4f7093c3-aaa7-43fb-9c4a-113b8ccff61f","system_id":"levelo_inurba_marseille","lat":43.30138,"lon":5.39865,"is_reserved":false,"is_disabled":false,"rental_uris":{"android":"levelo://app?vid=4f7093c3-aaa7-43fb-9c4a-113b8ccff61f","ios":"levelo://app?vid=4f7093c3-aaa7-43fb-9c4a-113b8ccff61f"},"vehicle_type_id":"4","last_reported":1742408017,"current_range_meters":11200,"station_id":"ce4bh0h2rcd13ifvqd40","pricing_plan_id":"cebpf4jnsgd1na2vs0mg"},{"bike_id":"189ee55e-baa1-4ab1-8760-6cbbbeff95f9","system_id":"levelo_inurba_marseille","lat":43.29944,"lon":5.36541,"is_reserved":false,"is_disabled":false,"rental_uris":{"android":"levelo://app?vid=189ee55e-baa1-4ab1-8760-6cbbbeff95f9","ios":"levelo://app?vid=189ee55e-baa1-4ab1-8760-6cbbbeff95f9"},"vehicle_type_id":"4","last_reported":1742408017,"current_range_meters":11200,"station_id":"ce4bgm92rcd13ifvqbr0","pricing_plan_id":"cebpf4jnsgd1na2vs0mg"},{"bike_id":"42832a9b-b115-4d2a-ba92-b15cdb32239f","system_id":"levelo_inurba_marseille","lat":43.25583,"lon":5.38236,"is_reserved":false,"is_disabled":false,"rental_uris":{"android":"levelo://app?vid=42832a9b-b115-4d2a-ba92-b15cdb32239f","ios":"levelo://app?vid=42832a9b-b115-4d2a-ba92-b15cdb32239f"},"vehicle_type_id":"4","last_reported":1742408017,"current_range_meters":11200,"station_id":"ce4bhih2rcd13ifvqfs0","pricing_plan_id":"cebpf4jnsgd1na2vs0mg"},{"bike_id":"3bbfa2b1-9e55-4858-baed-81eb0c554ec6","system_id":"levelo_inurba_marseille","lat":43.26572,"lon":5.37273,"is_reserved":false,"is_disabled":false,"rental_uris":{"android":"levelo://app?vid=3bbfa2b1-9e55-4858-baed-81eb0c554ec6","ios":"levelo://app?vid=3bbfa2b1-9e55-4858-baed-81eb0c554ec6"},"vehicle_type_id":"4","last_reported":1742408017,"current_range_meters":11200,"station_id":"ce4bhg12rcd13ifvqf70","pricing_plan_id":"cebpf4jnsgd1na2vs0mg"},{"bike_id":"4fb9869c-1d60-4850-94c5-2a26d5990ee5","system_id":"levelo_inurba_marseille","lat":43.28414,"lon":5.37513,"is_reserved":false,"is_disabled":false,"rental_uris":{"android":"levelo://app?vid=4fb9869c-1d60-4850-94c5-2a26d5990ee5","ios":"levelo://app?vid=4fb9869c-1d60-4850-94c5-2a26d5990ee5"},"vehicle_type_id":"4","last_reported":1742408017,"current_range_meters":11200,"station_id":"ce4bh412rcd13ifvqds0","pricing_plan_id":"cebpf4jnsgd1na2vs0mg"},{"bike_id":"86679df2-4335-4174-b628-0145f6afa144","system_id":"levelo_inurba_marseille","lat":43.27573,"lon":5.384197,"is_reserved":false,"is_disabled":false,"rental_uris":{"android":"levelo://app?vid=86679df2-4335-4174-b628-0145f6afa144","ios":"levelo://app?vid=86679df2-4335-4174-b628-0145f6afa144"},"vehicle_type_id":"4","last_reported":1742408017,"current_range_meters":10800,"station_id":"ce4bh112rcd13ifvqda0","pricing_plan_id":"cebpf4jnsgd1na2vs0mg"},{"bike_id":"68adeb1f-344b-436b-b420-8bbc0e3c35bb","system_id":"levelo_inurba_marseille","lat":43.24651,"lon":5.38916,"is_reserved":false,"is_disabled":false,"rental_uris":{"android":"levelo://app?vid=68adeb1f-344b-436b-b420-8bbc0e3c35bb","ios":"levelo://app?vid=68adeb1f-344b-436b-b420-8bbc0e3c35bb"},"vehicle_type_id":"4","last_reported":1742408017,"current_range_meters":11200,"station_id":"ce4bhg12rcd13ifvqf60","pricing_plan_id":"cebpf4jnsgd1na2vs0mg"},{"bike_id":"1653426a-a258-43b5-a3c9-2765942884c6","system_id":"levelo_inurba_marseille","lat":43.28703,"lon":5.3999,"is_reserved":false,"is_disabled":false,"rental_uris":{"android":"levelo://app?vid=1653426a-a258-43b5-a3c9-2765942884c6","ios":"levelo://app?vid=1653426a-a258-43b5-a3c9-2765942884c6"},"vehicle_type_id":"4","last_reported":1742408017,"current_range_meters":11200,"station_id":"ce4bho92rcd13ifvqh3g","pricing_plan_id":"cebpf4jnsgd1na2vs0mg"},{"bike_id":"c139966f-679a-4129-9815-b81a5cdff23f","system_id":"levelo_inurba_marseille","lat":43.30596,"lon":5.39347,"is_reserved":false,"is_disabled":false,"rental_uris":{"android":"levelo://app?vid=c139966f-679a-4129-9815-b81a5cdff23f","ios":"levelo://app?vid=c139966f-679a-4129-9815-b81a5cdff23f"},"vehicle_type_id":"4","last_reported":1742408017,"current_range_meters":11200,"station_id":"ce4bh0p2rcd13ifvqd80","pricing_plan_id":"cebpf4jnsgd1na2vs0mg"},{"bike_id":"38700e88-0eed-4189-a7cd-49878612c994","system_id":"levelo_inurba_marseille","lat":43.3159,"lon":5.38915,"is_reserved":false,"is_disabled":false,"rental_uris":{"android":"levelo://app?vid=38700e88-0eed-4189-a7cd-49878612c994","ios":"levelo://app?vid=38700e88-0eed-4189-a7cd-49878612c994"},"vehicle_type_id":"4","last_reported":1742408017,"current_range_meters":11600,"station_id":"","pricing_plan_id":"cebpf4jnsgd1na2vs0mg"},{"bike_id":"50052a34-cd4d-455e-89a2-d030d8c6c1ad","system_id":"levelo_inurba_marseille","lat":43.24132,"lon":5.38921,"is_reserved":false,"is_disabled":false,"rental_uris":{"android":"levelo://app?vid=50052a34-cd4d-455e-89a2-d030d8c6c1ad","ios":"levelo://app?vid=50052a34-cd4d-455e-89a2-d030d8c6c1ad"},"vehicle_type_id":"4","last_reported":1742408017,"current_range_meters":12000,"station_id":"","pricing_plan_id":"cebpf4jnsgd1na2vs0mg"},{"bike_id":"7487c017-9012-4d7c-970a-b99461f7c155","system_id":"levelo_inurba_marseille","lat":43.32347,"lon":5.40623,"is_reserved":false,"is_disabled":false,"rental_uris":{"android":"levelo://app?vid=7487c017-9012-4d7c-970a-b99461f7c155","ios":"levelo://app?vid=7487c017-9012-4d7c-970a-b99461f7c155"},"vehicle_type_id":"4","last_reported":1742408017,"current_range_meters":12000,"station_id":"ce4bhq92rcd13ifvqhjg","pricing_plan_id":"cebpf4jnsgd1na2vs0mg"},{"bike_id":"e6c8473b-6f16-40c7-9d09-903e0bcd4e87","system_id":"levelo_inurba_marseille","lat":43.32562,"lon":5.41955,"is_reserved":false,"is_disabled":false,"rental_uris":{"android":"levelo://app?vid=e6c8473b-6f16-40c7-9d09-903e0bcd4e87","ios":"levelo://app?vid=e6c8473b-6f16-40c7-9d09-903e0bcd4e87"},"vehicle_type_id":"4","last_reported":1742408017,"current_range_meters":12000,"station_id":"","pricing_plan_id":"cebpf4jnsgd1na2vs0mg"},{"bike_id":"ef52c551-eb67-486d-85cc-ce2612d4cc9c","system_id":"levelo_inurba_marseille","lat":43.30331,"lon":5.40426,"is_reserved":false,"is_disabled":false,"rental_uris":{"android":"levelo://app?vid=ef52c551-eb67-486d-85cc-ce2612d4cc9c","ios":"levelo://app?vid=ef52c551-eb67-486d-85cc-ce2612d4cc9c"},"vehicle_type_id":"4","last_reported":1742408017,"current_range_meters":12000,"station_id":"ce4bh012rcd13ifvqd10","pricing_plan_id":"cebpf4jnsgd1na2vs0mg"},{"bike_id":"26e60fd0-011f-4298-888b-203dbe08da24","system_id":"levelo_inurba_marseille","lat":43.2901,"lon":5.35611,"is_reserved":false,"is_disabled":false,"rental_uris":{"android":"levelo://app?vid=26e60fd0-011f-4298-888b-203dbe08da24","ios":"levelo://app?vid=26e60fd0-011f-4298-888b-203dbe08da24"},"vehicle_type_id":"4","last_reported":1742408017,"current_range_meters":12000,"station_id":"ce4bhb92rcd13ifvqen0","pricing_plan_id":"cebpf4jnsgd1na2vs0mg"},{"bike_id":"671210b1-9e8f-4893-953f-985ab8b97e34","system_id":"levelo_inurba_marseille","lat":43.32107,"lon":5.36778,"is_reserved":false,"is_disabled":false,"rental_uris":{"android":"levelo://app?vid=671210b1-9e8f-4893-953f-985ab8b97e34","ios":"levelo://app?vid=671210b1-9e8f-4893-953f-985ab8b97e34"},"vehicle_type_id":"4","last_reported":1742408017,"current_range_meters":12000,"station_id":"ce4bhrh2rcd13ifvqhug","pricing_plan_id":"cebpf4jnsgd1na2vs0mg"},{"bike_id":"b647bcff-e291-496d-ad88-ce955fbadfa5","system_id":"levelo_inurba_marseille","lat":43.3094,"lon":5.40144,"is_reserved":false,"is_disabled":false,"rental_uris":{"android":"levelo://app?vid=b647bcff-e291-496d-ad88-ce955fbadfa5","ios":"levelo://app?vid=b647bcff-e291-496d-ad88-ce955fbadfa5"},"vehicle_type_id":"4","last_reported":1742408017,"current_range_meters":12000,"station_id":"ce4bgvp2rcd13ifvqct0","pricing_plan_id":"cebpf4jnsgd1na2vs0mg"},{"bike_id":"60f95cb8-82ec-423b-9692-9f81b06c25fb","system_id":"levelo_inurba_marseille","lat":43.27424,"lon":5.39418,"is_reserved":false,"is_disabled":false,"rental_uris":{"android":"levelo://app?vid=60f95cb8-82ec-423b-9692-9f81b06c25fb","ios":"levelo://app?vid=60f95cb8-82ec-423b-9692-9f81b06c25fb"},"vehicle_type_id":"4","last_reported":1742408017,"current_range_meters":11600,"station_id":"ce4bhdp2rcd13ifvqf20","pricing_plan_id":"cebpf4jnsgd1na2vs0mg"},{"bike_id":"94ffa62a-c0a8-48b0-83e4-7237e17e0e07","system_id":"levelo_inurba_marseille","lat":43.27954,"lon":5.41045,"is_reserved":false,"is_disabled":false,"rental_uris":{"android":"levelo://app?vid=94ffa62a-c0a8-48b0-83e4-7237e17e0e07","ios":"levelo://app?vid=94ffa62a-c0a8-48b0-83e4-7237e17e0e07"},"vehicle_type_id":"4","last_reported":1742408017,"current_range_meters":12000,"station_id":"ce4bhnp2rcd13ifvqh0g","pricing_plan_id":"cebpf4jnsgd1na2vs0mg"},{"bike_id":"7c23dcb0-31a4-457d-8cd5-05a913c017d4","system_id":"levelo_inurba_marseille","lat":43.33044,"lon":5.39029,"is_reserved":false,"is_disabled":false,"rental_uris":{"android":"levelo://app?vid=7c23dcb0-31a4-457d-8cd5-05a913c017d4","ios":"levelo://app?vid=7c23dcb0-31a4-457d-8cd5-05a913c017d4"},"vehicle_type_id":"4","last_reported":1742408017,"current_range_meters":12000,"station_id":"ce4bhr92rcd13ifvqhrg","pricing_plan_id":"cebpf4jnsgd1na2vs0mg"},{"bike_id":"2dce5f81-5cef-4362-b3c4-ba3a44eac485","system_id":"levelo_inurba_marseille","lat":43.299,"lon":5.38913,"is_reserved":false,"is_disabled":false,"rental_uris":{"android":"levelo://app?vid=2dce5f81-5cef-4362-b3c4-ba3a44eac485","ios":"levelo://app?vid=2dce5f81-5cef-4362-b3c4-ba3a44eac485"},"vehicle_type_id":"4","last_reported":1742408017,"current_range_meters":12000,"station_id":"ce4bh392rcd13ifvqdl0","pricing_plan_id":"cebpf4jnsgd1na2vs0mg"},{"bike_id":"176d2e0b-da43-4b98-b92e-b45d4ab12b2f","system_id":"levelo_inurba_marseille","lat":43.30219,"lon":5.38434,"is_reserved":false,"is_disabled":false,"rental_uris":{"android":"levelo://app?vid=176d2e0b-da43-4b98-b92e-b45d4ab12b2f","ios":"levelo://app?vid=176d2e0b-da43-4b98-b92e-b45d4ab12b2f"},"vehicle_type_id":"4","last_reported":1742408017,"current_range_meters":12000,"station_id":"","pricing_plan_id":"cebpf4jnsgd1na2vs0mg"},{"bike_id":"96df89bc-1b6a-4bcb-99cd-6ce8f0a45c84","system_id":"levelo_inurba_marseille","lat":43.28465,"lon":5.35884,"is_reserved":false,"is_disabled":false,"rental_uris":{"android":"levelo://app?vid=96df89bc-1b6a-4bcb-99cd-6ce8f0a45c84","ios":"levelo://app?vid=96df89bc-1b6a-4bcb-99cd-6ce8f0a45c84"},"vehicle_type_id":"4","last_reported":1742408017,"current_range_meters":12400,"station_id":"ce4bhah2rcd13ifvqei0","pricing_plan_id":"cebpf4jnsgd1na2vs0mg"},{"bike_id":"9a407e55-d314-42fc-8c32-c5b5dcba6239","system_id":"levelo_inurba_marseille","lat":43.26223,"lon":5.4048,"is_reserved":false,"is_disabled":false,"rental_uris":{"android":"levelo://app?vid=9a407e55-d314-42fc-8c32-c5b5dcba6239","ios":"levelo://app?vid=9a407e55-d314-42fc-8c32-c5b5dcba6239"},"vehicle_type_id":"4","last_reported":1742408017,"current_range_meters":12400,"station_id":"ce4bhmh2rcd13ifvqgmg","pricing_plan_id":"cebpf4jnsgd1na2vs0mg"},{"bike_id":"6b9b2c5e-8a13-4b7e-8663-1b23780134bb","system_id":"levelo_inurba_marseille","lat":43.28356,"lon":5.38098,"is_reserved":false,"is_disabled":false,"rental_uris":{"android":"levelo://app?vid=6b9b2c5e-8a13-4b7e-8663-1b23780134bb","ios":"levelo://app?vid=6b9b2c5e-8a13-4b7e-8663-1b23780134bb"},"vehicle_type_id":"4","last_reported":1742408017,"current_range_meters":12000,"station_id":"ce4bh412rcd13ifvqdr0","pricing_plan_id":"cebpf4jnsgd1na2vs0mg"},{"bike_id":"ffbee1c9-ab8d-45ee-b606-c546ab78c5f2","system_id":"levelo_inurba_marseille","lat":43.29737,"lon":5.3778,"is_reserved":false,"is_disabled":false,"rental_uris":{"android":"levelo://app?vid=ffbee1c9-ab8d-45ee-b606-c546ab78c5f2","ios":"levelo://app?vid=ffbee1c9-ab8d-45ee-b606-c546ab78c5f2"},"vehicle_type_id":"4","last_reported":1742408017,"current_range_meters":12400,"station_id":"","pricing_plan_id":"cebpf4jnsgd1na2vs0mg"},{"bike_id":"0e166ea6-b026-4c58-b439-1ef3c6a22f17","system_id":"levelo_inurba_marseille","lat":43.29898,"lon":5.38899,"is_reserved":false,"is_disabled":false,"rental_uris":{"android":"levelo://app?vid=0e166ea6-b026-4c58-b439-1ef3c6a22f17","ios":"levelo://app?vid=0e166ea6-b026-4c58-b439-1ef3c6a22f17"},"vehicle_type_id":"4","last_reported":1742408017,"current_range_meters":12400,"station_id":"ce4bh392rcd13ifvqdl0","pricing_plan_id":"cebpf4jnsgd1na2vs0mg"},{"bike_id":"3d6e5bb2-49a5-4ae9-ac7c-7c3250491a49","system_id":"levelo_inurba_marseille","lat":43.28855,"lon":5.35796,"is_reserved":false,"is_disabled":false,"rental_uris":{"android":"levelo://app?vid=3d6e5bb2-49a5-4ae9-ac7c-7c3250491a49","ios":"levelo://app?vid=3d6e5bb2-49a5-4ae9-ac7c-7c3250491a49"},"vehicle_type_id":"4","last_reported":1742408017,"current_range_meters":12400,"station_id":"ce4bhb12rcd13ifvqem0","pricing_plan_id":"cebpf4jnsgd1na2vs0mg"},{"bike_id":"17a386a5-dfcf-4e7d-b922-f8e2cffe745a","system_id":"levelo_inurba_marseille","lat":43.2968,"lon":5.36613,"is_reserved":false,"is_disabled":false,"rental_uris":{"android":"levelo://app?vid=17a386a5-dfcf-4e7d-b922-f8e2cffe745a","ios":"levelo://app?vid=17a386a5-dfcf-4e7d-b922-f8e2cffe745a"},"vehicle_type_id":"4","last_reported":1742408017,"current_range_meters":12400,"station_id":"ce4bgn12rcd13ifvqbt0","pricing_plan_id":"cebpf4jnsgd1na2vs0mg"},{"bike_id":"477b3b7f-28c2-49ea-8f4e-2b4d1861b94d","system_id":"levelo_inurba_marseille","lat":43.25583,"lon":5.38253,"is_reserved":false,"is_disabled":false,"rental_uris":{"android":"levelo://app?vid=477b3b7f-28c2-49ea-8f4e-2b4d1861b94d","ios":"levelo://app?vid=477b3b7f-28c2-49ea-8f4e-2b4d1861b94d"},"vehicle_type_id":"4","last_reported":1742408017,"current_range_meters":12400,"station_id":"ce4bhih2rcd13ifvqfs0","pricing_plan_id":"cebpf4jnsgd1na2vs0mg"},{"bike_id":"b1586009-cd1b-4de0-98c1-34920e69eb55","system_id":"levelo_inurba_marseille","lat":43.28934,"lon":5.36643,"is_reserved":false,"is_disabled":false,"rental_uris":{"android":"levelo://app?vid=b1586009-cd1b-4de0-98c1-34920e69eb55","ios":"levelo://app?vid=b1586009-cd1b-4de0-98c1-34920e69eb55"},"vehicle_type_id":"4","last_reported":1742408017,"current_range_meters":12400,"station_id":"ce4bhap2rcd13ifvqek0","pricing_plan_id":"cebpf4jnsgd1na2vs0mg"},{"bike_id":"233ef39a-4511-44e5-965d-12dd64d9bfe3","system_id":"levelo_inurba_marseille","lat":43.30885,"lon":5.39622,"is_reserved":false,"is_disabled":false,"rental_uris":{"android":"levelo://app?vid=233ef39a-4511-44e5-965d-12dd64d9bfe3","ios":"levelo://app?vid=233ef39a-4511-44e5-965d-12dd64d9bfe3"},"vehicle_type_id":"4","last_reported":1742408017,"current_range_meters":12400,"station_id":"ce4bh012rcd13ifvqcv0","pricing_plan_id":"cebpf4jnsgd1na2vs0mg"},{"bike_id":"d4ac2b1d-1bb7-4d06-b1af-c146a2338857","system_id":"levelo_inurba_marseille","lat":43.296459,"lon":5.374861,"is_reserved":false,"is_disabled":false,"rental_uris":{"android":"levelo://app?vid=d4ac2b1d-1bb7-4d06-b1af-c146a2338857","ios":"levelo://app?vid=d4ac2b1d-1bb7-4d06-b1af-c146a2338857"},"vehicle_type_id":"4","last_reported":1742408017,"current_range_meters":12400,"station_id":"ce4bgv92rcd13ifvqcq0","pricing_plan_id":"cebpf4jnsgd1na2vs0mg"},{"bike_id":"6c7e51d2-e2f9-4032-b4ac-95afc513e72e","system_id":"levelo_inurba_marseille","lat":43.2738,"lon":5.3625,"is_reserved":false,"is_disabled":false,"rental_uris":{"android":"levelo://app?vid=6c7e51d2-e2f9-4032-b4ac-95afc513e72e","ios":"levelo://app?vid=6c7e51d2-e2f9-4032-b4ac-95afc513e72e"},"vehicle_type_id":"4","last_reported":1742408017,"current_range_meters":12800,"station_id":"ce4bhbh2rcd13ifvqeo0","pricing_plan_id":"cebpf4jnsgd1na2vs0mg"},{"bike_id":"6500152f-b013-4243-8de5-878b24dc5767","system_id":"levelo_inurba_marseille","lat":43.2481,"lon":5.37457,"is_reserved":false,"is_disabled":false,"rental_uris":{"android":"levelo://app?vid=6500152f-b013-4243-8de5-878b24dc5767","ios":"levelo://app?vid=6500152f-b013-4243-8de5-878b24dc5767"},"vehicle_type_id":"4","last_reported":1742408017,"current_range_meters":12800,"station_id":"ce4bhgh2rcd13ifvqfb0","pricing_plan_id":"cebpf4jnsgd1na2vs0mg"},{"bike_id":"34d9eece-67e2-44a9-86c6-67d312f32d07","system_id":"levelo_inurba_marseille","lat":43.2901,"lon":5.35615,"is_reserved":false,"is_disabled":false,"rental_uris":{"android":"levelo://app?vid=34d9eece-67e2-44a9-86c6-67d312f32d07","ios":"levelo://app?vid=34d9eece-67e2-44a9-86c6-67d312f32d07"},"vehicle_type_id":"4","last_reported":1742408017,"current_range_meters":12800,"station_id":"ce4bhb92rcd13ifvqen0","pricing_plan_id":"cebpf4jnsgd1na2vs0mg"},{"bike_id":"0af285be-0294-4c23-9728-cedd0c1ca6b2","system_id":"levelo_inurba_marseille","lat":43.23199,"lon":5.40023,"is_reserved":false,"is_disabled":false,"rental_uris":{"android":"levelo://app?vid=0af285be-0294-4c23-9728-cedd0c1ca6b2","ios":"levelo://app?vid=0af285be-0294-4c23-9728-cedd0c1ca6b2"},"vehicle_type_id":"4","last_reported":1742408017,"current_range_meters":12800,"station_id":"ce4bhn12rcd13ifvqgqg","pricing_plan_id":"cebpf4jnsgd1na2vs0mg"},{"bike_id":"471b8c1a-1a85-4080-b533-fb41f3dbfd81","system_id":"levelo_inurba_marseille","lat":43.23189,"lon":5.35575,"is_reserved":false,"is_disabled":false,"rental_uris":{"android":"levelo://app?vid=471b8c1a-1a85-4080-b533-fb41f3dbfd81","ios":"levelo://app?vid=471b8c1a-1a85-4080-b533-fb41f3dbfd81"},"vehicle_type_id":"4","last_reported":1742408017,"current_range_meters":12800,"station_id":"ce4bhu92rcd13ifvqi70","pricing_plan_id":"cebpf4jnsgd1na2vs0mg"},{"bike_id":"78fd3a35-64f2-4353-b3e5-649a620c5f74","system_id":"levelo_inurba_marseille","lat":43.29009,"lon":5.35605,"is_reserved":false,"is_disabled":false,"rental_uris":{"android":"levelo://app?vid=78fd3a35-64f2-4353-b3e5-649a620c5f74","ios":"levelo://app?vid=78fd3a35-64f2-4353-b3e5-649a620c5f74"},"vehicle_type_id":"4","last_reported":1742408017,"current_range_meters":12400,"station_id":"ce4bhb92rcd13ifvqen0","pricing_plan_id":"cebpf4jnsgd1na2vs0mg"},{"bike_id":"2841284f-de3f-4cd5-a5a2-d8c36e4314ed","system_id":"levelo_inurba_marseille","lat":43.28939,"lon":5.36637,"is_reserved":false,"is_disabled":false,"rental_uris":{"android":"levelo://app?vid=2841284f-de3f-4cd5-a5a2-d8c36e4314ed","ios":"levelo://app?vid=2841284f-de3f-4cd5-a5a2-d8c36e4314ed"},"vehicle_type_id":"4","last_reported":1742408017,"current_range_meters":12800,"station_id":"ce4bhap2rcd13ifvqek0","pricing_plan_id":"cebpf4jnsgd1na2vs0mg"},{"bike_id":"815d7014-c6fe-4564-82ce-d8b51f90d2f6","system_id":"levelo_inurba_marseille","lat":43.3373,"lon":5.39179,"is_reserved":false,"is_disabled":false,"rental_uris":{"android":"levelo://app?vid=815d7014-c6fe-4564-82ce-d8b51f90d2f6","ios":"levelo://app?vid=815d7014-c6fe-4564-82ce-d8b51f90d2f6"},"vehicle_type_id":"4","last_reported":1742408017,"current_range_meters":12800,"station_id":"ce4bhr92rcd13ifvqhsg","pricing_plan_id":"cebpf4jnsgd1na2vs0mg"},{"bike_id":"c405ab68-223f-47db-99ed-c18c10d1f19e","system_id":"levelo_inurba_marseille","lat":43.28624,"lon":5.3512,"is_reserved":false,"is_disabled":false,"rental_uris":{"android":"levelo://app?vid=c405ab68-223f-47db-99ed-c18c10d1f19e","ios":"levelo://app?vid=c405ab68-223f-47db-99ed-c18c10d1f19e"},"vehicle_type_id":"4","last_reported":1742408017,"current_range_meters":12800,"station_id":"ce4bhch2rcd13ifvqeug","pricing_plan_id":"cebpf4jnsgd1na2vs0mg"},{"bike_id":"52802b63-8223-4569-bd44-fa9b675f74c2","system_id":"levelo_inurba_marseille","lat":43.29039,"lon":5.35936,"is_reserved":false,"is_disabled":false,"rental_uris":{"android":"levelo://app?vid=52802b63-8223-4569-bd44-fa9b675f74c2","ios":"levelo://app?vid=52802b63-8223-4569-bd44-fa9b675f74c2"},"vehicle_type_id":"4","last_reported":1742408017,"current_range_meters":12800,"station_id":"ce4bha92rcd13ifvqeg0","pricing_plan_id":"cebpf4jnsgd1na2vs0mg"},{"bike_id":"e10dd042-465e-48d7-9484-965733977e1c","system_id":"levelo_inurba_marseille","lat":43.29607,"lon":5.3811,"is_reserved":false,"is_disabled":false,"rental_uris":{"android":"levelo://app?vid=e10dd042-465e-48d7-9484-965733977e1c","ios":"levelo://app?vid=e10dd042-465e-48d7-9484-965733977e1c"},