{"last_updated":1686478000,"ttl":30,"version":"2.2","data":{"bikes":[{"bike_id":"be052d5e-b575-4f9a-b2a5-ba073147f154","system_id":"levelo_inurba_marseille","lat":43.309076,"lon":5.368465,"is_reserved":false,"is_disabled":false,"rental_uris":{"android":"levelo://app?vid=be052d5e-b575-4f9a-b2a5-ba073147f154","ios":"levelo://app?vid=be052d5e-b575-4f9a-b2a5-ba073147f154"},"vehicle_type_id":"4","last_reported":1686478001,"current_range_meters":24800,"station_id":"ce4bgn92rcd13ifvqbvg","pricing_plan_id":"free"},{"bike_id":"e215e44b-264e-4626-ae88-2d3a12aefe09","system_id":"levelo_inurba_marseille","lat":43.309076,"lon":5.368465,"is_reserved":false,"is_disabled":false,"rental_uris":{"android":"levelo://app?vid=e215e44b-264e-4626-ae88-2d3a12aefe09","ios":"levelo://app?vid=e215e44b-264e-4626-ae88-2d3a12aefe09"},"vehicle_type_id":"4","last_reported":1686478001,"current_range_meters":10000,"station_id":"ce4bgn92rcd13ifvqbvg","pricing_plan_id":"free"},{"bike_id":"2f52f955-f715-49a3-a8be-70b54913ac1d","system_id":"levelo_inurba_marseille","lat":43.309076,"lon":5.368465,"is_reserved":false,"is_disabled":false,"rental_uris":{"android":"levelo://app?vid=2f52f955-f715-49a3-a8be-70b54913ac1d","ios":"levelo://app?vid=2f52f955-f715-49a3-a8be-70b54913ac1d"},"vehicle_type_id":"4","last_reported":1686478001,"current_range_meters":28000,"station_id":"ce4bgn92rcd13ifvqbvg","pricing_plan_id":"free"},{"bike_id":"cf73bcc5-4994-4734-a057-81e83f7e7998","system_id":"levelo_inurba_marseille","lat":43.309076,"lon":5.368465,"is_reserved":false,"is_disabled":false,"rental_uris":{"android":"levelo://app?vid=cf73bcc5-4994-4734-a057-81e83f7e7998","ios":"levelo://app?vid=cf73bcc5-4994-4734-a057-81e83f7e7998"},"vehicle_type_id":"4","last_reported":1686478001,"current_range_meters":29200,"station_id":"ce4bgn92rcd13ifvqbvg","pricing_plan_id":"free"},{"bike_id":"5d4420b5-d8e0-4366-b2b5-42c41845f817","system_id":"levelo_inurba_marseille","lat":43.314811,"lon":5.373103,"is_reserved":false,"is_disabled":false,"rental_uris":{"android":"levelo://app?vid=5d4420b5-d8e0-4366-b2b5-42c41845f817","ios":"levelo://app?vid=5d4420b5-d8e0-4366-b2b5-42c41845f817"},"vehicle_type_id":"4","last_reported":1686478001,"current_range_meters":31200,"station_id":"ce4bgt12rcd13ifvqcd0","pricing_plan_id":"free"},{"bike_id":"613423e2-1bc5-492f-b17b-06f0a8a477cb","system_id":"levelo_inurba_marseille","lat":43.314811,"lon":5.373103,"is_reserved":false,"is_disabled":false,"rental_uris":{"android":"levelo://app?vid=613423e2-1bc5-492f-b17b-06f0a8a477cb","ios":"levelo://app?vid=613423e2-1bc5-492f-b17b-06f0a8a477cb"},"vehicle_type_id":"4","last_reported":1686478001,"current_range_meters":31200,"station_id":"ce4bgt12rcd13ifvqcd0","pricing_plan_id":"free"},{"bike_id":"febbd7eb-33ed-449d-b2a9-5bf98a8f91e5","system_id":"levelo_inurba_marseille","lat":43.314811,"lon":5.373103,"is_reserved":false,"is_disabled":false,"rental_uris":{"android":"levelo://app?vid=febbd7eb-33ed-449d-b2a9-5bf98a8f91e5","ios":"levelo://app?vid=febbd7eb-33ed-449d-b2a9-5bf98a8f91e5"},"vehicle_type_id":"4","last_reported":1686478001,"current_range_meters":31200,"station_id":"ce4bgt12rcd13ifvqcd0","pricing_plan_id":"free"},{"bike_id":"bccdd6a5-4acd-4f36-84fe-dbfde9070eea","system_id":"levelo_inurba_marseille","lat":43.314811,"lon":5.373104,"is_reserved":false,"is_disabled":false,"rental_uris":{"android":"levelo://app?vid=bccdd6a5-4acd-4f36-84fe-dbfde9070eea","ios":"levelo://app?vid=bccdd6a5-4acd-4f36-84fe-dbfde9070eea"},"vehicle_type_id":"4","last_reported":1686478001,"current_range_meters":30800,"station_id":"ce4bgt12rcd13ifvqcd0","pricing_plan_id":"free"},{"bike_id":"8d92bc27-d33c-47cf-9315-19c384c34864","system_id":"levelo_inurba_marseille","lat":43.314811,"lon":5.373104,"is_reserved":false,"is_disabled":false,"rental_uris":{"android":"levelo://app?vid=8d92bc27-d33c-47cf-9315-19c384c34864","ios":"levelo://app?vid=8d92bc27-d33c-47cf-9315-19c384c34864"},"vehicle_type_id":"4","last_reported":1686478001,"current_range_meters":31200,"station_id":"ce4bgt12rcd13ifvqcd0","pricing_plan_id":"free"},{"bike_id":"89a58938-98df-4e28-865c-9d518e77aa51","system_id":"levelo_inurba_marseille","lat":43.314811,"lon":5.373103,"is_reserved":false,"is_disabled":false,"rental_uris":{"android":"levelo://app?vid=89a58938-98df-4e28-865c-9d518e77aa51","ios":"levelo://app?vid=89a58938-98df-4e28-865c-9d518e77aa51"},"vehicle_type_id":"4","last_reported":1686478001,"current_range_meters":31200,"station_id":"ce4bgt12rcd13ifvqcd0","pricing_plan_id":"free"},{"bike_id":"012e93f1-006d-472c-8506-53e3765960b4","system_id":"levelo_inurba_marseille","lat":43.314811,"lon":5.373104,"is_reserved":false,"is_disabled":false,"rental_uris":{"android":"levelo://app?vid=012e93f1-006d-472c-8506-53e3765960b4","ios":"levelo://app?vid=012e93f1-006d-472c-8506-53e3765960b4"},"vehicle_type_id":"4","last_reported":1686478001,"current_range_meters":18800,"station_id":"ce4bgt12rcd13ifvqcd0","pricing_plan_id":"free"},{"bike_id":"8c9ddf23-33e2-41f5-82c7-ddc191677abb","system_id":"levelo_inurba_marseille","lat":43.3151,"lon":5.37291,"is_reserved":false,"is_disabled":false,"rental_uris":{"android":"levelo://app?vid=8c9ddf23-33e2-41f5-82c7-ddc191677abb","ios":"levelo://app?vid=8c9ddf23-33e2-41f5-82c7-ddc191677abb"},"vehicle_type_id":"4","last_reported":1686478001,"current_range_meters":26000,"station_id":"ce4bgt12rcd13ifvqcd0","pricing_plan_id":"free"},{"bike_id":"df8b1660-030c-46ee-8d0e-8a881c8aa03f","system_id":"levelo_inurba_marseille","lat":43.314811,"lon":5.373103,"is_reserved":false,"is_disabled":false,"rental_uris":{"android":"levelo://app?vid=df8b1660-030c-46ee-8d0e-8a881c8aa03f","ios":"levelo://app?vid=df8b1660-030c-46ee-8d0e-8a881c8aa03f"},"vehicle_type_id":"4","last_reported":1686478001,"current_range_meters":31200,"station_id":"ce4bgt12rcd13ifvqcd0","pricing_plan_id":"free"},{"bike_id":"beb38d07-99fa-4b43-a907-ed8e02ebeeb8","system_id":"levelo_inurba_marseille","lat":43.314811,"lon":5.373103,"is_reserved":false,"is_disabled":false,"rental_uris":{"android":"levelo://app?vid=beb38d07-99fa-4b43-a907-ed8e02ebeeb8","ios":"levelo://app?vid=beb38d07-99fa-4b43-a907-ed8e02ebeeb8"},"vehicle_type_id":"4","last_reported":1686478001,"current_range_meters":14400,"station_id":"ce4bgt12rcd13ifvqcd0","pricing_plan_id":"free"},{"bike_id":"726e69fe-0789-44cc-8872-aafade0684ce","system_id":"levelo_inurba_marseille","lat":43.306,"lon":5.36574,"is_reserved":false,"is_disabled":false,"rental_uris":{"android":"levelo://app?vid=726e69fe-0789-44cc-8872-aafade0684ce","ios":"levelo://app?vid=726e69fe-0789-44cc-8872-aafade0684ce"},"vehicle_type_id":"4","last_reported":1686478001,"current_range_meters":5200,"station_id":"","pricing_plan_id":"free"},{"bike_id":"6d8c898c-28b5-49c3-8e5e-9cd42c28315c","system_id":"levelo_inurba_marseille","lat":43.30537,"lon":5.367345,"is_reserved":false,"is_disabled":false,"rental_uris":{"android":"levelo://app?vid=6d8c898c-28b5-49c3-8e5e-9cd42c28315c","ios":"levelo://app?vid=6d8c898c-28b5-49c3-8e5e-9cd42c28315c"},"vehicle_type_id":"4","last_reported":1686478001,"current_range_meters":12400,"station_id":"ce4bgrp2rcd13ifvqc9g","pricing_plan_id":"free"},{"bike_id":"27586825-e145-45b9-a2d4-4e858edd4da7","system_id":"levelo_inurba_marseille","lat":43.30545,"lon":5.36698,"is_reserved":false,"is_disabled":false,"rental_uris":{"android":"levelo://app?vid=27586825-e145-45b9-a2d4-4e858edd4da7","ios":"levelo://app?vid=27586825-e145-45b9-a2d4-4e858edd4da7"},"vehicle_type_id":"4","last_reported":1686478001,"current_range_meters":22800,"station_id":"ce4bgrp2rcd13ifvqc9g","pricing_plan_id":"free"},{"bike_id":"d39bba50-fbce-4980-9728-d45c3af7b345","system_id":"levelo_inurba_marseille","lat":43.305706,"lon":5.365654,"is_reserved":false,"is_disabled":false,"rental_uris":{"android":"levelo://app?vid=d39bba50-fbce-4980-9728-d45c3af7b345","ios":"levelo://app?vid=d39bba50-fbce-4980-9728-d45c3af7b345"},"vehicle_type_id":"4","last_reported":1686478001,"current_range_meters":24400,"station_id":"ce4bgs12rcd13ifvqcag","pricing_plan_id":"free"},{"bike_id":"a19b254e-edb6-43ed-b938-6272510badba","system_id":"levelo_inurba_marseille","lat":43.305368,"lon":5.367343,"is_reserved":false,"is_disabled":false,"rental_uris":{"android":"levelo://app?vid=a19b254e-edb6-43ed-b938-6272510badba","ios":"levelo://app?vid=a19b254e-edb6-43ed-b938-6272510badba"},"vehicle_type_id":"4","last_reported":1686478001,"current_range_meters":27600,"station_id":"ce4bgrp2rcd13ifvqc9g","pricing_plan_id":"free"},{"bike_id":"212f29bf-23a3-46eb-8f69-0fd87b789eaf","system_id":"levelo_inurba_marseille","lat":43.30542,"lon":5.36554,"is_reserved":false,"is_disabled":false,"rental_uris":{"android":"levelo://app?vid=212f29bf-23a3-46eb-8f69-0fd87b789eaf","ios":"levelo://app?vid=212f29bf-23a3-46eb-8f69-0fd87b789eaf"},"vehicle_type_id":"4","last_reported":1686478001,"current_range_meters":28000,"station_id":"ce4bgs12rcd13ifvqcag","pricing_plan_id":"free"},{"bike_id":"db41c775-731d-4cfc-9399-4c8950a240ed","system_id":"levelo_inurba_marseille","lat":43.305706,"lon":5.365654,"is_reserved":false,"is_disabled":false,"rental_uris":{"android":"levelo://app?vid=db41c775-731d-4cfc-9399-4c8950a240ed","ios":"levelo://app?vid=db41c775-731d-4cfc-9399-4c8950a240ed"},"vehicle_type_id":"4","last_reported":1686478001,"current_range_meters":21600,"station_id":"ce4bgs12rcd13ifvqcag","pricing_plan_id":"free"},{"bike_id":"a3fdcbff-3775-49a0-bc36-8f2039bd9aa8","system_id":"levelo_inurba_marseille","lat":43.305368,"lon":5.367343,"is_reserved":false,"is_disabled":false,"rental_uris":{"android":"levelo://app?vid=a3fdcbff-3775-49a0-bc36-8f2039bd9aa8","ios":"levelo://app?vid=a3fdcbff-3775-49a0-bc36-8f2039bd9aa8"},"vehicle_type_id":"4","last_reported":1686478001,"current_range_meters":24000,"station_id":"ce4bgrp2rcd13ifvqc9g","pricing_plan_id":"free"},{"bike_id":"9e0c6fbe-e728-42b6-bac7-e6fb905932a6","system_id":"levelo_inurba_marseille","lat":43.305706,"lon":5.365654,"is_reserved":false,"is_disabled":false,"rental_uris":{"android":"levelo://app?vid=9e0c6fbe-e728-42b6-bac7-e6fb905932a6","ios":"levelo://app?vid=9e0c6fbe-e728-42b6-bac7-e6fb905932a6"},"vehicle_type_id":"4","last_reported":1686478001,"current_range_meters":26800,"station_id":"ce4bgs12rcd13ifvqcag","pricing_plan_id":"free"},{"bike_id":"e69d499b-a6fb-4022-9f16-065a783c6a79","system_id":"levelo_inurba_marseille","lat":43.305706,"lon":5.365654,"is_reserved":false,"is_disabled":false,"rental_uris":{"android":"levelo://app?vid=e69d499b-a6fb-4022-9f16-065a783c6a79","ios":"levelo://app?vid=e69d499b-a6fb-4022-9f16-065a783c6a79"},"vehicle_type_id":"4","last_reported":1686478001,"current_range_meters":29600,"station_id":"ce4bgs12rcd13ifvqcag","pricing_plan_id":"free"},{"bike_id":"efaa7891-f548-4a3a-a853-edc63bb9a7a5","system_id":"levelo_inurba_marseille","lat":43.305706,"lon":5.365654,"is_reserved":false,"is_disabled":false,"rental_uris":{"android":"levelo://app?vid=efaa7891-f548-4a3a-a853-edc63bb9a7a5","ios":"levelo://app?vid=efaa7891-f548-4a3a-a853-edc63bb9a7a5"},"vehicle_type_id":"4","last_reported":1686478001,"current_range_meters":14400,"station_id":"ce4bgs12rcd13ifvqcag","pricing_plan_id":"free"},{"bike_id":"4580f4e6-c695-4935-9dbc-acbff15f7449","system_id":"levelo_inurba_marseille","lat":43.305706,"lon":5.365654,"is_reserved":false,"is_disabled":false,"rental_uris":{"android":"levelo://app?vid=4580f4e6-c695-4935-9dbc-acbff15f7449","ios":"levelo://app?vid=4580f4e6-c695-4935-9dbc-acbff15f7449"},"vehicle_type_id":"4","last_reported":1686478001,"current_range_meters":22800,"station_id":"ce4bgs12rcd13ifvqcag","pricing_plan_id":"free"},{"bike_id":"a6c45229-fb63-4b36-8af5-9d71f38b9fdc","system_id":"levelo_inurba_marseille","lat":43.30536,"lon":5.36543,"is_reserved":false,"is_disabled":false,"rental_uris":{"android":"levelo://app?vid=a6c45229-fb63-4b36-8af5-9d71f38b9fdc","ios":"levelo://app?vid=a6c45229-fb63-4b36-8af5-9d71f38b9fdc"},"vehicle_type_id":"4","last_reported":1686478001,"current_range_meters":20800,"station_id":"ce4bgs12rcd13ifvqcag","pricing_plan_id":"free"},{"bike_id":"9295e10f-8513-4242-aa78-1bf260f4d2c7","system_id":"levelo_inurba_marseille","lat":43.305706,"lon":5.365654,"is_reserved":false,"is_disabled":false,"rental_uris":{"android":"levelo://app?vid=9295e10f-8513-4242-aa78-1bf260f4d2c7","ios":"levelo://app?vid=9295e10f-8513-4242-aa78-1bf260f4d2c7"},"vehicle_type_id":"4","last_reported":1686478001,"current_range_meters":17200,"station_id":"ce4bgs12rcd13ifvqcag","pricing_plan_id":"free"},{"bike_id":"57d29735-7a03-408d-9802-8a945ffce36f","system_id":"levelo_inurba_marseille","lat":43.305706,"lon":5.365654,"is_reserved":false,"is_disabled":false,"rental_uris":{"android":"levelo://app?vid=57d29735-7a03-408d-9802-8a945ffce36f","ios":"levelo://app?vid=57d29735-7a03-408d-9802-8a945ffce36f"},"vehicle_type_id":"4","last_reported":1686478001,"current_range_meters":28800,"station_id":"ce4bgs12rcd13ifvqcag","pricing_plan_id":"free"},{"bike_id":"ea7d983e-e264-4d60-a963-4b051e9ad6d0","system_id":"levelo_inurba_marseille","lat":43.30531,"lon":5.36542,"is_reserved":false,"is_disabled":false,"rental_uris":{"android":"levelo://app?vid=ea7d983e-e264-4d60-a963-4b051e9ad6d0","ios":"levelo://app?vid=ea7d983e-e264-4d60-a963-4b051e9ad6d0"},"vehicle_type_id":"4","last_reported":1686478001,"current_range_meters":29600,"station_id":"ce4bgs12rcd13ifvqcag","pricing_plan_id":"free"},{"bike_id":"08b554d0-ab74-4d02-ba6e-a688c7e577ad","system_id":"levelo_inurba_marseille","lat":43.311131,"lon":5.377651,"is_reserved":false,"is_disabled":false,"rental_uris":{"android":"levelo://app?vid=08b554d0-ab74-4d02-ba6e-a688c7e577ad","ios":"levelo://app?vid=08b554d0-ab74-4d02-ba6e-a688c7e577ad"},"vehicle_type_id":"4","last_reported":1686478001,"current_range_meters":11200,"station_id":"ce4bgt92rcd13ifvqcg0","pricing_plan_id":"free"},{"bike_id":"186952f1-df31-44d9-af01-c024a5fff464","system_id":"levelo_inurba_marseille","lat":43.311125,"lon":5.377624,"is_reserved":false,"is_disabled":false,"rental_uris":{"android":"levelo://app?vid=186952f1-df31-44d9-af01-c024a5fff464","ios":"levelo://app?vid=186952f1-df31-44d9-af01-c024a5fff464"},"vehicle_type_id":"4","last_reported":1686478001,"current_range_meters":31200,"station_id":"ce4bgt92rcd13ifvqcg0","pricing_plan_id":"free"},{"bike_id":"8f930105-cb56-4ff5-b193-1e9e02f17699","system_id":"levelo_inurba_marseille","lat":43.311131,"lon":5.377651,"is_reserved":false,"is_disabled":false,"rental_uris":{"android":"levelo://app?vid=8f930105-cb56-4ff5-b193-1e9e02f17699","ios":"levelo://app?vid=8f930105-cb56-4ff5-b193-1e9e02f17699"},"vehicle_type_id":"4","last_reported":1686478001,"current_range_meters":31200,"station_id":"ce4bgt92rcd13ifvqcg0","pricing_plan_id":"free"},{"bike_id":"9bf39321-cbc1-4267-a37f-3b8ad5c4f837","system_id":"levelo_inurba_marseille","lat":43.30311,"lon":5.36905,"is_reserved":false,"is_disabled":false,"rental_uris":{"android":"levelo://app?vid=9bf39321-cbc1-4267-a37f-3b8ad5c4f837","ios":"levelo://app?vid=9bf39321-cbc1-4267-a37f-3b8ad5c4f837"},"vehicle_type_id":"4","last_reported":1686478001,"current_range_meters":29600,"station_id":"ce4bgqh2rcd13ifvqc5g","pricing_plan_id":"free"},{"bike_id":"b477b6e9-040c-4364-8ea8-c5f546feb387","system_id":"levelo_inurba_marseille","lat":43.31525,"lon":5.38024,"is_reserved":false,"is_disabled":false,"rental_uris":{"android":"levelo://app?vid=b477b6e9-040c-4364-8ea8-c5f546feb387","ios":"levelo://app?vid=b477b6e9-040c-4364-8ea8-c5f546feb387"},"vehicle_type_id":"4","last_reported":1686478001,"current_range_meters":24400,"station_id":"ce4bhsp2rcd13ifvqi50","pricing_plan_id":"free"},{"bike_id":"cd18ccbf-25e0-4270-90e3-3ed6654d38d0","system_id":"levelo_inurba_marseille","lat":43.31544,"lon":5.38022,"is_reserved":false,"is_disabled":false,"rental_uris":{"android":"levelo://app?vid=cd18ccbf-25e0-4270-90e3-3ed6654d38d0","ios":"levelo://app?vid=cd18ccbf-25e0-4270-90e3-3ed6654d38d0"},"vehicle_type_id":"4","last_reported":1686478001,"current_range_meters":1200,"station_id":"ce4bhsp2rcd13ifvqi50","pricing_plan_id":"free"},{"bike_id":"dc48ea1e-35ad-4ad4-bcc8-21c2dad746ea","system_id":"levelo_inurba_marseille","lat":43.315289,"lon":5.380349,"is_reserved":false,"is_disabled":false,"rental_uris":{"android":"levelo://app?vid=dc48ea1e-35ad-4ad4-bcc8-21c2dad746ea","ios":"levelo://app?vid=dc48ea1e-35ad-4ad4-bcc8-21c2dad746ea"},"vehicle_type_id":"4","last_reported":1686478001,"current_range_meters":13600,"station_id":"ce4bhsp2rcd13ifvqi50","pricing_plan_id":"free"},{"bike_id":"7117e9d4-12af-46da-8d11-27d19479ca36","system_id":"levelo_inurba_marseille","lat":43.30801,"lon":5.38137,"is_reserved":false,"is_disabled":false,"rental_uris":{"android":"levelo://app?vid=7117e9d4-12af-46da-8d11-27d19479ca36","ios":"levelo://app?vid=7117e9d4-12af-46da-8d11-27d19479ca36"},"vehicle_type_id":"4","last_reported":1686478001,"current_range_meters":31200,"station_id":"ce4bgt12rcd13ifvqce0","pricing_plan_id":"free"},{"bike_id":"c772a3fa-9a06-47b5-b99a-f5ddef12d263","system_id":"levelo_inurba_marseille","lat":43.30806,"lon":5.38152,"is_reserved":false,"is_disabled":false,"rental_uris":{"android":"levelo://app?vid=c772a3fa-9a06-47b5-b99a-f5ddef12d263","ios":"levelo://app?vid=c772a3fa-9a06-47b5-b99a-f5ddef12d263"},"vehicle_type_id":"4","last_reported":1686478001,"current_range_meters":28000,"station_id":"ce4bgt12rcd13ifvqce0","pricing_plan_id":"free"},{"bike_id":"5d2a241b-a31e-4c98-9d76-e06beb420f4f","system_id":"levelo_inurba_marseille","lat":43.30283,"lon":5.37692,"is_reserved":false,"is_disabled":false,"rental_uris":{"android":"levelo://app?vid=5d2a241b-a31e-4c98-9d76-e06beb420f4f","ios":"levelo://app?vid=5d2a241b-a31e-4c98-9d76-e06beb420f4f"},"vehicle_type_id":"4","last_reported":1686478001,"current_range_meters":0,"station_id":"ce4bguh2rcd13ifvqcj0","pricing_plan_id":"free"},{"bike_id":"48adf0b2-7b59-47da-b264-1f4146b42a36","system_id":"levelo_inurba_marseille","lat":43.302784,"lon":5.377158,"is_reserved":false,"is_disabled":false,"rental_uris":{"android":"levelo://app?vid=48adf0b2-7b59-47da-b264-1f4146b42a36","ios":"levelo://app?vid=48adf0b2-7b59-47da-b264-1f4146b42a36"},"vehicle_type_id":"4","last_reported":1686478001,"current_range_meters":25600,"station_id":"ce4bguh2rcd13ifvqcj0","pricing_plan_id":"free"},{"bike_id":"9b220983-5c41-4d66-86be-12fae49760fb","system_id":"levelo_inurba_marseille","lat":43.30143,"lon":5.37413,"is_reserved":false,"is_disabled":false,"rental_uris":{"android":"levelo://app?vid=9b220983-5c41-4d66-86be-12fae49760fb","ios":"levelo://app?vid=9b220983-5c41-4d66-86be-12fae49760fb"},"vehicle_type_id":"4","last_reported":1686478001,"current_range_meters":16000,"station_id":"ce4bgs92rcd13ifvqcc0","pricing_plan_id":"free"},{"bike_id":"11df4a94-deb8-4f6b-b538-b100724356dc","system_id":"levelo_inurba_marseille","lat":43.31991,"lon":5.38152,"is_reserved":false,"is_disabled":false,"rental_uris":{"android":"levelo://app?vid=11df4a94-deb8-4f6b-b538-b100724356dc","ios":"levelo://app?vid=11df4a94-deb8-4f6b-b538-b100724356dc"},"vehicle_type_id":"4","last_reported":1686478001,"current_range_meters":22000,"station_id":"ce4bhr12rcd13ifvqhpg","pricing_plan_id":"free"},{"bike_id":"80d85964-9da1-4ec1-b127-b73eae36a036","system_id":"levelo_inurba_marseille","lat":43.30347,"lon":5.37918,"is_reserved":false,"is_disabled":false,"rental_uris":{"android":"levelo://app?vid=80d85964-9da1-4ec1-b127-b73eae36a036","ios":"levelo://app?vid=80d85964-9da1-4ec1-b127-b73eae36a036"},"vehicle_type_id":"4","last_reported":1686478001,"current_range_meters":28400,"station_id":"","pricing_plan_id":"free"},{"bike_id":"67d320b1-dc8f-4080-844a-b45e4d1f0a1a","system_id":"levelo_inurba_marseille","lat":43.29951,"lon":5.36549,"is_reserved":false,"is_disabled":false,"rental_uris":{"android":"levelo://app?vid=67d320b1-dc8f-4080-844a-b45e4d1f0a1a","ios":"levelo://app?vid=67d320b1-dc8f-4080-844a-b45e4d1f0a1a"},"vehicle_type_id":"4","last_reported":1686478001,"current_range_meters":31200,"station_id":"ce4bgm92rcd13ifvqbr0","pricing_plan_id":"free"},{"bike_id":"f37067c7-21f1-4d17-b844-08322cccd038","system_id":"levelo_inurba_marseille","lat":43.30542,"lon":5.38408,"is_reserved":false,"is_disabled":false,"rental_uris":{"android":"levelo://app?vid=f37067c7-21f1-4d17-b844-08322cccd038","ios":"levelo://app?vid=f37067c7-21f1-4d17-b844-08322cccd038"},"vehicle_type_id":"4","last_reported":1686478001,"current_range_meters":16800,"station_id":"ce4bgg92rcd13ifvqb30","pricing_plan_id":"free"},{"bike_id":"5089c77e-1178-48a7-b0d8-3d8d481e4539","system_id":"levelo_inurba_marseille","lat":43.298433,"lon":5.362774,"is_reserved":false,"is_disabled":false,"rental_uris":{"android":"levelo://app?vid=5089c77e-1178-48a7-b0d8-3d8d481e4539","ios":"levelo://app?vid=5089c77e-1178-48a7-b0d8-3d8d481e4539"},"vehicle_type_id":"4","last_reported":1686478001,"current_range_meters":21600,"station_id":"ce4bgpp2rcd13ifvqc3g","pricing_plan_id":"free"},{"bike_id":"63788aa7-bab9-4f14-aa37-097c8a4f14d5","system_id":"levelo_inurba_marseille","lat":43.298433,"lon":5.362774,"is_reserved":false,"is_disabled":false,"rental_uris":{"android":"levelo://app?vid=63788aa7-bab9-4f14-aa37-097c8a4f14d5","ios":"levelo://app?vid=63788aa7-bab9-4f14-aa37-097c8a4f14d5"},"vehicle_type_id":"4","last_reported":1686478001,"current_range_meters":29600,"station_id":"ce4bgpp2rcd13ifvqc3g","pricing_plan_id":"free"},{"bike_id":"1518c384-83bc-40cb-9eb6-66c49e7715b9","system_id":"levelo_inurba_marseille","lat":43.298433,"lon":5.362774,"is_reserved":false,"is_disabled":false,"rental_uris":{"android":"levelo://app?vid=1518c384-83bc-40cb-9eb6-66c49e7715b9","ios":"levelo://app?vid=1518c384-83bc-40cb-9eb6-66c49e7715b9"},"vehicle_type_id":"4","last_reported":1686478001,"current_range_meters":11600,"station_id":"ce4bgpp2rcd13ifvqc3g","pricing_plan_id":"free"},{"bike_id":"75466fa2-5010-4915-96a5-a44ee2438a3e","system_id":"levelo_inurba_marseille","lat":43.29845,"lon":5.36285,"is_reserved":false,"is_disabled":false,"rental_uris":{"android":"levelo://app?vid=75466fa2-5010-4915-96a5-a44ee2438a3e","ios":"levelo://app?vid=75466fa2-5010-4915-96a5-a44ee2438a3e"},"vehicle_type_id":"4","last_reported":1686478001,"current_range_meters":27200,"station_id":"ce4bgpp2rcd13ifvqc3g","pricing_plan_id":"free"},{"bike_id":"e8e06874-2610-4599-9de9-2987337c725a","system_id":"levelo_inurba_marseille","lat":43.298405,"lon":5.362686,"is_reserved":false,"is_disabled":false,"rental_uris":{"android":"levelo://app?vid=e8e06874-2610-4599-9de9-2987337c725a","ios":"levelo://app?vid=e8e06874-2610-4599-9de9-2987337c725a"},"vehicle_type_id":"4","last_reported":1686478001,"current_range_meters":16800,"station_id":"ce4bgi92rcd13ifvqb90","pricing_plan_id":"free"},{"bike_id":"fd205a5a-43f2-478e-a0ce-9d0e8c061204","system_id":"levelo_inurba_marseille","lat":43.297774,"lon":5.370875,"is_reserved":false,"is_disabled":false,"rental_uris":{"android":"levelo://app?vid=fd205a5a-43f2-478e-a0ce-9d0e8c061204","ios":"levelo://app?vid=fd205a5a-43f2-478e-a0ce-9d0e8c061204"},"vehicle_type_id":"4","last_reported":1686478001,"current_range_meters":9600,"station_id":"ce4bgop2rcd13ifvqc1g","pricing_plan_id":"free"},{"bike_id":"ba011b32-e986-4980-9048-860f57e858b1","system_id":"levelo_inurba_marseille","lat":43.297774,"lon":5.370875,"is_reserved":false,"is_disabled":false,"rental_uris":{"android":"levelo://app?vid=ba011b32-e986-4980-9048-860f57e858b1","ios":"levelo://app?vid=ba011b32-e986-4980-9048-860f57e858b1"},"vehicle_type_id":"4","last_reported":1686478001,"current_range_meters":10800,"station_id":"ce4bgop2rcd13ifvqc1g","pricing_plan_id":"free"},{"bike_id":"343d96b6-e55e-47d6-8896-d13ae882056e","system_id":"levelo_inurba_marseille","lat":43.29787,"lon":5.37095,"is_reserved":false,"is_disabled":false,"rental_uris":{"android":"levelo://app?vid=343d96b6-e55e-47d6-8896-d13ae882056e","ios":"levelo://app?vid=343d96b6-e55e-47d6-8896-d13ae882056e"},"vehicle_type_id":"4","last_reported":1686478001,"current_range_meters":18000,"station_id":"ce4bgop2rcd13ifvqc1g","pricing_plan_id":"free"},{"bike_id":"d96dcc96-ce3c-432f-8f37-1733de830b5a","system_id":"levelo_inurba_marseille","lat":43.328371,"lon":5.366909,"is_reserved":false,"is_disabled":false,"rental_uris":{"android":"levelo://app?vid=d96dcc96-ce3c-432f-8f37-1733de830b5a","ios":"levelo://app?vid=d96dcc96-ce3c-432f-8f37-1733de830b5a"},"vehicle_type_id":"4","last_reported":1686478001,"current_range_meters":27600,"station_id":"ce4bhs92rcd13ifvqi0g","pricing_plan_id":"free"},{"bike_id":"a4e710b9-5582-4414-ab20-57b598a360c9","system_id":"levelo_inurba_marseille","lat":43.328371,"lon":5.366909,"is_reserved":false,"is_disabled":false,"rental_uris":{"android":"levelo://app?vid=a4e710b9-5582-4414-ab20-57b598a360c9","ios":"levelo://app?vid=a4e710b9-5582-4414-ab20-57b598a360c9"},"vehicle_type_id":"4","last_reported":1686478001,"current_range_meters":31200,"station_id":"ce4bhs92rcd13ifvqi0g","pricing_plan_id":"free"},{"bike_id":"dd203080-4a12-4979-9edf-56b304f55353","system_id":"levelo_inurba_marseille","lat":43.328371,"lon":5.366909,"is_reserved":false,"is_disabled":false,"rental_uris":{"android":"levelo://app?vid=dd203080-4a12-4979-9edf-56b304f55353","ios":"levelo://app?vid=dd203080-4a12-4979-9edf-56b304f55353"},"vehicle_type_id":"4","last_reported":1686478001,"current_range_meters":27600,"station_id":"ce4bhs92rcd13ifvqi0g","pricing_plan_id":"free"},{"bike_id":"d2ee4f47-c99d-4207-bf1f-965db1bb1561","system_id":"levelo_inurba_marseille","lat":43.328371,"lon":5.366909,"is_reserved":false,"is_disabled":false,"rental_uris":{"android":"levelo://app?vid=d2ee4f47-c99d-4207-bf1f-965db1bb1561","ios":"levelo://app?vid=d2ee4f47-c99d-4207-bf1f-965db1bb1561"},"vehicle_type_id":"4","last_reported":1686478001,"current_range_meters":2000,"station_id":"ce4bhs92rcd13ifvqi0g","pricing_plan_id":"free"},{"bike_id":"bc0a8fa1-6bdb-4f3b-b131-832d38741f48","system_id":"levelo_inurba_marseille","lat":43.328371,"lon":5.366909,"is_reserved":false,"is_disabled":false,"rental_uris":{"android":"levelo://app?vid=bc0a8fa1-6bdb-4f3b-b131-832d38741f48","ios":"levelo://app?vid=bc0a8fa1-6bdb-4f3b-b131-832d38741f48"},"vehicle_type_id":"4","last_reported":1686478001,"current_range_meters":21200,"station_id":"ce4bhs92rcd13ifvqi0g","pricing_plan_id":"free"},{"bike_id":"e19f567c-0672-4765-92f5-675a90b790ab","system_id":"levelo_inurba_marseille","lat":43.328371,"lon":5.366909,"is_reserved":false,"is_disabled":false,"rental_uris":{"android":"levelo://app?vid=e19f567c-0672-4765-92f5-675a90b790ab","ios":"levelo://app?vid=e19f567c-0672-4765-92f5-675a90b790ab"},"vehicle_type_id":"4","last_reported":1686478001,"current_range_meters":27200,"station_id":"ce4bhs92rcd13ifvqi0g","pricing_plan_id":"free"},{"bike_id":"a0565906-42fe-436f-8a68-dac07fb0f6a4","system_id":"levelo_inurba_marseille","lat":43.328371,"lon":5.366912,"is_reserved":false,"is_disabled":false,"rental_uris":{"android":"levelo://app?vid=a0565906-42fe-436f-8a68-dac07fb0f6a4","ios":"levelo://app?vid=a0565906-42fe-436f-8a68-dac07fb0f6a4"},"vehicle_type_id":"4","last_reported":1686478001,"current_range_meters":25200,"station_id":"ce4bhs92rcd13ifvqi0g","pricing_plan_id":"free"},{"bike_id":"646e9ad8-7b91-4157-a6bc-9b5f2ad20d49","system_id":"levelo_inurba_marseille","lat":43.328371,"lon":5.366912,"is_reserved":false,"is_disabled":false,"rental_uris":{"android":"levelo://app?vid=646e9ad8-7b91-4157-a6bc-9b5f2ad20d49","ios":"levelo://app?vid=646e9ad8-7b91-4157-a6bc-9b5f2ad20d49"},"vehicle_type_id":"4","last_reported":1686478001,"current_range_meters":3600,"station_id":"ce4bhs92rcd13ifvqi0g","pricing_plan_id":"free"},{"bike_id":"80522d63-c38b-48ba-b0a6-33b6f69e774e","system_id":"levelo_inurba_marseille","lat":43.328371,"lon":5.366909,"is_reserved":false,"is_disabled":false,"rental_uris":{"android":"levelo://app?vid=80522d63-c38b-48ba-b0a6-33b6f69e774e","ios":"levelo://app?vid=80522d63-c38b-48ba-b0a6-33b6f69e774e"},"vehicle_type_id":"4","last_reported":1686478001,"current_range_meters":21600,"station_id":"ce4bhs92rcd13ifvqi0g","pricing_plan_id":"free"},{"bike_id":"00bd6d16-3fa8-4ee0-8bda-790fc07cbd3e","system_id":"levelo_inurba_marseille","lat":43.29583,"lon":5.36744,"is_reserved":false,"is_disabled":false,"rental_uris":{"android":"levelo://app?vid=00bd6d16-3fa8-4ee0-8bda-790fc07cbd3e","ios":"levelo://app?vid=00bd6d16-3fa8-4ee0-8bda-790fc07cbd3e"},"vehicle_type_id":"4","last_reported":1686478001,"current_range_meters":26000,"station_id":"ce4bgph2rcd13ifvqc2g","pricing_plan_id":"free"},{"bike_id":"e0578771-fe5d-46c3-8fb3-173772014b03","system_id":"levelo_inurba_marseille","lat":43.299028,"lon":5.381509,"is_reserved":false,"is_disabled":false,"rental_uris":{"android":"levelo://app?vid=e0578771-fe5d-46c3-8fb3-173772014b03","ios":"levelo://app?vid=e0578771-fe5d-46c3-8fb3-173772014b03"},"vehicle_type_id":"4","last_reported":1686478001,"current_range_meters":22000,"station_id":"ce4bgj12rcd13ifvqbc0","pricing_plan_id":"free"},{"bike_id":"32dcabd4-96b7-4376-a96b-c2c0736c05d1","system_id":"levelo_inurba_marseille","lat":43.309589,"lon":5.390258,"is_reserved":false,"is_disabled":false,"rental_uris":{"android":"levelo://app?vid=32dcabd4-96b7-4376-a96b-c2c0736c05d1","ios":"levelo://app?vid=32dcabd4-96b7-4376-a96b-c2c0736c05d1"},"vehicle_type_id":"4","last_reported":1686478001,"current_range_meters":24400,"station_id":"ce4bgup2rcd13ifvqco0","pricing_plan_id":"free"},{"bike_id":"79c5fae8-9275-402b-a7cc-a7c738b99510","system_id":"levelo_inurba_marseille","lat":43.30951,"lon":5.39031,"is_reserved":false,"is_disabled":false,"rental_uris":{"android":"levelo://app?vid=79c5fae8-9275-402b-a7cc-a7c738b99510","ios":"levelo://app?vid=79c5fae8-9275-402b-a7cc-a7c738b99510"},"vehicle_type_id":"4","last_reported":1686478001,"current_range_meters":28800,"station_id":"ce4bgup2rcd13ifvqco0","pricing_plan_id":"free"},{"bike_id":"48f8f783-ce02-4bf9-b6cb-03c032db2c14","system_id":"levelo_inurba_marseille","lat":43.317557,"lon":5.390173,"is_reserved":false,"is_disabled":false,"rental_uris":{"android":"levelo://app?vid=48f8f783-ce02-4bf9-b6cb-03c032db2c14","ios":"levelo://app?vid=48f8f783-ce02-4bf9-b6cb-03c032db2c14"},"vehicle_type_id":"4","last_reported":1686478001,"current_range_meters":28800,"station_id":"ce4bhqp2rcd13ifvqhng","pricing_plan_id":"free"},{"bike_id":"063c72de-f480-48ea-bdad-eb5b984515ca","system_id":"levelo_inurba_marseille","lat":43.317557,"lon":5.390173,"is_reserved":false,"is_disabled":false,"rental_uris":{"android":"levelo://app?vid=063c72de-f480-48ea-bdad-eb5b984515ca","ios":"levelo://app?vid=063c72de-f480-48ea-bdad-eb5b984515ca"},"vehicle_type_id":"4","last_reported":1686478001,"current_range_meters":27200,"station_id":"ce4bhqp2rcd13ifvqhng","pricing_plan_id":"free"},{"bike_id":"f1c2d9ac-c8f7-4187-9992-bf74ea9241bd","system_id":"levelo_inurba_marseille","lat":43.295279,"lon":5.375048,"is_reserved":false,"is_disabled":false,"rental_uris":{"android":"levelo://app?vid=f1c2d9ac-c8f7-4187-9992-bf74ea9241bd","ios":"levelo://app?vid=f1c2d9ac-c8f7-4187-9992-bf74ea9241bd"},"vehicle_type_id":"4","last_reported":1686478001,"current_range_meters":30400,"station_id":"ce4bgkp2rcd13ifvqbmg","pricing_plan_id":"free"},{"bike_id":"dd66a00a-ae87-4f13-8320-0f02c4972732","system_id":"levelo_inurba_marseille","lat":43.323667,"lon":5.388847,"is_reserved":false,"is_disabled":false,"rental_uris":{"android":"levelo://app?vid=dd66a00a-ae87-4f13-8320-0f02c4972732","ios":"levelo://app?vid=dd66a00a-ae87-4f13-8320-0f02c4972732"},"vehicle_type_id":"4","last_reported":1686478001,"current_range_meters":13200,"station_id":"ce4bhqp2rcd13ifvqhog","pricing_plan_id":"free"},{"bike_id":"5c2f8fb9-730d-4228-bee8-96b6e32e972c","system_id":"levelo_inurba_marseille","lat":43.29259,"lon":5.3656,"is_reserved":false,"is_disabled":false,"rental_uris":{"android":"levelo://app?vid=5c2f8fb9-730d-4228-bee8-96b6e32e972c","ios":"levelo://app?vid=5c2f8fb9-730d-4228-bee8-96b6e32e972c"},"vehicle_type_id":"4","last_reported":1686478001,"current_range_meters":22000,"station_id":"","pricing_plan_id":"free"},{"bike_id":"7f209248-facc-4958-92c6-7699d669c370","system_id":"levelo_inurba_marseille","lat":43.302992,"lon":5.392136,"is_reserved":false,"is_disabled":false,"rental_uris":{"android":"levelo://app?vid=7f209248-facc-4958-92c6-7699d669c370","ios":"levelo://app?vid=7f209248-facc-4958-92c6-7699d669c370"},"vehicle_type_id":"4","last_reported":1686478001,"current_range_meters":12000,"station_id":"ce4bgkh2rcd13ifvqbk0","pricing_plan_id":"free"},{"bike_id":"4996d9fe-3f71-4bd1-9b65-bb2c9a2d283c","system_id":"levelo_inurba_marseille","lat":43.2936,"lon":5.37835,"is_reserved":false,"is_disabled":false,"rental_uris":{"android":"levelo://app?vid=4996d9fe-3f71-4bd1-9b65-bb2c9a2d283c","ios":"levelo://app?vid=4996d9fe-3f71-4bd1-9b65-bb2c9a2d283c"},"vehicle_type_id":"4","last_reported":1686478001,"current_range_meters":27600,"station_id":"ce4bgjh2rcd13ifvqbf0","pricing_plan_id":"free"},{"bike_id":"61e4ccfd-dc98-4837-8123-2dfa5e087f42","system_id":"levelo_inurba_marseille","lat":43.293723,"lon":5.378443,"is_reserved":false,"is_disabled":false,"rental_uris":{"android":"levelo://app?vid=61e4ccfd-dc98-4837-8123-2dfa5e087f42","ios":"levelo://app?vid=61e4ccfd-dc98-4837-8123-2dfa5e087f42"},"vehicle_type_id":"4","last_reported":1686478001,"current_range_meters":400,"station_id":"","pricing_plan_id":"free"},{"bike_id":"d23decfe-1701-4806-bf55-168754245ae3","system_id":"levelo_inurba_marseille","lat":43.30085,"lon":5.390856,"is_reserved":false,"is_disabled":false,"rental_uris":{"android":"levelo://app?vid=d23decfe-1701-4806-bf55-168754245ae3","ios":"levelo://app?vid=d23decfe-1701-4806-bf55-168754245ae3"},"vehicle_type_id":"4","last_reported":1686478001,"current_range_meters":28000,"station_id":"ce4bh192rcd13ifvqdb0","pricing_plan_id":"free"},{"bike_id":"7c572c72-c083-407d-8ed1-750761a4a28e","system_id":"levelo_inurba_marseille","lat":43.29224,"lon":5.36049,"is_reserved":false,"is_disabled":false,"rental_uris":{"android":"levelo://app?vid=7c572c72-c083-407d-8ed1-750761a4a28e","ios":"levelo://app?vid=7c572c72-c083-407d-8ed1-750761a4a28e"},"vehicle_type_id":"4","last_reported":1686478001,"current_range_meters":29200,"station_id":"ce4bhbh2rcd13ifvqeqg","pricing_plan_id":"free"},{"bike_id":"ec3bf089-ddf6-4e3a-a4f5-b0307965ec64","system_id":"levelo_inurba_marseille","lat":43.284217,"lon":5.349697,"is_reserved":false,"is_disabled":false,"rental_uris":{"android":"levelo://app?vid=ec3bf089-ddf6-4e3a-a4f5-b0307965ec64","ios":"levelo://app?vid=ec3bf089-ddf6-4e3a-a4f5-b0307965ec64"},"vehicle_type_id":"4","last_reported":1686478001,"current_range_meters":0,"station_id":"ce4bhbh2rcd13ifvqepg","pricing_plan_id":"free"},{"bike_id":"bf0b38a2-b1b0-4b80-9526-395e1a40f9a6","system_id":"levelo_inurba_marseille","lat":43.291994,"lon":5.357886,"is_reserved":false,"is_disabled":false,"rental_uris":{"android":"levelo://app?vid=bf0b38a2-b1b0-4b80-9526-395e1a40f9a6","ios":"levelo://app?vid=bf0b38a2-b1b0-4b80-9526-395e1a40f9a6"},"vehicle_type_id":"4","last_reported":1686478001,"current_range_meters":18000,"station_id":"ce4bhb12rcd13ifvqel0","pricing_plan_id":"free"},{"bike_id":"319421d1-0a77-46da-b134-bba23cabe2b6","system_id":"levelo_inurba_marseille","lat":43.31366,"lon":5.39682,"is_reserved":false,"is_disabled":false,"rental_uris":{"android":"levelo://app?vid=319421d1-0a77-46da-b134-bba23cabe2b6","ios":"levelo://app?vid=319421d1-0a77-46da-b134-bba23cabe2b6"},"vehicle_type_id":"4","last_reported":1686478001,"current_range_meters":0,"station_id":"","pricing_plan_id":"free"},{"bike_id":"4477fcde-dec1-4846-875b-e879f14109f9","system_id":"levelo_inurba_marseille","lat":43.291994,"lon":5.357886,"is_reserved":false,"is_disabled":false,"rental_uris":{"android":"levelo://app?vid=4477fcde-dec1-4846-875b-e879f14109f9","ios":"levelo://app?vid=4477fcde-dec1-4846-875b-e879f14109f9"},"vehicle_type_id":"4","last_reported":1686478001,"current_range_meters":24400,"station_id":"ce4bhb12rcd13ifvqel0","pricing_plan_id":"free"},{"bike_id":"7efdb8a6-cecc-4c51-9653-b0801d3e53a2","system_id":"levelo_inurba_marseille","lat":43.309038,"lon":5.396546,"is_reserved":false,"is_disabled":false,"rental_uris":{"android":"levelo://app?vid=7efdb8a6-cecc-4c51-9653-b0801d3e53a2","ios":"levelo://app?vid=7efdb8a6-cecc-4c51-9653-b0801d3e53a2"},"vehicle_type_id":"4","last_reported":1686478001,"current_range_meters":22000,"station_id":"ce4bh012rcd13ifvqcv0","pricing_plan_id":"free"},{"bike_id":"abb710c7-fa7d-4f0b-8040-d5da213f87c0","system_id":"levelo_inurba_marseille","lat":43.29529,"lon":5.385581,"is_reserved":false,"is_disabled":false,"rental_uris":{"android":"levelo://app?vid=abb710c7-fa7d-4f0b-8040-d5da213f87c0","ios":"levelo://app?vid=abb710c7-fa7d-4f0b-8040-d5da213f87c0"},"vehicle_type_id":"4","last_reported":1686478001,"current_range_meters":1600,"station_id":"ce4bgih2rcd13ifvqba0","pricing_plan_id":"free"},{"bike_id":"f09eecd5-7485-424d-94af-ee1d02ba8f8e","system_id":"levelo_inurba_marseille","lat":43.290755,"lon":5.371621,"is_reserved":false,"is_disabled":false,"rental_uris":{"android":"levelo://app?vid=f09eecd5-7485-424d-94af-ee1d02ba8f8e","ios":"levelo://app?vid=f09eecd5-7485-424d-94af-ee1d02ba8f8e"},"vehicle_type_id":"4","last_reported":1686478001,"current_range_meters":21600,"station_id":"","pricing_plan_id":"free"},{"bike_id":"88f46f74-0b58-4b7c-b86f-72940c8acc84","system_id":"levelo_inurba_marseille","lat":43.33449,"lon":5.37458,"is_reserved":false,"is_disabled":false,"rental_uris":{"android":"levelo://app?vid=88f46f74-0b58-4b7c-b86f-72940c8acc84","ios":"levelo://app?vid=88f46f74-0b58-4b7c-b86f-72940c8acc84"},"vehicle_type_id":"4","last_reported":1686478001,"current_range_meters":1600,"station_id":"","pricing_plan_id":"free"},{"bike_id":"93082372-d475-41ee-89bd-9e918058cb3b","system_id":"levelo_inurba_marseille","lat":43.302008,"lon":5.394694,"is_reserved":false,"is_disabled":false,"rental_uris":{"android":"levelo://app?vid=93082372-d475-41ee-89bd-9e918058cb3b","ios":"levelo://app?vid=93082372-d475-41ee-89bd-9e918058cb3b"},"vehicle_type_id":"4","last_reported":1686478001,"current_range_meters":20000,"station_id":"ce4bh0p2rcd13ifvqd70","pricing_plan_id":"free"},{"bike_id":"b53dd95a-0659-4b94-b495-3d83f652ee12","system_id":"levelo_inurba_marseille","lat":43.290327,"lon":5.375711,"is_reserved":false,"is_disabled":false,"rental_uris":{"android":"levelo://app?vid=b53dd95a-0659-4b94-b495-3d83f652ee12","ios":"levelo://app?vid=b53dd95a-0659-4b94-b495-3d83f652ee12"},"vehicle_type_id":"4","last_reported":1686478001,"current_range_meters":0,"station_id":"ce4bh692rcd13ifvqe90","pricing_plan_id":"free"},{"bike_id":"c9ed2382-d98c-4db1-a85f-1e095076b8a6","system_id":"levelo_inurba_marseille","lat":43.294032,"lon":5.386342,"is_reserved":false,"is_disabled":false,"rental_uris":{"android":"levelo://app?vid=c9ed2382-d98c-4db1-a85f-1e095076b8a6","ios":"levelo://app?vid=c9ed2382-d98c-4db1-a85f-1e095076b8a6"},"vehicle_type_id":"4","last_reported":1686478001,"current_range_meters":20400,"station_id":"","pricing_plan_id":"free"},{"bike_id":"74d5c880-1d0c-4ceb-aabd-f9161095274f","system_id":"levelo_inurba_marseille","lat":43.29264,"lon":5.38444,"is_reserved":false,"is_disabled":false,"rental_uris":{"android":"levelo://app?vid=74d5c880-1d0c-4ceb-aabd-f9161095274f","ios":"levelo://app?vid=74d5c880-1d0c-4ceb-aabd-f9161095274f"},"vehicle_type_id":"4","last_reported":1686478001,"current_range_meters":30800,"station_id":"ce4bh692rcd13ifvqea0","pricing_plan_id":"free"},{"bike_id":"4377dcd6-98ee-4ec2-afb7-10b1e3a18b38","system_id":"levelo_inurba_marseille","lat":43.33038,"lon":5.38919,"is_reserved":false,"is_disabled":false,"rental_uris":{"android":"levelo://app?vid=4377dcd6-98ee-4ec2-afb7-10b1e3a18b38","ios":"levelo://app?vid=4377dcd6-98ee-4ec2-afb7-10b1e3a18b38"},"vehicle_type_id":"4","last_reported":1686478001,"current_range_meters":20800,"station_id":"ce4bhr92rcd13ifvqhrg","pricing_plan_id":"free"},{"bike_id":"64f81127-7584-4d13-8c2b-ddb58f27fb4c","system_id":"levelo_inurba_marseille","lat":43.33042,"lon":5.38913,"is_reserved":false,"is_disabled":false,"rental_uris":{"android":"levelo://app?vid=64f81127-7584-4d13-8c2b-ddb58f27fb4c","ios":"levelo://app?vid=64f81127-7584-4d13-8c2b-ddb58f27fb4c"},"vehicle_type_id":"4","last_reported":1686478001,"current_range_meters":25600,"station_id":"ce4bhr92rcd13ifvqhrg","pricing_plan_id":"free"},{"bike_id":"791edcab-44f2-4826-bf51-ee66af80f2ec","system_id":"levelo_inurba_marseille","lat":43.33042,"lon":5.38916,"is_reserved":false,"is_disabled":false,"rental_uris":{"android":"levelo://app?vid=791edcab-44f2-4826-bf51-ee66af80f2ec","ios":"levelo://app?vid=791edcab-44f2-4826-bf51-ee66af80f2ec"},"vehicle_type_id":"4","last_reported":1686478001,"current_range_meters":25200,"station_id":"ce4bhr92rcd13ifvqhrg","pricing_plan_id":"free"},{"bike_id":"8a74edc7-c27c-4999-bd0e-863e43bae0f7","system_id":"levelo_inurba_marseille","lat":43.3304,"lon":5.38921,"is_reserved":false,"is_disabled":false,"rental_uris":{"android":"levelo://app?vid=8a74edc7-c27c-4999-bd0e-863e43bae0f7","ios":"levelo://app?vid=8a74edc7-c27c-4999-bd0e-863e43bae0f7"},"vehicle_type_id":"4","last_reported":1686478001,"current_range_meters":24400,"station_id":"ce4bhr92rcd13ifvqhrg","pricing_plan_id":"free"},{"bike_id":"9c5e6858-421f-4e0e-8152-986ab4399106","system_id":"levelo_inurba_marseille","lat":43.33041,"lon":5.3892,"is_reserved":false,"is_disabled":false,"rental_uris":{"android":"levelo://app?vid=9c5e6858-421f-4e0e-8152-986ab4399106","ios":"levelo://app?vid=9c5e6858-421f-4e0e-8152-986ab4399106"},"vehicle_type_id":"4","last_reported":1686478001,"current_range_meters":24000,"station_id":"ce4bhr92rcd13ifvqhrg","pricing_plan_id":"free"},{"bike_id":"58ff06f7-dc8b-43c6-a149-d6ca7b26677d","system_id":"levelo_inurba_marseille","lat":43.33045,"lon":5.38915,"is_reserved":false,"is_disabled":false,"rental_uris":{"android":"levelo://app?vid=58ff06f7-dc8b-43c6-a149-d6ca7b26677d","ios":"levelo://app?vid=58ff06f7-dc8b-43c6-a149-d6ca7b26677d"},"vehicle_type_id":"4","last_reported":1686478001,"current_range_meters":26400,"station_id":"ce4bhr92rcd13ifvqhrg","pricing_plan_id":"free"},{"bike_id":"e9170bf1-c1d4-4557-956e-3de979f19338","system_id":"levelo_inurba_marseille","lat":43.290057,"lon":5.356213,"is_reserved":false,"is_disabled":false,"rental_uris":{"android":"levelo://app?vid=e9170bf1-c1d4-4557-956e-3de979f19338","ios":"levelo://app?vid=e9170bf1-c1d4-4557-956e-3de979f19338"},"vehicle_type_id":"4","last_reported":1686478001,"current_range_meters":9200,"station_id":"","pricing_plan_id":"free"},{"bike_id":"f5ce4ece-64a0-44e8-b195-d07a1364e948","system_id":"levelo_inurba_marseille","lat":43.33046,"lon":5.38917,"is_reserved":false,"is_disabled":false,"rental_uris":{"android":"levelo://app?vid=f5ce4ece-64a0-44e8-b195-d07a1364e948","ios":"levelo://app?vid=f5ce4ece-64a0-44e8-b195-d07a1364e948"},"vehicle_type_id":"4","last_reported":1686478001,"current_range_meters":22400,"station_id":"ce4bhr92rcd13ifvqhrg","pricing_plan_id":"free"},{"bike_id":"c4a70924-50ca-48f6-be6f-388b7cf78ab7","system_id":"levelo_inurba_marseille","lat":43.33043,"lon":5.38923,"is_reserved":false,"is_disabled":false,"rental_uris":{"android":"levelo://app?vid=c4a70924-50ca-48f6-be6f-388b7cf78ab7","ios":"levelo://app?vid=c4a70924-50ca-48f6-be6f-388b7cf78ab7"},"vehicle_type_id":"4","last_reported":1686478001,"current_range_meters":25600,"station_id":"ce4bhr92rcd13ifvqhrg","pricing_plan_id":"free"},{"bike_id":"04bf548d-fbde-4fd0-8951-4981764fbf55","system_id":"levelo_inurba_marseille","lat":43.33044,"lon":5.38922,"is_reserved":false,"is_disabled":false,"rental_uris":{"android":"levelo://app?vid=04bf548d-fbde-4fd0-8951-4981764fbf55","ios":"levelo://app?vid=04bf548d-fbde-4fd0-8951-4981764fbf55"},"vehicle_type_id":"4","last_reported":1686478001,"current_range_meters":19200,"station_id":"ce4bhr92rcd13ifvqhrg","pricing_plan_id":"free"},{"bike_id":"c73a3ed4-2bfa-40aa-8d43-625a8bfbb599","system_id":"levelo_inurba_marseille","lat":43.295169,"lon":5.390426,"is_reserved":false,"is_disabled":false,"rental_uris":{"android":"levelo://app?vid=c73a3ed4-2bfa-40aa-8d43-625a8bfbb599","ios":"levelo://app?vid=c73a3ed4-2bfa-40aa-8d43-625a8bfbb599"},"vehicle_type_id":"4","last_reported":1686478001,"current_range_meters":8000,"station_id":"ce4bh3p2rcd13ifvqdp0","pricing_plan_id":"free"},{"bike_id":"265c0905-166c-408b-8d33-95a8e86424e1","system_id":"levelo_inurba_marseille","lat":43.337582,"lon":5.374483,"is_reserved":false,"is_disabled":false,"rental_uris":{"android":"levelo://app?vid=265c0905-166c-408b-8d33-95a8e86424e1","ios":"levelo://app?vid=265c0905-166c-408b-8d33-95a8e86424e1"},"vehicle_type_id":"4","last_reported":1686478001,"current_range_meters":12800,"station_id":"","pricing_plan_id":"free"},{"bike_id":"7b92bb4e-c37f-408a-b8c5-8d9651549545","system_id":"levelo_inurba_marseille","lat":43.33758,"lon":5.37481,"is_reserved":false,"is_disabled":false,"rental_uris":{"android":"levelo://app?vid=7b92bb4e-c37f-408a-b8c5-8d9651549545","ios":"levelo://app?vid=7b92bb4e-c37f-408a-b8c5-8d9651549545"},"vehicle_type_id":"4","last_reported":1686478001,"current_range_meters":18400,"station_id":"","pricing_plan_id":"free"},{"bike_id":"dc03ba51-5d22-4ed9-b3ed-9499a80f6bd0","system_id":"levelo_inurba_marseille","lat":43.33765,"lon":5.37443,"is_reserved":false,"is_disabled":false,"rental_uris":{"android":"levelo://app?vid=dc03ba51-5d22-4ed9-b3ed-9499a80f6bd0","ios":"levelo://app?vid=dc03ba51-5d22-4ed9-b3ed-9499a80f6bd0"},"vehicle_type_id":"4","last_reported":1686478001,"current_range_meters":31200,"station_id":"","pricing_plan_id":"free"},{"bike_id":"fb041ec1-b611-46eb-9d8b-3229cfb3396a","system_id":"levelo_inurba_marseille","lat":43.33768,"lon":5.37459,"is_reserved":false,"is_disabled":false,"rental_uris":{"android":"levelo://app?vid=fb041ec1-b611-46eb-9d8b-3229cfb3396a","ios":"levelo://app?vid=fb041ec1-b611-46eb-9d8b-3229cfb3396a"},"vehicle_type_id":"4","last_reported":1686478001,"current_range_meters":20000,"station_id":"","pricing_plan_id":"free"},{"bike_id":"aab767da-c748-452a-858c-9abc6b69301f","system_id":"levelo_inurba_marseille","lat":43.306412,"lon":5.401035,"is_reserved":false,"is_disabled":false,"rental_uris":{"android":"levelo://app?vid=aab767da-c748-452a-858c-9abc6b69301f","ios":"levelo://app?vid=aab767da-c748-452a-858c-9abc6b69301f"},"vehicle_type_id":"4","last_reported":1686478001,"current_range_meters":30000,"station_id":"ce4bh112rcd13ifvqda0","pricing_plan_id":"free"},{"bike_id":"9e11b3dd-6a64-4e3f-9696-ed7186f23b3b","system_id":"levelo_inurba_marseille","lat":43.306412,"lon":5.401035,"is_reserved":false,"is_disabled":false,"rental_uris":{"android":"levelo://app?vid=9e11b3dd-6a64-4e3f-9696-ed7186f23b3b","ios":"levelo://app?vid=9e11b3dd-6a64-4e3f-9696-ed7186f23b3b"},"vehicle_type_id":"4","last_reported":1686478001,"current_range_meters":16800,"station_id":"ce4bh112rcd13ifvqda0","pricing_plan_id":"free"},{"bike_id":"a937443e-5ca6-4b19-843c-f21483ab029c","system_id":"levelo_inurba_marseille","lat":43.302759,"lon":5.400793,"is_reserved":false,"is_disabled":false,"rental_uris":{"android":"levelo://app?vid=a937443e-5ca6-4b19-843c-f21483ab029c","ios":"levelo://app?vid=a937443e-5ca6-4b19-843c-f21483ab029c"},"vehicle_type_id":"4","last_reported":1686478001,"current_range_meters":0,"station_id":"ce4bgvh2rcd13ifvqcs0","pricing_plan_id":"free"},{"bike_id":"c9abb75f-450d-4ba3-8448-fe536eb749dd","system_id":"levelo_inurba_marseille","lat":43.28713,"lon":5.37936,"is_reserved":false,"is_disabled":false,"rental_uris":{"android":"levelo://app?vid=c9abb75f-450d-4ba3-8448-fe536eb749dd","ios":"levelo://app?vid=c9abb75f-450d-4ba3-8448-fe536eb749dd"},"vehicle_type_id":"4","last_reported":1686478001,"current_range_meters":29600,"station_id":"ce4bh9p2rcd13ifvqec0","pricing_plan_id":"free"},{"bike_id":"e5aa0378-64e4-42ca-a619-e2fe954ac5d1","system_id":"levelo_inurba_marseille","lat":43.290336,"lon":5.386425,"is_reserved":false,"is_disabled":false,"rental_uris":{"android":"levelo://app?vid=e5aa0378-64e4-42ca-a619-e2fe954ac5d1","ios":"levelo://app?vid=e5aa0378-64e4-42ca-a619-e2fe954ac5d1"},"vehicle_type_id":"4","last_reported":1686478001,"current_range_meters":11200,"station_id":"ce4bh4p2rcd13ifvqe0g","pricing_plan_id":"free"},{"bike_id":"53474201-565c-4427-88a7-22f55b50e510","system_id":"levelo_inurba_marseille","lat":43.290336,"lon":5.386425,"is_reserved":false,"is_disabled":false,"rental_uris":{"android":"levelo://app?vid=53474201-565c-4427-88a7-22f55b50e510","ios":"levelo://app?vid=53474201-565c-4427-88a7-22f55b50e510"},"vehicle_type_id":"4","last_reported":1686478001,"current_range_meters":19200,"station_id":"ce4bh4p2rcd13ifvqe0g","pricing_plan_id":"free"},{"bike_id":"0549ae45-eed0-4337-8527-ef3af7543578","system_id":"levelo_inurba_marseille","lat":43.286468,"lon":5.350438,"is_reserved":false,"is_disabled":false,"rental_uris":{"android":"levelo://app?vid=0549ae45-eed0-4337-8527-ef3af7543578","ios":"levelo://app?vid=0549ae45-eed0-4337-8527-ef3af7543578"},"vehicle_type_id":"4","last_reported":1686478001,"current_range_meters":22400,"station_id":"","pricing_plan_id":"free"},{"bike_id":"72ae0919-5ef9-4dce-ac1c-8e97ad627e7d","system_id":"levelo_inurba_marseille","lat":43.28617,"lon":5.35106,"is_reserved":false,"is_disabled":false,"rental_uris":{"android":"levelo://app?vid=72ae0919-5ef9-4dce-ac1c-8e97ad627e7d","ios":"levelo://app?vid=72ae0919-5ef9-4dce-ac1c-8e97ad627e7d"},"vehicle_type_id":"4","last_reported":1686478001,"current_range_meters":24400,"station_id":"","pricing_plan_id":"free"},{"bike_id":"bd603ed1-c945-47f4-8355-6e2bb30cf38a","system_id":"levelo_inurba_marseille","lat":43.28616,"lon":5.35106,"is_reserved":false,"is_disabled":false,"rental_uris":{"android":"levelo://app?vid=bd603ed1-c945-47f4-8355-6e2bb30cf38a","ios":"levelo://app?vid=bd603ed1-c945-47f4-8355-6e2bb30cf38a"},"vehicle_type_id":"4","last_reported":1686478001,"current_range_meters":20400,"station_id":"","pricing_plan_id":"free"},{"bike_id":"c4e7b226-fad5-4908-a6a5-768e1efb4d43","system_id":"levelo_inurba_marseille","lat":43.28615,"lon":5.35108,"is_reserved":false,"is_disabled":false,"rental_uris":{"android":"levelo://app?vid=c4e7b226-fad5-4908-a6a5-768e1efb4d43","ios":"levelo://app?vid=c4e7b226-fad5-4908-a6a5-768e1efb4d43"},"vehicle_type_id":"4","last_reported":1686478001,"current_range_meters":5200,"station_id":"","pricing_plan_id":"free"},{"bike_id":"c685d88e-fb0b-46b3-b92d-cdf2c2e9d9ac","system_id":"levelo_inurba_marseille","lat":43.28613,"lon":5.35105,"is_reserved":false,"is_disabled":false,"rental_uris":{"android":"levelo://app?vid=c685d88e-fb0b-46b3-b92d-cdf2c2e9d9ac","ios":"levelo://app?vid=c685d88e-fb0b-46b3-b92d-cdf2c2e9d9ac"},"vehicle_type_id":"4","last_reported":1686478001,"current_range_meters":23200,"station_id":"","pricing_plan_id":"free"},{"bike_id":"fd31c555-60fa-4c91-a5ea-3b99045323ad","system_id":"levelo_inurba_marseille","lat":43.28611,"lon":5.35099,"is_reserved":false,"is_disabled":false,"rental_uris":{"android":"levelo://app?vid=fd31c555-60fa-4c91-a5ea-3b99045323ad","ios":"levelo://app?vid=fd31c555-60fa-4c91-a5ea-3b99045323ad"},"vehicle_type_id":"4","last_reported":1686478001,"current_range_meters":20400,"station_id":"","pricing_plan_id":"free"},{"bike_id":"f6868008-59fd-4239-b954-4fd99ab6f80b","system_id":"levelo_inurba_marseille","lat":43.285856,"lon":5.350771,"is_reserved":false,"is_disabled":false,"rental_uris":{"android":"levelo://app?vid=f6868008-59fd-4239-b954-4fd99ab6f80b","ios":"levelo://app?vid=f6868008-59fd-4239-b954-4fd99ab6f80b"},"vehicle_type_id":"4","last_reported":1686478001,"current_range_meters":27200,"station_id":"ce4bhch2rcd13ifvqeug","pricing_plan_id":"free"},{"bike_id":"dbc31524-4b9f-43c0-8bf5-ce80e33a747c","system_id":"levelo_inurba_marseille","lat":43.296263,"lon":5.40601,"is_reserved":false,"is_disabled":false,"rental_uris":{"android":"levelo://app?vid=dbc31524-4b9f-43c0-8bf5-ce80e33a747c","ios":"levelo://app?vid=dbc31524-4b9f-43c0-8bf5-ce80e33a747c"},"vehicle_type_id":"4","last_reported":1686478001,"current_range_meters":21600,"station_id":"ce4bh0h2rcd13ifvqd60","pricing_plan_id":"free"},{"bike_id":"94783ff9-d63f-4314-a42f-617e764a1b17","system_id":"levelo_inurba_marseille","lat":43.28524,"lon":5.35024,"is_reserved":false,"is_disabled":false,"rental_uris":{"android":"levelo://app?vid=94783ff9-d63f-4314-a42f-617e764a1b17","ios":"levelo://app?vid=94783ff9-d63f-4314-a42f-617e764a1b17"},"vehicle_type_id":"4","last_reported":1686478001,"current_range_meters":10400,"station_id":"ce4bhbh2rcd13ifvqepg","pricing_plan_id":"free"},{"bike_id":"ae232d39-b160-410f-a53c-e104a0631f2e","system_id":"levelo_inurba_marseille","lat":43.323464,"lon":5.406297,"is_reserved":false,"is_disabled":false,"rental_uris":{"android":"levelo://app?vid=ae232d39-b160-410f-a53c-e104a0631f2e","ios":"levelo://app?vid=ae232d39-b160-410f-a53c-e104a0631f2e"},"vehicle_type_id":"4","last_reported":1686478001,"current_range_meters":30800,"station_id":"ce4bhq92rcd13ifvqhjg","pricing_plan_id":"free"},{"bike_id":"157945e7-a5e7-46d6-81e0-3c4112c26dd6","system_id":"levelo_inurba_marseille","lat":43.323464,"lon":5.406297,"is_reserved":false,"is_disabled":false,"rental_uris":{"android":"levelo://app?vid=157945e7-a5e7-46d6-81e0-3c4112c26dd6","ios":"levelo://app?vid=157945e7-a5e7-46d6-81e0-3c4112c26dd6"},"vehicle_type_id":"4","last_reported":1686478001,"current_range_meters":29600,"station_id":"ce4bhq92rcd13ifvqhjg","pricing_plan_id":"free"},{"bike_id":"8e35b5e3-44e6-4423-8b1c-0697ca4f063c","system_id":"levelo_inurba_marseille","lat":43.323464,"lon":5.406297,"is_reserved":false,"is_disabled":false,"rental_uris":{"android":"levelo://app?vid=8e35b5e3-44e6-4423-8b1c-0697ca4f063c","ios":"levelo://app?vid=8e35b5e3-44e6-4423-8b1c-0697ca4f063c"},"vehicle_type_id":"4","last_reported":1686478001,"current_range_meters":22400,"station_id":"ce4bhq92rcd13ifvqhjg","pricing_plan_id":"free"},{"bike_id":"f74e5191-5771-4c20-82f9-b577ae627053","system_id":"levelo_inurba_marseille","lat":43.323464,"lon":5.406297,"is_reserved":false,"is_disabled":false,"rental_uris":{"android":"levelo://app?vid=f74e5191-5771-4c20-82f9-b577ae627053","ios":"levelo://app?vid=f74e5191-5771-4c20-82f9-b577ae627053"},"vehicle_type_id":"4","last_reported":1686478001,"current_range_meters":31200,"station_id":"ce4bhq92rcd13ifvqhjg","pricing_plan_id":"free"},{"bike_id":"f0a3ad06-f877-4848-a800-e3e1b3371c24","system_id":"levelo_inurba_marseille","lat":43.323464,"lon":5.406297,"is_reserved":false,"is_disabled":false,"rental_uris":{"android":"levelo://app?vid=f0a3ad06-f877-4848-a800-e3e1b3371c24","ios":"levelo://app?vid=f0a3ad06-f877-4848-a800-e3e1b3371c24"},"vehicle_type_id":"4","last_reported":1686478001,"current_range_meters":31200,"station_id":"ce4bhq92rcd13ifvqhjg","pricing_plan_id":"free"},{"bike_id":"7d89e3b5-958d-47f6-80fa-adc2175a1ff9","system_id":"levelo_inurba_marseille","lat":43.323464,"lon":5.406297,"is_reserved":false,"is_disabled":false,"rental_uris":{"android":"levelo://app?vid=7d89e3b5-958d-47f6-80fa-adc2175a1ff9","ios":"levelo://app?vid=7d89e3b5-958d-47f6-80fa-adc2175a1ff9"},"vehicle_type_id":"4","last_reported":1686478001,"current_range_meters":28000,"station_id":"ce4bhq92rcd13ifvqhjg","pricing_plan_id":"free"},{"bike_id":"30333e77-7cc7-4ad5-b030-c99c7af00601","system_id":"levelo_inurba_marseille","lat":43.323464,"lon":5.406297,"is_reserved":false,"is_disabled":false,"rental_uris":{"android":"levelo://app?vid=30333e77-7cc7-4ad5-b030-c99c7af00601","ios":"levelo://app?vid=30333e77-7cc7-4ad5-b030-c99c7af00601"},"vehicle_type_id":"4","last_reported":1686478001,"current_range_meters":28400,"station_id":"ce4bhq92rcd13ifvqhjg","pricing_plan_id":"free"},{"bike_id":"06cff570-236d-434b-b41a-bcb364e7356f","system_id":"levelo_inurba_marseille","lat":43.323464,"lon":5.406297,"is_reserved":false,"is_disabled":false,"rental_uris":{"android":"levelo://app?vid=06cff570-236d-434b-b41a-bcb364e7356f","ios":"levelo://app?vid=06cff570-236d-434b-b41a-bcb364e7356f"},"vehicle_type_id":"4","last_reported":1686478001,"current_range_meters":31200,"station_id":"ce4bhq92rcd13ifvqhjg","pricing_plan_id":"free"},{"bike_id":"c28468a8-413f-4ed9-a45b-adaa5a693b09","system_id":"levelo_inurba_marseille","lat":43.284793,"lon":5.384113,"is_reserved":false,"is_disabled":false,"rental_uris":{"android":"levelo://app?vid=c28468a8-413f-4ed9-a45b-adaa5a693b09","ios":"levelo://app?vid=c28468a8-413f-4ed9-a45b-adaa5a693b09"},"vehicle_type_id":"4","last_reported":1686478001,"current_range_meters":29200,"station_id":"ce4bh512rcd13ifvqe3g","pricing_plan_id":"free"},{"bike_id":"1b316864-cf9f-43df-bde1-318be9e988ed","system_id":"levelo_inurba_marseille","lat":43.284219,"lon":5.3497,"is_reserved":false,"is_disabled":false,"rental_uris":{"android":"levelo://app?vid=1b316864-cf9f-43df-bde1-318be9e988ed","ios":"levelo://app?vid=1b316864-cf9f-43df-bde1-318be9e988ed"},"vehicle_type_id":"4","last_reported":1686478001,"current_range_meters":24000,"station_id":"ce4bhbh2rcd13ifvqepg","pricing_plan_id":"free"},{"bike_id":"33118082-67cd-4163-aefd-d0736e7a5838","system_id":"levelo_inurba_marseille","lat":43.284219,"lon":5.3497,"is_reserved":false,"is_disabled":false,"rental_uris":{"android":"levelo://app?vid=33118082-67cd-4163-aefd-d0736e7a5838","ios":"levelo://app?vid=33118082-67cd-4163-aefd-d0736e7a5838"},"vehicle_type_id":"4","last_reported":1686478001,"current_range_meters":0,"station_id":"ce4bhbh2rcd13ifvqepg","pricing_plan_id":"free"},{"bike_id":"5ad7d02d-d7ba-4ddb-8667-ce1b8d83dcef","system_id":"levelo_inurba_marseille","lat":43.284219,"lon":5.3497,"is_reserved":false,"is_disabled":false,"rental_uris":{"android":"levelo://app?vid=5ad7d02d-d7ba-4ddb-8667-ce1b8d83dcef","ios":"levelo://app?vid=5ad7d02d-d7ba-4ddb-8667-ce1b8d83dcef"},"vehicle_type_id":"4","last_reported":1686478001,"current_range_meters":17200,"station_id":"ce4bhbh2rcd13ifvqepg","pricing_plan_id":"free"},{"bike_id":"f6561311-63ae-4d47-996e-47d73e01bb93","system_id":"levelo_inurba_marseille","lat":43.284219,"lon":5.3497,"is_reserved":false,"is_disabled":false,"rental_uris":{"android":"levelo://app?vid=f6561311-63ae-4d47-996e-47d73e01bb93","ios":"levelo://app?vid=f6561311-63ae-4d47-996e-47d73e01bb93"},"vehicle_type_id":"4","last_reported":1686478001,"current_range_meters":13200,"station_id":"ce4bhbh2rcd13ifvqepg","pricing_plan_id":"free"},{"bike_id":"d77e9ca5-91f3-4844-a172-81153a4aa477","system_id":"levelo_inurba_marseille","lat":43.284219,"lon":5.3497,"is_reserved":false,"is_disabled":false,"rental_uris":{"android":"levelo://app?vid=d77e9ca5-91f3-4844-a172-81153a4aa477","ios":"levelo://app?vid=d77e9ca5-91f3-4844-a172-81153a4aa477"},"vehicle_type_id":"4","last_reported":1686478001,"current_range_meters":31200,"station_id":"ce4bhbh2rcd13ifvqepg","pricing_plan_id":"free"},{"bike_id":"75447b6f-d3b4-49fa-a968-11bd6fd0caae","system_id":"levelo_inurba_marseille","lat":43.284219,"lon":5.3497,"is_reserved":false,"is_disabled":false,"rental_uris":{"android":"levelo://app?vid=75447b6f-d3b4-49fa-a968-11bd6fd0caae","ios":"levelo://app?vid=75447b6f-d3b4-49fa-a968-11bd6fd0caae"},"vehicle_type_id":"4","last_reported":1686478001,"current_range_meters":18800,"station_id":"ce4bhbh2rcd13ifvqepg","pricing_plan_id":"free"},{"bike_id":"d0d94f85-211b-41f7-800a-38606db94269","system_id":"levelo_inurba_marseille","lat":43.284217,"lon":5.349697,"is_reserved":false,"is_disabled":false,"rental_uris":{"android":"levelo://app?vid=d0d94f85-211b-41f7-800a-38606db94269","ios":"levelo://app?vid=d0d94f85-211b-41f7-800a-38606db94269"},"vehicle_type_id":"4","last_reported":1686478001,"current_range_meters":12400,"station_id":"ce4bhbh2rcd13ifvqepg","pricing_plan_id":"free"},{"bike_id":"fdcc7f0a-2f93-4de2-a3a6-9b1f970ffb75","system_id":"levelo_inurba_marseille","lat":43.284219,"lon":5.3497,"is_reserved":false,"is_disabled":false,"rental_uris":{"android":"levelo://app?vid=fdcc7f0a-2f93-4de2-a3a6-9b1f970ffb75","ios":"levelo://app?vid=fdcc7f0a-2f93-4de2-a3a6-9b1f970ffb75"},"vehicle_type_id":"4","last_reported":1686478001,"current_range_meters":24000,"station_id":"ce4bhbh2rcd13ifvqepg","pricing_plan_id":"free"},{"bike_id":"a238e6f6-f38e-45aa-8662-51e0908c9032","system_id":"levelo_inurba_marseille","lat":43.28419,"lon":5.34978,"is_reserved":false,"is_disabled":false,"rental_uris":{"android":"levelo://app?vid=a238e6f6-f38e-45aa-8662-51e0908c9032","ios":"levelo://app?vid=a238e6f6-f38e-45aa-8662-51e0908c9032"},"vehicle_type_id":"4","last_reported":1686478001,"current_range_meters":26400,"station_id":"","pricing_plan_id":"free"},{"bike_id":"518f6d54-8f97-4d5e-b453-b7a37776081e","system_id":"levelo_inurba_marseille","lat":43.284219,"lon":5.3497,"is_reserved":false,"is_disabled":false,"rental_uris":{"android":"levelo://app?vid=518f6d54-8f97-4d5e-b453-b7a37776081e","ios":"levelo://app?vid=518f6d54-8f97-4d5e-b453-b7a37776081e"},"vehicle_type_id":"4","last_reported":1686478001,"current_range_meters":23200,"station_id":"ce4bhbh2rcd13ifvqepg","pricing_plan_id":"free"},{"bike_id":"d2f43775-6c77-4a5d-960b-c463b05e2816","system_id":"levelo_inurba_marseille","lat":43.284217,"lon":5.349697,"is_reserved":false,"is_disabled":false,"rental_uris":{"android":"levelo://app?vid=d2f43775-6c77-4a5d-960b-c463b05e2816","ios":"levelo://app?vid=d2f43775-6c77-4a5d-960b-c463b05e2816"},"vehicle_type_id":"4","last_reported":1686478001,"current_range_meters":18000,"station_id":"ce4bhbh2rcd13ifvqepg","pricing_plan_id":"free"},{"bike_id":"ad3f3be9-dc5d-4e40-953a-dce8f19b5b0f","system_id":"levelo_inurba_marseille","lat":43.284217,"lon":5.349697,"is_reserved":false,"is_disabled":false,"rental_uris":{"android":"levelo://app?vid=ad3f3be9-dc5d-4e40-953a-dce8f19b5b0f","ios":"levelo://app?vid=ad3f3be9-dc5d-4e40-953a-dce8f19b5b0f"},"vehicle_type_id":"4","last_reported":1686478001,"current_range_meters":16000,"station_id":"ce4bhbh2rcd13ifvqepg","pricing_plan_id":"free"},{"bike_id":"96156bfa-b580-4896-8e53-432b02a2fc27","system_id":"levelo_inurba_marseille","lat":43.284217,"lon":5.349697,"is_reserved":false,"is_disabled":false,"rental_uris":{"android":"levelo://app?vid=96156bfa-b580-4896-8e53-432b02a2fc27","ios":"levelo://app?vid=96156bfa-b580-4896-8e53-432b02a2fc27"},"vehicle_type_id":"4","last_reported":1686478001,"current_range_meters":31200,"station_id":"ce4bhbh2rcd13ifvqepg","pricing_plan_id":"free"},{"bike_id":"812f743a-a69f-4658-b3cc-065ecb02a8c8","system_id":"levelo_inurba_marseille","lat":43.284217,"lon":5.349697,"is_reserved":false,"is_disabled":false,"rental_uris":{"android":"levelo://app?vid=812f743a-a69f-4658-b3cc-065ecb02a8c8","ios":"levelo://app?vid=812f743a-a69f-4658-b3cc-065ecb02a8c8"},"vehicle_type_id":"4","last_reported":1686478001,"current_range_meters":23600,"station_id":"ce4bhbh2rcd13ifvqepg","pricing_plan_id":"free"},{"bike_id":"3eb881e3-ecbd-45ea-af80-e0bf1a3b0805","system_id":"levelo_inurba_marseille","lat":43.283502,"lon":5.386471,"is_reserved":false,"is_disabled":false,"rental_uris":{"android":"levelo://app?vid=3eb881e3-ecbd-45ea-af80-e0bf1a3b0805","ios":"levelo://app?vid=3eb881e3-ecbd-45ea-af80-e0bf1a3b0805"},"vehicle_type_id":"4","last_reported":1686478001,"current_range_meters":31200,"station_id":"ce4bh492rcd13ifvqdvg","pricing_plan_id":"free"},{"bike_id":"e7a35e22-f726-47b6-bb37-b6773f03cae8","system_id":"levelo_inurba_marseille","lat":43.282744,"lon":5.350533,"is_reserved":false,"is_disabled":false,"rental_uris":{"android":"levelo://app?vid=e7a35e22-f726-47b6-bb37-b6773f03cae8","ios":"levelo://app?vid=e7a35e22-f726-47b6-bb37-b6773f03cae8"},"vehicle_type_id":"4","last_reported":1686478001,"current_range_meters":30000,"station_id":"ce4bhbp2rcd13ifvqerg","pricing_plan_id":"free"},{"bike_id":"c8bab56c-fef0-447e-ae68-d91a806f65ec","system_id":"levelo_inurba_marseille","lat":43.28268,"lon":5.35088,"is_reserved":false,"is_disabled":false,"rental_uris":{"android":"levelo://app?vid=c8bab56c-fef0-447e-ae68-d91a806f65ec","ios":"levelo://app?vid=c8bab56c-fef0-447e-ae68-d91a806f65ec"},"vehicle_type_id":"4","last_reported":1686478001,"current_range_meters":28000,"station_id":"ce4bhbp2rcd13ifvqerg","pricing_plan_id":"free"},{"bike_id":"058cc7f3-2efc-4043-b087-4f13992647e2","system_id":"levelo_inurba_marseille","lat":43.28276,"lon":5.35059,"is_reserved":false,"is_disabled":false,"rental_uris":{"android":"levelo://app?vid=058cc7f3-2efc-4043-b087-4f13992647e2","ios":"levelo://app?vid=058cc7f3-2efc-4043-b087-4f13992647e2"},"vehicle_type_id":"4","last_reported":1686478001,"current_range_meters":22000,"station_id":"ce4bhbp2rcd13ifvqerg","pricing_plan_id":"free"},{"bike_id":"35390122-4b35-4f5d-978c-052c478b56e0","system_id":"levelo_inurba_marseille","lat":43.28273,"lon":5.35063,"is_reserved":false,"is_disabled":false,"rental_uris":{"android":"levelo://app?vid=35390122-4b35-4f5d-978c-052c478b56e0","ios":"levelo://app?vid=35390122-4b35-4f5d-978c-052c478b56e0"},"vehicle_type_id":"4","last_reported":1686478001,"current_range_meters":30000,"station_id":"ce4bhbp2rcd13ifvqerg","pricing_plan_id":"free"},{"bike_id":"7d658a7e-496f-4f88-8dbd-c494f53f928b","system_id":"levelo_inurba_marseille","lat":43.28272,"lon":5.35066,"is_reserved":false,"is_disabled":false,"rental_uris":{"android":"levelo://app?vid=7d658a7e-496f-4f88-8dbd-c494f53f928b","ios":"levelo://app?vid=7d658a7e-496f-4f88-8dbd-c494f53f928b"},"vehicle_type_id":"4","last_reported":1686478001,"current_range_meters":6000,"station_id":"ce4bhbp2rcd13ifvqerg","pricing_plan_id":"free"},{"bike_id":"661872de-4c57-40e8-ba2f-e64c3621d460","system_id":"levelo_inurba_marseille","lat":43.282744,"lon":5.350533,"is_reserved":false,"is_disabled":false,"rental_uris":{"android":"levelo://app?vid=661872de-4c57-40e8-ba2f-e64c3621d460","ios":"levelo://app?vid=661872de-4c57-40e8-ba2f-e64c3621d460"},"vehicle_type_id":"4","last_reported":1686478001,"current_range_meters":16000,"station_id":"ce4bhbp2rcd13ifvqerg","pricing_plan_id":"free"},{"bike_id":"b1965947-7318-49eb-94ef-5aaa9a2adf3d","system_id":"levelo_inurba_marseille","lat":43.282744,"lon":5.350533,"is_reserved":false,"is_disabled":false,"rental_uris":{"android":"levelo://app?vid=b1965947-7318-49eb-94ef-5aaa9a2adf3d","ios":"levelo://app?vid=b1965947-7318-49eb-94ef-5aaa9a2adf3d"},"vehicle_type_id":"4","last_reported":1686478001,"current_range_meters":17600,"station_id":"ce4bhbp2rcd13ifvqerg","pricing_plan_id":"free"},{"bike_id":"986b7c55-f006-484d-8ec6-243ffdc02348","system_id":"levelo_inurba_marseille","lat":43.28269,"lon":5.35071,"is_reserved":false,"is_disabled":false,"rental_uris":{"android":"levelo://app?vid=986b7c55-f006-484d-8ec6-243ffdc02348","ios":"levelo://app?vid=986b7c55-f006-484d-8ec6-243ffdc02348"},"vehicle_type_id":"4","last_reported":1686478001,"current_range_meters":20400,"station_id":"ce4bhbp2rcd13ifvqerg","pricing_plan_id":"free"},{"bike_id":"e16d6839-4f33-48d4-9b2d-9b27bb9853a7","system_id":"levelo_inurba_marseille","lat":43.28271,"lon":5.35062,"is_reserved":false,"is_disabled":false,"rental_uris":{"android":"levelo://app?vid=e16d6839-4f33-48d4-9b2d-9b27bb9853a7","ios":"levelo://app?vid=e16d6839-4f33-48d4-9b2d-9b27bb9853a7"},"vehicle_type_id":"4","last_reported":1686478001,"current_range_meters":31200,"station_id":"ce4bhbp2rcd13ifvqerg","pricing_plan_id":"free"},{"bike_id":"1e68bb74-5f1b-4319-85c6-f8e1c7421752","system_id":"levelo_inurba_marseille","lat":43.282744,"lon":5.350533,"is_reserved":false,"is_disabled":false,"rental_uris":{"android":"levelo://app?vid=1e68bb74-5f1b-4319-85c6-f8e1c7421752","ios":"levelo://app?vid=1e68bb74-5f1b-4319-85c6-f8e1c7421752"},"vehicle_type_id":"4","last_reported":1686478001,"current_range_meters":19600,"station_id":"ce4bhbp2rcd13ifvqerg","pricing_plan_id":"free"},{"bike_id":"f2e9ce1d-89b1-46a5-9c91-2a819de868fd","system_id":"levelo_inurba_marseille","lat":43.28266,"lon":5.35075,"is_reserved":false,"is_disabled":false,"rental_uris":{"android":"levelo://app?vid=f2e9ce1d-89b1-46a5-9c91-2a819de868fd","ios":"levelo://app?vid=f2e9ce1d-89b1-46a5-9c91-2a819de868fd"},"vehicle_type_id":"4","last_reported":1686478001,"current_range_meters":27200,"station_id":"ce4bhbp2rcd13ifvqerg","pricing_plan_id":"free"},{"bike_id":"9f4f5d15-3299-4159-8a94-653ea55dad87","system_id":"levelo_inurba_marseille","lat":43.2827,"lon":5.3506,"is_reserved":false,"is_disabled":false,"rental_uris":{"android":"levelo://app?vid=9f4f5d15-3299-4159-8a94-653ea55dad87","ios":"levelo://app?vid=9f4f5d15-3299-4159-8a94-653ea55dad87"},"vehicle_type_id":"4","last_reported":1686478001,"current_range_meters":12800,"station_id":"ce4bhbp2rcd13ifvqerg","pricing_plan_id":"free"},{"bike_id":"c3b32c27-4927-47ab-9c91-eae56ce43208","system_id":"levelo_inurba_marseille","lat":43.282744,"lon":5.350533,"is_reserved":false,"is_disabled":false,"rental_uris":{"android":"levelo://app?vid=c3b32c27-4927-47ab-9c91-eae56ce43208","ios":"levelo://app?vid=c3b32c27-4927-47ab-9c91-eae56ce43208"},"vehicle_type_id":"4","last_reported":1686478001,"current_range_meters":26400,"station_id":"ce4bhbp2rcd13ifvqerg","pricing_plan_id":"free"},{"bike_id":"5e714319-0e25-411d-888f-e525aed9d320","system_id":"levelo_inurba_marseille","lat":43.282744,"lon":5.350533,"is_reserved":false,"is_disabled":false,"rental_uris":{"android":"levelo://app?vid=5e714319-0e25-411d-888f-e525aed9d320","ios":"levelo://app?vid=5e714319-0e25-411d-888f-e525aed9d320"},"vehicle_type_id":"4","last_reported":1686478001,"current_range_meters":1200,"station_id":"ce4bhbp2rcd13ifvqerg","pricing_plan_id":"free"},{"bike_id":"d6e026f5-f119-4fac-8b12-8217d402ad83","system_id":"levelo_inurba_marseille","lat":43.282744,"lon":5.350533,"is_reserved":false,"is_disabled":false,"rental_uris":{"android":"levelo://app?vid=d6e026f5-f119-4fac-8b12-8217d402ad83","ios":"levelo://app?vid=d6e026f5-f119-4fac-8b12-8217d402ad83"},"vehicle_type_id":"4","last_reported":1686478001,"current_range_meters":16400,"station_id":"ce4bhbp2rcd13ifvqerg","pricing_plan_id":"free"},{"bike_id":"9f8f82da-3a77-45d3-9aad-1869b637d6a7","system_id":"levelo_inurba_marseille","lat":43.282754,"lon":5.350519,"is_reserved":false,"is_disabled":false,"rental_uris":{"android":"levelo://app?vid=9f8f82da-3a77-45d3-9aad-1869b637d6a7","ios":"levelo://app?vid=9f8f82da-3a77-45d3-9aad-1869b637d6a7"},"vehicle_type_id":"4","last_reported":1686478001,"current_range_meters":28000,"station_id":"ce4bhbp2rcd13ifvqerg","pricing_plan_id":"free"},{"bike_id":"a003cda6-a199-49e1-bd7c-978564831a47","system_id":"levelo_inurba_marseille","lat":43.282744,"lon":5.350533,"is_reserved":false,"is_disabled":false,"rental_uris":{"android":"levelo://app?vid=a003cda6-a199-49e1-bd7c-978564831a47","ios":"levelo://app?vid=a003cda6-a199-49e1-bd7c-978564831a47"},"vehicle_type_id":"4","last_reported":1686478001,"current_range_meters":28400,"station_id":"ce4bhbp2rcd13ifvqerg","pricing_plan_id":"free"},{"bike_id":"52d5d330-348c-4914-a376-2e142cb1b670","system_id":"levelo_inurba_marseille","lat":43.28265,"lon":5.35067,"is_reserved":false,"is_disabled":false,"rental_uris":{"android":"levelo://app?vid=52d5d330-348c-4914-a376-2e142cb1b670","ios":"levelo://app?vid=52d5d330-348c-4914-a376-2e142cb1b670"},"vehicle_type_id":"4","last_reported":1686478001,"current_range_meters":17200,"station_id":"ce4bhbp2rcd13ifvqerg","pricing_plan_id":"free"},{"bike_id":"f6a92a74-5569-481d-bd1b-8f47a6421dce","system_id":"levelo_inurba_marseille","lat":43.28264,"lon":5.3507,"is_reserved":false,"is_disabled":false,"rental_uris":{"android":"levelo://app?vid=f6a92a74-5569-481d-bd1b-8f47a6421dce","ios":"levelo://app?vid=f6a92a74-5569-481d-bd1b-8f47a6421dce"},"vehicle_type_id":"4","last_reported":1686478001,"current_range_meters":19600,"station_id":"ce4bhbp2rcd13ifvqerg","pricing_plan_id":"free"},{"bike_id":"42cadd5d-44f3-47cf-b649-7d543c7b68db","system_id":"levelo_inurba_marseille","lat":43.282744,"lon":5.350533,"is_reserved":false,"is_disabled":false,"rental_uris":{"android":"levelo://app?vid=42cadd5d-44f3-47cf-b649-7d543c7b68db","ios":"levelo://app?vid=42cadd5d-44f3-47cf-b649-7d543c7b68db"},"vehicle_type_id":"4","last_reported":1686478001,"current_range_meters":11600,"station_id":"ce4bhbp2rcd13ifvqerg","pricing_plan_id":"free"},{"bike_id":"5d77eab8-5ce3-4859-81cb-f99f2967abb2","system_id":"levelo_inurba_marseille","lat":43.282744,"lon":5.350533,"is_reserved":false,"is_disabled":false,"rental_uris":{"android":"levelo://app?vid=5d77eab8-5ce3-4859-81cb-f99f2967abb2","ios":"levelo://app?vid=5d77eab8-5ce3-4859-81cb-f99f2967abb2"},"vehicle_type_id":"4","last_reported":1686478001,"current_range_meters":24400,"station_id":"ce4bhbp2rcd13ifvqerg","pricing_plan_id":"free"},{"bike_id":"c6ad8d10-50f1-4fc3-bee0-a0c81d8a3a24","system_id":"levelo_inurba_marseille","lat":43.28039,"lon":5.369297,"is_reserved":false,"is_disabled":false,"rental_uris":{"android":"levelo://app?vid=c6ad8d10-50f1-4fc3-bee0-a0c81d8a3a24","ios":"levelo://app?vid=c6ad8d10-50f1-4fc3-bee0-a0c81d8a3a24"},"vehicle_type_id":"4","last_reported":1686478001,"current_range_meters":18000,"station_id":"ce4bha12rcd13ifvqef0","pricing_plan_id":"free"},{"bike_id":"0740704f-2502-4efa-9cc7-16abcf425eac","system_id":"levelo_inurba_marseille","lat":43.280382,"lon":5.369291,"is_reserved":false,"is_disabled":false,"rental_uris":{"android":"levelo://app?vid=0740704f-2502-4efa-9cc7-16abcf425eac","ios":"levelo://app?vid=0740704f-2502-4efa-9cc7-16abcf425eac"},"vehicle_type_id":"4","last_reported":1686478001,"current_range_meters":23200,"station_id":"ce4bha12rcd13ifvqef0","pricing_plan_id":"free"},{"bike_id":"892204be-1596-43c0-b6df-b33300638a1e","system_id":"levelo_inurba_marseille","lat":43.320045,"lon":5.415046,"is_reserved":false,"is_disabled":false,"rental_uris":{"android":"levelo://app?vid=892204be-1596-43c0-b6df-b33300638a1e","ios":"levelo://app?vid=892204be-1596-43c0-b6df-b33300638a1e"},"vehicle_type_id":"4","last_reported":1686478001,"current_range_meters":31200,"station_id":"ce4bhq92rcd13ifvqhkg","pricing_plan_id":"free"},{"bike_id":"5324c499-543c-4927-87be-483ca946f3a0","system_id":"levelo_inurba_marseille","lat":43.320045,"lon":5.415048,"is_reserved":false,"is_disabled":false,"rental_uris":{"android":"levelo://app?vid=5324c499-543c-4927-87be-483ca946f3a0","ios":"levelo://app?vid=5324c499-543c-4927-87be-483ca946f3a0"},"vehicle_type_id":"4","last_reported":1686478001,"current_range_meters":31200,"station_id":"ce4bhq92rcd13ifvqhkg","pricing_plan_id":"free"},{"bike_id":"a0f99a13-ad13-4025-9b02-814503c605f9","system_id":"levelo_inurba_marseille","lat":43.320045,"lon":5.415046,"is_reserved":false,"is_disabled":false,"rental_uris":{"android":"levelo://app?vid=a0f99a13-ad13-4025-9b02-814503c605f9","ios":"levelo://app?vid=a0f99a13-ad13-4025-9b02-814503c605f9"},"vehicle_type_id":"4","last_reported":1686478001,"current_range_meters":30000,"station_id":"ce4bhq92rcd13ifvqhkg","pricing_plan_id":"free"},{"bike_id":"5e90c9a9-1258-42b4-a356-14dc786d3bae","system_id":"levelo_inurba_marseille","lat":43.320045,"lon":5.415046,"is_reserved":false,"is_disabled":false,"rental_uris":{"android":"levelo://app?vid=5e90c9a9-1258-42b4-a356-14dc786d3bae","ios":"levelo://app?vid=5e90c9a9-1258-42b4-a356-14dc786d3bae"},"vehicle_type_id":"4","last_reported":1686478001,"current_range_meters":31200,"station_id":"ce4bhq92rcd13ifvqhkg","pricing_plan_id":"free"},{"bike_id":"8d25535e-f116-4f8c-83e9-e57607a567cf","system_id":"levelo_inurba_marseille","lat":43.320045,"lon":5.415048,"is_reserved":false,"is_disabled":false,"rental_uris":{"android":"levelo://app?vid=8d25535e-f116-4f8c-83e9-e57607a567cf","ios":"levelo://app?vid=8d25535e-f116-4f8c-83e9-e57607a567cf"},"vehicle_type_id":"4","last_reported":1686478001,"current_range_meters":31200,"station_id":"ce4bhq92rcd13ifvqhkg","pricing_plan_id":"free"},{"bike_id":"68a42c08-bb82-4706-9431-31a9c4d00abd","system_id":"levelo_inurba_marseille","lat":43.3206,"lon":5.41554,"is_reserved":false,"is_disabled":false,"rental_uris":{"android":"levelo://app?vid=68a42c08-bb82-4706-9431-31a9c4d00abd","ios":"levelo://app?vid=68a42c08-bb82-4706-9431-31a9c4d00abd"},"vehicle_type_id":"4","last_reported":1686478001,"current_range_meters":17600,"station_id":"","pricing_plan_id":"free"},{"bike_id":"871681c5-a066-4cdf-b811-85b0fc822323","system_id":"levelo_inurba_marseille","lat":43.320045,"lon":5.415046,"is_reserved":false,"is_disabled":false,"rental_uris":{"android":"levelo://app?vid=871681c5-a066-4cdf-b811-85b0fc822323","ios":"levelo://app?vid=871681c5-a066-4cdf-b811-85b0fc822323"},"vehicle_type_id":"4","last_reported":1686478001,"current_range_meters":30400,"station_id":"ce4bhq92rcd13ifvqhkg","pricing_plan_id":"free"},{"bike_id":"e177311a-0b00-473f-b511-46979edcd3b9","system_id":"levelo_inurba_marseille","lat":43.32059,"lon":5.41563,"is_reserved":false,"is_disabled":false,"rental_uris":{"android":"levelo://app?vid=e177311a-0b00-473f-b511-46979edcd3b9","ios":"levelo://app?vid=e177311a-0b00-473f-b511-46979edcd3b9"},"vehicle_type_id":"4","last_reported":1686478001,"current_range_meters":30400,"station_id":"","pricing_plan_id":"free"},{"bike_id":"752107fa-834a-4c82-9c26-d221ef3d32dc","system_id":"levelo_inurba_marseille","lat":43.320045,"lon":5.415046,"is_reserved":false,"is_disabled":false,"rental_uris":{"android":"levelo://app?vid=752107fa-834a-4c82-9c26-d221ef3d32dc","ios":"levelo://app?vid=752107fa-834a-4c82-9c26-d221ef3d32dc"},"vehicle_type_id":"4","last_reported":1686478001,"current_range_meters":29200,"station_id":"ce4bhq92rcd13ifvqhkg","pricing_plan_id":"free"},{"bike_id":"57407a92-2927-4339-b585-c98a1d12c047","system_id":"levelo_inurba_marseille","lat":43.32051,"lon":5.41571,"is_reserved":false,"is_disabled":false,"rental_uris":{"android":"levelo://app?vid=57407a92-2927-4339-b585-c98a1d12c047","ios":"levelo://app?vid=57407a92-2927-4339-b585-c98a1d12c047"},"vehicle_type_id":"4","last_reported":1686478001,"current_range_meters":28000,"station_id":"","pricing_plan_id":"free"},{"bike_id":"583543eb-b0bf-4785-8b1e-96cd4f7bb70e","system_id":"levelo_inurba_marseille","lat":43.320045,"lon":5.415046,"is_reserved":false,"is_disabled":false,"rental_uris":{"android":"levelo://app?vid=583543eb-b0bf-4785-8b1e-96cd4f7bb70e","ios":"levelo://app?vid=583543eb-b0bf-4785-8b1e-96cd4f7bb70e"},"vehicle_type_id":"4","last_reported":1686478001,"current_range_meters":30000,"station_id":"ce4bhq92rcd13ifvqhkg","pricing_plan_id":"free"},{"bike_id":"cd1470dc-86cf-43aa-b307-a0b8186c3d70","system_id":"levelo_inurba_marseille","lat":43.2926,"lon":5.40904,"is_reserved":false,"is_disabled":false,"rental_uris":{"android":"levelo://app?vid=cd1470dc-86cf-43aa-b307-a0b8186c3d70","ios":"levelo://app?vid=cd1470dc-86cf-43aa-b307-a0b8186c3d70"},"vehicle_type_id":"4","last_reported":1686478001,"current_range_meters":15600,"station_id":"ce4bh192rcd13ifvqdc0","pricing_plan_id":"free"},{"bike_id":"251d6fe2-ba99-4b65-9742-9f67d8d2e41a","system_id":"levelo_inurba_marseille","lat":43.292569,"lon":5.409107,"is_reserved":false,"is_disabled":false,"rental_uris":{"android":"levelo://app?vid=251d6fe2-ba99-4b65-9742-9f67d8d2e41a","ios":"levelo://app?vid=251d6fe2-ba99-4b65-9742-9f67d8d2e41a"},"vehicle_type_id":"4","last_reported":1686478001,"current_range_meters":22000,"station_id":"ce4bh192rcd13ifvqdc0","pricing_plan_id":"free"},{"bike_id":"de9c86fe-b9b5-4708-88b1-5076944a2c3f","system_id":"levelo_inurba_marseille","lat":43.29263,"lon":5.40919,"is_reserved":false,"is_disabled":false,"rental_uris":{"android":"levelo://app?vid=de9c86fe-b9b5-4708-88b1-5076944a2c3f","ios":"levelo://app?vid=de9c86fe-b9b5-4708-88b1-5076944a2c3f"},"vehicle_type_id":"4","last_reported":1686478001,"current_range_meters":8000,"station_id":"ce4bh192rcd13ifvqdc0","pricing_plan_id":"free"},{"bike_id":"c0d2610d-dc6d-44ee-b961-a7c309cc7ad1","system_id":"levelo_inurba_marseille","lat":43.325233,"lon":5.414318,"is_reserved":false,"is_disabled":false,"rental_uris":{"android":"levelo://app?vid=c0d2610d-dc6d-44ee-b961-a7c309cc7ad1","ios":"levelo://app?vid=c0d2610d-dc6d-44ee-b961-a7c309cc7ad1"},"vehicle_type_id":"4","last_reported":1686478001,"current_range_meters":31200,"station_id":"ce4bhq12rcd13ifvqhhg","pricing_plan_id":"free"},{"bike_id":"f529634b-d73e-4fc4-be85-373ffe670917","system_id":"levelo_inurba_marseille","lat":43.303837,"lon":5.418724,"is_reserved":false,"is_disabled":false,"rental_uris":{"android":"levelo://app?vid=f529634b-d73e-4fc4-be85-373ffe670917","ios":"levelo://app?vid=f529634b-d73e-4fc4-be85-373ffe670917"},"vehicle_type_id":"4","last_reported":1686478001,"current_range_meters":17600,"station_id":"ce4bhop2rcd13ifvqh7g","pricing_plan_id":"free"},{"bike_id":"525170d6-6764-4794-a32e-d7a1106f32c5","system_id":"levelo_inurba_marseille","lat":43.303837,"lon":5.418724,"is_reserved":false,"is_disabled":false,"rental_uris":{"android":"levelo://app?vid=525170d6-6764-4794-a32e-d7a1106f32c5","ios":"levelo://app?vid=525170d6-6764-4794-a32e-d7a1106f32c5"},"vehicle_type_id":"4","last_reported":1686478001,"current_range_meters":29600,"station_id":"ce4bhop2rcd13ifvqh7g","pricing_plan_id":"free"},{"bike_id":"64fecba5-77af-40bd-bbee-3c7a7ff40af5","system_id":"levelo_inurba_marseille","lat":43.27571,"lon":5.38412,"is_reserved":false,"is_disabled":false,"rental_uris":{"android":"levelo://app?vid=64fecba5-77af-40bd-bbee-3c7a7ff40af5","ios":"levelo://app?vid=64fecba5-77af-40bd-bbee-3c7a7ff40af5"},"vehicle_type_id":"4","last_reported":1686478001,"current_range_meters":28400,"station_id":"","pricing_plan_id":"free"},{"bike_id":"7323385c-ba33-4979-8a55-7018a29bfec3","system_id":"levelo_inurba_marseille","lat":43.273613,"lon":5.362705,"is_reserved":false,"is_disabled":false,"rental_uris":{"android":"levelo://app?vid=7323385c-ba33-4979-8a55-7018a29bfec3","ios":"levelo://app?vid=7323385c-ba33-4979-8a55-7018a29bfec3"},"vehicle_type_id":"4","last_reported":1686478001,"current_range_meters":21600,"station_id":"ce4bhbh2rcd13ifvqeo0","pricing_plan_id":"free"},{"bike_id":"17206544-7f31-45c4-827f-798ba27bbe63","system_id":"levelo_inurba_marseille","lat":43.27377,"lon":5.36255,"is_reserved":false,"is_disabled":false,"rental_uris":{"android":"levelo://app?vid=17206544-7f31-45c4-827f-798ba27bbe63","ios":"levelo://app?vid=17206544-7f31-45c4-827f-798ba27bbe63"},"vehicle_type_id":"4","last_reported":1686478001,"current_range_meters":25600,"station_id":"","pricing_plan_id":"free"},{"bike_id":"9ed07862-b440-4c3a-ba4e-a38a9f689013","system_id":"levelo_inurba_marseille","lat":43.273613,"lon":5.362705,"is_reserved":false,"is_disabled":false,"rental_uris":{"android":"levelo://app?vid=9ed07862-b440-4c3a-ba4e-a38a9f689013","ios":"levelo://app?vid=9ed07862-b440-4c3a-ba4e-a38a9f689013"},"vehicle_type_id":"4","last_reported":1686478001,"current_range_meters":16000,"station_id":"ce4bhbh2rcd13ifvqeo0","pricing_plan_id":"free"},{"bike_id":"61c13241-c534-42a2-a6c9-a68762feb8da","system_id":"levelo_inurba_marseille","lat":43.273613,"lon":5.362705,"is_reserved":false,"is_disabled":false,"rental_uris":{"android":"levelo://app?vid=61c13241-c534-42a2-a6c9-a68762feb8da","ios":"levelo://app?vid=61c13241-c534-42a2-a6c9-a68762feb8da"},"vehicle_type_id":"4","last_reported":1686478001,"current_range_meters":30000,"station_id":"ce4bhbh2rcd13ifvqeo0","pricing_plan_id":"free"},{"bike_id":"5f487c44-6ea4-4ea4-b58f-ef12e333aecd","system_id":"levelo_inurba_marseille","lat":43.273613,"lon":5.362705,"is_reserved":false,"is_disabled":false,"rental_uris":{"android":"levelo://app?vid=5f487c44-6ea4-4ea4-b58f-ef12e333aecd","ios":"levelo://app?vid=5f487c44-6ea4-4ea4-b58f-ef12e333aecd"},"vehicle_type_id":"4","last_reported":1686478001,"current_range_meters":27600,"station_id":"ce4bhbh2rcd13ifvqeo0","pricing_plan_id":"free"},{"bike_id":"2e611b82-9ce5-47ae-b5f0-14f6539be3f3","system_id":"levelo_inurba_marseille","lat":43.273613,"lon":5.362705,"is_reserved":false,"is_disabled":false,"rental_uris":{"android":"levelo://app?vid=2e611b82-9ce5-47ae-b5f0-14f6539be3f3","ios":"levelo://app?vid=2e611b82-9ce5-47ae-b5f0-14f6539be3f3"},"vehicle_type_id":"4","last_reported":1686478001,"current_range_meters":30000,"station_id":"ce4bhbh2rcd13ifvqeo0","pricing_plan_id":"free"},{"bike_id":"bc60f806-6111-4ecc-bd3c-b8bac80b791a","system_id":"levelo_inurba_marseille","lat":43.273609,"lon":5.362708,"is_reserved":false,"is_disabled":false,"rental_uris":{"android":"levelo://app?vid=bc60f806-6111-4ecc-bd3c-b8bac80b791a","ios":"levelo://app?vid=bc60f806-6111-4ecc-bd3c-b8bac80b791a"},"vehicle_type_id":"4","last_reported":1686478001,"current_range_meters":28400,"station_id":"ce4bhbh2rcd13ifvqeo0","pricing_plan_id":"free"},{"bike_id":"c2a2d9c4-e143-425a-a538-1da9d7abaeeb","system_id":"levelo_inurba_marseille","lat":43.273609,"lon":5.362708,"is_reserved":false,"is_disabled":false,"rental_uris":{"android":"levelo://app?vid=c2a2d9c4-e143-425a-a538-1da9d7abaeeb","ios":"levelo://app?vid=c2a2d9c4-e143-425a-a538-1da9d7abaeeb"},"vehicle_type_id":"4","last_reported":1686478001,"current_range_meters":22400,"station_id":"ce4bhbh2rcd13ifvqeo0","pricing_plan_id":"free"},{"bike_id":"67cf4d0c-61ed-4760-8b09-12a8d477a7d9","system_id":"levelo_inurba_marseille","lat":43.27563,"lon":5.38419,"is_reserved":false,"is_disabled":false,"rental_uris":{"android":"levelo://app?vid=67cf4d0c-61ed-4760-8b09-12a8d477a7d9","ios":"levelo://app?vid=67cf4d0c-61ed-4760-8b09-12a8d477a7d9"},"vehicle_type_id":"4","last_reported":1686478001,"current_range_meters":22000,"station_id":"","pricing_plan_id":"free"},{"bike_id":"c368b579-605f-4156-9edc-e72a0d646292","system_id":"levelo_inurba_marseille","lat":43.273613,"lon":5.362705,"is_reserved":false,"is_disabled":false,"rental_uris":{"android":"levelo://app?vid=c368b579-605f-4156-9edc-e72a0d646292","ios":"levelo://app?vid=c368b579-605f-4156-9edc-e72a0d646292"},"vehicle_type_id":"4","last_reported":1686478001,"current_range_meters":30400,"station_id":"ce4bhbh2rcd13ifvqeo0","pricing_plan_id":"free"},{"bike_id":"d1c25dd0-6119-4742-a0ae-fe7f3155e5d5","system_id":"levelo_inurba_marseille","lat":43.273613,"lon":5.362705,"is_reserved":false,"is_disabled":false,"rental_uris":{"android":"levelo://app?vid=d1c25dd0-6119-4742-a0ae-fe7f3155e5d5","ios":"levelo://app?vid=d1c25dd0-6119-4742-a0ae-fe7f3155e5d5"},"vehicle_type_id":"4","last_reported":1686478001,"current_range_meters":31200,"station_id":"ce4bhbh2rcd13ifvqeo0","pricing_plan_id":"free"},{"bike_id":"12af7b98-9ca5-4801-a4de-76b5f6350c0d","system_id":"levelo_inurba_marseille","lat":43.273609,"lon":5.362708,"is_reserved":false,"is_disabled":false,"rental_uris":{"android":"levelo://app?vid=12af7b98-9ca5-4801-a4de-76b5f6350c0d","ios":"levelo://app?vid=12af7b98-9ca5-4801-a4de-76b5f6350c0d"},"vehicle_type_id":"4","last_reported":1686478001,"current_range_meters":31200,"station_id":"ce4bhbh2rcd13ifvqeo0","pricing_plan_id":"free"},{"bike_id":"8059afcd-7c6e-419f-9e72-170a599de02b","system_id":"levelo_inurba_marseille","lat":43.33606,"lon":5.41027,"is_reserved":false,"is_disabled":false,"rental_uris":{"android":"levelo://app?vid=8059afcd-7c6e-419f-9e72-170a599de02b","ios":"levelo://app?vid=8059afcd-7c6e-419f-9e72-170a599de02b"},"vehicle_type_id":"4","last_reported":1686478001,"current_range_meters":31200,"station_id":"ce4bhqh2rcd13ifvqhmg","pricing_plan_id":"free"},{"bike_id":"c166b1ba-bdba-488f-b037-539b0d751016","system_id":"levelo_inurba_marseille","lat":43.273609,"lon":5.362708,"is_reserved":false,"is_disabled":false,"rental_uris":{"android":"levelo://app?vid=c166b1ba-bdba-488f-b037-539b0d751016","ios":"levelo://app?vid=c166b1ba-bdba-488f-b037-539b0d751016"},"vehicle_type_id":"4","last_reported":1686478001,"current_range_meters":28000,"station_id":"ce4bhbh2rcd13ifvqeo0","pricing_plan_id":"free"},{"bike_id":"d22736af-f0ca-43e8-9a7a-e2b92159624e","system_id":"levelo_inurba_marseille","lat":43.336134,"lon":5.410341,"is_reserved":false,"is_disabled":false,"rental_uris":{"android":"levelo://app?vid=d22736af-f0ca-43e8-9a7a-e2b92159624e","ios":"levelo://app?vid=d22736af-f0ca-43e8-9a7a-e2b92159624e"},"vehicle_type_id":"4","last_reported":1686478001,"current_range_meters":31200,"station_id":"ce4bhqh2rcd13ifvqhmg","pricing_plan_id":"free"},{"bike_id":"d7ea9bbb-932c-49ef-9b9d-0e804293ece4","system_id":"levelo_inurba_marseille","lat":43.273609,"lon":5.362708,"is_reserved":false,"is_disabled":false,"rental_uris":{"android":"levelo://app?vid=d7ea9bbb-932c-49ef-9b9d-0e804293ece4","ios":"levelo://app?vid=d7ea9bbb-932c-49ef-9b9d-0e804293ece4"},"vehicle_type_id":"4","last_reported":1686478001,"current_range_meters":29200,"station_id":"ce4bhbh2rcd13ifvqeo0","pricing_plan_id":"free"},{"bike_id":"c75ec162-0efe-467a-a98a-50133ea5de05","system_id":"levelo_inurba_marseille","lat":43.27614,"lon":5.39489,"is_reserved":false,"is_disabled":false,"rental_uris":{"android":"levelo://app?vid=c75ec162-0efe-467a-a98a-50133ea5de05","ios":"levelo://app?vid=c75ec162-0efe-467a-a98a-50133ea5de05"},"vehicle_type_id":"4","last_reported":1686478001,"current_range_meters":17600,"station_id":"","pricing_plan_id":"free"},{"bike_id":"79a6c825-f49f-4d82-aa80-2b1b63139081","system_id":"levelo_inurba_marseille","lat":43.304096,"lon":5.425385,"is_reserved":false,"is_disabled":false,"rental_uris":{"android":"levelo://app?vid=79a6c825-f49f-4d82-aa80-2b1b63139081","ios":"levelo://app?vid=79a6c825-f49f-4d82-aa80-2b1b63139081"},"vehicle_type_id":"4","last_reported":1686478001,"current_range_meters":9600,"station_id":"ce4bhoh2rcd13ifvqh6g","pricing_plan_id":"free"},{"bike_id":"596488eb-7e63-4399-81ed-46983fb505e3","system_id":"levelo_inurba_marseille","lat":43.304096,"lon":5.425385,"is_reserved":false,"is_disabled":false,"rental_uris":{"android":"levelo://app?vid=596488eb-7e63-4399-81ed-46983fb505e3","ios":"levelo://app?vid=596488eb-7e63-4399-81ed-46983fb505e3"},"vehicle_type_id":"4","last_reported":1686478001,"current_range_meters":0,"station_id":"ce4bhoh2rcd13ifvqh6g","pricing_plan_id":"free"},{"bike_id":"45567a63-3128-4486-b374-3141107004c6","system_id":"levelo_inurba_marseille","lat":43.304096,"lon":5.425385,"is_reserved":false,"is_disabled":false,"rental_uris":{"android":"levelo://app?vid=45567a63-3128-4486-b374-3141107004c6","ios":"levelo://app?vid=45567a63-3128-4486-b374-3141107004c6"},"vehicle_type_id":"4","last_reported":1686478001,"current_range_meters":4000,"station_id":"ce4bhoh2rcd13ifvqh6g","pricing_plan_id":"free"},{"bike_id":"4eadd5b5-1b6e-43ec-bb31-0e0764320a12","system_id":"levelo_inurba_marseille","lat":43.304096,"lon":5.425385,"is_reserved":false,"is_disabled":false,"rental_uris":{"android":"levelo://app?vid=4eadd5b5-1b6e-43ec-bb31-0e0764320a12","ios":"levelo://app?vid=4eadd5b5-1b6e-43ec-bb31-0e0764320a12"},"vehicle_type_id":"4","last_reported":1686478001,"current_range_meters":30800,"station_id":"ce4bhoh2rcd13ifvqh6g","pricing_plan_id":"free"},{"bike_id":"0a02bfa7-795e-4a3c-a9ba-797b552efced","system_id":"levelo_inurba_marseille","lat":43.304096,"lon":5.425385,"is_reserved":false,"is_disabled":false,"rental_uris":{"android":"levelo://app?vid=0a02bfa7-795e-4a3c-a9ba-797b552efced","ios":"levelo://app?vid=0a02bfa7-795e-4a3c-a9ba-797b552efced"},"vehicle_type_id":"4","last_reported":1686478001,"current_range_meters":24800,"station_id":"ce4bhoh2rcd13ifvqh6g","pricing_plan_id":"free"},{"bike_id":"d8276c4f-0b7c-4f9a-ba37-f7a7b34a65cb","system_id":"levelo_inurba_marseille","lat":43.304096,"lon":5.425385,"is_reserved":false,"is_disabled":false,"rental_uris":{"android":"levelo://app?vid=d8276c4f-0b7c-4f9a-ba37-f7a7b34a65cb","ios":"levelo://app?vid=d8276c4f-0b7c-4f9a-ba37-f7a7b34a65cb"},"vehicle_type_id":"4","last_reported":1686478001,"current_range_meters":19200,"station_id":"ce4bhoh2rcd13ifvqh6g","pricing_plan_id":"free"},{"bike_id":"9d3cd462-3ba9-404d-8ec2-38c76505cab8","system_id":"levelo_inurba_marseille","lat":43.304096,"lon":5.425385,"is_reserved":false,"is_disabled":false,"rental_uris":{"android":"levelo://app?vid=9d3cd462-3ba9-404d-8ec2-38c76505cab8","ios":"levelo://app?vid=9d3cd462-3ba9-404d-8ec2-38c76505cab8"},"vehicle_type_id":"4","last_reported":1686478001,"current_range_meters":16000,"station_id":"ce4bhoh2rcd13ifvqh6g","pricing_plan_id":"free"},{"bike_id":"2d656429-fc39-4585-bf8b-c376cf33ab82","system_id":"levelo_inurba_marseille","lat":43.304096,"lon":5.425385,"is_reserved":false,"is_disabled":false,"rental_uris":{"android":"levelo://app?vid=2d656429-fc39-4585-bf8b-c376cf33ab82","ios":"levelo://app?vid=2d656429-fc39-4585-bf8b-c376cf33ab82"},"vehicle_type_id":"4","last_reported":1686478001,"current_range_meters":18000,"station_id":"ce4bhoh2rcd13ifvqh6g","pricing_plan_id":"free"},{"bike_id":"1e53b94c-e1fc-49d9-b046-7a08370f467d","system_id":"levelo_inurba_marseille","lat":43.295523,"lon":5.422926,"is_reserved":false,"is_disabled":false,"rental_uris":{"android":"levelo://app?vid=1e53b94c-e1fc-49d9-b046-7a08370f467d","ios":"levelo://app?vid=1e53b94c-e1fc-49d9-b046-7a08370f467d"},"vehicle_type_id":"4","last_reported":1686478001,"current_range_meters":19200,"station_id":"ce4bhph2rcd13ifvqhdg","pricing_plan_id":"free"},{"bike_id":"9894d5d3-ef9d-4d32-b26a-b6c7d3993d4f","system_id":"levelo_inurba_marseille","lat":43.26546,"lon":5.37335,"is_reserved":false,"is_disabled":false,"rental_uris":{"android":"levelo://app?vid=9894d5d3-ef9d-4d32-b26a-b6c7d3993d4f","ios":"levelo://app?vid=9894d5d3-ef9d-4d32-b26a-b6c7d3993d4f"},"vehicle_type_id":"4","last_reported":1686478001,"current_range_meters":0,"station_id":"","pricing_plan_id":"free"},{"bike_id":"50b48ede-4cc5-4969-ab1c-1d7a66a273c2","system_id":"levelo_inurba_marseille","lat":43.31703,"lon":5.43364,"is_reserved":false,"is_disabled":false,"rental_uris":{"android":"levelo://app?vid=50b48ede-4cc5-4969-ab1c-1d7a66a273c2","ios":"levelo://app?vid=50b48ede-4cc5-4969-ab1c-1d7a66a273c2"},"vehicle_type_id":"4","last_reported":1686478001,"current_range_meters":29200,"station_id":"ce4bhp92rcd13ifvqhcg","pricing_plan_id":"free"},{"bike_id":"203d41cc-4249-46e5-9f6a-833ee640f3d8","system_id":"levelo_inurba_marseille","lat":43.28003,"lon":5.41662,"is_reserved":false,"is_disabled":false,"rental_uris":{"android":"levelo://app?vid=203d41cc-4249-46e5-9f6a-833ee640f3d8","ios":"levelo://app?vid=203d41cc-4249-46e5-9f6a-833ee640f3d8"},"vehicle_type_id":"4","last_reported":1686478001,"current_range_meters":30400,"station_id":"ce4bho12rcd13ifvqh1g","pricing_plan_id":"free"},{"bike_id":"cfe9cbcc-920a-4850-95fb-3a43e0d7d6a1","system_id":"levelo_inurba_marseille","lat":43.27997,"lon":5.41657,"is_reserved":false,"is_disabled":false,"rental_uris":{"android":"levelo://app?vid=cfe9cbcc-920a-4850-95fb-3a43e0d7d6a1","ios":"levelo://app?vid=cfe9cbcc-920a-4850-95fb-3a43e0d7d6a1"},"vehicle_type_id":"4","last_reported":1686478001,"current_range_meters":31200,"station_id":"ce4bho12rcd13ifvqh1g","pricing_plan_id":"free"},{"bike_id":"092d0a83-f84d-400a-af2b-3f256730aa5a","system_id":"levelo_inurba_marseille","lat":43.27996,"lon":5.41657,"is_reserved":false,"is_disabled":false,"rental_uris":{"android":"levelo://app?vid=092d0a83-f84d-400a-af2b-3f256730aa5a","ios":"levelo://app?vid=092d0a83-f84d-400a-af2b-3f256730aa5a"},"vehicle_type_id":"4","last_reported":1686478001,"current_range_meters":26000,"station_id":"ce4bho12rcd13ifvqh1g","pricing_plan_id":"free"},{"bike_id":"6a276548-54de-42f6-b0b6-2cb7fbc68f48","system_id":"levelo_inurba_marseille","lat":43.27999,"lon":5.41661,"is_reserved":false,"is_disabled":false,"rental_uris":{"android":"levelo://app?vid=6a276548-54de-42f6-b0b6-2cb7fbc68f48","ios":"levelo://app?vid=6a276548-54de-42f6-b0b6-2cb7fbc68f48"},"vehicle_type_id":"4","last_reported":1686478001,"current_range_meters":30400,"station_id":"ce4bho12rcd13ifvqh1g","pricing_plan_id":"free"},{"bike_id":"abbb75a8-ae18-4f05-b549-ec47994e9056","system_id":"levelo_inurba_marseille","lat":43.27993,"lon":5.41654,"is_reserved":false,"is_disabled":false,"rental_uris":{"android":"levelo://app?vid=abbb75a8-ae18-4f05-b549-ec47994e9056","ios":"levelo://app?vid=abbb75a8-ae18-4f05-b549-ec47994e9056"},"vehicle_type_id":"4","last_reported":1686478001,"current_range_meters":15200,"station_id":"ce4bho12rcd13ifvqh1g","pricing_plan_id":"free"},{"bike_id":"43d5dfd9-949c-4aad-8e07-bdb40827139b","system_id":"levelo_inurba_marseille","lat":43.27991,"lon":5.41653,"is_reserved":false,"is_disabled":false,"rental_uris":{"android":"levelo://app?vid=43d5dfd9-949c-4aad-8e07-bdb40827139b","ios":"levelo://app?vid=43d5dfd9-949c-4aad-8e07-bdb40827139b"},"vehicle_type_id":"4","last_reported":1686478001,"current_range_meters":31200,"station_id":"ce4bho12rcd13ifvqh1g","pricing_plan_id":"free"},{"bike_id":"40a8f801-3cf2-4679-b762-bf4885c24f51","system_id":"levelo_inurba_marseille","lat":43.27998,"lon":5.41662,"is_reserved":false,"is_disabled":false,"rental_uris":{"android":"levelo://app?vid=40a8f801-3cf2-4679-b762-bf4885c24f51","ios":"levelo://app?vid=40a8f801-3cf2-4679-b762-bf4885c24f51"},"vehicle_type_id":"4","last_reported":1686478001,"current_range_meters":25200,"station_id":"ce4bho12rcd13ifvqh1g","pricing_plan_id":"free"},{"bike_id":"52048638-6e61-4bf1-a884-e5f5d76255e9","system_id":"levelo_inurba_marseille","lat":43.27997,"lon":5.41663,"is_reserved":false,"is_disabled":false,"rental_uris":{"android":"levelo://app?vid=52048638-6e61-4bf1-a884-e5f5d76255e9","ios":"levelo://app?vid=52048638-6e61-4bf1-a884-e5f5d76255e9"},"vehicle_type_id":"4","last_reported":1686478001,"current_range_meters":20800,"station_id":"ce4bho12rcd13ifvqh1g","pricing_plan_id":"free"},{"bike_id":"4ed72a3f-374e-446b-be1a-f09cb228d8a7","system_id":"levelo_inurba_marseille","lat":43.27996,"lon":5.416624,"is_reserved":false,"is_disabled":false,"rental_uris":{"android":"levelo://app?vid=4ed72a3f-374e-446b-be1a-f09cb228d8a7","ios":"levelo://app?vid=4ed72a3f-374e-446b-be1a-f09cb228d8a7"},"vehicle_type_id":"4","last_reported":1686478001,"current_range_meters":28800,"station_id":"ce4bho12rcd13ifvqh1g","pricing_plan_id":"free"},{"bike_id":"7b402a78-622e-4d94-8b55-20fb3ba1b67e","system_id":"levelo_inurba_marseille","lat":43.27996,"lon":5.41663,"is_reserved":false,"is_disabled":false,"rental_uris":{"android":"levelo://app?vid=7b402a78-622e-4d94-8b55-20fb3ba1b67e","ios":"levelo://app?vid=7b402a78-622e-4d94-8b55-20fb3ba1b67e"},"vehicle_type_id":"4","last_reported":1686478001,"current_range_meters":24800,"station_id":"ce4bho12rcd13ifvqh1g","pricing_plan_id":"free"},{"bike_id":"d7fd6d14-4db8-4157-b910-23db48a9d073","system_id":"levelo_inurba_marseille","lat":43.2799,"lon":5.41659,"is_reserved":false,"is_disabled":false,"rental_uris":{"android":"levelo://app?vid=d7fd6d14-4db8-4157-b910-23db48a9d073","ios":"levelo://app?vid=d7fd6d14-4db8-4157-b910-23db48a9d073"},"vehicle_type_id":"4","last_reported":1686478001,"current_range_meters":28400,"station_id":"ce4bho12rcd13ifvqh1g","pricing_plan_id":"free"},{"bike_id":"2b0b5b99-0b89-4067-b82a-10e105e59bb8","system_id":"levelo_inurba_marseille","lat":43.27987,"lon":5.41656,"is_reserved":false,"is_disabled":false,"rental_uris":{"android":"levelo://app?vid=2b0b5b99-0b89-4067-b82a-10e105e59bb8","ios":"levelo://app?vid=2b0b5b99-0b89-4067-b82a-10e105e59bb8"},"vehicle_type_id":"4","last_reported":1686478001,"current_range_meters":31200,"station_id":"ce4bho12rcd13ifvqh1g","pricing_plan_id":"free"},{"bike_id":"e2db859c-ca99-497e-bbc2-859c10dce0b0","system_id":"levelo_inurba_marseille","lat":43.27994,"lon":5.41667,"is_reserved":false,"is_disabled":false,"rental_uris":{"android":"levelo://app?vid=e2db859c-ca99-497e-bbc2-859c10dce0b0","ios":"levelo://app?vid=e2db859c-ca99-497e-bbc2-859c10dce0b0"},"vehicle_type_id":"4","last_reported":1686478001,"current_range_meters":31200,"station_id":"ce4bho12rcd13ifvqh1g","pricing_plan_id":"free"},{"bike_id":"a048d73e-e72b-4ba9-93e1-d90f83aef26f","system_id":"levelo_inurba_marseille","lat":43.27987,"lon":5.41659,"is_reserved":false,"is_disabled":false,"rental_uris":{"android":"levelo://app?vid=a048d73e-e72b-4ba9-93e1-d90f83aef26f","ios":"levelo://app?vid=a048d73e-e72b-4ba9-93e1-d90f83aef26f"},"vehicle_type_id":"4","last_reported":1686478001,"current_range_meters":18800,"station_id":"ce4bho12rcd13ifvqh1g","pricing_plan_id":"free"},{"bike_id":"ae4cc489-4efe-4275-a065-56d9d5341ee1","system_id":"levelo_inurba_marseille","lat":43.27097,"lon":5.4023,"is_reserved":false,"is_disabled":false,"rental_uris":{"android":"levelo://app?vid=ae4cc489-4efe-4275-a065-56d9d5341ee1","ios":"levelo://app?vid=ae4cc489-4efe-4275-a065-56d9d5341ee1"},"vehicle_type_id":"4","last_reported":1686478001,"current_range_meters":13200,"station_id":"","pricing_plan_id":"free"},