{"last_updated":1713042340,"ttl":30,"version":"2.2","data":{"bikes":[{"bike_id":"86825ef2-fcc5-4852-b4ec-4c2f52117e47","system_id":"levelo_inurba_marseille","lat":43.312239,"lon":5.368562,"is_reserved":false,"is_disabled":false,"rental_uris":{"android":"levelo://app?vid=86825ef2-fcc5-4852-b4ec-4c2f52117e47","ios":"levelo://app?vid=86825ef2-fcc5-4852-b4ec-4c2f52117e47"},"vehicle_type_id":"4","last_reported":1713042340,"current_range_meters":30000,"station_id":"ce4bgl92rcd13ifvqbq0","pricing_plan_id":"cebpf4jnsgd1na2vs0mg"},{"bike_id":"7fb3283b-c411-4b0e-b25f-20ce87e040dd","system_id":"levelo_inurba_marseille","lat":43.312239,"lon":5.368562,"is_reserved":false,"is_disabled":false,"rental_uris":{"android":"levelo://app?vid=7fb3283b-c411-4b0e-b25f-20ce87e040dd","ios":"levelo://app?vid=7fb3283b-c411-4b0e-b25f-20ce87e040dd"},"vehicle_type_id":"4","last_reported":1713042340,"current_range_meters":12400,"station_id":"ce4bgl92rcd13ifvqbq0","pricing_plan_id":"cebpf4jnsgd1na2vs0mg"},{"bike_id":"fc4fdf98-f95e-4599-b1ce-b0e126d69951","system_id":"levelo_inurba_marseille","lat":43.3123,"lon":5.36882,"is_reserved":false,"is_disabled":false,"rental_uris":{"android":"levelo://app?vid=fc4fdf98-f95e-4599-b1ce-b0e126d69951","ios":"levelo://app?vid=fc4fdf98-f95e-4599-b1ce-b0e126d69951"},"vehicle_type_id":"4","last_reported":1713042340,"current_range_meters":0,"station_id":"ce4bgl92rcd13ifvqbq0","pricing_plan_id":"cebpf4jnsgd1na2vs0mg"},{"bike_id":"75441d86-3cd8-4ba5-a426-161ac20bcd6f","system_id":"levelo_inurba_marseille","lat":43.312441,"lon":5.368946,"is_reserved":false,"is_disabled":false,"rental_uris":{"android":"levelo://app?vid=75441d86-3cd8-4ba5-a426-161ac20bcd6f","ios":"levelo://app?vid=75441d86-3cd8-4ba5-a426-161ac20bcd6f"},"vehicle_type_id":"4","last_reported":1713042340,"current_range_meters":2400,"station_id":"ce4bhgp2rcd13ifvqfc0","pricing_plan_id":"cebpf4jnsgd1na2vs0mg"},{"bike_id":"bff28bc6-c6a0-4002-ace9-e34ece1df37a","system_id":"levelo_inurba_marseille","lat":43.313391,"lon":5.36706,"is_reserved":false,"is_disabled":false,"rental_uris":{"android":"levelo://app?vid=bff28bc6-c6a0-4002-ace9-e34ece1df37a","ios":"levelo://app?vid=bff28bc6-c6a0-4002-ace9-e34ece1df37a"},"vehicle_type_id":"4","last_reported":1713042340,"current_range_meters":31200,"station_id":"ce4bgr92rcd13ifvqc6g","pricing_plan_id":"cebpf4jnsgd1na2vs0mg"},{"bike_id":"0740062b-184b-4985-b8b0-224980da8d11","system_id":"levelo_inurba_marseille","lat":43.31502,"lon":5.373,"is_reserved":false,"is_disabled":false,"rental_uris":{"android":"levelo://app?vid=0740062b-184b-4985-b8b0-224980da8d11","ios":"levelo://app?vid=0740062b-184b-4985-b8b0-224980da8d11"},"vehicle_type_id":"4","last_reported":1713042340,"current_range_meters":0,"station_id":"ce4bgt12rcd13ifvqcd0","pricing_plan_id":"cebpf4jnsgd1na2vs0mg"},{"bike_id":"05ecb974-68d2-4c12-8e84-43f823a50813","system_id":"levelo_inurba_marseille","lat":43.314811,"lon":5.373103,"is_reserved":false,"is_disabled":false,"rental_uris":{"android":"levelo://app?vid=05ecb974-68d2-4c12-8e84-43f823a50813","ios":"levelo://app?vid=05ecb974-68d2-4c12-8e84-43f823a50813"},"vehicle_type_id":"4","last_reported":1713042340,"current_range_meters":28800,"station_id":"ce4bgt12rcd13ifvqcd0","pricing_plan_id":"cebpf4jnsgd1na2vs0mg"},{"bike_id":"1d691d3b-831a-4102-b771-15111a63eca7","system_id":"levelo_inurba_marseille","lat":43.313571,"lon":5.384829,"is_reserved":false,"is_disabled":false,"rental_uris":{"android":"levelo://app?vid=1d691d3b-831a-4102-b771-15111a63eca7","ios":"levelo://app?vid=1d691d3b-831a-4102-b771-15111a63eca7"},"vehicle_type_id":"4","last_reported":1713042340,"current_range_meters":800,"station_id":"ce4bgt92rcd13ifvqcf0","pricing_plan_id":"cebpf4jnsgd1na2vs0mg"},{"bike_id":"583645c1-319b-416b-afa4-17eebcb3a7fd","system_id":"levelo_inurba_marseille","lat":43.309034,"lon":5.371783,"is_reserved":false,"is_disabled":false,"rental_uris":{"android":"levelo://app?vid=583645c1-319b-416b-afa4-17eebcb3a7fd","ios":"levelo://app?vid=583645c1-319b-416b-afa4-17eebcb3a7fd"},"vehicle_type_id":"4","last_reported":1713042340,"current_range_meters":10800,"station_id":"ce4bguh2rcd13ifvqckg","pricing_plan_id":"cebpf4jnsgd1na2vs0mg"},{"bike_id":"a4bc9e60-9812-481f-bcbf-faa33e0a8aba","system_id":"levelo_inurba_marseille","lat":43.309039,"lon":5.371797,"is_reserved":false,"is_disabled":false,"rental_uris":{"android":"levelo://app?vid=a4bc9e60-9812-481f-bcbf-faa33e0a8aba","ios":"levelo://app?vid=a4bc9e60-9812-481f-bcbf-faa33e0a8aba"},"vehicle_type_id":"4","last_reported":1713042340,"current_range_meters":13200,"station_id":"ce4bguh2rcd13ifvqckg","pricing_plan_id":"cebpf4jnsgd1na2vs0mg"},{"bike_id":"0063e736-70d9-4ef1-98f5-36274c0abddb","system_id":"levelo_inurba_marseille","lat":43.30671,"lon":5.37192,"is_reserved":false,"is_disabled":false,"rental_uris":{"android":"levelo://app?vid=0063e736-70d9-4ef1-98f5-36274c0abddb","ios":"levelo://app?vid=0063e736-70d9-4ef1-98f5-36274c0abddb"},"vehicle_type_id":"4","last_reported":1713042340,"current_range_meters":18800,"station_id":"","pricing_plan_id":"cebpf4jnsgd1na2vs0mg"},{"bike_id":"65c9d116-03bb-4feb-b152-8bf4a6d2819d","system_id":"levelo_inurba_marseille","lat":43.305706,"lon":5.365654,"is_reserved":false,"is_disabled":false,"rental_uris":{"android":"levelo://app?vid=65c9d116-03bb-4feb-b152-8bf4a6d2819d","ios":"levelo://app?vid=65c9d116-03bb-4feb-b152-8bf4a6d2819d"},"vehicle_type_id":"4","last_reported":1713042340,"current_range_meters":31200,"station_id":"ce4bgs12rcd13ifvqcag","pricing_plan_id":"cebpf4jnsgd1na2vs0mg"},{"bike_id":"b60064cf-35bd-4bc7-ada2-612e223e056b","system_id":"levelo_inurba_marseille","lat":43.305989,"lon":5.37225,"is_reserved":false,"is_disabled":false,"rental_uris":{"android":"levelo://app?vid=b60064cf-35bd-4bc7-ada2-612e223e056b","ios":"levelo://app?vid=b60064cf-35bd-4bc7-ada2-612e223e056b"},"vehicle_type_id":"4","last_reported":1713042340,"current_range_meters":2800,"station_id":"ce4bgqh2rcd13ifvqc4g","pricing_plan_id":"cebpf4jnsgd1na2vs0mg"},{"bike_id":"dc7cb2ee-34f5-45c3-bb85-e0620cb21132","system_id":"levelo_inurba_marseille","lat":43.305989,"lon":5.37225,"is_reserved":false,"is_disabled":false,"rental_uris":{"android":"levelo://app?vid=dc7cb2ee-34f5-45c3-bb85-e0620cb21132","ios":"levelo://app?vid=dc7cb2ee-34f5-45c3-bb85-e0620cb21132"},"vehicle_type_id":"4","last_reported":1713042340,"current_range_meters":10800,"station_id":"ce4bgqh2rcd13ifvqc4g","pricing_plan_id":"cebpf4jnsgd1na2vs0mg"},{"bike_id":"ee08ac60-0c6e-4f49-bf7d-242684f546a8","system_id":"levelo_inurba_marseille","lat":43.311125,"lon":5.377624,"is_reserved":false,"is_disabled":false,"rental_uris":{"android":"levelo://app?vid=ee08ac60-0c6e-4f49-bf7d-242684f546a8","ios":"levelo://app?vid=ee08ac60-0c6e-4f49-bf7d-242684f546a8"},"vehicle_type_id":"4","last_reported":1713042340,"current_range_meters":13600,"station_id":"ce4bgt92rcd13ifvqcg0","pricing_plan_id":"cebpf4jnsgd1na2vs0mg"},{"bike_id":"08082ab7-7645-4eb6-ae7a-052555ec2094","system_id":"levelo_inurba_marseille","lat":43.311131,"lon":5.377651,"is_reserved":false,"is_disabled":false,"rental_uris":{"android":"levelo://app?vid=08082ab7-7645-4eb6-ae7a-052555ec2094","ios":"levelo://app?vid=08082ab7-7645-4eb6-ae7a-052555ec2094"},"vehicle_type_id":"4","last_reported":1713042340,"current_range_meters":1600,"station_id":"ce4bgt92rcd13ifvqcg0","pricing_plan_id":"cebpf4jnsgd1na2vs0mg"},{"bike_id":"640b6236-7c44-4cdd-a561-32d2f0d5aea3","system_id":"levelo_inurba_marseille","lat":43.307945,"lon":5.376487,"is_reserved":false,"is_disabled":false,"rental_uris":{"android":"levelo://app?vid=640b6236-7c44-4cdd-a561-32d2f0d5aea3","ios":"levelo://app?vid=640b6236-7c44-4cdd-a561-32d2f0d5aea3"},"vehicle_type_id":"4","last_reported":1713042340,"current_range_meters":5600,"station_id":"ce4bgv92rcd13ifvqcq0","pricing_plan_id":"cebpf4jnsgd1na2vs0mg"},{"bike_id":"5bf76c09-fc61-4545-aa3a-0d8973adf429","system_id":"levelo_inurba_marseille","lat":43.30304,"lon":5.368987,"is_reserved":false,"is_disabled":false,"rental_uris":{"android":"levelo://app?vid=5bf76c09-fc61-4545-aa3a-0d8973adf429","ios":"levelo://app?vid=5bf76c09-fc61-4545-aa3a-0d8973adf429"},"vehicle_type_id":"4","last_reported":1713042340,"current_range_meters":2400,"station_id":"ce4bgqh2rcd13ifvqc5g","pricing_plan_id":"cebpf4jnsgd1na2vs0mg"},{"bike_id":"01998e71-d1a8-4b9d-b4f0-2f7abd4abff2","system_id":"levelo_inurba_marseille","lat":43.315293,"lon":5.380349,"is_reserved":false,"is_disabled":false,"rental_uris":{"android":"levelo://app?vid=01998e71-d1a8-4b9d-b4f0-2f7abd4abff2","ios":"levelo://app?vid=01998e71-d1a8-4b9d-b4f0-2f7abd4abff2"},"vehicle_type_id":"4","last_reported":1713042340,"current_range_meters":20400,"station_id":"ce4bhsp2rcd13ifvqi50","pricing_plan_id":"cebpf4jnsgd1na2vs0mg"},{"bike_id":"41bb2bfd-5693-4d14-a9fb-ed7f23aad875","system_id":"levelo_inurba_marseille","lat":43.315289,"lon":5.380349,"is_reserved":false,"is_disabled":false,"rental_uris":{"android":"levelo://app?vid=41bb2bfd-5693-4d14-a9fb-ed7f23aad875","ios":"levelo://app?vid=41bb2bfd-5693-4d14-a9fb-ed7f23aad875"},"vehicle_type_id":"4","last_reported":1713042340,"current_range_meters":26000,"station_id":"ce4bhsp2rcd13ifvqi50","pricing_plan_id":"cebpf4jnsgd1na2vs0mg"},{"bike_id":"c973c696-6cf3-4ef6-9922-20142626237f","system_id":"levelo_inurba_marseille","lat":43.30282,"lon":5.37259,"is_reserved":false,"is_disabled":false,"rental_uris":{"android":"levelo://app?vid=c973c696-6cf3-4ef6-9922-20142626237f","ios":"levelo://app?vid=c973c696-6cf3-4ef6-9922-20142626237f"},"vehicle_type_id":"4","last_reported":1713042340,"current_range_meters":14000,"station_id":"","pricing_plan_id":"cebpf4jnsgd1na2vs0mg"},{"bike_id":"70e420b7-d083-46db-9dec-6d33b60adf06","system_id":"levelo_inurba_marseille","lat":43.301939,"lon":5.366286,"is_reserved":false,"is_disabled":false,"rental_uris":{"android":"levelo://app?vid=70e420b7-d083-46db-9dec-6d33b60adf06","ios":"levelo://app?vid=70e420b7-d083-46db-9dec-6d33b60adf06"},"vehicle_type_id":"4","last_reported":1713042340,"current_range_meters":0,"station_id":"ce4bgrh2rcd13ifvqc8g","pricing_plan_id":"cebpf4jnsgd1na2vs0mg"},{"bike_id":"3d8d977e-dabf-4e0f-84b9-25af31a93565","system_id":"levelo_inurba_marseille","lat":43.30805,"lon":5.381587,"is_reserved":false,"is_disabled":false,"rental_uris":{"android":"levelo://app?vid=3d8d977e-dabf-4e0f-84b9-25af31a93565","ios":"levelo://app?vid=3d8d977e-dabf-4e0f-84b9-25af31a93565"},"vehicle_type_id":"4","last_reported":1713042340,"current_range_meters":0,"station_id":"ce4bgt12rcd13ifvqce0","pricing_plan_id":"cebpf4jnsgd1na2vs0mg"},{"bike_id":"bf9a9c65-33b5-4ea9-a1da-f5948ce2f88b","system_id":"levelo_inurba_marseille","lat":43.30465,"lon":5.37902,"is_reserved":false,"is_disabled":false,"rental_uris":{"android":"levelo://app?vid=bf9a9c65-33b5-4ea9-a1da-f5948ce2f88b","ios":"levelo://app?vid=bf9a9c65-33b5-4ea9-a1da-f5948ce2f88b"},"vehicle_type_id":"4","last_reported":1713042340,"current_range_meters":16400,"station_id":"ce4bgup2rcd13ifvqcn0","pricing_plan_id":"cebpf4jnsgd1na2vs0mg"},{"bike_id":"22b93b9f-e7d6-4ac7-bbdd-7d8b9f06b876","system_id":"levelo_inurba_marseille","lat":43.304491,"lon":5.378879,"is_reserved":false,"is_disabled":false,"rental_uris":{"android":"levelo://app?vid=22b93b9f-e7d6-4ac7-bbdd-7d8b9f06b876","ios":"levelo://app?vid=22b93b9f-e7d6-4ac7-bbdd-7d8b9f06b876"},"vehicle_type_id":"4","last_reported":1713042340,"current_range_meters":16800,"station_id":"ce4bgup2rcd13ifvqcn0","pricing_plan_id":"cebpf4jnsgd1na2vs0mg"},{"bike_id":"410c76ee-5af5-43d3-bef3-278632e78571","system_id":"levelo_inurba_marseille","lat":43.304603,"lon":5.37906,"is_reserved":false,"is_disabled":false,"rental_uris":{"android":"levelo://app?vid=410c76ee-5af5-43d3-bef3-278632e78571","ios":"levelo://app?vid=410c76ee-5af5-43d3-bef3-278632e78571"},"vehicle_type_id":"4","last_reported":1713042340,"current_range_meters":2400,"station_id":"ce4bgup2rcd13ifvqcn0","pricing_plan_id":"cebpf4jnsgd1na2vs0mg"},{"bike_id":"c1a4e4fc-91e6-4d8c-b1ff-5893e3499cf7","system_id":"levelo_inurba_marseille","lat":43.324771,"lon":5.36557,"is_reserved":false,"is_disabled":false,"rental_uris":{"android":"levelo://app?vid=c1a4e4fc-91e6-4d8c-b1ff-5893e3499cf7","ios":"levelo://app?vid=c1a4e4fc-91e6-4d8c-b1ff-5893e3499cf7"},"vehicle_type_id":"4","last_reported":1713042340,"current_range_meters":4400,"station_id":"ce4bhs12rcd13ifvqhvg","pricing_plan_id":"cebpf4jnsgd1na2vs0mg"},{"bike_id":"731ac6c5-fcc0-4b86-a53e-7adc129e3fb4","system_id":"levelo_inurba_marseille","lat":43.324771,"lon":5.36557,"is_reserved":false,"is_disabled":false,"rental_uris":{"android":"levelo://app?vid=731ac6c5-fcc0-4b86-a53e-7adc129e3fb4","ios":"levelo://app?vid=731ac6c5-fcc0-4b86-a53e-7adc129e3fb4"},"vehicle_type_id":"4","last_reported":1713042340,"current_range_meters":5600,"station_id":"ce4bhs12rcd13ifvqhvg","pricing_plan_id":"cebpf4jnsgd1na2vs0mg"},{"bike_id":"32e22b54-e6ff-4b9d-97b2-2af4955bad10","system_id":"levelo_inurba_marseille","lat":43.324771,"lon":5.36557,"is_reserved":false,"is_disabled":false,"rental_uris":{"android":"levelo://app?vid=32e22b54-e6ff-4b9d-97b2-2af4955bad10","ios":"levelo://app?vid=32e22b54-e6ff-4b9d-97b2-2af4955bad10"},"vehicle_type_id":"4","last_reported":1713042340,"current_range_meters":11200,"station_id":"ce4bhs12rcd13ifvqhvg","pricing_plan_id":"cebpf4jnsgd1na2vs0mg"},{"bike_id":"a9fdc6c4-60e9-439f-974e-461d189c285f","system_id":"levelo_inurba_marseille","lat":43.310804,"lon":5.38359,"is_reserved":false,"is_disabled":false,"rental_uris":{"android":"levelo://app?vid=a9fdc6c4-60e9-439f-974e-461d189c285f","ios":"levelo://app?vid=a9fdc6c4-60e9-439f-974e-461d189c285f"},"vehicle_type_id":"4","last_reported":1713042340,"current_range_meters":2400,"station_id":"ce4bgv92rcd13ifvqcr0","pricing_plan_id":"cebpf4jnsgd1na2vs0mg"},{"bike_id":"b763d640-0ac4-4747-adfa-1a0217f6e16b","system_id":"levelo_inurba_marseille","lat":43.30003,"lon":5.36361,"is_reserved":false,"is_disabled":false,"rental_uris":{"android":"levelo://app?vid=b763d640-0ac4-4747-adfa-1a0217f6e16b","ios":"levelo://app?vid=b763d640-0ac4-4747-adfa-1a0217f6e16b"},"vehicle_type_id":"4","last_reported":1713042340,"current_range_meters":0,"station_id":"","pricing_plan_id":"cebpf4jnsgd1na2vs0mg"},{"bike_id":"c20ca2f1-39b9-4b7e-9018-f233fed1a204","system_id":"levelo_inurba_marseille","lat":43.313571,"lon":5.384829,"is_reserved":false,"is_disabled":false,"rental_uris":{"android":"levelo://app?vid=c20ca2f1-39b9-4b7e-9018-f233fed1a204","ios":"levelo://app?vid=c20ca2f1-39b9-4b7e-9018-f233fed1a204"},"vehicle_type_id":"4","last_reported":1713042340,"current_range_meters":6400,"station_id":"ce4bgt92rcd13ifvqcf0","pricing_plan_id":"cebpf4jnsgd1na2vs0mg"},{"bike_id":"da500e8e-bc89-457a-86de-ca31b83c7ea5","system_id":"levelo_inurba_marseille","lat":43.31368,"lon":5.3849,"is_reserved":false,"is_disabled":false,"rental_uris":{"android":"levelo://app?vid=da500e8e-bc89-457a-86de-ca31b83c7ea5","ios":"levelo://app?vid=da500e8e-bc89-457a-86de-ca31b83c7ea5"},"vehicle_type_id":"4","last_reported":1713042340,"current_range_meters":0,"station_id":"ce4bgt92rcd13ifvqcf0","pricing_plan_id":"cebpf4jnsgd1na2vs0mg"},{"bike_id":"5d64fc2f-a2c0-4539-af14-76d4544c0261","system_id":"levelo_inurba_marseille","lat":43.313571,"lon":5.384829,"is_reserved":false,"is_disabled":false,"rental_uris":{"android":"levelo://app?vid=5d64fc2f-a2c0-4539-af14-76d4544c0261","ios":"levelo://app?vid=5d64fc2f-a2c0-4539-af14-76d4544c0261"},"vehicle_type_id":"4","last_reported":1713042340,"current_range_meters":16800,"station_id":"ce4bgt92rcd13ifvqcf0","pricing_plan_id":"cebpf4jnsgd1na2vs0mg"},{"bike_id":"87335e2b-2f57-4097-8842-664095b3a27d","system_id":"levelo_inurba_marseille","lat":43.313571,"lon":5.384829,"is_reserved":false,"is_disabled":false,"rental_uris":{"android":"levelo://app?vid=87335e2b-2f57-4097-8842-664095b3a27d","ios":"levelo://app?vid=87335e2b-2f57-4097-8842-664095b3a27d"},"vehicle_type_id":"4","last_reported":1713042340,"current_range_meters":0,"station_id":"ce4bgt92rcd13ifvqcf0","pricing_plan_id":"cebpf4jnsgd1na2vs0mg"},{"bike_id":"1c0003d0-4481-4e7d-8b6f-5747ffa8103c","system_id":"levelo_inurba_marseille","lat":43.299724,"lon":5.371829,"is_reserved":false,"is_disabled":false,"rental_uris":{"android":"levelo://app?vid=1c0003d0-4481-4e7d-8b6f-5747ffa8103c","ios":"levelo://app?vid=1c0003d0-4481-4e7d-8b6f-5747ffa8103c"},"vehicle_type_id":"4","last_reported":1713042340,"current_range_meters":18000,"station_id":"ce4bgr92rcd13ifvqc7g","pricing_plan_id":"cebpf4jnsgd1na2vs0mg"},{"bike_id":"76456704-b387-441e-b39a-b2024c8c7b0d","system_id":"levelo_inurba_marseille","lat":43.299222,"lon":5.365554,"is_reserved":false,"is_disabled":false,"rental_uris":{"android":"levelo://app?vid=76456704-b387-441e-b39a-b2024c8c7b0d","ios":"levelo://app?vid=76456704-b387-441e-b39a-b2024c8c7b0d"},"vehicle_type_id":"4","last_reported":1713042340,"current_range_meters":28800,"station_id":"ce4bgm92rcd13ifvqbr0","pricing_plan_id":"cebpf4jnsgd1na2vs0mg"},{"bike_id":"3feb1b90-a2a8-4066-bc14-351c38b8e156","system_id":"levelo_inurba_marseille","lat":43.299724,"lon":5.371829,"is_reserved":false,"is_disabled":false,"rental_uris":{"android":"levelo://app?vid=3feb1b90-a2a8-4066-bc14-351c38b8e156","ios":"levelo://app?vid=3feb1b90-a2a8-4066-bc14-351c38b8e156"},"vehicle_type_id":"4","last_reported":1713042340,"current_range_meters":18400,"station_id":"ce4bgr92rcd13ifvqc7g","pricing_plan_id":"cebpf4jnsgd1na2vs0mg"},{"bike_id":"87e8ca82-619d-47d5-8c10-8bd783a506c0","system_id":"levelo_inurba_marseille","lat":43.297794,"lon":5.370888,"is_reserved":false,"is_disabled":false,"rental_uris":{"android":"levelo://app?vid=87e8ca82-619d-47d5-8c10-8bd783a506c0","ios":"levelo://app?vid=87e8ca82-619d-47d5-8c10-8bd783a506c0"},"vehicle_type_id":"4","last_reported":1713042340,"current_range_meters":24000,"station_id":"ce4bgop2rcd13ifvqc1g","pricing_plan_id":"cebpf4jnsgd1na2vs0mg"},{"bike_id":"16aef778-e5b2-4b52-a502-542000f26f04","system_id":"levelo_inurba_marseille","lat":43.317557,"lon":5.390173,"is_reserved":false,"is_disabled":false,"rental_uris":{"android":"levelo://app?vid=16aef778-e5b2-4b52-a502-542000f26f04","ios":"levelo://app?vid=16aef778-e5b2-4b52-a502-542000f26f04"},"vehicle_type_id":"4","last_reported":1713042340,"current_range_meters":6800,"station_id":"ce4bhqp2rcd13ifvqhng","pricing_plan_id":"cebpf4jnsgd1na2vs0mg"},{"bike_id":"380e4121-238c-4426-9295-216642d7338a","system_id":"levelo_inurba_marseille","lat":43.298433,"lon":5.362774,"is_reserved":false,"is_disabled":false,"rental_uris":{"android":"levelo://app?vid=380e4121-238c-4426-9295-216642d7338a","ios":"levelo://app?vid=380e4121-238c-4426-9295-216642d7338a"},"vehicle_type_id":"4","last_reported":1713042340,"current_range_meters":22400,"station_id":"ce4bgpp2rcd13ifvqc3g","pricing_plan_id":"cebpf4jnsgd1na2vs0mg"},{"bike_id":"a299e047-2639-4281-aac9-e2eb0f2622c9","system_id":"levelo_inurba_marseille","lat":43.298433,"lon":5.362774,"is_reserved":false,"is_disabled":false,"rental_uris":{"android":"levelo://app?vid=a299e047-2639-4281-aac9-e2eb0f2622c9","ios":"levelo://app?vid=a299e047-2639-4281-aac9-e2eb0f2622c9"},"vehicle_type_id":"4","last_reported":1713042340,"current_range_meters":3200,"station_id":"ce4bgpp2rcd13ifvqc3g","pricing_plan_id":"cebpf4jnsgd1na2vs0mg"},{"bike_id":"0d82a6da-a60d-486f-a99f-08caa57eb382","system_id":"levelo_inurba_marseille","lat":43.311722,"lon":5.387247,"is_reserved":false,"is_disabled":false,"rental_uris":{"android":"levelo://app?vid=0d82a6da-a60d-486f-a99f-08caa57eb382","ios":"levelo://app?vid=0d82a6da-a60d-486f-a99f-08caa57eb382"},"vehicle_type_id":"4","last_reported":1713042340,"current_range_meters":13200,"station_id":"ce4bgv12rcd13ifvqcp0","pricing_plan_id":"cebpf4jnsgd1na2vs0mg"},{"bike_id":"2801d45e-0a57-420e-80c2-43136ed67e6d","system_id":"levelo_inurba_marseille","lat":43.311722,"lon":5.387247,"is_reserved":false,"is_disabled":false,"rental_uris":{"android":"levelo://app?vid=2801d45e-0a57-420e-80c2-43136ed67e6d","ios":"levelo://app?vid=2801d45e-0a57-420e-80c2-43136ed67e6d"},"vehicle_type_id":"4","last_reported":1713042340,"current_range_meters":6400,"station_id":"ce4bgv12rcd13ifvqcp0","pricing_plan_id":"cebpf4jnsgd1na2vs0mg"},{"bike_id":"eb91e05b-a808-4b63-af70-280a686d8647","system_id":"levelo_inurba_marseille","lat":43.311722,"lon":5.387247,"is_reserved":false,"is_disabled":false,"rental_uris":{"android":"levelo://app?vid=eb91e05b-a808-4b63-af70-280a686d8647","ios":"levelo://app?vid=eb91e05b-a808-4b63-af70-280a686d8647"},"vehicle_type_id":"4","last_reported":1713042340,"current_range_meters":12400,"station_id":"ce4bgv12rcd13ifvqcp0","pricing_plan_id":"cebpf4jnsgd1na2vs0mg"},{"bike_id":"20e8d9ad-86ee-41df-aa4d-374918638d0a","system_id":"levelo_inurba_marseille","lat":43.299243,"lon":5.37481,"is_reserved":false,"is_disabled":false,"rental_uris":{"android":"levelo://app?vid=20e8d9ad-86ee-41df-aa4d-374918638d0a","ios":"levelo://app?vid=20e8d9ad-86ee-41df-aa4d-374918638d0a"},"vehicle_type_id":"4","last_reported":1713042340,"current_range_meters":25600,"station_id":"ce4bgjh2rcd13ifvqbg0","pricing_plan_id":"cebpf4jnsgd1na2vs0mg"},{"bike_id":"b8b95232-16ec-4572-b2be-5408d1037e96","system_id":"levelo_inurba_marseille","lat":43.311722,"lon":5.387247,"is_reserved":false,"is_disabled":false,"rental_uris":{"android":"levelo://app?vid=b8b95232-16ec-4572-b2be-5408d1037e96","ios":"levelo://app?vid=b8b95232-16ec-4572-b2be-5408d1037e96"},"vehicle_type_id":"4","last_reported":1713042340,"current_range_meters":19600,"station_id":"ce4bgv12rcd13ifvqcp0","pricing_plan_id":"cebpf4jnsgd1na2vs0mg"},{"bike_id":"09ada16d-c600-46c5-9db1-582602e6ddec","system_id":"levelo_inurba_marseille","lat":43.311722,"lon":5.387247,"is_reserved":false,"is_disabled":false,"rental_uris":{"android":"levelo://app?vid=09ada16d-c600-46c5-9db1-582602e6ddec","ios":"levelo://app?vid=09ada16d-c600-46c5-9db1-582602e6ddec"},"vehicle_type_id":"4","last_reported":1713042340,"current_range_meters":6800,"station_id":"ce4bgv12rcd13ifvqcp0","pricing_plan_id":"cebpf4jnsgd1na2vs0mg"},{"bike_id":"9ba0f6c2-60d9-4f16-8c91-d875d4f7b218","system_id":"levelo_inurba_marseille","lat":43.297794,"lon":5.370888,"is_reserved":false,"is_disabled":false,"rental_uris":{"android":"levelo://app?vid=9ba0f6c2-60d9-4f16-8c91-d875d4f7b218","ios":"levelo://app?vid=9ba0f6c2-60d9-4f16-8c91-d875d4f7b218"},"vehicle_type_id":"4","last_reported":1713042340,"current_range_meters":17200,"station_id":"ce4bgop2rcd13ifvqc1g","pricing_plan_id":"cebpf4jnsgd1na2vs0mg"},{"bike_id":"4e30049a-66a7-482e-bd59-d5efd80975f7","system_id":"levelo_inurba_marseille","lat":43.29791,"lon":5.37113,"is_reserved":false,"is_disabled":false,"rental_uris":{"android":"levelo://app?vid=4e30049a-66a7-482e-bd59-d5efd80975f7","ios":"levelo://app?vid=4e30049a-66a7-482e-bd59-d5efd80975f7"},"vehicle_type_id":"4","last_reported":1713042340,"current_range_meters":9600,"station_id":"ce4bgop2rcd13ifvqc1g","pricing_plan_id":"cebpf4jnsgd1na2vs0mg"},{"bike_id":"71f9d4bc-afb4-48fc-8ca5-51c457c9f1b4","system_id":"levelo_inurba_marseille","lat":43.292644,"lon":5.384257,"is_reserved":false,"is_disabled":false,"rental_uris":{"android":"levelo://app?vid=71f9d4bc-afb4-48fc-8ca5-51c457c9f1b4","ios":"levelo://app?vid=71f9d4bc-afb4-48fc-8ca5-51c457c9f1b4"},"vehicle_type_id":"4","last_reported":1713042340,"current_range_meters":29600,"station_id":"ce4bh692rcd13ifvqea0","pricing_plan_id":"cebpf4jnsgd1na2vs0mg"},{"bike_id":"d97f27f9-37d2-48ca-8dc4-c5417fbc936c","system_id":"levelo_inurba_marseille","lat":43.293009,"lon":5.374584,"is_reserved":false,"is_disabled":false,"rental_uris":{"android":"levelo://app?vid=d97f27f9-37d2-48ca-8dc4-c5417fbc936c","ios":"levelo://app?vid=d97f27f9-37d2-48ca-8dc4-c5417fbc936c"},"vehicle_type_id":"4","last_reported":1713042340,"current_range_meters":2800,"station_id":"ce4bgi12rcd13ifvqb70","pricing_plan_id":"cebpf4jnsgd1na2vs0mg"},{"bike_id":"5040d271-f525-48e5-82e7-3513a33073d2","system_id":"levelo_inurba_marseille","lat":43.297794,"lon":5.370888,"is_reserved":false,"is_disabled":false,"rental_uris":{"android":"levelo://app?vid=5040d271-f525-48e5-82e7-3513a33073d2","ios":"levelo://app?vid=5040d271-f525-48e5-82e7-3513a33073d2"},"vehicle_type_id":"4","last_reported":1713042340,"current_range_meters":0,"station_id":"ce4bgop2rcd13ifvqc1g","pricing_plan_id":"cebpf4jnsgd1na2vs0mg"},{"bike_id":"750d6de0-9694-455d-a9d6-286f5fc62a80","system_id":"levelo_inurba_marseille","lat":43.32292,"lon":5.38279,"is_reserved":false,"is_disabled":false,"rental_uris":{"android":"levelo://app?vid=750d6de0-9694-455d-a9d6-286f5fc62a80","ios":"levelo://app?vid=750d6de0-9694-455d-a9d6-286f5fc62a80"},"vehicle_type_id":"4","last_reported":1713042340,"current_range_meters":4000,"station_id":"ce4bhr12rcd13ifvqhqg","pricing_plan_id":"cebpf4jnsgd1na2vs0mg"},{"bike_id":"2b9ec206-ee53-4b0f-b062-7e9d4331d95d","system_id":"levelo_inurba_marseille","lat":43.29573,"lon":5.367355,"is_reserved":false,"is_disabled":false,"rental_uris":{"android":"levelo://app?vid=2b9ec206-ee53-4b0f-b062-7e9d4331d95d","ios":"levelo://app?vid=2b9ec206-ee53-4b0f-b062-7e9d4331d95d"},"vehicle_type_id":"4","last_reported":1713042340,"current_range_meters":30800,"station_id":"ce4bgph2rcd13ifvqc2g","pricing_plan_id":"cebpf4jnsgd1na2vs0mg"},{"bike_id":"dab4862a-35e2-4268-9407-01c0e52faedf","system_id":"levelo_inurba_marseille","lat":43.29573,"lon":5.367355,"is_reserved":false,"is_disabled":false,"rental_uris":{"android":"levelo://app?vid=dab4862a-35e2-4268-9407-01c0e52faedf","ios":"levelo://app?vid=dab4862a-35e2-4268-9407-01c0e52faedf"},"vehicle_type_id":"4","last_reported":1713042340,"current_range_meters":23600,"station_id":"ce4bgph2rcd13ifvqc2g","pricing_plan_id":"cebpf4jnsgd1na2vs0mg"},{"bike_id":"43533286-85e7-4676-97a4-49c7bb45c966","system_id":"levelo_inurba_marseille","lat":43.29573,"lon":5.367355,"is_reserved":false,"is_disabled":false,"rental_uris":{"android":"levelo://app?vid=43533286-85e7-4676-97a4-49c7bb45c966","ios":"levelo://app?vid=43533286-85e7-4676-97a4-49c7bb45c966"},"vehicle_type_id":"4","last_reported":1713042340,"current_range_meters":9600,"station_id":"ce4bgph2rcd13ifvqc2g","pricing_plan_id":"cebpf4jnsgd1na2vs0mg"},{"bike_id":"5b7c4f53-32bb-4d21-ba19-f53ad6bef805","system_id":"levelo_inurba_marseille","lat":43.296131,"lon":5.370791,"is_reserved":false,"is_disabled":false,"rental_uris":{"android":"levelo://app?vid=5b7c4f53-32bb-4d21-ba19-f53ad6bef805","ios":"levelo://app?vid=5b7c4f53-32bb-4d21-ba19-f53ad6bef805"},"vehicle_type_id":"4","last_reported":1713042340,"current_range_meters":30000,"station_id":"ce4bgnh2rcd13ifvqc0g","pricing_plan_id":"cebpf4jnsgd1na2vs0mg"},{"bike_id":"b875294e-ca52-4b99-bd3f-455d0a37a6f0","system_id":"levelo_inurba_marseille","lat":43.296131,"lon":5.370773,"is_reserved":false,"is_disabled":false,"rental_uris":{"android":"levelo://app?vid=b875294e-ca52-4b99-bd3f-455d0a37a6f0","ios":"levelo://app?vid=b875294e-ca52-4b99-bd3f-455d0a37a6f0"},"vehicle_type_id":"4","last_reported":1713042340,"current_range_meters":28800,"station_id":"ce4bgnh2rcd13ifvqc0g","pricing_plan_id":"cebpf4jnsgd1na2vs0mg"},{"bike_id":"6b7bb990-9122-4a7b-a645-4b7990cb7ffc","system_id":"levelo_inurba_marseille","lat":43.29573,"lon":5.367355,"is_reserved":false,"is_disabled":false,"rental_uris":{"android":"levelo://app?vid=6b7bb990-9122-4a7b-a645-4b7990cb7ffc","ios":"levelo://app?vid=6b7bb990-9122-4a7b-a645-4b7990cb7ffc"},"vehicle_type_id":"4","last_reported":1713042340,"current_range_meters":20000,"station_id":"ce4bgph2rcd13ifvqc2g","pricing_plan_id":"cebpf4jnsgd1na2vs0mg"},{"bike_id":"65154f79-f153-4b9e-8390-8a0b7ec4e570","system_id":"levelo_inurba_marseille","lat":43.29573,"lon":5.367355,"is_reserved":false,"is_disabled":false,"rental_uris":{"android":"levelo://app?vid=65154f79-f153-4b9e-8390-8a0b7ec4e570","ios":"levelo://app?vid=65154f79-f153-4b9e-8390-8a0b7ec4e570"},"vehicle_type_id":"4","last_reported":1713042340,"current_range_meters":31200,"station_id":"ce4bgph2rcd13ifvqc2g","pricing_plan_id":"cebpf4jnsgd1na2vs0mg"},{"bike_id":"43a3f0bd-04e7-40ca-be06-076e3892a2b1","system_id":"levelo_inurba_marseille","lat":43.29573,"lon":5.367355,"is_reserved":false,"is_disabled":false,"rental_uris":{"android":"levelo://app?vid=43a3f0bd-04e7-40ca-be06-076e3892a2b1","ios":"levelo://app?vid=43a3f0bd-04e7-40ca-be06-076e3892a2b1"},"vehicle_type_id":"4","last_reported":1713042340,"current_range_meters":19600,"station_id":"ce4bgph2rcd13ifvqc2g","pricing_plan_id":"cebpf4jnsgd1na2vs0mg"},{"bike_id":"0b817451-2bc4-4792-82ec-bcddd7566d07","system_id":"levelo_inurba_marseille","lat":43.29573,"lon":5.367355,"is_reserved":false,"is_disabled":false,"rental_uris":{"android":"levelo://app?vid=0b817451-2bc4-4792-82ec-bcddd7566d07","ios":"levelo://app?vid=0b817451-2bc4-4792-82ec-bcddd7566d07"},"vehicle_type_id":"4","last_reported":1713042340,"current_range_meters":26400,"station_id":"ce4bgph2rcd13ifvqc2g","pricing_plan_id":"cebpf4jnsgd1na2vs0mg"},{"bike_id":"3c33e5e4-335d-4c37-9593-d6e7a947a36e","system_id":"levelo_inurba_marseille","lat":43.299028,"lon":5.381509,"is_reserved":false,"is_disabled":false,"rental_uris":{"android":"levelo://app?vid=3c33e5e4-335d-4c37-9593-d6e7a947a36e","ios":"levelo://app?vid=3c33e5e4-335d-4c37-9593-d6e7a947a36e"},"vehicle_type_id":"4","last_reported":1713042340,"current_range_meters":8400,"station_id":"ce4bgj12rcd13ifvqbc0","pricing_plan_id":"cebpf4jnsgd1na2vs0mg"},{"bike_id":"f1facbff-1d58-4846-967b-5999dbe04d7d","system_id":"levelo_inurba_marseille","lat":43.299028,"lon":5.381509,"is_reserved":false,"is_disabled":false,"rental_uris":{"android":"levelo://app?vid=f1facbff-1d58-4846-967b-5999dbe04d7d","ios":"levelo://app?vid=f1facbff-1d58-4846-967b-5999dbe04d7d"},"vehicle_type_id":"4","last_reported":1713042340,"current_range_meters":13200,"station_id":"ce4bgj12rcd13ifvqbc0","pricing_plan_id":"cebpf4jnsgd1na2vs0mg"},{"bike_id":"3430f99a-df9d-4ae5-8644-425168f58ed1","system_id":"levelo_inurba_marseille","lat":43.317557,"lon":5.390173,"is_reserved":false,"is_disabled":false,"rental_uris":{"android":"levelo://app?vid=3430f99a-df9d-4ae5-8644-425168f58ed1","ios":"levelo://app?vid=3430f99a-df9d-4ae5-8644-425168f58ed1"},"vehicle_type_id":"4","last_reported":1713042340,"current_range_meters":2800,"station_id":"ce4bhqp2rcd13ifvqhng","pricing_plan_id":"cebpf4jnsgd1na2vs0mg"},{"bike_id":"a0966fc8-2392-4139-a1c3-dfe66870b261","system_id":"levelo_inurba_marseille","lat":43.317557,"lon":5.390173,"is_reserved":false,"is_disabled":false,"rental_uris":{"android":"levelo://app?vid=a0966fc8-2392-4139-a1c3-dfe66870b261","ios":"levelo://app?vid=a0966fc8-2392-4139-a1c3-dfe66870b261"},"vehicle_type_id":"4","last_reported":1713042340,"current_range_meters":15200,"station_id":"ce4bhqp2rcd13ifvqhng","pricing_plan_id":"cebpf4jnsgd1na2vs0mg"},{"bike_id":"19fe547a-0bdb-468f-a9d8-30c51b6d9678","system_id":"levelo_inurba_marseille","lat":43.317587,"lon":5.39019,"is_reserved":false,"is_disabled":false,"rental_uris":{"android":"levelo://app?vid=19fe547a-0bdb-468f-a9d8-30c51b6d9678","ios":"levelo://app?vid=19fe547a-0bdb-468f-a9d8-30c51b6d9678"},"vehicle_type_id":"4","last_reported":1713042340,"current_range_meters":4800,"station_id":"ce4bhqp2rcd13ifvqhng","pricing_plan_id":"cebpf4jnsgd1na2vs0mg"},{"bike_id":"5060f169-cd66-453a-bb06-9dfd6074ec6d","system_id":"levelo_inurba_marseille","lat":43.29818,"lon":5.38094,"is_reserved":false,"is_disabled":false,"rental_uris":{"android":"levelo://app?vid=5060f169-cd66-453a-bb06-9dfd6074ec6d","ios":"levelo://app?vid=5060f169-cd66-453a-bb06-9dfd6074ec6d"},"vehicle_type_id":"4","last_reported":1713042340,"current_range_meters":0,"station_id":"ce4bgip2rcd13ifvqbb0","pricing_plan_id":"cebpf4jnsgd1na2vs0mg"},{"bike_id":"ef5daa87-4947-4bb4-ac65-9486562b01fa","system_id":"levelo_inurba_marseille","lat":43.295793,"lon":5.374978,"is_reserved":false,"is_disabled":false,"rental_uris":{"android":"levelo://app?vid=ef5daa87-4947-4bb4-ac65-9486562b01fa","ios":"levelo://app?vid=ef5daa87-4947-4bb4-ac65-9486562b01fa"},"vehicle_type_id":"4","last_reported":1713042340,"current_range_meters":28400,"station_id":"ce4bgh92rcd13ifvqb50","pricing_plan_id":"cebpf4jnsgd1na2vs0mg"},{"bike_id":"048cb604-8087-4aeb-9b5b-cd2991676a36","system_id":"levelo_inurba_marseille","lat":43.29806,"lon":5.3811,"is_reserved":false,"is_disabled":false,"rental_uris":{"android":"levelo://app?vid=048cb604-8087-4aeb-9b5b-cd2991676a36","ios":"levelo://app?vid=048cb604-8087-4aeb-9b5b-cd2991676a36"},"vehicle_type_id":"4","last_reported":1713042340,"current_range_meters":0,"station_id":"ce4bgip2rcd13ifvqbb0","pricing_plan_id":"cebpf4jnsgd1na2vs0mg"},{"bike_id":"a2f34c47-7aa4-4f33-9acf-1084de07f96e","system_id":"levelo_inurba_marseille","lat":43.29578,"lon":5.375083,"is_reserved":false,"is_disabled":false,"rental_uris":{"android":"levelo://app?vid=a2f34c47-7aa4-4f33-9acf-1084de07f96e","ios":"levelo://app?vid=a2f34c47-7aa4-4f33-9acf-1084de07f96e"},"vehicle_type_id":"4","last_reported":1713042340,"current_range_meters":31200,"station_id":"ce4bgh92rcd13ifvqb50","pricing_plan_id":"cebpf4jnsgd1na2vs0mg"},{"bike_id":"2ab709b8-cf9f-4257-856f-ca080048a982","system_id":"levelo_inurba_marseille","lat":43.29803,"lon":5.38111,"is_reserved":false,"is_disabled":false,"rental_uris":{"android":"levelo://app?vid=2ab709b8-cf9f-4257-856f-ca080048a982","ios":"levelo://app?vid=2ab709b8-cf9f-4257-856f-ca080048a982"},"vehicle_type_id":"4","last_reported":1713042340,"current_range_meters":0,"station_id":"ce4bgip2rcd13ifvqbb0","pricing_plan_id":"cebpf4jnsgd1na2vs0mg"},{"bike_id":"6be0b21d-e0dc-4adf-8f3c-fb5779e50100","system_id":"levelo_inurba_marseille","lat":43.295774,"lon":5.375109,"is_reserved":false,"is_disabled":false,"rental_uris":{"android":"levelo://app?vid=6be0b21d-e0dc-4adf-8f3c-fb5779e50100","ios":"levelo://app?vid=6be0b21d-e0dc-4adf-8f3c-fb5779e50100"},"vehicle_type_id":"4","last_reported":1713042340,"current_range_meters":25200,"station_id":"ce4bgh92rcd13ifvqb50","pricing_plan_id":"cebpf4jnsgd1na2vs0mg"},{"bike_id":"021358c4-41bd-4909-8f44-6a10ad2d4e18","system_id":"levelo_inurba_marseille","lat":43.29575,"lon":5.375039,"is_reserved":false,"is_disabled":false,"rental_uris":{"android":"levelo://app?vid=021358c4-41bd-4909-8f44-6a10ad2d4e18","ios":"levelo://app?vid=021358c4-41bd-4909-8f44-6a10ad2d4e18"},"vehicle_type_id":"4","last_reported":1713042340,"current_range_meters":31200,"station_id":"ce4bgh92rcd13ifvqb50","pricing_plan_id":"cebpf4jnsgd1na2vs0mg"},{"bike_id":"59186425-3e22-4140-990c-ea02ef0a89ce","system_id":"levelo_inurba_marseille","lat":43.29576,"lon":5.37509,"is_reserved":false,"is_disabled":false,"rental_uris":{"android":"levelo://app?vid=59186425-3e22-4140-990c-ea02ef0a89ce","ios":"levelo://app?vid=59186425-3e22-4140-990c-ea02ef0a89ce"},"vehicle_type_id":"4","last_reported":1713042340,"current_range_meters":22800,"station_id":"ce4bgh92rcd13ifvqb50","pricing_plan_id":"cebpf4jnsgd1na2vs0mg"},{"bike_id":"a83c78fd-71e2-4302-b388-23d568e3c305","system_id":"levelo_inurba_marseille","lat":43.29798,"lon":5.38106,"is_reserved":false,"is_disabled":false,"rental_uris":{"android":"levelo://app?vid=a83c78fd-71e2-4302-b388-23d568e3c305","ios":"levelo://app?vid=a83c78fd-71e2-4302-b388-23d568e3c305"},"vehicle_type_id":"4","last_reported":1713042340,"current_range_meters":0,"station_id":"ce4bgip2rcd13ifvqbb0","pricing_plan_id":"cebpf4jnsgd1na2vs0mg"},{"bike_id":"3ef58c0a-c011-40a9-b153-1422b3253cf7","system_id":"levelo_inurba_marseille","lat":43.29796,"lon":5.38111,"is_reserved":false,"is_disabled":false,"rental_uris":{"android":"levelo://app?vid=3ef58c0a-c011-40a9-b153-1422b3253cf7","ios":"levelo://app?vid=3ef58c0a-c011-40a9-b153-1422b3253cf7"},"vehicle_type_id":"4","last_reported":1713042340,"current_range_meters":0,"station_id":"ce4bgip2rcd13ifvqbb0","pricing_plan_id":"cebpf4jnsgd1na2vs0mg"},{"bike_id":"3ad96ebf-3315-4047-bb5e-0c76aaff59c7","system_id":"levelo_inurba_marseille","lat":43.297919,"lon":5.381084,"is_reserved":false,"is_disabled":false,"rental_uris":{"android":"levelo://app?vid=3ad96ebf-3315-4047-bb5e-0c76aaff59c7","ios":"levelo://app?vid=3ad96ebf-3315-4047-bb5e-0c76aaff59c7"},"vehicle_type_id":"4","last_reported":1713042340,"current_range_meters":0,"station_id":"ce4bgip2rcd13ifvqbb0","pricing_plan_id":"cebpf4jnsgd1na2vs0mg"},{"bike_id":"f81decfe-b114-4e7e-a015-0e136b627f7e","system_id":"levelo_inurba_marseille","lat":43.30432,"lon":5.38887,"is_reserved":false,"is_disabled":false,"rental_uris":{"android":"levelo://app?vid=f81decfe-b114-4e7e-a015-0e136b627f7e","ios":"levelo://app?vid=f81decfe-b114-4e7e-a015-0e136b627f7e"},"vehicle_type_id":"4","last_reported":1713042340,"current_range_meters":0,"station_id":"ce4bgk12rcd13ifvqbi0","pricing_plan_id":"cebpf4jnsgd1na2vs0mg"},{"bike_id":"613e0c33-cf34-4b83-a1b8-43989a9f0f15","system_id":"levelo_inurba_marseille","lat":43.296263,"lon":5.377094,"is_reserved":false,"is_disabled":false,"rental_uris":{"android":"levelo://app?vid=613e0c33-cf34-4b83-a1b8-43989a9f0f15","ios":"levelo://app?vid=613e0c33-cf34-4b83-a1b8-43989a9f0f15"},"vehicle_type_id":"4","last_reported":1713042340,"current_range_meters":26800,"station_id":"ce4bgi92rcd13ifvqb90","pricing_plan_id":"cebpf4jnsgd1na2vs0mg"},{"bike_id":"1b05d1d3-396b-4c6e-96c8-9858b04e7381","system_id":"levelo_inurba_marseille","lat":43.309589,"lon":5.390258,"is_reserved":false,"is_disabled":false,"rental_uris":{"android":"levelo://app?vid=1b05d1d3-396b-4c6e-96c8-9858b04e7381","ios":"levelo://app?vid=1b05d1d3-396b-4c6e-96c8-9858b04e7381"},"vehicle_type_id":"4","last_reported":1713042340,"current_range_meters":18000,"station_id":"ce4bgup2rcd13ifvqco0","pricing_plan_id":"cebpf4jnsgd1na2vs0mg"},{"bike_id":"18460e4d-07b5-4767-bec2-9605dbb0a1e5","system_id":"levelo_inurba_marseille","lat":43.304274,"lon":5.388873,"is_reserved":false,"is_disabled":false,"rental_uris":{"android":"levelo://app?vid=18460e4d-07b5-4767-bec2-9605dbb0a1e5","ios":"levelo://app?vid=18460e4d-07b5-4767-bec2-9605dbb0a1e5"},"vehicle_type_id":"4","last_reported":1713042340,"current_range_meters":24400,"station_id":"ce4bgk12rcd13ifvqbi0","pricing_plan_id":"cebpf4jnsgd1na2vs0mg"},{"bike_id":"fa88525a-f816-4ecf-9ad5-b87478a4bcc4","system_id":"levelo_inurba_marseille","lat":43.297826,"lon":5.381137,"is_reserved":false,"is_disabled":false,"rental_uris":{"android":"levelo://app?vid=fa88525a-f816-4ecf-9ad5-b87478a4bcc4","ios":"levelo://app?vid=fa88525a-f816-4ecf-9ad5-b87478a4bcc4"},"vehicle_type_id":"4","last_reported":1713042340,"current_range_meters":0,"station_id":"ce4bgip2rcd13ifvqbb0","pricing_plan_id":"cebpf4jnsgd1na2vs0mg"},{"bike_id":"276ad4d1-a97a-43e0-a3fd-f7462eae9d14","system_id":"levelo_inurba_marseille","lat":43.29618,"lon":5.37715,"is_reserved":false,"is_disabled":false,"rental_uris":{"android":"levelo://app?vid=276ad4d1-a97a-43e0-a3fd-f7462eae9d14","ios":"levelo://app?vid=276ad4d1-a97a-43e0-a3fd-f7462eae9d14"},"vehicle_type_id":"4","last_reported":1713042340,"current_range_meters":0,"station_id":"ce4bgi92rcd13ifvqb90","pricing_plan_id":"cebpf4jnsgd1na2vs0mg"},{"bike_id":"aa73cfe3-6384-4a7f-8ddd-ec28982c6211","system_id":"levelo_inurba_marseille","lat":43.29616,"lon":5.37721,"is_reserved":false,"is_disabled":false,"rental_uris":{"android":"levelo://app?vid=aa73cfe3-6384-4a7f-8ddd-ec28982c6211","ios":"levelo://app?vid=aa73cfe3-6384-4a7f-8ddd-ec28982c6211"},"vehicle_type_id":"4","last_reported":1713042340,"current_range_meters":0,"station_id":"ce4bgi92rcd13ifvqb90","pricing_plan_id":"cebpf4jnsgd1na2vs0mg"},{"bike_id":"d6056fd0-5a78-4b53-99ff-08c7f4e01236","system_id":"levelo_inurba_marseille","lat":43.296173,"lon":5.37734,"is_reserved":false,"is_disabled":false,"rental_uris":{"android":"levelo://app?vid=d6056fd0-5a78-4b53-99ff-08c7f4e01236","ios":"levelo://app?vid=d6056fd0-5a78-4b53-99ff-08c7f4e01236"},"vehicle_type_id":"4","last_reported":1713042340,"current_range_meters":0,"station_id":"ce4bgi92rcd13ifvqb90","pricing_plan_id":"cebpf4jnsgd1na2vs0mg"},{"bike_id":"2edb6994-1f28-4742-ae9d-83f7a61d9801","system_id":"levelo_inurba_marseille","lat":43.29537,"lon":5.37505,"is_reserved":false,"is_disabled":false,"rental_uris":{"android":"levelo://app?vid=2edb6994-1f28-4742-ae9d-83f7a61d9801","ios":"levelo://app?vid=2edb6994-1f28-4742-ae9d-83f7a61d9801"},"vehicle_type_id":"4","last_reported":1713042340,"current_range_meters":8000,"station_id":"ce4bgkp2rcd13ifvqbmg","pricing_plan_id":"cebpf4jnsgd1na2vs0mg"},{"bike_id":"da1edac0-fb18-4dfa-bd02-34a903de9359","system_id":"levelo_inurba_marseille","lat":43.295286,"lon":5.37502,"is_reserved":false,"is_disabled":false,"rental_uris":{"android":"levelo://app?vid=da1edac0-fb18-4dfa-bd02-34a903de9359","ios":"levelo://app?vid=da1edac0-fb18-4dfa-bd02-34a903de9359"},"vehicle_type_id":"4","last_reported":1713042340,"current_range_meters":31200,"station_id":"ce4bgkp2rcd13ifvqbmg","pricing_plan_id":"cebpf4jnsgd1na2vs0mg"},{"bike_id":"183287e2-6799-41b1-9b6c-d6a6f4b41021","system_id":"levelo_inurba_marseille","lat":43.2953,"lon":5.3751,"is_reserved":false,"is_disabled":false,"rental_uris":{"android":"levelo://app?vid=183287e2-6799-41b1-9b6c-d6a6f4b41021","ios":"levelo://app?vid=183287e2-6799-41b1-9b6c-d6a6f4b41021"},"vehicle_type_id":"4","last_reported":1713042340,"current_range_meters":31200,"station_id":"ce4bgkp2rcd13ifvqbmg","pricing_plan_id":"cebpf4jnsgd1na2vs0mg"},{"bike_id":"23b00a99-b4d9-42e3-98a7-f22ade321d8a","system_id":"levelo_inurba_marseille","lat":43.29526,"lon":5.37503,"is_reserved":false,"is_disabled":false,"rental_uris":{"android":"levelo://app?vid=23b00a99-b4d9-42e3-98a7-f22ade321d8a","ios":"levelo://app?vid=23b00a99-b4d9-42e3-98a7-f22ade321d8a"},"vehicle_type_id":"4","last_reported":1713042340,"current_range_meters":29600,"station_id":"ce4bgkp2rcd13ifvqbmg","pricing_plan_id":"cebpf4jnsgd1na2vs0mg"},{"bike_id":"024c0885-d2bf-479d-9918-bc9b54f7e73f","system_id":"levelo_inurba_marseille","lat":43.279952,"lon":5.400085,"is_reserved":false,"is_disabled":false,"rental_uris":{"android":"levelo://app?vid=024c0885-d2bf-479d-9918-bc9b54f7e73f","ios":"levelo://app?vid=024c0885-d2bf-479d-9918-bc9b54f7e73f"},"vehicle_type_id":"4","last_reported":1713042340,"current_range_meters":2000,"station_id":"ce4bho92rcd13ifvqh4g","pricing_plan_id":"cebpf4jnsgd1na2vs0mg"},{"bike_id":"40ccb42f-43ba-4d09-ae8e-fdf098ecfbec","system_id":"levelo_inurba_marseille","lat":43.299701,"lon":5.385307,"is_reserved":false,"is_disabled":false,"rental_uris":{"android":"levelo://app?vid=40ccb42f-43ba-4d09-ae8e-fdf098ecfbec","ios":"levelo://app?vid=40ccb42f-43ba-4d09-ae8e-fdf098ecfbec"},"vehicle_type_id":"4","last_reported":1713042340,"current_range_meters":5600,"station_id":"","pricing_plan_id":"cebpf4jnsgd1na2vs0mg"},{"bike_id":"bbaf3008-09bf-4470-a4f4-38c915c11093","system_id":"levelo_inurba_marseille","lat":43.298665,"lon":5.384128,"is_reserved":false,"is_disabled":false,"rental_uris":{"android":"levelo://app?vid=bbaf3008-09bf-4470-a4f4-38c915c11093","ios":"levelo://app?vid=bbaf3008-09bf-4470-a4f4-38c915c11093"},"vehicle_type_id":"4","last_reported":1713042340,"current_range_meters":3600,"station_id":"","pricing_plan_id":"cebpf4jnsgd1na2vs0mg"},{"bike_id":"a48415b0-76d0-40b8-87bd-60ae04b3f7fd","system_id":"levelo_inurba_marseille","lat":43.299724,"lon":5.384848,"is_reserved":false,"is_disabled":false,"rental_uris":{"android":"levelo://app?vid=a48415b0-76d0-40b8-87bd-60ae04b3f7fd","ios":"levelo://app?vid=a48415b0-76d0-40b8-87bd-60ae04b3f7fd"},"vehicle_type_id":"4","last_reported":1713042340,"current_range_meters":1200,"station_id":"ce4bgj92rcd13ifvqbd0","pricing_plan_id":"cebpf4jnsgd1na2vs0mg"},{"bike_id":"6a590e87-745f-46bd-823e-cdcac98edcec","system_id":"levelo_inurba_marseille","lat":43.29625,"lon":5.380223,"is_reserved":false,"is_disabled":false,"rental_uris":{"android":"levelo://app?vid=6a590e87-745f-46bd-823e-cdcac98edcec","ios":"levelo://app?vid=6a590e87-745f-46bd-823e-cdcac98edcec"},"vehicle_type_id":"4","last_reported":1713042340,"current_range_meters":0,"station_id":"","pricing_plan_id":"cebpf4jnsgd1na2vs0mg"},{"bike_id":"769606b8-7666-40f0-9734-0c64db5ad0dc","system_id":"levelo_inurba_marseille","lat":43.32366,"lon":5.38887,"is_reserved":false,"is_disabled":false,"rental_uris":{"android":"levelo://app?vid=769606b8-7666-40f0-9734-0c64db5ad0dc","ios":"levelo://app?vid=769606b8-7666-40f0-9734-0c64db5ad0dc"},"vehicle_type_id":"4","last_reported":1713042340,"current_range_meters":0,"station_id":"ce4bhqp2rcd13ifvqhog","pricing_plan_id":"cebpf4jnsgd1na2vs0mg"},{"bike_id":"8a1e127c-3b46-48ac-9fef-94379255c5aa","system_id":"levelo_inurba_marseille","lat":43.32367,"lon":5.388836,"is_reserved":false,"is_disabled":false,"rental_uris":{"android":"levelo://app?vid=8a1e127c-3b46-48ac-9fef-94379255c5aa","ios":"levelo://app?vid=8a1e127c-3b46-48ac-9fef-94379255c5aa"},"vehicle_type_id":"4","last_reported":1713042340,"current_range_meters":28000,"station_id":"ce4bhqp2rcd13ifvqhog","pricing_plan_id":"cebpf4jnsgd1na2vs0mg"},{"bike_id":"5966a690-b678-4c04-95ed-5ce3b882a8bb","system_id":"levelo_inurba_marseille","lat":43.32367,"lon":5.388836,"is_reserved":false,"is_disabled":false,"rental_uris":{"android":"levelo://app?vid=5966a690-b678-4c04-95ed-5ce3b882a8bb","ios":"levelo://app?vid=5966a690-b678-4c04-95ed-5ce3b882a8bb"},"vehicle_type_id":"4","last_reported":1713042340,"current_range_meters":0,"station_id":"ce4bhqp2rcd13ifvqhog","pricing_plan_id":"cebpf4jnsgd1na2vs0mg"},{"bike_id":"f6f4a7a8-d214-4ffd-b38e-fead96a843f5","system_id":"levelo_inurba_marseille","lat":43.295992,"lon":5.380945,"is_reserved":false,"is_disabled":false,"rental_uris":{"android":"levelo://app?vid=f6f4a7a8-d214-4ffd-b38e-fead96a843f5","ios":"levelo://app?vid=f6f4a7a8-d214-4ffd-b38e-fead96a843f5"},"vehicle_type_id":"4","last_reported":1713042340,"current_range_meters":0,"station_id":"ce4bgl12rcd13ifvqbo0","pricing_plan_id":"cebpf4jnsgd1na2vs0mg"},{"bike_id":"5f506002-8a43-4b3b-9535-026c26543aeb","system_id":"levelo_inurba_marseille","lat":43.29601,"lon":5.381084,"is_reserved":false,"is_disabled":false,"rental_uris":{"android":"levelo://app?vid=5f506002-8a43-4b3b-9535-026c26543aeb","ios":"levelo://app?vid=5f506002-8a43-4b3b-9535-026c26543aeb"},"vehicle_type_id":"4","last_reported":1713042340,"current_range_meters":31200,"station_id":"ce4bgl12rcd13ifvqbo0","pricing_plan_id":"cebpf4jnsgd1na2vs0mg"},{"bike_id":"6e7e2ea2-adae-4d92-af46-7ce407a6e481","system_id":"levelo_inurba_marseille","lat":43.29592,"lon":5.38091,"is_reserved":false,"is_disabled":false,"rental_uris":{"android":"levelo://app?vid=6e7e2ea2-adae-4d92-af46-7ce407a6e481","ios":"levelo://app?vid=6e7e2ea2-adae-4d92-af46-7ce407a6e481"},"vehicle_type_id":"4","last_reported":1713042340,"current_range_meters":7600,"station_id":"ce4bgl12rcd13ifvqbo0","pricing_plan_id":"cebpf4jnsgd1na2vs0mg"},{"bike_id":"30ec28d7-c397-453d-967f-a4b5ba826a0d","system_id":"levelo_inurba_marseille","lat":43.29592,"lon":5.38098,"is_reserved":false,"is_disabled":false,"rental_uris":{"android":"levelo://app?vid=30ec28d7-c397-453d-967f-a4b5ba826a0d","ios":"levelo://app?vid=30ec28d7-c397-453d-967f-a4b5ba826a0d"},"vehicle_type_id":"4","last_reported":1713042340,"current_range_meters":0,"station_id":"ce4bgl12rcd13ifvqbo0","pricing_plan_id":"cebpf4jnsgd1na2vs0mg"},{"bike_id":"f2f3aa8b-0f67-44aa-8be1-987957caf040","system_id":"levelo_inurba_marseille","lat":43.29601,"lon":5.381084,"is_reserved":false,"is_disabled":false,"rental_uris":{"android":"levelo://app?vid=f2f3aa8b-0f67-44aa-8be1-987957caf040","ios":"levelo://app?vid=f2f3aa8b-0f67-44aa-8be1-987957caf040"},"vehicle_type_id":"4","last_reported":1713042340,"current_range_meters":0,"station_id":"ce4bgl12rcd13ifvqbo0","pricing_plan_id":"cebpf4jnsgd1na2vs0mg"},{"bike_id":"858ec407-b045-4098-878f-b0421ed940e6","system_id":"levelo_inurba_marseille","lat":43.289741,"lon":5.378306,"is_reserved":false,"is_disabled":false,"rental_uris":{"android":"levelo://app?vid=858ec407-b045-4098-878f-b0421ed940e6","ios":"levelo://app?vid=858ec407-b045-4098-878f-b0421ed940e6"},"vehicle_type_id":"4","last_reported":1713042340,"current_range_meters":0,"station_id":"ce4bh9p2rcd13ifvqed0","pricing_plan_id":"cebpf4jnsgd1na2vs0mg"},{"bike_id":"a863faa7-a3fa-4a52-8818-d0075e1f2379","system_id":"levelo_inurba_marseille","lat":43.292749,"lon":5.368402,"is_reserved":false,"is_disabled":false,"rental_uris":{"android":"levelo://app?vid=a863faa7-a3fa-4a52-8818-d0075e1f2379","ios":"levelo://app?vid=a863faa7-a3fa-4a52-8818-d0075e1f2379"},"vehicle_type_id":"4","last_reported":1713042340,"current_range_meters":4000,"station_id":"ce4bhbp2rcd13ifvqesg","pricing_plan_id":"cebpf4jnsgd1na2vs0mg"},{"bike_id":"745ddd2e-1371-4a85-8eea-51430f3d9ae7","system_id":"levelo_inurba_marseille","lat":43.293259,"lon":5.371586,"is_reserved":false,"is_disabled":false,"rental_uris":{"android":"levelo://app?vid=745ddd2e-1371-4a85-8eea-51430f3d9ae7","ios":"levelo://app?vid=745ddd2e-1371-4a85-8eea-51430f3d9ae7"},"vehicle_type_id":"4","last_reported":1713042340,"current_range_meters":26400,"station_id":"ce4bgh92rcd13ifvqb40","pricing_plan_id":"cebpf4jnsgd1na2vs0mg"},{"bike_id":"9731dd4e-6782-4df5-af53-8a42ad88e188","system_id":"levelo_inurba_marseille","lat":43.293259,"lon":5.371586,"is_reserved":false,"is_disabled":false,"rental_uris":{"android":"levelo://app?vid=9731dd4e-6782-4df5-af53-8a42ad88e188","ios":"levelo://app?vid=9731dd4e-6782-4df5-af53-8a42ad88e188"},"vehicle_type_id":"4","last_reported":1713042340,"current_range_meters":0,"station_id":"ce4bgh92rcd13ifvqb40","pricing_plan_id":"cebpf4jnsgd1na2vs0mg"},{"bike_id":"8f827862-1ba9-4856-b583-a95dcaf6d704","system_id":"levelo_inurba_marseille","lat":43.293259,"lon":5.371586,"is_reserved":false,"is_disabled":false,"rental_uris":{"android":"levelo://app?vid=8f827862-1ba9-4856-b583-a95dcaf6d704","ios":"levelo://app?vid=8f827862-1ba9-4856-b583-a95dcaf6d704"},"vehicle_type_id":"4","last_reported":1713042340,"current_range_meters":0,"station_id":"ce4bgh92rcd13ifvqb40","pricing_plan_id":"cebpf4jnsgd1na2vs0mg"},{"bike_id":"08915538-1dd2-4517-b1ff-92b559377809","system_id":"levelo_inurba_marseille","lat":43.293249,"lon":5.371578,"is_reserved":false,"is_disabled":false,"rental_uris":{"android":"levelo://app?vid=08915538-1dd2-4517-b1ff-92b559377809","ios":"levelo://app?vid=08915538-1dd2-4517-b1ff-92b559377809"},"vehicle_type_id":"4","last_reported":1713042340,"current_range_meters":0,"station_id":"ce4bgh92rcd13ifvqb40","pricing_plan_id":"cebpf4jnsgd1na2vs0mg"},{"bike_id":"50a88473-3a9b-4ec0-97e6-2632a0b1949f","system_id":"levelo_inurba_marseille","lat":43.293259,"lon":5.371586,"is_reserved":false,"is_disabled":false,"rental_uris":{"android":"levelo://app?vid=50a88473-3a9b-4ec0-97e6-2632a0b1949f","ios":"levelo://app?vid=50a88473-3a9b-4ec0-97e6-2632a0b1949f"},"vehicle_type_id":"4","last_reported":1713042340,"current_range_meters":0,"station_id":"ce4bgh92rcd13ifvqb40","pricing_plan_id":"cebpf4jnsgd1na2vs0mg"},{"bike_id":"e1e92c43-d930-4078-a586-dfec8ac9f3cb","system_id":"levelo_inurba_marseille","lat":43.293259,"lon":5.371586,"is_reserved":false,"is_disabled":false,"rental_uris":{"android":"levelo://app?vid=e1e92c43-d930-4078-a586-dfec8ac9f3cb","ios":"levelo://app?vid=e1e92c43-d930-4078-a586-dfec8ac9f3cb"},"vehicle_type_id":"4","last_reported":1713042340,"current_range_meters":10800,"station_id":"ce4bgh92rcd13ifvqb40","pricing_plan_id":"cebpf4jnsgd1na2vs0mg"},{"bike_id":"73a9590f-18c0-42db-8555-182921d77b01","system_id":"levelo_inurba_marseille","lat":43.292749,"lon":5.368402,"is_reserved":false,"is_disabled":false,"rental_uris":{"android":"levelo://app?vid=73a9590f-18c0-42db-8555-182921d77b01","ios":"levelo://app?vid=73a9590f-18c0-42db-8555-182921d77b01"},"vehicle_type_id":"4","last_reported":1713042340,"current_range_meters":25200,"station_id":"ce4bhbp2rcd13ifvqesg","pricing_plan_id":"cebpf4jnsgd1na2vs0mg"},{"bike_id":"8c7b8283-ed1e-44bc-8253-3a1ba960272a","system_id":"levelo_inurba_marseille","lat":43.292693,"lon":5.368423,"is_reserved":false,"is_disabled":false,"rental_uris":{"android":"levelo://app?vid=8c7b8283-ed1e-44bc-8253-3a1ba960272a","ios":"levelo://app?vid=8c7b8283-ed1e-44bc-8253-3a1ba960272a"},"vehicle_type_id":"4","last_reported":1713042340,"current_range_meters":28800,"station_id":"ce4bhbp2rcd13ifvqesg","pricing_plan_id":"cebpf4jnsgd1na2vs0mg"},{"bike_id":"0e6a6464-4dc8-4846-ad4f-282e799ca0fb","system_id":"levelo_inurba_marseille","lat":43.29301,"lon":5.37458,"is_reserved":false,"is_disabled":false,"rental_uris":{"android":"levelo://app?vid=0e6a6464-4dc8-4846-ad4f-282e799ca0fb","ios":"levelo://app?vid=0e6a6464-4dc8-4846-ad4f-282e799ca0fb"},"vehicle_type_id":"4","last_reported":1713042340,"current_range_meters":0,"station_id":"ce4bgi12rcd13ifvqb70","pricing_plan_id":"cebpf4jnsgd1na2vs0mg"},{"bike_id":"0de3e49c-7c80-43b6-a34c-68b3b93a64eb","system_id":"levelo_inurba_marseille","lat":43.29299,"lon":5.37461,"is_reserved":false,"is_disabled":false,"rental_uris":{"android":"levelo://app?vid=0de3e49c-7c80-43b6-a34c-68b3b93a64eb","ios":"levelo://app?vid=0de3e49c-7c80-43b6-a34c-68b3b93a64eb"},"vehicle_type_id":"4","last_reported":1713042340,"current_range_meters":0,"station_id":"ce4bgi12rcd13ifvqb70","pricing_plan_id":"cebpf4jnsgd1na2vs0mg"},{"bike_id":"68a851b1-3c14-4312-b411-4811d80df22b","system_id":"levelo_inurba_marseille","lat":43.297794,"lon":5.370888,"is_reserved":false,"is_disabled":false,"rental_uris":{"android":"levelo://app?vid=68a851b1-3c14-4312-b411-4811d80df22b","ios":"levelo://app?vid=68a851b1-3c14-4312-b411-4811d80df22b"},"vehicle_type_id":"4","last_reported":1713042340,"current_range_meters":9600,"station_id":"ce4bgop2rcd13ifvqc1g","pricing_plan_id":"cebpf4jnsgd1na2vs0mg"},{"bike_id":"e95b0e1a-4f21-44ae-b331-2eff6212b2aa","system_id":"levelo_inurba_marseille","lat":43.30307,"lon":5.39218,"is_reserved":false,"is_disabled":false,"rental_uris":{"android":"levelo://app?vid=e95b0e1a-4f21-44ae-b331-2eff6212b2aa","ios":"levelo://app?vid=e95b0e1a-4f21-44ae-b331-2eff6212b2aa"},"vehicle_type_id":"4","last_reported":1713042340,"current_range_meters":28400,"station_id":"ce4bgkh2rcd13ifvqbk0","pricing_plan_id":"cebpf4jnsgd1na2vs0mg"},{"bike_id":"6e4b4748-58da-43be-bb76-58c53d4123fc","system_id":"levelo_inurba_marseille","lat":43.293734,"lon":5.378509,"is_reserved":false,"is_disabled":false,"rental_uris":{"android":"levelo://app?vid=6e4b4748-58da-43be-bb76-58c53d4123fc","ios":"levelo://app?vid=6e4b4748-58da-43be-bb76-58c53d4123fc"},"vehicle_type_id":"4","last_reported":1713042340,"current_range_meters":0,"station_id":"ce4bgjh2rcd13ifvqbf0","pricing_plan_id":"cebpf4jnsgd1na2vs0mg"},{"bike_id":"6f8e1ec0-e56a-4c0c-bd0b-c3d203a2a718","system_id":"levelo_inurba_marseille","lat":43.292311,"lon":5.360731,"is_reserved":false,"is_disabled":false,"rental_uris":{"android":"levelo://app?vid=6f8e1ec0-e56a-4c0c-bd0b-c3d203a2a718","ios":"levelo://app?vid=6f8e1ec0-e56a-4c0c-bd0b-c3d203a2a718"},"vehicle_type_id":"4","last_reported":1713042340,"current_range_meters":0,"station_id":"ce4bhbh2rcd13ifvqeqg","pricing_plan_id":"cebpf4jnsgd1na2vs0mg"},{"bike_id":"f5c4b0b8-4030-4a67-b095-74e4b698b3c0","system_id":"levelo_inurba_marseille","lat":43.30089,"lon":5.39074,"is_reserved":false,"is_disabled":false,"rental_uris":{"android":"levelo://app?vid=f5c4b0b8-4030-4a67-b095-74e4b698b3c0","ios":"levelo://app?vid=f5c4b0b8-4030-4a67-b095-74e4b698b3c0"},"vehicle_type_id":"4","last_reported":1713042340,"current_range_meters":0,"station_id":"ce4bh192rcd13ifvqdb0","pricing_plan_id":"cebpf4jnsgd1na2vs0mg"},{"bike_id":"a6a49625-1569-47a9-b9b9-59780a0b060a","system_id":"levelo_inurba_marseille","lat":43.298764,"lon":5.388973,"is_reserved":false,"is_disabled":false,"rental_uris":{"android":"levelo://app?vid=a6a49625-1569-47a9-b9b9-59780a0b060a","ios":"levelo://app?vid=a6a49625-1569-47a9-b9b9-59780a0b060a"},"vehicle_type_id":"4","last_reported":1713042340,"current_range_meters":0,"station_id":"ce4bh392rcd13ifvqdl0","pricing_plan_id":"cebpf4jnsgd1na2vs0mg"},{"bike_id":"802b66e7-18a7-4818-b100-f5e0234d9a4c","system_id":"levelo_inurba_marseille","lat":43.291675,"lon":5.371583,"is_reserved":false,"is_disabled":false,"rental_uris":{"android":"levelo://app?vid=802b66e7-18a7-4818-b100-f5e0234d9a4c","ios":"levelo://app?vid=802b66e7-18a7-4818-b100-f5e0234d9a4c"},"vehicle_type_id":"4","last_reported":1713042340,"current_range_meters":2800,"station_id":"ce4bha92rcd13ifvqeh0","pricing_plan_id":"cebpf4jnsgd1na2vs0mg"},{"bike_id":"4021ef4e-f3b5-46d6-a468-60c0c2545080","system_id":"levelo_inurba_marseille","lat":43.29885,"lon":5.38909,"is_reserved":false,"is_disabled":false,"rental_uris":{"android":"levelo://app?vid=4021ef4e-f3b5-46d6-a468-60c0c2545080","ios":"levelo://app?vid=4021ef4e-f3b5-46d6-a468-60c0c2545080"},"vehicle_type_id":"4","last_reported":1713042340,"current_range_meters":0,"station_id":"ce4bh392rcd13ifvqdl0","pricing_plan_id":"cebpf4jnsgd1na2vs0mg"},{"bike_id":"f2471cad-af1e-4372-8c35-26620aa6b6ad","system_id":"levelo_inurba_marseille","lat":43.291671,"lon":5.371575,"is_reserved":false,"is_disabled":false,"rental_uris":{"android":"levelo://app?vid=f2471cad-af1e-4372-8c35-26620aa6b6ad","ios":"levelo://app?vid=f2471cad-af1e-4372-8c35-26620aa6b6ad"},"vehicle_type_id":"4","last_reported":1713042340,"current_range_meters":0,"station_id":"ce4bha92rcd13ifvqeh0","pricing_plan_id":"cebpf4jnsgd1na2vs0mg"},{"bike_id":"faf8c463-b402-4417-85f0-5705f67183e6","system_id":"levelo_inurba_marseille","lat":43.29872,"lon":5.38907,"is_reserved":false,"is_disabled":false,"rental_uris":{"android":"levelo://app?vid=faf8c463-b402-4417-85f0-5705f67183e6","ios":"levelo://app?vid=faf8c463-b402-4417-85f0-5705f67183e6"},"vehicle_type_id":"4","last_reported":1713042340,"current_range_meters":0,"station_id":"ce4bh392rcd13ifvqdl0","pricing_plan_id":"cebpf4jnsgd1na2vs0mg"},{"bike_id":"ce3ffa09-0b17-45fd-ba11-3499731d27ea","system_id":"levelo_inurba_marseille","lat":43.292005,"lon":5.357875,"is_reserved":false,"is_disabled":false,"rental_uris":{"android":"levelo://app?vid=ce3ffa09-0b17-45fd-ba11-3499731d27ea","ios":"levelo://app?vid=ce3ffa09-0b17-45fd-ba11-3499731d27ea"},"vehicle_type_id":"4","last_reported":1713042340,"current_range_meters":21200,"station_id":"ce4bhb12rcd13ifvqel0","pricing_plan_id":"cebpf4jnsgd1na2vs0mg"},{"bike_id":"ce9f5682-698b-4fa6-a2b0-f44435910b32","system_id":"levelo_inurba_marseille","lat":43.309038,"lon":5.396546,"is_reserved":false,"is_disabled":false,"rental_uris":{"android":"levelo://app?vid=ce9f5682-698b-4fa6-a2b0-f44435910b32","ios":"levelo://app?vid=ce9f5682-698b-4fa6-a2b0-f44435910b32"},"vehicle_type_id":"4","last_reported":1713042340,"current_range_meters":20400,"station_id":"ce4bh012rcd13ifvqcv0","pricing_plan_id":"cebpf4jnsgd1na2vs0mg"},{"bike_id":"6affbd3e-3330-41dc-9b0a-26367bd1b596","system_id":"levelo_inurba_marseille","lat":43.291994,"lon":5.357886,"is_reserved":false,"is_disabled":false,"rental_uris":{"android":"levelo://app?vid=6affbd3e-3330-41dc-9b0a-26367bd1b596","ios":"levelo://app?vid=6affbd3e-3330-41dc-9b0a-26367bd1b596"},"vehicle_type_id":"4","last_reported":1713042340,"current_range_meters":29600,"station_id":"ce4bhb12rcd13ifvqel0","pricing_plan_id":"cebpf4jnsgd1na2vs0mg"},{"bike_id":"29912f8f-526a-4acd-8a8d-0740fb03b153","system_id":"levelo_inurba_marseille","lat":43.309038,"lon":5.396546,"is_reserved":false,"is_disabled":false,"rental_uris":{"android":"levelo://app?vid=29912f8f-526a-4acd-8a8d-0740fb03b153","ios":"levelo://app?vid=29912f8f-526a-4acd-8a8d-0740fb03b153"},"vehicle_type_id":"4","last_reported":1713042340,"current_range_meters":18000,"station_id":"ce4bh012rcd13ifvqcv0","pricing_plan_id":"cebpf4jnsgd1na2vs0mg"},{"bike_id":"2e5c175d-dc45-4f98-abd7-74559810beb7","system_id":"levelo_inurba_marseille","lat":43.309038,"lon":5.396546,"is_reserved":false,"is_disabled":false,"rental_uris":{"android":"levelo://app?vid=2e5c175d-dc45-4f98-abd7-74559810beb7","ios":"levelo://app?vid=2e5c175d-dc45-4f98-abd7-74559810beb7"},"vehicle_type_id":"4","last_reported":1713042340,"current_range_meters":13200,"station_id":"ce4bh012rcd13ifvqcv0","pricing_plan_id":"cebpf4jnsgd1na2vs0mg"},{"bike_id":"33d97fae-2a61-4a5e-8a32-283b883e7821","system_id":"levelo_inurba_marseille","lat":43.309038,"lon":5.396546,"is_reserved":false,"is_disabled":false,"rental_uris":{"android":"levelo://app?vid=33d97fae-2a61-4a5e-8a32-283b883e7821","ios":"levelo://app?vid=33d97fae-2a61-4a5e-8a32-283b883e7821"},"vehicle_type_id":"4","last_reported":1713042340,"current_range_meters":11600,"station_id":"ce4bh012rcd13ifvqcv0","pricing_plan_id":"cebpf4jnsgd1na2vs0mg"},{"bike_id":"d3c6cc14-21b2-495b-b518-8b63164f3ad4","system_id":"levelo_inurba_marseille","lat":43.29536,"lon":5.38531,"is_reserved":false,"is_disabled":false,"rental_uris":{"android":"levelo://app?vid=d3c6cc14-21b2-495b-b518-8b63164f3ad4","ios":"levelo://app?vid=d3c6cc14-21b2-495b-b518-8b63164f3ad4"},"vehicle_type_id":"4","last_reported":1713042340,"current_range_meters":5600,"station_id":"ce4bgih2rcd13ifvqba0","pricing_plan_id":"cebpf4jnsgd1na2vs0mg"},{"bike_id":"d79f194c-1b20-418e-9790-98bf56fa5298","system_id":"levelo_inurba_marseille","lat":43.29543,"lon":5.38544,"is_reserved":false,"is_disabled":false,"rental_uris":{"android":"levelo://app?vid=d79f194c-1b20-418e-9790-98bf56fa5298","ios":"levelo://app?vid=d79f194c-1b20-418e-9790-98bf56fa5298"},"vehicle_type_id":"4","last_reported":1713042340,"current_range_meters":3600,"station_id":"ce4bgih2rcd13ifvqba0","pricing_plan_id":"cebpf4jnsgd1na2vs0mg"},{"bike_id":"207d064a-4a26-42a5-aa6a-1a70031b1999","system_id":"levelo_inurba_marseille","lat":43.29535,"lon":5.38536,"is_reserved":false,"is_disabled":false,"rental_uris":{"android":"levelo://app?vid=207d064a-4a26-42a5-aa6a-1a70031b1999","ios":"levelo://app?vid=207d064a-4a26-42a5-aa6a-1a70031b1999"},"vehicle_type_id":"4","last_reported":1713042340,"current_range_meters":9600,"station_id":"ce4bgih2rcd13ifvqba0","pricing_plan_id":"cebpf4jnsgd1na2vs0mg"},{"bike_id":"95426f53-d98c-40cf-bcda-0a832463bb11","system_id":"levelo_inurba_marseille","lat":43.29529,"lon":5.385581,"is_reserved":false,"is_disabled":false,"rental_uris":{"android":"levelo://app?vid=95426f53-d98c-40cf-bcda-0a832463bb11","ios":"levelo://app?vid=95426f53-d98c-40cf-bcda-0a832463bb11"},"vehicle_type_id":"4","last_reported":1713042340,"current_range_meters":8000,"station_id":"ce4bgih2rcd13ifvqba0","pricing_plan_id":"cebpf4jnsgd1na2vs0mg"},{"bike_id":"e4a2a448-9656-42e5-950e-6fd339372107","system_id":"levelo_inurba_marseille","lat":43.29537,"lon":5.3854,"is_reserved":false,"is_disabled":false,"rental_uris":{"android":"levelo://app?vid=e4a2a448-9656-42e5-950e-6fd339372107","ios":"levelo://app?vid=e4a2a448-9656-42e5-950e-6fd339372107"},"vehicle_type_id":"4","last_reported":1713042340,"current_range_meters":3600,"station_id":"ce4bgih2rcd13ifvqba0","pricing_plan_id":"cebpf4jnsgd1na2vs0mg"},{"bike_id":"3c769b4e-5af0-4b68-a485-9cf8df742335","system_id":"levelo_inurba_marseille","lat":43.295262,"lon":5.385213,"is_reserved":false,"is_disabled":false,"rental_uris":{"android":"levelo://app?vid=3c769b4e-5af0-4b68-a485-9cf8df742335","ios":"levelo://app?vid=3c769b4e-5af0-4b68-a485-9cf8df742335"},"vehicle_type_id":"4","last_reported":1713042340,"current_range_meters":3600,"station_id":"ce4bgih2rcd13ifvqba0","pricing_plan_id":"cebpf4jnsgd1na2vs0mg"},{"bike_id":"262189e8-114c-4c0f-a83c-c96f98ba2e32","system_id":"levelo_inurba_marseille","lat":43.29529,"lon":5.385581,"is_reserved":false,"is_disabled":false,"rental_uris":{"android":"levelo://app?vid=262189e8-114c-4c0f-a83c-c96f98ba2e32","ios":"levelo://app?vid=262189e8-114c-4c0f-a83c-c96f98ba2e32"},"vehicle_type_id":"4","last_reported":1713042340,"current_range_meters":6800,"station_id":"ce4bgih2rcd13ifvqba0","pricing_plan_id":"cebpf4jnsgd1na2vs0mg"},{"bike_id":"b00497bf-3307-4715-bfbf-dc5a7fbd4c9c","system_id":"levelo_inurba_marseille","lat":43.29535,"lon":5.38541,"is_reserved":false,"is_disabled":false,"rental_uris":{"android":"levelo://app?vid=b00497bf-3307-4715-bfbf-dc5a7fbd4c9c","ios":"levelo://app?vid=b00497bf-3307-4715-bfbf-dc5a7fbd4c9c"},"vehicle_type_id":"4","last_reported":1713042340,"current_range_meters":2800,"station_id":"ce4bgih2rcd13ifvqba0","pricing_plan_id":"cebpf4jnsgd1na2vs0mg"},{"bike_id":"88451521-8a5a-4d00-9525-5c4082690e4a","system_id":"levelo_inurba_marseille","lat":43.29533,"lon":5.38538,"is_reserved":false,"is_disabled":false,"rental_uris":{"android":"levelo://app?vid=88451521-8a5a-4d00-9525-5c4082690e4a","ios":"levelo://app?vid=88451521-8a5a-4d00-9525-5c4082690e4a"},"vehicle_type_id":"4","last_reported":1713042340,"current_range_meters":19600,"station_id":"ce4bgih2rcd13ifvqba0","pricing_plan_id":"cebpf4jnsgd1na2vs0mg"},{"bike_id":"237dfa2f-388f-4e67-b2b1-fce8652d1931","system_id":"levelo_inurba_marseille","lat":43.295333,"lon":5.385408,"is_reserved":false,"is_disabled":false,"rental_uris":{"android":"levelo://app?vid=237dfa2f-388f-4e67-b2b1-fce8652d1931","ios":"levelo://app?vid=237dfa2f-388f-4e67-b2b1-fce8652d1931"},"vehicle_type_id":"4","last_reported":1713042340,"current_range_meters":8800,"station_id":"ce4bgih2rcd13ifvqba0","pricing_plan_id":"cebpf4jnsgd1na2vs0mg"},{"bike_id":"9092da0e-31e3-4cc3-a1fa-beb29f8f336c","system_id":"levelo_inurba_marseille","lat":43.29532,"lon":5.3854,"is_reserved":false,"is_disabled":false,"rental_uris":{"android":"levelo://app?vid=9092da0e-31e3-4cc3-a1fa-beb29f8f336c","ios":"levelo://app?vid=9092da0e-31e3-4cc3-a1fa-beb29f8f336c"},"vehicle_type_id":"4","last_reported":1713042340,"current_range_meters":0,"station_id":"ce4bgih2rcd13ifvqba0","pricing_plan_id":"cebpf4jnsgd1na2vs0mg"},{"bike_id":"0f9de9cd-5bed-4cc5-884c-56658100b77d","system_id":"levelo_inurba_marseille","lat":43.29533,"lon":5.38542,"is_reserved":false,"is_disabled":false,"rental_uris":{"android":"levelo://app?vid=0f9de9cd-5bed-4cc5-884c-56658100b77d","ios":"levelo://app?vid=0f9de9cd-5bed-4cc5-884c-56658100b77d"},"vehicle_type_id":"4","last_reported":1713042340,"current_range_meters":31200,"station_id":"ce4bgih2rcd13ifvqba0","pricing_plan_id":"cebpf4jnsgd1na2vs0mg"},{"bike_id":"5bafc625-a3c3-4a38-8390-2146792a4bb0","system_id":"levelo_inurba_marseille","lat":43.29532,"lon":5.38541,"is_reserved":false,"is_disabled":false,"rental_uris":{"android":"levelo://app?vid=5bafc625-a3c3-4a38-8390-2146792a4bb0","ios":"levelo://app?vid=5bafc625-a3c3-4a38-8390-2146792a4bb0"},"vehicle_type_id":"4","last_reported":1713042340,"current_range_meters":10400,"station_id":"ce4bgih2rcd13ifvqba0","pricing_plan_id":"cebpf4jnsgd1na2vs0mg"},{"bike_id":"9c89ae99-159a-4bb8-8356-dd1c4231ee05","system_id":"levelo_inurba_marseille","lat":43.29534,"lon":5.38545,"is_reserved":false,"is_disabled":false,"rental_uris":{"android":"levelo://app?vid=9c89ae99-159a-4bb8-8356-dd1c4231ee05","ios":"levelo://app?vid=9c89ae99-159a-4bb8-8356-dd1c4231ee05"},"vehicle_type_id":"4","last_reported":1713042340,"current_range_meters":8400,"station_id":"ce4bgih2rcd13ifvqba0","pricing_plan_id":"cebpf4jnsgd1na2vs0mg"},{"bike_id":"faeea708-9110-4b44-b444-84860abc1a9d","system_id":"levelo_inurba_marseille","lat":43.299028,"lon":5.381509,"is_reserved":false,"is_disabled":false,"rental_uris":{"android":"levelo://app?vid=faeea708-9110-4b44-b444-84860abc1a9d","ios":"levelo://app?vid=faeea708-9110-4b44-b444-84860abc1a9d"},"vehicle_type_id":"4","last_reported":1713042340,"current_range_meters":1600,"station_id":"ce4bgj12rcd13ifvqbc0","pricing_plan_id":"cebpf4jnsgd1na2vs0mg"},{"bike_id":"44b67888-f37f-4d0a-824b-9c8b04dc9695","system_id":"levelo_inurba_marseille","lat":43.29532,"lon":5.38544,"is_reserved":false,"is_disabled":false,"rental_uris":{"android":"levelo://app?vid=44b67888-f37f-4d0a-824b-9c8b04dc9695","ios":"levelo://app?vid=44b67888-f37f-4d0a-824b-9c8b04dc9695"},"vehicle_type_id":"4","last_reported":1713042340,"current_range_meters":1200,"station_id":"ce4bgih2rcd13ifvqba0","pricing_plan_id":"cebpf4jnsgd1na2vs0mg"},{"bike_id":"9ff72a40-ae6e-4b7c-b169-90a0e1765063","system_id":"levelo_inurba_marseille","lat":43.29531,"lon":5.38543,"is_reserved":false,"is_disabled":false,"rental_uris":{"android":"levelo://app?vid=9ff72a40-ae6e-4b7c-b169-90a0e1765063","ios":"levelo://app?vid=9ff72a40-ae6e-4b7c-b169-90a0e1765063"},"vehicle_type_id":"4","last_reported":1713042340,"current_range_meters":24000,"station_id":"ce4bgih2rcd13ifvqba0","pricing_plan_id":"cebpf4jnsgd1na2vs0mg"},{"bike_id":"d0b8fe1e-6cf2-4b9d-b472-c47e6bcc10d6","system_id":"levelo_inurba_marseille","lat":43.29531,"lon":5.38545,"is_reserved":false,"is_disabled":false,"rental_uris":{"android":"levelo://app?vid=d0b8fe1e-6cf2-4b9d-b472-c47e6bcc10d6","ios":"levelo://app?vid=d0b8fe1e-6cf2-4b9d-b472-c47e6bcc10d6"},"vehicle_type_id":"4","last_reported":1713042340,"current_range_meters":0,"station_id":"ce4bgih2rcd13ifvqba0","pricing_plan_id":"cebpf4jnsgd1na2vs0mg"},{"bike_id":"2d77d9ec-fc6a-4641-86cf-6a33db6e4673","system_id":"levelo_inurba_marseille","lat":43.29529,"lon":5.38542,"is_reserved":false,"is_disabled":false,"rental_uris":{"android":"levelo://app?vid=2d77d9ec-fc6a-4641-86cf-6a33db6e4673","ios":"levelo://app?vid=2d77d9ec-fc6a-4641-86cf-6a33db6e4673"},"vehicle_type_id":"4","last_reported":1713042340,"current_range_meters":20400,"station_id":"ce4bgih2rcd13ifvqba0","pricing_plan_id":"cebpf4jnsgd1na2vs0mg"},{"bike_id":"82560f23-190d-4dc0-b11a-ff4aa120213d","system_id":"levelo_inurba_marseille","lat":43.29527,"lon":5.38542,"is_reserved":false,"is_disabled":false,"rental_uris":{"android":"levelo://app?vid=82560f23-190d-4dc0-b11a-ff4aa120213d","ios":"levelo://app?vid=82560f23-190d-4dc0-b11a-ff4aa120213d"},"vehicle_type_id":"4","last_reported":1713042340,"current_range_meters":1200,"station_id":"ce4bgih2rcd13ifvqba0","pricing_plan_id":"cebpf4jnsgd1na2vs0mg"},{"bike_id":"ec33dc4e-b22b-4304-8e0b-026d3390cf10","system_id":"levelo_inurba_marseille","lat":43.29528,"lon":5.38544,"is_reserved":false,"is_disabled":false,"rental_uris":{"android":"levelo://app?vid=ec33dc4e-b22b-4304-8e0b-026d3390cf10","ios":"levelo://app?vid=ec33dc4e-b22b-4304-8e0b-026d3390cf10"},"vehicle_type_id":"4","last_reported":1713042340,"current_range_meters":5600,"station_id":"ce4bgih2rcd13ifvqba0","pricing_plan_id":"cebpf4jnsgd1na2vs0mg"},{"bike_id":"f110eec9-bdaa-4d41-bb73-c2a0fb7cd985","system_id":"levelo_inurba_marseille","lat":43.29529,"lon":5.385581,"is_reserved":false,"is_disabled":false,"rental_uris":{"android":"levelo://app?vid=f110eec9-bdaa-4d41-bb73-c2a0fb7cd985","ios":"levelo://app?vid=f110eec9-bdaa-4d41-bb73-c2a0fb7cd985"},"vehicle_type_id":"4","last_reported":1713042340,"current_range_meters":24000,"station_id":"ce4bgih2rcd13ifvqba0","pricing_plan_id":"cebpf4jnsgd1na2vs0mg"},{"bike_id":"52618e14-0cee-41fa-bf5b-29d00def1c89","system_id":"levelo_inurba_marseille","lat":43.29526,"lon":5.38544,"is_reserved":false,"is_disabled":false,"rental_uris":{"android":"levelo://app?vid=52618e14-0cee-41fa-bf5b-29d00def1c89","ios":"levelo://app?vid=52618e14-0cee-41fa-bf5b-29d00def1c89"},"vehicle_type_id":"4","last_reported":1713042340,"current_range_meters":31200,"station_id":"ce4bgih2rcd13ifvqba0","pricing_plan_id":"cebpf4jnsgd1na2vs0mg"},{"bike_id":"12ae58dd-d1ff-4faf-bf84-d401628bcbe0","system_id":"levelo_inurba_marseille","lat":43.29522,"lon":5.38553,"is_reserved":false,"is_disabled":false,"rental_uris":{"android":"levelo://app?vid=12ae58dd-d1ff-4faf-bf84-d401628bcbe0","ios":"levelo://app?vid=12ae58dd-d1ff-4faf-bf84-d401628bcbe0"},"vehicle_type_id":"4","last_reported":1713042340,"current_range_meters":23600,"station_id":"ce4bgih2rcd13ifvqba0","pricing_plan_id":"cebpf4jnsgd1na2vs0mg"},{"bike_id":"a8190a9a-d8f7-4825-a331-5f07352675f7","system_id":"levelo_inurba_marseille","lat":43.29176,"lon":5.35712,"is_reserved":false,"is_disabled":false,"rental_uris":{"android":"levelo://app?vid=a8190a9a-d8f7-4825-a331-5f07352675f7","ios":"levelo://app?vid=a8190a9a-d8f7-4825-a331-5f07352675f7"},"vehicle_type_id":"4","last_reported":1713042340,"current_range_meters":17600,"station_id":"","pricing_plan_id":"cebpf4jnsgd1na2vs0mg"},{"bike_id":"fc234bbb-ab52-4dfe-a10f-cbe63cba0452","system_id":"levelo_inurba_marseille","lat":43.290742,"lon":5.371593,"is_reserved":false,"is_disabled":false,"rental_uris":{"android":"levelo://app?vid=fc234bbb-ab52-4dfe-a10f-cbe63cba0452","ios":"levelo://app?vid=fc234bbb-ab52-4dfe-a10f-cbe63cba0452"},"vehicle_type_id":"4","last_reported":1713042340,"current_range_meters":22000,"station_id":"ce4bh5p2rcd13ifvqe4g","pricing_plan_id":"cebpf4jnsgd1na2vs0mg"},{"bike_id":"0b3b9686-cc23-4a58-8485-ed95233aea59","system_id":"levelo_inurba_marseille","lat":43.29066,"lon":5.37151,"is_reserved":false,"is_disabled":false,"rental_uris":{"android":"levelo://app?vid=0b3b9686-cc23-4a58-8485-ed95233aea59","ios":"levelo://app?vid=0b3b9686-cc23-4a58-8485-ed95233aea59"},"vehicle_type_id":"4","last_reported":1713042340,"current_range_meters":23200,"station_id":"ce4bh5p2rcd13ifvqe4g","pricing_plan_id":"cebpf4jnsgd1na2vs0mg"},{"bike_id":"2068a72a-52ac-414c-8f97-5008d1617c87","system_id":"levelo_inurba_marseille","lat":43.302008,"lon":5.394694,"is_reserved":false,"is_disabled":false,"rental_uris":{"android":"levelo://app?vid=2068a72a-52ac-414c-8f97-5008d1617c87","ios":"levelo://app?vid=2068a72a-52ac-414c-8f97-5008d1617c87"},"vehicle_type_id":"4","last_reported":1713042340,"current_range_meters":7200,"station_id":"ce4bh0p2rcd13ifvqd70","pricing_plan_id":"cebpf4jnsgd1na2vs0mg"},{"bike_id":"d56435f6-2777-43b3-b902-fac5c6c8d69e","system_id":"levelo_inurba_marseille","lat":43.290631,"lon":5.359244,"is_reserved":false,"is_disabled":false,"rental_uris":{"android":"levelo://app?vid=d56435f6-2777-43b3-b902-fac5c6c8d69e","ios":"levelo://app?vid=d56435f6-2777-43b3-b902-fac5c6c8d69e"},"vehicle_type_id":"4","last_reported":1713042340,"current_range_meters":0,"station_id":"ce4bha92rcd13ifvqeg0","pricing_plan_id":"cebpf4jnsgd1na2vs0mg"},{"bike_id":"a92948c7-6409-4cf3-a65e-8a4cdc5956cd","system_id":"levelo_inurba_marseille","lat":43.294153,"lon":5.386305,"is_reserved":false,"is_disabled":false,"rental_uris":{"android":"levelo://app?vid=a92948c7-6409-4cf3-a65e-8a4cdc5956cd","ios":"levelo://app?vid=a92948c7-6409-4cf3-a65e-8a4cdc5956cd"},"vehicle_type_id":"4","last_reported":1713042340,"current_range_meters":30000,"station_id":"ce4bh2h2rcd13ifvqdh0","pricing_plan_id":"cebpf4jnsgd1na2vs0mg"},{"bike_id":"a185c0f4-9792-4fb2-ac71-7827fae1eb77","system_id":"levelo_inurba_marseille","lat":43.29039,"lon":5.375637,"is_reserved":false,"is_disabled":false,"rental_uris":{"android":"levelo://app?vid=a185c0f4-9792-4fb2-ac71-7827fae1eb77","ios":"levelo://app?vid=a185c0f4-9792-4fb2-ac71-7827fae1eb77"},"vehicle_type_id":"4","last_reported":1713042340,"current_range_meters":0,"station_id":"ce4bh692rcd13ifvqe90","pricing_plan_id":"cebpf4jnsgd1na2vs0mg"},{"bike_id":"62ba8c26-5399-4c18-a67b-47bc81d13184","system_id":"levelo_inurba_marseille","lat":43.29421,"lon":5.386225,"is_reserved":false,"is_disabled":false,"rental_uris":{"android":"levelo://app?vid=62ba8c26-5399-4c18-a67b-47bc81d13184","ios":"levelo://app?vid=62ba8c26-5399-4c18-a67b-47bc81d13184"},"vehicle_type_id":"4","last_reported":1713042340,"current_range_meters":22400,"station_id":"ce4bgih2rcd13ifvqba0","pricing_plan_id":"cebpf4jnsgd1na2vs0mg"},{"bike_id":"52ffa198-4ffc-41f3-aa31-e9c2a9bc7922","system_id":"levelo_inurba_marseille","lat":43.294162,"lon":5.386292,"is_reserved":false,"is_disabled":false,"rental_uris":{"android":"levelo://app?vid=52ffa198-4ffc-41f3-aa31-e9c2a9bc7922","ios":"levelo://app?vid=52ffa198-4ffc-41f3-aa31-e9c2a9bc7922"},"vehicle_type_id":"4","last_reported":1713042340,"current_range_meters":30400,"station_id":"ce4bh2h2rcd13ifvqdh0","pricing_plan_id":"cebpf4jnsgd1na2vs0mg"},{"bike_id":"466e1602-327a-4cce-b4b2-d4053dfa0870","system_id":"levelo_inurba_marseille","lat":43.294153,"lon":5.386305,"is_reserved":false,"is_disabled":false,"rental_uris":{"android":"levelo://app?vid=466e1602-327a-4cce-b4b2-d4053dfa0870","ios":"levelo://app?vid=466e1602-327a-4cce-b4b2-d4053dfa0870"},"vehicle_type_id":"4","last_reported":1713042340,"current_range_meters":30400,"station_id":"ce4bh2h2rcd13ifvqdh0","pricing_plan_id":"cebpf4jnsgd1na2vs0mg"},{"bike_id":"6dbceb14-6e6b-4d4e-8cc1-02528dab458e","system_id":"levelo_inurba_marseille","lat":43.294162,"lon":5.386292,"is_reserved":false,"is_disabled":false,"rental_uris":{"android":"levelo://app?vid=6dbceb14-6e6b-4d4e-8cc1-02528dab458e","ios":"levelo://app?vid=6dbceb14-6e6b-4d4e-8cc1-02528dab458e"},"vehicle_type_id":"4","last_reported":1713042340,"current_range_meters":3200,"station_id":"ce4bh2h2rcd13ifvqdh0","pricing_plan_id":"cebpf4jnsgd1na2vs0mg"},{"bike_id":"19ce91b8-3e45-46a1-b2ee-739de755e1c8","system_id":"levelo_inurba_marseille","lat":43.2942,"lon":5.38627,"is_reserved":false,"is_disabled":false,"rental_uris":{"android":"levelo://app?vid=19ce91b8-3e45-46a1-b2ee-739de755e1c8","ios":"levelo://app?vid=19ce91b8-3e45-46a1-b2ee-739de755e1c8"},"vehicle_type_id":"4","last_reported":1713042340,"current_range_meters":26000,"station_id":"ce4bh2h2rcd13ifvqdh0","pricing_plan_id":"cebpf4jnsgd1na2vs0mg"},{"bike_id":"60e68545-d8e6-4388-9041-b5ba0500e711","system_id":"levelo_inurba_marseille","lat":43.29418,"lon":5.38624,"is_reserved":false,"is_disabled":false,"rental_uris":{"android":"levelo://app?vid=60e68545-d8e6-4388-9041-b5ba0500e711","ios":"levelo://app?vid=60e68545-d8e6-4388-9041-b5ba0500e711"},"vehicle_type_id":"4","last_reported":1713042340,"current_range_meters":0,"station_id":"ce4bh2h2rcd13ifvqdh0","pricing_plan_id":"cebpf4jnsgd1na2vs0mg"},{"bike_id":"aec74368-4921-450a-8331-034289d0e0be","system_id":"levelo_inurba_marseille","lat":43.294153,"lon":5.386305,"is_reserved":false,"is_disabled":false,"rental_uris":{"android":"levelo://app?vid=aec74368-4921-450a-8331-034289d0e0be","ios":"levelo://app?vid=aec74368-4921-450a-8331-034289d0e0be"},"vehicle_type_id":"4","last_reported":1713042340,"current_range_meters":11600,"station_id":"ce4bh2h2rcd13ifvqdh0","pricing_plan_id":"cebpf4jnsgd1na2vs0mg"},{"bike_id":"5f2f33eb-a241-43b4-bc0e-faf42f4c9665","system_id":"levelo_inurba_marseille","lat":43.294177,"lon":5.386257,"is_reserved":false,"is_disabled":false,"rental_uris":{"android":"levelo://app?vid=5f2f33eb-a241-43b4-bc0e-faf42f4c9665","ios":"levelo://app?vid=5f2f33eb-a241-43b4-bc0e-faf42f4c9665"},"vehicle_type_id":"4","last_reported":1713042340,"current_range_meters":1600,"station_id":"ce4bh2h2rcd13ifvqdh0","pricing_plan_id":"cebpf4jnsgd1na2vs0mg"},{"bike_id":"618d8135-b63e-4713-acf6-fa34834802ed","system_id":"levelo_inurba_marseille","lat":43.290319,"lon":5.375732,"is_reserved":false,"is_disabled":false,"rental_uris":{"android":"levelo://app?vid=618d8135-b63e-4713-acf6-fa34834802ed","ios":"levelo://app?vid=618d8135-b63e-4713-acf6-fa34834802ed"},"vehicle_type_id":"4","last_reported":1713042340,"current_range_meters":12800,"station_id":"ce4bh692rcd13ifvqe90","pricing_plan_id":"cebpf4jnsgd1na2vs0mg"},{"bike_id":"2a7b9b0b-7513-4aa8-b7f7-696a4b6798e8","system_id":"levelo_inurba_marseille","lat":43.294162,"lon":5.386292,"is_reserved":false,"is_disabled":false,"rental_uris":{"android":"levelo://app?vid=2a7b9b0b-7513-4aa8-b7f7-696a4b6798e8","ios":"levelo://app?vid=2a7b9b0b-7513-4aa8-b7f7-696a4b6798e8"},"vehicle_type_id":"4","last_reported":1713042340,"current_range_meters":30000,"station_id":"ce4bh2h2rcd13ifvqdh0","pricing_plan_id":"cebpf4jnsgd1na2vs0mg"},{"bike_id":"7cf0890c-470b-462c-aca3-ca041d14a9b3","system_id":"levelo_inurba_marseille","lat":43.29417,"lon":5.38626,"is_reserved":false,"is_disabled":false,"rental_uris":{"android":"levelo://app?vid=7cf0890c-470b-462c-aca3-ca041d14a9b3","ios":"levelo://app?vid=7cf0890c-470b-462c-aca3-ca041d14a9b3"},"vehicle_type_id":"4","last_reported":1713042340,"current_range_meters":800,"station_id":"ce4bh2h2rcd13ifvqdh0","pricing_plan_id":"cebpf4jnsgd1na2vs0mg"},{"bike_id":"0c20454a-8d48-485a-93ec-5c2375aefef1","system_id":"levelo_inurba_marseille","lat":43.294162,"lon":5.386292,"is_reserved":false,"is_disabled":false,"rental_uris":{"android":"levelo://app?vid=0c20454a-8d48-485a-93ec-5c2375aefef1","ios":"levelo://app?vid=0c20454a-8d48-485a-93ec-5c2375aefef1"},"vehicle_type_id":"4","last_reported":1713042340,"current_range_meters":30400,"station_id":"ce4bh2h2rcd13ifvqdh0","pricing_plan_id":"cebpf4jnsgd1na2vs0mg"},{"bike_id":"746bef02-ee72-43c6-9b3c-60d349ad259d","system_id":"levelo_inurba_marseille","lat":43.29415,"lon":5.38627,"is_reserved":false,"is_disabled":false,"rental_uris":{"android":"levelo://app?vid=746bef02-ee72-43c6-9b3c-60d349ad259d","ios":"levelo://app?vid=746bef02-ee72-43c6-9b3c-60d349ad259d"},"vehicle_type_id":"4","last_reported":1713042340,"current_range_meters":0,"station_id":"ce4bh2h2rcd13ifvqdh0","pricing_plan_id":"cebpf4jnsgd1na2vs0mg"},{"bike_id":"2d132604-fd13-4e51-aefc-00581319d819","system_id":"levelo_inurba_marseille","lat":43.29413,"lon":5.38626,"is_reserved":false,"is_disabled":false,"rental_uris":{"android":"levelo://app?vid=2d132604-fd13-4e51-aefc-00581319d819","ios":"levelo://app?vid=2d132604-fd13-4e51-aefc-00581319d819"},"vehicle_type_id":"4","last_reported":1713042340,"current_range_meters":31200,"station_id":"ce4bh2h2rcd13ifvqdh0","pricing_plan_id":"cebpf4jnsgd1na2vs0mg"},{"bike_id":"35154608-11e6-4e4b-904e-ea977fb5054c","system_id":"levelo_inurba_marseille","lat":43.29415,"lon":5.3863,"is_reserved":false,"is_disabled":false,"rental_uris":{"android":"levelo://app?vid=35154608-11e6-4e4b-904e-ea977fb5054c","ios":"levelo://app?vid=35154608-11e6-4e4b-904e-ea977fb5054c"},"vehicle_type_id":"4","last_reported":1713042340,"current_range_meters":0,"station_id":"ce4bh2h2rcd13ifvqdh0","pricing_plan_id":"cebpf4jnsgd1na2vs0mg"},{"bike_id":"f9d171df-68ef-4c62-a074-775c7f6aab88","system_id":"levelo_inurba_marseille","lat":43.287154,"lon":5.399979,"is_reserved":false,"is_disabled":false,"rental_uris":{"android":"levelo://app?vid=f9d171df-68ef-4c62-a074-775c7f6aab88","ios":"levelo://app?vid=f9d171df-68ef-4c62-a074-775c7f6aab88"},"vehicle_type_id":"4","last_reported":1713042340,"current_range_meters":26400,"station_id":"ce4bho92rcd13ifvqh3g","pricing_plan_id":"cebpf4jnsgd1na2vs0mg"},{"bike_id":"05b15a7c-b371-44d3-a05f-1c65cd35c20d","system_id":"levelo_inurba_marseille","lat":43.295748,"lon":5.37522,"is_reserved":false,"is_disabled":false,"rental_uris":{"android":"levelo://app?vid=05b15a7c-b371-44d3-a05f-1c65cd35c20d","ios":"levelo://app?vid=05b15a7c-b371-44d3-a05f-1c65cd35c20d"},"vehicle_type_id":"4","last_reported":1713042340,"current_range_meters":0,"station_id":"ce4bgh92rcd13ifvqb50","pricing_plan_id":"cebpf4jnsgd1na2vs0mg"},{"bike_id":"b11b3d17-4276-4b89-b9fa-34ee9d7b47e7","system_id":"levelo_inurba_marseille","lat":43.292644,"lon":5.384257,"is_reserved":false,"is_disabled":false,"rental_uris":{"android":"levelo://app?vid=b11b3d17-4276-4b89-b9fa-34ee9d7b47e7","ios":"levelo://app?vid=b11b3d17-4276-4b89-b9fa-34ee9d7b47e7"},"vehicle_type_id":"4","last_reported":1713042340,"current_range_meters":29600,"station_id":"ce4bh692rcd13ifvqea0","pricing_plan_id":"cebpf4jnsgd1na2vs0mg"},{"bike_id":"e9240aa1-d7fd-414f-89cd-698eb8c77fa8","system_id":"levelo_inurba_marseille","lat":43.292644,"lon":5.384257,"is_reserved":false,"is_disabled":false,"rental_uris":{"android":"levelo://app?vid=e9240aa1-d7fd-414f-89cd-698eb8c77fa8","ios":"levelo://app?vid=e9240aa1-d7fd-414f-89cd-698eb8c77fa8"},"vehicle_type_id":"4","last_reported":1713042340,"current_range_meters":0,"station_id":"ce4bh692rcd13ifvqea0","pricing_plan_id":"cebpf4jnsgd1na2vs0mg"},{"bike_id":"bb650d07-5353-49d0-b047-b4bc7ed755f7","system_id":"levelo_inurba_marseille","lat":43.292644,"lon":5.384257,"is_reserved":false,"is_disabled":false,"rental_uris":{"android":"levelo://app?vid=bb650d07-5353-49d0-b047-b4bc7ed755f7","ios":"levelo://app?vid=bb650d07-5353-49d0-b047-b4bc7ed755f7"},"vehicle_type_id":"4","last_reported":1713042340,"current_range_meters":31200,"station_id":"ce4bh692rcd13ifvqea0","pricing_plan_id":"cebpf4jnsgd1na2vs0mg"},{"bike_id":"4328c6dc-f4df-45f9-b208-90c95a29ec9f","system_id":"levelo_inurba_marseille","lat":43.292644,"lon":5.384257,"is_reserved":false,"is_disabled":false,"rental_uris":{"android":"levelo://app?vid=4328c6dc-f4df-45f9-b208-90c95a29ec9f","ios":"levelo://app?vid=4328c6dc-f4df-45f9-b208-90c95a29ec9f"},"vehicle_type_id":"4","last_reported":1713042340,"current_range_meters":0,"station_id":"ce4bh692rcd13ifvqea0","pricing_plan_id":"cebpf4jnsgd1na2vs0mg"},{"bike_id":"3ddf9a59-1814-40df-895d-b45ef4ff814d","system_id":"levelo_inurba_marseille","lat":43.292644,"lon":5.384257,"is_reserved":false,"is_disabled":false,"rental_uris":{"android":"levelo://app?vid=3ddf9a59-1814-40df-895d-b45ef4ff814d","ios":"levelo://app?vid=3ddf9a59-1814-40df-895d-b45ef4ff814d"},"vehicle_type_id":"4","last_reported":1713042340,"current_range_meters":14800,"station_id":"ce4bh692rcd13ifvqea0","pricing_plan_id":"cebpf4jnsgd1na2vs0mg"},{"bike_id":"0f7eebfb-d156-446e-8f1b-63e943307f9b","system_id":"levelo_inurba_marseille","lat":43.292644,"lon":5.384257,"is_reserved":false,"is_disabled":false,"rental_uris":{"android":"levelo://app?vid=0f7eebfb-d156-446e-8f1b-63e943307f9b","ios":"levelo://app?vid=0f7eebfb-d156-446e-8f1b-63e943307f9b"},"vehicle_type_id":"4","last_reported":1713042340,"current_range_meters":24000,"station_id":"ce4bh692rcd13ifvqea0","pricing_plan_id":"cebpf4jnsgd1na2vs0mg"},{"bike_id":"2f0c7b9d-9883-4641-a2fd-a2e8b3b788ae","system_id":"levelo_inurba_marseille","lat":43.292644,"lon":5.384257,"is_reserved":false,"is_disabled":false,"rental_uris":{"android":"levelo://app?vid=2f0c7b9d-9883-4641-a2fd-a2e8b3b788ae","ios":"levelo://app?vid=2f0c7b9d-9883-4641-a2fd-a2e8b3b788ae"},"vehicle_type_id":"4","last_reported":1713042340,"current_range_meters":3200,"station_id":"ce4bh692rcd13ifvqea0","pricing_plan_id":"cebpf4jnsgd1na2vs0mg"},{"bike_id":"2a811577-17b9-4598-92b8-3f1f94936c48","system_id":"levelo_inurba_marseille","lat":43.292644,"lon":5.384257,"is_reserved":false,"is_disabled":false,"rental_uris":{"android":"levelo://app?vid=2a811577-17b9-4598-92b8-3f1f94936c48","ios":"levelo://app?vid=2a811577-17b9-4598-92b8-3f1f94936c48"},"vehicle_type_id":"4","last_reported":1713042340,"current_range_meters":12800,"station_id":"ce4bh692rcd13ifvqea0","pricing_plan_id":"cebpf4jnsgd1na2vs0mg"},{"bike_id":"db27cceb-1a2b-473a-9964-4a9b9fdcb03b","system_id":"levelo_inurba_marseille","lat":43.317104,"lon":5.436818,"is_reserved":false,"is_disabled":false,"rental_uris":{"android":"levelo://app?vid=db27cceb-1a2b-473a-9964-4a9b9fdcb03b","ios":"levelo://app?vid=db27cceb-1a2b-473a-9964-4a9b9fdcb03b"},"vehicle_type_id":"4","last_reported":1713042340,"current_range_meters":0,"station_id":"ce4bhp92rcd13ifvqhcg","pricing_plan_id":"cebpf4jnsgd1na2vs0mg"},{"bike_id":"daa892d0-5e8c-4722-a937-f693145bc5c8","system_id":"levelo_inurba_marseille","lat":43.290104,"lon":5.356111,"is_reserved":false,"is_disabled":false,"rental_uris":{"android":"levelo://app?vid=daa892d0-5e8c-4722-a937-f693145bc5c8","ios":"levelo://app?vid=daa892d0-5e8c-4722-a937-f693145bc5c8"},"vehicle_type_id":"4","last_reported":1713042340,"current_range_meters":0,"station_id":"ce4bhb92rcd13ifvqen0","pricing_plan_id":"cebpf4jnsgd1na2vs0mg"},{"bike_id":"83551fc2-63e6-4289-8373-276f1eb23c19","system_id":"levelo_inurba_marseille","lat":43.290103,"lon":5.356114,"is_reserved":false,"is_disabled":false,"rental_uris":{"android":"levelo://app?vid=83551fc2-63e6-4289-8373-276f1eb23c19","ios":"levelo://app?vid=83551fc2-63e6-4289-8373-276f1eb23c19"},"vehicle_type_id":"4","last_reported":1713042340,"current_range_meters":10800,"station_id":"ce4bhb92rcd13ifvqen0","pricing_plan_id":"cebpf4jnsgd1na2vs0mg"},{"bike_id":"72ee404c-7825-4efe-9265-110a996984cd","system_id":"levelo_inurba_marseille","lat":43.290995,"lon":5.381361,"is_reserved":false,"is_disabled":false,"rental_uris":{"android":"levelo://app?vid=72ee404c-7825-4efe-9265-110a996984cd","ios":"levelo://app?vid=72ee404c-7825-4efe-9265-110a996984cd"},"vehicle_type_id":"4","last_reported":1713042340,"current_range_meters":1600,"station_id":"ce4bh512rcd13ifvqe2g","pricing_plan_id":"cebpf4jnsgd1na2vs0mg"},{"bike_id":"faed5c28-8361-45f2-89a0-7a777fbf39c3","system_id":"levelo_inurba_marseille","lat":43.299724,"lon":5.384848,"is_reserved":false,"is_disabled":false,"rental_uris":{"android":"levelo://app?vid=faed5c28-8361-45f2-89a0-7a777fbf39c3","ios":"levelo://app?vid=faed5c28-8361-45f2-89a0-7a777fbf39c3"},"vehicle_type_id":"4","last_reported":1713042340,"current_range_meters":0,"station_id":"ce4bgj92rcd13ifvqbd0","pricing_plan_id":"cebpf4jnsgd1na2vs0mg"},{"bike_id":"dd9f2827-e428-415c-bac2-89dcb880ea08","system_id":"levelo_inurba_marseille","lat":43.2936,"lon":5.37835,"is_reserved":false,"is_disabled":false,"rental_uris":{"android":"levelo://app?vid=dd9f2827-e428-415c-bac2-89dcb880ea08","ios":"levelo://app?vid=dd9f2827-e428-415c-bac2-89dcb880ea08"},"vehicle_type_id":"4","last_reported":1713042340,"current_range_meters":24000,"station_id":"ce4bgjh2rcd13ifvqbf0","pricing_plan_id":"cebpf4jnsgd1na2vs0mg"},{"bike_id":"e8099147-4ff3-48ce-b0f0-77308a716129","system_id":"levelo_inurba_marseille","lat":43.289743,"lon":5.378304,"is_reserved":false,"is_disabled":false,"rental_uris":{"android":"levelo://app?vid=e8099147-4ff3-48ce-b0f0-77308a716129","ios":"levelo://app?vid=e8099147-4ff3-48ce-b0f0-77308a716129"},"vehicle_type_id":"4","last_reported":1713042340,"current_range_meters":9200,"station_id":"ce4bh9p2rcd13ifvqed0","pricing_plan_id":"cebpf4jnsgd1na2vs0mg"},{"bike_id":"1866841c-9ec2-4083-9eba-650e2c9763b4","system_id":"levelo_inurba_marseille","lat":43.29522,"lon":5.39042,"is_reserved":false,"is_disabled":false,"rental_uris":{"android":"levelo://app?vid=1866841c-9ec2-4083-9eba-650e2c9763b4","ios":"levelo://app?vid=1866841c-9ec2-4083-9eba-650e2c9763b4"},"vehicle_type_id":"4","last_reported":1713042340,"current_range_meters":7600,"station_id":"ce4bh3p2rcd13ifvqdp0","pricing_plan_id":"cebpf4jnsgd1na2vs0mg"},{"bike_id":"8b09a3bb-8c73-4f13-bdee-54b27441421e","system_id":"levelo_inurba_marseille","lat":43.28852,"lon":5.358398,"is_reserved":false,"is_disabled":false,"rental_uris":{"android":"levelo://app?vid=8b09a3bb-8c73-4f13-bdee-54b27441421e","ios":"levelo://app?vid=8b09a3bb-8c73-4f13-bdee-54b27441421e"},"vehicle_type_id":"4","last_reported":1713042340,"current_range_meters":2000,"station_id":"","pricing_plan_id":"cebpf4jnsgd1na2vs0mg"},{"bike_id":"e36572d4-67f5-4f5e-b0ae-a79499e5b8ce","system_id":"levelo_inurba_marseille","lat":43.28856,"lon":5.358371,"is_reserved":false,"is_disabled":false,"rental_uris":{"android":"levelo://app?vid=e36572d4-67f5-4f5e-b0ae-a79499e5b8ce","ios":"levelo://app?vid=e36572d4-67f5-4f5e-b0ae-a79499e5b8ce"},"vehicle_type_id":"4","last_reported":1713042340,"current_range_meters":5600,"station_id":"ce4bhb12rcd13ifvqem0","pricing_plan_id":"cebpf4jnsgd1na2vs0mg"},{"bike_id":"b9e5042b-c0e5-4804-b47d-0068beefb601","system_id":"levelo_inurba_marseille","lat":43.31283,"lon":5.40167,"is_reserved":false,"is_disabled":false,"rental_uris":{"android":"levelo://app?vid=b9e5042b-c0e5-4804-b47d-0068beefb601","ios":"levelo://app?vid=b9e5042b-c0e5-4804-b47d-0068beefb601"},"vehicle_type_id":"4","last_reported":1713042340,"current_range_meters":16000,"station_id":"ce4bh092rcd13ifvqd30","pricing_plan_id":"cebpf4jnsgd1na2vs0mg"},{"bike_id":"8c904048-34e7-4cfa-8982-65d0640cc8ce","system_id":"levelo_inurba_marseille","lat":43.31267,"lon":5.40168,"is_reserved":false,"is_disabled":false,"rental_uris":{"android":"levelo://app?vid=8c904048-34e7-4cfa-8982-65d0640cc8ce","ios":"levelo://app?vid=8c904048-34e7-4cfa-8982-65d0640cc8ce"},"vehicle_type_id":"4","last_reported":1713042340,"current_range_meters":0,"station_id":"ce4bh092rcd13ifvqd30","pricing_plan_id":"cebpf4jnsgd1na2vs0mg"},{"bike_id":"c0ff7e7e-deaa-416a-8c35-126ddcde366a","system_id":"levelo_inurba_marseille","lat":43.312609,"lon":5.401662,"is_reserved":false,"is_disabled":false,"rental_uris":{"android":"levelo://app?vid=c0ff7e7e-deaa-416a-8c35-126ddcde366a","ios":"levelo://app?vid=c0ff7e7e-deaa-416a-8c35-126ddcde366a"},"vehicle_type_id":"4","last_reported":1713042340,"current_range_meters":19600,"station_id":"ce4bh092rcd13ifvqd30","pricing_plan_id":"cebpf4jnsgd1na2vs0mg"},{"bike_id":"9482032e-639c-4e54-bf75-f299f42badee","system_id":"levelo_inurba_marseille","lat":43.309371,"lon":5.401449,"is_reserved":false,"is_disabled":false,"rental_uris":{"android":"levelo://app?vid=9482032e-639c-4e54-bf75-f299f42badee","ios":"levelo://app?vid=9482032e-639c-4e54-bf75-f299f42badee"},"vehicle_type_id":"4","last_reported":1713042340,"current_range_meters":8400,"station_id":"ce4bgvp2rcd13ifvqct0","pricing_plan_id":"cebpf4jnsgd1na2vs0mg"},{"bike_id":"aec930d3-d95b-4685-93f4-24772cab6952","system_id":"levelo_inurba_marseille","lat":43.312609,"lon":5.401662,"is_reserved":false,"is_disabled":false,"rental_uris":{"android":"levelo://app?vid=aec930d3-d95b-4685-93f4-24772cab6952","ios":"levelo://app?vid=aec930d3-d95b-4685-93f4-24772cab6952"},"vehicle_type_id":"4","last_reported":1713042340,"current_range_meters":31200,"station_id":"ce4bh092rcd13ifvqd30","pricing_plan_id":"cebpf4jnsgd1na2vs0mg"},{"bike_id":"a877dc03-9d42-44c1-baa9-5e0db19813a6","system_id":"levelo_inurba_marseille","lat":43.309371,"lon":5.401449,"is_reserved":false,"is_disabled":false,"rental_uris":{"android":"levelo://app?vid=a877dc03-9d42-44c1-baa9-5e0db19813a6","ios":"levelo://app?vid=a877dc03-9d42-44c1-baa9-5e0db19813a6"},"vehicle_type_id":"4","last_reported":1713042340,"current_range_meters":18400,"station_id":"ce4bgvp2rcd13ifvqct0","pricing_plan_id":"cebpf4jnsgd1na2vs0mg"},{"bike_id":"71cc5d9a-d305-497b-9583-f2815c310563","system_id":"levelo_inurba_marseille","lat":43.309251,"lon":5.401557,"is_reserved":false,"is_disabled":false,"rental_uris":{"android":"levelo://app?vid=71cc5d9a-d305-497b-9583-f2815c310563","ios":"levelo://app?vid=71cc5d9a-d305-497b-9583-f2815c310563"},"vehicle_type_id":"4","last_reported":1713042340,"current_range_meters":0,"station_id":"ce4bgvp2rcd13ifvqct0","pricing_plan_id":"cebpf4jnsgd1na2vs0mg"},{"bike_id":"d3ea26f4-7d4d-45b7-8172-0133ecd9329b","system_id":"levelo_inurba_marseille","lat":43.337572,"lon":5.374536,"is_reserved":false,"is_disabled":false,"rental_uris":{"android":"levelo://app?vid=d3ea26f4-7d4d-45b7-8172-0133ecd9329b","ios":"levelo://app?vid=d3ea26f4-7d4d-45b7-8172-0133ecd9329b"},"vehicle_type_id":"4","last_reported":1713042340,"current_range_meters":24400,"station_id":"","pricing_plan_id":"cebpf4jnsgd1na2vs0mg"},{"bike_id":"38ee1843-ba6d-43ff-9a22-e01a582f481c","system_id":"levelo_inurba_marseille","lat":43.306541,"lon":5.400856,"is_reserved":false,"is_disabled":false,"rental_uris":{"android":"levelo://app?vid=38ee1843-ba6d-43ff-9a22-e01a582f481c","ios":"levelo://app?vid=38ee1843-ba6d-43ff-9a22-e01a582f481c"},"vehicle_type_id":"4","last_reported":1713042340,"current_range_meters":800,"station_id":"ce4bh112rcd13ifvqda0","pricing_plan_id":"cebpf4jnsgd1na2vs0mg"},{"bike_id":"0c71bc18-555c-4236-b45e-d33514fba34f","system_id":"levelo_inurba_marseille","lat":43.301117,"lon":5.398795,"is_reserved":false,"is_disabled":false,"rental_uris":{"android":"levelo://app?vid=0c71bc18-555c-4236-b45e-d33514fba34f","ios":"levelo://app?vid=0c71bc18-555c-4236-b45e-d33514fba34f"},"vehicle_type_id":"4","last_reported":1713042340,"current_range_meters":0,"station_id":"ce4bh0h2rcd13ifvqd40","pricing_plan_id":"cebpf4jnsgd1na2vs0mg"},{"bike_id":"a508320f-b3d0-4aa8-9557-9867decd062e","system_id":"levelo_inurba_marseille","lat":43.28729,"lon":5.36094,"is_reserved":false,"is_disabled":false,"rental_uris":{"android":"levelo://app?vid=a508320f-b3d0-4aa8-9557-9867decd062e","ios":"levelo://app?vid=a508320f-b3d0-4aa8-9557-9867decd062e"},"vehicle_type_id":"4","last_reported":1713042340,"current_range_meters":0,"station_id":"cki0cbj6b192h4jlfktg","pricing_plan_id":"cebpf4jnsgd1na2vs0mg"},{"bike_id":"eedc6e0f-52ce-40a7-a527-9fafb104ea66","system_id":"levelo_inurba_marseille","lat":43.287277,"lon":5.36095,"is_reserved":false,"is_disabled":false,"rental_uris":{"android":"levelo://app?vid=eedc6e0f-52ce-40a7-a527-9fafb104ea66","ios":"levelo://app?vid=eedc6e0f-52ce-40a7-a527-9fafb104ea66"},"vehicle_type_id":"4","last_reported":1713042340,"current_range_meters":0,"station_id":"cki0cbj6b192h4jlfktg","pricing_plan_id":"cebpf4jnsgd1na2vs0mg"},{"bike_id":"61104522-7245-4df6-9404-db4ef22e0dfa","system_id":"levelo_inurba_marseille","lat":43.28727,"lon":5.36078,"is_reserved":false,"is_disabled":false,"rental_uris":{"android":"levelo://app?vid=61104522-7245-4df6-9404-db4ef22e0dfa","ios":"levelo://app?vid=61104522-7245-4df6-9404-db4ef22e0dfa"},"vehicle_type_id":"4","last_reported":1713042340,"current_range_meters":28000,"station_id":"cki0cbj6b192h4jlfktg","pricing_plan_id":"cebpf4jnsgd1na2vs0mg"},{"bike_id":"9ede3545-63c1-45ee-9b25-6dd7d5a172b6","system_id":"levelo_inurba_marseille","lat":43.295194,"lon":5.39397,"is_reserved":false,"is_disabled":false,"rental_uris":{"android":"levelo://app?vid=9ede3545-63c1-45ee-9b25-6dd7d5a172b6","ios":"levelo://app?vid=9ede3545-63c1-45ee-9b25-6dd7d5a172b6"},"vehicle_type_id":"4","last_reported":1713042340,"current_range_meters":11200,"station_id":"ce4bh292rcd13ifvqdf0","pricing_plan_id":"cebpf4jnsgd1na2vs0mg"},{"bike_id":"3e1dd720-12aa-42f1-928b-cc4b8875f6ec","system_id":"levelo_inurba_marseille","lat":43.286593,"lon":5.363346,"is_reserved":false,"is_disabled":false,"rental_uris":{"android":"levelo://app?vid=3e1dd720-12aa-42f1-928b-cc4b8875f6ec","ios":"levelo://app?vid=3e1dd720-12aa-42f1-928b-cc4b8875f6ec"},"vehicle_type_id":"4","last_reported":1713042340,"current_range_meters":0,"station_id":"ce4bhah2rcd13ifvqej0","pricing_plan_id":"cebpf4jnsgd1na2vs0mg"},{"bike_id":"0b0565e6-756e-498a-9f86-591c89ab32e7","system_id":"levelo_inurba_marseille","lat":43.28698,"lon":5.37399,"is_reserved":false,"is_disabled":false,"rental_uris":{"android":"levelo://app?vid=0b0565e6-756e-498a-9f86-591c89ab32e7","ios":"levelo://app?vid=0b0565e6-756e-498a-9f86-591c89ab32e7"},"vehicle_type_id":"4","last_reported":1713042340,"current_range_meters":0,"station_id":"ce4bh3p2rcd13ifvqdq0","pricing_plan_id":"cebpf4jnsgd1na2vs0mg"},{"bike_id":"634c843c-932f-40f8-b0e3-c7fe64d6c932","system_id":"levelo_inurba_marseille","lat":43.295196,"lon":5.39397,"is_reserved":false,"is_disabled":false,"rental_uris":{"android":"levelo://app?vid=634c843c-932f-40f8-b0e3-c7fe64d6c932","ios":"levelo://app?vid=634c843c-932f-40f8-b0e3-c7fe64d6c932"},"vehicle_type_id":"4","last_reported":1713042340,"current_range_meters":28800,"station_id":"ce4bh292rcd13ifvqdf0","pricing_plan_id":"cebpf4jnsgd1na2vs0mg"},{"bike_id":"b69b73e3-62c0-4afd-b14e-f19843a6c9f7","system_id":"levelo_inurba_marseille","lat":43.289417,"lon":5.384063,"is_reserved":false,"is_disabled":false,"rental_uris":{"android":"levelo://app?vid=b69b73e3-62c0-4afd-b14e-f19843a6c9f7","ios":"levelo://app?vid=b69b73e3-62c0-4afd-b14e-f19843a6c9f7"},"vehicle_type_id":"4","last_reported":1713042340,"current_range_meters":0,"station_id":"ce4bh612rcd13ifvqe6g","pricing_plan_id":"cebpf4jnsgd1na2vs0mg"},{"bike_id":"aa538cee-62b8-4291-a3e6-24e7936cc9af","system_id":"levelo_inurba_marseille","lat":43.295196,"lon":5.39397,"is_reserved":false,"is_disabled":false,"rental_uris":{"android":"levelo://app?vid=aa538cee-62b8-4291-a3e6-24e7936cc9af","ios":"levelo://app?vid=aa538cee-62b8-4291-a3e6-24e7936cc9af"},"vehicle_type_id":"4","last_reported":1713042340,"current_range_meters":22800,"station_id":"ce4bh292rcd13ifvqdf0","pricing_plan_id":"cebpf4jnsgd1na2vs0mg"},{"bike_id":"3c434fb2-81f7-461c-90fa-817ac1f0fa48","system_id":"levelo_inurba_marseille","lat":43.295194,"lon":5.39397,"is_reserved":false,"is_disabled":false,"rental_uris":{"android":"levelo://app?vid=3c434fb2-81f7-461c-90fa-817ac1f0fa48","ios":"levelo://app?vid=3c434fb2-81f7-461c-90fa-817ac1f0fa48"},"vehicle_type_id":"4","last_reported":1713042340,"current_range_meters":30400,"station_id":"ce4bh292rcd13ifvqdf0","pricing_plan_id":"cebpf4jnsgd1na2vs0mg"},{"bike_id":"90085009-a1f1-4185-87c1-2feb06b484e8","system_id":"levelo_inurba_marseille","lat":43.290365,"lon":5.386439,"is_reserved":false,"is_disabled":false,"rental_uris":{"android":"levelo://app?vid=90085009-a1f1-4185-87c1-2feb06b484e8","ios":"levelo://app?vid=90085009-a1f1-4185-87c1-2feb06b484e8"},"vehicle_type_id":"4","last_reported":1713042340,"current_range_meters":0,"station_id":"ce4bh4p2rcd13ifvqe0g","pricing_plan_id":"cebpf4jnsgd1na2vs0mg"},