{"last_updated":1685325951,"ttl":30,"version":"2.2","data":{"bikes":[{"bike_id":"af6a1f49-c465-41e0-8f3c-e28232b05273","system_id":"levelo_inurba_marseille","lat":43.313391,"lon":5.36706,"is_reserved":false,"is_disabled":false,"rental_uris":{"android":"levelo://app?vid=af6a1f49-c465-41e0-8f3c-e28232b05273","ios":"levelo://app?vid=af6a1f49-c465-41e0-8f3c-e28232b05273"},"vehicle_type_id":"4","last_reported":1685325952,"current_range_meters":24800,"station_id":"ce4bgr92rcd13ifvqc6g","pricing_plan_id":"free"},{"bike_id":"21f5b99b-b669-4144-8f3c-b4b109a23f85","system_id":"levelo_inurba_marseille","lat":43.31233,"lon":5.36849,"is_reserved":false,"is_disabled":false,"rental_uris":{"android":"levelo://app?vid=21f5b99b-b669-4144-8f3c-b4b109a23f85","ios":"levelo://app?vid=21f5b99b-b669-4144-8f3c-b4b109a23f85"},"vehicle_type_id":"4","last_reported":1685325952,"current_range_meters":0,"station_id":"","pricing_plan_id":"free"},{"bike_id":"24e5ebfd-b8b8-42f2-a661-df24f9c7819b","system_id":"levelo_inurba_marseille","lat":43.312239,"lon":5.368562,"is_reserved":false,"is_disabled":false,"rental_uris":{"android":"levelo://app?vid=24e5ebfd-b8b8-42f2-a661-df24f9c7819b","ios":"levelo://app?vid=24e5ebfd-b8b8-42f2-a661-df24f9c7819b"},"vehicle_type_id":"4","last_reported":1685325952,"current_range_meters":29200,"station_id":"ce4bgl92rcd13ifvqbq0","pricing_plan_id":"free"},{"bike_id":"7c4c8193-4d20-4306-a718-28380cdc404a","system_id":"levelo_inurba_marseille","lat":43.314811,"lon":5.373103,"is_reserved":false,"is_disabled":false,"rental_uris":{"android":"levelo://app?vid=7c4c8193-4d20-4306-a718-28380cdc404a","ios":"levelo://app?vid=7c4c8193-4d20-4306-a718-28380cdc404a"},"vehicle_type_id":"4","last_reported":1685325952,"current_range_meters":29600,"station_id":"ce4bgt12rcd13ifvqcd0","pricing_plan_id":"free"},{"bike_id":"ee4af676-a6e5-46d3-8960-d7690834bd78","system_id":"levelo_inurba_marseille","lat":43.314811,"lon":5.373103,"is_reserved":false,"is_disabled":false,"rental_uris":{"android":"levelo://app?vid=ee4af676-a6e5-46d3-8960-d7690834bd78","ios":"levelo://app?vid=ee4af676-a6e5-46d3-8960-d7690834bd78"},"vehicle_type_id":"4","last_reported":1685325952,"current_range_meters":26000,"station_id":"ce4bgt12rcd13ifvqcd0","pricing_plan_id":"free"},{"bike_id":"cafa39a6-151e-4b43-8798-0e078854a369","system_id":"levelo_inurba_marseille","lat":43.314811,"lon":5.373104,"is_reserved":false,"is_disabled":false,"rental_uris":{"android":"levelo://app?vid=cafa39a6-151e-4b43-8798-0e078854a369","ios":"levelo://app?vid=cafa39a6-151e-4b43-8798-0e078854a369"},"vehicle_type_id":"4","last_reported":1685325952,"current_range_meters":31600,"station_id":"ce4bgt12rcd13ifvqcd0","pricing_plan_id":"free"},{"bike_id":"80abac56-128a-448f-8a7a-c09fa44ff0dc","system_id":"levelo_inurba_marseille","lat":43.314811,"lon":5.373104,"is_reserved":false,"is_disabled":false,"rental_uris":{"android":"levelo://app?vid=80abac56-128a-448f-8a7a-c09fa44ff0dc","ios":"levelo://app?vid=80abac56-128a-448f-8a7a-c09fa44ff0dc"},"vehicle_type_id":"4","last_reported":1685325952,"current_range_meters":19200,"station_id":"ce4bgt12rcd13ifvqcd0","pricing_plan_id":"free"},{"bike_id":"b9ccd671-7f6e-4759-94df-534a1b9f222c","system_id":"levelo_inurba_marseille","lat":43.314811,"lon":5.373104,"is_reserved":false,"is_disabled":false,"rental_uris":{"android":"levelo://app?vid=b9ccd671-7f6e-4759-94df-534a1b9f222c","ios":"levelo://app?vid=b9ccd671-7f6e-4759-94df-534a1b9f222c"},"vehicle_type_id":"4","last_reported":1685325952,"current_range_meters":22000,"station_id":"ce4bgt12rcd13ifvqcd0","pricing_plan_id":"free"},{"bike_id":"02a1f550-044e-4796-9fbd-2fc940ac6551","system_id":"levelo_inurba_marseille","lat":43.314811,"lon":5.373104,"is_reserved":false,"is_disabled":false,"rental_uris":{"android":"levelo://app?vid=02a1f550-044e-4796-9fbd-2fc940ac6551","ios":"levelo://app?vid=02a1f550-044e-4796-9fbd-2fc940ac6551"},"vehicle_type_id":"4","last_reported":1685325952,"current_range_meters":27200,"station_id":"ce4bgt12rcd13ifvqcd0","pricing_plan_id":"free"},{"bike_id":"ff38685f-ee40-498b-8d87-f17a40cb2cbb","system_id":"levelo_inurba_marseille","lat":43.314811,"lon":5.373104,"is_reserved":false,"is_disabled":false,"rental_uris":{"android":"levelo://app?vid=ff38685f-ee40-498b-8d87-f17a40cb2cbb","ios":"levelo://app?vid=ff38685f-ee40-498b-8d87-f17a40cb2cbb"},"vehicle_type_id":"4","last_reported":1685325952,"current_range_meters":31200,"station_id":"ce4bgt12rcd13ifvqcd0","pricing_plan_id":"free"},{"bike_id":"96ba65e2-2e82-4e19-90c3-74496ba0eede","system_id":"levelo_inurba_marseille","lat":43.30896,"lon":5.37197,"is_reserved":false,"is_disabled":false,"rental_uris":{"android":"levelo://app?vid=96ba65e2-2e82-4e19-90c3-74496ba0eede","ios":"levelo://app?vid=96ba65e2-2e82-4e19-90c3-74496ba0eede"},"vehicle_type_id":"4","last_reported":1685325952,"current_range_meters":28800,"station_id":"","pricing_plan_id":"free"},{"bike_id":"81b7c7cb-bb96-44d0-8ce5-cfe3e28a4917","system_id":"levelo_inurba_marseille","lat":43.3089,"lon":5.37191,"is_reserved":false,"is_disabled":false,"rental_uris":{"android":"levelo://app?vid=81b7c7cb-bb96-44d0-8ce5-cfe3e28a4917","ios":"levelo://app?vid=81b7c7cb-bb96-44d0-8ce5-cfe3e28a4917"},"vehicle_type_id":"4","last_reported":1685325952,"current_range_meters":18400,"station_id":"","pricing_plan_id":"free"},{"bike_id":"09ff56ca-723c-4b20-af2f-491b6f1b8a24","system_id":"levelo_inurba_marseille","lat":43.30883,"lon":5.37187,"is_reserved":false,"is_disabled":false,"rental_uris":{"android":"levelo://app?vid=09ff56ca-723c-4b20-af2f-491b6f1b8a24","ios":"levelo://app?vid=09ff56ca-723c-4b20-af2f-491b6f1b8a24"},"vehicle_type_id":"4","last_reported":1685325952,"current_range_meters":29600,"station_id":"","pricing_plan_id":"free"},{"bike_id":"fe083984-66d9-4fd8-8d74-954deb5dbb65","system_id":"levelo_inurba_marseille","lat":43.30884,"lon":5.3719,"is_reserved":false,"is_disabled":false,"rental_uris":{"android":"levelo://app?vid=fe083984-66d9-4fd8-8d74-954deb5dbb65","ios":"levelo://app?vid=fe083984-66d9-4fd8-8d74-954deb5dbb65"},"vehicle_type_id":"4","last_reported":1685325952,"current_range_meters":24400,"station_id":"","pricing_plan_id":"free"},{"bike_id":"adbe0af9-d20e-48ea-a55e-00b7abe527ed","system_id":"levelo_inurba_marseille","lat":43.305368,"lon":5.367343,"is_reserved":false,"is_disabled":false,"rental_uris":{"android":"levelo://app?vid=adbe0af9-d20e-48ea-a55e-00b7abe527ed","ios":"levelo://app?vid=adbe0af9-d20e-48ea-a55e-00b7abe527ed"},"vehicle_type_id":"4","last_reported":1685325952,"current_range_meters":26400,"station_id":"ce4bgrp2rcd13ifvqc9g","pricing_plan_id":"free"},{"bike_id":"6f1223f2-cca6-43c0-bc85-ea15cbca19e6","system_id":"levelo_inurba_marseille","lat":43.305368,"lon":5.367343,"is_reserved":false,"is_disabled":false,"rental_uris":{"android":"levelo://app?vid=6f1223f2-cca6-43c0-bc85-ea15cbca19e6","ios":"levelo://app?vid=6f1223f2-cca6-43c0-bc85-ea15cbca19e6"},"vehicle_type_id":"4","last_reported":1685325952,"current_range_meters":13600,"station_id":"ce4bgrp2rcd13ifvqc9g","pricing_plan_id":"free"},{"bike_id":"505ba6b6-cda7-4cbf-94d2-55792ae1e2d2","system_id":"levelo_inurba_marseille","lat":43.305368,"lon":5.367343,"is_reserved":false,"is_disabled":false,"rental_uris":{"android":"levelo://app?vid=505ba6b6-cda7-4cbf-94d2-55792ae1e2d2","ios":"levelo://app?vid=505ba6b6-cda7-4cbf-94d2-55792ae1e2d2"},"vehicle_type_id":"4","last_reported":1685325952,"current_range_meters":26400,"station_id":"ce4bgrp2rcd13ifvqc9g","pricing_plan_id":"free"},{"bike_id":"4f580c39-9cbf-452e-8f6a-41489c014955","system_id":"levelo_inurba_marseille","lat":43.305368,"lon":5.367343,"is_reserved":false,"is_disabled":false,"rental_uris":{"android":"levelo://app?vid=4f580c39-9cbf-452e-8f6a-41489c014955","ios":"levelo://app?vid=4f580c39-9cbf-452e-8f6a-41489c014955"},"vehicle_type_id":"4","last_reported":1685325952,"current_range_meters":28000,"station_id":"ce4bgrp2rcd13ifvqc9g","pricing_plan_id":"free"},{"bike_id":"7ffecf3c-8f94-4257-b272-eb6e8355739c","system_id":"levelo_inurba_marseille","lat":43.305989,"lon":5.37225,"is_reserved":false,"is_disabled":false,"rental_uris":{"android":"levelo://app?vid=7ffecf3c-8f94-4257-b272-eb6e8355739c","ios":"levelo://app?vid=7ffecf3c-8f94-4257-b272-eb6e8355739c"},"vehicle_type_id":"4","last_reported":1685325952,"current_range_meters":25600,"station_id":"ce4bgqh2rcd13ifvqc4g","pricing_plan_id":"free"},{"bike_id":"0958f8ad-8030-47b2-ae1a-c8f072735eaa","system_id":"levelo_inurba_marseille","lat":43.31115,"lon":5.37768,"is_reserved":false,"is_disabled":false,"rental_uris":{"android":"levelo://app?vid=0958f8ad-8030-47b2-ae1a-c8f072735eaa","ios":"levelo://app?vid=0958f8ad-8030-47b2-ae1a-c8f072735eaa"},"vehicle_type_id":"4","last_reported":1685325952,"current_range_meters":31200,"station_id":"","pricing_plan_id":"free"},{"bike_id":"2044d5d2-d31a-49c9-96c0-ba790bfca7d0","system_id":"levelo_inurba_marseille","lat":43.31114,"lon":5.37773,"is_reserved":false,"is_disabled":false,"rental_uris":{"android":"levelo://app?vid=2044d5d2-d31a-49c9-96c0-ba790bfca7d0","ios":"levelo://app?vid=2044d5d2-d31a-49c9-96c0-ba790bfca7d0"},"vehicle_type_id":"4","last_reported":1685325952,"current_range_meters":31200,"station_id":"ce4bgt92rcd13ifvqcg0","pricing_plan_id":"free"},{"bike_id":"cfe8b94b-e6f8-4730-bb47-d0b7129b7594","system_id":"levelo_inurba_marseille","lat":43.309,"lon":5.37674,"is_reserved":false,"is_disabled":false,"rental_uris":{"android":"levelo://app?vid=cfe8b94b-e6f8-4730-bb47-d0b7129b7594","ios":"levelo://app?vid=cfe8b94b-e6f8-4730-bb47-d0b7129b7594"},"vehicle_type_id":"4","last_reported":1685325952,"current_range_meters":22000,"station_id":"","pricing_plan_id":"free"},{"bike_id":"0f1f38ed-9ad8-4fb4-a961-2d6375a6e090","system_id":"levelo_inurba_marseille","lat":43.31112,"lon":5.37779,"is_reserved":false,"is_disabled":false,"rental_uris":{"android":"levelo://app?vid=0f1f38ed-9ad8-4fb4-a961-2d6375a6e090","ios":"levelo://app?vid=0f1f38ed-9ad8-4fb4-a961-2d6375a6e090"},"vehicle_type_id":"4","last_reported":1685325952,"current_range_meters":18800,"station_id":"ce4bgt92rcd13ifvqcg0","pricing_plan_id":"free"},{"bike_id":"fd6d6bd1-1934-4cb7-a91d-3a1f333ac949","system_id":"levelo_inurba_marseille","lat":43.31104,"lon":5.3779,"is_reserved":false,"is_disabled":false,"rental_uris":{"android":"levelo://app?vid=fd6d6bd1-1934-4cb7-a91d-3a1f333ac949","ios":"levelo://app?vid=fd6d6bd1-1934-4cb7-a91d-3a1f333ac949"},"vehicle_type_id":"4","last_reported":1685325952,"current_range_meters":26800,"station_id":"ce4bgt92rcd13ifvqcg0","pricing_plan_id":"free"},{"bike_id":"f7321fb9-0a4f-40e6-9aed-1f25b4a7590b","system_id":"levelo_inurba_marseille","lat":43.303097,"lon":5.369325,"is_reserved":false,"is_disabled":false,"rental_uris":{"android":"levelo://app?vid=f7321fb9-0a4f-40e6-9aed-1f25b4a7590b","ios":"levelo://app?vid=f7321fb9-0a4f-40e6-9aed-1f25b4a7590b"},"vehicle_type_id":"4","last_reported":1685325952,"current_range_meters":9200,"station_id":"ce4bgqh2rcd13ifvqc5g","pricing_plan_id":"free"},{"bike_id":"93e26885-547e-496d-860a-bc52a52f00d6","system_id":"levelo_inurba_marseille","lat":43.304606,"lon":5.379026,"is_reserved":false,"is_disabled":false,"rental_uris":{"android":"levelo://app?vid=93e26885-547e-496d-860a-bc52a52f00d6","ios":"levelo://app?vid=93e26885-547e-496d-860a-bc52a52f00d6"},"vehicle_type_id":"4","last_reported":1685325952,"current_range_meters":23200,"station_id":"ce4bgup2rcd13ifvqcn0","pricing_plan_id":"free"},{"bike_id":"b4528151-4074-469c-8168-ebdc0f414930","system_id":"levelo_inurba_marseille","lat":43.315293,"lon":5.380349,"is_reserved":false,"is_disabled":false,"rental_uris":{"android":"levelo://app?vid=b4528151-4074-469c-8168-ebdc0f414930","ios":"levelo://app?vid=b4528151-4074-469c-8168-ebdc0f414930"},"vehicle_type_id":"4","last_reported":1685325952,"current_range_meters":15200,"station_id":"ce4bhsp2rcd13ifvqi50","pricing_plan_id":"free"},{"bike_id":"9a7d1a88-7bc5-4bee-a909-7b1c07088442","system_id":"levelo_inurba_marseille","lat":43.315293,"lon":5.380349,"is_reserved":false,"is_disabled":false,"rental_uris":{"android":"levelo://app?vid=9a7d1a88-7bc5-4bee-a909-7b1c07088442","ios":"levelo://app?vid=9a7d1a88-7bc5-4bee-a909-7b1c07088442"},"vehicle_type_id":"4","last_reported":1685325952,"current_range_meters":26400,"station_id":"ce4bhsp2rcd13ifvqi50","pricing_plan_id":"free"},{"bike_id":"c3ebb4cb-c3e9-4121-a7b0-2f0a7109d698","system_id":"levelo_inurba_marseille","lat":43.315293,"lon":5.380349,"is_reserved":false,"is_disabled":false,"rental_uris":{"android":"levelo://app?vid=c3ebb4cb-c3e9-4121-a7b0-2f0a7109d698","ios":"levelo://app?vid=c3ebb4cb-c3e9-4121-a7b0-2f0a7109d698"},"vehicle_type_id":"4","last_reported":1685325952,"current_range_meters":26000,"station_id":"ce4bhsp2rcd13ifvqi50","pricing_plan_id":"free"},{"bike_id":"6c5d9893-1970-4484-9cf5-e73c55ab05e3","system_id":"levelo_inurba_marseille","lat":43.301939,"lon":5.366286,"is_reserved":false,"is_disabled":false,"rental_uris":{"android":"levelo://app?vid=6c5d9893-1970-4484-9cf5-e73c55ab05e3","ios":"levelo://app?vid=6c5d9893-1970-4484-9cf5-e73c55ab05e3"},"vehicle_type_id":"4","last_reported":1685325952,"current_range_meters":29200,"station_id":"ce4bgrh2rcd13ifvqc8g","pricing_plan_id":"free"},{"bike_id":"af26d559-540c-48f2-80c6-e76704680920","system_id":"levelo_inurba_marseille","lat":43.30792,"lon":5.38139,"is_reserved":false,"is_disabled":false,"rental_uris":{"android":"levelo://app?vid=af26d559-540c-48f2-80c6-e76704680920","ios":"levelo://app?vid=af26d559-540c-48f2-80c6-e76704680920"},"vehicle_type_id":"4","last_reported":1685325952,"current_range_meters":31200,"station_id":"","pricing_plan_id":"free"},{"bike_id":"7a1b3d5f-c892-450e-95d9-8748e1517240","system_id":"levelo_inurba_marseille","lat":43.308012,"lon":5.381511,"is_reserved":false,"is_disabled":false,"rental_uris":{"android":"levelo://app?vid=7a1b3d5f-c892-450e-95d9-8748e1517240","ios":"levelo://app?vid=7a1b3d5f-c892-450e-95d9-8748e1517240"},"vehicle_type_id":"4","last_reported":1685325952,"current_range_meters":31200,"station_id":"ce4bgt12rcd13ifvqce0","pricing_plan_id":"free"},{"bike_id":"8253b876-98cd-471e-9025-d93076632009","system_id":"levelo_inurba_marseille","lat":43.308012,"lon":5.381511,"is_reserved":false,"is_disabled":false,"rental_uris":{"android":"levelo://app?vid=8253b876-98cd-471e-9025-d93076632009","ios":"levelo://app?vid=8253b876-98cd-471e-9025-d93076632009"},"vehicle_type_id":"4","last_reported":1685325952,"current_range_meters":31200,"station_id":"ce4bgt12rcd13ifvqce0","pricing_plan_id":"free"},{"bike_id":"9e641e55-6efd-4a11-9130-7677c5d4ebba","system_id":"levelo_inurba_marseille","lat":43.308012,"lon":5.381511,"is_reserved":false,"is_disabled":false,"rental_uris":{"android":"levelo://app?vid=9e641e55-6efd-4a11-9130-7677c5d4ebba","ios":"levelo://app?vid=9e641e55-6efd-4a11-9130-7677c5d4ebba"},"vehicle_type_id":"4","last_reported":1685325952,"current_range_meters":28400,"station_id":"ce4bgt12rcd13ifvqce0","pricing_plan_id":"free"},{"bike_id":"a36d047f-67d1-497d-b7aa-df129c9294a0","system_id":"levelo_inurba_marseille","lat":43.308012,"lon":5.381511,"is_reserved":false,"is_disabled":false,"rental_uris":{"android":"levelo://app?vid=a36d047f-67d1-497d-b7aa-df129c9294a0","ios":"levelo://app?vid=a36d047f-67d1-497d-b7aa-df129c9294a0"},"vehicle_type_id":"4","last_reported":1685325952,"current_range_meters":29200,"station_id":"ce4bgt12rcd13ifvqce0","pricing_plan_id":"free"},{"bike_id":"946a2acd-a10f-4707-a530-4f43c94b2efa","system_id":"levelo_inurba_marseille","lat":43.304606,"lon":5.379026,"is_reserved":false,"is_disabled":false,"rental_uris":{"android":"levelo://app?vid=946a2acd-a10f-4707-a530-4f43c94b2efa","ios":"levelo://app?vid=946a2acd-a10f-4707-a530-4f43c94b2efa"},"vehicle_type_id":"4","last_reported":1685325952,"current_range_meters":0,"station_id":"ce4bgup2rcd13ifvqcn0","pricing_plan_id":"free"},{"bike_id":"3766532c-f257-4a28-bf96-9aece1239ffb","system_id":"levelo_inurba_marseille","lat":43.30482,"lon":5.37905,"is_reserved":false,"is_disabled":false,"rental_uris":{"android":"levelo://app?vid=3766532c-f257-4a28-bf96-9aece1239ffb","ios":"levelo://app?vid=3766532c-f257-4a28-bf96-9aece1239ffb"},"vehicle_type_id":"4","last_reported":1685325952,"current_range_meters":29200,"station_id":"ce4bgup2rcd13ifvqcn0","pricing_plan_id":"free"},{"bike_id":"4b97b17a-d7af-4d58-9575-202d9af3c849","system_id":"levelo_inurba_marseille","lat":43.304606,"lon":5.379026,"is_reserved":false,"is_disabled":false,"rental_uris":{"android":"levelo://app?vid=4b97b17a-d7af-4d58-9575-202d9af3c849","ios":"levelo://app?vid=4b97b17a-d7af-4d58-9575-202d9af3c849"},"vehicle_type_id":"4","last_reported":1685325952,"current_range_meters":27200,"station_id":"ce4bgup2rcd13ifvqcn0","pricing_plan_id":"free"},{"bike_id":"81625293-7cf3-40a5-b9f0-f915bcad53b5","system_id":"levelo_inurba_marseille","lat":43.304606,"lon":5.379026,"is_reserved":false,"is_disabled":false,"rental_uris":{"android":"levelo://app?vid=81625293-7cf3-40a5-b9f0-f915bcad53b5","ios":"levelo://app?vid=81625293-7cf3-40a5-b9f0-f915bcad53b5"},"vehicle_type_id":"4","last_reported":1685325952,"current_range_meters":5200,"station_id":"ce4bgup2rcd13ifvqcn0","pricing_plan_id":"free"},{"bike_id":"0792d13b-413b-44a0-95df-a4ae670b7fb8","system_id":"levelo_inurba_marseille","lat":43.3015,"lon":5.37433,"is_reserved":false,"is_disabled":false,"rental_uris":{"android":"levelo://app?vid=0792d13b-413b-44a0-95df-a4ae670b7fb8","ios":"levelo://app?vid=0792d13b-413b-44a0-95df-a4ae670b7fb8"},"vehicle_type_id":"4","last_reported":1685325952,"current_range_meters":21600,"station_id":"","pricing_plan_id":"free"},{"bike_id":"94ca365d-9bf6-41be-9291-46703afeed26","system_id":"levelo_inurba_marseille","lat":43.30138,"lon":5.37415,"is_reserved":false,"is_disabled":false,"rental_uris":{"android":"levelo://app?vid=94ca365d-9bf6-41be-9291-46703afeed26","ios":"levelo://app?vid=94ca365d-9bf6-41be-9291-46703afeed26"},"vehicle_type_id":"4","last_reported":1685325952,"current_range_meters":23600,"station_id":"","pricing_plan_id":"free"},{"bike_id":"2b4847c1-e798-4fe3-8214-35b3b31acec7","system_id":"levelo_inurba_marseille","lat":43.30136,"lon":5.37413,"is_reserved":false,"is_disabled":false,"rental_uris":{"android":"levelo://app?vid=2b4847c1-e798-4fe3-8214-35b3b31acec7","ios":"levelo://app?vid=2b4847c1-e798-4fe3-8214-35b3b31acec7"},"vehicle_type_id":"4","last_reported":1685325952,"current_range_meters":21600,"station_id":"","pricing_plan_id":"free"},{"bike_id":"f92bfc59-f6bb-4779-b7d0-f42e6e4683ea","system_id":"levelo_inurba_marseille","lat":43.319935,"lon":5.381699,"is_reserved":false,"is_disabled":false,"rental_uris":{"android":"levelo://app?vid=f92bfc59-f6bb-4779-b7d0-f42e6e4683ea","ios":"levelo://app?vid=f92bfc59-f6bb-4779-b7d0-f42e6e4683ea"},"vehicle_type_id":"4","last_reported":1685325952,"current_range_meters":21200,"station_id":"ce4bhr12rcd13ifvqhpg","pricing_plan_id":"free"},{"bike_id":"1431ceea-e6b2-4aee-8e38-ba96e4e7d2d2","system_id":"levelo_inurba_marseille","lat":43.313571,"lon":5.384829,"is_reserved":false,"is_disabled":false,"rental_uris":{"android":"levelo://app?vid=1431ceea-e6b2-4aee-8e38-ba96e4e7d2d2","ios":"levelo://app?vid=1431ceea-e6b2-4aee-8e38-ba96e4e7d2d2"},"vehicle_type_id":"4","last_reported":1685325952,"current_range_meters":31200,"station_id":"ce4bgt92rcd13ifvqcf0","pricing_plan_id":"free"},{"bike_id":"4eb948a3-34b0-4972-8e33-71d829565874","system_id":"levelo_inurba_marseille","lat":43.313571,"lon":5.384829,"is_reserved":false,"is_disabled":false,"rental_uris":{"android":"levelo://app?vid=4eb948a3-34b0-4972-8e33-71d829565874","ios":"levelo://app?vid=4eb948a3-34b0-4972-8e33-71d829565874"},"vehicle_type_id":"4","last_reported":1685325952,"current_range_meters":29600,"station_id":"ce4bgt92rcd13ifvqcf0","pricing_plan_id":"free"},{"bike_id":"06193faf-9b70-44e9-bc78-e8654b59e835","system_id":"levelo_inurba_marseille","lat":43.313571,"lon":5.384829,"is_reserved":false,"is_disabled":false,"rental_uris":{"android":"levelo://app?vid=06193faf-9b70-44e9-bc78-e8654b59e835","ios":"levelo://app?vid=06193faf-9b70-44e9-bc78-e8654b59e835"},"vehicle_type_id":"4","last_reported":1685325952,"current_range_meters":18400,"station_id":"ce4bgt92rcd13ifvqcf0","pricing_plan_id":"free"},{"bike_id":"6814b2d6-c6c3-4f47-86de-6fe5299014cb","system_id":"levelo_inurba_marseille","lat":43.313571,"lon":5.384829,"is_reserved":false,"is_disabled":false,"rental_uris":{"android":"levelo://app?vid=6814b2d6-c6c3-4f47-86de-6fe5299014cb","ios":"levelo://app?vid=6814b2d6-c6c3-4f47-86de-6fe5299014cb"},"vehicle_type_id":"4","last_reported":1685325952,"current_range_meters":22800,"station_id":"ce4bgt92rcd13ifvqcf0","pricing_plan_id":"free"},{"bike_id":"d4ed3d4d-a928-4f50-b3aa-d7ac0b224756","system_id":"levelo_inurba_marseille","lat":43.313571,"lon":5.384829,"is_reserved":false,"is_disabled":false,"rental_uris":{"android":"levelo://app?vid=d4ed3d4d-a928-4f50-b3aa-d7ac0b224756","ios":"levelo://app?vid=d4ed3d4d-a928-4f50-b3aa-d7ac0b224756"},"vehicle_type_id":"4","last_reported":1685325952,"current_range_meters":31200,"station_id":"ce4bgt92rcd13ifvqcf0","pricing_plan_id":"free"},{"bike_id":"a3c00072-6f68-410a-a957-64c42b125a01","system_id":"levelo_inurba_marseille","lat":43.31369,"lon":5.38505,"is_reserved":false,"is_disabled":false,"rental_uris":{"android":"levelo://app?vid=a3c00072-6f68-410a-a957-64c42b125a01","ios":"levelo://app?vid=a3c00072-6f68-410a-a957-64c42b125a01"},"vehicle_type_id":"4","last_reported":1685325952,"current_range_meters":30400,"station_id":"ce4bgt92rcd13ifvqcf0","pricing_plan_id":"free"},{"bike_id":"8609457e-e0b7-42c8-901b-4946e2053a68","system_id":"levelo_inurba_marseille","lat":43.299209,"lon":5.365547,"is_reserved":false,"is_disabled":false,"rental_uris":{"android":"levelo://app?vid=8609457e-e0b7-42c8-901b-4946e2053a68","ios":"levelo://app?vid=8609457e-e0b7-42c8-901b-4946e2053a68"},"vehicle_type_id":"4","last_reported":1685325952,"current_range_meters":20000,"station_id":"ce4bgm92rcd13ifvqbr0","pricing_plan_id":"free"},{"bike_id":"8a4fafb8-1999-47d4-94fa-37de8c467e5b","system_id":"levelo_inurba_marseille","lat":43.299209,"lon":5.365547,"is_reserved":false,"is_disabled":false,"rental_uris":{"android":"levelo://app?vid=8a4fafb8-1999-47d4-94fa-37de8c467e5b","ios":"levelo://app?vid=8a4fafb8-1999-47d4-94fa-37de8c467e5b"},"vehicle_type_id":"4","last_reported":1685325952,"current_range_meters":24000,"station_id":"ce4bgm92rcd13ifvqbr0","pricing_plan_id":"free"},{"bike_id":"20e5f5a2-39b8-4ac7-9506-5e2ba41f6085","system_id":"levelo_inurba_marseille","lat":43.29853,"lon":5.3629,"is_reserved":false,"is_disabled":false,"rental_uris":{"android":"levelo://app?vid=20e5f5a2-39b8-4ac7-9506-5e2ba41f6085","ios":"levelo://app?vid=20e5f5a2-39b8-4ac7-9506-5e2ba41f6085"},"vehicle_type_id":"4","last_reported":1685325952,"current_range_meters":0,"station_id":"ce4bgpp2rcd13ifvqc3g","pricing_plan_id":"free"},{"bike_id":"c8fbbc96-0710-4d35-bc6c-638346583aad","system_id":"levelo_inurba_marseille","lat":43.305364,"lon":5.384119,"is_reserved":false,"is_disabled":false,"rental_uris":{"android":"levelo://app?vid=c8fbbc96-0710-4d35-bc6c-638346583aad","ios":"levelo://app?vid=c8fbbc96-0710-4d35-bc6c-638346583aad"},"vehicle_type_id":"4","last_reported":1685325952,"current_range_meters":26800,"station_id":"ce4bgg92rcd13ifvqb30","pricing_plan_id":"free"},{"bike_id":"ab1ce505-f8b6-42c2-ad2c-c1bb6a072cce","system_id":"levelo_inurba_marseille","lat":43.305364,"lon":5.384119,"is_reserved":false,"is_disabled":false,"rental_uris":{"android":"levelo://app?vid=ab1ce505-f8b6-42c2-ad2c-c1bb6a072cce","ios":"levelo://app?vid=ab1ce505-f8b6-42c2-ad2c-c1bb6a072cce"},"vehicle_type_id":"4","last_reported":1685325952,"current_range_meters":31600,"station_id":"ce4bgg92rcd13ifvqb30","pricing_plan_id":"free"},{"bike_id":"0a742fe2-4562-48dd-b8c6-0a24ab58684d","system_id":"levelo_inurba_marseille","lat":43.305364,"lon":5.384119,"is_reserved":false,"is_disabled":false,"rental_uris":{"android":"levelo://app?vid=0a742fe2-4562-48dd-b8c6-0a24ab58684d","ios":"levelo://app?vid=0a742fe2-4562-48dd-b8c6-0a24ab58684d"},"vehicle_type_id":"4","last_reported":1685325952,"current_range_meters":28400,"station_id":"ce4bgg92rcd13ifvqb30","pricing_plan_id":"free"},{"bike_id":"9cfb413c-540d-4607-962c-2f1999519a0b","system_id":"levelo_inurba_marseille","lat":43.305364,"lon":5.384119,"is_reserved":false,"is_disabled":false,"rental_uris":{"android":"levelo://app?vid=9cfb413c-540d-4607-962c-2f1999519a0b","ios":"levelo://app?vid=9cfb413c-540d-4607-962c-2f1999519a0b"},"vehicle_type_id":"4","last_reported":1685325952,"current_range_meters":31200,"station_id":"ce4bgg92rcd13ifvqb30","pricing_plan_id":"free"},{"bike_id":"57a1cfe0-718b-44f1-beab-f04457ad3743","system_id":"levelo_inurba_marseille","lat":43.30538,"lon":5.3844,"is_reserved":false,"is_disabled":false,"rental_uris":{"android":"levelo://app?vid=57a1cfe0-718b-44f1-beab-f04457ad3743","ios":"levelo://app?vid=57a1cfe0-718b-44f1-beab-f04457ad3743"},"vehicle_type_id":"4","last_reported":1685325952,"current_range_meters":31600,"station_id":"ce4bgg92rcd13ifvqb30","pricing_plan_id":"free"},{"bike_id":"1b064916-ce14-4dd7-8822-0096c3687352","system_id":"levelo_inurba_marseille","lat":43.31184,"lon":5.38712,"is_reserved":false,"is_disabled":false,"rental_uris":{"android":"levelo://app?vid=1b064916-ce14-4dd7-8822-0096c3687352","ios":"levelo://app?vid=1b064916-ce14-4dd7-8822-0096c3687352"},"vehicle_type_id":"4","last_reported":1685325952,"current_range_meters":1600,"station_id":"ce4bgv12rcd13ifvqcp0","pricing_plan_id":"free"},{"bike_id":"51cf0176-0c97-4194-a204-3ce503c7086d","system_id":"levelo_inurba_marseille","lat":43.311722,"lon":5.387247,"is_reserved":false,"is_disabled":false,"rental_uris":{"android":"levelo://app?vid=51cf0176-0c97-4194-a204-3ce503c7086d","ios":"levelo://app?vid=51cf0176-0c97-4194-a204-3ce503c7086d"},"vehicle_type_id":"4","last_reported":1685325952,"current_range_meters":22800,"station_id":"ce4bgv12rcd13ifvqcp0","pricing_plan_id":"free"},{"bike_id":"13f4c749-0c92-4ca4-be1c-c0b433df6bc4","system_id":"levelo_inurba_marseille","lat":43.299243,"lon":5.37481,"is_reserved":false,"is_disabled":false,"rental_uris":{"android":"levelo://app?vid=13f4c749-0c92-4ca4-be1c-c0b433df6bc4","ios":"levelo://app?vid=13f4c749-0c92-4ca4-be1c-c0b433df6bc4"},"vehicle_type_id":"4","last_reported":1685325952,"current_range_meters":25600,"station_id":"ce4bgjh2rcd13ifvqbg0","pricing_plan_id":"free"},{"bike_id":"2f6c2caf-d87c-4590-88a2-8c511b31b265","system_id":"levelo_inurba_marseille","lat":43.311722,"lon":5.387247,"is_reserved":false,"is_disabled":false,"rental_uris":{"android":"levelo://app?vid=2f6c2caf-d87c-4590-88a2-8c511b31b265","ios":"levelo://app?vid=2f6c2caf-d87c-4590-88a2-8c511b31b265"},"vehicle_type_id":"4","last_reported":1685325952,"current_range_meters":29600,"station_id":"ce4bgv12rcd13ifvqcp0","pricing_plan_id":"free"},{"bike_id":"49f46536-1f94-4252-92c0-8e05f64cf512","system_id":"levelo_inurba_marseille","lat":43.31178,"lon":5.38722,"is_reserved":false,"is_disabled":false,"rental_uris":{"android":"levelo://app?vid=49f46536-1f94-4252-92c0-8e05f64cf512","ios":"levelo://app?vid=49f46536-1f94-4252-92c0-8e05f64cf512"},"vehicle_type_id":"4","last_reported":1685325952,"current_range_meters":0,"station_id":"ce4bgv12rcd13ifvqcp0","pricing_plan_id":"free"},{"bike_id":"b5a89c5a-3f43-4f1f-ba45-e60bcdf7f797","system_id":"levelo_inurba_marseille","lat":43.297794,"lon":5.370888,"is_reserved":false,"is_disabled":false,"rental_uris":{"android":"levelo://app?vid=b5a89c5a-3f43-4f1f-ba45-e60bcdf7f797","ios":"levelo://app?vid=b5a89c5a-3f43-4f1f-ba45-e60bcdf7f797"},"vehicle_type_id":"4","last_reported":1685325952,"current_range_meters":27200,"station_id":"ce4bgop2rcd13ifvqc1g","pricing_plan_id":"free"},{"bike_id":"5895156f-f83a-4b54-a0b5-57f02c18ef1a","system_id":"levelo_inurba_marseille","lat":43.328371,"lon":5.366912,"is_reserved":false,"is_disabled":false,"rental_uris":{"android":"levelo://app?vid=5895156f-f83a-4b54-a0b5-57f02c18ef1a","ios":"levelo://app?vid=5895156f-f83a-4b54-a0b5-57f02c18ef1a"},"vehicle_type_id":"4","last_reported":1685325952,"current_range_meters":24000,"station_id":"ce4bhs92rcd13ifvqi0g","pricing_plan_id":"free"},{"bike_id":"5f318e37-13f9-4196-b90e-e4c1976e498e","system_id":"levelo_inurba_marseille","lat":43.29713,"lon":5.36609,"is_reserved":false,"is_disabled":false,"rental_uris":{"android":"levelo://app?vid=5f318e37-13f9-4196-b90e-e4c1976e498e","ios":"levelo://app?vid=5f318e37-13f9-4196-b90e-e4c1976e498e"},"vehicle_type_id":"4","last_reported":1685325952,"current_range_meters":17600,"station_id":"","pricing_plan_id":"free"},{"bike_id":"008f50da-9ed9-43bd-b830-f7dc4cb193de","system_id":"levelo_inurba_marseille","lat":43.2968,"lon":5.37291,"is_reserved":false,"is_disabled":false,"rental_uris":{"android":"levelo://app?vid=008f50da-9ed9-43bd-b830-f7dc4cb193de","ios":"levelo://app?vid=008f50da-9ed9-43bd-b830-f7dc4cb193de"},"vehicle_type_id":"4","last_reported":1685325952,"current_range_meters":21600,"station_id":"ce4bgk12rcd13ifvqbj0","pricing_plan_id":"free"},{"bike_id":"c0afa78f-fc27-40b9-bb49-2b8c7d7fb293","system_id":"levelo_inurba_marseille","lat":43.296935,"lon":5.376544,"is_reserved":false,"is_disabled":false,"rental_uris":{"android":"levelo://app?vid=c0afa78f-fc27-40b9-bb49-2b8c7d7fb293","ios":"levelo://app?vid=c0afa78f-fc27-40b9-bb49-2b8c7d7fb293"},"vehicle_type_id":"4","last_reported":1685325952,"current_range_meters":29200,"station_id":"ce4bgkh2rcd13ifvqbl0","pricing_plan_id":"free"},{"bike_id":"01e0067d-a45e-471e-987e-4fa0bec8c36c","system_id":"levelo_inurba_marseille","lat":43.309589,"lon":5.390258,"is_reserved":false,"is_disabled":false,"rental_uris":{"android":"levelo://app?vid=01e0067d-a45e-471e-987e-4fa0bec8c36c","ios":"levelo://app?vid=01e0067d-a45e-471e-987e-4fa0bec8c36c"},"vehicle_type_id":"4","last_reported":1685325952,"current_range_meters":28800,"station_id":"ce4bgup2rcd13ifvqco0","pricing_plan_id":"free"},{"bike_id":"28719797-4d7f-49b0-82c6-61b96dfc74a5","system_id":"levelo_inurba_marseille","lat":43.30957,"lon":5.3904,"is_reserved":false,"is_disabled":false,"rental_uris":{"android":"levelo://app?vid=28719797-4d7f-49b0-82c6-61b96dfc74a5","ios":"levelo://app?vid=28719797-4d7f-49b0-82c6-61b96dfc74a5"},"vehicle_type_id":"4","last_reported":1685325952,"current_range_meters":26800,"station_id":"ce4bgup2rcd13ifvqco0","pricing_plan_id":"free"},{"bike_id":"857d19d3-1ad1-4abd-a723-e560f557aaef","system_id":"levelo_inurba_marseille","lat":43.317557,"lon":5.390173,"is_reserved":false,"is_disabled":false,"rental_uris":{"android":"levelo://app?vid=857d19d3-1ad1-4abd-a723-e560f557aaef","ios":"levelo://app?vid=857d19d3-1ad1-4abd-a723-e560f557aaef"},"vehicle_type_id":"4","last_reported":1685325952,"current_range_meters":26000,"station_id":"ce4bhqp2rcd13ifvqhng","pricing_plan_id":"free"},{"bike_id":"87432cee-3dd7-4f7c-aa07-596951e7fa85","system_id":"levelo_inurba_marseille","lat":43.29579,"lon":5.37501,"is_reserved":false,"is_disabled":false,"rental_uris":{"android":"levelo://app?vid=87432cee-3dd7-4f7c-aa07-596951e7fa85","ios":"levelo://app?vid=87432cee-3dd7-4f7c-aa07-596951e7fa85"},"vehicle_type_id":"4","last_reported":1685325952,"current_range_meters":26400,"station_id":"ce4bgh92rcd13ifvqb50","pricing_plan_id":"free"},{"bike_id":"8ef54caf-8f29-4bc4-8aa1-5652b0663f40","system_id":"levelo_inurba_marseille","lat":43.295748,"lon":5.37522,"is_reserved":false,"is_disabled":false,"rental_uris":{"android":"levelo://app?vid=8ef54caf-8f29-4bc4-8aa1-5652b0663f40","ios":"levelo://app?vid=8ef54caf-8f29-4bc4-8aa1-5652b0663f40"},"vehicle_type_id":"4","last_reported":1685325952,"current_range_meters":24400,"station_id":"ce4bgh92rcd13ifvqb50","pricing_plan_id":"free"},{"bike_id":"8cb60cc7-3bca-437f-a185-7f02bfaee8b5","system_id":"levelo_inurba_marseille","lat":43.295748,"lon":5.37522,"is_reserved":false,"is_disabled":false,"rental_uris":{"android":"levelo://app?vid=8cb60cc7-3bca-437f-a185-7f02bfaee8b5","ios":"levelo://app?vid=8cb60cc7-3bca-437f-a185-7f02bfaee8b5"},"vehicle_type_id":"4","last_reported":1685325952,"current_range_meters":20000,"station_id":"ce4bgh92rcd13ifvqb50","pricing_plan_id":"free"},{"bike_id":"824162d2-5de6-4371-bd0d-475b8eac9d88","system_id":"levelo_inurba_marseille","lat":43.304278,"lon":5.388868,"is_reserved":false,"is_disabled":false,"rental_uris":{"android":"levelo://app?vid=824162d2-5de6-4371-bd0d-475b8eac9d88","ios":"levelo://app?vid=824162d2-5de6-4371-bd0d-475b8eac9d88"},"vehicle_type_id":"4","last_reported":1685325952,"current_range_meters":29600,"station_id":"ce4bgk12rcd13ifvqbi0","pricing_plan_id":"free"},{"bike_id":"5a2e37f4-ece8-4ab2-a31b-039541c7aad1","system_id":"levelo_inurba_marseille","lat":43.304278,"lon":5.388868,"is_reserved":false,"is_disabled":false,"rental_uris":{"android":"levelo://app?vid=5a2e37f4-ece8-4ab2-a31b-039541c7aad1","ios":"levelo://app?vid=5a2e37f4-ece8-4ab2-a31b-039541c7aad1"},"vehicle_type_id":"4","last_reported":1685325952,"current_range_meters":30800,"station_id":"ce4bgk12rcd13ifvqbi0","pricing_plan_id":"free"},{"bike_id":"4417002b-2137-444d-9d6e-4fd734e66e41","system_id":"levelo_inurba_marseille","lat":43.304278,"lon":5.388868,"is_reserved":false,"is_disabled":false,"rental_uris":{"android":"levelo://app?vid=4417002b-2137-444d-9d6e-4fd734e66e41","ios":"levelo://app?vid=4417002b-2137-444d-9d6e-4fd734e66e41"},"vehicle_type_id":"4","last_reported":1685325952,"current_range_meters":30800,"station_id":"ce4bgk12rcd13ifvqbi0","pricing_plan_id":"free"},{"bike_id":"6f43b730-aab5-4c56-ac33-9d4cc1a618c5","system_id":"levelo_inurba_marseille","lat":43.304278,"lon":5.388868,"is_reserved":false,"is_disabled":false,"rental_uris":{"android":"levelo://app?vid=6f43b730-aab5-4c56-ac33-9d4cc1a618c5","ios":"levelo://app?vid=6f43b730-aab5-4c56-ac33-9d4cc1a618c5"},"vehicle_type_id":"4","last_reported":1685325952,"current_range_meters":10000,"station_id":"ce4bgk12rcd13ifvqbi0","pricing_plan_id":"free"},{"bike_id":"7d885fdd-2b68-4f67-be1d-00ef7382fe06","system_id":"levelo_inurba_marseille","lat":43.295748,"lon":5.37522,"is_reserved":false,"is_disabled":false,"rental_uris":{"android":"levelo://app?vid=7d885fdd-2b68-4f67-be1d-00ef7382fe06","ios":"levelo://app?vid=7d885fdd-2b68-4f67-be1d-00ef7382fe06"},"vehicle_type_id":"4","last_reported":1685325952,"current_range_meters":23600,"station_id":"ce4bgh92rcd13ifvqb50","pricing_plan_id":"free"},{"bike_id":"ed6a4325-0fb8-4dc4-bb65-bda9f41d386b","system_id":"levelo_inurba_marseille","lat":43.304278,"lon":5.388868,"is_reserved":false,"is_disabled":false,"rental_uris":{"android":"levelo://app?vid=ed6a4325-0fb8-4dc4-bb65-bda9f41d386b","ios":"levelo://app?vid=ed6a4325-0fb8-4dc4-bb65-bda9f41d386b"},"vehicle_type_id":"4","last_reported":1685325952,"current_range_meters":27600,"station_id":"ce4bgk12rcd13ifvqbi0","pricing_plan_id":"free"},{"bike_id":"a94c7e10-730a-4999-8229-74868dd2a3b0","system_id":"levelo_inurba_marseille","lat":43.296277,"lon":5.377108,"is_reserved":false,"is_disabled":false,"rental_uris":{"android":"levelo://app?vid=a94c7e10-730a-4999-8229-74868dd2a3b0","ios":"levelo://app?vid=a94c7e10-730a-4999-8229-74868dd2a3b0"},"vehicle_type_id":"4","last_reported":1685325952,"current_range_meters":28400,"station_id":"ce4bgi92rcd13ifvqb90","pricing_plan_id":"free"},{"bike_id":"6b1bc586-6a8b-43c5-bdad-68fbbac4ed60","system_id":"levelo_inurba_marseille","lat":43.29694,"lon":5.37939,"is_reserved":false,"is_disabled":false,"rental_uris":{"android":"levelo://app?vid=6b1bc586-6a8b-43c5-bdad-68fbbac4ed60","ios":"levelo://app?vid=6b1bc586-6a8b-43c5-bdad-68fbbac4ed60"},"vehicle_type_id":"4","last_reported":1685325952,"current_range_meters":0,"station_id":"","pricing_plan_id":"free"},{"bike_id":"e326a26c-1c0f-49ce-b316-eb3d613f90d1","system_id":"levelo_inurba_marseille","lat":43.298037,"lon":5.381066,"is_reserved":false,"is_disabled":false,"rental_uris":{"android":"levelo://app?vid=e326a26c-1c0f-49ce-b316-eb3d613f90d1","ios":"levelo://app?vid=e326a26c-1c0f-49ce-b316-eb3d613f90d1"},"vehicle_type_id":"4","last_reported":1685325952,"current_range_meters":0,"station_id":"ce4bgip2rcd13ifvqbb0","pricing_plan_id":"free"},{"bike_id":"b4f44fd9-a028-480e-b644-90618520950f","system_id":"levelo_inurba_marseille","lat":43.296277,"lon":5.377108,"is_reserved":false,"is_disabled":false,"rental_uris":{"android":"levelo://app?vid=b4f44fd9-a028-480e-b644-90618520950f","ios":"levelo://app?vid=b4f44fd9-a028-480e-b644-90618520950f"},"vehicle_type_id":"4","last_reported":1685325952,"current_range_meters":19200,"station_id":"ce4bgi92rcd13ifvqb90","pricing_plan_id":"free"},{"bike_id":"77566915-2f35-47b7-b8d6-4d2642f1e8cd","system_id":"levelo_inurba_marseille","lat":43.299724,"lon":5.384848,"is_reserved":false,"is_disabled":false,"rental_uris":{"android":"levelo://app?vid=77566915-2f35-47b7-b8d6-4d2642f1e8cd","ios":"levelo://app?vid=77566915-2f35-47b7-b8d6-4d2642f1e8cd"},"vehicle_type_id":"4","last_reported":1685325952,"current_range_meters":31200,"station_id":"ce4bgj92rcd13ifvqbd0","pricing_plan_id":"free"},{"bike_id":"3bc3e6f8-7bc7-4175-b649-e811d4514842","system_id":"levelo_inurba_marseille","lat":43.29972,"lon":5.38496,"is_reserved":false,"is_disabled":false,"rental_uris":{"android":"levelo://app?vid=3bc3e6f8-7bc7-4175-b649-e811d4514842","ios":"levelo://app?vid=3bc3e6f8-7bc7-4175-b649-e811d4514842"},"vehicle_type_id":"4","last_reported":1685325952,"current_range_meters":0,"station_id":"ce4bgj92rcd13ifvqbd0","pricing_plan_id":"free"},{"bike_id":"f8be4c25-db33-4e79-bdb6-52289cf8accc","system_id":"levelo_inurba_marseille","lat":43.299717,"lon":5.384845,"is_reserved":false,"is_disabled":false,"rental_uris":{"android":"levelo://app?vid=f8be4c25-db33-4e79-bdb6-52289cf8accc","ios":"levelo://app?vid=f8be4c25-db33-4e79-bdb6-52289cf8accc"},"vehicle_type_id":"4","last_reported":1685325952,"current_range_meters":1600,"station_id":"ce4bgj92rcd13ifvqbd0","pricing_plan_id":"free"},{"bike_id":"74ddaea5-fbfa-4f7f-ad91-78a115e537da","system_id":"levelo_inurba_marseille","lat":43.32367,"lon":5.38887,"is_reserved":false,"is_disabled":false,"rental_uris":{"android":"levelo://app?vid=74ddaea5-fbfa-4f7f-ad91-78a115e537da","ios":"levelo://app?vid=74ddaea5-fbfa-4f7f-ad91-78a115e537da"},"vehicle_type_id":"4","last_reported":1685325952,"current_range_meters":0,"station_id":"ce4bhqp2rcd13ifvqhog","pricing_plan_id":"free"},{"bike_id":"ddfffe7f-ecf3-4188-879b-1dc09c6ec0d1","system_id":"levelo_inurba_marseille","lat":43.32367,"lon":5.388836,"is_reserved":false,"is_disabled":false,"rental_uris":{"android":"levelo://app?vid=ddfffe7f-ecf3-4188-879b-1dc09c6ec0d1","ios":"levelo://app?vid=ddfffe7f-ecf3-4188-879b-1dc09c6ec0d1"},"vehicle_type_id":"4","last_reported":1685325952,"current_range_meters":14000,"station_id":"ce4bhqp2rcd13ifvqhog","pricing_plan_id":"free"},{"bike_id":"011c5ca1-cc70-48cc-8313-afdec0add8b1","system_id":"levelo_inurba_marseille","lat":43.293249,"lon":5.371578,"is_reserved":false,"is_disabled":false,"rental_uris":{"android":"levelo://app?vid=011c5ca1-cc70-48cc-8313-afdec0add8b1","ios":"levelo://app?vid=011c5ca1-cc70-48cc-8313-afdec0add8b1"},"vehicle_type_id":"4","last_reported":1685325952,"current_range_meters":0,"station_id":"ce4bgh92rcd13ifvqb40","pricing_plan_id":"free"},{"bike_id":"bdd67df4-1579-43d9-81ae-bfd8893fd19c","system_id":"levelo_inurba_marseille","lat":43.29304,"lon":5.37183,"is_reserved":false,"is_disabled":false,"rental_uris":{"android":"levelo://app?vid=bdd67df4-1579-43d9-81ae-bfd8893fd19c","ios":"levelo://app?vid=bdd67df4-1579-43d9-81ae-bfd8893fd19c"},"vehicle_type_id":"4","last_reported":1685325952,"current_range_meters":0,"station_id":"","pricing_plan_id":"free"},{"bike_id":"1ddcc1e3-064a-45fe-8548-c3fa9200518e","system_id":"levelo_inurba_marseille","lat":43.29408,"lon":5.37727,"is_reserved":false,"is_disabled":false,"rental_uris":{"android":"levelo://app?vid=1ddcc1e3-064a-45fe-8548-c3fa9200518e","ios":"levelo://app?vid=1ddcc1e3-064a-45fe-8548-c3fa9200518e"},"vehicle_type_id":"4","last_reported":1685325952,"current_range_meters":0,"station_id":"","pricing_plan_id":"free"},{"bike_id":"2628bc6b-4d15-4fed-adc0-829c4af8f3bc","system_id":"levelo_inurba_marseille","lat":43.29333,"lon":5.3743,"is_reserved":false,"is_disabled":false,"rental_uris":{"android":"levelo://app?vid=2628bc6b-4d15-4fed-adc0-829c4af8f3bc","ios":"levelo://app?vid=2628bc6b-4d15-4fed-adc0-829c4af8f3bc"},"vehicle_type_id":"4","last_reported":1685325952,"current_range_meters":0,"station_id":"","pricing_plan_id":"free"},{"bike_id":"01dec166-f107-4001-8fcd-83caf3eff034","system_id":"levelo_inurba_marseille","lat":43.303002,"lon":5.392142,"is_reserved":false,"is_disabled":false,"rental_uris":{"android":"levelo://app?vid=01dec166-f107-4001-8fcd-83caf3eff034","ios":"levelo://app?vid=01dec166-f107-4001-8fcd-83caf3eff034"},"vehicle_type_id":"4","last_reported":1685325952,"current_range_meters":28800,"station_id":"ce4bgkh2rcd13ifvqbk0","pricing_plan_id":"free"},{"bike_id":"91bb1a46-42cb-437f-848c-3b8a8bcf00f4","system_id":"levelo_inurba_marseille","lat":43.29286,"lon":5.37489,"is_reserved":false,"is_disabled":false,"rental_uris":{"android":"levelo://app?vid=91bb1a46-42cb-437f-848c-3b8a8bcf00f4","ios":"levelo://app?vid=91bb1a46-42cb-437f-848c-3b8a8bcf00f4"},"vehicle_type_id":"4","last_reported":1685325952,"current_range_meters":28400,"station_id":"ce4bgi12rcd13ifvqb70","pricing_plan_id":"free"},{"bike_id":"2631e1ec-dc3e-424d-a771-4a10bc1be4b0","system_id":"levelo_inurba_marseille","lat":43.2936,"lon":5.37835,"is_reserved":false,"is_disabled":false,"rental_uris":{"android":"levelo://app?vid=2631e1ec-dc3e-424d-a771-4a10bc1be4b0","ios":"levelo://app?vid=2631e1ec-dc3e-424d-a771-4a10bc1be4b0"},"vehicle_type_id":"4","last_reported":1685325952,"current_range_meters":31200,"station_id":"ce4bgjh2rcd13ifvqbf0","pricing_plan_id":"free"},{"bike_id":"3939857f-016b-4f44-8fd5-18e954ec28d5","system_id":"levelo_inurba_marseille","lat":43.2936,"lon":5.37835,"is_reserved":false,"is_disabled":false,"rental_uris":{"android":"levelo://app?vid=3939857f-016b-4f44-8fd5-18e954ec28d5","ios":"levelo://app?vid=3939857f-016b-4f44-8fd5-18e954ec28d5"},"vehicle_type_id":"4","last_reported":1685325952,"current_range_meters":31200,"station_id":"ce4bgjh2rcd13ifvqbf0","pricing_plan_id":"free"},{"bike_id":"be7e17c5-c20d-4be9-af1f-35205a965b31","system_id":"levelo_inurba_marseille","lat":43.2936,"lon":5.37835,"is_reserved":false,"is_disabled":false,"rental_uris":{"android":"levelo://app?vid=be7e17c5-c20d-4be9-af1f-35205a965b31","ios":"levelo://app?vid=be7e17c5-c20d-4be9-af1f-35205a965b31"},"vehicle_type_id":"4","last_reported":1685325952,"current_range_meters":31200,"station_id":"ce4bgjh2rcd13ifvqbf0","pricing_plan_id":"free"},{"bike_id":"36bd23c8-e081-4e80-8593-010429b92b25","system_id":"levelo_inurba_marseille","lat":43.30085,"lon":5.390856,"is_reserved":false,"is_disabled":false,"rental_uris":{"android":"levelo://app?vid=36bd23c8-e081-4e80-8593-010429b92b25","ios":"levelo://app?vid=36bd23c8-e081-4e80-8593-010429b92b25"},"vehicle_type_id":"4","last_reported":1685325952,"current_range_meters":28800,"station_id":"ce4bh192rcd13ifvqdb0","pricing_plan_id":"free"},{"bike_id":"4fad0df2-165a-4a18-a398-ad1e1da3b2b9","system_id":"levelo_inurba_marseille","lat":43.300852,"lon":5.390859,"is_reserved":false,"is_disabled":false,"rental_uris":{"android":"levelo://app?vid=4fad0df2-165a-4a18-a398-ad1e1da3b2b9","ios":"levelo://app?vid=4fad0df2-165a-4a18-a398-ad1e1da3b2b9"},"vehicle_type_id":"4","last_reported":1685325952,"current_range_meters":0,"station_id":"ce4bh192rcd13ifvqdb0","pricing_plan_id":"free"},{"bike_id":"06065e43-d961-46b8-ba7b-011d263c10e5","system_id":"levelo_inurba_marseille","lat":43.291994,"lon":5.357886,"is_reserved":false,"is_disabled":false,"rental_uris":{"android":"levelo://app?vid=06065e43-d961-46b8-ba7b-011d263c10e5","ios":"levelo://app?vid=06065e43-d961-46b8-ba7b-011d263c10e5"},"vehicle_type_id":"4","last_reported":1685325952,"current_range_meters":25600,"station_id":"ce4bhb12rcd13ifvqel0","pricing_plan_id":"free"},{"bike_id":"9dbef80a-9e2f-4e25-b23e-7b915ab7c7bb","system_id":"levelo_inurba_marseille","lat":43.31327,"lon":5.39687,"is_reserved":false,"is_disabled":false,"rental_uris":{"android":"levelo://app?vid=9dbef80a-9e2f-4e25-b23e-7b915ab7c7bb","ios":"levelo://app?vid=9dbef80a-9e2f-4e25-b23e-7b915ab7c7bb"},"vehicle_type_id":"4","last_reported":1685325952,"current_range_meters":8000,"station_id":"ce4bgvp2rcd13ifvqcu0","pricing_plan_id":"free"},{"bike_id":"556e1f3f-a774-44a1-9c89-e71d806fd500","system_id":"levelo_inurba_marseille","lat":43.30878,"lon":5.39643,"is_reserved":false,"is_disabled":false,"rental_uris":{"android":"levelo://app?vid=556e1f3f-a774-44a1-9c89-e71d806fd500","ios":"levelo://app?vid=556e1f3f-a774-44a1-9c89-e71d806fd500"},"vehicle_type_id":"4","last_reported":1685325952,"current_range_meters":31200,"station_id":"","pricing_plan_id":"free"},{"bike_id":"55ed2660-4a9d-447a-bded-4c88f087e5d6","system_id":"levelo_inurba_marseille","lat":43.31331,"lon":5.39692,"is_reserved":false,"is_disabled":false,"rental_uris":{"android":"levelo://app?vid=55ed2660-4a9d-447a-bded-4c88f087e5d6","ios":"levelo://app?vid=55ed2660-4a9d-447a-bded-4c88f087e5d6"},"vehicle_type_id":"4","last_reported":1685325952,"current_range_meters":31200,"station_id":"ce4bgvp2rcd13ifvqcu0","pricing_plan_id":"free"},{"bike_id":"663d8b28-2908-4448-95e1-c287dbd355e7","system_id":"levelo_inurba_marseille","lat":43.309038,"lon":5.396546,"is_reserved":false,"is_disabled":false,"rental_uris":{"android":"levelo://app?vid=663d8b28-2908-4448-95e1-c287dbd355e7","ios":"levelo://app?vid=663d8b28-2908-4448-95e1-c287dbd355e7"},"vehicle_type_id":"4","last_reported":1685325952,"current_range_meters":5200,"station_id":"ce4bh012rcd13ifvqcv0","pricing_plan_id":"free"},{"bike_id":"7486ab4a-5580-41b9-b50f-fa5adb7f6c7d","system_id":"levelo_inurba_marseille","lat":43.30878,"lon":5.39645,"is_reserved":false,"is_disabled":false,"rental_uris":{"android":"levelo://app?vid=7486ab4a-5580-41b9-b50f-fa5adb7f6c7d","ios":"levelo://app?vid=7486ab4a-5580-41b9-b50f-fa5adb7f6c7d"},"vehicle_type_id":"4","last_reported":1685325952,"current_range_meters":1600,"station_id":"","pricing_plan_id":"free"},{"bike_id":"2a152b9b-7b62-4133-a3d5-c655212b49e1","system_id":"levelo_inurba_marseille","lat":43.309038,"lon":5.396546,"is_reserved":false,"is_disabled":false,"rental_uris":{"android":"levelo://app?vid=2a152b9b-7b62-4133-a3d5-c655212b49e1","ios":"levelo://app?vid=2a152b9b-7b62-4133-a3d5-c655212b49e1"},"vehicle_type_id":"4","last_reported":1685325952,"current_range_meters":31200,"station_id":"ce4bh012rcd13ifvqcv0","pricing_plan_id":"free"},{"bike_id":"4ce99df0-540b-4e39-9232-0e42c2ab56f7","system_id":"levelo_inurba_marseille","lat":43.30891,"lon":5.39651,"is_reserved":false,"is_disabled":false,"rental_uris":{"android":"levelo://app?vid=4ce99df0-540b-4e39-9232-0e42c2ab56f7","ios":"levelo://app?vid=4ce99df0-540b-4e39-9232-0e42c2ab56f7"},"vehicle_type_id":"4","last_reported":1685325952,"current_range_meters":400,"station_id":"","pricing_plan_id":"free"},{"bike_id":"fb44063b-75b6-45b7-a70f-5632c621658f","system_id":"levelo_inurba_marseille","lat":43.291994,"lon":5.357886,"is_reserved":false,"is_disabled":false,"rental_uris":{"android":"levelo://app?vid=fb44063b-75b6-45b7-a70f-5632c621658f","ios":"levelo://app?vid=fb44063b-75b6-45b7-a70f-5632c621658f"},"vehicle_type_id":"4","last_reported":1685325952,"current_range_meters":21200,"station_id":"ce4bhb12rcd13ifvqel0","pricing_plan_id":"free"},{"bike_id":"ad27dbb9-6a06-425e-931a-974a7f93a3a8","system_id":"levelo_inurba_marseille","lat":43.30877,"lon":5.39654,"is_reserved":false,"is_disabled":false,"rental_uris":{"android":"levelo://app?vid=ad27dbb9-6a06-425e-931a-974a7f93a3a8","ios":"levelo://app?vid=ad27dbb9-6a06-425e-931a-974a7f93a3a8"},"vehicle_type_id":"4","last_reported":1685325952,"current_range_meters":26000,"station_id":"","pricing_plan_id":"free"},{"bike_id":"5573483a-75af-41be-88a7-934a4ca72bcd","system_id":"levelo_inurba_marseille","lat":43.30866,"lon":5.39652,"is_reserved":false,"is_disabled":false,"rental_uris":{"android":"levelo://app?vid=5573483a-75af-41be-88a7-934a4ca72bcd","ios":"levelo://app?vid=5573483a-75af-41be-88a7-934a4ca72bcd"},"vehicle_type_id":"4","last_reported":1685325952,"current_range_meters":5200,"station_id":"","pricing_plan_id":"free"},{"bike_id":"3dd45412-49b5-4e2f-9564-662f4a823145","system_id":"levelo_inurba_marseille","lat":43.290779,"lon":5.371482,"is_reserved":false,"is_disabled":false,"rental_uris":{"android":"levelo://app?vid=3dd45412-49b5-4e2f-9564-662f4a823145","ios":"levelo://app?vid=3dd45412-49b5-4e2f-9564-662f4a823145"},"vehicle_type_id":"4","last_reported":1685325952,"current_range_meters":28800,"station_id":"ce4bh5p2rcd13ifvqe4g","pricing_plan_id":"free"},{"bike_id":"869d5d5d-eec6-45b8-ae74-92b3b6d543e8","system_id":"levelo_inurba_marseille","lat":43.290779,"lon":5.371482,"is_reserved":false,"is_disabled":false,"rental_uris":{"android":"levelo://app?vid=869d5d5d-eec6-45b8-ae74-92b3b6d543e8","ios":"levelo://app?vid=869d5d5d-eec6-45b8-ae74-92b3b6d543e8"},"vehicle_type_id":"4","last_reported":1685325952,"current_range_meters":0,"station_id":"ce4bh5p2rcd13ifvqe4g","pricing_plan_id":"free"},{"bike_id":"eea754f4-dc28-45b2-ab2c-ac73b444230a","system_id":"levelo_inurba_marseille","lat":43.302008,"lon":5.394694,"is_reserved":false,"is_disabled":false,"rental_uris":{"android":"levelo://app?vid=eea754f4-dc28-45b2-ab2c-ac73b444230a","ios":"levelo://app?vid=eea754f4-dc28-45b2-ab2c-ac73b444230a"},"vehicle_type_id":"4","last_reported":1685325952,"current_range_meters":25600,"station_id":"ce4bh0p2rcd13ifvqd70","pricing_plan_id":"free"},{"bike_id":"0aaf5c6d-3997-4ef7-9a2d-8193341d2196","system_id":"levelo_inurba_marseille","lat":43.302008,"lon":5.394694,"is_reserved":false,"is_disabled":false,"rental_uris":{"android":"levelo://app?vid=0aaf5c6d-3997-4ef7-9a2d-8193341d2196","ios":"levelo://app?vid=0aaf5c6d-3997-4ef7-9a2d-8193341d2196"},"vehicle_type_id":"4","last_reported":1685325952,"current_range_meters":29600,"station_id":"ce4bh0p2rcd13ifvqd70","pricing_plan_id":"free"},{"bike_id":"651bd262-c463-45bb-8449-0936254a0f85","system_id":"levelo_inurba_marseille","lat":43.290631,"lon":5.359244,"is_reserved":false,"is_disabled":false,"rental_uris":{"android":"levelo://app?vid=651bd262-c463-45bb-8449-0936254a0f85","ios":"levelo://app?vid=651bd262-c463-45bb-8449-0936254a0f85"},"vehicle_type_id":"4","last_reported":1685325952,"current_range_meters":28800,"station_id":"ce4bha92rcd13ifvqeg0","pricing_plan_id":"free"},{"bike_id":"0c1648fa-0029-416e-86d1-195ba69dcdd4","system_id":"levelo_inurba_marseille","lat":43.302008,"lon":5.394694,"is_reserved":false,"is_disabled":false,"rental_uris":{"android":"levelo://app?vid=0c1648fa-0029-416e-86d1-195ba69dcdd4","ios":"levelo://app?vid=0c1648fa-0029-416e-86d1-195ba69dcdd4"},"vehicle_type_id":"4","last_reported":1685325952,"current_range_meters":12400,"station_id":"ce4bh0p2rcd13ifvqd70","pricing_plan_id":"free"},{"bike_id":"18d0646b-e6e3-47a3-a36a-3f4ec6294746","system_id":"levelo_inurba_marseille","lat":43.290631,"lon":5.359244,"is_reserved":false,"is_disabled":false,"rental_uris":{"android":"levelo://app?vid=18d0646b-e6e3-47a3-a36a-3f4ec6294746","ios":"levelo://app?vid=18d0646b-e6e3-47a3-a36a-3f4ec6294746"},"vehicle_type_id":"4","last_reported":1685325952,"current_range_meters":28800,"station_id":"ce4bha92rcd13ifvqeg0","pricing_plan_id":"free"},{"bike_id":"687f358c-4e4a-4019-b8ca-8f90a736ed3a","system_id":"levelo_inurba_marseille","lat":43.290631,"lon":5.359244,"is_reserved":false,"is_disabled":false,"rental_uris":{"android":"levelo://app?vid=687f358c-4e4a-4019-b8ca-8f90a736ed3a","ios":"levelo://app?vid=687f358c-4e4a-4019-b8ca-8f90a736ed3a"},"vehicle_type_id":"4","last_reported":1685325952,"current_range_meters":31200,"station_id":"ce4bha92rcd13ifvqeg0","pricing_plan_id":"free"},{"bike_id":"97e0cd85-8179-4b8f-a325-3c4d743a631e","system_id":"levelo_inurba_marseille","lat":43.29038,"lon":5.37578,"is_reserved":false,"is_disabled":false,"rental_uris":{"android":"levelo://app?vid=97e0cd85-8179-4b8f-a325-3c4d743a631e","ios":"levelo://app?vid=97e0cd85-8179-4b8f-a325-3c4d743a631e"},"vehicle_type_id":"4","last_reported":1685325952,"current_range_meters":20800,"station_id":"ce4bh692rcd13ifvqe90","pricing_plan_id":"free"},{"bike_id":"d3d82af5-bdc6-4255-975f-519ceaf33f0a","system_id":"levelo_inurba_marseille","lat":43.29023,"lon":5.37553,"is_reserved":false,"is_disabled":false,"rental_uris":{"android":"levelo://app?vid=d3d82af5-bdc6-4255-975f-519ceaf33f0a","ios":"levelo://app?vid=d3d82af5-bdc6-4255-975f-519ceaf33f0a"},"vehicle_type_id":"4","last_reported":1685325952,"current_range_meters":0,"station_id":"ce4bh692rcd13ifvqe90","pricing_plan_id":"free"},{"bike_id":"4dd637a4-d642-42ec-9db7-75db1870de32","system_id":"levelo_inurba_marseille","lat":43.29024,"lon":5.3756,"is_reserved":false,"is_disabled":false,"rental_uris":{"android":"levelo://app?vid=4dd637a4-d642-42ec-9db7-75db1870de32","ios":"levelo://app?vid=4dd637a4-d642-42ec-9db7-75db1870de32"},"vehicle_type_id":"4","last_reported":1685325952,"current_range_meters":0,"station_id":"ce4bh692rcd13ifvqe90","pricing_plan_id":"free"},{"bike_id":"cb17dc91-7e10-4867-8cec-f509dbe55326","system_id":"levelo_inurba_marseille","lat":43.289184,"lon":5.366408,"is_reserved":false,"is_disabled":false,"rental_uris":{"android":"levelo://app?vid=cb17dc91-7e10-4867-8cec-f509dbe55326","ios":"levelo://app?vid=cb17dc91-7e10-4867-8cec-f509dbe55326"},"vehicle_type_id":"4","last_reported":1685325952,"current_range_meters":28400,"station_id":"ce4bhap2rcd13ifvqek0","pricing_plan_id":"free"},{"bike_id":"da150a22-ace0-4237-b6b5-0d3f3e15f103","system_id":"levelo_inurba_marseille","lat":43.289184,"lon":5.366408,"is_reserved":false,"is_disabled":false,"rental_uris":{"android":"levelo://app?vid=da150a22-ace0-4237-b6b5-0d3f3e15f103","ios":"levelo://app?vid=da150a22-ace0-4237-b6b5-0d3f3e15f103"},"vehicle_type_id":"4","last_reported":1685325952,"current_range_meters":26800,"station_id":"ce4bhap2rcd13ifvqek0","pricing_plan_id":"free"},{"bike_id":"ad81e9f5-d71f-47da-a427-5cb2a13aebde","system_id":"levelo_inurba_marseille","lat":43.2893,"lon":5.36628,"is_reserved":false,"is_disabled":false,"rental_uris":{"android":"levelo://app?vid=ad81e9f5-d71f-47da-a427-5cb2a13aebde","ios":"levelo://app?vid=ad81e9f5-d71f-47da-a427-5cb2a13aebde"},"vehicle_type_id":"4","last_reported":1685325952,"current_range_meters":31200,"station_id":"ce4bhap2rcd13ifvqek0","pricing_plan_id":"free"},{"bike_id":"6f083652-db7c-426f-a21d-65fa006bdcfb","system_id":"levelo_inurba_marseille","lat":43.29015,"lon":5.37569,"is_reserved":false,"is_disabled":false,"rental_uris":{"android":"levelo://app?vid=6f083652-db7c-426f-a21d-65fa006bdcfb","ios":"levelo://app?vid=6f083652-db7c-426f-a21d-65fa006bdcfb"},"vehicle_type_id":"4","last_reported":1685325952,"current_range_meters":28800,"station_id":"ce4bh692rcd13ifvqe90","pricing_plan_id":"free"},{"bike_id":"ee02176e-ee34-433e-b2e2-a156d3f76dd8","system_id":"levelo_inurba_marseille","lat":43.289184,"lon":5.366408,"is_reserved":false,"is_disabled":false,"rental_uris":{"android":"levelo://app?vid=ee02176e-ee34-433e-b2e2-a156d3f76dd8","ios":"levelo://app?vid=ee02176e-ee34-433e-b2e2-a156d3f76dd8"},"vehicle_type_id":"4","last_reported":1685325952,"current_range_meters":28000,"station_id":"ce4bhap2rcd13ifvqek0","pricing_plan_id":"free"},{"bike_id":"67e4ab5e-7ccd-4144-909d-a5c9ec7b0b2c","system_id":"levelo_inurba_marseille","lat":43.289468,"lon":5.363719,"is_reserved":false,"is_disabled":false,"rental_uris":{"android":"levelo://app?vid=67e4ab5e-7ccd-4144-909d-a5c9ec7b0b2c","ios":"levelo://app?vid=67e4ab5e-7ccd-4144-909d-a5c9ec7b0b2c"},"vehicle_type_id":"4","last_reported":1685325952,"current_range_meters":31200,"station_id":"ce4bhc92rcd13ifvqetg","pricing_plan_id":"free"},{"bike_id":"d390a1f1-6ea6-48b8-8423-f4e6f171587a","system_id":"levelo_inurba_marseille","lat":43.289468,"lon":5.363719,"is_reserved":false,"is_disabled":false,"rental_uris":{"android":"levelo://app?vid=d390a1f1-6ea6-48b8-8423-f4e6f171587a","ios":"levelo://app?vid=d390a1f1-6ea6-48b8-8423-f4e6f171587a"},"vehicle_type_id":"4","last_reported":1685325952,"current_range_meters":19200,"station_id":"ce4bhc92rcd13ifvqetg","pricing_plan_id":"free"},{"bike_id":"6e217126-b838-43e0-875a-da67501aec22","system_id":"levelo_inurba_marseille","lat":43.304296,"lon":5.397513,"is_reserved":false,"is_disabled":false,"rental_uris":{"android":"levelo://app?vid=6e217126-b838-43e0-875a-da67501aec22","ios":"levelo://app?vid=6e217126-b838-43e0-875a-da67501aec22"},"vehicle_type_id":"4","last_reported":1685325952,"current_range_meters":31200,"station_id":"ce4bh092rcd13ifvqd20","pricing_plan_id":"free"},{"bike_id":"533025ee-40bc-4100-a009-badddfe63e0a","system_id":"levelo_inurba_marseille","lat":43.304296,"lon":5.397513,"is_reserved":false,"is_disabled":false,"rental_uris":{"android":"levelo://app?vid=533025ee-40bc-4100-a009-badddfe63e0a","ios":"levelo://app?vid=533025ee-40bc-4100-a009-badddfe63e0a"},"vehicle_type_id":"4","last_reported":1685325952,"current_range_meters":30800,"station_id":"ce4bh092rcd13ifvqd20","pricing_plan_id":"free"},{"bike_id":"6d352361-0409-4e42-8b1d-1b05f92960f3","system_id":"levelo_inurba_marseille","lat":43.33043,"lon":5.38913,"is_reserved":false,"is_disabled":false,"rental_uris":{"android":"levelo://app?vid=6d352361-0409-4e42-8b1d-1b05f92960f3","ios":"levelo://app?vid=6d352361-0409-4e42-8b1d-1b05f92960f3"},"vehicle_type_id":"4","last_reported":1685325952,"current_range_meters":20800,"station_id":"ce4bhr92rcd13ifvqhrg","pricing_plan_id":"free"},{"bike_id":"2fba1c75-2911-4a0d-a5e6-4bffe0784f0d","system_id":"levelo_inurba_marseille","lat":43.290067,"lon":5.356172,"is_reserved":false,"is_disabled":false,"rental_uris":{"android":"levelo://app?vid=2fba1c75-2911-4a0d-a5e6-4bffe0784f0d","ios":"levelo://app?vid=2fba1c75-2911-4a0d-a5e6-4bffe0784f0d"},"vehicle_type_id":"4","last_reported":1685325952,"current_range_meters":8800,"station_id":"ce4bhb92rcd13ifvqen0","pricing_plan_id":"free"},{"bike_id":"c271fa48-7a89-43b8-ba5b-bd269bf06dae","system_id":"levelo_inurba_marseille","lat":43.290104,"lon":5.356111,"is_reserved":false,"is_disabled":false,"rental_uris":{"android":"levelo://app?vid=c271fa48-7a89-43b8-ba5b-bd269bf06dae","ios":"levelo://app?vid=c271fa48-7a89-43b8-ba5b-bd269bf06dae"},"vehicle_type_id":"4","last_reported":1685325952,"current_range_meters":28000,"station_id":"ce4bhb92rcd13ifvqen0","pricing_plan_id":"free"},{"bike_id":"9222bf40-886a-4d82-953e-2fe519d029c7","system_id":"levelo_inurba_marseille","lat":43.29004,"lon":5.35612,"is_reserved":false,"is_disabled":false,"rental_uris":{"android":"levelo://app?vid=9222bf40-886a-4d82-953e-2fe519d029c7","ios":"levelo://app?vid=9222bf40-886a-4d82-953e-2fe519d029c7"},"vehicle_type_id":"4","last_reported":1685325952,"current_range_meters":25600,"station_id":"ce4bhb92rcd13ifvqen0","pricing_plan_id":"free"},{"bike_id":"c0fc3709-a78c-408b-8dd5-26ae0b604edc","system_id":"levelo_inurba_marseille","lat":43.290104,"lon":5.356111,"is_reserved":false,"is_disabled":false,"rental_uris":{"android":"levelo://app?vid=c0fc3709-a78c-408b-8dd5-26ae0b604edc","ios":"levelo://app?vid=c0fc3709-a78c-408b-8dd5-26ae0b604edc"},"vehicle_type_id":"4","last_reported":1685325952,"current_range_meters":31200,"station_id":"ce4bhb92rcd13ifvqen0","pricing_plan_id":"free"},{"bike_id":"63a3f39a-09f1-44de-a1db-57ea36130995","system_id":"levelo_inurba_marseille","lat":43.28999,"lon":5.35613,"is_reserved":false,"is_disabled":false,"rental_uris":{"android":"levelo://app?vid=63a3f39a-09f1-44de-a1db-57ea36130995","ios":"levelo://app?vid=63a3f39a-09f1-44de-a1db-57ea36130995"},"vehicle_type_id":"4","last_reported":1685325952,"current_range_meters":28800,"station_id":"ce4bhb92rcd13ifvqen0","pricing_plan_id":"free"},{"bike_id":"ab71e70c-a654-4c03-8807-7f73cd704d23","system_id":"levelo_inurba_marseille","lat":43.29096,"lon":5.38146,"is_reserved":false,"is_disabled":false,"rental_uris":{"android":"levelo://app?vid=ab71e70c-a654-4c03-8807-7f73cd704d23","ios":"levelo://app?vid=ab71e70c-a654-4c03-8807-7f73cd704d23"},"vehicle_type_id":"4","last_reported":1685325952,"current_range_meters":31200,"station_id":"ce4bh512rcd13ifvqe2g","pricing_plan_id":"free"},{"bike_id":"629342f4-17b9-4733-aef7-9f1fbc053212","system_id":"levelo_inurba_marseille","lat":43.29788,"lon":5.39338,"is_reserved":false,"is_disabled":false,"rental_uris":{"android":"levelo://app?vid=629342f4-17b9-4733-aef7-9f1fbc053212","ios":"levelo://app?vid=629342f4-17b9-4733-aef7-9f1fbc053212"},"vehicle_type_id":"4","last_reported":1685325952,"current_range_meters":20000,"station_id":"chh1huq6cuj3fo74tm60","pricing_plan_id":"free"},{"bike_id":"db0bd8a6-9b28-49de-83db-7894665e1f19","system_id":"levelo_inurba_marseille","lat":43.2979,"lon":5.3935,"is_reserved":false,"is_disabled":false,"rental_uris":{"android":"levelo://app?vid=db0bd8a6-9b28-49de-83db-7894665e1f19","ios":"levelo://app?vid=db0bd8a6-9b28-49de-83db-7894665e1f19"},"vehicle_type_id":"4","last_reported":1685325952,"current_range_meters":4400,"station_id":"chh1huq6cuj3fo74tm60","pricing_plan_id":"free"},{"bike_id":"58a2878b-0d27-4c6b-b436-50173679c369","system_id":"levelo_inurba_marseille","lat":43.28976,"lon":5.37843,"is_reserved":false,"is_disabled":false,"rental_uris":{"android":"levelo://app?vid=58a2878b-0d27-4c6b-b436-50173679c369","ios":"levelo://app?vid=58a2878b-0d27-4c6b-b436-50173679c369"},"vehicle_type_id":"4","last_reported":1685325952,"current_range_meters":28400,"station_id":"ce4bh9p2rcd13ifvqed0","pricing_plan_id":"free"},{"bike_id":"56728885-16f1-4b85-8b31-0bbd9283bbad","system_id":"levelo_inurba_marseille","lat":43.289741,"lon":5.378306,"is_reserved":false,"is_disabled":false,"rental_uris":{"android":"levelo://app?vid=56728885-16f1-4b85-8b31-0bbd9283bbad","ios":"levelo://app?vid=56728885-16f1-4b85-8b31-0bbd9283bbad"},"vehicle_type_id":"4","last_reported":1685325952,"current_range_meters":14800,"station_id":"ce4bh9p2rcd13ifvqed0","pricing_plan_id":"free"},{"bike_id":"a8cfe094-c6f3-40ce-a668-638aa0e8678d","system_id":"levelo_inurba_marseille","lat":43.289741,"lon":5.378306,"is_reserved":false,"is_disabled":false,"rental_uris":{"android":"levelo://app?vid=a8cfe094-c6f3-40ce-a668-638aa0e8678d","ios":"levelo://app?vid=a8cfe094-c6f3-40ce-a668-638aa0e8678d"},"vehicle_type_id":"4","last_reported":1685325952,"current_range_meters":31200,"station_id":"ce4bh9p2rcd13ifvqed0","pricing_plan_id":"free"},{"bike_id":"85f5129f-76e8-4d69-b1ca-b17a701077ae","system_id":"levelo_inurba_marseille","lat":43.289741,"lon":5.378306,"is_reserved":false,"is_disabled":false,"rental_uris":{"android":"levelo://app?vid=85f5129f-76e8-4d69-b1ca-b17a701077ae","ios":"levelo://app?vid=85f5129f-76e8-4d69-b1ca-b17a701077ae"},"vehicle_type_id":"4","last_reported":1685325952,"current_range_meters":29600,"station_id":"ce4bh9p2rcd13ifvqed0","pricing_plan_id":"free"},{"bike_id":"420c7385-c189-40dd-a038-4f8d46dcd57a","system_id":"levelo_inurba_marseille","lat":43.28974,"lon":5.37844,"is_reserved":false,"is_disabled":false,"rental_uris":{"android":"levelo://app?vid=420c7385-c189-40dd-a038-4f8d46dcd57a","ios":"levelo://app?vid=420c7385-c189-40dd-a038-4f8d46dcd57a"},"vehicle_type_id":"4","last_reported":1685325952,"current_range_meters":26800,"station_id":"ce4bh9p2rcd13ifvqed0","pricing_plan_id":"free"},{"bike_id":"8c410019-b1f1-44b2-9864-1a2e7c85ecca","system_id":"levelo_inurba_marseille","lat":43.295169,"lon":5.390426,"is_reserved":false,"is_disabled":false,"rental_uris":{"android":"levelo://app?vid=8c410019-b1f1-44b2-9864-1a2e7c85ecca","ios":"levelo://app?vid=8c410019-b1f1-44b2-9864-1a2e7c85ecca"},"vehicle_type_id":"4","last_reported":1685325952,"current_range_meters":9600,"station_id":"ce4bh3p2rcd13ifvqdp0","pricing_plan_id":"free"},{"bike_id":"c4d9422e-d000-4abe-8fb6-195694da4f5c","system_id":"levelo_inurba_marseille","lat":43.295169,"lon":5.390426,"is_reserved":false,"is_disabled":false,"rental_uris":{"android":"levelo://app?vid=c4d9422e-d000-4abe-8fb6-195694da4f5c","ios":"levelo://app?vid=c4d9422e-d000-4abe-8fb6-195694da4f5c"},"vehicle_type_id":"4","last_reported":1685325952,"current_range_meters":5600,"station_id":"ce4bh3p2rcd13ifvqdp0","pricing_plan_id":"free"},{"bike_id":"94e3082f-fa30-4dec-b593-76ba3e38f3ce","system_id":"levelo_inurba_marseille","lat":43.2901,"lon":5.381269,"is_reserved":false,"is_disabled":false,"rental_uris":{"android":"levelo://app?vid=94e3082f-fa30-4dec-b593-76ba3e38f3ce","ios":"levelo://app?vid=94e3082f-fa30-4dec-b593-76ba3e38f3ce"},"vehicle_type_id":"4","last_reported":1685325952,"current_range_meters":31200,"station_id":"ce4bh4p2rcd13ifvqe1g","pricing_plan_id":"free"},{"bike_id":"3042264f-d84c-443f-b428-0b9ccbe7d198","system_id":"levelo_inurba_marseille","lat":43.28856,"lon":5.358371,"is_reserved":false,"is_disabled":false,"rental_uris":{"android":"levelo://app?vid=3042264f-d84c-443f-b428-0b9ccbe7d198","ios":"levelo://app?vid=3042264f-d84c-443f-b428-0b9ccbe7d198"},"vehicle_type_id":"4","last_reported":1685325952,"current_range_meters":29200,"station_id":"ce4bhb12rcd13ifvqem0","pricing_plan_id":"free"},{"bike_id":"89f8dd2d-b3c4-48e5-b5d4-f1bba7444fdf","system_id":"levelo_inurba_marseille","lat":43.290094,"lon":5.381264,"is_reserved":false,"is_disabled":false,"rental_uris":{"android":"levelo://app?vid=89f8dd2d-b3c4-48e5-b5d4-f1bba7444fdf","ios":"levelo://app?vid=89f8dd2d-b3c4-48e5-b5d4-f1bba7444fdf"},"vehicle_type_id":"4","last_reported":1685325952,"current_range_meters":31200,"station_id":"ce4bh4p2rcd13ifvqe1g","pricing_plan_id":"free"},{"bike_id":"be8e4278-6a7c-4537-8082-e23bebde2c3a","system_id":"levelo_inurba_marseille","lat":43.28856,"lon":5.358371,"is_reserved":false,"is_disabled":false,"rental_uris":{"android":"levelo://app?vid=be8e4278-6a7c-4537-8082-e23bebde2c3a","ios":"levelo://app?vid=be8e4278-6a7c-4537-8082-e23bebde2c3a"},"vehicle_type_id":"4","last_reported":1685325952,"current_range_meters":30000,"station_id":"ce4bhb12rcd13ifvqem0","pricing_plan_id":"free"},{"bike_id":"73f6cb2e-aeb3-442c-8986-29e5d6744fb4","system_id":"levelo_inurba_marseille","lat":43.290094,"lon":5.381264,"is_reserved":false,"is_disabled":false,"rental_uris":{"android":"levelo://app?vid=73f6cb2e-aeb3-442c-8986-29e5d6744fb4","ios":"levelo://app?vid=73f6cb2e-aeb3-442c-8986-29e5d6744fb4"},"vehicle_type_id":"4","last_reported":1685325952,"current_range_meters":31200,"station_id":"ce4bh4p2rcd13ifvqe1g","pricing_plan_id":"free"},{"bike_id":"118dfeb4-0e5e-4f12-ac5d-5512bc6553d1","system_id":"levelo_inurba_marseille","lat":43.28856,"lon":5.358371,"is_reserved":false,"is_disabled":false,"rental_uris":{"android":"levelo://app?vid=118dfeb4-0e5e-4f12-ac5d-5512bc6553d1","ios":"levelo://app?vid=118dfeb4-0e5e-4f12-ac5d-5512bc6553d1"},"vehicle_type_id":"4","last_reported":1685325952,"current_range_meters":17200,"station_id":"ce4bhb12rcd13ifvqem0","pricing_plan_id":"free"},{"bike_id":"5aaf445f-f097-4041-99e9-0b2edc8a39b1","system_id":"levelo_inurba_marseille","lat":43.33726,"lon":5.37426,"is_reserved":false,"is_disabled":false,"rental_uris":{"android":"levelo://app?vid=5aaf445f-f097-4041-99e9-0b2edc8a39b1","ios":"levelo://app?vid=5aaf445f-f097-4041-99e9-0b2edc8a39b1"},"vehicle_type_id":"4","last_reported":1685325952,"current_range_meters":31200,"station_id":"","pricing_plan_id":"free"},{"bike_id":"141c14ea-594b-43ee-894e-8c44af1dcd73","system_id":"levelo_inurba_marseille","lat":43.33738,"lon":5.37465,"is_reserved":false,"is_disabled":false,"rental_uris":{"android":"levelo://app?vid=141c14ea-594b-43ee-894e-8c44af1dcd73","ios":"levelo://app?vid=141c14ea-594b-43ee-894e-8c44af1dcd73"},"vehicle_type_id":"4","last_reported":1685325952,"current_range_meters":31200,"station_id":"","pricing_plan_id":"free"},{"bike_id":"493860ce-e063-4684-ab33-c360eaf64153","system_id":"levelo_inurba_marseille","lat":43.33744,"lon":5.37451,"is_reserved":false,"is_disabled":false,"rental_uris":{"android":"levelo://app?vid=493860ce-e063-4684-ab33-c360eaf64153","ios":"levelo://app?vid=493860ce-e063-4684-ab33-c360eaf64153"},"vehicle_type_id":"4","last_reported":1685325952,"current_range_meters":16000,"station_id":"","pricing_plan_id":"free"},{"bike_id":"c67b547c-3fcb-4384-8614-e15f558fec55","system_id":"levelo_inurba_marseille","lat":43.33744,"lon":5.37451,"is_reserved":false,"is_disabled":false,"rental_uris":{"android":"levelo://app?vid=c67b547c-3fcb-4384-8614-e15f558fec55","ios":"levelo://app?vid=c67b547c-3fcb-4384-8614-e15f558fec55"},"vehicle_type_id":"4","last_reported":1685325952,"current_range_meters":25200,"station_id":"","pricing_plan_id":"free"},{"bike_id":"581f04f9-263c-4371-a25f-4fa30be818ef","system_id":"levelo_inurba_marseille","lat":43.30642,"lon":5.401031,"is_reserved":false,"is_disabled":false,"rental_uris":{"android":"levelo://app?vid=581f04f9-263c-4371-a25f-4fa30be818ef","ios":"levelo://app?vid=581f04f9-263c-4371-a25f-4fa30be818ef"},"vehicle_type_id":"4","last_reported":1685325952,"current_range_meters":22000,"station_id":"ce4bh112rcd13ifvqda0","pricing_plan_id":"free"},{"bike_id":"556c6db1-2600-4c2b-9521-aae8453517c1","system_id":"levelo_inurba_marseille","lat":43.33753,"lon":5.37446,"is_reserved":false,"is_disabled":false,"rental_uris":{"android":"levelo://app?vid=556c6db1-2600-4c2b-9521-aae8453517c1","ios":"levelo://app?vid=556c6db1-2600-4c2b-9521-aae8453517c1"},"vehicle_type_id":"4","last_reported":1685325952,"current_range_meters":12400,"station_id":"","pricing_plan_id":"free"},{"bike_id":"c5d4dba2-3892-43ad-8fa8-e91156e10bb8","system_id":"levelo_inurba_marseille","lat":43.30642,"lon":5.401031,"is_reserved":false,"is_disabled":false,"rental_uris":{"android":"levelo://app?vid=c5d4dba2-3892-43ad-8fa8-e91156e10bb8","ios":"levelo://app?vid=c5d4dba2-3892-43ad-8fa8-e91156e10bb8"},"vehicle_type_id":"4","last_reported":1685325952,"current_range_meters":29600,"station_id":"ce4bh112rcd13ifvqda0","pricing_plan_id":"free"},{"bike_id":"c7735bd3-b9f8-46ea-a61e-ca437ddf02d8","system_id":"levelo_inurba_marseille","lat":43.29542,"lon":5.39313,"is_reserved":false,"is_disabled":false,"rental_uris":{"android":"levelo://app?vid=c7735bd3-b9f8-46ea-a61e-ca437ddf02d8","ios":"levelo://app?vid=c7735bd3-b9f8-46ea-a61e-ca437ddf02d8"},"vehicle_type_id":"4","last_reported":1685325952,"current_range_meters":0,"station_id":"","pricing_plan_id":"free"},{"bike_id":"2c17682d-6f02-45f0-a11e-2e1a48d4e079","system_id":"levelo_inurba_marseille","lat":43.301117,"lon":5.398795,"is_reserved":false,"is_disabled":false,"rental_uris":{"android":"levelo://app?vid=2c17682d-6f02-45f0-a11e-2e1a48d4e079","ios":"levelo://app?vid=2c17682d-6f02-45f0-a11e-2e1a48d4e079"},"vehicle_type_id":"4","last_reported":1685325952,"current_range_meters":29600,"station_id":"ce4bh0h2rcd13ifvqd40","pricing_plan_id":"free"},{"bike_id":"84d5bebf-f079-4c5c-8310-a391c510ccb6","system_id":"levelo_inurba_marseille","lat":43.298681,"lon":5.397225,"is_reserved":false,"is_disabled":false,"rental_uris":{"android":"levelo://app?vid=84d5bebf-f079-4c5c-8310-a391c510ccb6","ios":"levelo://app?vid=84d5bebf-f079-4c5c-8310-a391c510ccb6"},"vehicle_type_id":"4","last_reported":1685325952,"current_range_meters":13200,"station_id":"ce4bh0h2rcd13ifvqd50","pricing_plan_id":"free"},{"bike_id":"11e9940d-9887-4754-a7e1-ef8901cfabf1","system_id":"levelo_inurba_marseille","lat":43.298681,"lon":5.397225,"is_reserved":false,"is_disabled":false,"rental_uris":{"android":"levelo://app?vid=11e9940d-9887-4754-a7e1-ef8901cfabf1","ios":"levelo://app?vid=11e9940d-9887-4754-a7e1-ef8901cfabf1"},"vehicle_type_id":"4","last_reported":1685325952,"current_range_meters":28000,"station_id":"ce4bh0h2rcd13ifvqd50","pricing_plan_id":"free"},{"bike_id":"ef76fac9-1dbc-4d27-897e-1048cb630683","system_id":"levelo_inurba_marseille","lat":43.286591,"lon":5.363346,"is_reserved":false,"is_disabled":false,"rental_uris":{"android":"levelo://app?vid=ef76fac9-1dbc-4d27-897e-1048cb630683","ios":"levelo://app?vid=ef76fac9-1dbc-4d27-897e-1048cb630683"},"vehicle_type_id":"4","last_reported":1685325952,"current_range_meters":27200,"station_id":"ce4bhah2rcd13ifvqej0","pricing_plan_id":"free"},{"bike_id":"3678a7ab-e98d-4e38-b857-d48a5f4ab210","system_id":"levelo_inurba_marseille","lat":43.286591,"lon":5.363346,"is_reserved":false,"is_disabled":false,"rental_uris":{"android":"levelo://app?vid=3678a7ab-e98d-4e38-b857-d48a5f4ab210","ios":"levelo://app?vid=3678a7ab-e98d-4e38-b857-d48a5f4ab210"},"vehicle_type_id":"4","last_reported":1685325952,"current_range_meters":31200,"station_id":"ce4bhah2rcd13ifvqej0","pricing_plan_id":"free"},{"bike_id":"5a63bdb5-2a76-4866-90e6-3907ef84ff0f","system_id":"levelo_inurba_marseille","lat":43.286593,"lon":5.363346,"is_reserved":false,"is_disabled":false,"rental_uris":{"android":"levelo://app?vid=5a63bdb5-2a76-4866-90e6-3907ef84ff0f","ios":"levelo://app?vid=5a63bdb5-2a76-4866-90e6-3907ef84ff0f"},"vehicle_type_id":"4","last_reported":1685325952,"current_range_meters":31600,"station_id":"ce4bhah2rcd13ifvqej0","pricing_plan_id":"free"},{"bike_id":"97988c66-f4d0-4fac-bba8-96a2b9f7e41c","system_id":"levelo_inurba_marseille","lat":43.286591,"lon":5.363346,"is_reserved":false,"is_disabled":false,"rental_uris":{"android":"levelo://app?vid=97988c66-f4d0-4fac-bba8-96a2b9f7e41c","ios":"levelo://app?vid=97988c66-f4d0-4fac-bba8-96a2b9f7e41c"},"vehicle_type_id":"4","last_reported":1685325952,"current_range_meters":28000,"station_id":"ce4bhah2rcd13ifvqej0","pricing_plan_id":"free"},{"bike_id":"e8c829d1-92f4-442d-b3bd-10c69c8f2b21","system_id":"levelo_inurba_marseille","lat":43.286593,"lon":5.363346,"is_reserved":false,"is_disabled":false,"rental_uris":{"android":"levelo://app?vid=e8c829d1-92f4-442d-b3bd-10c69c8f2b21","ios":"levelo://app?vid=e8c829d1-92f4-442d-b3bd-10c69c8f2b21"},"vehicle_type_id":"4","last_reported":1685325952,"current_range_meters":19600,"station_id":"ce4bhah2rcd13ifvqej0","pricing_plan_id":"free"},{"bike_id":"107d009f-9c83-4e33-bf31-2c71acd52599","system_id":"levelo_inurba_marseille","lat":43.286591,"lon":5.363346,"is_reserved":false,"is_disabled":false,"rental_uris":{"android":"levelo://app?vid=107d009f-9c83-4e33-bf31-2c71acd52599","ios":"levelo://app?vid=107d009f-9c83-4e33-bf31-2c71acd52599"},"vehicle_type_id":"4","last_reported":1685325952,"current_range_meters":30000,"station_id":"ce4bhah2rcd13ifvqej0","pricing_plan_id":"free"},{"bike_id":"d044bfd6-ca16-41e3-a6c2-1eb15d8751c9","system_id":"levelo_inurba_marseille","lat":43.29519,"lon":5.39399,"is_reserved":false,"is_disabled":false,"rental_uris":{"android":"levelo://app?vid=d044bfd6-ca16-41e3-a6c2-1eb15d8751c9","ios":"levelo://app?vid=d044bfd6-ca16-41e3-a6c2-1eb15d8751c9"},"vehicle_type_id":"4","last_reported":1685325952,"current_range_meters":0,"station_id":"ce4bh292rcd13ifvqdf0","pricing_plan_id":"free"},{"bike_id":"6d8a8362-a112-4305-945a-71fe68843f4a","system_id":"levelo_inurba_marseille","lat":43.295196,"lon":5.39397,"is_reserved":false,"is_disabled":false,"rental_uris":{"android":"levelo://app?vid=6d8a8362-a112-4305-945a-71fe68843f4a","ios":"levelo://app?vid=6d8a8362-a112-4305-945a-71fe68843f4a"},"vehicle_type_id":"4","last_reported":1685325952,"current_range_meters":18800,"station_id":"ce4bh292rcd13ifvqdf0","pricing_plan_id":"free"},{"bike_id":"2aa1d91d-a0df-4e38-949d-42f4c2780f8a","system_id":"levelo_inurba_marseille","lat":43.290336,"lon":5.386425,"is_reserved":false,"is_disabled":false,"rental_uris":{"android":"levelo://app?vid=2aa1d91d-a0df-4e38-949d-42f4c2780f8a","ios":"levelo://app?vid=2aa1d91d-a0df-4e38-949d-42f4c2780f8a"},"vehicle_type_id":"4","last_reported":1685325952,"current_range_meters":27200,"station_id":"ce4bh4p2rcd13ifvqe0g","pricing_plan_id":"free"},{"bike_id":"774ff2fb-1092-45f6-970c-0f28e31ebcd4","system_id":"levelo_inurba_marseille","lat":43.290336,"lon":5.386425,"is_reserved":false,"is_disabled":false,"rental_uris":{"android":"levelo://app?vid=774ff2fb-1092-45f6-970c-0f28e31ebcd4","ios":"levelo://app?vid=774ff2fb-1092-45f6-970c-0f28e31ebcd4"},"vehicle_type_id":"4","last_reported":1685325952,"current_range_meters":23600,"station_id":"ce4bh4p2rcd13ifvqe0g","pricing_plan_id":"free"},{"bike_id":"951fd62d-affc-4b24-918f-7b3043fd24ea","system_id":"levelo_inurba_marseille","lat":43.302759,"lon":5.400793,"is_reserved":false,"is_disabled":false,"rental_uris":{"android":"levelo://app?vid=951fd62d-affc-4b24-918f-7b3043fd24ea","ios":"levelo://app?vid=951fd62d-affc-4b24-918f-7b3043fd24ea"},"vehicle_type_id":"4","last_reported":1685325952,"current_range_meters":30000,"station_id":"ce4bgvh2rcd13ifvqcs0","pricing_plan_id":"free"},{"bike_id":"2d97bb7e-f34d-49de-9d90-5206376db3c1","system_id":"levelo_inurba_marseille","lat":43.286039,"lon":5.370679,"is_reserved":false,"is_disabled":false,"rental_uris":{"android":"levelo://app?vid=2d97bb7e-f34d-49de-9d90-5206376db3c1","ios":"levelo://app?vid=2d97bb7e-f34d-49de-9d90-5206376db3c1"},"vehicle_type_id":"4","last_reported":1685325952,"current_range_meters":26800,"station_id":"ce4bht12rcd13ifvqi60","pricing_plan_id":"free"},{"bike_id":"8e539d7d-6c1a-4ba6-a42e-4d65ce4dfb0c","system_id":"levelo_inurba_marseille","lat":43.302759,"lon":5.400793,"is_reserved":false,"is_disabled":false,"rental_uris":{"android":"levelo://app?vid=8e539d7d-6c1a-4ba6-a42e-4d65ce4dfb0c","ios":"levelo://app?vid=8e539d7d-6c1a-4ba6-a42e-4d65ce4dfb0c"},"vehicle_type_id":"4","last_reported":1685325952,"current_range_meters":26800,"station_id":"ce4bgvh2rcd13ifvqcs0","pricing_plan_id":"free"},{"bike_id":"e6106232-d092-4dc6-aa3a-9fbda3dd977f","system_id":"levelo_inurba_marseille","lat":43.302759,"lon":5.400793,"is_reserved":false,"is_disabled":false,"rental_uris":{"android":"levelo://app?vid=e6106232-d092-4dc6-aa3a-9fbda3dd977f","ios":"levelo://app?vid=e6106232-d092-4dc6-aa3a-9fbda3dd977f"},"vehicle_type_id":"4","last_reported":1685325952,"current_range_meters":28800,"station_id":"ce4bgvh2rcd13ifvqcs0","pricing_plan_id":"free"},{"bike_id":"984edb5d-a3e1-4a64-b7fb-b35b7ab7259e","system_id":"levelo_inurba_marseille","lat":43.28719,"lon":5.37933,"is_reserved":false,"is_disabled":false,"rental_uris":{"android":"levelo://app?vid=984edb5d-a3e1-4a64-b7fb-b35b7ab7259e","ios":"levelo://app?vid=984edb5d-a3e1-4a64-b7fb-b35b7ab7259e"},"vehicle_type_id":"4","last_reported":1685325952,"current_range_meters":0,"station_id":"ce4bh9p2rcd13ifvqec0","pricing_plan_id":"free"},{"bike_id":"461009ce-7ac1-459a-96ce-a6f015181200","system_id":"levelo_inurba_marseille","lat":43.28719,"lon":5.37941,"is_reserved":false,"is_disabled":false,"rental_uris":{"android":"levelo://app?vid=461009ce-7ac1-459a-96ce-a6f015181200","ios":"levelo://app?vid=461009ce-7ac1-459a-96ce-a6f015181200"},"vehicle_type_id":"4","last_reported":1685325952,"current_range_meters":0,"station_id":"ce4bh9p2rcd13ifvqec0","pricing_plan_id":"free"},{"bike_id":"acf03824-30d3-4260-98c0-4dcb737a9a73","system_id":"levelo_inurba_marseille","lat":43.2871,"lon":5.37932,"is_reserved":false,"is_disabled":false,"rental_uris":{"android":"levelo://app?vid=acf03824-30d3-4260-98c0-4dcb737a9a73","ios":"levelo://app?vid=acf03824-30d3-4260-98c0-4dcb737a9a73"},"vehicle_type_id":"4","last_reported":1685325952,"current_range_meters":0,"station_id":"ce4bh9p2rcd13ifvqec0","pricing_plan_id":"free"},{"bike_id":"dba03c2a-c477-4e36-818d-68610cc1538b","system_id":"levelo_inurba_marseille","lat":43.287,"lon":5.37938,"is_reserved":false,"is_disabled":false,"rental_uris":{"android":"levelo://app?vid=dba03c2a-c477-4e36-818d-68610cc1538b","ios":"levelo://app?vid=dba03c2a-c477-4e36-818d-68610cc1538b"},"vehicle_type_id":"4","last_reported":1685325952,"current_range_meters":28400,"station_id":"ce4bh9p2rcd13ifvqec0","pricing_plan_id":"free"},{"bike_id":"2b2f6c5d-446d-4953-9831-18c4ad742753","system_id":"levelo_inurba_marseille","lat":43.31648,"lon":5.40431,"is_reserved":false,"is_disabled":false,"rental_uris":{"android":"levelo://app?vid=2b2f6c5d-446d-4953-9831-18c4ad742753","ios":"levelo://app?vid=2b2f6c5d-446d-4953-9831-18c4ad742753"},"vehicle_type_id":"4","last_reported":1685325952,"current_range_meters":31200,"station_id":"ce4bh012rcd13ifvqd00","pricing_plan_id":"free"},{"bike_id":"58edda7b-3a8f-4c21-bb97-da840879b230","system_id":"levelo_inurba_marseille","lat":43.316517,"lon":5.404375,"is_reserved":false,"is_disabled":false,"rental_uris":{"android":"levelo://app?vid=58edda7b-3a8f-4c21-bb97-da840879b230","ios":"levelo://app?vid=58edda7b-3a8f-4c21-bb97-da840879b230"},"vehicle_type_id":"4","last_reported":1685325952,"current_range_meters":31200,"station_id":"ce4bh012rcd13ifvqd00","pricing_plan_id":"free"},{"bike_id":"1ec4e3cf-a211-4a07-9135-4f164b3e23c9","system_id":"levelo_inurba_marseille","lat":43.31645,"lon":5.40435,"is_reserved":false,"is_disabled":false,"rental_uris":{"android":"levelo://app?vid=1ec4e3cf-a211-4a07-9135-4f164b3e23c9","ios":"levelo://app?vid=1ec4e3cf-a211-4a07-9135-4f164b3e23c9"},"vehicle_type_id":"4","last_reported":1685325952,"current_range_meters":27200,"station_id":"ce4bh012rcd13ifvqd00","pricing_plan_id":"free"},{"bike_id":"4ee859f7-22c6-4e0f-a7fc-602862f52b4a","system_id":"levelo_inurba_marseille","lat":43.316517,"lon":5.404375,"is_reserved":false,"is_disabled":false,"rental_uris":{"android":"levelo://app?vid=4ee859f7-22c6-4e0f-a7fc-602862f52b4a","ios":"levelo://app?vid=4ee859f7-22c6-4e0f-a7fc-602862f52b4a"},"vehicle_type_id":"4","last_reported":1685325952,"current_range_meters":27200,"station_id":"ce4bh012rcd13ifvqd00","pricing_plan_id":"free"},{"bike_id":"7e1fe4f5-345b-46bd-ab0e-c6b5a3db933d","system_id":"levelo_inurba_marseille","lat":43.316517,"lon":5.404375,"is_reserved":false,"is_disabled":false,"rental_uris":{"android":"levelo://app?vid=7e1fe4f5-345b-46bd-ab0e-c6b5a3db933d","ios":"levelo://app?vid=7e1fe4f5-345b-46bd-ab0e-c6b5a3db933d"},"vehicle_type_id":"4","last_reported":1685325952,"current_range_meters":31200,"station_id":"ce4bh012rcd13ifvqd00","pricing_plan_id":"free"},{"bike_id":"399a568f-226b-4288-b803-8add96160650","system_id":"levelo_inurba_marseille","lat":43.316517,"lon":5.404375,"is_reserved":false,"is_disabled":false,"rental_uris":{"android":"levelo://app?vid=399a568f-226b-4288-b803-8add96160650","ios":"levelo://app?vid=399a568f-226b-4288-b803-8add96160650"},"vehicle_type_id":"4","last_reported":1685325952,"current_range_meters":30000,"station_id":"ce4bh012rcd13ifvqd00","pricing_plan_id":"free"},{"bike_id":"242958a4-64af-423a-9e7d-f6b38c93e7d4","system_id":"levelo_inurba_marseille","lat":43.29936,"lon":5.40096,"is_reserved":false,"is_disabled":false,"rental_uris":{"android":"levelo://app?vid=242958a4-64af-423a-9e7d-f6b38c93e7d4","ios":"levelo://app?vid=242958a4-64af-423a-9e7d-f6b38c93e7d4"},"vehicle_type_id":"4","last_reported":1685325952,"current_range_meters":28000,"station_id":"","pricing_plan_id":"free"},{"bike_id":"5c068a25-2dce-4a8c-981f-ecccbdcc0b3f","system_id":"levelo_inurba_marseille","lat":43.291994,"lon":5.392907,"is_reserved":false,"is_disabled":false,"rental_uris":{"android":"levelo://app?vid=5c068a25-2dce-4a8c-981f-ecccbdcc0b3f","ios":"levelo://app?vid=5c068a25-2dce-4a8c-981f-ecccbdcc0b3f"},"vehicle_type_id":"4","last_reported":1685325952,"current_range_meters":29600,"station_id":"ce4bh192rcd13ifvqdd0","pricing_plan_id":"free"},{"bike_id":"f3420b28-38cb-4707-be08-6ab02641d0e9","system_id":"levelo_inurba_marseille","lat":43.291994,"lon":5.392907,"is_reserved":false,"is_disabled":false,"rental_uris":{"android":"levelo://app?vid=f3420b28-38cb-4707-be08-6ab02641d0e9","ios":"levelo://app?vid=f3420b28-38cb-4707-be08-6ab02641d0e9"},"vehicle_type_id":"4","last_reported":1685325952,"current_range_meters":22400,"station_id":"ce4bh192rcd13ifvqdd0","pricing_plan_id":"free"},{"bike_id":"a3cb1840-3ce4-450b-969c-beaf48b1e377","system_id":"levelo_inurba_marseille","lat":43.284534,"lon":5.358662,"is_reserved":false,"is_disabled":false,"rental_uris":{"android":"levelo://app?vid=a3cb1840-3ce4-450b-969c-beaf48b1e377","ios":"levelo://app?vid=a3cb1840-3ce4-450b-969c-beaf48b1e377"},"vehicle_type_id":"4","last_reported":1685325952,"current_range_meters":22800,"station_id":"ce4bhah2rcd13ifvqei0","pricing_plan_id":"free"},{"bike_id":"ad8b4fc8-be2f-4e38-92c6-d81a44512294","system_id":"levelo_inurba_marseille","lat":43.284534,"lon":5.358662,"is_reserved":false,"is_disabled":false,"rental_uris":{"android":"levelo://app?vid=ad8b4fc8-be2f-4e38-92c6-d81a44512294","ios":"levelo://app?vid=ad8b4fc8-be2f-4e38-92c6-d81a44512294"},"vehicle_type_id":"4","last_reported":1685325952,"current_range_meters":31200,"station_id":"ce4bhah2rcd13ifvqei0","pricing_plan_id":"free"},{"bike_id":"2557e15d-579f-4229-971f-71a1ad232ba6","system_id":"levelo_inurba_marseille","lat":43.284534,"lon":5.358662,"is_reserved":false,"is_disabled":false,"rental_uris":{"android":"levelo://app?vid=2557e15d-579f-4229-971f-71a1ad232ba6","ios":"levelo://app?vid=2557e15d-579f-4229-971f-71a1ad232ba6"},"vehicle_type_id":"4","last_reported":1685325952,"current_range_meters":31200,"station_id":"ce4bhah2rcd13ifvqei0","pricing_plan_id":"free"},{"bike_id":"6aa0ace1-9004-409f-a870-9ef9048480f0","system_id":"levelo_inurba_marseille","lat":43.285856,"lon":5.350771,"is_reserved":false,"is_disabled":false,"rental_uris":{"android":"levelo://app?vid=6aa0ace1-9004-409f-a870-9ef9048480f0","ios":"levelo://app?vid=6aa0ace1-9004-409f-a870-9ef9048480f0"},"vehicle_type_id":"4","last_reported":1685325952,"current_range_meters":31200,"station_id":"ce4bhch2rcd13ifvqeug","pricing_plan_id":"free"},{"bike_id":"5db91f20-14ff-43aa-a162-8a380f484e30","system_id":"levelo_inurba_marseille","lat":43.285856,"lon":5.350771,"is_reserved":false,"is_disabled":false,"rental_uris":{"android":"levelo://app?vid=5db91f20-14ff-43aa-a162-8a380f484e30","ios":"levelo://app?vid=5db91f20-14ff-43aa-a162-8a380f484e30"},"vehicle_type_id":"4","last_reported":1685325952,"current_range_meters":30800,"station_id":"ce4bhch2rcd13ifvqeug","pricing_plan_id":"free"},{"bike_id":"26c9141e-1e63-4741-9e6e-1d6a42ac54f0","system_id":"levelo_inurba_marseille","lat":43.285856,"lon":5.350771,"is_reserved":false,"is_disabled":false,"rental_uris":{"android":"levelo://app?vid=26c9141e-1e63-4741-9e6e-1d6a42ac54f0","ios":"levelo://app?vid=26c9141e-1e63-4741-9e6e-1d6a42ac54f0"},"vehicle_type_id":"4","last_reported":1685325952,"current_range_meters":22400,"station_id":"ce4bhch2rcd13ifvqeug","pricing_plan_id":"free"},{"bike_id":"5def35d2-320b-4ffd-922c-4d28df7eed1f","system_id":"levelo_inurba_marseille","lat":43.285856,"lon":5.350771,"is_reserved":false,"is_disabled":false,"rental_uris":{"android":"levelo://app?vid=5def35d2-320b-4ffd-922c-4d28df7eed1f","ios":"levelo://app?vid=5def35d2-320b-4ffd-922c-4d28df7eed1f"},"vehicle_type_id":"4","last_reported":1685325952,"current_range_meters":30800,"station_id":"ce4bhch2rcd13ifvqeug","pricing_plan_id":"free"},{"bike_id":"f1796e92-0067-4c36-92a6-648f47af4223","system_id":"levelo_inurba_marseille","lat":43.286155,"lon":5.351033,"is_reserved":false,"is_disabled":false,"rental_uris":{"android":"levelo://app?vid=f1796e92-0067-4c36-92a6-648f47af4223","ios":"levelo://app?vid=f1796e92-0067-4c36-92a6-648f47af4223"},"vehicle_type_id":"4","last_reported":1685325952,"current_range_meters":13200,"station_id":"","pricing_plan_id":"free"},{"bike_id":"aac8d157-7689-419a-b210-4ec01ca3f475","system_id":"levelo_inurba_marseille","lat":43.28615,"lon":5.35102,"is_reserved":false,"is_disabled":false,"rental_uris":{"android":"levelo://app?vid=aac8d157-7689-419a-b210-4ec01ca3f475","ios":"levelo://app?vid=aac8d157-7689-419a-b210-4ec01ca3f475"},"vehicle_type_id":"4","last_reported":1685325952,"current_range_meters":31200,"station_id":"","pricing_plan_id":"free"},{"bike_id":"3b1a741f-4ea7-4782-ab6a-cb5dc80ab9e4","system_id":"levelo_inurba_marseille","lat":43.28614,"lon":5.35103,"is_reserved":false,"is_disabled":false,"rental_uris":{"android":"levelo://app?vid=3b1a741f-4ea7-4782-ab6a-cb5dc80ab9e4","ios":"levelo://app?vid=3b1a741f-4ea7-4782-ab6a-cb5dc80ab9e4"},"vehicle_type_id":"4","last_reported":1685325952,"current_range_meters":30400,"station_id":"","pricing_plan_id":"free"},{"bike_id":"54c05652-49de-43f6-b4c9-fbf1d6119344","system_id":"levelo_inurba_marseille","lat":43.285856,"lon":5.350771,"is_reserved":false,"is_disabled":false,"rental_uris":{"android":"levelo://app?vid=54c05652-49de-43f6-b4c9-fbf1d6119344","ios":"levelo://app?vid=54c05652-49de-43f6-b4c9-fbf1d6119344"},"vehicle_type_id":"4","last_reported":1685325952,"current_range_meters":30800,"station_id":"ce4bhch2rcd13ifvqeug","pricing_plan_id":"free"},{"bike_id":"12cf4a86-bd72-4040-8ff3-d7a5ea8fe284","system_id":"levelo_inurba_marseille","lat":43.28613,"lon":5.351,"is_reserved":false,"is_disabled":false,"rental_uris":{"android":"levelo://app?vid=12cf4a86-bd72-4040-8ff3-d7a5ea8fe284","ios":"levelo://app?vid=12cf4a86-bd72-4040-8ff3-d7a5ea8fe284"},"vehicle_type_id":"4","last_reported":1685325952,"current_range_meters":25200,"station_id":"","pricing_plan_id":"free"},{"bike_id":"c093bb38-7b7f-46a1-a625-b5deb2a7293f","system_id":"levelo_inurba_marseille","lat":43.28613,"lon":5.35098,"is_reserved":false,"is_disabled":false,"rental_uris":{"android":"levelo://app?vid=c093bb38-7b7f-46a1-a625-b5deb2a7293f","ios":"levelo://app?vid=c093bb38-7b7f-46a1-a625-b5deb2a7293f"},"vehicle_type_id":"4","last_reported":1685325952,"current_range_meters":23600,"station_id":"","pricing_plan_id":"free"},{"bike_id":"8f8b681e-6ebe-4709-9fd5-e8874e3a9a33","system_id":"levelo_inurba_marseille","lat":43.295713,"lon":5.399639,"is_reserved":false,"is_disabled":false,"rental_uris":{"android":"levelo://app?vid=8f8b681e-6ebe-4709-9fd5-e8874e3a9a33","ios":"levelo://app?vid=8f8b681e-6ebe-4709-9fd5-e8874e3a9a33"},"vehicle_type_id":"4","last_reported":1685325952,"current_range_meters":30400,"station_id":"ce4bh312rcd13ifvqdj0","pricing_plan_id":"free"},{"bike_id":"b40f9dbd-7e16-4d50-948b-e1c45d81bf16","system_id":"levelo_inurba_marseille","lat":43.295713,"lon":5.399639,"is_reserved":false,"is_disabled":false,"rental_uris":{"android":"levelo://app?vid=b40f9dbd-7e16-4d50-948b-e1c45d81bf16","ios":"levelo://app?vid=b40f9dbd-7e16-4d50-948b-e1c45d81bf16"},"vehicle_type_id":"4","last_reported":1685325952,"current_range_meters":28400,"station_id":"ce4bh312rcd13ifvqdj0","pricing_plan_id":"free"},{"bike_id":"abb34c24-86e3-4139-8693-9cf3956d714d","system_id":"levelo_inurba_marseille","lat":43.286595,"lon":5.386795,"is_reserved":false,"is_disabled":false,"rental_uris":{"android":"levelo://app?vid=abb34c24-86e3-4139-8693-9cf3956d714d","ios":"levelo://app?vid=abb34c24-86e3-4139-8693-9cf3956d714d"},"vehicle_type_id":"4","last_reported":1685325952,"current_range_meters":30400,"station_id":"ce4bh492rcd13ifvqdug","pricing_plan_id":"free"},{"bike_id":"84de64ae-8504-43f7-975c-5ca6c4815ff6","system_id":"levelo_inurba_marseille","lat":43.28676,"lon":5.3868,"is_reserved":false,"is_disabled":false,"rental_uris":{"android":"levelo://app?vid=84de64ae-8504-43f7-975c-5ca6c4815ff6","ios":"levelo://app?vid=84de64ae-8504-43f7-975c-5ca6c4815ff6"},"vehicle_type_id":"4","last_reported":1685325952,"current_range_meters":28400,"station_id":"","pricing_plan_id":"free"},{"bike_id":"6aae4f06-d2b1-4459-a938-359cf3c563fa","system_id":"levelo_inurba_marseille","lat":43.286595,"lon":5.386795,"is_reserved":false,"is_disabled":false,"rental_uris":{"android":"levelo://app?vid=6aae4f06-d2b1-4459-a938-359cf3c563fa","ios":"levelo://app?vid=6aae4f06-d2b1-4459-a938-359cf3c563fa"},"vehicle_type_id":"4","last_reported":1685325952,"current_range_meters":28400,"station_id":"ce4bh492rcd13ifvqdug","pricing_plan_id":"free"},{"bike_id":"bcad32fa-dfca-4bff-b00d-8a27607f0acc","system_id":"levelo_inurba_marseille","lat":43.286595,"lon":5.386795,"is_reserved":false,"is_disabled":false,"rental_uris":{"android":"levelo://app?vid=bcad32fa-dfca-4bff-b00d-8a27607f0acc","ios":"levelo://app?vid=bcad32fa-dfca-4bff-b00d-8a27607f0acc"},"vehicle_type_id":"4","last_reported":1685325952,"current_range_meters":16400,"station_id":"ce4bh492rcd13ifvqdug","pricing_plan_id":"free"},{"bike_id":"e740261a-bd73-4051-8d36-18a627ed7887","system_id":"levelo_inurba_marseille","lat":43.28472,"lon":5.38407,"is_reserved":false,"is_disabled":false,"rental_uris":{"android":"levelo://app?vid=e740261a-bd73-4051-8d36-18a627ed7887","ios":"levelo://app?vid=e740261a-bd73-4051-8d36-18a627ed7887"},"vehicle_type_id":"4","last_reported":1685325952,"current_range_meters":0,"station_id":"","pricing_plan_id":"free"},{"bike_id":"df6e8438-3e1d-468c-872e-cf898fa48d75","system_id":"levelo_inurba_marseille","lat":43.28466,"lon":5.38421,"is_reserved":false,"is_disabled":false,"rental_uris":{"android":"levelo://app?vid=df6e8438-3e1d-468c-872e-cf898fa48d75","ios":"levelo://app?vid=df6e8438-3e1d-468c-872e-cf898fa48d75"},"vehicle_type_id":"4","last_reported":1685325952,"current_range_meters":0,"station_id":"ce4bh512rcd13ifvqe3g","pricing_plan_id":"free"},{"bike_id":"87e3385a-2891-478d-92ae-b8f8fd28cb9a","system_id":"levelo_inurba_marseille","lat":43.288497,"lon":5.393089,"is_reserved":false,"is_disabled":false,"rental_uris":{"android":"levelo://app?vid=87e3385a-2891-478d-92ae-b8f8fd28cb9a","ios":"levelo://app?vid=87e3385a-2891-478d-92ae-b8f8fd28cb9a"},"vehicle_type_id":"4","last_reported":1685325952,"current_range_meters":18800,"station_id":"ce4bh2p2rcd13ifvqdi0","pricing_plan_id":"free"},{"bike_id":"3f78ced0-d7df-4611-a428-37b884a6e1d1","system_id":"levelo_inurba_marseille","lat":43.31072,"lon":5.40934,"is_reserved":false,"is_disabled":false,"rental_uris":{"android":"levelo://app?vid=3f78ced0-d7df-4611-a428-37b884a6e1d1","ios":"levelo://app?vid=3f78ced0-d7df-4611-a428-37b884a6e1d1"},"vehicle_type_id":"4","last_reported":1685325952,"current_range_meters":0,"station_id":"","pricing_plan_id":"free"},{"bike_id":"a06fd93c-ec5e-4396-9b3f-a9049bad7220","system_id":"levelo_inurba_marseille","lat":43.283494,"lon":5.380945,"is_reserved":false,"is_disabled":false,"rental_uris":{"android":"levelo://app?vid=a06fd93c-ec5e-4396-9b3f-a9049bad7220","ios":"levelo://app?vid=a06fd93c-ec5e-4396-9b3f-a9049bad7220"},"vehicle_type_id":"4","last_reported":1685325952,"current_range_meters":31200,"station_id":"ce4bh412rcd13ifvqdr0","pricing_plan_id":"free"},{"bike_id":"8595c7e2-da85-441f-8a6d-761107d0d054","system_id":"levelo_inurba_marseille","lat":43.283498,"lon":5.380948,"is_reserved":false,"is_disabled":false,"rental_uris":{"android":"levelo://app?vid=8595c7e2-da85-441f-8a6d-761107d0d054","ios":"levelo://app?vid=8595c7e2-da85-441f-8a6d-761107d0d054"},"vehicle_type_id":"4","last_reported":1685325952,"current_range_meters":30800,"station_id":"ce4bh412rcd13ifvqdr0","pricing_plan_id":"free"},{"bike_id":"98c776fd-c938-4f15-9971-993075e1d5ff","system_id":"levelo_inurba_marseille","lat":43.28431,"lon":5.34997,"is_reserved":false,"is_disabled":false,"rental_uris":{"android":"levelo://app?vid=98c776fd-c938-4f15-9971-993075e1d5ff","ios":"levelo://app?vid=98c776fd-c938-4f15-9971-993075e1d5ff"},"vehicle_type_id":"4","last_reported":1685325952,"current_range_meters":13600,"station_id":"ce4bhbh2rcd13ifvqepg","pricing_plan_id":"free"},{"bike_id":"84e2f1cb-2fd5-45ea-9db5-9096a757bc18","system_id":"levelo_inurba_marseille","lat":43.283494,"lon":5.380945,"is_reserved":false,"is_disabled":false,"rental_uris":{"android":"levelo://app?vid=84e2f1cb-2fd5-45ea-9db5-9096a757bc18","ios":"levelo://app?vid=84e2f1cb-2fd5-45ea-9db5-9096a757bc18"},"vehicle_type_id":"4","last_reported":1685325952,"current_range_meters":30000,"station_id":"ce4bh412rcd13ifvqdr0","pricing_plan_id":"free"},{"bike_id":"7f26a831-ef87-4067-ae81-e01f335dc546","system_id":"levelo_inurba_marseille","lat":43.28428,"lon":5.35002,"is_reserved":false,"is_disabled":false,"rental_uris":{"android":"levelo://app?vid=7f26a831-ef87-4067-ae81-e01f335dc546","ios":"levelo://app?vid=7f26a831-ef87-4067-ae81-e01f335dc546"},"vehicle_type_id":"4","last_reported":1685325952,"current_range_meters":29600,"station_id":"ce4bhbh2rcd13ifvqepg","pricing_plan_id":"free"},{"bike_id":"156c967c-e80e-40e3-a66e-c23b0c3ae6f4","system_id":"levelo_inurba_marseille","lat":43.283494,"lon":5.380945,"is_reserved":false,"is_disabled":false,"rental_uris":{"android":"levelo://app?vid=156c967c-e80e-40e3-a66e-c23b0c3ae6f4","ios":"levelo://app?vid=156c967c-e80e-40e3-a66e-c23b0c3ae6f4"},"vehicle_type_id":"4","last_reported":1685325952,"current_range_meters":28000,"station_id":"ce4bh412rcd13ifvqdr0","pricing_plan_id":"free"},{"bike_id":"c00bf755-034a-4160-914f-cd8a1035af91","system_id":"levelo_inurba_marseille","lat":43.284217,"lon":5.349697,"is_reserved":false,"is_disabled":false,"rental_uris":{"android":"levelo://app?vid=c00bf755-034a-4160-914f-cd8a1035af91","ios":"levelo://app?vid=c00bf755-034a-4160-914f-cd8a1035af91"},"vehicle_type_id":"4","last_reported":1685325952,"current_range_meters":31600,"station_id":"ce4bhbh2rcd13ifvqepg","pricing_plan_id":"free"},{"bike_id":"b04830ca-90c0-4ae0-a7bb-e60b01ae36ba","system_id":"levelo_inurba_marseille","lat":43.284217,"lon":5.349697,"is_reserved":false,"is_disabled":false,"rental_uris":{"android":"levelo://app?vid=b04830ca-90c0-4ae0-a7bb-e60b01ae36ba","ios":"levelo://app?vid=b04830ca-90c0-4ae0-a7bb-e60b01ae36ba"},"vehicle_type_id":"4","last_reported":1685325952,"current_range_meters":31200,"station_id":"ce4bhbh2rcd13ifvqepg","pricing_plan_id":"free"},{"bike_id":"3bf3ee92-8050-491a-99b1-3155eaa59055","system_id":"levelo_inurba_marseille","lat":43.284217,"lon":5.349697,"is_reserved":false,"is_disabled":false,"rental_uris":{"android":"levelo://app?vid=3bf3ee92-8050-491a-99b1-3155eaa59055","ios":"levelo://app?vid=3bf3ee92-8050-491a-99b1-3155eaa59055"},"vehicle_type_id":"4","last_reported":1685325952,"current_range_meters":28400,"station_id":"ce4bhbh2rcd13ifvqepg","pricing_plan_id":"free"},{"bike_id":"30e4ecc1-eb5d-4031-8017-cee9b8104930","system_id":"levelo_inurba_marseille","lat":43.284219,"lon":5.3497,"is_reserved":false,"is_disabled":false,"rental_uris":{"android":"levelo://app?vid=30e4ecc1-eb5d-4031-8017-cee9b8104930","ios":"levelo://app?vid=30e4ecc1-eb5d-4031-8017-cee9b8104930"},"vehicle_type_id":"4","last_reported":1685325952,"current_range_meters":30400,"station_id":"ce4bhbh2rcd13ifvqepg","pricing_plan_id":"free"},{"bike_id":"997aad4a-7a02-4932-9d5e-12ffcda6a693","system_id":"levelo_inurba_marseille","lat":43.284217,"lon":5.349697,"is_reserved":false,"is_disabled":false,"rental_uris":{"android":"levelo://app?vid=997aad4a-7a02-4932-9d5e-12ffcda6a693","ios":"levelo://app?vid=997aad4a-7a02-4932-9d5e-12ffcda6a693"},"vehicle_type_id":"4","last_reported":1685325952,"current_range_meters":31600,"station_id":"ce4bhbh2rcd13ifvqepg","pricing_plan_id":"free"},{"bike_id":"ea9e91a8-b90f-4420-bc5e-584903b91b00","system_id":"levelo_inurba_marseille","lat":43.28938,"lon":5.39624,"is_reserved":false,"is_disabled":false,"rental_uris":{"android":"levelo://app?vid=ea9e91a8-b90f-4420-bc5e-584903b91b00","ios":"levelo://app?vid=ea9e91a8-b90f-4420-bc5e-584903b91b00"},"vehicle_type_id":"4","last_reported":1685325952,"current_range_meters":31200,"station_id":"ce4bh3h2rcd13ifvqdn0","pricing_plan_id":"free"},{"bike_id":"0b8f8423-8236-49f3-859c-754fbb624921","system_id":"levelo_inurba_marseille","lat":43.292724,"lon":5.401131,"is_reserved":false,"is_disabled":false,"rental_uris":{"android":"levelo://app?vid=0b8f8423-8236-49f3-859c-754fbb624921","ios":"levelo://app?vid=0b8f8423-8236-49f3-859c-754fbb624921"},"vehicle_type_id":"4","last_reported":1685325952,"current_range_meters":11200,"station_id":"ce4bh312rcd13ifvqdk0","pricing_plan_id":"free"},{"bike_id":"af027aa5-cd0d-4466-bafe-b4f39adaf392","system_id":"levelo_inurba_marseille","lat":43.282754,"lon":5.350519,"is_reserved":false,"is_disabled":false,"rental_uris":{"android":"levelo://app?vid=af027aa5-cd0d-4466-bafe-b4f39adaf392","ios":"levelo://app?vid=af027aa5-cd0d-4466-bafe-b4f39adaf392"},"vehicle_type_id":"4","last_reported":1685325952,"current_range_meters":14800,"station_id":"ce4bhbp2rcd13ifvqerg","pricing_plan_id":"free"},{"bike_id":"50a35045-7c3f-4fb1-a168-d2e647281c29","system_id":"levelo_inurba_marseille","lat":43.282744,"lon":5.350533,"is_reserved":false,"is_disabled":false,"rental_uris":{"android":"levelo://app?vid=50a35045-7c3f-4fb1-a168-d2e647281c29","ios":"levelo://app?vid=50a35045-7c3f-4fb1-a168-d2e647281c29"},