{"last_updated":1749935358,"ttl":60,"version":"2.2","data":{"bikes":[{"bike_id":"b31f0139-170f-4194-984f-4386218a1e9d","system_id":"levelo_inurba_marseille","lat":43.33771,"lon":5.37424,"is_reserved":false,"is_disabled":true,"rental_uris":{"android":"levelo://app?vid=b31f0139-170f-4194-984f-4386218a1e9d","ios":"levelo://app?vid=b31f0139-170f-4194-984f-4386218a1e9d"},"vehicle_type_id":"4","last_reported":1749935358,"current_range_meters":0,"station_id":"","pricing_plan_id":"cebpf4jnsgd1na2vs0mg"},{"bike_id":"1acfb620-cad7-48c0-8901-d7a5b74a5b65","system_id":"levelo_inurba_marseille","lat":43.33751,"lon":5.37456,"is_reserved":false,"is_disabled":true,"rental_uris":{"android":"levelo://app?vid=1acfb620-cad7-48c0-8901-d7a5b74a5b65","ios":"levelo://app?vid=1acfb620-cad7-48c0-8901-d7a5b74a5b65"},"vehicle_type_id":"4","last_reported":1749935358,"current_range_meters":0,"station_id":"","pricing_plan_id":"cebpf4jnsgd1na2vs0mg"},{"bike_id":"bf89d78c-eb96-40d5-beb0-f402ef102cc1","system_id":"levelo_inurba_marseille","lat":43.337444,"lon":5.374475,"is_reserved":false,"is_disabled":true,"rental_uris":{"android":"levelo://app?vid=bf89d78c-eb96-40d5-beb0-f402ef102cc1","ios":"levelo://app?vid=bf89d78c-eb96-40d5-beb0-f402ef102cc1"},"vehicle_type_id":"4","last_reported":1749935358,"current_range_meters":0,"station_id":"","pricing_plan_id":"cebpf4jnsgd1na2vs0mg"},{"bike_id":"684f4e0c-56e1-4f68-9d5c-52873241ab72","system_id":"levelo_inurba_marseille","lat":43.34019,"lon":5.38666,"is_reserved":false,"is_disabled":true,"rental_uris":{"android":"levelo://app?vid=684f4e0c-56e1-4f68-9d5c-52873241ab72","ios":"levelo://app?vid=684f4e0c-56e1-4f68-9d5c-52873241ab72"},"vehicle_type_id":"4","last_reported":1749935358,"current_range_meters":0,"station_id":"","pricing_plan_id":"cebpf4jnsgd1na2vs0mg"},{"bike_id":"5077581b-cebb-46fc-ba69-4fa8272d4810","system_id":"levelo_inurba_marseille","lat":43.21367,"lon":5.35502,"is_reserved":false,"is_disabled":true,"rental_uris":{"android":"levelo://app?vid=5077581b-cebb-46fc-ba69-4fa8272d4810","ios":"levelo://app?vid=5077581b-cebb-46fc-ba69-4fa8272d4810"},"vehicle_type_id":"4","last_reported":1749935358,"current_range_meters":0,"station_id":"","pricing_plan_id":"cebpf4jnsgd1na2vs0mg"},{"bike_id":"b700b739-d84e-40eb-a0b6-5cbfa9485ee2","system_id":"levelo_inurba_marseille","lat":43.27854,"lon":5.42187,"is_reserved":false,"is_disabled":true,"rental_uris":{"android":"levelo://app?vid=b700b739-d84e-40eb-a0b6-5cbfa9485ee2","ios":"levelo://app?vid=b700b739-d84e-40eb-a0b6-5cbfa9485ee2"},"vehicle_type_id":"4","last_reported":1749935358,"current_range_meters":0,"station_id":"","pricing_plan_id":"cebpf4jnsgd1na2vs0mg"},{"bike_id":"c5aff4af-137e-478d-ba0c-539bf55ed037","system_id":"levelo_inurba_marseille","lat":43.26224,"lon":5.3744,"is_reserved":false,"is_disabled":true,"rental_uris":{"android":"levelo://app?vid=c5aff4af-137e-478d-ba0c-539bf55ed037","ios":"levelo://app?vid=c5aff4af-137e-478d-ba0c-539bf55ed037"},"vehicle_type_id":"4","last_reported":1749935358,"current_range_meters":0,"station_id":"","pricing_plan_id":"cebpf4jnsgd1na2vs0mg"},{"bike_id":"ebf89cec-3e1a-4275-9cd0-a3d19d69b5cf","system_id":"levelo_inurba_marseille","lat":43.279797,"lon":5.384838,"is_reserved":false,"is_disabled":true,"rental_uris":{"android":"levelo://app?vid=ebf89cec-3e1a-4275-9cd0-a3d19d69b5cf","ios":"levelo://app?vid=ebf89cec-3e1a-4275-9cd0-a3d19d69b5cf"},"vehicle_type_id":"4","last_reported":1749935358,"current_range_meters":0,"station_id":"","pricing_plan_id":"cebpf4jnsgd1na2vs0mg"},{"bike_id":"492f4bbd-1190-4ef2-b66a-479ffe91b09b","system_id":"levelo_inurba_marseille","lat":43.337444,"lon":5.374475,"is_reserved":false,"is_disabled":true,"rental_uris":{"android":"levelo://app?vid=492f4bbd-1190-4ef2-b66a-479ffe91b09b","ios":"levelo://app?vid=492f4bbd-1190-4ef2-b66a-479ffe91b09b"},"vehicle_type_id":"4","last_reported":1749935358,"current_range_meters":0,"station_id":"","pricing_plan_id":"cebpf4jnsgd1na2vs0mg"},{"bike_id":"a9b6bf99-4070-4437-bb20-72962ae30b90","system_id":"levelo_inurba_marseille","lat":43.27455,"lon":5.3637,"is_reserved":false,"is_disabled":true,"rental_uris":{"android":"levelo://app?vid=a9b6bf99-4070-4437-bb20-72962ae30b90","ios":"levelo://app?vid=a9b6bf99-4070-4437-bb20-72962ae30b90"},"vehicle_type_id":"4","last_reported":1749935358,"current_range_meters":0,"station_id":"","pricing_plan_id":"cebpf4jnsgd1na2vs0mg"},{"bike_id":"40f68185-bd76-475a-af29-420d37090060","system_id":"levelo_inurba_marseille","lat":43.29797,"lon":5.38093,"is_reserved":false,"is_disabled":true,"rental_uris":{"android":"levelo://app?vid=40f68185-bd76-475a-af29-420d37090060","ios":"levelo://app?vid=40f68185-bd76-475a-af29-420d37090060"},"vehicle_type_id":"4","last_reported":1749935358,"current_range_meters":0,"station_id":"ce4bgip2rcd13ifvqbb0","pricing_plan_id":"cebpf4jnsgd1na2vs0mg"},{"bike_id":"d6cb9527-ccd4-4a67-ae0e-272ebc296285","system_id":"levelo_inurba_marseille","lat":43.30925,"lon":5.40162,"is_reserved":false,"is_disabled":true,"rental_uris":{"android":"levelo://app?vid=d6cb9527-ccd4-4a67-ae0e-272ebc296285","ios":"levelo://app?vid=d6cb9527-ccd4-4a67-ae0e-272ebc296285"},"vehicle_type_id":"4","last_reported":1749935358,"current_range_meters":0,"station_id":"ce4bgvp2rcd13ifvqct0","pricing_plan_id":"cebpf4jnsgd1na2vs0mg"},{"bike_id":"baa430cc-6926-4ae9-8e4d-305335939bde","system_id":"levelo_inurba_marseille","lat":43.30422,"lon":5.39755,"is_reserved":false,"is_disabled":true,"rental_uris":{"android":"levelo://app?vid=baa430cc-6926-4ae9-8e4d-305335939bde","ios":"levelo://app?vid=baa430cc-6926-4ae9-8e4d-305335939bde"},"vehicle_type_id":"4","last_reported":1749935358,"current_range_meters":0,"station_id":"ce4bh092rcd13ifvqd20","pricing_plan_id":"cebpf4jnsgd1na2vs0mg"},{"bike_id":"eee6f0ea-d72b-4680-a550-37f9522b1205","system_id":"levelo_inurba_marseille","lat":43.30658,"lon":5.40094,"is_reserved":false,"is_disabled":true,"rental_uris":{"android":"levelo://app?vid=eee6f0ea-d72b-4680-a550-37f9522b1205","ios":"levelo://app?vid=eee6f0ea-d72b-4680-a550-37f9522b1205"},"vehicle_type_id":"4","last_reported":1749935358,"current_range_meters":0,"station_id":"ce4bh112rcd13ifvqda0","pricing_plan_id":"cebpf4jnsgd1na2vs0mg"},{"bike_id":"da386640-6c2e-49e7-8061-febb35daf184","system_id":"levelo_inurba_marseille","lat":43.29399,"lon":5.38625,"is_reserved":false,"is_disabled":true,"rental_uris":{"android":"levelo://app?vid=da386640-6c2e-49e7-8061-febb35daf184","ios":"levelo://app?vid=da386640-6c2e-49e7-8061-febb35daf184"},"vehicle_type_id":"4","last_reported":1749935358,"current_range_meters":0,"station_id":"ce4bh2h2rcd13ifvqdh0","pricing_plan_id":"cebpf4jnsgd1na2vs0mg"},{"bike_id":"9ad6383f-f4bc-4bb5-bfaf-63bc32bc17b3","system_id":"levelo_inurba_marseille","lat":43.29097,"lon":5.38149,"is_reserved":false,"is_disabled":true,"rental_uris":{"android":"levelo://app?vid=9ad6383f-f4bc-4bb5-bfaf-63bc32bc17b3","ios":"levelo://app?vid=9ad6383f-f4bc-4bb5-bfaf-63bc32bc17b3"},"vehicle_type_id":"4","last_reported":1749935358,"current_range_meters":0,"station_id":"ce4bh512rcd13ifvqe2g","pricing_plan_id":"cebpf4jnsgd1na2vs0mg"},{"bike_id":"17879f41-a20f-43f9-acee-b7906fa09cef","system_id":"levelo_inurba_marseille","lat":43.29278,"lon":5.36844,"is_reserved":false,"is_disabled":true,"rental_uris":{"android":"levelo://app?vid=17879f41-a20f-43f9-acee-b7906fa09cef","ios":"levelo://app?vid=17879f41-a20f-43f9-acee-b7906fa09cef"},"vehicle_type_id":"4","last_reported":1749935358,"current_range_meters":0,"station_id":"ce4bhbp2rcd13ifvqesg","pricing_plan_id":"cebpf4jnsgd1na2vs0mg"},{"bike_id":"0ffb6851-9e66-4b04-acfe-73ff46aff874","system_id":"levelo_inurba_marseille","lat":43.27963,"lon":5.38698,"is_reserved":false,"is_disabled":true,"rental_uris":{"android":"levelo://app?vid=0ffb6851-9e66-4b04-acfe-73ff46aff874","ios":"levelo://app?vid=0ffb6851-9e66-4b04-acfe-73ff46aff874"},"vehicle_type_id":"4","last_reported":1749935358,"current_range_meters":0,"station_id":"ce4bhg12rcd13ifvqf80","pricing_plan_id":"cebpf4jnsgd1na2vs0mg"},{"bike_id":"1348c599-0b09-4daa-a93f-9a0a99878d05","system_id":"levelo_inurba_marseille","lat":43.26682,"lon":5.3827,"is_reserved":false,"is_disabled":true,"rental_uris":{"android":"levelo://app?vid=1348c599-0b09-4daa-a93f-9a0a99878d05","ios":"levelo://app?vid=1348c599-0b09-4daa-a93f-9a0a99878d05"},"vehicle_type_id":"4","last_reported":1749935358,"current_range_meters":0,"station_id":"ce4bhg92rcd13ifvqf90","pricing_plan_id":"cebpf4jnsgd1na2vs0mg"},{"bike_id":"c22efa4c-c759-44c9-8f75-72199217537a","system_id":"levelo_inurba_marseille","lat":43.2549,"lon":5.37649,"is_reserved":false,"is_disabled":true,"rental_uris":{"android":"levelo://app?vid=c22efa4c-c759-44c9-8f75-72199217537a","ios":"levelo://app?vid=c22efa4c-c759-44c9-8f75-72199217537a"},"vehicle_type_id":"4","last_reported":1749935358,"current_range_meters":0,"station_id":"ce4bhh12rcd13ifvqff0","pricing_plan_id":"cebpf4jnsgd1na2vs0mg"},{"bike_id":"c5df55a2-e759-4570-973d-4ac4126798dd","system_id":"levelo_inurba_marseille","lat":43.27034,"lon":5.40216,"is_reserved":false,"is_disabled":true,"rental_uris":{"android":"levelo://app?vid=c5df55a2-e759-4570-973d-4ac4126798dd","ios":"levelo://app?vid=c5df55a2-e759-4570-973d-4ac4126798dd"},"vehicle_type_id":"4","last_reported":1749935358,"current_range_meters":0,"station_id":"ce4bhk92rcd13ifvqgc0","pricing_plan_id":"cebpf4jnsgd1na2vs0mg"},{"bike_id":"d59e52e0-29d5-4313-8f6b-179fa34e48e9","system_id":"levelo_inurba_marseille","lat":43.32053,"lon":5.41547,"is_reserved":false,"is_disabled":true,"rental_uris":{"android":"levelo://app?vid=d59e52e0-29d5-4313-8f6b-179fa34e48e9","ios":"levelo://app?vid=d59e52e0-29d5-4313-8f6b-179fa34e48e9"},"vehicle_type_id":"4","last_reported":1749935358,"current_range_meters":0,"station_id":"ce4bhq92rcd13ifvqhkg","pricing_plan_id":"cebpf4jnsgd1na2vs0mg"},{"bike_id":"04005531-52ef-4a8c-a6d8-546a39325ee5","system_id":"levelo_inurba_marseille","lat":43.22503,"lon":5.34784,"is_reserved":false,"is_disabled":true,"rental_uris":{"android":"levelo://app?vid=04005531-52ef-4a8c-a6d8-546a39325ee5","ios":"levelo://app?vid=04005531-52ef-4a8c-a6d8-546a39325ee5"},"vehicle_type_id":"4","last_reported":1749935358,"current_range_meters":0,"station_id":"st_cvj5dfep6f1abm77gieg","pricing_plan_id":"cebpf4jnsgd1na2vs0mg"},{"bike_id":"0f50c2eb-d288-4d90-a9a3-cd0743222590","system_id":"levelo_inurba_marseille","lat":43.22505,"lon":5.34791,"is_reserved":false,"is_disabled":true,"rental_uris":{"android":"levelo://app?vid=0f50c2eb-d288-4d90-a9a3-cd0743222590","ios":"levelo://app?vid=0f50c2eb-d288-4d90-a9a3-cd0743222590"},"vehicle_type_id":"4","last_reported":1749935358,"current_range_meters":0,"station_id":"st_cvj5dfep6f1abm77gieg","pricing_plan_id":"cebpf4jnsgd1na2vs0mg"},{"bike_id":"77e1b72a-e412-4bf7-b26d-9074f78abf68","system_id":"levelo_inurba_marseille","lat":43.22508,"lon":5.348,"is_reserved":false,"is_disabled":true,"rental_uris":{"android":"levelo://app?vid=77e1b72a-e412-4bf7-b26d-9074f78abf68","ios":"levelo://app?vid=77e1b72a-e412-4bf7-b26d-9074f78abf68"},"vehicle_type_id":"4","last_reported":1749935358,"current_range_meters":0,"station_id":"st_cvj5dfep6f1abm77gieg","pricing_plan_id":"cebpf4jnsgd1na2vs0mg"},{"bike_id":"c59f710e-a568-48ee-b718-470006db13cd","system_id":"levelo_inurba_marseille","lat":43.21757,"lon":5.34592,"is_reserved":false,"is_disabled":true,"rental_uris":{"android":"levelo://app?vid=c59f710e-a568-48ee-b718-470006db13cd","ios":"levelo://app?vid=c59f710e-a568-48ee-b718-470006db13cd"},"vehicle_type_id":"4","last_reported":1749935358,"current_range_meters":0,"station_id":"st_cvj6r9ubvosntc0bgbag","pricing_plan_id":"cebpf4jnsgd1na2vs0mg"},{"bike_id":"fe5a9aaf-2d36-4b9d-abdd-dc360a59de38","system_id":"levelo_inurba_marseille","lat":43.21727,"lon":5.34591,"is_reserved":false,"is_disabled":true,"rental_uris":{"android":"levelo://app?vid=fe5a9aaf-2d36-4b9d-abdd-dc360a59de38","ios":"levelo://app?vid=fe5a9aaf-2d36-4b9d-abdd-dc360a59de38"},"vehicle_type_id":"4","last_reported":1749935358,"current_range_meters":0,"station_id":"st_cvj6r9ubvosntc0bgbag","pricing_plan_id":"cebpf4jnsgd1na2vs0mg"},{"bike_id":"ceed8e49-424f-4eba-95a3-d0aed3600067","system_id":"levelo_inurba_marseille","lat":43.21191,"lon":5.35082,"is_reserved":false,"is_disabled":true,"rental_uris":{"android":"levelo://app?vid=ceed8e49-424f-4eba-95a3-d0aed3600067","ios":"levelo://app?vid=ceed8e49-424f-4eba-95a3-d0aed3600067"},"vehicle_type_id":"4","last_reported":1749935358,"current_range_meters":0,"station_id":"st_cvj6sg6p6f1abm77japg","pricing_plan_id":"cebpf4jnsgd1na2vs0mg"},{"bike_id":"8d60347d-541c-40fb-90ca-203bf6bd520a","system_id":"levelo_inurba_marseille","lat":43.271339,"lon":5.364043,"is_reserved":false,"is_disabled":true,"rental_uris":{"android":"levelo://app?vid=8d60347d-541c-40fb-90ca-203bf6bd520a","ios":"levelo://app?vid=8d60347d-541c-40fb-90ca-203bf6bd520a"},"vehicle_type_id":"4","last_reported":1749935358,"current_range_meters":400,"station_id":"","pricing_plan_id":"cebpf4jnsgd1na2vs0mg"},{"bike_id":"0664a701-a482-4dd9-8370-851790514d69","system_id":"levelo_inurba_marseille","lat":43.29531,"lon":5.38557,"is_reserved":false,"is_disabled":true,"rental_uris":{"android":"levelo://app?vid=0664a701-a482-4dd9-8370-851790514d69","ios":"levelo://app?vid=0664a701-a482-4dd9-8370-851790514d69"},"vehicle_type_id":"4","last_reported":1749935358,"current_range_meters":400,"station_id":"ce4bgih2rcd13ifvqba0","pricing_plan_id":"cebpf4jnsgd1na2vs0mg"},{"bike_id":"4401c7f3-165f-4118-8a3e-7e738cea81ac","system_id":"levelo_inurba_marseille","lat":43.29523,"lon":5.37502,"is_reserved":false,"is_disabled":true,"rental_uris":{"android":"levelo://app?vid=4401c7f3-165f-4118-8a3e-7e738cea81ac","ios":"levelo://app?vid=4401c7f3-165f-4118-8a3e-7e738cea81ac"},"vehicle_type_id":"4","last_reported":1749935358,"current_range_meters":400,"station_id":"ce4bgkp2rcd13ifvqbmg","pricing_plan_id":"cebpf4jnsgd1na2vs0mg"},{"bike_id":"4edb9b1f-3330-4fa5-ab7c-9315a6b616f7","system_id":"levelo_inurba_marseille","lat":43.28939,"lon":5.36637,"is_reserved":false,"is_disabled":true,"rental_uris":{"android":"levelo://app?vid=4edb9b1f-3330-4fa5-ab7c-9315a6b616f7","ios":"levelo://app?vid=4edb9b1f-3330-4fa5-ab7c-9315a6b616f7"},"vehicle_type_id":"4","last_reported":1749935358,"current_range_meters":400,"station_id":"ce4bhap2rcd13ifvqek0","pricing_plan_id":"cebpf4jnsgd1na2vs0mg"},{"bike_id":"73ca7f7b-26f9-41d5-8f54-c28896d5b894","system_id":"levelo_inurba_marseille","lat":43.26206,"lon":5.37434,"is_reserved":false,"is_disabled":true,"rental_uris":{"android":"levelo://app?vid=73ca7f7b-26f9-41d5-8f54-c28896d5b894","ios":"levelo://app?vid=73ca7f7b-26f9-41d5-8f54-c28896d5b894"},"vehicle_type_id":"4","last_reported":1749935358,"current_range_meters":400,"station_id":"ce4bhgp2rcd13ifvqfc0","pricing_plan_id":"cebpf4jnsgd1na2vs0mg"},{"bike_id":"aedb974f-1014-42b7-8dd4-7c8f55661c40","system_id":"levelo_inurba_marseille","lat":43.26684,"lon":5.3827,"is_reserved":false,"is_disabled":true,"rental_uris":{"android":"levelo://app?vid=aedb974f-1014-42b7-8dd4-7c8f55661c40","ios":"levelo://app?vid=aedb974f-1014-42b7-8dd4-7c8f55661c40"},"vehicle_type_id":"4","last_reported":1749935358,"current_range_meters":800,"station_id":"ce4bhg92rcd13ifvqf90","pricing_plan_id":"cebpf4jnsgd1na2vs0mg"},{"bike_id":"53b30cfd-c544-4da2-a717-4ae88aeeb4f3","system_id":"levelo_inurba_marseille","lat":43.25588,"lon":5.38222,"is_reserved":false,"is_disabled":true,"rental_uris":{"android":"levelo://app?vid=53b30cfd-c544-4da2-a717-4ae88aeeb4f3","ios":"levelo://app?vid=53b30cfd-c544-4da2-a717-4ae88aeeb4f3"},"vehicle_type_id":"4","last_reported":1749935358,"current_range_meters":800,"station_id":"ce4bhih2rcd13ifvqfs0","pricing_plan_id":"cebpf4jnsgd1na2vs0mg"},{"bike_id":"5e4ec61b-ef18-4837-8325-2c3164cd4fa0","system_id":"levelo_inurba_marseille","lat":43.30425,"lon":5.41283,"is_reserved":false,"is_disabled":true,"rental_uris":{"android":"levelo://app?vid=5e4ec61b-ef18-4837-8325-2c3164cd4fa0","ios":"levelo://app?vid=5e4ec61b-ef18-4837-8325-2c3164cd4fa0"},"vehicle_type_id":"4","last_reported":1749935358,"current_range_meters":800,"station_id":"ce4bhop2rcd13ifvqh8g","pricing_plan_id":"cebpf4jnsgd1na2vs0mg"},{"bike_id":"fa9ffc52-f68c-4200-90c9-8fd730b98885","system_id":"levelo_inurba_marseille","lat":43.25499,"lon":5.37663,"is_reserved":false,"is_disabled":true,"rental_uris":{"android":"levelo://app?vid=fa9ffc52-f68c-4200-90c9-8fd730b98885","ios":"levelo://app?vid=fa9ffc52-f68c-4200-90c9-8fd730b98885"},"vehicle_type_id":"4","last_reported":1749935358,"current_range_meters":1600,"station_id":"ce4bhh12rcd13ifvqff0","pricing_plan_id":"cebpf4jnsgd1na2vs0mg"},{"bike_id":"98afa141-26c5-45c8-a0a6-15fd54ac73ab","system_id":"levelo_inurba_marseille","lat":43.21521,"lon":5.34664,"is_reserved":false,"is_disabled":true,"rental_uris":{"android":"levelo://app?vid=98afa141-26c5-45c8-a0a6-15fd54ac73ab","ios":"levelo://app?vid=98afa141-26c5-45c8-a0a6-15fd54ac73ab"},"vehicle_type_id":"4","last_reported":1749935358,"current_range_meters":2000,"station_id":"","pricing_plan_id":"cebpf4jnsgd1na2vs0mg"},{"bike_id":"97421c04-2630-4fc1-9da9-b17d88602c5f","system_id":"levelo_inurba_marseille","lat":43.337682,"lon":5.374519,"is_reserved":false,"is_disabled":false,"rental_uris":{"android":"levelo://app?vid=97421c04-2630-4fc1-9da9-b17d88602c5f","ios":"levelo://app?vid=97421c04-2630-4fc1-9da9-b17d88602c5f"},"vehicle_type_id":"4","last_reported":1749935358,"current_range_meters":2800,"station_id":"","pricing_plan_id":"cebpf4jnsgd1na2vs0mg"},{"bike_id":"6d21c11b-dfc1-476f-adae-f1fe3d427b69","system_id":"levelo_inurba_marseille","lat":43.21518,"lon":5.3466,"is_reserved":false,"is_disabled":false,"rental_uris":{"android":"levelo://app?vid=6d21c11b-dfc1-476f-adae-f1fe3d427b69","ios":"levelo://app?vid=6d21c11b-dfc1-476f-adae-f1fe3d427b69"},"vehicle_type_id":"4","last_reported":1749935358,"current_range_meters":2800,"station_id":"","pricing_plan_id":"cebpf4jnsgd1na2vs0mg"},{"bike_id":"7444782d-2d23-4225-bdd8-1f3a3e5b5b7f","system_id":"levelo_inurba_marseille","lat":43.26674,"lon":5.38286,"is_reserved":false,"is_disabled":false,"rental_uris":{"android":"levelo://app?vid=7444782d-2d23-4225-bdd8-1f3a3e5b5b7f","ios":"levelo://app?vid=7444782d-2d23-4225-bdd8-1f3a3e5b5b7f"},"vehicle_type_id":"4","last_reported":1749935358,"current_range_meters":2800,"station_id":"ce4bhg92rcd13ifvqf90","pricing_plan_id":"cebpf4jnsgd1na2vs0mg"},{"bike_id":"3d6ef34c-1ec6-4ed3-88e4-07359f729c42","system_id":"levelo_inurba_marseille","lat":43.2758,"lon":5.4339,"is_reserved":false,"is_disabled":false,"rental_uris":{"android":"levelo://app?vid=3d6ef34c-1ec6-4ed3-88e4-07359f729c42","ios":"levelo://app?vid=3d6ef34c-1ec6-4ed3-88e4-07359f729c42"},"vehicle_type_id":"4","last_reported":1749935358,"current_range_meters":3200,"station_id":"","pricing_plan_id":"cebpf4jnsgd1na2vs0mg"},{"bike_id":"9c64e1e1-727a-4265-b82f-3ef12bd25e6b","system_id":"levelo_inurba_marseille","lat":43.29811,"lon":5.38161,"is_reserved":false,"is_disabled":false,"rental_uris":{"android":"levelo://app?vid=9c64e1e1-727a-4265-b82f-3ef12bd25e6b","ios":"levelo://app?vid=9c64e1e1-727a-4265-b82f-3ef12bd25e6b"},"vehicle_type_id":"4","last_reported":1749935358,"current_range_meters":3200,"station_id":"ce4bgip2rcd13ifvqbb0","pricing_plan_id":"cebpf4jnsgd1na2vs0mg"},{"bike_id":"1d8892d1-03cf-4493-a13e-a79f0b62e0d2","system_id":"levelo_inurba_marseille","lat":43.29532,"lon":5.3855,"is_reserved":false,"is_disabled":false,"rental_uris":{"android":"levelo://app?vid=1d8892d1-03cf-4493-a13e-a79f0b62e0d2","ios":"levelo://app?vid=1d8892d1-03cf-4493-a13e-a79f0b62e0d2"},"vehicle_type_id":"4","last_reported":1749935358,"current_range_meters":3600,"station_id":"ce4bgih2rcd13ifvqba0","pricing_plan_id":"cebpf4jnsgd1na2vs0mg"},{"bike_id":"d56082c9-a9d1-455c-985b-e4749f483364","system_id":"levelo_inurba_marseille","lat":43.27907,"lon":5.38015,"is_reserved":false,"is_disabled":false,"rental_uris":{"android":"levelo://app?vid=d56082c9-a9d1-455c-985b-e4749f483364","ios":"levelo://app?vid=d56082c9-a9d1-455c-985b-e4749f483364"},"vehicle_type_id":"4","last_reported":1749935358,"current_range_meters":3600,"station_id":"ce4bhf92rcd13ifvqf50","pricing_plan_id":"cebpf4jnsgd1na2vs0mg"},{"bike_id":"92c49313-f455-4357-8e19-e160a3add678","system_id":"levelo_inurba_marseille","lat":43.26954,"lon":5.38632,"is_reserved":false,"is_disabled":false,"rental_uris":{"android":"levelo://app?vid=92c49313-f455-4357-8e19-e160a3add678","ios":"levelo://app?vid=92c49313-f455-4357-8e19-e160a3add678"},"vehicle_type_id":"4","last_reported":1749935358,"current_range_meters":3600,"station_id":"ce4bhh92rcd13ifvqfh0","pricing_plan_id":"cebpf4jnsgd1na2vs0mg"},{"bike_id":"5e5c8450-f420-414d-bfb0-b65a833ec345","system_id":"levelo_inurba_marseille","lat":43.26927,"lon":5.38908,"is_reserved":false,"is_disabled":false,"rental_uris":{"android":"levelo://app?vid=5e5c8450-f420-414d-bfb0-b65a833ec345","ios":"levelo://app?vid=5e5c8450-f420-414d-bfb0-b65a833ec345"},"vehicle_type_id":"4","last_reported":1749935358,"current_range_meters":4000,"station_id":"ce4bhhh2rcd13ifvqfl0","pricing_plan_id":"cebpf4jnsgd1na2vs0mg"},{"bike_id":"055e8d04-a266-45bd-b35d-4d43a09c656f","system_id":"levelo_inurba_marseille","lat":43.24183,"lon":5.39723,"is_reserved":false,"is_disabled":false,"rental_uris":{"android":"levelo://app?vid=055e8d04-a266-45bd-b35d-4d43a09c656f","ios":"levelo://app?vid=055e8d04-a266-45bd-b35d-4d43a09c656f"},"vehicle_type_id":"4","last_reported":1749935358,"current_range_meters":4000,"station_id":"ce4bhn12rcd13ifvqgpg","pricing_plan_id":"cebpf4jnsgd1na2vs0mg"},{"bike_id":"0841745a-2e9d-4558-bad4-f8c530840ab4","system_id":"levelo_inurba_marseille","lat":43.271888,"lon":5.390872,"is_reserved":false,"is_disabled":true,"rental_uris":{"android":"levelo://app?vid=0841745a-2e9d-4558-bad4-f8c530840ab4","ios":"levelo://app?vid=0841745a-2e9d-4558-bad4-f8c530840ab4"},"vehicle_type_id":"4","last_reported":1749935358,"current_range_meters":4000,"station_id":"ce4bhnh2rcd13ifvqgtg","pricing_plan_id":"cebpf4jnsgd1na2vs0mg"},{"bike_id":"f053ee2f-b0a9-4944-9983-ac7f640159db","system_id":"levelo_inurba_marseille","lat":43.267416,"lon":5.427424,"is_reserved":false,"is_disabled":false,"rental_uris":{"android":"levelo://app?vid=f053ee2f-b0a9-4944-9983-ac7f640159db","ios":"levelo://app?vid=f053ee2f-b0a9-4944-9983-ac7f640159db"},"vehicle_type_id":"4","last_reported":1749935358,"current_range_meters":4400,"station_id":"","pricing_plan_id":"cebpf4jnsgd1na2vs0mg"},{"bike_id":"e928255d-0f39-4f6a-a7ee-72584fd843d3","system_id":"levelo_inurba_marseille","lat":43.28108,"lon":5.37836,"is_reserved":false,"is_disabled":false,"rental_uris":{"android":"levelo://app?vid=e928255d-0f39-4f6a-a7ee-72584fd843d3","ios":"levelo://app?vid=e928255d-0f39-4f6a-a7ee-72584fd843d3"},"vehicle_type_id":"4","last_reported":1749935358,"current_range_meters":4800,"station_id":"ce4bha12rcd13ifvqee0","pricing_plan_id":"cebpf4jnsgd1na2vs0mg"},{"bike_id":"d1266d57-7865-46ba-b4d9-669832a837ff","system_id":"levelo_inurba_marseille","lat":43.240732,"lon":5.377612,"is_reserved":false,"is_disabled":false,"rental_uris":{"android":"levelo://app?vid=d1266d57-7865-46ba-b4d9-669832a837ff","ios":"levelo://app?vid=d1266d57-7865-46ba-b4d9-669832a837ff"},"vehicle_type_id":"4","last_reported":1749935358,"current_range_meters":4800,"station_id":"ce4bhmp2rcd13ifvqgog","pricing_plan_id":"cebpf4jnsgd1na2vs0mg"},{"bike_id":"ff868c5b-acdb-4805-8273-0336e6c4a4e4","system_id":"levelo_inurba_marseille","lat":43.284402,"lon":5.391964,"is_reserved":false,"is_disabled":false,"rental_uris":{"android":"levelo://app?vid=ff868c5b-acdb-4805-8273-0336e6c4a4e4","ios":"levelo://app?vid=ff868c5b-acdb-4805-8273-0336e6c4a4e4"},"vehicle_type_id":"4","last_reported":1749935358,"current_range_meters":5600,"station_id":"ce4bhoh2rcd13ifvqh5g","pricing_plan_id":"cebpf4jnsgd1na2vs0mg"},{"bike_id":"fe4924cd-3a67-41de-9744-280d238a0894","system_id":"levelo_inurba_marseille","lat":43.29262,"lon":5.3844,"is_reserved":false,"is_disabled":false,"rental_uris":{"android":"levelo://app?vid=fe4924cd-3a67-41de-9744-280d238a0894","ios":"levelo://app?vid=fe4924cd-3a67-41de-9744-280d238a0894"},"vehicle_type_id":"4","last_reported":1749935358,"current_range_meters":6000,"station_id":"ce4bh692rcd13ifvqea0","pricing_plan_id":"cebpf4jnsgd1na2vs0mg"},{"bike_id":"183423bb-24f8-4a81-ab18-8c9cccc40674","system_id":"levelo_inurba_marseille","lat":43.295321,"lon":5.385447,"is_reserved":false,"is_disabled":false,"rental_uris":{"android":"levelo://app?vid=183423bb-24f8-4a81-ab18-8c9cccc40674","ios":"levelo://app?vid=183423bb-24f8-4a81-ab18-8c9cccc40674"},"vehicle_type_id":"4","last_reported":1749935358,"current_range_meters":6400,"station_id":"ce4bgih2rcd13ifvqba0","pricing_plan_id":"cebpf4jnsgd1na2vs0mg"},{"bike_id":"a3bdf967-05b6-4187-9692-0a4d81b40303","system_id":"levelo_inurba_marseille","lat":43.30898,"lon":5.37184,"is_reserved":false,"is_disabled":false,"rental_uris":{"android":"levelo://app?vid=a3bdf967-05b6-4187-9692-0a4d81b40303","ios":"levelo://app?vid=a3bdf967-05b6-4187-9692-0a4d81b40303"},"vehicle_type_id":"4","last_reported":1749935358,"current_range_meters":6400,"station_id":"ce4bguh2rcd13ifvqckg","pricing_plan_id":"cebpf4jnsgd1na2vs0mg"},{"bike_id":"1f84270d-ab89-4e74-a27a-639a996a1e40","system_id":"levelo_inurba_marseille","lat":43.27307,"lon":5.39082,"is_reserved":false,"is_disabled":false,"rental_uris":{"android":"levelo://app?vid=1f84270d-ab89-4e74-a27a-639a996a1e40","ios":"levelo://app?vid=1f84270d-ab89-4e74-a27a-639a996a1e40"},"vehicle_type_id":"4","last_reported":1749935358,"current_range_meters":6400,"station_id":"ce4bhgp2rcd13ifvqfe0","pricing_plan_id":"cebpf4jnsgd1na2vs0mg"},{"bike_id":"3ebcb526-9195-4257-ae10-ca7e45e1829a","system_id":"levelo_inurba_marseille","lat":43.23183,"lon":5.39979,"is_reserved":false,"is_disabled":false,"rental_uris":{"android":"levelo://app?vid=3ebcb526-9195-4257-ae10-ca7e45e1829a","ios":"levelo://app?vid=3ebcb526-9195-4257-ae10-ca7e45e1829a"},"vehicle_type_id":"4","last_reported":1749935358,"current_range_meters":6400,"station_id":"ce4bhn12rcd13ifvqgqg","pricing_plan_id":"cebpf4jnsgd1na2vs0mg"},{"bike_id":"407fb9a9-4b28-4b9e-8bab-65a85c16291e","system_id":"levelo_inurba_marseille","lat":43.27938,"lon":5.41052,"is_reserved":false,"is_disabled":false,"rental_uris":{"android":"levelo://app?vid=407fb9a9-4b28-4b9e-8bab-65a85c16291e","ios":"levelo://app?vid=407fb9a9-4b28-4b9e-8bab-65a85c16291e"},"vehicle_type_id":"4","last_reported":1749935358,"current_range_meters":6400,"station_id":"ce4bhnp2rcd13ifvqh0g","pricing_plan_id":"cebpf4jnsgd1na2vs0mg"},{"bike_id":"10a4f66a-622a-4c76-a1f4-8c092afab4ef","system_id":"levelo_inurba_marseille","lat":43.28443,"lon":5.39185,"is_reserved":false,"is_disabled":false,"rental_uris":{"android":"levelo://app?vid=10a4f66a-622a-4c76-a1f4-8c092afab4ef","ios":"levelo://app?vid=10a4f66a-622a-4c76-a1f4-8c092afab4ef"},"vehicle_type_id":"4","last_reported":1749935358,"current_range_meters":6400,"station_id":"ce4bhoh2rcd13ifvqh5g","pricing_plan_id":"cebpf4jnsgd1na2vs0mg"},{"bike_id":"b79e6ad0-ddb2-4607-a706-166b9c59d80b","system_id":"levelo_inurba_marseille","lat":43.33578,"lon":5.41057,"is_reserved":false,"is_disabled":false,"rental_uris":{"android":"levelo://app?vid=b79e6ad0-ddb2-4607-a706-166b9c59d80b","ios":"levelo://app?vid=b79e6ad0-ddb2-4607-a706-166b9c59d80b"},"vehicle_type_id":"4","last_reported":1749935358,"current_range_meters":6400,"station_id":"ce4bhqh2rcd13ifvqhmg","pricing_plan_id":"cebpf4jnsgd1na2vs0mg"},{"bike_id":"0de64e75-f25f-4d4f-bb09-bf5420c31d74","system_id":"levelo_inurba_marseille","lat":43.25006,"lon":5.38917,"is_reserved":false,"is_disabled":false,"rental_uris":{"android":"levelo://app?vid=0de64e75-f25f-4d4f-bb09-bf5420c31d74","ios":"levelo://app?vid=0de64e75-f25f-4d4f-bb09-bf5420c31d74"},"vehicle_type_id":"4","last_reported":1749935358,"current_range_meters":6800,"station_id":"ce4bhgp2rcd13ifvqfd0","pricing_plan_id":"cebpf4jnsgd1na2vs0mg"},{"bike_id":"4118627c-7df9-462b-a78d-08fa23da8a65","system_id":"levelo_inurba_marseille","lat":43.2757,"lon":5.38411,"is_reserved":false,"is_disabled":false,"rental_uris":{"android":"levelo://app?vid=4118627c-7df9-462b-a78d-08fa23da8a65","ios":"levelo://app?vid=4118627c-7df9-462b-a78d-08fa23da8a65"},"vehicle_type_id":"4","last_reported":1749935358,"current_range_meters":6800,"station_id":"ce4bhh92rcd13ifvqfi0","pricing_plan_id":"cebpf4jnsgd1na2vs0mg"},{"bike_id":"2cdf3a6e-160d-4c17-9f77-3ead70b21f87","system_id":"levelo_inurba_marseille","lat":43.25103,"lon":5.40323,"is_reserved":false,"is_disabled":false,"rental_uris":{"android":"levelo://app?vid=2cdf3a6e-160d-4c17-9f77-3ead70b21f87","ios":"levelo://app?vid=2cdf3a6e-160d-4c17-9f77-3ead70b21f87"},"vehicle_type_id":"4","last_reported":1749935358,"current_range_meters":6800,"station_id":"ce4bhlh2rcd13ifvqgig","pricing_plan_id":"cebpf4jnsgd1na2vs0mg"},{"bike_id":"0de0877e-4274-4a47-9de3-4d1bd6122f76","system_id":"levelo_inurba_marseille","lat":43.28446,"lon":5.39209,"is_reserved":false,"is_disabled":false,"rental_uris":{"android":"levelo://app?vid=0de0877e-4274-4a47-9de3-4d1bd6122f76","ios":"levelo://app?vid=0de0877e-4274-4a47-9de3-4d1bd6122f76"},"vehicle_type_id":"4","last_reported":1749935358,"current_range_meters":6800,"station_id":"ce4bhoh2rcd13ifvqh5g","pricing_plan_id":"cebpf4jnsgd1na2vs0mg"},{"bike_id":"ce891566-49e9-42b9-9045-a54a0e5f0a3c","system_id":"levelo_inurba_marseille","lat":43.320626,"lon":5.41543,"is_reserved":false,"is_disabled":false,"rental_uris":{"android":"levelo://app?vid=ce891566-49e9-42b9-9045-a54a0e5f0a3c","ios":"levelo://app?vid=ce891566-49e9-42b9-9045-a54a0e5f0a3c"},"vehicle_type_id":"4","last_reported":1749935358,"current_range_meters":6800,"station_id":"ce4bhq92rcd13ifvqhkg","pricing_plan_id":"cebpf4jnsgd1na2vs0mg"},{"bike_id":"9a1dabb0-a3e5-4abf-b1b6-fb3869e15de2","system_id":"levelo_inurba_marseille","lat":43.29952,"lon":5.38487,"is_reserved":false,"is_disabled":false,"rental_uris":{"android":"levelo://app?vid=9a1dabb0-a3e5-4abf-b1b6-fb3869e15de2","ios":"levelo://app?vid=9a1dabb0-a3e5-4abf-b1b6-fb3869e15de2"},"vehicle_type_id":"4","last_reported":1749935358,"current_range_meters":7200,"station_id":"ce4bgj92rcd13ifvqbd0","pricing_plan_id":"cebpf4jnsgd1na2vs0mg"},{"bike_id":"1c14c6c9-dadd-4fae-9832-966f91878ff9","system_id":"levelo_inurba_marseille","lat":43.294155,"lon":5.386105,"is_reserved":false,"is_disabled":false,"rental_uris":{"android":"levelo://app?vid=1c14c6c9-dadd-4fae-9832-966f91878ff9","ios":"levelo://app?vid=1c14c6c9-dadd-4fae-9832-966f91878ff9"},"vehicle_type_id":"4","last_reported":1749935358,"current_range_meters":7200,"station_id":"ce4bh2h2rcd13ifvqdh0","pricing_plan_id":"cebpf4jnsgd1na2vs0mg"},{"bike_id":"8412a9e5-495c-4e7e-aee4-97aadcc6e241","system_id":"levelo_inurba_marseille","lat":43.29557,"lon":5.40014,"is_reserved":false,"is_disabled":false,"rental_uris":{"android":"levelo://app?vid=8412a9e5-495c-4e7e-aee4-97aadcc6e241","ios":"levelo://app?vid=8412a9e5-495c-4e7e-aee4-97aadcc6e241"},"vehicle_type_id":"4","last_reported":1749935358,"current_range_meters":7200,"station_id":"ce4bh312rcd13ifvqdj0","pricing_plan_id":"cebpf4jnsgd1na2vs0mg"},{"bike_id":"8cc8668c-1436-494e-a001-db5c0d0c2292","system_id":"levelo_inurba_marseille","lat":43.26669,"lon":5.38261,"is_reserved":false,"is_disabled":false,"rental_uris":{"android":"levelo://app?vid=8cc8668c-1436-494e-a001-db5c0d0c2292","ios":"levelo://app?vid=8cc8668c-1436-494e-a001-db5c0d0c2292"},"vehicle_type_id":"4","last_reported":1749935358,"current_range_meters":7200,"station_id":"ce4bhg92rcd13ifvqf90","pricing_plan_id":"cebpf4jnsgd1na2vs0mg"},{"bike_id":"677a82a8-586b-485b-90fd-63db2bfa0bdd","system_id":"levelo_inurba_marseille","lat":43.31082,"lon":5.42428,"is_reserved":false,"is_disabled":false,"rental_uris":{"android":"levelo://app?vid=677a82a8-586b-485b-90fd-63db2bfa0bdd","ios":"levelo://app?vid=677a82a8-586b-485b-90fd-63db2bfa0bdd"},"vehicle_type_id":"4","last_reported":1749935358,"current_range_meters":7200,"station_id":"ce4bhp92rcd13ifvqhag","pricing_plan_id":"cebpf4jnsgd1na2vs0mg"},{"bike_id":"0dbb6e03-5f89-4c9c-805a-100e38b37fec","system_id":"levelo_inurba_marseille","lat":43.24661,"lon":5.38169,"is_reserved":false,"is_disabled":false,"rental_uris":{"android":"levelo://app?vid=0dbb6e03-5f89-4c9c-805a-100e38b37fec","ios":"levelo://app?vid=0dbb6e03-5f89-4c9c-805a-100e38b37fec"},"vehicle_type_id":"4","last_reported":1749935358,"current_range_meters":8000,"station_id":"ce4bhih2rcd13ifvqfr0","pricing_plan_id":"cebpf4jnsgd1na2vs0mg"},{"bike_id":"035f19eb-4313-4510-8d67-cf8b8acc8e3f","system_id":"levelo_inurba_marseille","lat":43.26805,"lon":5.40267,"is_reserved":false,"is_disabled":false,"rental_uris":{"android":"levelo://app?vid=035f19eb-4313-4510-8d67-cf8b8acc8e3f","ios":"levelo://app?vid=035f19eb-4313-4510-8d67-cf8b8acc8e3f"},"vehicle_type_id":"4","last_reported":1749935358,"current_range_meters":8000,"station_id":"ce501612rcd8frsf0b60","pricing_plan_id":"cebpf4jnsgd1na2vs0mg"},{"bike_id":"8a53d2de-aaa2-4592-9299-1aca6a72318d","system_id":"levelo_inurba_marseille","lat":43.27561,"lon":5.38419,"is_reserved":false,"is_disabled":false,"rental_uris":{"android":"levelo://app?vid=8a53d2de-aaa2-4592-9299-1aca6a72318d","ios":"levelo://app?vid=8a53d2de-aaa2-4592-9299-1aca6a72318d"},"vehicle_type_id":"4","last_reported":1749935358,"current_range_meters":8400,"station_id":"ce4bhh92rcd13ifvqfi0","pricing_plan_id":"cebpf4jnsgd1na2vs0mg"},{"bike_id":"82a1cf45-3f47-47a6-b575-87de361efeb7","system_id":"levelo_inurba_marseille","lat":43.30294,"lon":5.37802,"is_reserved":false,"is_disabled":false,"rental_uris":{"android":"levelo://app?vid=82a1cf45-3f47-47a6-b575-87de361efeb7","ios":"levelo://app?vid=82a1cf45-3f47-47a6-b575-87de361efeb7"},"vehicle_type_id":"4","last_reported":1749935358,"current_range_meters":8800,"station_id":"","pricing_plan_id":"cebpf4jnsgd1na2vs0mg"},{"bike_id":"20ff5b65-983d-46ac-8cfe-7656b6bdc40a","system_id":"levelo_inurba_marseille","lat":43.30152,"lon":5.38801,"is_reserved":false,"is_disabled":false,"rental_uris":{"android":"levelo://app?vid=20ff5b65-983d-46ac-8cfe-7656b6bdc40a","ios":"levelo://app?vid=20ff5b65-983d-46ac-8cfe-7656b6bdc40a"},"vehicle_type_id":"4","last_reported":1749935358,"current_range_meters":8800,"station_id":"ce4bghh2rcd13ifvqb60","pricing_plan_id":"cebpf4jnsgd1na2vs0mg"},{"bike_id":"9f42757c-354e-457f-9adf-c037ca8db774","system_id":"levelo_inurba_marseille","lat":43.27812,"lon":5.4072,"is_reserved":false,"is_disabled":false,"rental_uris":{"android":"levelo://app?vid=9f42757c-354e-457f-9adf-c037ca8db774","ios":"levelo://app?vid=9f42757c-354e-457f-9adf-c037ca8db774"},"vehicle_type_id":"4","last_reported":1749935358,"current_range_meters":8800,"station_id":"ce4bhnh2rcd13ifvqgtg","pricing_plan_id":"cebpf4jnsgd1na2vs0mg"},{"bike_id":"350a9659-c2a9-4c6a-bb07-ec8fc3bf8c79","system_id":"levelo_inurba_marseille","lat":43.27802,"lon":5.40701,"is_reserved":false,"is_disabled":false,"rental_uris":{"android":"levelo://app?vid=350a9659-c2a9-4c6a-bb07-ec8fc3bf8c79","ios":"levelo://app?vid=350a9659-c2a9-4c6a-bb07-ec8fc3bf8c79"},"vehicle_type_id":"4","last_reported":1749935358,"current_range_meters":8800,"station_id":"ce4bhnh2rcd13ifvqgtg","pricing_plan_id":"cebpf4jnsgd1na2vs0mg"},{"bike_id":"2ab31527-f915-4286-b3a0-0beafd2cdd50","system_id":"levelo_inurba_marseille","lat":43.3002,"lon":5.37003,"is_reserved":false,"is_disabled":false,"rental_uris":{"android":"levelo://app?vid=2ab31527-f915-4286-b3a0-0beafd2cdd50","ios":"levelo://app?vid=2ab31527-f915-4286-b3a0-0beafd2cdd50"},"vehicle_type_id":"4","last_reported":1749935358,"current_range_meters":9200,"station_id":"","pricing_plan_id":"cebpf4jnsgd1na2vs0mg"},{"bike_id":"87c270dc-4fcf-4263-8f57-a07ca944f869","system_id":"levelo_inurba_marseille","lat":43.31249,"lon":5.39493,"is_reserved":false,"is_disabled":false,"rental_uris":{"android":"levelo://app?vid=87c270dc-4fcf-4263-8f57-a07ca944f869","ios":"levelo://app?vid=87c270dc-4fcf-4263-8f57-a07ca944f869"},"vehicle_type_id":"4","last_reported":1749935358,"current_range_meters":9200,"station_id":"","pricing_plan_id":"cebpf4jnsgd1na2vs0mg"},{"bike_id":"1e60083d-52e9-47bf-91af-9986a102d59e","system_id":"levelo_inurba_marseille","lat":43.30789,"lon":5.38158,"is_reserved":false,"is_disabled":false,"rental_uris":{"android":"levelo://app?vid=1e60083d-52e9-47bf-91af-9986a102d59e","ios":"levelo://app?vid=1e60083d-52e9-47bf-91af-9986a102d59e"},"vehicle_type_id":"4","last_reported":1749935358,"current_range_meters":9200,"station_id":"ce4bgt12rcd13ifvqce0","pricing_plan_id":"cebpf4jnsgd1na2vs0mg"},{"bike_id":"f4b4a1a4-5829-4de1-b0db-fec6458cb51c","system_id":"levelo_inurba_marseille","lat":43.29259,"lon":5.38439,"is_reserved":false,"is_disabled":false,"rental_uris":{"android":"levelo://app?vid=f4b4a1a4-5829-4de1-b0db-fec6458cb51c","ios":"levelo://app?vid=f4b4a1a4-5829-4de1-b0db-fec6458cb51c"},"vehicle_type_id":"4","last_reported":1749935358,"current_range_meters":9200,"station_id":"ce4bh692rcd13ifvqea0","pricing_plan_id":"cebpf4jnsgd1na2vs0mg"},{"bike_id":"b52775f2-44fc-4b89-80c3-5d1e41e427f4","system_id":"levelo_inurba_marseille","lat":43.25,"lon":5.38935,"is_reserved":false,"is_disabled":false,"rental_uris":{"android":"levelo://app?vid=b52775f2-44fc-4b89-80c3-5d1e41e427f4","ios":"levelo://app?vid=b52775f2-44fc-4b89-80c3-5d1e41e427f4"},"vehicle_type_id":"4","last_reported":1749935358,"current_range_meters":9200,"station_id":"ce4bhgp2rcd13ifvqfd0","pricing_plan_id":"cebpf4jnsgd1na2vs0mg"},{"bike_id":"5e5a7597-87fa-419d-b72b-d01b70d3d6df","system_id":"levelo_inurba_marseille","lat":43.27569,"lon":5.38404,"is_reserved":false,"is_disabled":false,"rental_uris":{"android":"levelo://app?vid=5e5a7597-87fa-419d-b72b-d01b70d3d6df","ios":"levelo://app?vid=5e5a7597-87fa-419d-b72b-d01b70d3d6df"},"vehicle_type_id":"4","last_reported":1749935358,"current_range_meters":9200,"station_id":"ce4bhh92rcd13ifvqfi0","pricing_plan_id":"cebpf4jnsgd1na2vs0mg"},{"bike_id":"ac9daff0-9141-4550-bfcf-52b4a421181e","system_id":"levelo_inurba_marseille","lat":43.32338,"lon":5.40623,"is_reserved":false,"is_disabled":false,"rental_uris":{"android":"levelo://app?vid=ac9daff0-9141-4550-bfcf-52b4a421181e","ios":"levelo://app?vid=ac9daff0-9141-4550-bfcf-52b4a421181e"},"vehicle_type_id":"4","last_reported":1749935358,"current_range_meters":9200,"station_id":"ce4bhq92rcd13ifvqhjg","pricing_plan_id":"cebpf4jnsgd1na2vs0mg"},{"bike_id":"b3806c5a-7341-4919-9f21-a243519af9a2","system_id":"levelo_inurba_marseille","lat":43.30786,"lon":5.37646,"is_reserved":false,"is_disabled":false,"rental_uris":{"android":"levelo://app?vid=b3806c5a-7341-4919-9f21-a243519af9a2","ios":"levelo://app?vid=b3806c5a-7341-4919-9f21-a243519af9a2"},"vehicle_type_id":"4","last_reported":1749935358,"current_range_meters":9600,"station_id":"ce4bgv92rcd13ifvqcq0","pricing_plan_id":"cebpf4jnsgd1na2vs0mg"},{"bike_id":"1d7dae03-c491-46a1-9f72-7827c0174827","system_id":"levelo_inurba_marseille","lat":43.27899,"lon":5.38013,"is_reserved":false,"is_disabled":false,"rental_uris":{"android":"levelo://app?vid=1d7dae03-c491-46a1-9f72-7827c0174827","ios":"levelo://app?vid=1d7dae03-c491-46a1-9f72-7827c0174827"},"vehicle_type_id":"4","last_reported":1749935358,"current_range_meters":9600,"station_id":"ce4bhf92rcd13ifvqf50","pricing_plan_id":"cebpf4jnsgd1na2vs0mg"},{"bike_id":"0a176c0c-78a3-474b-b917-3fc9a4ed2ff7","system_id":"levelo_inurba_marseille","lat":43.25576,"lon":5.3822,"is_reserved":false,"is_disabled":false,"rental_uris":{"android":"levelo://app?vid=0a176c0c-78a3-474b-b917-3fc9a4ed2ff7","ios":"levelo://app?vid=0a176c0c-78a3-474b-b917-3fc9a4ed2ff7"},"vehicle_type_id":"4","last_reported":1749935358,"current_range_meters":9600,"station_id":"ce4bhih2rcd13ifvqfs0","pricing_plan_id":"cebpf4jnsgd1na2vs0mg"},{"bike_id":"a2f36015-21f2-481d-bdf5-2ff7bc0351b0","system_id":"levelo_inurba_marseille","lat":43.26809,"lon":5.40294,"is_reserved":false,"is_disabled":false,"rental_uris":{"android":"levelo://app?vid=a2f36015-21f2-481d-bdf5-2ff7bc0351b0","ios":"levelo://app?vid=a2f36015-21f2-481d-bdf5-2ff7bc0351b0"},"vehicle_type_id":"4","last_reported":1749935358,"current_range_meters":9600,"station_id":"ce501612rcd8frsf0b60","pricing_plan_id":"cebpf4jnsgd1na2vs0mg"},{"bike_id":"16a9d94e-df49-4317-a497-c09173dd9bc8","system_id":"levelo_inurba_marseille","lat":43.26931,"lon":5.40267,"is_reserved":false,"is_disabled":false,"rental_uris":{"android":"levelo://app?vid=16a9d94e-df49-4317-a497-c09173dd9bc8","ios":"levelo://app?vid=16a9d94e-df49-4317-a497-c09173dd9bc8"},"vehicle_type_id":"4","last_reported":1749935358,"current_range_meters":9600,"station_id":"cjm6bp8fraef2m0cb0m0","pricing_plan_id":"cebpf4jnsgd1na2vs0mg"},{"bike_id":"c544f41c-f54d-4fcd-a8b6-97ab98a672c6","system_id":"levelo_inurba_marseille","lat":43.33013,"lon":5.42745,"is_reserved":false,"is_disabled":false,"rental_uris":{"android":"levelo://app?vid=c544f41c-f54d-4fcd-a8b6-97ab98a672c6","ios":"levelo://app?vid=c544f41c-f54d-4fcd-a8b6-97ab98a672c6"},"vehicle_type_id":"4","last_reported":1749935358,"current_range_meters":10000,"station_id":"","pricing_plan_id":"cebpf4jnsgd1na2vs0mg"},{"bike_id":"e3fa81da-d511-40e8-a5c2-0b453bd2b296","system_id":"levelo_inurba_marseille","lat":43.29263,"lon":5.38442,"is_reserved":false,"is_disabled":false,"rental_uris":{"android":"levelo://app?vid=e3fa81da-d511-40e8-a5c2-0b453bd2b296","ios":"levelo://app?vid=e3fa81da-d511-40e8-a5c2-0b453bd2b296"},"vehicle_type_id":"4","last_reported":1749935358,"current_range_meters":10000,"station_id":"ce4bh692rcd13ifvqea0","pricing_plan_id":"cebpf4jnsgd1na2vs0mg"},{"bike_id":"573f4d37-3f28-4b28-bbcb-1c080428515a","system_id":"levelo_inurba_marseille","lat":43.29265,"lon":5.38451,"is_reserved":false,"is_disabled":false,"rental_uris":{"android":"levelo://app?vid=573f4d37-3f28-4b28-bbcb-1c080428515a","ios":"levelo://app?vid=573f4d37-3f28-4b28-bbcb-1c080428515a"},"vehicle_type_id":"4","last_reported":1749935358,"current_range_meters":10000,"station_id":"ce4bh692rcd13ifvqea0","pricing_plan_id":"cebpf4jnsgd1na2vs0mg"},{"bike_id":"e955f50a-d506-450a-a344-de7984bcf7cf","system_id":"levelo_inurba_marseille","lat":43.30945,"lon":5.39039,"is_reserved":false,"is_disabled":false,"rental_uris":{"android":"levelo://app?vid=e955f50a-d506-450a-a344-de7984bcf7cf","ios":"levelo://app?vid=e955f50a-d506-450a-a344-de7984bcf7cf"},"vehicle_type_id":"4","last_reported":1749935358,"current_range_meters":10800,"station_id":"ce4bgup2rcd13ifvqco0","pricing_plan_id":"cebpf4jnsgd1na2vs0mg"},{"bike_id":"61fedd2a-7f42-49e9-81d2-6c0e42918926","system_id":"levelo_inurba_marseille","lat":43.30607,"lon":5.39354,"is_reserved":false,"is_disabled":false,"rental_uris":{"android":"levelo://app?vid=61fedd2a-7f42-49e9-81d2-6c0e42918926","ios":"levelo://app?vid=61fedd2a-7f42-49e9-81d2-6c0e42918926"},"vehicle_type_id":"4","last_reported":1749935358,"current_range_meters":10800,"station_id":"ce4bh0p2rcd13ifvqd80","pricing_plan_id":"cebpf4jnsgd1na2vs0mg"},{"bike_id":"33a5ae76-fedf-41f8-94fe-0f03745d1877","system_id":"levelo_inurba_marseille","lat":43.25586,"lon":5.38232,"is_reserved":false,"is_disabled":false,"rental_uris":{"android":"levelo://app?vid=33a5ae76-fedf-41f8-94fe-0f03745d1877","ios":"levelo://app?vid=33a5ae76-fedf-41f8-94fe-0f03745d1877"},"vehicle_type_id":"4","last_reported":1749935358,"current_range_meters":10800,"station_id":"ce4bhih2rcd13ifvqfs0","pricing_plan_id":"cebpf4jnsgd1na2vs0mg"},{"bike_id":"6d9af8d5-1d45-4d64-bc80-2e1353b5d8a7","system_id":"levelo_inurba_marseille","lat":43.250815,"lon":5.395265,"is_reserved":false,"is_disabled":false,"rental_uris":{"android":"levelo://app?vid=6d9af8d5-1d45-4d64-bc80-2e1353b5d8a7","ios":"levelo://app?vid=6d9af8d5-1d45-4d64-bc80-2e1353b5d8a7"},"vehicle_type_id":"4","last_reported":1749935358,"current_range_meters":11200,"station_id":"ce4bhm12rcd13ifvqgkg","pricing_plan_id":"cebpf4jnsgd1na2vs0mg"},{"bike_id":"2eb2516b-5f9f-4f58-8493-07049b393727","system_id":"levelo_inurba_marseille","lat":43.33732,"lon":5.39177,"is_reserved":false,"is_disabled":false,"rental_uris":{"android":"levelo://app?vid=2eb2516b-5f9f-4f58-8493-07049b393727","ios":"levelo://app?vid=2eb2516b-5f9f-4f58-8493-07049b393727"},"vehicle_type_id":"4","last_reported":1749935358,"current_range_meters":11200,"station_id":"ce4bhr92rcd13ifvqhsg","pricing_plan_id":"cebpf4jnsgd1na2vs0mg"},{"bike_id":"07f373f4-616c-497d-8898-738bc9fb3edf","system_id":"levelo_inurba_marseille","lat":43.26697,"lon":5.38271,"is_reserved":false,"is_disabled":false,"rental_uris":{"android":"levelo://app?vid=07f373f4-616c-497d-8898-738bc9fb3edf","ios":"levelo://app?vid=07f373f4-616c-497d-8898-738bc9fb3edf"},"vehicle_type_id":"4","last_reported":1749935358,"current_range_meters":11600,"station_id":"ce4bhg92rcd13ifvqf90","pricing_plan_id":"cebpf4jnsgd1na2vs0mg"},{"bike_id":"5a21e497-33bb-4066-baf7-e010c7ab35fe","system_id":"levelo_inurba_marseille","lat":43.24065,"lon":5.37766,"is_reserved":false,"is_disabled":false,"rental_uris":{"android":"levelo://app?vid=5a21e497-33bb-4066-baf7-e010c7ab35fe","ios":"levelo://app?vid=5a21e497-33bb-4066-baf7-e010c7ab35fe"},"vehicle_type_id":"4","last_reported":1749935358,"current_range_meters":11600,"station_id":"ce4bhnp2rcd13ifvqgvg","pricing_plan_id":"cebpf4jnsgd1na2vs0mg"},{"bike_id":"507c5d85-77a4-4cbc-a02c-82380c8bfef1","system_id":"levelo_inurba_marseille","lat":43.31119,"lon":5.37758,"is_reserved":false,"is_disabled":false,"rental_uris":{"android":"levelo://app?vid=507c5d85-77a4-4cbc-a02c-82380c8bfef1","ios":"levelo://app?vid=507c5d85-77a4-4cbc-a02c-82380c8bfef1"},"vehicle_type_id":"4","last_reported":1749935358,"current_range_meters":12000,"station_id":"ce4bgt92rcd13ifvqcg0","pricing_plan_id":"cebpf4jnsgd1na2vs0mg"},{"bike_id":"30365758-bd43-409a-9379-c2bb26679fb9","system_id":"levelo_inurba_marseille","lat":43.30952,"lon":5.39037,"is_reserved":false,"is_disabled":false,"rental_uris":{"android":"levelo://app?vid=30365758-bd43-409a-9379-c2bb26679fb9","ios":"levelo://app?vid=30365758-bd43-409a-9379-c2bb26679fb9"},"vehicle_type_id":"4","last_reported":1749935358,"current_range_meters":12000,"station_id":"ce4bgup2rcd13ifvqco0","pricing_plan_id":"cebpf4jnsgd1na2vs0mg"},{"bike_id":"fc8eb452-9c9e-4f40-817f-dde7bb032f32","system_id":"levelo_inurba_marseille","lat":43.25493,"lon":5.37648,"is_reserved":false,"is_disabled":false,"rental_uris":{"android":"levelo://app?vid=fc8eb452-9c9e-4f40-817f-dde7bb032f32","ios":"levelo://app?vid=fc8eb452-9c9e-4f40-817f-dde7bb032f32"},"vehicle_type_id":"4","last_reported":1749935358,"current_range_meters":12000,"station_id":"ce4bhh12rcd13ifvqff0","pricing_plan_id":"cebpf4jnsgd1na2vs0mg"},{"bike_id":"c7f540b7-0dd0-4b41-a00a-98e6c81cea53","system_id":"levelo_inurba_marseille","lat":43.31329,"lon":5.39691,"is_reserved":false,"is_disabled":false,"rental_uris":{"android":"levelo://app?vid=c7f540b7-0dd0-4b41-a00a-98e6c81cea53","ios":"levelo://app?vid=c7f540b7-0dd0-4b41-a00a-98e6c81cea53"},"vehicle_type_id":"4","last_reported":1749935358,"current_range_meters":12400,"station_id":"ce4bgvp2rcd13ifvqcu0","pricing_plan_id":"cebpf4jnsgd1na2vs0mg"},{"bike_id":"dbe1ca70-dcc2-44ca-825e-8088b4f52fb9","system_id":"levelo_inurba_marseille","lat":43.29254,"lon":5.40917,"is_reserved":false,"is_disabled":false,"rental_uris":{"android":"levelo://app?vid=dbe1ca70-dcc2-44ca-825e-8088b4f52fb9","ios":"levelo://app?vid=dbe1ca70-dcc2-44ca-825e-8088b4f52fb9"},"vehicle_type_id":"4","last_reported":1749935358,"current_range_meters":12400,"station_id":"ce4bh192rcd13ifvqdc0","pricing_plan_id":"cebpf4jnsgd1na2vs0mg"},{"bike_id":"e2dd35eb-136e-4b11-8732-83b6c0c50bfa","system_id":"levelo_inurba_marseille","lat":43.28974,"lon":5.37824,"is_reserved":false,"is_disabled":false,"rental_uris":{"android":"levelo://app?vid=e2dd35eb-136e-4b11-8732-83b6c0c50bfa","ios":"levelo://app?vid=e2dd35eb-136e-4b11-8732-83b6c0c50bfa"},"vehicle_type_id":"4","last_reported":1749935358,"current_range_meters":12400,"station_id":"ce4bh9p2rcd13ifvqed0","pricing_plan_id":"cebpf4jnsgd1na2vs0mg"},{"bike_id":"6cf880db-3a4e-4a2d-8893-dd03eae829d2","system_id":"levelo_inurba_marseille","lat":43.22934,"lon":5.35375,"is_reserved":false,"is_disabled":false,"rental_uris":{"android":"levelo://app?vid=6cf880db-3a4e-4a2d-8893-dd03eae829d2","ios":"levelo://app?vid=6cf880db-3a4e-4a2d-8893-dd03eae829d2"},"vehicle_type_id":"4","last_reported":1749935358,"current_range_meters":12400,"station_id":"cpo3532slgdg3j2ikp40","pricing_plan_id":"cebpf4jnsgd1na2vs0mg"},{"bike_id":"d2729172-f4bf-4eb8-9964-c217269a3492","system_id":"levelo_inurba_marseille","lat":43.21192,"lon":5.35073,"is_reserved":false,"is_disabled":false,"rental_uris":{"android":"levelo://app?vid=d2729172-f4bf-4eb8-9964-c217269a3492","ios":"levelo://app?vid=d2729172-f4bf-4eb8-9964-c217269a3492"},"vehicle_type_id":"4","last_reported":1749935358,"current_range_meters":12400,"station_id":"st_cvj6sg6p6f1abm77japg","pricing_plan_id":"cebpf4jnsgd1na2vs0mg"},{"bike_id":"bd081d41-5eed-4495-82ed-9e27cd112239","system_id":"levelo_inurba_marseille","lat":43.249488,"lon":5.396613,"is_reserved":false,"is_disabled":false,"rental_uris":{"android":"levelo://app?vid=bd081d41-5eed-4495-82ed-9e27cd112239","ios":"levelo://app?vid=bd081d41-5eed-4495-82ed-9e27cd112239"},"vehicle_type_id":"4","last_reported":1749935358,"current_range_meters":12800,"station_id":"","pricing_plan_id":"cebpf4jnsgd1na2vs0mg"},{"bike_id":"df1254ac-0833-4d4e-87e1-bdd09ea2bd36","system_id":"levelo_inurba_marseille","lat":43.29524,"lon":5.38416,"is_reserved":false,"is_disabled":false,"rental_uris":{"android":"levelo://app?vid=df1254ac-0833-4d4e-87e1-bdd09ea2bd36","ios":"levelo://app?vid=df1254ac-0833-4d4e-87e1-bdd09ea2bd36"},"vehicle_type_id":"4","last_reported":1749935358,"current_range_meters":12800,"station_id":"","pricing_plan_id":"cebpf4jnsgd1na2vs0mg"},{"bike_id":"05be4d55-79c4-4041-9bfa-07752692e32c","system_id":"levelo_inurba_marseille","lat":43.29468,"lon":5.37453,"is_reserved":false,"is_disabled":false,"rental_uris":{"android":"levelo://app?vid=05be4d55-79c4-4041-9bfa-07752692e32c","ios":"levelo://app?vid=05be4d55-79c4-4041-9bfa-07752692e32c"},"vehicle_type_id":"4","last_reported":1749935358,"current_range_meters":13600,"station_id":"","pricing_plan_id":"cebpf4jnsgd1na2vs0mg"},{"bike_id":"b3cf7036-4445-4933-93a1-6d24c7605eb0","system_id":"levelo_inurba_marseille","lat":43.29887,"lon":5.38892,"is_reserved":false,"is_disabled":false,"rental_uris":{"android":"levelo://app?vid=b3cf7036-4445-4933-93a1-6d24c7605eb0","ios":"levelo://app?vid=b3cf7036-4445-4933-93a1-6d24c7605eb0"},"vehicle_type_id":"4","last_reported":1749935358,"current_range_meters":13600,"station_id":"ce4bh392rcd13ifvqdl0","pricing_plan_id":"cebpf4jnsgd1na2vs0mg"},{"bike_id":"81256151-a439-4c90-b105-6fee68d29ad6","system_id":"levelo_inurba_marseille","lat":43.29034,"lon":5.37572,"is_reserved":false,"is_disabled":false,"rental_uris":{"android":"levelo://app?vid=81256151-a439-4c90-b105-6fee68d29ad6","ios":"levelo://app?vid=81256151-a439-4c90-b105-6fee68d29ad6"},"vehicle_type_id":"4","last_reported":1749935358,"current_range_meters":13600,"station_id":"ce4bh692rcd13ifvqe90","pricing_plan_id":"cebpf4jnsgd1na2vs0mg"},{"bike_id":"aa837dff-cab5-4edb-80ca-a30dd430e39c","system_id":"levelo_inurba_marseille","lat":43.25818,"lon":5.39436,"is_reserved":false,"is_disabled":false,"rental_uris":{"android":"levelo://app?vid=aa837dff-cab5-4edb-80ca-a30dd430e39c","ios":"levelo://app?vid=aa837dff-cab5-4edb-80ca-a30dd430e39c"},"vehicle_type_id":"4","last_reported":1749935358,"current_range_meters":13600,"station_id":"ce4bhip2rcd13ifvqft0","pricing_plan_id":"cebpf4jnsgd1na2vs0mg"},{"bike_id":"9714aba9-7977-43e7-a1e8-f5fc94147f75","system_id":"levelo_inurba_marseille","lat":43.26011,"lon":5.37566,"is_reserved":false,"is_disabled":false,"rental_uris":{"android":"levelo://app?vid=9714aba9-7977-43e7-a1e8-f5fc94147f75","ios":"levelo://app?vid=9714aba9-7977-43e7-a1e8-f5fc94147f75"},"vehicle_type_id":"4","last_reported":1749935358,"current_range_meters":14000,"station_id":"ce4bhgh2rcd13ifvqfa0","pricing_plan_id":"cebpf4jnsgd1na2vs0mg"},{"bike_id":"3ba53083-f560-4fb5-b3cc-01a71156c6ba","system_id":"levelo_inurba_marseille","lat":43.23194,"lon":5.35552,"is_reserved":false,"is_disabled":false,"rental_uris":{"android":"levelo://app?vid=3ba53083-f560-4fb5-b3cc-01a71156c6ba","ios":"levelo://app?vid=3ba53083-f560-4fb5-b3cc-01a71156c6ba"},"vehicle_type_id":"4","last_reported":1749935358,"current_range_meters":14000,"station_id":"ce4bhu92rcd13ifvqi70","pricing_plan_id":"cebpf4jnsgd1na2vs0mg"},{"bike_id":"6166370e-806c-4b49-8f65-b2c1c6b8835b","system_id":"levelo_inurba_marseille","lat":43.26026,"lon":5.3755,"is_reserved":false,"is_disabled":false,"rental_uris":{"android":"levelo://app?vid=6166370e-806c-4b49-8f65-b2c1c6b8835b","ios":"levelo://app?vid=6166370e-806c-4b49-8f65-b2c1c6b8835b"},"vehicle_type_id":"4","last_reported":1749935358,"current_range_meters":14400,"station_id":"ce4bhgh2rcd13ifvqfa0","pricing_plan_id":"cebpf4jnsgd1na2vs0mg"},{"bike_id":"a8283606-6fdf-49b2-991a-62bc6fc9988a","system_id":"levelo_inurba_marseille","lat":43.22525,"lon":5.34781,"is_reserved":false,"is_disabled":false,"rental_uris":{"android":"levelo://app?vid=a8283606-6fdf-49b2-991a-62bc6fc9988a","ios":"levelo://app?vid=a8283606-6fdf-49b2-991a-62bc6fc9988a"},"vehicle_type_id":"4","last_reported":1749935358,"current_range_meters":14400,"station_id":"st_cvj5dfep6f1abm77gieg","pricing_plan_id":"cebpf4jnsgd1na2vs0mg"},{"bike_id":"b3f8d6a0-7082-4c22-9f20-414b32dd61c5","system_id":"levelo_inurba_marseille","lat":43.24992,"lon":5.38938,"is_reserved":false,"is_disabled":false,"rental_uris":{"android":"levelo://app?vid=b3f8d6a0-7082-4c22-9f20-414b32dd61c5","ios":"levelo://app?vid=b3f8d6a0-7082-4c22-9f20-414b32dd61c5"},"vehicle_type_id":"4","last_reported":1749935358,"current_range_meters":14800,"station_id":"ce4bhgp2rcd13ifvqfd0","pricing_plan_id":"cebpf4jnsgd1na2vs0mg"},{"bike_id":"1474dbf8-b759-44c7-9714-f058282b340b","system_id":"levelo_inurba_marseille","lat":43.25728,"lon":5.41108,"is_reserved":false,"is_disabled":false,"rental_uris":{"android":"levelo://app?vid=1474dbf8-b759-44c7-9714-f058282b340b","ios":"levelo://app?vid=1474dbf8-b759-44c7-9714-f058282b340b"},"vehicle_type_id":"4","last_reported":1749935358,"current_range_meters":15200,"station_id":"ce4bhkp2rcd13ifvqgd0","pricing_plan_id":"cebpf4jnsgd1na2vs0mg"},{"bike_id":"18bd5c6d-42be-4cf0-ba1b-a02288bf2489","system_id":"levelo_inurba_marseille","lat":43.29986,"lon":5.38459,"is_reserved":false,"is_disabled":false,"rental_uris":{"android":"levelo://app?vid=18bd5c6d-42be-4cf0-ba1b-a02288bf2489","ios":"levelo://app?vid=18bd5c6d-42be-4cf0-ba1b-a02288bf2489"},"vehicle_type_id":"4","last_reported":1749935358,"current_range_meters":16000,"station_id":"ce4bgj92rcd13ifvqbd0","pricing_plan_id":"cebpf4jnsgd1na2vs0mg"},{"bike_id":"a5ee4afe-a8c2-43ea-a8c6-a0a152038509","system_id":"levelo_inurba_marseille","lat":43.25016,"lon":5.38968,"is_reserved":false,"is_disabled":false,"rental_uris":{"android":"levelo://app?vid=a5ee4afe-a8c2-43ea-a8c6-a0a152038509","ios":"levelo://app?vid=a5ee4afe-a8c2-43ea-a8c6-a0a152038509"},"vehicle_type_id":"4","last_reported":1749935358,"current_range_meters":16000,"station_id":"ce4bhgp2rcd13ifvqfd0","pricing_plan_id":"cebpf4jnsgd1na2vs0mg"},{"bike_id":"e0ad3636-20e7-4224-80cc-6296fe93901b","system_id":"levelo_inurba_marseille","lat":43.25592,"lon":5.39033,"is_reserved":false,"is_disabled":false,"rental_uris":{"android":"levelo://app?vid=e0ad3636-20e7-4224-80cc-6296fe93901b","ios":"levelo://app?vid=e0ad3636-20e7-4224-80cc-6296fe93901b"},"vehicle_type_id":"4","last_reported":1749935358,"current_range_meters":16000,"station_id":"ce4bhh92rcd13ifvqfj0","pricing_plan_id":"cebpf4jnsgd1na2vs0mg"},{"bike_id":"dc1e1319-b0f9-4bfb-9dd0-07f4d0186ec2","system_id":"levelo_inurba_marseille","lat":43.2621,"lon":5.40446,"is_reserved":false,"is_disabled":false,"rental_uris":{"android":"levelo://app?vid=dc1e1319-b0f9-4bfb-9dd0-07f4d0186ec2","ios":"levelo://app?vid=dc1e1319-b0f9-4bfb-9dd0-07f4d0186ec2"},"vehicle_type_id":"4","last_reported":1749935358,"current_range_meters":16000,"station_id":"ce4bhmh2rcd13ifvqgmg","pricing_plan_id":"cebpf4jnsgd1na2vs0mg"},{"bike_id":"e5b62466-ff9e-49e2-bd3e-be88bf15cda8","system_id":"levelo_inurba_marseille","lat":43.21197,"lon":5.35086,"is_reserved":false,"is_disabled":false,"rental_uris":{"android":"levelo://app?vid=e5b62466-ff9e-49e2-bd3e-be88bf15cda8","ios":"levelo://app?vid=e5b62466-ff9e-49e2-bd3e-be88bf15cda8"},"vehicle_type_id":"4","last_reported":1749935358,"current_range_meters":16000,"station_id":"st_cvj6sg6p6f1abm77japg","pricing_plan_id":"cebpf4jnsgd1na2vs0mg"},{"bike_id":"3b82d625-d425-49e4-bd80-e22d9edfc3f2","system_id":"levelo_inurba_marseille","lat":43.31364,"lon":5.38482,"is_reserved":false,"is_disabled":false,"rental_uris":{"android":"levelo://app?vid=3b82d625-d425-49e4-bd80-e22d9edfc3f2","ios":"levelo://app?vid=3b82d625-d425-49e4-bd80-e22d9edfc3f2"},"vehicle_type_id":"4","last_reported":1749935358,"current_range_meters":16400,"station_id":"ce4bgt92rcd13ifvqcf0","pricing_plan_id":"cebpf4jnsgd1na2vs0mg"},{"bike_id":"c6d59478-b8a0-43f1-9f72-528fba984cca","system_id":"levelo_inurba_marseille","lat":43.28345,"lon":5.381,"is_reserved":false,"is_disabled":false,"rental_uris":{"android":"levelo://app?vid=c6d59478-b8a0-43f1-9f72-528fba984cca","ios":"levelo://app?vid=c6d59478-b8a0-43f1-9f72-528fba984cca"},"vehicle_type_id":"4","last_reported":1749935358,"current_range_meters":16400,"station_id":"ce4bh412rcd13ifvqdr0","pricing_plan_id":"cebpf4jnsgd1na2vs0mg"},{"bike_id":"aa82331c-9057-434b-9166-f675b393064c","system_id":"levelo_inurba_marseille","lat":43.260304,"lon":5.375513,"is_reserved":false,"is_disabled":false,"rental_uris":{"android":"levelo://app?vid=aa82331c-9057-434b-9166-f675b393064c","ios":"levelo://app?vid=aa82331c-9057-434b-9166-f675b393064c"},"vehicle_type_id":"4","last_reported":1749935358,"current_range_meters":16400,"station_id":"ce4bhgh2rcd13ifvqfa0","pricing_plan_id":"cebpf4jnsgd1na2vs0mg"},{"bike_id":"529d1f7c-b5c5-40bf-9472-1ac2b9f75ca0","system_id":"levelo_inurba_marseille","lat":43.25023,"lon":5.38913,"is_reserved":false,"is_disabled":false,"rental_uris":{"android":"levelo://app?vid=529d1f7c-b5c5-40bf-9472-1ac2b9f75ca0","ios":"levelo://app?vid=529d1f7c-b5c5-40bf-9472-1ac2b9f75ca0"},"vehicle_type_id":"4","last_reported":1749935358,"current_range_meters":16400,"station_id":"ce4bhgp2rcd13ifvqfd0","pricing_plan_id":"cebpf4jnsgd1na2vs0mg"},{"bike_id":"a123e9fa-df7d-41fb-b2d5-2e4e345456f9","system_id":"levelo_inurba_marseille","lat":43.25335,"lon":5.37479,"is_reserved":false,"is_disabled":false,"rental_uris":{"android":"levelo://app?vid=a123e9fa-df7d-41fb-b2d5-2e4e345456f9","ios":"levelo://app?vid=a123e9fa-df7d-41fb-b2d5-2e4e345456f9"},"vehicle_type_id":"4","last_reported":1749935358,"current_range_meters":16800,"station_id":"","pricing_plan_id":"cebpf4jnsgd1na2vs0mg"},{"bike_id":"42346a91-a435-4cd2-83d5-e98e4ec35a74","system_id":"levelo_inurba_marseille","lat":43.295304,"lon":5.385406,"is_reserved":false,"is_disabled":false,"rental_uris":{"android":"levelo://app?vid=42346a91-a435-4cd2-83d5-e98e4ec35a74","ios":"levelo://app?vid=42346a91-a435-4cd2-83d5-e98e4ec35a74"},"vehicle_type_id":"4","last_reported":1749935358,"current_range_meters":16800,"station_id":"ce4bgih2rcd13ifvqba0","pricing_plan_id":"cebpf4jnsgd1na2vs0mg"},{"bike_id":"a576f29d-fe73-461b-919b-0c9ddfa5dceb","system_id":"levelo_inurba_marseille","lat":43.29963,"lon":5.38483,"is_reserved":false,"is_disabled":false,"rental_uris":{"android":"levelo://app?vid=a576f29d-fe73-461b-919b-0c9ddfa5dceb","ios":"levelo://app?vid=a576f29d-fe73-461b-919b-0c9ddfa5dceb"},"vehicle_type_id":"4","last_reported":1749935358,"current_range_meters":16800,"station_id":"ce4bgj92rcd13ifvqbd0","pricing_plan_id":"cebpf4jnsgd1na2vs0mg"},{"bike_id":"1276b60f-e7d8-4fcf-a503-5b0b2f0c74b0","system_id":"levelo_inurba_marseille","lat":43.30947,"lon":5.39021,"is_reserved":false,"is_disabled":false,"rental_uris":{"android":"levelo://app?vid=1276b60f-e7d8-4fcf-a503-5b0b2f0c74b0","ios":"levelo://app?vid=1276b60f-e7d8-4fcf-a503-5b0b2f0c74b0"},"vehicle_type_id":"4","last_reported":1749935358,"current_range_meters":16800,"station_id":"ce4bgup2rcd13ifvqco0","pricing_plan_id":"cebpf4jnsgd1na2vs0mg"},{"bike_id":"a44d25b6-5295-4e0b-9735-a03ce6611d99","system_id":"levelo_inurba_marseille","lat":43.28854,"lon":5.39308,"is_reserved":false,"is_disabled":false,"rental_uris":{"android":"levelo://app?vid=a44d25b6-5295-4e0b-9735-a03ce6611d99","ios":"levelo://app?vid=a44d25b6-5295-4e0b-9735-a03ce6611d99"},"vehicle_type_id":"4","last_reported":1749935358,"current_range_meters":16800,"station_id":"ce4bh2p2rcd13ifvqdi0","pricing_plan_id":"cebpf4jnsgd1na2vs0mg"},{"bike_id":"036fcc34-aefb-4cc5-a3f4-3c0bc1534c85","system_id":"levelo_inurba_marseille","lat":43.25092,"lon":5.39505,"is_reserved":false,"is_disabled":false,"rental_uris":{"android":"levelo://app?vid=036fcc34-aefb-4cc5-a3f4-3c0bc1534c85","ios":"levelo://app?vid=036fcc34-aefb-4cc5-a3f4-3c0bc1534c85"},"vehicle_type_id":"4","last_reported":1749935358,"current_range_meters":16800,"station_id":"ce4bhm12rcd13ifvqgkg","pricing_plan_id":"cebpf4jnsgd1na2vs0mg"},{"bike_id":"bcf8c37a-3b2c-4b4b-a33b-3ca9193b3a10","system_id":"levelo_inurba_marseille","lat":43.26385,"lon":5.37784,"is_reserved":false,"is_disabled":false,"rental_uris":{"android":"levelo://app?vid=bcf8c37a-3b2c-4b4b-a33b-3ca9193b3a10","ios":"levelo://app?vid=bcf8c37a-3b2c-4b4b-a33b-3ca9193b3a10"},"vehicle_type_id":"4","last_reported":1749935358,"current_range_meters":16800,"station_id":"st_d163nis0mtpqnht9uue0","pricing_plan_id":"cebpf4jnsgd1na2vs0mg"},{"bike_id":"c78d3428-9a54-4158-bcde-576d5f82207f","system_id":"levelo_inurba_marseille","lat":43.26354,"lon":5.37775,"is_reserved":false,"is_disabled":false,"rental_uris":{"android":"levelo://app?vid=c78d3428-9a54-4158-bcde-576d5f82207f","ios":"levelo://app?vid=c78d3428-9a54-4158-bcde-576d5f82207f"},"vehicle_type_id":"4","last_reported":1749935358,"current_range_meters":16800,"station_id":"st_d163nis0mtpqnht9uue0","pricing_plan_id":"cebpf4jnsgd1na2vs0mg"},{"bike_id":"3b98ea2c-81c6-4e60-9a2a-cafb0f3fcdc4","system_id":"levelo_inurba_marseille","lat":43.26364,"lon":5.37821,"is_reserved":false,"is_disabled":false,"rental_uris":{"android":"levelo://app?vid=3b98ea2c-81c6-4e60-9a2a-cafb0f3fcdc4","ios":"levelo://app?vid=3b98ea2c-81c6-4e60-9a2a-cafb0f3fcdc4"},"vehicle_type_id":"4","last_reported":1749935358,"current_range_meters":16800,"station_id":"st_d163nis0mtpqnht9uue0","pricing_plan_id":"cebpf4jnsgd1na2vs0mg"},{"bike_id":"2c7ba036-532a-4552-b7f1-5cd9cc98ab0b","system_id":"levelo_inurba_marseille","lat":43.26385,"lon":5.37811,"is_reserved":false,"is_disabled":false,"rental_uris":{"android":"levelo://app?vid=2c7ba036-532a-4552-b7f1-5cd9cc98ab0b","ios":"levelo://app?vid=2c7ba036-532a-4552-b7f1-5cd9cc98ab0b"},"vehicle_type_id":"4","last_reported":1749935358,"current_range_meters":16800,"station_id":"st_d163nis0mtpqnht9uue0","pricing_plan_id":"cebpf4jnsgd1na2vs0mg"},{"bike_id":"cae08f8a-9511-476d-9ad2-fc5efb61a8eb","system_id":"levelo_inurba_marseille","lat":43.21516,"lon":5.34664,"is_reserved":false,"is_disabled":false,"rental_uris":{"android":"levelo://app?vid=cae08f8a-9511-476d-9ad2-fc5efb61a8eb","ios":"levelo://app?vid=cae08f8a-9511-476d-9ad2-fc5efb61a8eb"},"vehicle_type_id":"4","last_reported":1749935358,"current_range_meters":17200,"station_id":"","pricing_plan_id":"cebpf4jnsgd1na2vs0mg"},{"bike_id":"2319ce10-a51c-42ad-ad50-827b68e4f300","system_id":"levelo_inurba_marseille","lat":43.29688,"lon":5.38017,"is_reserved":false,"is_disabled":false,"rental_uris":{"android":"levelo://app?vid=2319ce10-a51c-42ad-ad50-827b68e4f300","ios":"levelo://app?vid=2319ce10-a51c-42ad-ad50-827b68e4f300"},"vehicle_type_id":"4","last_reported":1749935358,"current_range_meters":17200,"station_id":"","pricing_plan_id":"cebpf4jnsgd1na2vs0mg"},{"bike_id":"88d22cf4-98b7-4ada-8f86-e70f62a6af5d","system_id":"levelo_inurba_marseille","lat":43.248,"lon":5.3745,"is_reserved":false,"is_disabled":false,"rental_uris":{"android":"levelo://app?vid=88d22cf4-98b7-4ada-8f86-e70f62a6af5d","ios":"levelo://app?vid=88d22cf4-98b7-4ada-8f86-e70f62a6af5d"},"vehicle_type_id":"4","last_reported":1749935358,"current_range_meters":17200,"station_id":"ce4bhgh2rcd13ifvqfb0","pricing_plan_id":"cebpf4jnsgd1na2vs0mg"},{"bike_id":"07dc84ff-dad0-4d5e-b1f0-f0047eef70fc","system_id":"levelo_inurba_marseille","lat":43.23186,"lon":5.3999,"is_reserved":false,"is_disabled":false,"rental_uris":{"android":"levelo://app?vid=07dc84ff-dad0-4d5e-b1f0-f0047eef70fc","ios":"levelo://app?vid=07dc84ff-dad0-4d5e-b1f0-f0047eef70fc"},"vehicle_type_id":"4","last_reported":1749935358,"current_range_meters":17200,"station_id":"ce4bhn12rcd13ifvqgqg","pricing_plan_id":"cebpf4jnsgd1na2vs0mg"},{"bike_id":"c57701fd-240a-4eb3-9997-7f8b76408c0a","system_id":"levelo_inurba_marseille","lat":43.27817,"lon":5.40684,"is_reserved":false,"is_disabled":false,"rental_uris":{"android":"levelo://app?vid=c57701fd-240a-4eb3-9997-7f8b76408c0a","ios":"levelo://app?vid=c57701fd-240a-4eb3-9997-7f8b76408c0a"},"vehicle_type_id":"4","last_reported":1749935358,"current_range_meters":17200,"station_id":"ce4bhnh2rcd13ifvqgtg","pricing_plan_id":"cebpf4jnsgd1na2vs0mg"},{"bike_id":"af54e57f-f161-4317-9bd4-1d43f8702955","system_id":"levelo_inurba_marseille","lat":43.23195,"lon":5.3556,"is_reserved":false,"is_disabled":false,"rental_uris":{"android":"levelo://app?vid=af54e57f-f161-4317-9bd4-1d43f8702955","ios":"levelo://app?vid=af54e57f-f161-4317-9bd4-1d43f8702955"},"vehicle_type_id":"4","last_reported":1749935358,"current_range_meters":17200,"station_id":"ce4bhu92rcd13ifvqi70","pricing_plan_id":"cebpf4jnsgd1na2vs0mg"},{"bike_id":"14d0164c-2b6b-47b1-b99c-fbb11a27acc4","system_id":"levelo_inurba_marseille","lat":43.26364,"lon":5.37818,"is_reserved":false,"is_disabled":false,"rental_uris":{"android":"levelo://app?vid=14d0164c-2b6b-47b1-b99c-fbb11a27acc4","ios":"levelo://app?vid=14d0164c-2b6b-47b1-b99c-fbb11a27acc4"},"vehicle_type_id":"4","last_reported":1749935358,"current_range_meters":17200,"station_id":"st_d163nis0mtpqnht9uue0","pricing_plan_id":"cebpf4jnsgd1na2vs0mg"},{"bike_id":"5e7b60df-e8be-4a9e-806b-ffe82e954588","system_id":"levelo_inurba_marseille","lat":43.26362,"lon":5.37824,"is_reserved":false,"is_disabled":false,"rental_uris":{"android":"levelo://app?vid=5e7b60df-e8be-4a9e-806b-ffe82e954588","ios":"levelo://app?vid=5e7b60df-e8be-4a9e-806b-ffe82e954588"},"vehicle_type_id":"4","last_reported":1749935358,"current_range_meters":17200,"station_id":"st_d163nis0mtpqnht9uue0","pricing_plan_id":"cebpf4jnsgd1na2vs0mg"},{"bike_id":"d0ebfe61-7cfd-4ed0-925e-a7c041ecd597","system_id":"levelo_inurba_marseille","lat":43.26351,"lon":5.37813,"is_reserved":false,"is_disabled":false,"rental_uris":{"android":"levelo://app?vid=d0ebfe61-7cfd-4ed0-925e-a7c041ecd597","ios":"levelo://app?vid=d0ebfe61-7cfd-4ed0-925e-a7c041ecd597"},"vehicle_type_id":"4","last_reported":1749935358,"current_range_meters":17200,"station_id":"st_d163nis0mtpqnht9uue0","pricing_plan_id":"cebpf4jnsgd1na2vs0mg"},{"bike_id":"669e7e30-b548-4707-bd62-29dcf1e50fac","system_id":"levelo_inurba_marseille","lat":43.30796,"lon":5.38157,"is_reserved":false,"is_disabled":false,"rental_uris":{"android":"levelo://app?vid=669e7e30-b548-4707-bd62-29dcf1e50fac","ios":"levelo://app?vid=669e7e30-b548-4707-bd62-29dcf1e50fac"},"vehicle_type_id":"4","last_reported":1749935358,"current_range_meters":17600,"station_id":"ce4bgt12rcd13ifvqce0","pricing_plan_id":"cebpf4jnsgd1na2vs0mg"},{"bike_id":"6a9b7a23-0b3b-4503-b16f-b8e7322c49be","system_id":"levelo_inurba_marseille","lat":43.29286,"lon":5.40115,"is_reserved":false,"is_disabled":false,"rental_uris":{"android":"levelo://app?vid=6a9b7a23-0b3b-4503-b16f-b8e7322c49be","ios":"levelo://app?vid=6a9b7a23-0b3b-4503-b16f-b8e7322c49be"},"vehicle_type_id":"4","last_reported":1749935358,"current_range_meters":17600,"station_id":"ce4bh312rcd13ifvqdk0","pricing_plan_id":"cebpf4jnsgd1na2vs0mg"},{"bike_id":"9e6d838f-f8e6-4902-8cdd-7c766c7443fa","system_id":"levelo_inurba_marseille","lat":43.24993,"lon":5.38931,"is_reserved":false,"is_disabled":false,"rental_uris":{"android":"levelo://app?vid=9e6d838f-f8e6-4902-8cdd-7c766c7443fa","ios":"levelo://app?vid=9e6d838f-f8e6-4902-8cdd-7c766c7443fa"},"vehicle_type_id":"4","last_reported":1749935358,"current_range_meters":17600,"station_id":"ce4bhgp2rcd13ifvqfd0","pricing_plan_id":"cebpf4jnsgd1na2vs0mg"},{"bike_id":"3f96fac2-85e8-4f01-be6f-bf8bd1d9101a","system_id":"levelo_inurba_marseille","lat":43.2638,"lon":5.37825,"is_reserved":false,"is_disabled":false,"rental_uris":{"android":"levelo://app?vid=3f96fac2-85e8-4f01-be6f-bf8bd1d9101a","ios":"levelo://app?vid=3f96fac2-85e8-4f01-be6f-bf8bd1d9101a"},"vehicle_type_id":"4","last_reported":1749935358,"current_range_meters":17600,"station_id":"st_d163nis0mtpqnht9uue0","pricing_plan_id":"cebpf4jnsgd1na2vs0mg"},{"bike_id":"899fd811-d1bc-4d8d-b268-e01dd9f545bf","system_id":"levelo_inurba_marseille","lat":43.26366,"lon":5.37819,"is_reserved":false,"is_disabled":false,"rental_uris":{"android":"levelo://app?vid=899fd811-d1bc-4d8d-b268-e01dd9f545bf","ios":"levelo://app?vid=899fd811-d1bc-4d8d-b268-e01dd9f545bf"},"vehicle_type_id":"4","last_reported":1749935358,"current_range_meters":17600,"station_id":"st_d163nis0mtpqnht9uue0","pricing_plan_id":"cebpf4jnsgd1na2vs0mg"},{"bike_id":"db925a1b-86b2-4561-9864-5ddf8b5f2239","system_id":"levelo_inurba_marseille","lat":43.26365,"lon":5.37817,"is_reserved":false,"is_disabled":false,"rental_uris":{"android":"levelo://app?vid=db925a1b-86b2-4561-9864-5ddf8b5f2239","ios":"levelo://app?vid=db925a1b-86b2-4561-9864-5ddf8b5f2239"},"vehicle_type_id":"4","last_reported":1749935358,"current_range_meters":17600,"station_id":"st_d163nis0mtpqnht9uue0","pricing_plan_id":"cebpf4jnsgd1na2vs0mg"},{"bike_id":"0b5f4564-1867-461b-85ee-6882d0d9f1fa","system_id":"levelo_inurba_marseille","lat":43.26379,"lon":5.37809,"is_reserved":false,"is_disabled":false,"rental_uris":{"android":"levelo://app?vid=0b5f4564-1867-461b-85ee-6882d0d9f1fa","ios":"levelo://app?vid=0b5f4564-1867-461b-85ee-6882d0d9f1fa"},"vehicle_type_id":"4","last_reported":1749935358,"current_range_meters":17600,"station_id":"st_d163nis0mtpqnht9uue0","pricing_plan_id":"cebpf4jnsgd1na2vs0mg"},{"bike_id":"eb1f9d44-bc44-48c8-9994-b8634d2b18ef","system_id":"levelo_inurba_marseille","lat":43.31075,"lon":5.38702,"is_reserved":false,"is_disabled":false,"rental_uris":{"android":"levelo://app?vid=eb1f9d44-bc44-48c8-9994-b8634d2b18ef","ios":"levelo://app?vid=eb1f9d44-bc44-48c8-9994-b8634d2b18ef"},"vehicle_type_id":"4","last_reported":1749935358,"current_range_meters":18000,"station_id":"","pricing_plan_id":"cebpf4jnsgd1na2vs0mg"},{"bike_id":"0095d0ae-71e7-429b-be55-ddac7351da71","system_id":"levelo_inurba_marseille","lat":43.29529,"lon":5.3855,"is_reserved":false,"is_disabled":false,"rental_uris":{"android":"levelo://app?vid=0095d0ae-71e7-429b-be55-ddac7351da71","ios":"levelo://app?vid=0095d0ae-71e7-429b-be55-ddac7351da71"},"vehicle_type_id":"4","last_reported":1749935358,"current_range_meters":18000,"station_id":"ce4bgih2rcd13ifvqba0","pricing_plan_id":"cebpf4jnsgd1na2vs0mg"},{"bike_id":"e86f99f4-70a1-4e19-bc7f-a27b0de845fe","system_id":"levelo_inurba_marseille","lat":43.29985,"lon":5.38515,"is_reserved":false,"is_disabled":false,"rental_uris":{"android":"levelo://app?vid=e86f99f4-70a1-4e19-bc7f-a27b0de845fe","ios":"levelo://app?vid=e86f99f4-70a1-4e19-bc7f-a27b0de845fe"},"vehicle_type_id":"4","last_reported":1749935358,"current_range_meters":18000,"station_id":"ce4bgj92rcd13ifvqbd0","pricing_plan_id":"cebpf4jnsgd1na2vs0mg"},{"bike_id":"684319bf-7686-497d-b324-f17f8674723f","system_id":"levelo_inurba_marseille","lat":43.29264,"lon":5.38433,"is_reserved":false,"is_disabled":false,"rental_uris":{"android":"levelo://app?vid=684319bf-7686-497d-b324-f17f8674723f","ios":"levelo://app?vid=684319bf-7686-497d-b324-f17f8674723f"},"vehicle_type_id":"4","last_reported":1749935358,"current_range_meters":18000,"station_id":"ce4bh692rcd13ifvqea0","pricing_plan_id":"cebpf4jnsgd1na2vs0mg"},{"bike_id":"3639bad5-2c95-4c44-ab5f-e63b0d7da8ae","system_id":"levelo_inurba_marseille","lat":43.26552,"lon":5.37288,"is_reserved":false,"is_disabled":false,"rental_uris":{"android":"levelo://app?vid=3639bad5-2c95-4c44-ab5f-e63b0d7da8ae","ios":"levelo://app?vid=3639bad5-2c95-4c44-ab5f-e63b0d7da8ae"},"vehicle_type_id":"4","last_reported":1749935358,"current_range_meters":18000,"station_id":"ce4bhg12rcd13ifvqf70","pricing_plan_id":"cebpf4jnsgd1na2vs0mg"},{"bike_id":"83c0c99d-9206-4f6f-8bd2-edceb1772c91","system_id":"levelo_inurba_marseille","lat":43.26688,"lon":5.38276,"is_reserved":false,"is_disabled":false,"rental_uris":{"android":"levelo://app?vid=83c0c99d-9206-4f6f-8bd2-edceb1772c91","ios":"levelo://app?vid=83c0c99d-9206-4f6f-8bd2-edceb1772c91"},"vehicle_type_id":"4","last_reported":1749935358,"current_range_meters":18000,"station_id":"ce4bhg92rcd13ifvqf90","pricing_plan_id":"cebpf4jnsgd1na2vs0mg"},{"bike_id":"15ca4f83-8df1-4b73-bad2-b0f1f9fd9e02","system_id":"levelo_inurba_marseille","lat":43.23051,"lon":5.35493,"is_reserved":false,"is_disabled":false,"rental_uris":{"android":"levelo://app?vid=15ca4f83-8df1-4b73-bad2-b0f1f9fd9e02","ios":"levelo://app?vid=15ca4f83-8df1-4b73-bad2-b0f1f9fd9e02"},"vehicle_type_id":"4","last_reported":1749935358,"current_range_meters":18000,"station_id":"cpo3342slgdg3j2ifvpg","pricing_plan_id":"cebpf4jnsgd1na2vs0mg"},{"bike_id":"2526c19e-ecff-490d-8152-01d927713748","system_id":"levelo_inurba_marseille","lat":43.26368,"lon":5.3781,"is_reserved":false,"is_disabled":false,"rental_uris":{"android":"levelo://app?vid=2526c19e-ecff-490d-8152-01d927713748","ios":"levelo://app?vid=2526c19e-ecff-490d-8152-01d927713748"},"vehicle_type_id":"4","last_reported":1749935358,"current_range_meters":18000,"station_id":"st_d163nis0mtpqnht9uue0","pricing_plan_id":"cebpf4jnsgd1na2vs0mg"},{"bike_id":"a6883894-8f8e-47c4-805b-9835904847e6","system_id":"levelo_inurba_marseille","lat":43.26366,"lon":5.37831,"is_reserved":false,"is_disabled":false,"rental_uris":{"android":"levelo://app?vid=a6883894-8f8e-47c4-805b-9835904847e6","ios":"levelo://app?vid=a6883894-8f8e-47c4-805b-9835904847e6"},"vehicle_type_id":"4","last_reported":1749935358,"current_range_meters":18000,"station_id":"st_d163nis0mtpqnht9uue0","pricing_plan_id":"cebpf4jnsgd1na2vs0mg"},{"bike_id":"8a539813-0128-40a6-959e-6ab3cf1a257f","system_id":"levelo_inurba_marseille","lat":43.3095,"lon":5.39034,"is_reserved":false,"is_disabled":false,"rental_uris":{"android":"levelo://app?vid=8a539813-0128-40a6-959e-6ab3cf1a257f","ios":"levelo://app?vid=8a539813-0128-40a6-959e-6ab3cf1a257f"},"vehicle_type_id":"4","last_reported":1749935358,"current_range_meters":18800,"station_id":"ce4bgup2rcd13ifvqco0","pricing_plan_id":"cebpf4jnsgd1na2vs0mg"},{"bike_id":"3da05fcf-ac62-478a-b466-a3fb2570ba5e","system_id":"levelo_inurba_marseille","lat":43.29255,"lon":5.40912,"is_reserved":false,"is_disabled":false,"rental_uris":{"android":"levelo://app?vid=3da05fcf-ac62-478a-b466-a3fb2570ba5e","ios":"levelo://app?vid=3da05fcf-ac62-478a-b466-a3fb2570ba5e"},"vehicle_type_id":"4","last_reported":1749935358,"current_range_meters":18800,"station_id":"ce4bh192rcd13ifvqdc0","pricing_plan_id":"cebpf4jnsgd1na2vs0mg"},{"bike_id":"0e2f59ae-99f1-406c-9e87-9d9da020f0bb","system_id":"levelo_inurba_marseille","lat":43.28713,"lon":5.374,"is_reserved":false,"is_disabled":false,"rental_uris":{"android":"levelo://app?vid=0e2f59ae-99f1-406c-9e87-9d9da020f0bb","ios":"levelo://app?vid=0e2f59ae-99f1-406c-9e87-9d9da020f0bb"},"vehicle_type_id":"4","last_reported":1749935358,"current_range_meters":18800,"station_id":"ce4bh3p2rcd13ifvqdq0","pricing_plan_id":"cebpf4jnsgd1na2vs0mg"},{"bike_id":"b020067b-1166-4f5c-91b2-b497216c294b","system_id":"levelo_inurba_marseille","lat":43.292613,"lon":5.384215,"is_reserved":false,"is_disabled":false,"rental_uris":{"android":"levelo://app?vid=b020067b-1166-4f5c-91b2-b497216c294b","ios":"levelo://app?vid=b020067b-1166-4f5c-91b2-b497216c294b"},"vehicle_type_id":"4","last_reported":1749935358,"current_range_meters":18800,"station_id":"ce4bh692rcd13ifvqea0","pricing_plan_id":"cebpf4jnsgd1na2vs0mg"},{"bike_id":"2fa5c7cd-5a28-4eba-893b-f7d802f81f36","system_id":"levelo_inurba_marseille","lat":43.26362,"lon":5.37809,"is_reserved":false,"is_disabled":false,"rental_uris":{"android":"levelo://app?vid=2fa5c7cd-5a28-4eba-893b-f7d802f81f36","ios":"levelo://app?vid=2fa5c7cd-5a28-4eba-893b-f7d802f81f36"},"vehicle_type_id":"4","last_reported":1749935358,"current_range_meters":18800,"station_id":"st_d163nis0mtpqnht9uue0","pricing_plan_id":"cebpf4jnsgd1na2vs0mg"},{"bike_id":"871a0b49-9483-4bb4-b0dc-03125b157abb","system_id":"levelo_inurba_marseille","lat":43.26362,"lon":5.3781,"is_reserved":false,"is_disabled":false,"rental_uris":{"android":"levelo://app?vid=871a0b49-9483-4bb4-b0dc-03125b157abb","ios":"levelo://app?vid=871a0b49-9483-4bb4-b0dc-03125b157abb"},"vehicle_type_id":"4","last_reported":1749935358,"current_range_meters":18800,"station_id":"st_d163nis0mtpqnht9uue0","pricing_plan_id":"cebpf4jnsgd1na2vs0mg"},{"bike_id":"a2ee33d1-34a7-4be3-8403-4efb3531b2d7","system_id":"levelo_inurba_marseille","lat":43.26361,"lon":5.37812,"is_reserved":false,"is_disabled":false,"rental_uris":{"android":"levelo://app?vid=a2ee33d1-34a7-4be3-8403-4efb3531b2d7","ios":"levelo://app?vid=a2ee33d1-34a7-4be3-8403-4efb3531b2d7"},"vehicle_type_id":"4","last_reported":1749935358,"current_range_meters":18800,"station_id":"st_d163nis0mtpqnht9uue0","pricing_plan_id":"cebpf4jnsgd1na2vs0mg"},{"bike_id":"1eb13728-43c8-4838-98d4-e33c681bfcaf","system_id":"levelo_inurba_marseille","lat":43.2926,"lon":5.4199,"is_reserved":false,"is_disabled":false,"rental_uris":{"android":"levelo://app?vid=1eb13728-43c8-4838-98d4-e33c681bfcaf","ios":"levelo://app?vid=1eb13728-43c8-4838-98d4-e33c681bfcaf"},"vehicle_type_id":"4","last_reported":1749935358,"current_range_meters":19200,"station_id":"","pricing_plan_id":"cebpf4jnsgd1na2vs0mg"},{"bike_id":"51c5e4a5-dcff-45b1-b7f9-5daefba3310a","system_id":"levelo_inurba_marseille","lat":43.336,"lon":5.41023,"is_reserved":false,"is_disabled":false,"rental_uris":{"android":"levelo://app?vid=51c5e4a5-dcff-45b1-b7f9-5daefba3310a","ios":"levelo://app?vid=51c5e4a5-dcff-45b1-b7f9-5daefba3310a"},"vehicle_type_id":"4","last_reported":1749935358,"current_range_meters":19200,"station_id":"ce4bhqh2rcd13ifvqhmg","pricing_plan_id":"cebpf4jnsgd1na2vs0mg"},{"bike_id":"deca16ca-262a-4c76-98c5-637294ebe620","system_id":"levelo_inurba_marseille","lat":43.26364,"lon":5.37796,"is_reserved":false,"is_disabled":false,"rental_uris":{"android":"levelo://app?vid=deca16ca-262a-4c76-98c5-637294ebe620","ios":"levelo://app?vid=deca16ca-262a-4c76-98c5-637294ebe620"},"vehicle_type_id":"4","last_reported":1749935358,"current_range_meters":19200,"station_id":"st_d163nis0mtpqnht9uue0","pricing_plan_id":"cebpf4jnsgd1na2vs0mg"},{"bike_id":"e9332ad2-737e-40a4-bbf6-659ec43de235","system_id":"levelo_inurba_marseille","lat":43.26365,"lon":5.37819,"is_reserved":false,"is_disabled":false,"rental_uris":{"android":"levelo://app?vid=e9332ad2-737e-40a4-bbf6-659ec43de235","ios":"levelo://app?vid=e9332ad2-737e-40a4-bbf6-659ec43de235"},"vehicle_type_id":"4","last_reported":1749935358,"current_range_meters":19200,"station_id":"st_d163nis0mtpqnht9uue0","pricing_plan_id":"cebpf4jnsgd1na2vs0mg"},{"bike_id":"4797f275-2102-4ac8-863e-ba36ff09d955","system_id":"levelo_inurba_marseille","lat":43.26368,"lon":5.37828,"is_reserved":false,"is_disabled":false,"rental_uris":{"android":"levelo://app?vid=4797f275-2102-4ac8-863e-ba36ff09d955","ios":"levelo://app?vid=4797f275-2102-4ac8-863e-ba36ff09d955"},"vehicle_type_id":"4","last_reported":1749935358,"current_range_meters":19200,"station_id":"st_d163nis0mtpqnht9uue0","pricing_plan_id":"cebpf4jnsgd1na2vs0mg"},{"bike_id":"74145430-fe54-41b2-ae9b-ab0a37b1f9aa","system_id":"levelo_inurba_marseille","lat":43.273777,"lon":5.362576,"is_reserved":false,"is_disabled":false,"rental_uris":{"android":"levelo://app?vid=74145430-fe54-41b2-ae9b-ab0a37b1f9aa","ios":"levelo://app?vid=74145430-fe54-41b2-ae9b-ab0a37b1f9aa"},"vehicle_type_id":"4","last_reported":1749935358,"current_range_meters":19600,"station_id":"","pricing_plan_id":"cebpf4jnsgd1na2vs0mg"},{"bike_id":"38e08ec6-738b-4a04-a092-dec10c6891d3","system_id":"levelo_inurba_marseille","lat":43.26873,"lon":5.40676,"is_reserved":false,"is_disabled":false,"rental_uris":{"android":"levelo://app?vid=38e08ec6-738b-4a04-a092-dec10c6891d3","ios":"levelo://app?vid=38e08ec6-738b-4a04-a092-dec10c6891d3"},"vehicle_type_id":"4","last_reported":1749935358,"current_range_meters":19600,"station_id":"","pricing_plan_id":"cebpf4jnsgd1na2vs0mg"},{"bike_id":"c92619e9-9f05-45dc-b624-7adfd6b5f0d8","system_id":"levelo_inurba_marseille","lat":43.26568,"lon":5.38985,"is_reserved":false,"is_disabled":false,"rental_uris":{"android":"levelo://app?vid=c92619e9-9f05-45dc-b624-7adfd6b5f0d8","ios":"levelo://app?vid=c92619e9-9f05-45dc-b624-7adfd6b5f0d8"},"vehicle_type_id":"4","last_reported":1749935358,"current_range_meters":19600,"station_id":"ce4bhe12rcd13ifvqf30","pricing_plan_id":"cebpf4jnsgd1na2vs0mg"},{"bike_id":"a0b432a2-044f-4537-b06e-442ddd3e2347","system_id":"levelo_inurba_marseille","lat":43.25009,"lon":5.38922,"is_reserved":false,"is_disabled":false,"rental_uris":{"android":"levelo://app?vid=a0b432a2-044f-4537-b06e-442ddd3e2347","ios":"levelo://app?vid=a0b432a2-044f-4537-b06e-442ddd3e2347"},"vehicle_type_id":"4","last_reported":1749935358,"current_range_meters":19600,"station_id":"ce4bhgp2rcd13ifvqfd0","pricing_plan_id":"cebpf4jnsgd1na2vs0mg"},{"bike_id":"80b18225-e4c1-4171-beae-c428f86ccdfe","system_id":"levelo_inurba_marseille","lat":43.32062,"lon":5.41537,"is_reserved":false,"is_disabled":false,"rental_uris":{"android":"levelo://app?vid=80b18225-e4c1-4171-beae-c428f86ccdfe","ios":"levelo://app?vid=80b18225-e4c1-4171-beae-c428f86ccdfe"},"vehicle_type_id":"4","last_reported":1749935358,"current_range_meters":19600,"station_id":"ce4bhq92rcd13ifvqhkg","pricing_plan_id":"cebpf4jnsgd1na2vs0mg"},{"bike_id":"4c237efd-f329-4afe-9c30-3627d354acf4","system_id":"levelo_inurba_marseille","lat":43.26356,"lon":5.37817,"is_reserved":false,"is_disabled":false,"rental_uris":{"android":"levelo://app?vid=4c237efd-f329-4afe-9c30-3627d354acf4","ios":"levelo://app?vid=4c237efd-f329-4afe-9c30-3627d354acf4"},"vehicle_type_id":"4","last_reported":1749935358,"current_range_meters":19600,"station_id":"st_d163nis0mtpqnht9uue0","pricing_plan_id":"cebpf4jnsgd1na2vs0mg"},{"bike_id":"826f0ca3-e5fc-4cf8-8696-cb1fe62172b3","system_id":"levelo_inurba_marseille","lat":43.211925,"lon":5.350771,"is_reserved":false,"is_disabled":false,"rental_uris":{"android":"levelo://app?vid=826f0ca3-e5fc-4cf8-8696-cb1fe62172b3","ios":"levelo://app?vid=826f0ca3-e5fc-4cf8-8696-cb1fe62172b3"},"vehicle_type_id":"4","last_reported":1749935358,"current_range_meters":20000,"station_id":"","pricing_plan_id":"cebpf4jnsgd1na2vs0mg"},{"bike_id":"877ec881-e120-45bd-8e7d-bf2b52475d78","system_id":"levelo_inurba_marseille","lat":43.276713,"lon":5.357403,"is_reserved":false,"is_disabled":false,"rental_uris":{"android":"levelo://app?vid=877ec881-e120-45bd-8e7d-bf2b52475d78","ios":"levelo://app?vid=877ec881-e120-45bd-8e7d-bf2b52475d78"},"vehicle_type_id":"4","last_reported":1749935358,"current_range_meters":20000,"station_id":"","pricing_plan_id":"cebpf4jnsgd1na2vs0mg"},{"bike_id":"bc855b35-57c6-4197-82c4-1fc1caaa0a4d","system_id":"levelo_inurba_marseille","lat":43.2953,"lon":5.38534,"is_reserved":false,"is_disabled":false,"rental_uris":{"android":"levelo://app?vid=bc855b35-57c6-4197-82c4-1fc1caaa0a4d","ios":"levelo://app?vid=bc855b35-57c6-4197-82c4-1fc1caaa0a4d"},"vehicle_type_id":"4","last_reported":1749935358,"current_range_meters":20000,"station_id":"ce4bgih2rcd13ifvqba0","pricing_plan_id":"cebpf4jnsgd1na2vs0mg"},{"bike_id":"6f68abb1-bc75-41a7-9945-61822848b28a","system_id":"levelo_inurba_marseille","lat":43.26023,"lon":5.37543,"is_reserved":false,"is_disabled":false,"rental_uris":{"android":"levelo://app?vid=6f68abb1-bc75-41a7-9945-61822848b28a","ios":"levelo://app?vid=6f68abb1-bc75-41a7-9945-61822848b28a"},"vehicle_type_id":"4","last_reported":1749935358,"current_range_meters":20000,"station_id":"ce4bhgh2rcd13ifvqfa0","pricing_plan_id":"cebpf4jnsgd1na2vs0mg"},{"bike_id":"761887df-5640-40e5-bdcb-4565aa776b42","system_id":"levelo_inurba_marseille","lat":43.32004,"lon":5.38147,"is_reserved":false,"is_disabled":false,"rental_uris":{"android":"levelo://app?vid=761887df-5640-40e5-bdcb-4565aa776b42","ios":"levelo://app?vid=761887df-5640-40e5-bdcb-4565aa776b42"},"vehicle_type_id":"4","last_reported":1749935358,"current_range_meters":20000,"station_id":"ce4bhr12rcd13ifvqhpg","pricing_plan_id":"cebpf4jnsgd1na2vs0mg"},{"bike_id":"32ff7e8f-be3b-497e-9e8f-337d799b73fd","system_id":"levelo_inurba_marseille","lat":43.26367,"lon":5.37821,"is_reserved":false,"is_disabled":false,"rental_uris":{"android":"levelo://app?vid=32ff7e8f-be3b-497e-9e8f-337d799b73fd","ios":"levelo://app?vid=32ff7e8f-be3b-497e-9e8f-337d799b73fd"},"vehicle_type_id":"4","last_reported":1749935358,"current_range_meters":20000,"station_id":"st_d163nis0mtpqnht9uue0","pricing_plan_id":"cebpf4jnsgd1na2vs0mg"},{"bike_id":"c4991758-f840-4623-bc3b-f162af640fda","system_id":"levelo_inurba_marseille","lat":43.26391,"lon":5.37793,"is_reserved":false,"is_disabled":false,"rental_uris":{"android":"levelo://app?vid=c4991758-f840-4623-bc3b-f162af640fda","ios":"levelo://app?vid=c4991758-f840-4623-bc3b-f162af640fda"},"vehicle_type_id":"4","last_reported":1749935358,"current_range_meters":20000,"station_id":"st_d163nis0mtpqnht9uue0","pricing_plan_id":"cebpf4jnsgd1na2vs0mg"},{"bike_id":"fbf82225-df77-48c8-86a4-9259e107af25","system_id":"levelo_inurba_marseille","lat":43.29528,"lon":5.38538,"is_reserved":false,"is_disabled":false,"rental_uris":{"android":"levelo://app?vid=fbf82225-df77-48c8-86a4-9259e107af25","ios":"levelo://app?vid=fbf82225-df77-48c8-86a4-9259e107af25"},"vehicle_type_id":"4","last_reported":1749935358,"current_range_meters":20400,"station_id":"ce4bgih2rcd13ifvqba0","pricing_plan_id":"cebpf4jnsgd1na2vs0mg"},{"bike_id":"9e083605-49ae-4934-8e58-9726e7a2a9cb","system_id":"levelo_inurba_marseille","lat":43.31061,"lon":5.38341,"is_reserved":false,"is_disabled":false,"rental_uris":{"android":"levelo://app?vid=9e083605-49ae-4934-8e58-9726e7a2a9cb","ios":"levelo://app?vid=9e083605-49ae-4934-8e58-9726e7a2a9cb"},"vehicle_type_id":"4","last_reported":1749935358,"current_range_meters":20400,"station_id":"ce4bgv92rcd13ifvqcr0","pricing_plan_id":"cebpf4jnsgd1na2vs0mg"},{"bike_id":"4fa6596d-6af0-4388-9384-8f0ae2f81a05","system_id":"levelo_inurba_marseille","lat":43.30922,"lon":5.40142,"is_reserved":false,"is_disabled":false,"rental_uris":{"android":"levelo://app?vid=4fa6596d-6af0-4388-9384-8f0ae2f81a05","ios":"levelo://app?vid=4fa6596d-6af0-4388-9384-8f0ae2f81a05"},"vehicle_type_id":"4","last_reported":1749935358,"current_range_meters":20400,"station_id":"ce4bgvp2rcd13ifvqct0","pricing_plan_id":"cebpf4jnsgd1na2vs0mg"},{"bike_id":"8e5886c8-c9dd-4800-a629-5ec322e56c07","system_id":"levelo_inurba_marseille","lat":43.31328,"lon":5.39694,"is_reserved":false,"is_disabled":false,"rental_uris":{"android":"levelo://app?vid=8e5886c8-c9dd-4800-a629-5ec322e56c07","ios":"levelo://app?vid=8e5886c8-c9dd-4800-a629-5ec322e56c07"},"vehicle_type_id":"4","last_reported":1749935358,"current_range_meters":20400,"station_id":"ce4bgvp2rcd13ifvqcu0","pricing_plan_id":"cebpf4jnsgd1na2vs0mg"},{"bike_id":"5dd5c63c-0bc1-44c0-917e-6efd3b1d43b0","system_id":"levelo_inurba_marseille","lat":43.284,"lon":5.37524,"is_reserved":false,"is_disabled":false,"rental_uris":{"android":"levelo://app?vid=5dd5c63c-0bc1-44c0-917e-6efd3b1d43b0","ios":"levelo://app?vid=5dd5c63c-0bc1-44c0-917e-6efd3b1d43b0"},"vehicle_type_id":"4","last_reported":1749935358,"current_range_meters":20400,"station_id":"ce4bh412rcd13ifvqds0","pricing_plan_id":"cebpf4jnsgd1na2vs0mg"},{"bike_id":"86b9d729-d0a1-4afb-83ad-3eacec7c5d0d","system_id":"levelo_inurba_marseille","lat":43.249959,"lon":5.389427,"is_reserved":false,"is_disabled":false,"rental_uris":{"android":"levelo://app?vid=86b9d729-d0a1-4afb-83ad-3eacec7c5d0d","ios":"levelo://app?vid=86b9d729-d0a1-4afb-83ad-3eacec7c5d0d"},"vehicle_type_id":"4","last_reported":1749935358,"current_range_meters":20400,"station_id":"ce4bhgp2rcd13ifvqfd0","pricing_plan_id":"cebpf4jnsgd1na2vs0mg"},{"bike_id":"988c7084-f39f-4af6-9a7b-e0f6aa3bd4dc","system_id":"levelo_inurba_marseille","lat":43.32047,"lon":5.41554,"is_reserved":false,"is_disabled":false,"rental_uris":{"android":"levelo://app?vid=988c7084-f39f-4af6-9a7b-e0f6aa3bd4dc","ios":"levelo://app?vid=988c7084-f39f-4af6-9a7b-e0f6aa3bd4dc"},"vehicle_type_id":"4","last_reported":1749935358,"current_range_meters":20400,"station_id":"ce4bhq92rcd13ifvqhkg","pricing_plan_id":"cebpf4jnsgd1na2vs0mg"},{"bike_id":"653cd02c-9bf3-4a7a-b8d1-27ab804bf944","system_id":"levelo_inurba_marseille","lat":43.31987,"lon":5.38133,"is_reserved":false,"is_disabled":false,"rental_uris":{"android":"levelo://app?vid=653cd02c-9bf3-4a7a-b8d1-27ab804bf944","ios":"levelo://app?vid=653cd02c-9bf3-4a7a-b8d1-27ab804bf944"},"vehicle_type_id":"4","last_reported":1749935358,"current_range_meters":20400,"station_id":"ce4bhr12rcd13ifvqhpg","pricing_plan_id":"cebpf4jnsgd1na2vs0mg"},{"bike_id":"b4e27918-a6e3-4cc7-bd63-f9eabe2fb131","system_id":"levelo_inurba_marseille","lat":43.26357,"lon":5.37816,"is_reserved":false,"is_disabled":false,"rental_uris":{"android":"levelo://app?vid=b4e27918-a6e3-4cc7-bd63-f9eabe2fb131","ios":"levelo://app?vid=b4e27918-a6e3-4cc7-bd63-f9eabe2fb131"},"vehicle_type_id":"4","last_reported":1749935358,"current_range_meters":20400,"station_id":"st_d163nis0mtpqnht9uue0","pricing_plan_id":"cebpf4jnsgd1na2vs0mg"},{"bike_id":"3d04179b-e46d-439e-8e19-57dfe3d37792","system_id":"levelo_inurba_marseille","lat":43.26369,"lon":5.37807,"is_reserved":false,"is_disabled":false,"rental_uris":{"android":"levelo://app?vid=3d04179b-e46d-439e-8e19-57dfe3d37792","ios":"levelo://app?vid=3d04179b-e46d-439e-8e19-57dfe3d37792"},"vehicle_type_id":"4","last_reported":1749935358,"current_range_meters":20400,"station_id":"st_d163nis0mtpqnht9uue0","pricing_plan_id":"cebpf4jnsgd1na2vs0mg"},{"bike_id":"c46537fc-f94e-489d-8d8d-34f8ad186171","system_id":"levelo_inurba_marseille","lat":43.26365,"lon":5.37799,"is_reserved":false,"is_disabled":false,"rental_uris":{"android":"levelo://app?vid=c46537fc-f94e-489d-8d8d-34f8ad186171","ios":"levelo://app?vid=c46537fc-f94e-489d-8d8d-34f8ad186171"},"vehicle_type_id":"4","last_reported":1749935358,"current_range_meters":20400,"station_id":"st_d163nis0mtpqnht9uue0","pricing_plan_id":"cebpf4jnsgd1na2vs0mg"},{"bike_id":"47502d71-3710-4cf6-b78c-5363480a124a","system_id":"levelo_inurba_marseille","lat":43.26386,"lon":5.37777,"is_reserved":false,"is_disabled":false,"rental_uris":{"android":"levelo://app?vid=47502d71-3710-4cf6-b78c-5363480a124a","ios":"levelo://app?vid=47502d71-3710-4cf6-b78c-5363480a124a"},"vehicle_type_id":"4","last_reported":1749935358,"current_range_meters":20400,"station_id":"st_d163nis0mtpqnht9uue0","pricing_plan_id":"cebpf4jnsgd1na2vs0mg"},{"bike_id":"6f516a22-9c76-414d-baf2-335147198272","system_id":"levelo_inurba_marseille","lat":43.26361,"lon":5.37827,"is_reserved":false,"is_disabled":false,"rental_uris":{"android":"levelo://app?vid=6f516a22-9c76-414d-baf2-335147198272","ios":"levelo://app?vid=6f516a22-9c76-414d-baf2-335147198272"},"vehicle_type_id":"4","last_reported":1749935358,"current_range_meters":20400,"station_id":"st_d163nis0mtpqnht9uue0","pricing_plan_id":"cebpf4jnsgd1na2vs0mg"},{"bike_id":"f4960cb7-92f3-48e4-a1cc-a2b8a605a4b3","system_id":"levelo_inurba_marseille","lat":43.33768,"lon":5.37435,"is_reserved":false,"is_disabled":false,"rental_uris":{"android":"levelo://app?vid=f4960cb7-92f3-48e4-a1cc-a2b8a605a4b3","ios":"levelo://app?vid=f4960cb7-92f3-48e4-a1cc-a2b8a605a4b3"},"vehicle_type_id":"4","last_reported":1749935358,"current_range_meters":20800,"station_id":"","pricing_plan_id":"cebpf4jnsgd1na2vs0mg"},{"bike_id":"52f84421-7e27-4a3d-8c05-c1a61f9d4349","system_id":"levelo_inurba_marseille","lat":43.30949,"lon":5.39019,"is_reserved":false,"is_disabled":false,"rental_uris":{"android":"levelo://app?vid=52f84421-7e27-4a3d-8c05-c1a61f9d4349","ios":"levelo://app?vid=52f84421-7e27-4a3d-8c05-c1a61f9d4349"},"vehicle_type_id":"4","last_reported":1749935358,"current_range_meters":20800,"station_id":"ce4bgup2rcd13ifvqco0","pricing_plan_id":"cebpf4jnsgd1na2vs0mg"},{"bike_id":"7b3f1d79-42b0-4337-97be-cd735fe5d323","system_id":"levelo_inurba_marseille","lat":43.30883,"lon":5.39638,"is_reserved":false,"is_disabled":false,"rental_uris":{"android":"levelo://app?vid=7b3f1d79-42b0-4337-97be-cd735fe5d323","ios":"levelo://app?vid=7b3f1d79-42b0-4337-97be-cd735fe5d323"},"vehicle_type_id":"4","last_reported":1749935358,"current_range_meters":20800,"station_id":"ce4bh012rcd13ifvqcv0","pricing_plan_id":"cebpf4jnsgd1na2vs0mg"},{"bike_id":"f779f84d-f293-4698-9c34-d4f5b3b5afbb","system_id":"levelo_inurba_marseille","lat":43.25823,"lon":5.39436,"is_reserved":false,"is_disabled":false,"rental_uris":{"android":"levelo://app?vid=f779f84d-f293-4698-9c34-d4f5b3b5afbb","ios":"levelo://app?vid=f779f84d-f293-4698-9c34-d4f5b3b5afbb"},"vehicle_type_id":"4","last_reported":1749935358,"current_range_meters":20800,"station_id":"ce4bhip2rcd13ifvqft0","pricing_plan_id":"cebpf4jnsgd1na2vs0mg"},{"bike_id":"e7806719-53d2-4a83-ad69-a6d9c469b968","system_id":"levelo_inurba_marseille","lat":43.26682,"lon":5.38268,"is_reserved":false,"is_disabled":false,"rental_uris":{"android":"levelo://app?vid=e7806719-53d2-4a83-ad69-a6d9c469b968","ios":"levelo://app?vid=e7806719-53d2-4a83-ad69-a6d9c469b968"},"vehicle_type_id":"4","last_reported":1749935358,"current_range_meters":21600,"station_id":"ce4bhg92rcd13ifvqf90","pricing_plan_id":"cebpf4jnsgd1na2vs0mg"},{"bike_id":"55ffe45e-9ec0-45dc-bc93-7816221e914f","system_id":"levelo_inurba_marseille","lat":43.279407,"lon":5.410444,"is_reserved":false,"is_disabled":false,"rental_uris":{"android":"levelo://app?vid=55ffe45e-9ec0-45dc-bc93-7816221e914f","ios":"levelo://app?vid=55ffe45e-9ec0-45dc-bc93-7816221e914f"},"vehicle_type_id":"4","last_reported":1749935358,"current_range_meters":21600,"station_id":"ce4bhnp2rcd13ifvqh0g","pricing_plan_id":"cebpf4jnsgd1na2vs0mg"},{"bike_id":"299d4946-dc3b-46ff-bd0f-8617cbfe2717","system_id":"levelo_inurba_marseille","lat":43.27946,"lon":5.41045,"is_reserved":false,"is_disabled":false,"rental_uris":{"android":"levelo://app?vid=299d4946-dc3b-46ff-bd0f-8617cbfe2717","ios":"levelo://app?vid=299d4946-dc3b-46ff-bd0f-8617cbfe2717"},"vehicle_type_id":"4","last_reported":1749935358,"current_range_meters":21600,"station_id":"ce4bhnp2rcd13ifvqh0g","pricing_plan_id":"cebpf4jnsgd1na2vs0mg"},{"bike_id":"90f2ea1a-64a6-42f1-8d8c-ad581cc9d43a","system_id":"levelo_inurba_marseille","lat":43.31887,"lon":5.40735,"is_reserved":false,"is_disabled":false,"rental_uris":{"android":"levelo://app?vid=90f2ea1a-64a6-42f1-8d8c-ad581cc9d43a","ios":"levelo://app?vid=90f2ea1a-64a6-42f1-8d8c-ad581cc9d43a"},"vehicle_type_id":"4","last_reported":1749935358,"current_range_meters":21600,"station_id":"ce4bhq12rcd13ifvqhig","pricing_plan_id":"cebpf4jnsgd1na2vs0mg"},{"bike_id":"23ad5723-bf76-49b6-90f8-27a803335152","system_id":"levelo_inurba_marseille","lat":43.26357,"lon":5.37811,"is_reserved":false,"is_disabled":false,"rental_uris":{"android":"levelo://app?vid=23ad5723-bf76-49b6-90f8-27a803335152","ios":"levelo://app?vid=23ad5723-bf76-49b6-90f8-27a803335152"},"vehicle_type_id":"4","last_reported":1749935358,"current_range_meters":21600,"station_id":"st_d163nis0mtpqnht9uue0","pricing_plan_id":"cebpf4jnsgd1na2vs0mg"},{"bike_id":"b9d4a0b6-79bf-4eb6-b888-3a985822a00e","system_id":"levelo_inurba_marseille","lat":43.30467,"lon":5.37914,"is_reserved":false,"is_disabled":false,"rental_uris":{"android":"levelo://app?vid=b9d4a0b6-79bf-4eb6-b888-3a985822a00e","ios":"levelo://app?vid=b9d4a0b6-79bf-4eb6-b888-3a985822a00e"},"vehicle_type_id":"4","last_reported":1749935358,"current_range_meters":22000,"station_id":"ce4bgup2rcd13ifvqcn0","pricing_plan_id":"cebpf4jnsgd1na2vs0mg"},{"bike_id":"298c6554-1a6a-4d8d-829e-aa55c01b184d","system_id":"levelo_inurba_marseille","lat":43.3095,"lon":5.3904,"is_reserved":false,"is_disabled":false,"rental_uris":{"android":"levelo://app?vid=298c6554-1a6a-4d8d-829e-aa55c01b184d","ios":"levelo://app?vid=298c6554-1a6a-4d8d-829e-aa55c01b184d"},"vehicle_type_id":"4","last_reported":1749935358,"current_range_meters":22000,"station_id":"ce4bgup2rcd13ifvqco0","pricing_plan_id":"cebpf4jnsgd1na2vs0mg"},{"bike_id":"1ddfc763-c8d9-4314-912b-e401d71f32c5","system_id":"levelo_inurba_marseille","lat":43.311567,"lon":5.386116,"is_reserved":false,"is_disabled":false,"rental_uris":{"android":"levelo://app?vid=1ddfc763-c8d9-4314-912b-e401d71f32c5","ios":"levelo://app?vid=1ddfc763-c8d9-4314-912b-e401d71f32c5"},"vehicle_type_id":"4","last_reported":1749935358,"current_range_meters":22000,"station_id":"ce4bgv12rcd13ifvqcp0","pricing_plan_id":"cebpf4jnsgd1na2vs0mg"},{"bike_id":"ce8488bb-eaaf-43ac-b767-0e951f4e58df","system_id":"levelo_inurba_marseille","lat":43.306,"lon":5.39354,"is_reserved":false,"is_disabled":false,"rental_uris":{"android":"levelo://app?vid=ce8488bb-eaaf-43ac-b767-0e951f4e58df","ios":"levelo://app?vid=ce8488bb-eaaf-43ac-b767-0e951f4e58df"},"vehicle_type_id":"4","last_reported":1749935358,"current_range_meters":22000,"station_id":"ce4bh0p2rcd13ifvqd80","pricing_plan_id":"cebpf4jnsgd1na2vs0mg"},{"bike_id":"b824ef60-983c-4727-9df6-1b59bb403e56","system_id":"levelo_inurba_marseille","lat":43.2942,"lon":5.38618,"is_reserved":false,"is_disabled":false,"rental_uris":{"android":"levelo://app?vid=b824ef60-983c-4727-9df6-1b59bb403e56","ios":"levelo://app?vid=b824ef60-983c-4727-9df6-1b59bb403e56"},"vehicle_type_id":"4","last_reported":1749935358,"current_range_meters":22000,"station_id":"ce4bh2h2rcd13ifvqdh0","pricing_plan_id":"cebpf4jnsgd1na2vs0mg"},{"bike_id":"2fdc72fd-a8fb-447d-b5b9-02a7038654e3","system_id":"levelo_inurba_marseille","lat":43.26932,"lon":5.40276,"is_reserved":false,"is_disabled":false,"rental_uris":{"android":"levelo://app?vid=2fdc72fd-a8fb-447d-b5b9-02a7038654e3","ios":"levelo://app?vid=2fdc72fd-a8fb-447d-b5b9-02a7038654e3"},"vehicle_type_id":"4","last_reported":1749935358,"current_range_meters":22000,"station_id":"cjm6bp8fraef2m0cb0m0","pricing_plan_id":"cebpf4jnsgd1na2vs0mg"},{"bike_id":"b42b9d95-2fdb-47a3-9ae1-45a1f3f1e97f","system_id":"levelo_inurba_marseille","lat":43.21188,"lon":5.35075,"is_reserved":false,"is_disabled":false,"rental_uris":{"android":"levelo://app?vid=b42b9d95-2fdb-47a3-9ae1-45a1f3f1e97f","ios":"levelo://app?vid=b42b9d95-2fdb-47a3-9ae1-45a1f3f1e97f"},"vehicle_type_id":"4","last_reported":1749935358,"current_range_meters":22000,"station_id":"st_cvj6sg6p6f1abm77japg","pricing_plan_id":"cebpf4jnsgd1na2vs0mg"},{"bike_id":"98898507-29a7-4cb0-b3fc-b9d9600b506b","system_id":"levelo_inurba_marseille","lat":43.26358,"lon":5.3782,"is_reserved":false,"is_disabled":false,"rental_uris":{"android":"levelo://app?vid=98898507-29a7-4cb0-b3fc-b9d9600b506b","ios":"levelo://app?vid=98898507-29a7-4cb0-b3fc-b9d9600b506b"},"vehicle_type_id":"4","last_reported":1749935358,"current_range_meters":22000,"station_id":"st_d163nis0mtpqnht9uue0","pricing_plan_id":"cebpf4jnsgd1na2vs0mg"},{"bike_id":"72d0614c-32d0-4aab-a719-2ad1e2cb4d85","system_id":"levelo_inurba_marseille","lat":43.26373,"lon":5.37843,"is_reserved":false,"is_disabled":false,"rental_uris":{"android":"levelo://app?vid=72d0614c-32d0-4aab-a719-2ad1e2cb4d85","ios":"levelo://app?vid=72d0614c-32d0-4aab-a719-2ad1e2cb4d85"},"vehicle_type_id":"4","last_reported":1749935358,"current_range_meters":22000,"station_id":"st_d163nis0mtpqnht9uue0","pricing_plan_id":"cebpf4jnsgd1na2vs0mg"},