{"last_updated":1726650634,"ttl":30,"version":"2.2","data":{"bikes":[{"bike_id":"322e1fc7-477e-479f-b0df-9ee6bb7c3f34","system_id":"levelo_inurba_marseille","lat":43.32546,"lon":5.41448,"is_reserved":false,"is_disabled":false,"rental_uris":{"android":"levelo://app?vid=322e1fc7-477e-479f-b0df-9ee6bb7c3f34","ios":"levelo://app?vid=322e1fc7-477e-479f-b0df-9ee6bb7c3f34"},"vehicle_type_id":"4","last_reported":1726650634,"current_range_meters":38800,"station_id":"ce4bhq12rcd13ifvqhhg","pricing_plan_id":"cebpf4jnsgd1na2vs0mg"},{"bike_id":"d8a7bbae-3d0e-457c-8e82-e6128d956f4d","system_id":"levelo_inurba_marseille","lat":43.27478,"lon":5.42471,"is_reserved":false,"is_disabled":false,"rental_uris":{"android":"levelo://app?vid=d8a7bbae-3d0e-457c-8e82-e6128d956f4d","ios":"levelo://app?vid=d8a7bbae-3d0e-457c-8e82-e6128d956f4d"},"vehicle_type_id":"4","last_reported":1726650634,"current_range_meters":8400,"station_id":"ce4bhn92rcd13ifvqgrg","pricing_plan_id":"cebpf4jnsgd1na2vs0mg"},{"bike_id":"3da7b85d-3b5f-4eff-9335-e39d642f1e5c","system_id":"levelo_inurba_marseille","lat":43.28072,"lon":5.3966,"is_reserved":false,"is_disabled":false,"rental_uris":{"android":"levelo://app?vid=3da7b85d-3b5f-4eff-9335-e39d642f1e5c","ios":"levelo://app?vid=3da7b85d-3b5f-4eff-9335-e39d642f1e5c"},"vehicle_type_id":"4","last_reported":1726650634,"current_range_meters":24000,"station_id":"ce4bho12rcd13ifvqh2g","pricing_plan_id":"cebpf4jnsgd1na2vs0mg"},{"bike_id":"005b4cb7-40ef-46da-b28a-c870673d83f3","system_id":"levelo_inurba_marseille","lat":43.2694,"lon":5.38643,"is_reserved":false,"is_disabled":false,"rental_uris":{"android":"levelo://app?vid=005b4cb7-40ef-46da-b28a-c870673d83f3","ios":"levelo://app?vid=005b4cb7-40ef-46da-b28a-c870673d83f3"},"vehicle_type_id":"4","last_reported":1726650634,"current_range_meters":32800,"station_id":"ce4bhh92rcd13ifvqfh0","pricing_plan_id":"cebpf4jnsgd1na2vs0mg"},{"bike_id":"1b2eb3bf-704f-4ec9-b5bf-79bc64acc587","system_id":"levelo_inurba_marseille","lat":43.27324,"lon":5.39167,"is_reserved":false,"is_disabled":false,"rental_uris":{"android":"levelo://app?vid=1b2eb3bf-704f-4ec9-b5bf-79bc64acc587","ios":"levelo://app?vid=1b2eb3bf-704f-4ec9-b5bf-79bc64acc587"},"vehicle_type_id":"4","last_reported":1726650634,"current_range_meters":18000,"station_id":"ce4bhgp2rcd13ifvqfe0","pricing_plan_id":"cebpf4jnsgd1na2vs0mg"},{"bike_id":"faf458fe-7be6-4c54-a850-b961043d5b27","system_id":"levelo_inurba_marseille","lat":43.3248,"lon":5.36566,"is_reserved":false,"is_disabled":false,"rental_uris":{"android":"levelo://app?vid=faf458fe-7be6-4c54-a850-b961043d5b27","ios":"levelo://app?vid=faf458fe-7be6-4c54-a850-b961043d5b27"},"vehicle_type_id":"4","last_reported":1726650634,"current_range_meters":22400,"station_id":"ce4bhs12rcd13ifvqhvg","pricing_plan_id":"cebpf4jnsgd1na2vs0mg"},{"bike_id":"43176770-eaee-4996-86c7-d408161e4ce6","system_id":"levelo_inurba_marseille","lat":43.29896,"lon":5.43665,"is_reserved":false,"is_disabled":false,"rental_uris":{"android":"levelo://app?vid=43176770-eaee-4996-86c7-d408161e4ce6","ios":"levelo://app?vid=43176770-eaee-4996-86c7-d408161e4ce6"},"vehicle_type_id":"4","last_reported":1726650634,"current_range_meters":37600,"station_id":"ce4bhpp2rcd13ifvqhfg","pricing_plan_id":"cebpf4jnsgd1na2vs0mg"},{"bike_id":"05976b69-d4de-44ef-87b1-8bce8cd5521e","system_id":"levelo_inurba_marseille","lat":43.24078,"lon":5.37749,"is_reserved":false,"is_disabled":false,"rental_uris":{"android":"levelo://app?vid=05976b69-d4de-44ef-87b1-8bce8cd5521e","ios":"levelo://app?vid=05976b69-d4de-44ef-87b1-8bce8cd5521e"},"vehicle_type_id":"4","last_reported":1726650634,"current_range_meters":36400,"station_id":"ce4bhnp2rcd13ifvqgvg","pricing_plan_id":"cebpf4jnsgd1na2vs0mg"},{"bike_id":"19a9dfff-35a7-493a-93aa-b0331cdf96d0","system_id":"levelo_inurba_marseille","lat":43.30925,"lon":5.40141,"is_reserved":false,"is_disabled":false,"rental_uris":{"android":"levelo://app?vid=19a9dfff-35a7-493a-93aa-b0331cdf96d0","ios":"levelo://app?vid=19a9dfff-35a7-493a-93aa-b0331cdf96d0"},"vehicle_type_id":"4","last_reported":1726650634,"current_range_meters":22400,"station_id":"ce4bgvp2rcd13ifvqct0","pricing_plan_id":"cebpf4jnsgd1na2vs0mg"},{"bike_id":"9a2795ab-b8e3-41d5-8e6e-349078045a73","system_id":"levelo_inurba_marseille","lat":43.33606,"lon":5.41017,"is_reserved":false,"is_disabled":false,"rental_uris":{"android":"levelo://app?vid=9a2795ab-b8e3-41d5-8e6e-349078045a73","ios":"levelo://app?vid=9a2795ab-b8e3-41d5-8e6e-349078045a73"},"vehicle_type_id":"4","last_reported":1726650634,"current_range_meters":9200,"station_id":"ce4bhqh2rcd13ifvqhmg","pricing_plan_id":"cebpf4jnsgd1na2vs0mg"},{"bike_id":"f85ce8c6-1f53-41f6-90ea-c0a37e5934f8","system_id":"levelo_inurba_marseille","lat":43.27075,"lon":5.42282,"is_reserved":false,"is_disabled":false,"rental_uris":{"android":"levelo://app?vid=f85ce8c6-1f53-41f6-90ea-c0a37e5934f8","ios":"levelo://app?vid=f85ce8c6-1f53-41f6-90ea-c0a37e5934f8"},"vehicle_type_id":"4","last_reported":1726650634,"current_range_meters":30400,"station_id":"ce4bhk92rcd13ifvqgb0","pricing_plan_id":"cebpf4jnsgd1na2vs0mg"},{"bike_id":"a6862d6c-bcdb-4c5e-854a-506954e7f8c0","system_id":"levelo_inurba_marseille","lat":43.25937,"lon":5.40905,"is_reserved":false,"is_disabled":false,"rental_uris":{"android":"levelo://app?vid=a6862d6c-bcdb-4c5e-854a-506954e7f8c0","ios":"levelo://app?vid=a6862d6c-bcdb-4c5e-854a-506954e7f8c0"},"vehicle_type_id":"4","last_reported":1726650634,"current_range_meters":8800,"station_id":"ce4bhm92rcd13ifvqglg","pricing_plan_id":"cebpf4jnsgd1na2vs0mg"},{"bike_id":"16a6f96a-5cb2-461f-a294-02ee9ebc6764","system_id":"levelo_inurba_marseille","lat":43.31348,"lon":5.36735,"is_reserved":false,"is_disabled":false,"rental_uris":{"android":"levelo://app?vid=16a6f96a-5cb2-461f-a294-02ee9ebc6764","ios":"levelo://app?vid=16a6f96a-5cb2-461f-a294-02ee9ebc6764"},"vehicle_type_id":"4","last_reported":1726650634,"current_range_meters":28000,"station_id":"ce4bgr92rcd13ifvqc6g","pricing_plan_id":"cebpf4jnsgd1na2vs0mg"},{"bike_id":"b592e2f2-3b3c-4b97-abca-4d0c4bf54e79","system_id":"levelo_inurba_marseille","lat":43.29939,"lon":5.40376,"is_reserved":false,"is_disabled":false,"rental_uris":{"android":"levelo://app?vid=b592e2f2-3b3c-4b97-abca-4d0c4bf54e79","ios":"levelo://app?vid=b592e2f2-3b3c-4b97-abca-4d0c4bf54e79"},"vehicle_type_id":"4","last_reported":1726650634,"current_range_meters":34800,"station_id":"","pricing_plan_id":"cebpf4jnsgd1na2vs0mg"},{"bike_id":"3f7079f5-b510-4a50-a94e-2585f6ea779e","system_id":"levelo_inurba_marseille","lat":43.312744,"lon":5.401768,"is_reserved":false,"is_disabled":false,"rental_uris":{"android":"levelo://app?vid=3f7079f5-b510-4a50-a94e-2585f6ea779e","ios":"levelo://app?vid=3f7079f5-b510-4a50-a94e-2585f6ea779e"},"vehicle_type_id":"4","last_reported":1726650634,"current_range_meters":22400,"station_id":"ce4bh092rcd13ifvqd30","pricing_plan_id":"cebpf4jnsgd1na2vs0mg"},{"bike_id":"b56cb9ec-2020-485b-b381-b3c40e8b6e6a","system_id":"levelo_inurba_marseille","lat":43.292999,"lon":5.371494,"is_reserved":false,"is_disabled":false,"rental_uris":{"android":"levelo://app?vid=b56cb9ec-2020-485b-b381-b3c40e8b6e6a","ios":"levelo://app?vid=b56cb9ec-2020-485b-b381-b3c40e8b6e6a"},"vehicle_type_id":"4","last_reported":1726650634,"current_range_meters":11600,"station_id":"ce4bgh92rcd13ifvqb40","pricing_plan_id":"cebpf4jnsgd1na2vs0mg"},{"bike_id":"9f9f90d1-3da1-44c2-8148-cfa812174d72","system_id":"levelo_inurba_marseille","lat":43.29721,"lon":5.37701,"is_reserved":false,"is_disabled":false,"rental_uris":{"android":"levelo://app?vid=9f9f90d1-3da1-44c2-8148-cfa812174d72","ios":"levelo://app?vid=9f9f90d1-3da1-44c2-8148-cfa812174d72"},"vehicle_type_id":"4","last_reported":1726650634,"current_range_meters":39200,"station_id":"ce4bgkh2rcd13ifvqbl0","pricing_plan_id":"cebpf4jnsgd1na2vs0mg"},{"bike_id":"4bcc8a21-d09b-4f81-9b93-4c658b4d5c7a","system_id":"levelo_inurba_marseille","lat":43.29609,"lon":5.3773,"is_reserved":false,"is_disabled":false,"rental_uris":{"android":"levelo://app?vid=4bcc8a21-d09b-4f81-9b93-4c658b4d5c7a","ios":"levelo://app?vid=4bcc8a21-d09b-4f81-9b93-4c658b4d5c7a"},"vehicle_type_id":"4","last_reported":1726650634,"current_range_meters":38800,"station_id":"ce4bgi92rcd13ifvqb90","pricing_plan_id":"cebpf4jnsgd1na2vs0mg"},{"bike_id":"de672d3e-6631-4f79-a15a-ca2546ba213b","system_id":"levelo_inurba_marseille","lat":43.24072,"lon":5.37756,"is_reserved":false,"is_disabled":false,"rental_uris":{"android":"levelo://app?vid=de672d3e-6631-4f79-a15a-ca2546ba213b","ios":"levelo://app?vid=de672d3e-6631-4f79-a15a-ca2546ba213b"},"vehicle_type_id":"4","last_reported":1726650634,"current_range_meters":10000,"station_id":"ce4bhnp2rcd13ifvqgvg","pricing_plan_id":"cebpf4jnsgd1na2vs0mg"},{"bike_id":"39a13db9-5288-477d-a73b-cffa29946d06","system_id":"levelo_inurba_marseille","lat":43.337444,"lon":5.374475,"is_reserved":false,"is_disabled":false,"rental_uris":{"android":"levelo://app?vid=39a13db9-5288-477d-a73b-cffa29946d06","ios":"levelo://app?vid=39a13db9-5288-477d-a73b-cffa29946d06"},"vehicle_type_id":"4","last_reported":1726650634,"current_range_meters":14800,"station_id":"ce4bh0h2rcd13ifvqd50","pricing_plan_id":"cebpf4jnsgd1na2vs0mg"},{"bike_id":"5309d39c-1795-43e9-bfff-4830328841b6","system_id":"levelo_inurba_marseille","lat":43.23151,"lon":5.43719,"is_reserved":false,"is_disabled":false,"rental_uris":{"android":"levelo://app?vid=5309d39c-1795-43e9-bfff-4830328841b6","ios":"levelo://app?vid=5309d39c-1795-43e9-bfff-4830328841b6"},"vehicle_type_id":"4","last_reported":1726650634,"current_range_meters":27200,"station_id":"ce4bhmp2rcd13ifvqgog","pricing_plan_id":"cebpf4jnsgd1na2vs0mg"},{"bike_id":"9321ee4e-d05d-4d6d-b6e4-d898cfa9ebfb","system_id":"levelo_inurba_marseille","lat":43.30153,"lon":5.3808,"is_reserved":false,"is_disabled":false,"rental_uris":{"android":"levelo://app?vid=9321ee4e-d05d-4d6d-b6e4-d898cfa9ebfb","ios":"levelo://app?vid=9321ee4e-d05d-4d6d-b6e4-d898cfa9ebfb"},"vehicle_type_id":"4","last_reported":1726650634,"current_range_meters":27600,"station_id":"ce4bgjp2rcd13ifvqbh0","pricing_plan_id":"cebpf4jnsgd1na2vs0mg"},{"bike_id":"942c7f8d-01f1-4713-a397-49591c63d94a","system_id":"levelo_inurba_marseille","lat":43.27207,"lon":5.3919,"is_reserved":false,"is_disabled":false,"rental_uris":{"android":"levelo://app?vid=942c7f8d-01f1-4713-a397-49591c63d94a","ios":"levelo://app?vid=942c7f8d-01f1-4713-a397-49591c63d94a"},"vehicle_type_id":"4","last_reported":1726650634,"current_range_meters":6800,"station_id":"ce4bhhp2rcd13ifvqfm0","pricing_plan_id":"cebpf4jnsgd1na2vs0mg"},{"bike_id":"c3c364f4-0fa8-4b51-8626-4a339baace73","system_id":"levelo_inurba_marseille","lat":43.24077,"lon":5.37752,"is_reserved":false,"is_disabled":false,"rental_uris":{"android":"levelo://app?vid=c3c364f4-0fa8-4b51-8626-4a339baace73","ios":"levelo://app?vid=c3c364f4-0fa8-4b51-8626-4a339baace73"},"vehicle_type_id":"4","last_reported":1726650634,"current_range_meters":20400,"station_id":"ce4bhnp2rcd13ifvqgvg","pricing_plan_id":"cebpf4jnsgd1na2vs0mg"},{"bike_id":"faa506e9-5969-4e5b-8be0-34cff0a31bdc","system_id":"levelo_inurba_marseille","lat":43.29727,"lon":5.37691,"is_reserved":false,"is_disabled":false,"rental_uris":{"android":"levelo://app?vid=faa506e9-5969-4e5b-8be0-34cff0a31bdc","ios":"levelo://app?vid=faa506e9-5969-4e5b-8be0-34cff0a31bdc"},"vehicle_type_id":"4","last_reported":1726650634,"current_range_meters":32000,"station_id":"ce4bgkh2rcd13ifvqbl0","pricing_plan_id":"cebpf4jnsgd1na2vs0mg"},{"bike_id":"453acfba-8c10-486e-88ad-bdc68c71528c","system_id":"levelo_inurba_marseille","lat":43.28611,"lon":5.35102,"is_reserved":false,"is_disabled":false,"rental_uris":{"android":"levelo://app?vid=453acfba-8c10-486e-88ad-bdc68c71528c","ios":"levelo://app?vid=453acfba-8c10-486e-88ad-bdc68c71528c"},"vehicle_type_id":"4","last_reported":1726650634,"current_range_meters":38000,"station_id":"ce4bhch2rcd13ifvqeug","pricing_plan_id":"cebpf4jnsgd1na2vs0mg"},{"bike_id":"103a716b-dbc7-4e49-a7f2-16e378e92b85","system_id":"levelo_inurba_marseille","lat":43.22927,"lon":5.35373,"is_reserved":false,"is_disabled":false,"rental_uris":{"android":"levelo://app?vid=103a716b-dbc7-4e49-a7f2-16e378e92b85","ios":"levelo://app?vid=103a716b-dbc7-4e49-a7f2-16e378e92b85"},"vehicle_type_id":"4","last_reported":1726650634,"current_range_meters":26000,"station_id":"cpo3532slgdg3j2ikp40","pricing_plan_id":"cebpf4jnsgd1na2vs0mg"},{"bike_id":"b23af984-b309-4193-8fb5-89063c47a5f4","system_id":"levelo_inurba_marseille","lat":43.297791,"lon":5.371014,"is_reserved":false,"is_disabled":false,"rental_uris":{"android":"levelo://app?vid=b23af984-b309-4193-8fb5-89063c47a5f4","ios":"levelo://app?vid=b23af984-b309-4193-8fb5-89063c47a5f4"},"vehicle_type_id":"4","last_reported":1726650634,"current_range_meters":16000,"station_id":"ce4bgop2rcd13ifvqc1g","pricing_plan_id":"cebpf4jnsgd1na2vs0mg"},{"bike_id":"7affc5c7-b1b3-4f2c-af16-dca461f78215","system_id":"levelo_inurba_marseille","lat":43.3134,"lon":5.36747,"is_reserved":false,"is_disabled":false,"rental_uris":{"android":"levelo://app?vid=7affc5c7-b1b3-4f2c-af16-dca461f78215","ios":"levelo://app?vid=7affc5c7-b1b3-4f2c-af16-dca461f78215"},"vehicle_type_id":"4","last_reported":1726650634,"current_range_meters":33600,"station_id":"ce4bgr92rcd13ifvqc6g","pricing_plan_id":"cebpf4jnsgd1na2vs0mg"},{"bike_id":"9d3e0994-7291-4fa8-b920-e0297ab61683","system_id":"levelo_inurba_marseille","lat":43.31344,"lon":5.36728,"is_reserved":false,"is_disabled":false,"rental_uris":{"android":"levelo://app?vid=9d3e0994-7291-4fa8-b920-e0297ab61683","ios":"levelo://app?vid=9d3e0994-7291-4fa8-b920-e0297ab61683"},"vehicle_type_id":"4","last_reported":1726650634,"current_range_meters":23200,"station_id":"ce4bgr92rcd13ifvqc6g","pricing_plan_id":"cebpf4jnsgd1na2vs0mg"},{"bike_id":"a02531e7-e816-40db-83bd-a99a7ebc00d2","system_id":"levelo_inurba_marseille","lat":43.30462,"lon":5.37913,"is_reserved":false,"is_disabled":false,"rental_uris":{"android":"levelo://app?vid=a02531e7-e816-40db-83bd-a99a7ebc00d2","ios":"levelo://app?vid=a02531e7-e816-40db-83bd-a99a7ebc00d2"},"vehicle_type_id":"4","last_reported":1726650634,"current_range_meters":34000,"station_id":"ce4bgup2rcd13ifvqcn0","pricing_plan_id":"cebpf4jnsgd1na2vs0mg"},{"bike_id":"2ead656c-8850-4401-b04f-8b4ba65c4285","system_id":"levelo_inurba_marseille","lat":43.23183,"lon":5.39977,"is_reserved":false,"is_disabled":false,"rental_uris":{"android":"levelo://app?vid=2ead656c-8850-4401-b04f-8b4ba65c4285","ios":"levelo://app?vid=2ead656c-8850-4401-b04f-8b4ba65c4285"},"vehicle_type_id":"4","last_reported":1726650634,"current_range_meters":16400,"station_id":"ce4bhn12rcd13ifvqgqg","pricing_plan_id":"cebpf4jnsgd1na2vs0mg"},{"bike_id":"3865a787-eeae-426d-8d42-5d04bb282598","system_id":"levelo_inurba_marseille","lat":43.28945,"lon":5.36406,"is_reserved":false,"is_disabled":false,"rental_uris":{"android":"levelo://app?vid=3865a787-eeae-426d-8d42-5d04bb282598","ios":"levelo://app?vid=3865a787-eeae-426d-8d42-5d04bb282598"},"vehicle_type_id":"4","last_reported":1726650634,"current_range_meters":18000,"station_id":"ce4bhc92rcd13ifvqetg","pricing_plan_id":"cebpf4jnsgd1na2vs0mg"},{"bike_id":"d9b62648-6378-4dbb-9f13-09848203a4fd","system_id":"levelo_inurba_marseille","lat":43.26682,"lon":5.38254,"is_reserved":false,"is_disabled":false,"rental_uris":{"android":"levelo://app?vid=d9b62648-6378-4dbb-9f13-09848203a4fd","ios":"levelo://app?vid=d9b62648-6378-4dbb-9f13-09848203a4fd"},"vehicle_type_id":"4","last_reported":1726650634,"current_range_meters":38800,"station_id":"ce4bhg92rcd13ifvqf90","pricing_plan_id":"cebpf4jnsgd1na2vs0mg"},{"bike_id":"145ab162-be27-4c42-acdb-8dc14edc54e6","system_id":"levelo_inurba_marseille","lat":43.29905,"lon":5.38151,"is_reserved":false,"is_disabled":false,"rental_uris":{"android":"levelo://app?vid=145ab162-be27-4c42-acdb-8dc14edc54e6","ios":"levelo://app?vid=145ab162-be27-4c42-acdb-8dc14edc54e6"},"vehicle_type_id":"4","last_reported":1726650634,"current_range_meters":20400,"station_id":"ce4bgj12rcd13ifvqbc0","pricing_plan_id":"cebpf4jnsgd1na2vs0mg"},{"bike_id":"2a5808e5-1612-4dc1-a62b-b9c71459256c","system_id":"levelo_inurba_marseille","lat":43.34082,"lon":5.3911,"is_reserved":false,"is_disabled":false,"rental_uris":{"android":"levelo://app?vid=2a5808e5-1612-4dc1-a62b-b9c71459256c","ios":"levelo://app?vid=2a5808e5-1612-4dc1-a62b-b9c71459256c"},"vehicle_type_id":"4","last_reported":1726650634,"current_range_meters":6000,"station_id":"","pricing_plan_id":"cebpf4jnsgd1na2vs0mg"},{"bike_id":"cdf82ab7-5b21-42a8-b62b-7c9153e0b3ec","system_id":"levelo_inurba_marseille","lat":43.27495,"lon":5.4245,"is_reserved":false,"is_disabled":false,"rental_uris":{"android":"levelo://app?vid=cdf82ab7-5b21-42a8-b62b-7c9153e0b3ec","ios":"levelo://app?vid=cdf82ab7-5b21-42a8-b62b-7c9153e0b3ec"},"vehicle_type_id":"4","last_reported":1726650634,"current_range_meters":30000,"station_id":"ce4bhn92rcd13ifvqgrg","pricing_plan_id":"cebpf4jnsgd1na2vs0mg"},{"bike_id":"95e99f71-c1a3-45c1-b17c-f936928334da","system_id":"levelo_inurba_marseille","lat":43.28662,"lon":5.38667,"is_reserved":false,"is_disabled":false,"rental_uris":{"android":"levelo://app?vid=95e99f71-c1a3-45c1-b17c-f936928334da","ios":"levelo://app?vid=95e99f71-c1a3-45c1-b17c-f936928334da"},"vehicle_type_id":"4","last_reported":1726650634,"current_range_meters":37600,"station_id":"ce4bh492rcd13ifvqdug","pricing_plan_id":"cebpf4jnsgd1na2vs0mg"},{"bike_id":"058d56fc-6eee-44d9-95b4-4f9ba907d92e","system_id":"levelo_inurba_marseille","lat":43.26558,"lon":5.39004,"is_reserved":false,"is_disabled":false,"rental_uris":{"android":"levelo://app?vid=058d56fc-6eee-44d9-95b4-4f9ba907d92e","ios":"levelo://app?vid=058d56fc-6eee-44d9-95b4-4f9ba907d92e"},"vehicle_type_id":"4","last_reported":1726650634,"current_range_meters":26800,"station_id":"ce4bhe12rcd13ifvqf30","pricing_plan_id":"cebpf4jnsgd1na2vs0mg"},{"bike_id":"4131fcbb-4f50-4456-b408-a6cfff5131d3","system_id":"levelo_inurba_marseille","lat":43.28262,"lon":5.35078,"is_reserved":false,"is_disabled":false,"rental_uris":{"android":"levelo://app?vid=4131fcbb-4f50-4456-b408-a6cfff5131d3","ios":"levelo://app?vid=4131fcbb-4f50-4456-b408-a6cfff5131d3"},"vehicle_type_id":"4","last_reported":1726650634,"current_range_meters":26800,"station_id":"ce4bhbp2rcd13ifvqerg","pricing_plan_id":"cebpf4jnsgd1na2vs0mg"},{"bike_id":"65eaf48d-8e15-4c50-a81a-08d7b23a7362","system_id":"levelo_inurba_marseille","lat":43.31079,"lon":5.42433,"is_reserved":false,"is_disabled":false,"rental_uris":{"android":"levelo://app?vid=65eaf48d-8e15-4c50-a81a-08d7b23a7362","ios":"levelo://app?vid=65eaf48d-8e15-4c50-a81a-08d7b23a7362"},"vehicle_type_id":"4","last_reported":1726650634,"current_range_meters":38800,"station_id":"ce4bhp92rcd13ifvqhag","pricing_plan_id":"cebpf4jnsgd1na2vs0mg"},{"bike_id":"b4450704-51e1-4ff8-a772-08322cc70eb7","system_id":"levelo_inurba_marseille","lat":43.23189,"lon":5.3556,"is_reserved":false,"is_disabled":false,"rental_uris":{"android":"levelo://app?vid=b4450704-51e1-4ff8-a772-08322cc70eb7","ios":"levelo://app?vid=b4450704-51e1-4ff8-a772-08322cc70eb7"},"vehicle_type_id":"4","last_reported":1726650634,"current_range_meters":36000,"station_id":"ce4bhu92rcd13ifvqi70","pricing_plan_id":"cebpf4jnsgd1na2vs0mg"},{"bike_id":"d596687b-29a5-4452-9c10-ec28b7aa9742","system_id":"levelo_inurba_marseille","lat":43.33759,"lon":5.37435,"is_reserved":false,"is_disabled":false,"rental_uris":{"android":"levelo://app?vid=d596687b-29a5-4452-9c10-ec28b7aa9742","ios":"levelo://app?vid=d596687b-29a5-4452-9c10-ec28b7aa9742"},"vehicle_type_id":"4","last_reported":1726650634,"current_range_meters":12000,"station_id":"","pricing_plan_id":"cebpf4jnsgd1na2vs0mg"},{"bike_id":"1e9f2167-5db4-498f-a1d0-2af35f9c5737","system_id":"levelo_inurba_marseille","lat":43.24181,"lon":5.39732,"is_reserved":false,"is_disabled":false,"rental_uris":{"android":"levelo://app?vid=1e9f2167-5db4-498f-a1d0-2af35f9c5737","ios":"levelo://app?vid=1e9f2167-5db4-498f-a1d0-2af35f9c5737"},"vehicle_type_id":"4","last_reported":1726650634,"current_range_meters":13600,"station_id":"ce4bhn12rcd13ifvqgpg","pricing_plan_id":"cebpf4jnsgd1na2vs0mg"},{"bike_id":"006ce482-40fa-4909-8827-6ef5afd423e7","system_id":"levelo_inurba_marseille","lat":43.29866,"lon":5.39744,"is_reserved":false,"is_disabled":false,"rental_uris":{"android":"levelo://app?vid=006ce482-40fa-4909-8827-6ef5afd423e7","ios":"levelo://app?vid=006ce482-40fa-4909-8827-6ef5afd423e7"},"vehicle_type_id":"4","last_reported":1726650634,"current_range_meters":30000,"station_id":"ce4bh0h2rcd13ifvqd50","pricing_plan_id":"cebpf4jnsgd1na2vs0mg"},{"bike_id":"997cb8ff-7e70-44b8-8b10-0781e0343a19","system_id":"levelo_inurba_marseille","lat":43.337444,"lon":5.374475,"is_reserved":false,"is_disabled":false,"rental_uris":{"android":"levelo://app?vid=997cb8ff-7e70-44b8-8b10-0781e0343a19","ios":"levelo://app?vid=997cb8ff-7e70-44b8-8b10-0781e0343a19"},"vehicle_type_id":"4","last_reported":1726650634,"current_range_meters":38000,"station_id":"","pricing_plan_id":"cebpf4jnsgd1na2vs0mg"},{"bike_id":"f884c139-5e70-4b5c-839d-930bc641f4ea","system_id":"levelo_inurba_marseille","lat":43.24995,"lon":5.38923,"is_reserved":false,"is_disabled":false,"rental_uris":{"android":"levelo://app?vid=f884c139-5e70-4b5c-839d-930bc641f4ea","ios":"levelo://app?vid=f884c139-5e70-4b5c-839d-930bc641f4ea"},"vehicle_type_id":"4","last_reported":1726650634,"current_range_meters":39200,"station_id":"ce4bhgp2rcd13ifvqfd0","pricing_plan_id":"cebpf4jnsgd1na2vs0mg"},{"bike_id":"cd0f42ce-36e1-451d-a8d6-83165da26714","system_id":"levelo_inurba_marseille","lat":43.29876,"lon":5.39729,"is_reserved":false,"is_disabled":false,"rental_uris":{"android":"levelo://app?vid=cd0f42ce-36e1-451d-a8d6-83165da26714","ios":"levelo://app?vid=cd0f42ce-36e1-451d-a8d6-83165da26714"},"vehicle_type_id":"4","last_reported":1726650634,"current_range_meters":24400,"station_id":"ce4bh0h2rcd13ifvqd50","pricing_plan_id":"cebpf4jnsgd1na2vs0mg"},{"bike_id":"c2667222-5d26-4d9c-a938-761c480fe584","system_id":"levelo_inurba_marseille","lat":43.33023,"lon":5.39048,"is_reserved":false,"is_disabled":false,"rental_uris":{"android":"levelo://app?vid=c2667222-5d26-4d9c-a938-761c480fe584","ios":"levelo://app?vid=c2667222-5d26-4d9c-a938-761c480fe584"},"vehicle_type_id":"4","last_reported":1726650634,"current_range_meters":11200,"station_id":"ce4bhr92rcd13ifvqhrg","pricing_plan_id":"cebpf4jnsgd1na2vs0mg"},{"bike_id":"d2648441-8611-4e86-b6a3-95e5dd6d09df","system_id":"levelo_inurba_marseille","lat":43.24648,"lon":5.38892,"is_reserved":false,"is_disabled":false,"rental_uris":{"android":"levelo://app?vid=d2648441-8611-4e86-b6a3-95e5dd6d09df","ios":"levelo://app?vid=d2648441-8611-4e86-b6a3-95e5dd6d09df"},"vehicle_type_id":"4","last_reported":1726650634,"current_range_meters":38400,"station_id":"ce4bhg12rcd13ifvqf60","pricing_plan_id":"cebpf4jnsgd1na2vs0mg"},{"bike_id":"442c5059-0433-4ca9-94c3-1cf6dbafc57d","system_id":"levelo_inurba_marseille","lat":43.30139,"lon":5.38081,"is_reserved":false,"is_disabled":false,"rental_uris":{"android":"levelo://app?vid=442c5059-0433-4ca9-94c3-1cf6dbafc57d","ios":"levelo://app?vid=442c5059-0433-4ca9-94c3-1cf6dbafc57d"},"vehicle_type_id":"4","last_reported":1726650634,"current_range_meters":33600,"station_id":"ce4bgjp2rcd13ifvqbh0","pricing_plan_id":"cebpf4jnsgd1na2vs0mg"},{"bike_id":"ec3f636a-f5ea-4ad3-b5fb-a36413f34fbf","system_id":"levelo_inurba_marseille","lat":43.27486,"lon":5.42455,"is_reserved":false,"is_disabled":false,"rental_uris":{"android":"levelo://app?vid=ec3f636a-f5ea-4ad3-b5fb-a36413f34fbf","ios":"levelo://app?vid=ec3f636a-f5ea-4ad3-b5fb-a36413f34fbf"},"vehicle_type_id":"4","last_reported":1726650634,"current_range_meters":16000,"station_id":"ce4bhn92rcd13ifvqgrg","pricing_plan_id":"cebpf4jnsgd1na2vs0mg"},{"bike_id":"802ef220-f68e-4424-9cd5-dba229c3356a","system_id":"levelo_inurba_marseille","lat":43.28261,"lon":5.35072,"is_reserved":false,"is_disabled":false,"rental_uris":{"android":"levelo://app?vid=802ef220-f68e-4424-9cd5-dba229c3356a","ios":"levelo://app?vid=802ef220-f68e-4424-9cd5-dba229c3356a"},"vehicle_type_id":"4","last_reported":1726650634,"current_range_meters":27200,"station_id":"ce4bhbp2rcd13ifvqerg","pricing_plan_id":"cebpf4jnsgd1na2vs0mg"},{"bike_id":"adc3d03c-1a26-4c6b-978d-4c30cce189a2","system_id":"levelo_inurba_marseille","lat":43.25498,"lon":5.37655,"is_reserved":false,"is_disabled":false,"rental_uris":{"android":"levelo://app?vid=adc3d03c-1a26-4c6b-978d-4c30cce189a2","ios":"levelo://app?vid=adc3d03c-1a26-4c6b-978d-4c30cce189a2"},"vehicle_type_id":"4","last_reported":1726650634,"current_range_meters":31200,"station_id":"ce4bhh12rcd13ifvqff0","pricing_plan_id":"cebpf4jnsgd1na2vs0mg"},{"bike_id":"19589ba5-4ec4-4f07-bb6e-2bdc4a985826","system_id":"levelo_inurba_marseille","lat":43.29169,"lon":5.37151,"is_reserved":false,"is_disabled":false,"rental_uris":{"android":"levelo://app?vid=19589ba5-4ec4-4f07-bb6e-2bdc4a985826","ios":"levelo://app?vid=19589ba5-4ec4-4f07-bb6e-2bdc4a985826"},"vehicle_type_id":"4","last_reported":1726650634,"current_range_meters":38800,"station_id":"ce4bha92rcd13ifvqeh0","pricing_plan_id":"cebpf4jnsgd1na2vs0mg"},{"bike_id":"6a400ef4-9700-4fc8-9d94-154d506c71d6","system_id":"levelo_inurba_marseille","lat":43.305908,"lon":5.393629,"is_reserved":false,"is_disabled":false,"rental_uris":{"android":"levelo://app?vid=6a400ef4-9700-4fc8-9d94-154d506c71d6","ios":"levelo://app?vid=6a400ef4-9700-4fc8-9d94-154d506c71d6"},"vehicle_type_id":"4","last_reported":1726650634,"current_range_meters":9600,"station_id":"ce4bh0p2rcd13ifvqd80","pricing_plan_id":"cebpf4jnsgd1na2vs0mg"},{"bike_id":"74cf48ce-0c7c-49e2-81d6-547ab0656005","system_id":"levelo_inurba_marseille","lat":43.23151,"lon":5.43709,"is_reserved":false,"is_disabled":false,"rental_uris":{"android":"levelo://app?vid=74cf48ce-0c7c-49e2-81d6-547ab0656005","ios":"levelo://app?vid=74cf48ce-0c7c-49e2-81d6-547ab0656005"},"vehicle_type_id":"4","last_reported":1726650634,"current_range_meters":4800,"station_id":"ce4bhmp2rcd13ifvqgog","pricing_plan_id":"cebpf4jnsgd1na2vs0mg"},{"bike_id":"5e22b78d-a19f-4c84-859e-5ca877c7909a","system_id":"levelo_inurba_marseille","lat":43.24182,"lon":5.39726,"is_reserved":false,"is_disabled":false,"rental_uris":{"android":"levelo://app?vid=5e22b78d-a19f-4c84-859e-5ca877c7909a","ios":"levelo://app?vid=5e22b78d-a19f-4c84-859e-5ca877c7909a"},"vehicle_type_id":"4","last_reported":1726650634,"current_range_meters":20400,"station_id":"ce4bhn12rcd13ifvqgpg","pricing_plan_id":"cebpf4jnsgd1na2vs0mg"},{"bike_id":"1c3a530e-b0e4-4d7e-965f-e38992d27024","system_id":"levelo_inurba_marseille","lat":43.24082,"lon":5.3775,"is_reserved":false,"is_disabled":false,"rental_uris":{"android":"levelo://app?vid=1c3a530e-b0e4-4d7e-965f-e38992d27024","ios":"levelo://app?vid=1c3a530e-b0e4-4d7e-965f-e38992d27024"},"vehicle_type_id":"4","last_reported":1726650634,"current_range_meters":18800,"station_id":"ce4bhnp2rcd13ifvqgvg","pricing_plan_id":"cebpf4jnsgd1na2vs0mg"},{"bike_id":"8153484d-62c4-4302-b037-67bab6bf965b","system_id":"levelo_inurba_marseille","lat":43.30541,"lon":5.38422,"is_reserved":false,"is_disabled":false,"rental_uris":{"android":"levelo://app?vid=8153484d-62c4-4302-b037-67bab6bf965b","ios":"levelo://app?vid=8153484d-62c4-4302-b037-67bab6bf965b"},"vehicle_type_id":"4","last_reported":1726650634,"current_range_meters":32400,"station_id":"ce4bgg92rcd13ifvqb30","pricing_plan_id":"cebpf4jnsgd1na2vs0mg"},{"bike_id":"94332351-4d8e-4507-9663-bc9cdee98249","system_id":"levelo_inurba_marseille","lat":43.29093,"lon":5.38136,"is_reserved":false,"is_disabled":false,"rental_uris":{"android":"levelo://app?vid=94332351-4d8e-4507-9663-bc9cdee98249","ios":"levelo://app?vid=94332351-4d8e-4507-9663-bc9cdee98249"},"vehicle_type_id":"4","last_reported":1726650634,"current_range_meters":9200,"station_id":"ce4bh512rcd13ifvqe2g","pricing_plan_id":"cebpf4jnsgd1na2vs0mg"},{"bike_id":"85accb8b-04bf-4b10-bd64-d66dfa393f45","system_id":"levelo_inurba_marseille","lat":43.26556,"lon":5.37284,"is_reserved":false,"is_disabled":false,"rental_uris":{"android":"levelo://app?vid=85accb8b-04bf-4b10-bd64-d66dfa393f45","ios":"levelo://app?vid=85accb8b-04bf-4b10-bd64-d66dfa393f45"},"vehicle_type_id":"4","last_reported":1726650634,"current_range_meters":22000,"station_id":"ce4bhg12rcd13ifvqf70","pricing_plan_id":"cebpf4jnsgd1na2vs0mg"},{"bike_id":"68403b74-01fe-498c-8422-2a90ce77d48e","system_id":"levelo_inurba_marseille","lat":43.33765,"lon":5.37425,"is_reserved":false,"is_disabled":false,"rental_uris":{"android":"levelo://app?vid=68403b74-01fe-498c-8422-2a90ce77d48e","ios":"levelo://app?vid=68403b74-01fe-498c-8422-2a90ce77d48e"},"vehicle_type_id":"4","last_reported":1726650634,"current_range_meters":24800,"station_id":"","pricing_plan_id":"cebpf4jnsgd1na2vs0mg"},{"bike_id":"bb75a460-5bb6-4135-871d-8a9daaf8b335","system_id":"levelo_inurba_marseille","lat":43.30927,"lon":5.40134,"is_reserved":false,"is_disabled":false,"rental_uris":{"android":"levelo://app?vid=bb75a460-5bb6-4135-871d-8a9daaf8b335","ios":"levelo://app?vid=bb75a460-5bb6-4135-871d-8a9daaf8b335"},"vehicle_type_id":"4","last_reported":1726650634,"current_range_meters":38800,"station_id":"ce4bgvp2rcd13ifvqct0","pricing_plan_id":"cebpf4jnsgd1na2vs0mg"},{"bike_id":"66127129-8160-4ecf-b52d-2134894b1647","system_id":"levelo_inurba_marseille","lat":43.28609,"lon":5.37065,"is_reserved":false,"is_disabled":false,"rental_uris":{"android":"levelo://app?vid=66127129-8160-4ecf-b52d-2134894b1647","ios":"levelo://app?vid=66127129-8160-4ecf-b52d-2134894b1647"},"vehicle_type_id":"4","last_reported":1726650634,"current_range_meters":37600,"station_id":"ce4bht12rcd13ifvqi60","pricing_plan_id":"cebpf4jnsgd1na2vs0mg"},{"bike_id":"4f655d40-f660-4d74-86d7-b564526770eb","system_id":"levelo_inurba_marseille","lat":43.30413,"lon":5.41289,"is_reserved":false,"is_disabled":false,"rental_uris":{"android":"levelo://app?vid=4f655d40-f660-4d74-86d7-b564526770eb","ios":"levelo://app?vid=4f655d40-f660-4d74-86d7-b564526770eb"},"vehicle_type_id":"4","last_reported":1726650634,"current_range_meters":19600,"station_id":"ce4bhop2rcd13ifvqh8g","pricing_plan_id":"cebpf4jnsgd1na2vs0mg"},{"bike_id":"02d4a814-d76b-4483-906c-9c392ff455a3","system_id":"levelo_inurba_marseille","lat":43.30153,"lon":5.38078,"is_reserved":false,"is_disabled":false,"rental_uris":{"android":"levelo://app?vid=02d4a814-d76b-4483-906c-9c392ff455a3","ios":"levelo://app?vid=02d4a814-d76b-4483-906c-9c392ff455a3"},"vehicle_type_id":"4","last_reported":1726650634,"current_range_meters":31200,"station_id":"ce4bgjp2rcd13ifvqbh0","pricing_plan_id":"cebpf4jnsgd1na2vs0mg"},{"bike_id":"39a7842f-7c51-4874-83b0-3aa6c6daa7e1","system_id":"levelo_inurba_marseille","lat":43.29712,"lon":5.37696,"is_reserved":false,"is_disabled":false,"rental_uris":{"android":"levelo://app?vid=39a7842f-7c51-4874-83b0-3aa6c6daa7e1","ios":"levelo://app?vid=39a7842f-7c51-4874-83b0-3aa6c6daa7e1"},"vehicle_type_id":"4","last_reported":1726650634,"current_range_meters":38800,"station_id":"ce4bgkh2rcd13ifvqbl0","pricing_plan_id":"cebpf4jnsgd1na2vs0mg"},{"bike_id":"e8e55469-9ad3-4cd3-9b3a-94d5805a8f44","system_id":"levelo_inurba_marseille","lat":43.25498,"lon":5.37647,"is_reserved":false,"is_disabled":false,"rental_uris":{"android":"levelo://app?vid=e8e55469-9ad3-4cd3-9b3a-94d5805a8f44","ios":"levelo://app?vid=e8e55469-9ad3-4cd3-9b3a-94d5805a8f44"},"vehicle_type_id":"4","last_reported":1726650634,"current_range_meters":37600,"station_id":"ce4bhh12rcd13ifvqff0","pricing_plan_id":"cebpf4jnsgd1na2vs0mg"},{"bike_id":"c805984e-4bfb-48c3-bd18-37f27572cd7b","system_id":"levelo_inurba_marseille","lat":43.30926,"lon":5.40135,"is_reserved":false,"is_disabled":false,"rental_uris":{"android":"levelo://app?vid=c805984e-4bfb-48c3-bd18-37f27572cd7b","ios":"levelo://app?vid=c805984e-4bfb-48c3-bd18-37f27572cd7b"},"vehicle_type_id":"4","last_reported":1726650634,"current_range_meters":38800,"station_id":"ce4bgvp2rcd13ifvqct0","pricing_plan_id":"cebpf4jnsgd1na2vs0mg"},{"bike_id":"55b5a4cc-060d-4660-b59a-73a2200a56fb","system_id":"levelo_inurba_marseille","lat":43.2315,"lon":5.43722,"is_reserved":false,"is_disabled":false,"rental_uris":{"android":"levelo://app?vid=55b5a4cc-060d-4660-b59a-73a2200a56fb","ios":"levelo://app?vid=55b5a4cc-060d-4660-b59a-73a2200a56fb"},"vehicle_type_id":"4","last_reported":1726650634,"current_range_meters":17600,"station_id":"ce4bhmp2rcd13ifvqgog","pricing_plan_id":"cebpf4jnsgd1na2vs0mg"},{"bike_id":"70ce3a79-6e57-48cf-ae26-bc1ac4de3616","system_id":"levelo_inurba_marseille","lat":43.30535,"lon":5.36705,"is_reserved":false,"is_disabled":false,"rental_uris":{"android":"levelo://app?vid=70ce3a79-6e57-48cf-ae26-bc1ac4de3616","ios":"levelo://app?vid=70ce3a79-6e57-48cf-ae26-bc1ac4de3616"},"vehicle_type_id":"4","last_reported":1726650634,"current_range_meters":39200,"station_id":"ce4bgrp2rcd13ifvqc9g","pricing_plan_id":"cebpf4jnsgd1na2vs0mg"},{"bike_id":"465d066b-0e3e-4b5e-832f-ed1109f6383d","system_id":"levelo_inurba_marseille","lat":43.33028,"lon":5.39036,"is_reserved":false,"is_disabled":false,"rental_uris":{"android":"levelo://app?vid=465d066b-0e3e-4b5e-832f-ed1109f6383d","ios":"levelo://app?vid=465d066b-0e3e-4b5e-832f-ed1109f6383d"},"vehicle_type_id":"4","last_reported":1726650634,"current_range_meters":8000,"station_id":"ce4bhr92rcd13ifvqhrg","pricing_plan_id":"cebpf4jnsgd1na2vs0mg"},{"bike_id":"474eadc7-0f5d-4f82-bc88-9c271a81145c","system_id":"levelo_inurba_marseille","lat":43.337444,"lon":5.374475,"is_reserved":false,"is_disabled":false,"rental_uris":{"android":"levelo://app?vid=474eadc7-0f5d-4f82-bc88-9c271a81145c","ios":"levelo://app?vid=474eadc7-0f5d-4f82-bc88-9c271a81145c"},"vehicle_type_id":"4","last_reported":1726650634,"current_range_meters":27600,"station_id":"ce4bh092rcd13ifvqd20","pricing_plan_id":"cebpf4jnsgd1na2vs0mg"},{"bike_id":"c7f93bf2-2b30-4c5c-aa72-447b3f4a28ea","system_id":"levelo_inurba_marseille","lat":43.29903,"lon":5.43664,"is_reserved":false,"is_disabled":false,"rental_uris":{"android":"levelo://app?vid=c7f93bf2-2b30-4c5c-aa72-447b3f4a28ea","ios":"levelo://app?vid=c7f93bf2-2b30-4c5c-aa72-447b3f4a28ea"},"vehicle_type_id":"4","last_reported":1726650634,"current_range_meters":4400,"station_id":"ce4bhpp2rcd13ifvqhfg","pricing_plan_id":"cebpf4jnsgd1na2vs0mg"},{"bike_id":"14f021dd-819a-4b56-8320-959e7607ac2f","system_id":"levelo_inurba_marseille","lat":43.2481,"lon":5.37461,"is_reserved":false,"is_disabled":false,"rental_uris":{"android":"levelo://app?vid=14f021dd-819a-4b56-8320-959e7607ac2f","ios":"levelo://app?vid=14f021dd-819a-4b56-8320-959e7607ac2f"},"vehicle_type_id":"4","last_reported":1726650634,"current_range_meters":35600,"station_id":"ce4bhgh2rcd13ifvqfb0","pricing_plan_id":"cebpf4jnsgd1na2vs0mg"},{"bike_id":"8a895e1a-4c62-443f-8433-ffcde5d58a39","system_id":"levelo_inurba_marseille","lat":43.24541,"lon":5.39525,"is_reserved":false,"is_disabled":false,"rental_uris":{"android":"levelo://app?vid=8a895e1a-4c62-443f-8433-ffcde5d58a39","ios":"levelo://app?vid=8a895e1a-4c62-443f-8433-ffcde5d58a39"},"vehicle_type_id":"4","last_reported":1726650634,"current_range_meters":18000,"station_id":"ce4bhlp2rcd13ifvqgjg","pricing_plan_id":"cebpf4jnsgd1na2vs0mg"},{"bike_id":"ed69e130-7cee-4db1-9e10-0d56961305c9","system_id":"levelo_inurba_marseille","lat":43.24169,"lon":5.36399,"is_reserved":false,"is_disabled":false,"rental_uris":{"android":"levelo://app?vid=ed69e130-7cee-4db1-9e10-0d56961305c9","ios":"levelo://app?vid=ed69e130-7cee-4db1-9e10-0d56961305c9"},"vehicle_type_id":"4","last_reported":1726650634,"current_range_meters":27200,"station_id":"cpo36qri1sfpv3e86is0","pricing_plan_id":"cebpf4jnsgd1na2vs0mg"},{"bike_id":"f3703907-d519-40b6-b257-5dfa14712ec1","system_id":"levelo_inurba_marseille","lat":43.24081,"lon":5.37751,"is_reserved":false,"is_disabled":false,"rental_uris":{"android":"levelo://app?vid=f3703907-d519-40b6-b257-5dfa14712ec1","ios":"levelo://app?vid=f3703907-d519-40b6-b257-5dfa14712ec1"},"vehicle_type_id":"4","last_reported":1726650634,"current_range_meters":21600,"station_id":"ce4bhnp2rcd13ifvqgvg","pricing_plan_id":"cebpf4jnsgd1na2vs0mg"},{"bike_id":"d33d16c9-f2bf-41b4-b3dc-22b0407c2359","system_id":"levelo_inurba_marseille","lat":43.27494,"lon":5.42452,"is_reserved":false,"is_disabled":false,"rental_uris":{"android":"levelo://app?vid=d33d16c9-f2bf-41b4-b3dc-22b0407c2359","ios":"levelo://app?vid=d33d16c9-f2bf-41b4-b3dc-22b0407c2359"},"vehicle_type_id":"4","last_reported":1726650634,"current_range_meters":26000,"station_id":"ce4bhn92rcd13ifvqgrg","pricing_plan_id":"cebpf4jnsgd1na2vs0mg"},{"bike_id":"63013e01-6392-44a9-b405-39bece6d2d4d","system_id":"levelo_inurba_marseille","lat":43.31082,"lon":5.4243,"is_reserved":false,"is_disabled":false,"rental_uris":{"android":"levelo://app?vid=63013e01-6392-44a9-b405-39bece6d2d4d","ios":"levelo://app?vid=63013e01-6392-44a9-b405-39bece6d2d4d"},"vehicle_type_id":"4","last_reported":1726650634,"current_range_meters":30000,"station_id":"ce4bhp92rcd13ifvqhag","pricing_plan_id":"cebpf4jnsgd1na2vs0mg"},{"bike_id":"1b5a3615-4988-4982-8b62-9226ed5a66a6","system_id":"levelo_inurba_marseille","lat":43.31333,"lon":5.383,"is_reserved":false,"is_disabled":false,"rental_uris":{"android":"levelo://app?vid=1b5a3615-4988-4982-8b62-9226ed5a66a6","ios":"levelo://app?vid=1b5a3615-4988-4982-8b62-9226ed5a66a6"},"vehicle_type_id":"4","last_reported":1726650634,"current_range_meters":3600,"station_id":"","pricing_plan_id":"cebpf4jnsgd1na2vs0mg"},{"bike_id":"80d1eb54-6334-4c2f-a160-7e4b5cb79537","system_id":"levelo_inurba_marseille","lat":43.29958,"lon":5.41338,"is_reserved":false,"is_disabled":false,"rental_uris":{"android":"levelo://app?vid=80d1eb54-6334-4c2f-a160-7e4b5cb79537","ios":"levelo://app?vid=80d1eb54-6334-4c2f-a160-7e4b5cb79537"},"vehicle_type_id":"4","last_reported":1726650634,"current_range_meters":36000,"station_id":"ce4bhp12rcd13ifvqh9g","pricing_plan_id":"cebpf4jnsgd1na2vs0mg"},{"bike_id":"3533cfbc-a930-4f9e-a7ed-bfa08424b8c3","system_id":"levelo_inurba_marseille","lat":43.27315,"lon":5.3909,"is_reserved":false,"is_disabled":false,"rental_uris":{"android":"levelo://app?vid=3533cfbc-a930-4f9e-a7ed-bfa08424b8c3","ios":"levelo://app?vid=3533cfbc-a930-4f9e-a7ed-bfa08424b8c3"},"vehicle_type_id":"4","last_reported":1726650634,"current_range_meters":38800,"station_id":"ce4bhgp2rcd13ifvqfe0","pricing_plan_id":"cebpf4jnsgd1na2vs0mg"},{"bike_id":"00a6664c-3a79-4ed8-94ec-b2785bff8128","system_id":"levelo_inurba_marseille","lat":43.2678,"lon":5.39424,"is_reserved":false,"is_disabled":false,"rental_uris":{"android":"levelo://app?vid=00a6664c-3a79-4ed8-94ec-b2785bff8128","ios":"levelo://app?vid=00a6664c-3a79-4ed8-94ec-b2785bff8128"},"vehicle_type_id":"4","last_reported":1726650634,"current_range_meters":2800,"station_id":"ce4bhh12rcd13ifvqfg0","pricing_plan_id":"cebpf4jnsgd1na2vs0mg"},{"bike_id":"63c911ee-ca06-4e10-8c7c-0ca06e366d07","system_id":"levelo_inurba_marseille","lat":43.24072,"lon":5.37758,"is_reserved":false,"is_disabled":false,"rental_uris":{"android":"levelo://app?vid=63c911ee-ca06-4e10-8c7c-0ca06e366d07","ios":"levelo://app?vid=63c911ee-ca06-4e10-8c7c-0ca06e366d07"},"vehicle_type_id":"4","last_reported":1726650634,"current_range_meters":32800,"station_id":"ce4bhnp2rcd13ifvqgvg","pricing_plan_id":"cebpf4jnsgd1na2vs0mg"},{"bike_id":"b88d8bac-711e-49d2-9eee-8f0f2fcec434","system_id":"levelo_inurba_marseille","lat":43.33025,"lon":5.39046,"is_reserved":false,"is_disabled":false,"rental_uris":{"android":"levelo://app?vid=b88d8bac-711e-49d2-9eee-8f0f2fcec434","ios":"levelo://app?vid=b88d8bac-711e-49d2-9eee-8f0f2fcec434"},"vehicle_type_id":"4","last_reported":1726650634,"current_range_meters":25600,"station_id":"ce4bhr92rcd13ifvqhrg","pricing_plan_id":"cebpf4jnsgd1na2vs0mg"},{"bike_id":"51c8f926-dd42-4188-8ae9-9d5cbb2f7e71","system_id":"levelo_inurba_marseille","lat":43.24171,"lon":5.39727,"is_reserved":false,"is_disabled":false,"rental_uris":{"android":"levelo://app?vid=51c8f926-dd42-4188-8ae9-9d5cbb2f7e71","ios":"levelo://app?vid=51c8f926-dd42-4188-8ae9-9d5cbb2f7e71"},"vehicle_type_id":"4","last_reported":1726650634,"current_range_meters":20000,"station_id":"ce4bhn12rcd13ifvqgpg","pricing_plan_id":"cebpf4jnsgd1na2vs0mg"},{"bike_id":"d29f50cf-a565-48b9-b502-f74324cfe4c0","system_id":"levelo_inurba_marseille","lat":43.24546,"lon":5.39518,"is_reserved":false,"is_disabled":false,"rental_uris":{"android":"levelo://app?vid=d29f50cf-a565-48b9-b502-f74324cfe4c0","ios":"levelo://app?vid=d29f50cf-a565-48b9-b502-f74324cfe4c0"},"vehicle_type_id":"4","last_reported":1726650634,"current_range_meters":18000,"station_id":"ce4bhlp2rcd13ifvqgjg","pricing_plan_id":"cebpf4jnsgd1na2vs0mg"},{"bike_id":"2e2254f6-d3ed-4277-af5f-ee204e464f40","system_id":"levelo_inurba_marseille","lat":43.29943,"lon":5.41324,"is_reserved":false,"is_disabled":false,"rental_uris":{"android":"levelo://app?vid=2e2254f6-d3ed-4277-af5f-ee204e464f40","ios":"levelo://app?vid=2e2254f6-d3ed-4277-af5f-ee204e464f40"},"vehicle_type_id":"4","last_reported":1726650634,"current_range_meters":36000,"station_id":"ce4bhp12rcd13ifvqh9g","pricing_plan_id":"cebpf4jnsgd1na2vs0mg"},{"bike_id":"535370a0-6161-4b0b-819e-b1c1c6dab109","system_id":"levelo_inurba_marseille","lat":43.2408,"lon":5.37752,"is_reserved":false,"is_disabled":false,"rental_uris":{"android":"levelo://app?vid=535370a0-6161-4b0b-819e-b1c1c6dab109","ios":"levelo://app?vid=535370a0-6161-4b0b-819e-b1c1c6dab109"},"vehicle_type_id":"4","last_reported":1726650634,"current_range_meters":18000,"station_id":"ce4bhnp2rcd13ifvqgvg","pricing_plan_id":"cebpf4jnsgd1na2vs0mg"},{"bike_id":"d651a4dc-fcef-4338-a016-a500899e80f8","system_id":"levelo_inurba_marseille","lat":43.294395,"lon":5.385813,"is_reserved":false,"is_disabled":false,"rental_uris":{"android":"levelo://app?vid=d651a4dc-fcef-4338-a016-a500899e80f8","ios":"levelo://app?vid=d651a4dc-fcef-4338-a016-a500899e80f8"},"vehicle_type_id":"4","last_reported":1726650634,"current_range_meters":22400,"station_id":"ce4bgih2rcd13ifvqba0","pricing_plan_id":"cebpf4jnsgd1na2vs0mg"},{"bike_id":"7ffa0a34-2412-4cf6-a653-08d8c8ef67dd","system_id":"levelo_inurba_marseille","lat":43.32004,"lon":5.4386,"is_reserved":false,"is_disabled":false,"rental_uris":{"android":"levelo://app?vid=7ffa0a34-2412-4cf6-a653-08d8c8ef67dd","ios":"levelo://app?vid=7ffa0a34-2412-4cf6-a653-08d8c8ef67dd"},"vehicle_type_id":"4","last_reported":1726650634,"current_range_meters":12800,"station_id":"","pricing_plan_id":"cebpf4jnsgd1na2vs0mg"},{"bike_id":"f2cc5877-7adb-4f4a-9f11-20ee9f72e78a","system_id":"levelo_inurba_marseille","lat":43.26948,"lon":5.3863,"is_reserved":false,"is_disabled":false,"rental_uris":{"android":"levelo://app?vid=f2cc5877-7adb-4f4a-9f11-20ee9f72e78a","ios":"levelo://app?vid=f2cc5877-7adb-4f4a-9f11-20ee9f72e78a"},"vehicle_type_id":"4","last_reported":1726650634,"current_range_meters":12800,"station_id":"ce4bhh92rcd13ifvqfh0","pricing_plan_id":"cebpf4jnsgd1na2vs0mg"},{"bike_id":"8cb592d9-f82f-4171-894f-8d7ffa6525e5","system_id":"levelo_inurba_marseille","lat":43.23196,"lon":5.35549,"is_reserved":false,"is_disabled":false,"rental_uris":{"android":"levelo://app?vid=8cb592d9-f82f-4171-894f-8d7ffa6525e5","ios":"levelo://app?vid=8cb592d9-f82f-4171-894f-8d7ffa6525e5"},"vehicle_type_id":"4","last_reported":1726650634,"current_range_meters":14400,"station_id":"ce4bhu92rcd13ifvqi70","pricing_plan_id":"cebpf4jnsgd1na2vs0mg"},{"bike_id":"79cad5b6-9cb0-4262-b39c-374cdf1c25d1","system_id":"levelo_inurba_marseille","lat":43.32485,"lon":5.36561,"is_reserved":false,"is_disabled":false,"rental_uris":{"android":"levelo://app?vid=79cad5b6-9cb0-4262-b39c-374cdf1c25d1","ios":"levelo://app?vid=79cad5b6-9cb0-4262-b39c-374cdf1c25d1"},"vehicle_type_id":"4","last_reported":1726650634,"current_range_meters":38800,"station_id":"ce4bhs12rcd13ifvqhvg","pricing_plan_id":"cebpf4jnsgd1na2vs0mg"},{"bike_id":"5902a8b8-7de8-4482-af80-a37a6af31357","system_id":"levelo_inurba_marseille","lat":43.312248,"lon":5.368561,"is_reserved":false,"is_disabled":false,"rental_uris":{"android":"levelo://app?vid=5902a8b8-7de8-4482-af80-a37a6af31357","ios":"levelo://app?vid=5902a8b8-7de8-4482-af80-a37a6af31357"},"vehicle_type_id":"4","last_reported":1726650634,"current_range_meters":3600,"station_id":"ce4bgl92rcd13ifvqbq0","pricing_plan_id":"cebpf4jnsgd1na2vs0mg"},{"bike_id":"0caf0b63-60bb-4994-89f8-3e8519b95de5","system_id":"levelo_inurba_marseille","lat":43.30265,"lon":5.37699,"is_reserved":false,"is_disabled":false,"rental_uris":{"android":"levelo://app?vid=0caf0b63-60bb-4994-89f8-3e8519b95de5","ios":"levelo://app?vid=0caf0b63-60bb-4994-89f8-3e8519b95de5"},"vehicle_type_id":"4","last_reported":1726650634,"current_range_meters":30000,"station_id":"ce4bguh2rcd13ifvqcj0","pricing_plan_id":"cebpf4jnsgd1na2vs0mg"},{"bike_id":"bb032cae-64e9-4889-a534-c64951bed04f","system_id":"levelo_inurba_marseille","lat":43.29606,"lon":5.38105,"is_reserved":false,"is_disabled":false,"rental_uris":{"android":"levelo://app?vid=bb032cae-64e9-4889-a534-c64951bed04f","ios":"levelo://app?vid=bb032cae-64e9-4889-a534-c64951bed04f"},"vehicle_type_id":"4","last_reported":1726650634,"current_range_meters":38800,"station_id":"ce4bgl12rcd13ifvqbo0","pricing_plan_id":"cebpf4jnsgd1na2vs0mg"},{"bike_id":"9cd2158d-f3f3-4a97-a884-99e19ad4bcb7","system_id":"levelo_inurba_marseille","lat":43.23155,"lon":5.43709,"is_reserved":false,"is_disabled":false,"rental_uris":{"android":"levelo://app?vid=9cd2158d-f3f3-4a97-a884-99e19ad4bcb7","ios":"levelo://app?vid=9cd2158d-f3f3-4a97-a884-99e19ad4bcb7"},"vehicle_type_id":"4","last_reported":1726650634,"current_range_meters":29600,"station_id":"ce4bhmp2rcd13ifvqgog","pricing_plan_id":"cebpf4jnsgd1na2vs0mg"},{"bike_id":"c3bcca86-6294-4639-9d07-9722d40f464e","system_id":"levelo_inurba_marseille","lat":43.29899,"lon":5.43669,"is_reserved":false,"is_disabled":false,"rental_uris":{"android":"levelo://app?vid=c3bcca86-6294-4639-9d07-9722d40f464e","ios":"levelo://app?vid=c3bcca86-6294-4639-9d07-9722d40f464e"},"vehicle_type_id":"4","last_reported":1726650634,"current_range_meters":24800,"station_id":"ce4bhpp2rcd13ifvqhfg","pricing_plan_id":"cebpf4jnsgd1na2vs0mg"},{"bike_id":"9242cf14-e007-46a6-bf57-3daf8a7e8d69","system_id":"levelo_inurba_marseille","lat":43.28343,"lon":5.38097,"is_reserved":false,"is_disabled":false,"rental_uris":{"android":"levelo://app?vid=9242cf14-e007-46a6-bf57-3daf8a7e8d69","ios":"levelo://app?vid=9242cf14-e007-46a6-bf57-3daf8a7e8d69"},"vehicle_type_id":"4","last_reported":1726650634,"current_range_meters":29600,"station_id":"ce4bh412rcd13ifvqdr0","pricing_plan_id":"cebpf4jnsgd1na2vs0mg"},{"bike_id":"edfb28d5-b66c-4090-b4b8-2607f3c4f6ab","system_id":"levelo_inurba_marseille","lat":43.32543,"lon":5.41446,"is_reserved":false,"is_disabled":false,"rental_uris":{"android":"levelo://app?vid=edfb28d5-b66c-4090-b4b8-2607f3c4f6ab","ios":"levelo://app?vid=edfb28d5-b66c-4090-b4b8-2607f3c4f6ab"},"vehicle_type_id":"4","last_reported":1726650634,"current_range_meters":38000,"station_id":"ce4bhq12rcd13ifvqhhg","pricing_plan_id":"cebpf4jnsgd1na2vs0mg"},{"bike_id":"8e3c84db-879d-4669-8d43-f74eed3d4c1b","system_id":"levelo_inurba_marseille","lat":43.27372,"lon":5.36258,"is_reserved":false,"is_disabled":false,"rental_uris":{"android":"levelo://app?vid=8e3c84db-879d-4669-8d43-f74eed3d4c1b","ios":"levelo://app?vid=8e3c84db-879d-4669-8d43-f74eed3d4c1b"},"vehicle_type_id":"4","last_reported":1726650634,"current_range_meters":39200,"station_id":"ce4bhbh2rcd13ifvqeo0","pricing_plan_id":"cebpf4jnsgd1na2vs0mg"},{"bike_id":"2f0e506d-69bb-46ee-8f71-e278d04f0c3f","system_id":"levelo_inurba_marseille","lat":43.25931,"lon":5.40904,"is_reserved":false,"is_disabled":false,"rental_uris":{"android":"levelo://app?vid=2f0e506d-69bb-46ee-8f71-e278d04f0c3f","ios":"levelo://app?vid=2f0e506d-69bb-46ee-8f71-e278d04f0c3f"},"vehicle_type_id":"4","last_reported":1726650634,"current_range_meters":29600,"station_id":"ce4bhm92rcd13ifvqglg","pricing_plan_id":"cebpf4jnsgd1na2vs0mg"},{"bike_id":"00e75aa4-679c-42d6-be48-906ec2eca445","system_id":"levelo_inurba_marseille","lat":43.30536,"lon":5.36538,"is_reserved":false,"is_disabled":false,"rental_uris":{"android":"levelo://app?vid=00e75aa4-679c-42d6-be48-906ec2eca445","ios":"levelo://app?vid=00e75aa4-679c-42d6-be48-906ec2eca445"},"vehicle_type_id":"4","last_reported":1726650634,"current_range_meters":32800,"station_id":"ce4bgs12rcd13ifvqcag","pricing_plan_id":"cebpf4jnsgd1na2vs0mg"},{"bike_id":"b5cc06aa-fd0a-4f16-9512-cc0ee529c93f","system_id":"levelo_inurba_marseille","lat":43.23153,"lon":5.43709,"is_reserved":false,"is_disabled":false,"rental_uris":{"android":"levelo://app?vid=b5cc06aa-fd0a-4f16-9512-cc0ee529c93f","ios":"levelo://app?vid=b5cc06aa-fd0a-4f16-9512-cc0ee529c93f"},"vehicle_type_id":"4","last_reported":1726650634,"current_range_meters":25600,"station_id":"ce4bhmp2rcd13ifvqgog","pricing_plan_id":"cebpf4jnsgd1na2vs0mg"},{"bike_id":"b1db6496-7d7b-4acc-a88c-e5406d38e100","system_id":"levelo_inurba_marseille","lat":43.2319,"lon":5.3555,"is_reserved":false,"is_disabled":false,"rental_uris":{"android":"levelo://app?vid=b1db6496-7d7b-4acc-a88c-e5406d38e100","ios":"levelo://app?vid=b1db6496-7d7b-4acc-a88c-e5406d38e100"},"vehicle_type_id":"4","last_reported":1726650634,"current_range_meters":23200,"station_id":"ce4bhu92rcd13ifvqi70","pricing_plan_id":"cebpf4jnsgd1na2vs0mg"},{"bike_id":"d0d8fbfa-4de4-42a7-9832-5e25d5f2fdfb","system_id":"levelo_inurba_marseille","lat":43.3054,"lon":5.36531,"is_reserved":false,"is_disabled":false,"rental_uris":{"android":"levelo://app?vid=d0d8fbfa-4de4-42a7-9832-5e25d5f2fdfb","ios":"levelo://app?vid=d0d8fbfa-4de4-42a7-9832-5e25d5f2fdfb"},"vehicle_type_id":"4","last_reported":1726650634,"current_range_meters":36400,"station_id":"ce4bgs12rcd13ifvqcag","pricing_plan_id":"cebpf4jnsgd1na2vs0mg"},{"bike_id":"7dbbbfbb-9ed3-45d4-bcc0-e41ea8defa21","system_id":"levelo_inurba_marseille","lat":43.29414,"lon":5.38627,"is_reserved":false,"is_disabled":false,"rental_uris":{"android":"levelo://app?vid=7dbbbfbb-9ed3-45d4-bcc0-e41ea8defa21","ios":"levelo://app?vid=7dbbbfbb-9ed3-45d4-bcc0-e41ea8defa21"},"vehicle_type_id":"4","last_reported":1726650634,"current_range_meters":30000,"station_id":"ce4bh2h2rcd13ifvqdh0","pricing_plan_id":"cebpf4jnsgd1na2vs0mg"},{"bike_id":"a14d54e9-e77f-4b0a-976d-f618ad10ea71","system_id":"levelo_inurba_marseille","lat":43.24386,"lon":5.37055,"is_reserved":false,"is_disabled":false,"rental_uris":{"android":"levelo://app?vid=a14d54e9-e77f-4b0a-976d-f618ad10ea71","ios":"levelo://app?vid=a14d54e9-e77f-4b0a-976d-f618ad10ea71"},"vehicle_type_id":"4","last_reported":1726650634,"current_range_meters":30000,"station_id":"ce4bhhh2rcd13ifvqfk0","pricing_plan_id":"cebpf4jnsgd1na2vs0mg"},{"bike_id":"7a1aefa5-3f47-4fb6-b298-3120a02f47d7","system_id":"levelo_inurba_marseille","lat":43.32476,"lon":5.36584,"is_reserved":false,"is_disabled":false,"rental_uris":{"android":"levelo://app?vid=7a1aefa5-3f47-4fb6-b298-3120a02f47d7","ios":"levelo://app?vid=7a1aefa5-3f47-4fb6-b298-3120a02f47d7"},"vehicle_type_id":"4","last_reported":1726650634,"current_range_meters":36800,"station_id":"ce4bhs12rcd13ifvqhvg","pricing_plan_id":"cebpf4jnsgd1na2vs0mg"},{"bike_id":"db553283-41fe-4112-95e7-36513c32f692","system_id":"levelo_inurba_marseille","lat":43.25576,"lon":5.3824,"is_reserved":false,"is_disabled":false,"rental_uris":{"android":"levelo://app?vid=db553283-41fe-4112-95e7-36513c32f692","ios":"levelo://app?vid=db553283-41fe-4112-95e7-36513c32f692"},"vehicle_type_id":"4","last_reported":1726650634,"current_range_meters":24400,"station_id":"ce4bhih2rcd13ifvqfs0","pricing_plan_id":"cebpf4jnsgd1na2vs0mg"},{"bike_id":"1e490c7b-e360-427f-bee4-a08e58a98640","system_id":"levelo_inurba_marseille","lat":43.24076,"lon":5.37754,"is_reserved":false,"is_disabled":false,"rental_uris":{"android":"levelo://app?vid=1e490c7b-e360-427f-bee4-a08e58a98640","ios":"levelo://app?vid=1e490c7b-e360-427f-bee4-a08e58a98640"},"vehicle_type_id":"4","last_reported":1726650634,"current_range_meters":28400,"station_id":"ce4bhnp2rcd13ifvqgvg","pricing_plan_id":"cebpf4jnsgd1na2vs0mg"},{"bike_id":"d0172022-3cd3-4782-a82a-e3462bf8db56","system_id":"levelo_inurba_marseille","lat":43.28341,"lon":5.38091,"is_reserved":false,"is_disabled":false,"rental_uris":{"android":"levelo://app?vid=d0172022-3cd3-4782-a82a-e3462bf8db56","ios":"levelo://app?vid=d0172022-3cd3-4782-a82a-e3462bf8db56"},"vehicle_type_id":"4","last_reported":1726650634,"current_range_meters":38800,"station_id":"ce4bh412rcd13ifvqdr0","pricing_plan_id":"cebpf4jnsgd1na2vs0mg"},{"bike_id":"7efadcb6-f988-4793-9d14-f592bf1672c1","system_id":"levelo_inurba_marseille","lat":43.26554,"lon":5.39026,"is_reserved":false,"is_disabled":false,"rental_uris":{"android":"levelo://app?vid=7efadcb6-f988-4793-9d14-f592bf1672c1","ios":"levelo://app?vid=7efadcb6-f988-4793-9d14-f592bf1672c1"},"vehicle_type_id":"4","last_reported":1726650634,"current_range_meters":37600,"station_id":"ce4bhe12rcd13ifvqf30","pricing_plan_id":"cebpf4jnsgd1na2vs0mg"},{"bike_id":"b645ac77-0d58-4fa9-8ad3-947af8bdb1d9","system_id":"levelo_inurba_marseille","lat":43.2989,"lon":5.43662,"is_reserved":false,"is_disabled":false,"rental_uris":{"android":"levelo://app?vid=b645ac77-0d58-4fa9-8ad3-947af8bdb1d9","ios":"levelo://app?vid=b645ac77-0d58-4fa9-8ad3-947af8bdb1d9"},"vehicle_type_id":"4","last_reported":1726650634,"current_range_meters":19600,"station_id":"ce4bhpp2rcd13ifvqhfg","pricing_plan_id":"cebpf4jnsgd1na2vs0mg"},{"bike_id":"2e36b618-c711-4758-a319-d0f0d0f1f3c3","system_id":"levelo_inurba_marseille","lat":43.33776,"lon":5.37442,"is_reserved":false,"is_disabled":false,"rental_uris":{"android":"levelo://app?vid=2e36b618-c711-4758-a319-d0f0d0f1f3c3","ios":"levelo://app?vid=2e36b618-c711-4758-a319-d0f0d0f1f3c3"},"vehicle_type_id":"4","last_reported":1726650634,"current_range_meters":18000,"station_id":"","pricing_plan_id":"cebpf4jnsgd1na2vs0mg"},{"bike_id":"c70646b5-0ed7-4f41-b696-bc25c65851c4","system_id":"levelo_inurba_marseille","lat":43.25933,"lon":5.40913,"is_reserved":false,"is_disabled":false,"rental_uris":{"android":"levelo://app?vid=c70646b5-0ed7-4f41-b696-bc25c65851c4","ios":"levelo://app?vid=c70646b5-0ed7-4f41-b696-bc25c65851c4"},"vehicle_type_id":"4","last_reported":1726650634,"current_range_meters":8000,"station_id":"ce4bhm92rcd13ifvqglg","pricing_plan_id":"cebpf4jnsgd1na2vs0mg"},{"bike_id":"ab27ef62-63dd-451d-b434-bfec59304073","system_id":"levelo_inurba_marseille","lat":43.29704,"lon":5.37702,"is_reserved":false,"is_disabled":false,"rental_uris":{"android":"levelo://app?vid=ab27ef62-63dd-451d-b434-bfec59304073","ios":"levelo://app?vid=ab27ef62-63dd-451d-b434-bfec59304073"},"vehicle_type_id":"4","last_reported":1726650634,"current_range_meters":4400,"station_id":"ce4bgkh2rcd13ifvqbl0","pricing_plan_id":"cebpf4jnsgd1na2vs0mg"},{"bike_id":"ab927be6-8eda-4b1e-8888-f5462fc7dbdd","system_id":"levelo_inurba_marseille","lat":43.31352,"lon":5.3674,"is_reserved":false,"is_disabled":false,"rental_uris":{"android":"levelo://app?vid=ab927be6-8eda-4b1e-8888-f5462fc7dbdd","ios":"levelo://app?vid=ab927be6-8eda-4b1e-8888-f5462fc7dbdd"},"vehicle_type_id":"4","last_reported":1726650634,"current_range_meters":19200,"station_id":"ce4bgr92rcd13ifvqc6g","pricing_plan_id":"cebpf4jnsgd1na2vs0mg"},{"bike_id":"2821bd5e-f2cc-464c-a98c-3e36c986cc0e","system_id":"levelo_inurba_marseille","lat":43.25934,"lon":5.4091,"is_reserved":false,"is_disabled":false,"rental_uris":{"android":"levelo://app?vid=2821bd5e-f2cc-464c-a98c-3e36c986cc0e","ios":"levelo://app?vid=2821bd5e-f2cc-464c-a98c-3e36c986cc0e"},"vehicle_type_id":"4","last_reported":1726650634,"current_range_meters":36400,"station_id":"ce4bhm92rcd13ifvqglg","pricing_plan_id":"cebpf4jnsgd1na2vs0mg"},{"bike_id":"e712a7cb-d76a-4dcd-b3a5-9055e5eca858","system_id":"levelo_inurba_marseille","lat":43.30456,"lon":5.3791,"is_reserved":false,"is_disabled":false,"rental_uris":{"android":"levelo://app?vid=e712a7cb-d76a-4dcd-b3a5-9055e5eca858","ios":"levelo://app?vid=e712a7cb-d76a-4dcd-b3a5-9055e5eca858"},"vehicle_type_id":"4","last_reported":1726650634,"current_range_meters":38000,"station_id":"ce4bgup2rcd13ifvqcn0","pricing_plan_id":"cebpf4jnsgd1na2vs0mg"},{"bike_id":"8ceb5aea-b40e-4dad-98b0-1dcabb72c74a","system_id":"levelo_inurba_marseille","lat":43.32286,"lon":5.38268,"is_reserved":false,"is_disabled":false,"rental_uris":{"android":"levelo://app?vid=8ceb5aea-b40e-4dad-98b0-1dcabb72c74a","ios":"levelo://app?vid=8ceb5aea-b40e-4dad-98b0-1dcabb72c74a"},"vehicle_type_id":"4","last_reported":1726650634,"current_range_meters":26800,"station_id":"ce4bhr12rcd13ifvqhqg","pricing_plan_id":"cebpf4jnsgd1na2vs0mg"},{"bike_id":"b25232db-c485-4e9c-a2f6-4acc0677bc78","system_id":"levelo_inurba_marseille","lat":43.23148,"lon":5.43716,"is_reserved":false,"is_disabled":false,"rental_uris":{"android":"levelo://app?vid=b25232db-c485-4e9c-a2f6-4acc0677bc78","ios":"levelo://app?vid=b25232db-c485-4e9c-a2f6-4acc0677bc78"},"vehicle_type_id":"4","last_reported":1726650634,"current_range_meters":4000,"station_id":"ce4bhmp2rcd13ifvqgog","pricing_plan_id":"cebpf4jnsgd1na2vs0mg"},{"bike_id":"35f6569d-8dcd-4ab5-a8c1-26d92b7ae670","system_id":"levelo_inurba_marseille","lat":43.29374,"lon":5.37858,"is_reserved":false,"is_disabled":false,"rental_uris":{"android":"levelo://app?vid=35f6569d-8dcd-4ab5-a8c1-26d92b7ae670","ios":"levelo://app?vid=35f6569d-8dcd-4ab5-a8c1-26d92b7ae670"},"vehicle_type_id":"4","last_reported":1726650634,"current_range_meters":38000,"station_id":"ce4bgjh2rcd13ifvqbf0","pricing_plan_id":"cebpf4jnsgd1na2vs0mg"},{"bike_id":"677498c9-746b-4650-9a8e-2c7479635944","system_id":"levelo_inurba_marseille","lat":43.33023,"lon":5.3905,"is_reserved":false,"is_disabled":false,"rental_uris":{"android":"levelo://app?vid=677498c9-746b-4650-9a8e-2c7479635944","ios":"levelo://app?vid=677498c9-746b-4650-9a8e-2c7479635944"},"vehicle_type_id":"4","last_reported":1726650634,"current_range_meters":16400,"station_id":"ce4bhr92rcd13ifvqhrg","pricing_plan_id":"cebpf4jnsgd1na2vs0mg"},{"bike_id":"1d0e82e0-c627-46a9-9900-72456a2e4f58","system_id":"levelo_inurba_marseille","lat":43.24076,"lon":5.37759,"is_reserved":false,"is_disabled":false,"rental_uris":{"android":"levelo://app?vid=1d0e82e0-c627-46a9-9900-72456a2e4f58","ios":"levelo://app?vid=1d0e82e0-c627-46a9-9900-72456a2e4f58"},"vehicle_type_id":"4","last_reported":1726650634,"current_range_meters":36800,"station_id":"ce4bhnp2rcd13ifvqgvg","pricing_plan_id":"cebpf4jnsgd1na2vs0mg"},{"bike_id":"9f6f9bb1-cc7a-4fdd-9d06-0ccf96de6f40","system_id":"levelo_inurba_marseille","lat":43.30565,"lon":5.36537,"is_reserved":false,"is_disabled":false,"rental_uris":{"android":"levelo://app?vid=9f6f9bb1-cc7a-4fdd-9d06-0ccf96de6f40","ios":"levelo://app?vid=9f6f9bb1-cc7a-4fdd-9d06-0ccf96de6f40"},"vehicle_type_id":"4","last_reported":1726650634,"current_range_meters":10000,"station_id":"ce4bgs12rcd13ifvqcag","pricing_plan_id":"cebpf4jnsgd1na2vs0mg"},{"bike_id":"d7123240-86e5-46c1-82c5-c193f57c558b","system_id":"levelo_inurba_marseille","lat":43.29976,"lon":5.37175,"is_reserved":false,"is_disabled":false,"rental_uris":{"android":"levelo://app?vid=d7123240-86e5-46c1-82c5-c193f57c558b","ios":"levelo://app?vid=d7123240-86e5-46c1-82c5-c193f57c558b"},"vehicle_type_id":"4","last_reported":1726650634,"current_range_meters":20400,"station_id":"ce4bgr92rcd13ifvqc7g","pricing_plan_id":"cebpf4jnsgd1na2vs0mg"},{"bike_id":"ede9d552-efe1-42ee-ba6f-f0df17838402","system_id":"levelo_inurba_marseille","lat":43.337444,"lon":5.374475,"is_reserved":false,"is_disabled":false,"rental_uris":{"android":"levelo://app?vid=ede9d552-efe1-42ee-ba6f-f0df17838402","ios":"levelo://app?vid=ede9d552-efe1-42ee-ba6f-f0df17838402"},"vehicle_type_id":"4","last_reported":1726650634,"current_range_meters":22400,"station_id":"ce4bh092rcd13ifvqd20","pricing_plan_id":"cebpf4jnsgd1na2vs0mg"},{"bike_id":"1ac66024-28ac-41bb-a4c8-3b7a64682c8f","system_id":"levelo_inurba_marseille","lat":43.24082,"lon":5.37739,"is_reserved":false,"is_disabled":false,"rental_uris":{"android":"levelo://app?vid=1ac66024-28ac-41bb-a4c8-3b7a64682c8f","ios":"levelo://app?vid=1ac66024-28ac-41bb-a4c8-3b7a64682c8f"},"vehicle_type_id":"4","last_reported":1726650634,"current_range_meters":32000,"station_id":"ce4bhnp2rcd13ifvqgvg","pricing_plan_id":"cebpf4jnsgd1na2vs0mg"},{"bike_id":"edcb7831-5f93-4381-9cdb-bf2cddba3298","system_id":"levelo_inurba_marseille","lat":43.26682,"lon":5.38264,"is_reserved":false,"is_disabled":false,"rental_uris":{"android":"levelo://app?vid=edcb7831-5f93-4381-9cdb-bf2cddba3298","ios":"levelo://app?vid=edcb7831-5f93-4381-9cdb-bf2cddba3298"},"vehicle_type_id":"4","last_reported":1726650634,"current_range_meters":32800,"station_id":"ce4bhg92rcd13ifvqf90","pricing_plan_id":"cebpf4jnsgd1na2vs0mg"},{"bike_id":"039abe42-d53e-48b2-910f-be7e05ba47a1","system_id":"levelo_inurba_marseille","lat":43.29851,"lon":5.36276,"is_reserved":false,"is_disabled":false,"rental_uris":{"android":"levelo://app?vid=039abe42-d53e-48b2-910f-be7e05ba47a1","ios":"levelo://app?vid=039abe42-d53e-48b2-910f-be7e05ba47a1"},"vehicle_type_id":"4","last_reported":1726650634,"current_range_meters":30400,"station_id":"ce4bgpp2rcd13ifvqc3g","pricing_plan_id":"cebpf4jnsgd1na2vs0mg"},{"bike_id":"fd35cf2e-3b78-417d-ae61-fa4063a3900a","system_id":"levelo_inurba_marseille","lat":43.30911,"lon":5.36858,"is_reserved":false,"is_disabled":false,"rental_uris":{"android":"levelo://app?vid=fd35cf2e-3b78-417d-ae61-fa4063a3900a","ios":"levelo://app?vid=fd35cf2e-3b78-417d-ae61-fa4063a3900a"},"vehicle_type_id":"4","last_reported":1726650634,"current_range_meters":18000,"station_id":"ce4bgn92rcd13ifvqbvg","pricing_plan_id":"cebpf4jnsgd1na2vs0mg"},{"bike_id":"8746bc86-84bc-469d-bc9c-452476199d12","system_id":"levelo_inurba_marseille","lat":43.26947,"lon":5.38639,"is_reserved":false,"is_disabled":false,"rental_uris":{"android":"levelo://app?vid=8746bc86-84bc-469d-bc9c-452476199d12","ios":"levelo://app?vid=8746bc86-84bc-469d-bc9c-452476199d12"},"vehicle_type_id":"4","last_reported":1726650634,"current_range_meters":37600,"station_id":"ce4bhh92rcd13ifvqfh0","pricing_plan_id":"cebpf4jnsgd1na2vs0mg"},{"bike_id":"3f0f49b2-7b9f-4f81-9b92-02cf815ca1d4","system_id":"levelo_inurba_marseille","lat":43.30479,"lon":5.37903,"is_reserved":false,"is_disabled":false,"rental_uris":{"android":"levelo://app?vid=3f0f49b2-7b9f-4f81-9b92-02cf815ca1d4","ios":"levelo://app?vid=3f0f49b2-7b9f-4f81-9b92-02cf815ca1d4"},"vehicle_type_id":"4","last_reported":1726650634,"current_range_meters":37600,"station_id":"ce4bgup2rcd13ifvqcn0","pricing_plan_id":"cebpf4jnsgd1na2vs0mg"},{"bike_id":"2f64e2c6-9063-417f-8a25-f1345df57f08","system_id":"levelo_inurba_marseille","lat":43.25004,"lon":5.38923,"is_reserved":false,"is_disabled":false,"rental_uris":{"android":"levelo://app?vid=2f64e2c6-9063-417f-8a25-f1345df57f08","ios":"levelo://app?vid=2f64e2c6-9063-417f-8a25-f1345df57f08"},"vehicle_type_id":"4","last_reported":1726650634,"current_range_meters":2000,"station_id":"ce4bhgp2rcd13ifvqfd0","pricing_plan_id":"cebpf4jnsgd1na2vs0mg"},{"bike_id":"f7f3e2a5-0c68-4eb6-bd2e-bcd5fb09951d","system_id":"levelo_inurba_marseille","lat":43.32532,"lon":5.41482,"is_reserved":false,"is_disabled":false,"rental_uris":{"android":"levelo://app?vid=f7f3e2a5-0c68-4eb6-bd2e-bcd5fb09951d","ios":"levelo://app?vid=f7f3e2a5-0c68-4eb6-bd2e-bcd5fb09951d"},"vehicle_type_id":"4","last_reported":1726650634,"current_range_meters":26800,"station_id":"ce4bhq12rcd13ifvqhhg","pricing_plan_id":"cebpf4jnsgd1na2vs0mg"},{"bike_id":"63f35a14-50ce-4440-9ed5-77bb4724c55f","system_id":"levelo_inurba_marseille","lat":43.29259,"lon":5.40917,"is_reserved":false,"is_disabled":false,"rental_uris":{"android":"levelo://app?vid=63f35a14-50ce-4440-9ed5-77bb4724c55f","ios":"levelo://app?vid=63f35a14-50ce-4440-9ed5-77bb4724c55f"},"vehicle_type_id":"4","last_reported":1726650634,"current_range_meters":2800,"station_id":"ce4bh192rcd13ifvqdc0","pricing_plan_id":"cebpf4jnsgd1na2vs0mg"},{"bike_id":"2a48bf77-8e30-40df-a761-1516ded8b051","system_id":"levelo_inurba_marseille","lat":43.25107,"lon":5.4032,"is_reserved":false,"is_disabled":false,"rental_uris":{"android":"levelo://app?vid=2a48bf77-8e30-40df-a761-1516ded8b051","ios":"levelo://app?vid=2a48bf77-8e30-40df-a761-1516ded8b051"},"vehicle_type_id":"4","last_reported":1726650634,"current_range_meters":16800,"station_id":"ce4bhlh2rcd13ifvqgig","pricing_plan_id":"cebpf4jnsgd1na2vs0mg"},{"bike_id":"d92e3644-38c4-436a-855e-c542bac677c7","system_id":"levelo_inurba_marseille","lat":43.29307,"lon":5.37164,"is_reserved":false,"is_disabled":false,"rental_uris":{"android":"levelo://app?vid=d92e3644-38c4-436a-855e-c542bac677c7","ios":"levelo://app?vid=d92e3644-38c4-436a-855e-c542bac677c7"},"vehicle_type_id":"4","last_reported":1726650634,"current_range_meters":20000,"station_id":"ce4bgh92rcd13ifvqb40","pricing_plan_id":"cebpf4jnsgd1na2vs0mg"},{"bike_id":"9dbc1275-dff3-4f6f-ac47-2da20b7eaced","system_id":"levelo_inurba_marseille","lat":43.24076,"lon":5.37752,"is_reserved":false,"is_disabled":false,"rental_uris":{"android":"levelo://app?vid=9dbc1275-dff3-4f6f-ac47-2da20b7eaced","ios":"levelo://app?vid=9dbc1275-dff3-4f6f-ac47-2da20b7eaced"},"vehicle_type_id":"4","last_reported":1726650634,"current_range_meters":36800,"station_id":"ce4bhnp2rcd13ifvqgvg","pricing_plan_id":"cebpf4jnsgd1na2vs0mg"},{"bike_id":"af15b34b-0a1b-4f05-9975-d29c112ecf5a","system_id":"levelo_inurba_marseille","lat":43.26549,"lon":5.37287,"is_reserved":false,"is_disabled":false,"rental_uris":{"android":"levelo://app?vid=af15b34b-0a1b-4f05-9975-d29c112ecf5a","ios":"levelo://app?vid=af15b34b-0a1b-4f05-9975-d29c112ecf5a"},"vehicle_type_id":"4","last_reported":1726650634,"current_range_meters":33200,"station_id":"ce4bhg12rcd13ifvqf70","pricing_plan_id":"cebpf4jnsgd1na2vs0mg"},{"bike_id":"99684f50-b398-427b-a4e9-7ca0a0382c79","system_id":"levelo_inurba_marseille","lat":43.23185,"lon":5.35542,"is_reserved":false,"is_disabled":false,"rental_uris":{"android":"levelo://app?vid=99684f50-b398-427b-a4e9-7ca0a0382c79","ios":"levelo://app?vid=99684f50-b398-427b-a4e9-7ca0a0382c79"},"vehicle_type_id":"4","last_reported":1726650634,"current_range_meters":38800,"station_id":"ce4bhu92rcd13ifvqi70","pricing_plan_id":"cebpf4jnsgd1na2vs0mg"},{"bike_id":"004161ea-2444-4d2f-bb89-87c083836a64","system_id":"levelo_inurba_marseille","lat":43.25933,"lon":5.40906,"is_reserved":false,"is_disabled":false,"rental_uris":{"android":"levelo://app?vid=004161ea-2444-4d2f-bb89-87c083836a64","ios":"levelo://app?vid=004161ea-2444-4d2f-bb89-87c083836a64"},"vehicle_type_id":"4","last_reported":1726650634,"current_range_meters":33200,"station_id":"ce4bhm92rcd13ifvqglg","pricing_plan_id":"cebpf4jnsgd1na2vs0mg"},{"bike_id":"b96cbe0a-ffcf-4e93-9a74-57bd9fd2e228","system_id":"levelo_inurba_marseille","lat":43.29767,"lon":5.37084,"is_reserved":false,"is_disabled":false,"rental_uris":{"android":"levelo://app?vid=b96cbe0a-ffcf-4e93-9a74-57bd9fd2e228","ios":"levelo://app?vid=b96cbe0a-ffcf-4e93-9a74-57bd9fd2e228"},"vehicle_type_id":"4","last_reported":1726650634,"current_range_meters":30800,"station_id":"ce4bgop2rcd13ifvqc1g","pricing_plan_id":"cebpf4jnsgd1na2vs0mg"},{"bike_id":"d782c430-b2c7-45ce-aaaf-78dc9a80ca97","system_id":"levelo_inurba_marseille","lat":43.33028,"lon":5.39045,"is_reserved":false,"is_disabled":false,"rental_uris":{"android":"levelo://app?vid=d782c430-b2c7-45ce-aaaf-78dc9a80ca97","ios":"levelo://app?vid=d782c430-b2c7-45ce-aaaf-78dc9a80ca97"},"vehicle_type_id":"4","last_reported":1726650634,"current_range_meters":25600,"station_id":"ce4bhr92rcd13ifvqhrg","pricing_plan_id":"cebpf4jnsgd1na2vs0mg"},{"bike_id":"f65f96b5-0895-4abc-8bd1-9e2977ce3b05","system_id":"levelo_inurba_marseille","lat":43.29629,"lon":5.40594,"is_reserved":false,"is_disabled":false,"rental_uris":{"android":"levelo://app?vid=f65f96b5-0895-4abc-8bd1-9e2977ce3b05","ios":"levelo://app?vid=f65f96b5-0895-4abc-8bd1-9e2977ce3b05"},"vehicle_type_id":"4","last_reported":1726650634,"current_range_meters":2800,"station_id":"ce4bh0h2rcd13ifvqd60","pricing_plan_id":"cebpf4jnsgd1na2vs0mg"},{"bike_id":"c4faec35-7580-4da0-9121-0c9580611ed4","system_id":"levelo_inurba_marseille","lat":43.3234,"lon":5.4062,"is_reserved":false,"is_disabled":false,"rental_uris":{"android":"levelo://app?vid=c4faec35-7580-4da0-9121-0c9580611ed4","ios":"levelo://app?vid=c4faec35-7580-4da0-9121-0c9580611ed4"},"vehicle_type_id":"4","last_reported":1726650634,"current_range_meters":33200,"station_id":"ce4bhq92rcd13ifvqhjg","pricing_plan_id":"cebpf4jnsgd1na2vs0mg"},{"bike_id":"8903f4ef-48ce-46af-9247-c84df1839bc1","system_id":"levelo_inurba_marseille","lat":43.30477,"lon":5.37911,"is_reserved":false,"is_disabled":false,"rental_uris":{"android":"levelo://app?vid=8903f4ef-48ce-46af-9247-c84df1839bc1","ios":"levelo://app?vid=8903f4ef-48ce-46af-9247-c84df1839bc1"},"vehicle_type_id":"4","last_reported":1726650634,"current_range_meters":34000,"station_id":"ce4bgup2rcd13ifvqcn0","pricing_plan_id":"cebpf4jnsgd1na2vs0mg"},{"bike_id":"d7f08400-f527-48cc-a5f0-6454339c6cb8","system_id":"levelo_inurba_marseille","lat":43.28149,"lon":5.42652,"is_reserved":false,"is_disabled":false,"rental_uris":{"android":"levelo://app?vid=d7f08400-f527-48cc-a5f0-6454339c6cb8","ios":"levelo://app?vid=d7f08400-f527-48cc-a5f0-6454339c6cb8"},"vehicle_type_id":"4","last_reported":1726650634,"current_range_meters":9600,"station_id":"ce4bhnh2rcd13ifvqgug","pricing_plan_id":"cebpf4jnsgd1na2vs0mg"},{"bike_id":"2b714e73-49f8-4f26-bb6d-7d72ce23aabc","system_id":"levelo_inurba_marseille","lat":43.23052,"lon":5.3549,"is_reserved":false,"is_disabled":false,"rental_uris":{"android":"levelo://app?vid=2b714e73-49f8-4f26-bb6d-7d72ce23aabc","ios":"levelo://app?vid=2b714e73-49f8-4f26-bb6d-7d72ce23aabc"},"vehicle_type_id":"4","last_reported":1726650634,"current_range_meters":8400,"station_id":"cpo3342slgdg3j2ifvpg","pricing_plan_id":"cebpf4jnsgd1na2vs0mg"},{"bike_id":"08517893-63cf-43d9-88aa-3c89b83ce921","system_id":"levelo_inurba_marseille","lat":43.32475,"lon":5.36557,"is_reserved":false,"is_disabled":false,"rental_uris":{"android":"levelo://app?vid=08517893-63cf-43d9-88aa-3c89b83ce921","ios":"levelo://app?vid=08517893-63cf-43d9-88aa-3c89b83ce921"},"vehicle_type_id":"4","last_reported":1726650634,"current_range_meters":39200,"station_id":"ce4bhs12rcd13ifvqhvg","pricing_plan_id":"cebpf4jnsgd1na2vs0mg"},{"bike_id":"762690b6-6a6a-4c90-a14d-8f99d3446e9e","system_id":"levelo_inurba_marseille","lat":43.337444,"lon":5.374475,"is_reserved":false,"is_disabled":false,"rental_uris":{"android":"levelo://app?vid=762690b6-6a6a-4c90-a14d-8f99d3446e9e","ios":"levelo://app?vid=762690b6-6a6a-4c90-a14d-8f99d3446e9e"},"vehicle_type_id":"4","last_reported":1726650634,"current_range_meters":28800,"station_id":"","pricing_plan_id":"cebpf4jnsgd1na2vs0mg"},{"bike_id":"254be443-d968-4d66-9923-e7b0733a451f","system_id":"levelo_inurba_marseille","lat":43.30543,"lon":5.36711,"is_reserved":false,"is_disabled":false,"rental_uris":{"android":"levelo://app?vid=254be443-d968-4d66-9923-e7b0733a451f","ios":"levelo://app?vid=254be443-d968-4d66-9923-e7b0733a451f"},"vehicle_type_id":"4","last_reported":1726650634,"current_range_meters":38800,"station_id":"ce4bgrp2rcd13ifvqc9g","pricing_plan_id":"cebpf4jnsgd1na2vs0mg"},{"bike_id":"8b9810ec-eb8f-4062-84f1-d58c3b0311fa","system_id":"levelo_inurba_marseille","lat":43.30461,"lon":5.37909,"is_reserved":false,"is_disabled":false,"rental_uris":{"android":"levelo://app?vid=8b9810ec-eb8f-4062-84f1-d58c3b0311fa","ios":"levelo://app?vid=8b9810ec-eb8f-4062-84f1-d58c3b0311fa"},"vehicle_type_id":"4","last_reported":1726650634,"current_range_meters":12000,"station_id":"ce4bgup2rcd13ifvqcn0","pricing_plan_id":"cebpf4jnsgd1na2vs0mg"},{"bike_id":"3fd74174-16c9-4c30-b4c8-3922b7c6cbc8","system_id":"levelo_inurba_marseille","lat":43.24078,"lon":5.37753,"is_reserved":false,"is_disabled":false,"rental_uris":{"android":"levelo://app?vid=3fd74174-16c9-4c30-b4c8-3922b7c6cbc8","ios":"levelo://app?vid=3fd74174-16c9-4c30-b4c8-3922b7c6cbc8"},"vehicle_type_id":"4","last_reported":1726650634,"current_range_meters":5600,"station_id":"ce4bhnp2rcd13ifvqgvg","pricing_plan_id":"cebpf4jnsgd1na2vs0mg"},{"bike_id":"33f69f3f-8823-49c1-90ed-ec30bb04d814","system_id":"levelo_inurba_marseille","lat":43.24073,"lon":5.37758,"is_reserved":false,"is_disabled":false,"rental_uris":{"android":"levelo://app?vid=33f69f3f-8823-49c1-90ed-ec30bb04d814","ios":"levelo://app?vid=33f69f3f-8823-49c1-90ed-ec30bb04d814"},"vehicle_type_id":"4","last_reported":1726650634,"current_range_meters":37600,"station_id":"ce4bhnp2rcd13ifvqgvg","pricing_plan_id":"cebpf4jnsgd1na2vs0mg"},{"bike_id":"76d439c6-f9f7-40ab-a273-41f85ec9da3c","system_id":"levelo_inurba_marseille","lat":43.27986,"lon":5.41661,"is_reserved":false,"is_disabled":false,"rental_uris":{"android":"levelo://app?vid=76d439c6-f9f7-40ab-a273-41f85ec9da3c","ios":"levelo://app?vid=76d439c6-f9f7-40ab-a273-41f85ec9da3c"},"vehicle_type_id":"4","last_reported":1726650634,"current_range_meters":24000,"station_id":"ce4bho12rcd13ifvqh1g","pricing_plan_id":"cebpf4jnsgd1na2vs0mg"},{"bike_id":"e8befb56-1303-484d-9ed5-cb1654ca2bd2","system_id":"levelo_inurba_marseille","lat":43.23955,"lon":5.3664,"is_reserved":false,"is_disabled":false,"rental_uris":{"android":"levelo://app?vid=e8befb56-1303-484d-9ed5-cb1654ca2bd2","ios":"levelo://app?vid=e8befb56-1303-484d-9ed5-cb1654ca2bd2"},"vehicle_type_id":"4","last_reported":1726650634,"current_range_meters":36800,"station_id":"ce4bhi12rcd13ifvqfp0","pricing_plan_id":"cebpf4jnsgd1na2vs0mg"},{"bike_id":"2e4c0d1a-a4a2-40d5-9c70-26993c46a5f6","system_id":"levelo_inurba_marseille","lat":43.232,"lon":5.35558,"is_reserved":false,"is_disabled":false,"rental_uris":{"android":"levelo://app?vid=2e4c0d1a-a4a2-40d5-9c70-26993c46a5f6","ios":"levelo://app?vid=2e4c0d1a-a4a2-40d5-9c70-26993c46a5f6"},"vehicle_type_id":"4","last_reported":1726650634,"current_range_meters":37600,"station_id":"ce4bhu92rcd13ifvqi70","pricing_plan_id":"cebpf4jnsgd1na2vs0mg"},{"bike_id":"b29ae848-88e6-467d-bf50-a5fe6b94f93b","system_id":"levelo_inurba_marseille","lat":43.30353,"lon":5.41873,"is_reserved":false,"is_disabled":false,"rental_uris":{"android":"levelo://app?vid=b29ae848-88e6-467d-bf50-a5fe6b94f93b","ios":"levelo://app?vid=b29ae848-88e6-467d-bf50-a5fe6b94f93b"},"vehicle_type_id":"4","last_reported":1726650634,"current_range_meters":10000,"station_id":"ce4bhop2rcd13ifvqh7g","pricing_plan_id":"cebpf4jnsgd1na2vs0mg"},{"bike_id":"03194731-c663-4f08-8359-4624ba26913a","system_id":"levelo_inurba_marseille","lat":43.31355,"lon":5.36731,"is_reserved":false,"is_disabled":false,"rental_uris":{"android":"levelo://app?vid=03194731-c663-4f08-8359-4624ba26913a","ios":"levelo://app?vid=03194731-c663-4f08-8359-4624ba26913a"},"vehicle_type_id":"4","last_reported":1726650634,"current_range_meters":33600,"station_id":"ce4bgr92rcd13ifvqc6g","pricing_plan_id":"cebpf4jnsgd1na2vs0mg"},{"bike_id":"21084f93-3279-4437-98bc-21d82c8332a5","system_id":"levelo_inurba_marseille","lat":43.30906,"lon":5.3686,"is_reserved":false,"is_disabled":false,"rental_uris":{"android":"levelo://app?vid=21084f93-3279-4437-98bc-21d82c8332a5","ios":"levelo://app?vid=21084f93-3279-4437-98bc-21d82c8332a5"},"vehicle_type_id":"4","last_reported":1726650634,"current_range_meters":24000,"station_id":"ce4bgn92rcd13ifvqbvg","pricing_plan_id":"cebpf4jnsgd1na2vs0mg"},{"bike_id":"9f9911f5-f2f8-4a8d-9760-612c239806ce","system_id":"levelo_inurba_marseille","lat":43.26931,"lon":5.38912,"is_reserved":false,"is_disabled":false,"rental_uris":{"android":"levelo://app?vid=9f9911f5-f2f8-4a8d-9760-612c239806ce","ios":"levelo://app?vid=9f9911f5-f2f8-4a8d-9760-612c239806ce"},"vehicle_type_id":"4","last_reported":1726650634,"current_range_meters":28000,"station_id":"ce4bhhh2rcd13ifvqfl0","pricing_plan_id":"cebpf4jnsgd1na2vs0mg"},{"bike_id":"60f77d8c-b647-4452-a0e2-2c5b42e24646","system_id":"levelo_inurba_marseille","lat":43.2593,"lon":5.40908,"is_reserved":false,"is_disabled":false,"rental_uris":{"android":"levelo://app?vid=60f77d8c-b647-4452-a0e2-2c5b42e24646","ios":"levelo://app?vid=60f77d8c-b647-4452-a0e2-2c5b42e24646"},"vehicle_type_id":"4","last_reported":1726650634,"current_range_meters":32400,"station_id":"ce4bhm92rcd13ifvqglg","pricing_plan_id":"cebpf4jnsgd1na2vs0mg"},{"bike_id":"4e2c2699-3b3a-4d93-8b4c-cf2922b45c99","system_id":"levelo_inurba_marseille","lat":43.24078,"lon":5.3775,"is_reserved":false,"is_disabled":false,"rental_uris":{"android":"levelo://app?vid=4e2c2699-3b3a-4d93-8b4c-cf2922b45c99","ios":"levelo://app?vid=4e2c2699-3b3a-4d93-8b4c-cf2922b45c99"},"vehicle_type_id":"4","last_reported":1726650634,"current_range_meters":28800,"station_id":"ce4bhnp2rcd13ifvqgvg","pricing_plan_id":"cebpf4jnsgd1na2vs0mg"},{"bike_id":"11844f37-ec33-42cb-8263-5f2bde8f61a0","system_id":"levelo_inurba_marseille","lat":43.31704,"lon":5.40462,"is_reserved":false,"is_disabled":false,"rental_uris":{"android":"levelo://app?vid=11844f37-ec33-42cb-8263-5f2bde8f61a0","ios":"levelo://app?vid=11844f37-ec33-42cb-8263-5f2bde8f61a0"},"vehicle_type_id":"4","last_reported":1726650634,"current_range_meters":12000,"station_id":"ce4bh012rcd13ifvqd00","pricing_plan_id":"cebpf4jnsgd1na2vs0mg"},{"bike_id":"c3c66152-4cc7-4227-88b4-4aaa5885cbf1","system_id":"levelo_inurba_marseille","lat":43.30459,"lon":5.37908,"is_reserved":false,"is_disabled":false,"rental_uris":{"android":"levelo://app?vid=c3c66152-4cc7-4227-88b4-4aaa5885cbf1","ios":"levelo://app?vid=c3c66152-4cc7-4227-88b4-4aaa5885cbf1"},"vehicle_type_id":"4","last_reported":1726650634,"current_range_meters":37600,"station_id":"ce4bgup2rcd13ifvqcn0","pricing_plan_id":"cebpf4jnsgd1na2vs0mg"},{"bike_id":"4bc47ebe-cbc2-46e0-a585-925d2b106ec0","system_id":"levelo_inurba_marseille","lat":43.30157,"lon":5.38081,"is_reserved":false,"is_disabled":false,"rental_uris":{"android":"levelo://app?vid=4bc47ebe-cbc2-46e0-a585-925d2b106ec0","ios":"levelo://app?vid=4bc47ebe-cbc2-46e0-a585-925d2b106ec0"},"vehicle_type_id":"4","last_reported":1726650634,"current_range_meters":22400,"station_id":"ce4bgjp2rcd13ifvqbh0","pricing_plan_id":"cebpf4jnsgd1na2vs0mg"},{"bike_id":"4d3df7f4-1258-4f9a-a03c-d9a8d0c0bca8","system_id":"levelo_inurba_marseille","lat":43.33767,"lon":5.37431,"is_reserved":false,"is_disabled":false,"rental_uris":{"android":"levelo://app?vid=4d3df7f4-1258-4f9a-a03c-d9a8d0c0bca8","ios":"levelo://app?vid=4d3df7f4-1258-4f9a-a03c-d9a8d0c0bca8"},"vehicle_type_id":"4","last_reported":1726650634,"current_range_meters":37600,"station_id":"","pricing_plan_id":"cebpf4jnsgd1na2vs0mg"},{"bike_id":"6dd17a2f-59bb-4453-859d-2c09ab795824","system_id":"levelo_inurba_marseille","lat":43.33026,"lon":5.39049,"is_reserved":false,"is_disabled":false,"rental_uris":{"android":"levelo://app?vid=6dd17a2f-59bb-4453-859d-2c09ab795824","ios":"levelo://app?vid=6dd17a2f-59bb-4453-859d-2c09ab795824"},"vehicle_type_id":"4","last_reported":1726650634,"current_range_meters":25600,"station_id":"ce4bhr92rcd13ifvqhrg","pricing_plan_id":"cebpf4jnsgd1na2vs0mg"},{"bike_id":"94507e72-b578-4a80-96e1-fd416e89c289","system_id":"levelo_inurba_marseille","lat":43.31753,"lon":5.39013,"is_reserved":false,"is_disabled":false,"rental_uris":{"android":"levelo://app?vid=94507e72-b578-4a80-96e1-fd416e89c289","ios":"levelo://app?vid=94507e72-b578-4a80-96e1-fd416e89c289"},"vehicle_type_id":"4","last_reported":1726650634,"current_range_meters":38400,"station_id":"ce4bhqp2rcd13ifvqhng","pricing_plan_id":"cebpf4jnsgd1na2vs0mg"},{"bike_id":"db3fc979-9333-49eb-869c-0b4dd335ac12","system_id":"levelo_inurba_marseille","lat":43.30475,"lon":5.37904,"is_reserved":false,"is_disabled":false,"rental_uris":{"android":"levelo://app?vid=db3fc979-9333-49eb-869c-0b4dd335ac12","ios":"levelo://app?vid=db3fc979-9333-49eb-869c-0b4dd335ac12"},"vehicle_type_id":"4","last_reported":1726650634,"current_range_meters":38800,"station_id":"ce4bgup2rcd13ifvqcn0","pricing_plan_id":"cebpf4jnsgd1na2vs0mg"},{"bike_id":"333c7ce2-2d18-462f-9262-1bd6f056d7eb","system_id":"levelo_inurba_marseille","lat":43.30555,"lon":5.36536,"is_reserved":false,"is_disabled":false,"rental_uris":{"android":"levelo://app?vid=333c7ce2-2d18-462f-9262-1bd6f056d7eb","ios":"levelo://app?vid=333c7ce2-2d18-462f-9262-1bd6f056d7eb"},"vehicle_type_id":"4","last_reported":1726650634,"current_range_meters":39200,"station_id":"ce4bgs12rcd13ifvqcag","pricing_plan_id":"cebpf4jnsgd1na2vs0mg"},{"bike_id":"35977f31-cfb3-425f-987d-b6042a4e6aae","system_id":"levelo_inurba_marseille","lat":43.25934,"lon":5.40907,"is_reserved":false,"is_disabled":false,"rental_uris":{"android":"levelo://app?vid=35977f31-cfb3-425f-987d-b6042a4e6aae","ios":"levelo://app?vid=35977f31-cfb3-425f-987d-b6042a4e6aae"},"vehicle_type_id":"4","last_reported":1726650634,"current_range_meters":27200,"station_id":"ce4bhm92rcd13ifvqglg","pricing_plan_id":"cebpf4jnsgd1na2vs0mg"},{"bike_id":"cadac2fb-af39-4b20-ad1e-6c57b8609dc8","system_id":"levelo_inurba_marseille","lat":43.30542,"lon":5.36559,"is_reserved":false,"is_disabled":false,"rental_uris":{"android":"levelo://app?vid=cadac2fb-af39-4b20-ad1e-6c57b8609dc8","ios":"levelo://app?vid=cadac2fb-af39-4b20-ad1e-6c57b8609dc8"},"vehicle_type_id":"4","last_reported":1726650634,"current_range_meters":28400,"station_id":"ce4bgs12rcd13ifvqcag","pricing_plan_id":"cebpf4jnsgd1na2vs0mg"},{"bike_id":"c9b40bea-211c-4e0b-bedf-7eceab955071","system_id":"levelo_inurba_marseille","lat":43.26486,"lon":5.39545,"is_reserved":false,"is_disabled":false,"rental_uris":{"android":"levelo://app?vid=c9b40bea-211c-4e0b-bedf-7eceab955071","ios":"levelo://app?vid=c9b40bea-211c-4e0b-bedf-7eceab955071"},"vehicle_type_id":"4","last_reported":1726650634,"current_range_meters":14000,"station_id":"ce4bhi12rcd13ifvqfq0","pricing_plan_id":"cebpf4jnsgd1na2vs0mg"},{"bike_id":"c5483938-683f-4dd8-a9d6-ebf3c734472a","system_id":"levelo_inurba_marseille","lat":43.26684,"lon":5.38272,"is_reserved":false,"is_disabled":false,"rental_uris":{"android":"levelo://app?vid=c5483938-683f-4dd8-a9d6-ebf3c734472a","ios":"levelo://app?vid=c5483938-683f-4dd8-a9d6-ebf3c734472a"},"vehicle_type_id":"4","last_reported":1726650634,"current_range_meters":36400,"station_id":"ce4bhg92rcd13ifvqf90","pricing_plan_id":"cebpf4jnsgd1na2vs0mg"},{"bike_id":"748afd21-8bb0-48ce-b864-a510c044d975","system_id":"levelo_inurba_marseille","lat":43.29207,"lon":5.35804,"is_reserved":false,"is_disabled":false,"rental_uris":{"android":"levelo://app?vid=748afd21-8bb0-48ce-b864-a510c044d975","ios":"levelo://app?vid=748afd21-8bb0-48ce-b864-a510c044d975"},"vehicle_type_id":"4","last_reported":1726650634,"current_range_meters":17200,"station_id":"ce4bhb92rcd13ifvqen0","pricing_plan_id":"cebpf4jnsgd1na2vs0mg"},{"bike_id":"41e6c322-5ad0-4aee-87e8-f7c73e21197f","system_id":"levelo_inurba_marseille","lat":43.26781,"lon":5.39416,"is_reserved":false,"is_disabled":false,"rental_uris":{"android":"levelo://app?vid=41e6c322-5ad0-4aee-87e8-f7c73e21197f","ios":"levelo://app?vid=41e6c322-5ad0-4aee-87e8-f7c73e21197f"},"vehicle_type_id":"4","last_reported":1726650634,"current_range_meters":33600,"station_id":"ce4bhh12rcd13ifvqfg0","pricing_plan_id":"cebpf4jnsgd1na2vs0mg"},{"bike_id":"551007eb-0d19-4212-aaad-40cf20c93b6d","system_id":"levelo_inurba_marseille","lat":43.3054,"lon":5.36534,"is_reserved":false,"is_disabled":false,"rental_uris":{"android":"levelo://app?vid=551007eb-0d19-4212-aaad-40cf20c93b6d","ios":"levelo://app?vid=551007eb-0d19-4212-aaad-40cf20c93b6d"},"vehicle_type_id":"4","last_reported":1726650634,"current_range_meters":38800,"station_id":"ce4bgs12rcd13ifvqcag","pricing_plan_id":"cebpf4jnsgd1na2vs0mg"},{"bike_id":"ffacbdff-c76c-4587-9724-7ec0dd7a8263","system_id":"levelo_inurba_marseille","lat":43.30879,"lon":5.37194,"is_reserved":false,"is_disabled":false,"rental_uris":{"android":"levelo://app?vid=ffacbdff-c76c-4587-9724-7ec0dd7a8263","ios":"levelo://app?vid=ffacbdff-c76c-4587-9724-7ec0dd7a8263"},"vehicle_type_id":"4","last_reported":1726650634,"current_range_meters":6000,"station_id":"ce4bguh2rcd13ifvqckg","pricing_plan_id":"cebpf4jnsgd1na2vs0mg"},{"bike_id":"5eea3ce9-5bef-4500-b89a-370f6c95f267","system_id":"levelo_inurba_marseille","lat":43.337444,"lon":5.374475,"is_reserved":false,"is_disabled":false,"rental_uris":{"android":"levelo://app?vid=5eea3ce9-5bef-4500-b89a-370f6c95f267","ios":"levelo://app?vid=5eea3ce9-5bef-4500-b89a-370f6c95f267"},"vehicle_type_id":"4","last_reported":1726650634,"current_range_meters":22800,"station_id":"","pricing_plan_id":"cebpf4jnsgd1na2vs0mg"},{"bike_id":"d86ac61a-9ae2-4f4f-9a6e-f740fa7644d1","system_id":"levelo_inurba_marseille","lat":43.29874,"lon":5.38901,"is_reserved":false,"is_disabled":false,"rental_uris":{"android":"levelo://app?vid=d86ac61a-9ae2-4f4f-9a6e-f740fa7644d1","ios":"levelo://app?vid=d86ac61a-9ae2-4f4f-9a6e-f740fa7644d1"},"vehicle_type_id":"4","last_reported":1726650634,"current_range_meters":20800,"station_id":"ce4bh392rcd13ifvqdl0","pricing_plan_id":"cebpf4jnsgd1na2vs0mg"},{"bike_id":"b07c0f15-69d3-4127-8c8c-322d007033bc","system_id":"levelo_inurba_marseille","lat":43.29052,"lon":5.35903,"is_reserved":false,"is_disabled":false,"rental_uris":{"android":"levelo://app?vid=b07c0f15-69d3-4127-8c8c-322d007033bc","ios":"levelo://app?vid=b07c0f15-69d3-4127-8c8c-322d007033bc"},"vehicle_type_id":"4","last_reported":1726650634,"current_range_meters":36800,"station_id":"ce4bha92rcd13ifvqeg0","pricing_plan_id":"cebpf4jnsgd1na2vs0mg"},{"bike_id":"eedf8c35-9262-497b-9685-7aae28d24cfb","system_id":"levelo_inurba_marseille","lat":43.2408,"lon":5.37752,"is_reserved":false,"is_disabled":false,"rental_uris":{"android":"levelo://app?vid=eedf8c35-9262-497b-9685-7aae28d24cfb","ios":"levelo://app?vid=eedf8c35-9262-497b-9685-7aae28d24cfb"},"vehicle_type_id":"4","last_reported":1726650634,"current_range_meters":32000,"station_id":"ce4bhnp2rcd13ifvqgvg","pricing_plan_id":"cebpf4jnsgd1na2vs0mg"},{"bike_id":"19ef2743-6a23-4826-bc71-31286afc0df2","system_id":"levelo_inurba_marseille","lat":43.30466,"lon":5.3791,"is_reserved":false,"is_disabled":false,"rental_uris":{"android":"levelo://app?vid=19ef2743-6a23-4826-bc71-31286afc0df2","ios":"levelo://app?vid=19ef2743-6a23-4826-bc71-31286afc0df2"},"vehicle_type_id":"4","last_reported":1726650634,"current_range_meters":8800,"station_id":"ce4bgup2rcd13ifvqcn0","pricing_plan_id":"cebpf4jnsgd1na2vs0mg"},{"bike_id":"4525c2f4-e6e8-445d-a2b6-837bdeb61a00","system_id":"levelo_inurba_marseille","lat":43.2872,"lon":5.37937,"is_reserved":false,"is_disabled":false,"rental_uris":{"android":"levelo://app?vid=4525c2f4-e6e8-445d-a2b6-837bdeb61a00","ios":"levelo://app?vid=4525c2f4-e6e8-445d-a2b6-837bdeb61a00"},"vehicle_type_id":"4","last_reported":1726650634,"current_range_meters":20400,"station_id":"ce4bh9p2rcd13ifvqec0","pricing_plan_id":"cebpf4jnsgd1na2vs0mg"},{"bike_id":"b60fdd62-02a2-4187-8a87-3fd289343c2d","system_id":"levelo_inurba_marseille","lat":43.301453,"lon":5.374157,"is_reserved":false,"is_disabled":false,"rental_uris":{"android":"levelo://app?vid=b60fdd62-02a2-4187-8a87-3fd289343c2d","ios":"levelo://app?vid=b60fdd62-02a2-4187-8a87-3fd289343c2d"},"vehicle_type_id":"4","last_reported":1726650634,"current_range_meters":24000,"station_id":"ce4bgs92rcd13ifvqcc0","pricing_plan_id":"cebpf4jnsgd1na2vs0mg"},{"bike_id":"8c0d530c-80a9-463b-b552-7c7a8c8ab48a","system_id":"levelo_inurba_marseille","lat":43.23147,"lon":5.43723,"is_reserved":false,"is_disabled":false,"rental_uris":{"android":"levelo://app?vid=8c0d530c-80a9-463b-b552-7c7a8c8ab48a","ios":"levelo://app?vid=8c0d530c-80a9-463b-b552-7c7a8c8ab48a"},"vehicle_type_id":"4","last_reported":1726650634,"current_range_meters":8000,"station_id":"ce4bhmp2rcd13ifvqgog","pricing_plan_id":"cebpf4jnsgd1na2vs0mg"},{"bike_id":"85f35905-070a-4a43-b69b-19cfcf5195a8","system_id":"levelo_inurba_marseille","lat":43.29559,"lon":5.42283,"is_reserved":false,"is_disabled":false,"rental_uris":{"android":"levelo://app?vid=85f35905-070a-4a43-b69b-19cfcf5195a8","ios":"levelo://app?vid=85f35905-070a-4a43-b69b-19cfcf5195a8"},"vehicle_type_id":"4","last_reported":1726650634,"current_range_meters":39200,"station_id":"ce4bhph2rcd13ifvqhdg","pricing_plan_id":"cebpf4jnsgd1na2vs0mg"},{"bike_id":"23469155-55fd-46ff-8f21-8bd8dbaaa278","system_id":"levelo_inurba_marseille","lat":43.29869,"lon":5.39725,"is_reserved":false,"is_disabled":false,"rental_uris":{"android":"levelo://app?vid=23469155-55fd-46ff-8f21-8bd8dbaaa278","ios":"levelo://app?vid=23469155-55fd-46ff-8f21-8bd8dbaaa278"},"vehicle_type_id":"4","last_reported":1726650634,"current_range_meters":20800,"station_id":"ce4bh0h2rcd13ifvqd50","pricing_plan_id":"cebpf4jnsgd1na2vs0mg"},{"bike_id":"5ad76090-8691-48ec-9040-016e70c34f7b","system_id":"levelo_inurba_marseille","lat":43.28031,"lon":5.36937,"is_reserved":false,"is_disabled":false,"rental_uris":{"android":"levelo://app?vid=5ad76090-8691-48ec-9040-016e70c34f7b","ios":"levelo://app?vid=5ad76090-8691-48ec-9040-016e70c34f7b"},"vehicle_type_id":"4","last_reported":1726650634,"current_range_meters":28000,"station_id":"ce4bha12rcd13ifvqef0","pricing_plan_id":"cebpf4jnsgd1na2vs0mg"},{"bike_id":"0aae4a21-f9b6-4ad4-8433-3a58684465d5","system_id":"levelo_inurba_marseille","lat":43.26059,"lon":5.39392,"is_reserved":false,"is_disabled":false,"rental_uris":{"android":"levelo://app?vid=0aae4a21-f9b6-4ad4-8433-3a58684465d5","ios":"levelo://app?vid=0aae4a21-f9b6-4ad4-8433-3a58684465d5"},"vehicle_type_id":"4","last_reported":1726650634,"current_range_meters":39200,"station_id":"ce4bhh92rcd13ifvqfj0","pricing_plan_id":"cebpf4jnsgd1na2vs0mg"},{"bike_id":"7231c74c-5278-429f-90a8-a50ab6504eee","system_id":"levelo_inurba_marseille","lat":43.32481,"lon":5.36579,"is_reserved":false,"is_disabled":false,"rental_uris":{"android":"levelo://app?vid=7231c74c-5278-429f-90a8-a50ab6504eee","ios":"levelo://app?vid=7231c74c-5278-429f-90a8-a50ab6504eee"},"vehicle_type_id":"4","last_reported":1726650634,"current_range_meters":28400,"station_id":"ce4bhs12rcd13ifvqhvg","pricing_plan_id":"cebpf4jnsgd1na2vs0mg"},{"bike_id":"a21d9f17-0613-4cb9-a159-444a95507f45","system_id":"levelo_inurba_marseille","lat":43.29009,"lon":5.35613,"is_reserved":false,"is_disabled":false,"rental_uris":{"android":"levelo://app?vid=a21d9f17-0613-4cb9-a159-444a95507f45","ios":"levelo://app?vid=a21d9f17-0613-4cb9-a159-444a95507f45"},"vehicle_type_id":"4","last_reported":1726650634,"current_range_meters":37600,"station_id":"ce4bhb92rcd13ifvqen0","pricing_plan_id":"cebpf4jnsgd1na2vs0mg"},{"bike_id":"ed7db65d-642d-4728-b788-bc708a499c76","system_id":"levelo_inurba_marseille","lat":43.30553,"lon":5.36537,"is_reserved":false,"is_disabled":false,"rental_uris":{"android":"levelo://app?vid=ed7db65d-642d-4728-b788-bc708a499c76","ios":"levelo://app?vid=ed7db65d-642d-4728-b788-bc708a499c76"},"vehicle_type_id":"4","last_reported":1726650634,"current_range_meters":22800,"station_id":"ce4bgs12rcd13ifvqcag","pricing_plan_id":"cebpf4jnsgd1na2vs0mg"},{"bike_id":"680be1dc-3a23-4c18-ae00-e69e8dd741b2","system_id":"levelo_inurba_marseille","lat":43.29311,"lon":5.37187,"is_reserved":false,"is_disabled":false,"rental_uris":{"android":"levelo://app?vid=680be1dc-3a23-4c18-ae00-e69e8dd741b2","ios":"levelo://app?vid=680be1dc-3a23-4c18-ae00-e69e8dd741b2"},"vehicle_type_id":"4","last_reported":1726650634,"current_range_meters":31200,"station_id":"ce4bgh92rcd13ifvqb40","pricing_plan_id":"cebpf4jnsgd1na2vs0mg"},{"bike_id":"ab24a954-34a3-48ed-808a-51904da89fe4","system_id":"levelo_inurba_marseille","lat":43.28091,"lon":5.39658,"is_reserved":false,"is_disabled":false,"rental_uris":{"android":"levelo://app?vid=ab24a954-34a3-48ed-808a-51904da89fe4","ios":"levelo://app?vid=ab24a954-34a3-48ed-808a-51904da89fe4"},"vehicle_type_id":"4","last_reported":1726650634,"current_range_meters":34000,"station_id":"ce4bho12rcd13ifvqh2g","pricing_plan_id":"cebpf4jnsgd1na2vs0mg"},{"bike_id":"8e41cc4c-2cbd-40c3-ade1-7adedce84308","system_id":"levelo_inurba_marseille","lat":43.30316,"lon":5.36909,"is_reserved":false,"is_disabled":false,"rental_uris":{"android":"levelo://app?vid=8e41cc4c-2cbd-40c3-ade1-7adedce84308","ios":"levelo://app?vid=8e41cc4c-2cbd-40c3-ade1-7adedce84308"},"vehicle_type_id":"4","last_reported":1726650634,"current_range_meters":38000,"station_id":"ce4bgqh2rcd13ifvqc5g","pricing_plan_id":"cebpf4jnsgd1na2vs0mg"},{"bike_id":"9de036c4-decb-465b-a775-32e663a8924f","system_id":"levelo_inurba_marseille","lat":43.3302,"lon":5.39039,"is_reserved":false,"is_disabled":false,"rental_uris":{"android":"levelo://app?vid=9de036c4-decb-465b-a775-32e663a8924f","ios":"levelo://app?vid=9de036c4-decb-465b-a775-32e663a8924f"},"vehicle_type_id":"4","last_reported":1726650634,"current_range_meters":35600,"station_id":"ce4bhr92rcd13ifvqhrg","pricing_plan_id":"cebpf4jnsgd1na2vs0mg"},{"bike_id":"52857a94-3f99-4e77-9474-1bf1f6d5c436","system_id":"levelo_inurba_marseille","lat":43.322876,"lon":5.382723,"is_reserved":false,"is_disabled":false,"rental_uris":{"android":"levelo://app?vid=52857a94-3f99-4e77-9474-1bf1f6d5c436","ios":"levelo://app?vid=52857a94-3f99-4e77-9474-1bf1f6d5c436"},"vehicle_type_id":"4","last_reported":1726650634,"current_range_meters":38800,"station_id":"ce4bhr12rcd13ifvqhqg","pricing_plan_id":"cebpf4jnsgd1na2vs0mg"},{"bike_id":"3db159c5-3b3b-4bc6-aa8b-d9796d4f273f","system_id":"levelo_inurba_marseille","lat":43.29866,"lon":5.39728,"is_reserved":false,"is_disabled":false,"rental_uris":{"android":"levelo://app?vid=3db159c5-3b3b-4bc6-aa8b-d9796d4f273f","ios":"levelo://app?vid=3db159c5-3b3b-4bc6-aa8b-d9796d4f273f"},"vehicle_type_id":"4","last_reported":1726650634,"current_range_meters":38800,"station_id":"ce4bh0h2rcd13ifvqd50","pricing_plan_id":"cebpf4jnsgd1na2vs0mg"},{"bike_id":"ba18b907-3678-4cbf-b957-7c6dc3cf3b56","system_id":"levelo_inurba_marseille","lat":43.27498,"lon":5.42453,"is_reserved":false,"is_disabled":false,"rental_uris":{"android":"levelo://app?vid=ba18b907-3678-4cbf-b957-7c6dc3cf3b56","ios":"levelo://app?vid=ba18b907-3678-4cbf-b957-7c6dc3cf3b56"},"vehicle_type_id":"4","last_reported":1726650634,"current_range_meters":3600,"station_id":"ce4bhn92rcd13ifvqgrg","pricing_plan_id":"cebpf4jnsgd1na2vs0mg"},{"bike_id":"90034644-4eb8-40b2-a917-64f9fcde00f7","system_id":"levelo_inurba_marseille","lat":43.30471,"lon":5.37904,"is_reserved":false,"is_disabled":false,"rental_uris":{"android":"levelo://app?vid=90034644-4eb8-40b2-a917-64f9fcde00f7","ios":"levelo://app?vid=90034644-4eb8-40b2-a917-64f9fcde00f7"},"vehicle_type_id":"4","last_reported":1726650634,"current_range_meters":38800,"station_id":"ce4bgup2rcd13ifvqcn0","pricing_plan_id":"cebpf4jnsgd1na2vs0mg"},{"bike_id":"0d4f4d36-7eb2-45af-8c4c-48c3cb8876d8","system_id":"levelo_inurba_marseille","lat":43.29375,"lon":5.37854,"is_reserved":false,"is_disabled":false,"rental_uris":{"android":"levelo://app?vid=0d4f4d36-7eb2-45af-8c4c-48c3cb8876d8","ios":"levelo://app?vid=0d4f4d36-7eb2-45af-8c4c-48c3cb8876d8"},"vehicle_type_id":"4","last_reported":1726650634,"current_range_meters":32800,"station_id":"ce4bgjh2rcd13ifvqbf0","pricing_plan_id":"cebpf4jnsgd1na2vs0mg"},{"bike_id":"25b2f9ac-57fb-417f-baf7-d7be325b5065","system_id":"levelo_inurba_marseille","lat":43.27372,"lon":5.36257,"is_reserved":false,"is_disabled":false,"rental_uris":{"android":"levelo://app?vid=25b2f9ac-57fb-417f-baf7-d7be325b5065","ios":"levelo://app?vid=25b2f9ac-57fb-417f-baf7-d7be325b5065"},"vehicle_type_id":"4","last_reported":1726650634,"current_range_meters":11200,"station_id":"ce4bhbh2rcd13ifvqeo0","pricing_plan_id":"cebpf4jnsgd1na2vs0mg"},{"bike_id":"cbaf03bf-0340-4293-a424-18d0ef0b595f","system_id":"levelo_inurba_marseille","lat":43.29902,"lon":5.43663,"is_reserved":false,"is_disabled":false,"rental_uris":{"android":"levelo://app?vid=cbaf03bf-0340-4293-a424-18d0ef0b595f","ios":"levelo://app?vid=cbaf03bf-0340-4293-a424-18d0ef0b595f"},"vehicle_type_id":"4","last_reported":1726650634,"current_range_meters":16400,"station_id":"ce4bhpp2rcd13ifvqhfg","pricing_plan_id":"cebpf4jnsgd1na2vs0mg"},{"bike_id":"bb7dde75-60f7-4f9d-a997-69309327ea7c","system_id":"levelo_inurba_marseille","lat":43.25492,"lon":5.37645,"is_reserved":false,"is_disabled":false,"rental_uris":{"android":"levelo://app?vid=bb7dde75-60f7-4f9d-a997-69309327ea7c","ios":"levelo://app?vid=bb7dde75-60f7-4f9d-a997-69309327ea7c"},"vehicle_type_id":"4","last_reported":1726650634,"current_range_meters":38400,"station_id":"ce4bhh12rcd13ifvqff0","pricing_plan_id":"cebpf4jnsgd1na2vs0mg"},{"bike_id":"7b658259-df67-42c8-a0c3-d096cc6551d8","system_id":"levelo_inurba_marseille","lat":43.3055,"lon":5.36535,"is_reserved":false,"is_disabled":false,"rental_uris":{"android":"levelo://app?vid=7b658259-df67-42c8-a0c3-d096cc6551d8","ios":"levelo://app?vid=7b658259-df67-42c8-a0c3-d096cc6551d8"},"vehicle_type_id":"4","last_reported":1726650634,"current_range_meters":28800,"station_id":"ce4bgs12rcd13ifvqcag","pricing_plan_id":"cebpf4jnsgd1na2vs0mg"},{"bike_id":"bbc79cb4-4676-417f-b577-5eb7912639d9","system_id":"levelo_inurba_marseille","lat":43.31348,"lon":5.36725,"is_reserved":false,"is_disabled":false,"rental_uris":{"android":"levelo://app?vid=bbc79cb4-4676-417f-b577-5eb7912639d9","ios":"levelo://app?vid=bbc79cb4-4676-417f-b577-5eb7912639d9"},"vehicle_type_id":"4","last_reported":1726650634,"current_range_meters":30800,"station_id":"ce4bgr92rcd13ifvqc6g","pricing_plan_id":"cebpf4jnsgd1na2vs0mg"},{"bike_id":"54eccf0a-626a-4c3e-a34b-2d2d03cdb4eb","system_id":"levelo_inurba_marseille","lat":43.28092,"lon":5.3966,"is_reserved":false,"is_disabled":false,"rental_uris":{"android":"levelo://app?vid=54eccf0a-626a-4c3e-a34b-2d2d03cdb4eb","ios":"levelo://app?vid=54eccf0a-626a-4c3e-a34b-2d2d03cdb4eb"},"vehicle_type_id":"4","last_reported":1726650634,"current_range_meters":6000,"station_id":"ce4bho12rcd13ifvqh2g","pricing_plan_id":"cebpf4jnsgd1na2vs0mg"},{"bike_id":"d8e751ce-68d8-4843-af31-f29be99d953d","system_id":"levelo_inurba_marseille","lat":43.23951,"lon":5.36637,"is_reserved":false,"is_disabled":false,"rental_uris":{"android":"levelo://app?vid=d8e751ce-68d8-4843-af31-f29be99d953d","ios":"levelo://app?vid=d8e751ce-68d8-4843-af31-f29be99d953d"},"vehicle_type_id":"4","last_reported":1726650634,"current_range_meters":8400,"station_id":"ce4bhi12rcd13ifvqfp0","pricing_plan_id":"cebpf4jnsgd1na2vs0mg"},{"bike_id":"29fb8db0-bc72-45e8-9718-014b21f653e2","system_id":"levelo_inurba_marseille","lat":43.30542,"lon":5.3654,"is_reserved":false,"is_disabled":false,"rental_uris":{"android":"levelo://app?vid=29fb8db0-bc72-45e8-9718-014b21f653e2","ios":"levelo://app?vid=29fb8db0-bc72-45e8-9718-014b21f653e2"},"vehicle_type_id":"4","last_reported":1726650634,"current_range_meters":36800,"station_id":"ce4bgs12rcd13ifvqcag","pricing_plan_id":"cebpf4jnsgd1na2vs0mg"},{"bike_id":"a28e2668-aa90-4c07-9a87-9b12806dcc1d","system_id":"levelo_inurba_marseille","lat":43.30912,"lon":5.36857,"is_reserved":false,"is_disabled":false,"rental_uris":{"android":"levelo://app?vid=a28e2668-aa90-4c07-9a87-9b12806dcc1d","ios":"levelo://app?vid=a28e2668-aa90-4c07-9a87-9b12806dcc1d"},"vehicle_type_id":"4","last_reported":1726650634,"current_range_meters":33200,"station_id":"ce4bgn92rcd13ifvqbvg","pricing_plan_id":"cebpf4jnsgd1na2vs0mg"},{"bike_id":"82b54b4a-eb3e-4981-8831-a339b435a1ba","system_id":"levelo_inurba_marseille","lat":43.28853,"lon":5.35865,"is_reserved":false,"is_disabled":false,"rental_uris":{"android":"levelo://app?vid=82b54b4a-eb3e-4981-8831-a339b435a1ba","ios":"levelo://app?vid=82b54b4a-eb3e-4981-8831-a339b435a1ba"},"vehicle_type_id":"4","last_reported":1726650634,"current_range_meters":38800,"station_id":"ce4bhb12rcd13ifvqem0","pricing_plan_id":"cebpf4jnsgd1na2vs0mg"},{"bike_id":"a1efc36e-3e06-4db2-8490-11640e51f74b","system_id":"levelo_inurba_marseille","lat":43.292996,"lon":5.374611,"is_reserved":false,"is_disabled":false,"rental_uris":{"android":"levelo://app?vid=a1efc36e-3e06-4db2-8490-11640e51f74b","ios":"levelo://app?vid=a1efc36e-3e06-4db2-8490-11640e51f74b"},"vehicle_type_id":"4","last_reported":1726650634,"current_range_meters":36400,"station_id":"ce4bgi12rcd13ifvqb70","pricing_plan_id":"cebpf4jnsgd1na2vs0mg"},