{"last_updated":1747836641,"ttl":60,"version":"2.2","data":{"bikes":[{"bike_id":"c0b9fd4f-e181-46ce-b0bf-f5119973334f","system_id":"levelo_inurba_marseille","lat":43.33771,"lon":5.37424,"is_reserved":false,"is_disabled":true,"rental_uris":{"android":"levelo://app?vid=c0b9fd4f-e181-46ce-b0bf-f5119973334f","ios":"levelo://app?vid=c0b9fd4f-e181-46ce-b0bf-f5119973334f"},"vehicle_type_id":"4","last_reported":1747836641,"current_range_meters":0,"station_id":"","pricing_plan_id":"cebpf4jnsgd1na2vs0mg"},{"bike_id":"1dec17c8-cbde-4354-8b6c-219f98c89710","system_id":"levelo_inurba_marseille","lat":43.291827,"lon":5.422652,"is_reserved":false,"is_disabled":true,"rental_uris":{"android":"levelo://app?vid=1dec17c8-cbde-4354-8b6c-219f98c89710","ios":"levelo://app?vid=1dec17c8-cbde-4354-8b6c-219f98c89710"},"vehicle_type_id":"4","last_reported":1747836641,"current_range_meters":0,"station_id":"","pricing_plan_id":"cebpf4jnsgd1na2vs0mg"},{"bike_id":"a9d09347-e851-44c4-a4d0-a135bb7192ce","system_id":"levelo_inurba_marseille","lat":43.337444,"lon":5.374475,"is_reserved":false,"is_disabled":true,"rental_uris":{"android":"levelo://app?vid=a9d09347-e851-44c4-a4d0-a135bb7192ce","ios":"levelo://app?vid=a9d09347-e851-44c4-a4d0-a135bb7192ce"},"vehicle_type_id":"4","last_reported":1747836641,"current_range_meters":0,"station_id":"","pricing_plan_id":"cebpf4jnsgd1na2vs0mg"},{"bike_id":"e9dd3aa4-b5e7-4480-926d-d7f537719bfa","system_id":"levelo_inurba_marseille","lat":43.230331,"lon":5.401847,"is_reserved":false,"is_disabled":true,"rental_uris":{"android":"levelo://app?vid=e9dd3aa4-b5e7-4480-926d-d7f537719bfa","ios":"levelo://app?vid=e9dd3aa4-b5e7-4480-926d-d7f537719bfa"},"vehicle_type_id":"4","last_reported":1747836641,"current_range_meters":0,"station_id":"","pricing_plan_id":"cebpf4jnsgd1na2vs0mg"},{"bike_id":"14603e41-b2dd-4757-a53c-2e366aa4f983","system_id":"levelo_inurba_marseille","lat":43.269913,"lon":5.428199,"is_reserved":false,"is_disabled":true,"rental_uris":{"android":"levelo://app?vid=14603e41-b2dd-4757-a53c-2e366aa4f983","ios":"levelo://app?vid=14603e41-b2dd-4757-a53c-2e366aa4f983"},"vehicle_type_id":"4","last_reported":1747836641,"current_range_meters":0,"station_id":"","pricing_plan_id":"cebpf4jnsgd1na2vs0mg"},{"bike_id":"59522017-1431-4296-8ae4-425d8b3c3c42","system_id":"levelo_inurba_marseille","lat":43.30307,"lon":5.39202,"is_reserved":false,"is_disabled":true,"rental_uris":{"android":"levelo://app?vid=59522017-1431-4296-8ae4-425d8b3c3c42","ios":"levelo://app?vid=59522017-1431-4296-8ae4-425d8b3c3c42"},"vehicle_type_id":"4","last_reported":1747836641,"current_range_meters":0,"station_id":"ce4bgkh2rcd13ifvqbk0","pricing_plan_id":"cebpf4jnsgd1na2vs0mg"},{"bike_id":"a138c183-efdf-4e9b-93f6-4882c688eb03","system_id":"levelo_inurba_marseille","lat":43.29841,"lon":5.36268,"is_reserved":false,"is_disabled":true,"rental_uris":{"android":"levelo://app?vid=a138c183-efdf-4e9b-93f6-4882c688eb03","ios":"levelo://app?vid=a138c183-efdf-4e9b-93f6-4882c688eb03"},"vehicle_type_id":"4","last_reported":1747836641,"current_range_meters":0,"station_id":"ce4bgpp2rcd13ifvqc3g","pricing_plan_id":"cebpf4jnsgd1na2vs0mg"},{"bike_id":"216fdb73-19cb-4723-ba4c-f385d31510ff","system_id":"levelo_inurba_marseille","lat":43.30634,"lon":5.40094,"is_reserved":false,"is_disabled":true,"rental_uris":{"android":"levelo://app?vid=216fdb73-19cb-4723-ba4c-f385d31510ff","ios":"levelo://app?vid=216fdb73-19cb-4723-ba4c-f385d31510ff"},"vehicle_type_id":"4","last_reported":1747836641,"current_range_meters":0,"station_id":"ce4bh112rcd13ifvqda0","pricing_plan_id":"cebpf4jnsgd1na2vs0mg"},{"bike_id":"8cabb85a-2b88-425e-897d-06e6622c8a50","system_id":"levelo_inurba_marseille","lat":43.28698,"lon":5.37384,"is_reserved":false,"is_disabled":true,"rental_uris":{"android":"levelo://app?vid=8cabb85a-2b88-425e-897d-06e6622c8a50","ios":"levelo://app?vid=8cabb85a-2b88-425e-897d-06e6622c8a50"},"vehicle_type_id":"4","last_reported":1747836641,"current_range_meters":0,"station_id":"ce4bh3p2rcd13ifvqdq0","pricing_plan_id":"cebpf4jnsgd1na2vs0mg"},{"bike_id":"71cf7082-cf86-4063-b10a-adead587153b","system_id":"levelo_inurba_marseille","lat":43.28469,"lon":5.38423,"is_reserved":false,"is_disabled":true,"rental_uris":{"android":"levelo://app?vid=71cf7082-cf86-4063-b10a-adead587153b","ios":"levelo://app?vid=71cf7082-cf86-4063-b10a-adead587153b"},"vehicle_type_id":"4","last_reported":1747836641,"current_range_meters":0,"station_id":"ce4bh512rcd13ifvqe3g","pricing_plan_id":"cebpf4jnsgd1na2vs0mg"},{"bike_id":"574534a8-1c21-4a1b-9357-147232daf183","system_id":"levelo_inurba_marseille","lat":43.28038,"lon":5.36947,"is_reserved":false,"is_disabled":true,"rental_uris":{"android":"levelo://app?vid=574534a8-1c21-4a1b-9357-147232daf183","ios":"levelo://app?vid=574534a8-1c21-4a1b-9357-147232daf183"},"vehicle_type_id":"4","last_reported":1747836641,"current_range_meters":0,"station_id":"ce4bha12rcd13ifvqef0","pricing_plan_id":"cebpf4jnsgd1na2vs0mg"},{"bike_id":"44f4738b-9415-4dd0-848b-52b916d906dd","system_id":"levelo_inurba_marseille","lat":43.29043,"lon":5.35921,"is_reserved":false,"is_disabled":true,"rental_uris":{"android":"levelo://app?vid=44f4738b-9415-4dd0-848b-52b916d906dd","ios":"levelo://app?vid=44f4738b-9415-4dd0-848b-52b916d906dd"},"vehicle_type_id":"4","last_reported":1747836641,"current_range_meters":0,"station_id":"ce4bha92rcd13ifvqeg0","pricing_plan_id":"cebpf4jnsgd1na2vs0mg"},{"bike_id":"55d3f1d4-a12b-4397-979e-f5e565f27e77","system_id":"levelo_inurba_marseille","lat":43.27376,"lon":5.3626,"is_reserved":false,"is_disabled":true,"rental_uris":{"android":"levelo://app?vid=55d3f1d4-a12b-4397-979e-f5e565f27e77","ios":"levelo://app?vid=55d3f1d4-a12b-4397-979e-f5e565f27e77"},"vehicle_type_id":"4","last_reported":1747836641,"current_range_meters":0,"station_id":"ce4bhbh2rcd13ifvqeo0","pricing_plan_id":"cebpf4jnsgd1na2vs0mg"},{"bike_id":"e85778a3-bb78-446a-9db1-9c25cfcd4e7d","system_id":"levelo_inurba_marseille","lat":43.28953,"lon":5.36406,"is_reserved":false,"is_disabled":true,"rental_uris":{"android":"levelo://app?vid=e85778a3-bb78-446a-9db1-9c25cfcd4e7d","ios":"levelo://app?vid=e85778a3-bb78-446a-9db1-9c25cfcd4e7d"},"vehicle_type_id":"4","last_reported":1747836641,"current_range_meters":0,"station_id":"ce4bhc92rcd13ifvqetg","pricing_plan_id":"cebpf4jnsgd1na2vs0mg"},{"bike_id":"615c5deb-350b-4439-a91a-86bd3574ba46","system_id":"levelo_inurba_marseille","lat":43.26562,"lon":5.39001,"is_reserved":false,"is_disabled":true,"rental_uris":{"android":"levelo://app?vid=615c5deb-350b-4439-a91a-86bd3574ba46","ios":"levelo://app?vid=615c5deb-350b-4439-a91a-86bd3574ba46"},"vehicle_type_id":"4","last_reported":1747836641,"current_range_meters":0,"station_id":"ce4bhe12rcd13ifvqf30","pricing_plan_id":"cebpf4jnsgd1na2vs0mg"},{"bike_id":"b409caf7-9481-4143-a90d-ff66c61be3e8","system_id":"levelo_inurba_marseille","lat":43.26215,"lon":5.3744,"is_reserved":false,"is_disabled":true,"rental_uris":{"android":"levelo://app?vid=b409caf7-9481-4143-a90d-ff66c61be3e8","ios":"levelo://app?vid=b409caf7-9481-4143-a90d-ff66c61be3e8"},"vehicle_type_id":"4","last_reported":1747836641,"current_range_meters":0,"station_id":"ce4bhgp2rcd13ifvqfc0","pricing_plan_id":"cebpf4jnsgd1na2vs0mg"},{"bike_id":"ced9b401-93e9-498a-b417-504b24baf162","system_id":"levelo_inurba_marseille","lat":43.26215,"lon":5.37439,"is_reserved":false,"is_disabled":true,"rental_uris":{"android":"levelo://app?vid=ced9b401-93e9-498a-b417-504b24baf162","ios":"levelo://app?vid=ced9b401-93e9-498a-b417-504b24baf162"},"vehicle_type_id":"4","last_reported":1747836641,"current_range_meters":0,"station_id":"ce4bhgp2rcd13ifvqfc0","pricing_plan_id":"cebpf4jnsgd1na2vs0mg"},{"bike_id":"aa87f238-22c4-4626-b695-30c58c60fe46","system_id":"levelo_inurba_marseille","lat":43.24404,"lon":5.37051,"is_reserved":false,"is_disabled":true,"rental_uris":{"android":"levelo://app?vid=aa87f238-22c4-4626-b695-30c58c60fe46","ios":"levelo://app?vid=aa87f238-22c4-4626-b695-30c58c60fe46"},"vehicle_type_id":"4","last_reported":1747836641,"current_range_meters":0,"station_id":"ce4bhhh2rcd13ifvqfk0","pricing_plan_id":"cebpf4jnsgd1na2vs0mg"},{"bike_id":"4c838c44-da1a-41f0-a099-927b86f9f689","system_id":"levelo_inurba_marseille","lat":43.23965,"lon":5.36627,"is_reserved":false,"is_disabled":true,"rental_uris":{"android":"levelo://app?vid=4c838c44-da1a-41f0-a099-927b86f9f689","ios":"levelo://app?vid=4c838c44-da1a-41f0-a099-927b86f9f689"},"vehicle_type_id":"4","last_reported":1747836641,"current_range_meters":0,"station_id":"ce4bhi12rcd13ifvqfp0","pricing_plan_id":"cebpf4jnsgd1na2vs0mg"},{"bike_id":"5afc3df1-e06d-4225-887f-a5ebdb8ffe64","system_id":"levelo_inurba_marseille","lat":43.25578,"lon":5.3823,"is_reserved":false,"is_disabled":true,"rental_uris":{"android":"levelo://app?vid=5afc3df1-e06d-4225-887f-a5ebdb8ffe64","ios":"levelo://app?vid=5afc3df1-e06d-4225-887f-a5ebdb8ffe64"},"vehicle_type_id":"4","last_reported":1747836641,"current_range_meters":0,"station_id":"ce4bhih2rcd13ifvqfs0","pricing_plan_id":"cebpf4jnsgd1na2vs0mg"},{"bike_id":"94b3c2eb-3d98-44fc-95e9-dcde2b4883c8","system_id":"levelo_inurba_marseille","lat":43.28356,"lon":5.3823,"is_reserved":false,"is_disabled":true,"rental_uris":{"android":"levelo://app?vid=94b3c2eb-3d98-44fc-95e9-dcde2b4883c8","ios":"levelo://app?vid=94b3c2eb-3d98-44fc-95e9-dcde2b4883c8"},"vehicle_type_id":"4","last_reported":1747836641,"current_range_meters":0,"station_id":"ce4bhjp2rcd13ifvqga0","pricing_plan_id":"cebpf4jnsgd1na2vs0mg"},{"bike_id":"70df286a-43ae-4066-bba9-94b7a0f516bd","system_id":"levelo_inurba_marseille","lat":43.25108,"lon":5.40351,"is_reserved":false,"is_disabled":true,"rental_uris":{"android":"levelo://app?vid=70df286a-43ae-4066-bba9-94b7a0f516bd","ios":"levelo://app?vid=70df286a-43ae-4066-bba9-94b7a0f516bd"},"vehicle_type_id":"4","last_reported":1747836641,"current_range_meters":0,"station_id":"ce4bhlh2rcd13ifvqgig","pricing_plan_id":"cebpf4jnsgd1na2vs0mg"},{"bike_id":"f51e3f38-5305-4a1d-b864-ce8c230b66f7","system_id":"levelo_inurba_marseille","lat":43.25118,"lon":5.40318,"is_reserved":false,"is_disabled":true,"rental_uris":{"android":"levelo://app?vid=f51e3f38-5305-4a1d-b864-ce8c230b66f7","ios":"levelo://app?vid=f51e3f38-5305-4a1d-b864-ce8c230b66f7"},"vehicle_type_id":"4","last_reported":1747836641,"current_range_meters":0,"station_id":"ce4bhlh2rcd13ifvqgig","pricing_plan_id":"cebpf4jnsgd1na2vs0mg"},{"bike_id":"ac9af550-eb4f-4059-b62e-68693b495790","system_id":"levelo_inurba_marseille","lat":43.25116,"lon":5.40318,"is_reserved":false,"is_disabled":true,"rental_uris":{"android":"levelo://app?vid=ac9af550-eb4f-4059-b62e-68693b495790","ios":"levelo://app?vid=ac9af550-eb4f-4059-b62e-68693b495790"},"vehicle_type_id":"4","last_reported":1747836641,"current_range_meters":0,"station_id":"ce4bhlh2rcd13ifvqgig","pricing_plan_id":"cebpf4jnsgd1na2vs0mg"},{"bike_id":"9d26a8c1-5342-42dc-a47b-79fb936fb5e1","system_id":"levelo_inurba_marseille","lat":43.2511,"lon":5.40341,"is_reserved":false,"is_disabled":true,"rental_uris":{"android":"levelo://app?vid=9d26a8c1-5342-42dc-a47b-79fb936fb5e1","ios":"levelo://app?vid=9d26a8c1-5342-42dc-a47b-79fb936fb5e1"},"vehicle_type_id":"4","last_reported":1747836641,"current_range_meters":0,"station_id":"ce4bhlh2rcd13ifvqgig","pricing_plan_id":"cebpf4jnsgd1na2vs0mg"},{"bike_id":"ea8f4f32-78db-422a-9e14-a78887cdebbe","system_id":"levelo_inurba_marseille","lat":43.26227,"lon":5.40451,"is_reserved":false,"is_disabled":true,"rental_uris":{"android":"levelo://app?vid=ea8f4f32-78db-422a-9e14-a78887cdebbe","ios":"levelo://app?vid=ea8f4f32-78db-422a-9e14-a78887cdebbe"},"vehicle_type_id":"4","last_reported":1747836641,"current_range_meters":0,"station_id":"ce4bhmh2rcd13ifvqgmg","pricing_plan_id":"cebpf4jnsgd1na2vs0mg"},{"bike_id":"71a9fe80-598e-44e1-83a4-d9c144513111","system_id":"levelo_inurba_marseille","lat":43.23165,"lon":5.43699,"is_reserved":false,"is_disabled":true,"rental_uris":{"android":"levelo://app?vid=71a9fe80-598e-44e1-83a4-d9c144513111","ios":"levelo://app?vid=71a9fe80-598e-44e1-83a4-d9c144513111"},"vehicle_type_id":"4","last_reported":1747836641,"current_range_meters":0,"station_id":"ce4bhmp2rcd13ifvqgog","pricing_plan_id":"cebpf4jnsgd1na2vs0mg"},{"bike_id":"a3ea9d98-3cab-43c4-b12b-5fb9738b7cfa","system_id":"levelo_inurba_marseille","lat":43.27816,"lon":5.40718,"is_reserved":false,"is_disabled":true,"rental_uris":{"android":"levelo://app?vid=a3ea9d98-3cab-43c4-b12b-5fb9738b7cfa","ios":"levelo://app?vid=a3ea9d98-3cab-43c4-b12b-5fb9738b7cfa"},"vehicle_type_id":"4","last_reported":1747836641,"current_range_meters":0,"station_id":"ce4bhnh2rcd13ifvqgtg","pricing_plan_id":"cebpf4jnsgd1na2vs0mg"},{"bike_id":"fbcd36c8-dbc6-4c81-be35-7880ad9a02d6","system_id":"levelo_inurba_marseille","lat":43.32366,"lon":5.38878,"is_reserved":false,"is_disabled":true,"rental_uris":{"android":"levelo://app?vid=fbcd36c8-dbc6-4c81-be35-7880ad9a02d6","ios":"levelo://app?vid=fbcd36c8-dbc6-4c81-be35-7880ad9a02d6"},"vehicle_type_id":"4","last_reported":1747836641,"current_range_meters":0,"station_id":"ce4bhqp2rcd13ifvqhog","pricing_plan_id":"cebpf4jnsgd1na2vs0mg"},{"bike_id":"6cdc5ac2-4b23-46ea-b359-4d981cdf1ca1","system_id":"levelo_inurba_marseille","lat":43.26817,"lon":5.40234,"is_reserved":false,"is_disabled":true,"rental_uris":{"android":"levelo://app?vid=6cdc5ac2-4b23-46ea-b359-4d981cdf1ca1","ios":"levelo://app?vid=6cdc5ac2-4b23-46ea-b359-4d981cdf1ca1"},"vehicle_type_id":"4","last_reported":1747836641,"current_range_meters":0,"station_id":"ce501612rcd8frsf0b60","pricing_plan_id":"cebpf4jnsgd1na2vs0mg"},{"bike_id":"8dc2ce6e-fd52-4eac-81ab-537a1edf2cce","system_id":"levelo_inurba_marseille","lat":43.2417,"lon":5.36399,"is_reserved":false,"is_disabled":true,"rental_uris":{"android":"levelo://app?vid=8dc2ce6e-fd52-4eac-81ab-537a1edf2cce","ios":"levelo://app?vid=8dc2ce6e-fd52-4eac-81ab-537a1edf2cce"},"vehicle_type_id":"4","last_reported":1747836641,"current_range_meters":0,"station_id":"cpo36qri1sfpv3e86is0","pricing_plan_id":"cebpf4jnsgd1na2vs0mg"},{"bike_id":"20bee342-4a3f-4f34-940d-bb6cf00d52ae","system_id":"levelo_inurba_marseille","lat":43.26666,"lon":5.38577,"is_reserved":false,"is_disabled":true,"rental_uris":{"android":"levelo://app?vid=20bee342-4a3f-4f34-940d-bb6cf00d52ae","ios":"levelo://app?vid=20bee342-4a3f-4f34-940d-bb6cf00d52ae"},"vehicle_type_id":"4","last_reported":1747836641,"current_range_meters":400,"station_id":"","pricing_plan_id":"cebpf4jnsgd1na2vs0mg"},{"bike_id":"ac40f19d-afee-4380-997d-4859c9f5484b","system_id":"levelo_inurba_marseille","lat":43.30534,"lon":5.38433,"is_reserved":false,"is_disabled":true,"rental_uris":{"android":"levelo://app?vid=ac40f19d-afee-4380-997d-4859c9f5484b","ios":"levelo://app?vid=ac40f19d-afee-4380-997d-4859c9f5484b"},"vehicle_type_id":"4","last_reported":1747836641,"current_range_meters":400,"station_id":"ce4bgg92rcd13ifvqb30","pricing_plan_id":"cebpf4jnsgd1na2vs0mg"},{"bike_id":"89944ab2-a3bf-4237-bab6-33f93cc8c4ab","system_id":"levelo_inurba_marseille","lat":43.29625,"lon":5.37733,"is_reserved":false,"is_disabled":true,"rental_uris":{"android":"levelo://app?vid=89944ab2-a3bf-4237-bab6-33f93cc8c4ab","ios":"levelo://app?vid=89944ab2-a3bf-4237-bab6-33f93cc8c4ab"},"vehicle_type_id":"4","last_reported":1747836641,"current_range_meters":400,"station_id":"ce4bgup2rcd13ifvqco0","pricing_plan_id":"cebpf4jnsgd1na2vs0mg"},{"bike_id":"fe160abe-83a7-42e2-ba20-3a1ac1db7bc0","system_id":"levelo_inurba_marseille","lat":43.26039,"lon":5.3753,"is_reserved":false,"is_disabled":true,"rental_uris":{"android":"levelo://app?vid=fe160abe-83a7-42e2-ba20-3a1ac1db7bc0","ios":"levelo://app?vid=fe160abe-83a7-42e2-ba20-3a1ac1db7bc0"},"vehicle_type_id":"4","last_reported":1747836641,"current_range_meters":400,"station_id":"ce4bhgh2rcd13ifvqfa0","pricing_plan_id":"cebpf4jnsgd1na2vs0mg"},{"bike_id":"8e9c887d-9b4a-4932-9dd6-4dcfd66ce4d7","system_id":"levelo_inurba_marseille","lat":43.25724,"lon":5.41113,"is_reserved":false,"is_disabled":true,"rental_uris":{"android":"levelo://app?vid=8e9c887d-9b4a-4932-9dd6-4dcfd66ce4d7","ios":"levelo://app?vid=8e9c887d-9b4a-4932-9dd6-4dcfd66ce4d7"},"vehicle_type_id":"4","last_reported":1747836641,"current_range_meters":400,"station_id":"ce4bhkp2rcd13ifvqgd0","pricing_plan_id":"cebpf4jnsgd1na2vs0mg"},{"bike_id":"d4f56fee-b685-4196-8519-1760a0e2a4d4","system_id":"levelo_inurba_marseille","lat":43.25112,"lon":5.40332,"is_reserved":false,"is_disabled":true,"rental_uris":{"android":"levelo://app?vid=d4f56fee-b685-4196-8519-1760a0e2a4d4","ios":"levelo://app?vid=d4f56fee-b685-4196-8519-1760a0e2a4d4"},"vehicle_type_id":"4","last_reported":1747836641,"current_range_meters":400,"station_id":"ce4bhlh2rcd13ifvqgig","pricing_plan_id":"cebpf4jnsgd1na2vs0mg"},{"bike_id":"774a53ed-27ae-48c0-adb7-a87d503ae808","system_id":"levelo_inurba_marseille","lat":43.27809,"lon":5.407227,"is_reserved":false,"is_disabled":true,"rental_uris":{"android":"levelo://app?vid=774a53ed-27ae-48c0-adb7-a87d503ae808","ios":"levelo://app?vid=774a53ed-27ae-48c0-adb7-a87d503ae808"},"vehicle_type_id":"4","last_reported":1747836641,"current_range_meters":400,"station_id":"ce4bhnh2rcd13ifvqgtg","pricing_plan_id":"cebpf4jnsgd1na2vs0mg"},{"bike_id":"cfdbf9ea-fe43-4734-b465-744a84c08df5","system_id":"levelo_inurba_marseille","lat":43.27879,"lon":5.3876,"is_reserved":false,"is_disabled":true,"rental_uris":{"android":"levelo://app?vid=cfdbf9ea-fe43-4734-b465-744a84c08df5","ios":"levelo://app?vid=cfdbf9ea-fe43-4734-b465-744a84c08df5"},"vehicle_type_id":"4","last_reported":1747836641,"current_range_meters":800,"station_id":"","pricing_plan_id":"cebpf4jnsgd1na2vs0mg"},{"bike_id":"c320721e-dd72-4406-8413-3b0c81fde125","system_id":"levelo_inurba_marseille","lat":43.30936,"lon":5.40151,"is_reserved":false,"is_disabled":true,"rental_uris":{"android":"levelo://app?vid=c320721e-dd72-4406-8413-3b0c81fde125","ios":"levelo://app?vid=c320721e-dd72-4406-8413-3b0c81fde125"},"vehicle_type_id":"4","last_reported":1747836641,"current_range_meters":800,"station_id":"ce4bgvp2rcd13ifvqct0","pricing_plan_id":"cebpf4jnsgd1na2vs0mg"},{"bike_id":"ad8297a0-4cfe-4516-a903-de41e51255b7","system_id":"levelo_inurba_marseille","lat":43.26205,"lon":5.37443,"is_reserved":false,"is_disabled":true,"rental_uris":{"android":"levelo://app?vid=ad8297a0-4cfe-4516-a903-de41e51255b7","ios":"levelo://app?vid=ad8297a0-4cfe-4516-a903-de41e51255b7"},"vehicle_type_id":"4","last_reported":1747836641,"current_range_meters":800,"station_id":"ce4bhgp2rcd13ifvqfc0","pricing_plan_id":"cebpf4jnsgd1na2vs0mg"},{"bike_id":"84d62431-e764-4f96-b959-3882453e67a4","system_id":"levelo_inurba_marseille","lat":43.30328,"lon":5.373,"is_reserved":false,"is_disabled":true,"rental_uris":{"android":"levelo://app?vid=84d62431-e764-4f96-b959-3882453e67a4","ios":"levelo://app?vid=84d62431-e764-4f96-b959-3882453e67a4"},"vehicle_type_id":"4","last_reported":1747836641,"current_range_meters":1200,"station_id":"","pricing_plan_id":"cebpf4jnsgd1na2vs0mg"},{"bike_id":"bc91b290-dc6d-4c36-add7-8ab74bd2dbec","system_id":"levelo_inurba_marseille","lat":43.29793,"lon":5.381033,"is_reserved":false,"is_disabled":true,"rental_uris":{"android":"levelo://app?vid=bc91b290-dc6d-4c36-add7-8ab74bd2dbec","ios":"levelo://app?vid=bc91b290-dc6d-4c36-add7-8ab74bd2dbec"},"vehicle_type_id":"4","last_reported":1747836641,"current_range_meters":1200,"station_id":"ce4bgip2rcd13ifvqbb0","pricing_plan_id":"cebpf4jnsgd1na2vs0mg"},{"bike_id":"c03be4a9-ad15-4471-b57c-98fa6d6b06d2","system_id":"levelo_inurba_marseille","lat":43.28992,"lon":5.37844,"is_reserved":false,"is_disabled":true,"rental_uris":{"android":"levelo://app?vid=c03be4a9-ad15-4471-b57c-98fa6d6b06d2","ios":"levelo://app?vid=c03be4a9-ad15-4471-b57c-98fa6d6b06d2"},"vehicle_type_id":"4","last_reported":1747836641,"current_range_meters":1200,"station_id":"ce4bh9p2rcd13ifvqed0","pricing_plan_id":"cebpf4jnsgd1na2vs0mg"},{"bike_id":"33d3bbc7-12de-4e0f-8a1a-6ea61f51c09d","system_id":"levelo_inurba_marseille","lat":43.280327,"lon":5.369428,"is_reserved":false,"is_disabled":true,"rental_uris":{"android":"levelo://app?vid=33d3bbc7-12de-4e0f-8a1a-6ea61f51c09d","ios":"levelo://app?vid=33d3bbc7-12de-4e0f-8a1a-6ea61f51c09d"},"vehicle_type_id":"4","last_reported":1747836641,"current_range_meters":1200,"station_id":"ce4bha12rcd13ifvqef0","pricing_plan_id":"cebpf4jnsgd1na2vs0mg"},{"bike_id":"13e8a136-bdc8-477d-9b62-48be32e2e2d5","system_id":"levelo_inurba_marseille","lat":43.25007,"lon":5.38923,"is_reserved":false,"is_disabled":true,"rental_uris":{"android":"levelo://app?vid=13e8a136-bdc8-477d-9b62-48be32e2e2d5","ios":"levelo://app?vid=13e8a136-bdc8-477d-9b62-48be32e2e2d5"},"vehicle_type_id":"4","last_reported":1747836641,"current_range_meters":1200,"station_id":"ce4bhgp2rcd13ifvqfd0","pricing_plan_id":"cebpf4jnsgd1na2vs0mg"},{"bike_id":"f12eb1f3-318e-4f8d-8860-0feca615a8e5","system_id":"levelo_inurba_marseille","lat":43.25119,"lon":5.40318,"is_reserved":false,"is_disabled":true,"rental_uris":{"android":"levelo://app?vid=f12eb1f3-318e-4f8d-8860-0feca615a8e5","ios":"levelo://app?vid=f12eb1f3-318e-4f8d-8860-0feca615a8e5"},"vehicle_type_id":"4","last_reported":1747836641,"current_range_meters":1200,"station_id":"ce4bhlh2rcd13ifvqgig","pricing_plan_id":"cebpf4jnsgd1na2vs0mg"},{"bike_id":"14327d25-b826-40e9-a8a0-e8eb07a469d7","system_id":"levelo_inurba_marseille","lat":43.28153,"lon":5.42651,"is_reserved":false,"is_disabled":true,"rental_uris":{"android":"levelo://app?vid=14327d25-b826-40e9-a8a0-e8eb07a469d7","ios":"levelo://app?vid=14327d25-b826-40e9-a8a0-e8eb07a469d7"},"vehicle_type_id":"4","last_reported":1747836641,"current_range_meters":1200,"station_id":"ce4bhnh2rcd13ifvqgug","pricing_plan_id":"cebpf4jnsgd1na2vs0mg"},{"bike_id":"b38cf2cf-5836-4b73-81b9-05bd50d0f774","system_id":"levelo_inurba_marseille","lat":43.26553,"lon":5.37288,"is_reserved":false,"is_disabled":true,"rental_uris":{"android":"levelo://app?vid=b38cf2cf-5836-4b73-81b9-05bd50d0f774","ios":"levelo://app?vid=b38cf2cf-5836-4b73-81b9-05bd50d0f774"},"vehicle_type_id":"4","last_reported":1747836641,"current_range_meters":1600,"station_id":"ce4bhg12rcd13ifvqf70","pricing_plan_id":"cebpf4jnsgd1na2vs0mg"},{"bike_id":"d5bd9718-bec9-4f1b-bbbc-0faf353ffdf5","system_id":"levelo_inurba_marseille","lat":43.26787,"lon":5.39415,"is_reserved":false,"is_disabled":true,"rental_uris":{"android":"levelo://app?vid=d5bd9718-bec9-4f1b-bbbc-0faf353ffdf5","ios":"levelo://app?vid=d5bd9718-bec9-4f1b-bbbc-0faf353ffdf5"},"vehicle_type_id":"4","last_reported":1747836641,"current_range_meters":1600,"station_id":"ce4bhh12rcd13ifvqfg0","pricing_plan_id":"cebpf4jnsgd1na2vs0mg"},{"bike_id":"ab690ae4-7328-4c5d-8de0-7171204b84fe","system_id":"levelo_inurba_marseille","lat":43.26499,"lon":5.39538,"is_reserved":false,"is_disabled":true,"rental_uris":{"android":"levelo://app?vid=ab690ae4-7328-4c5d-8de0-7171204b84fe","ios":"levelo://app?vid=ab690ae4-7328-4c5d-8de0-7171204b84fe"},"vehicle_type_id":"4","last_reported":1747836641,"current_range_meters":1600,"station_id":"ce4bhi12rcd13ifvqfq0","pricing_plan_id":"cebpf4jnsgd1na2vs0mg"},{"bike_id":"47958913-310c-47e8-b8b4-87a18ceb04ce","system_id":"levelo_inurba_marseille","lat":43.24071,"lon":5.37767,"is_reserved":false,"is_disabled":true,"rental_uris":{"android":"levelo://app?vid=47958913-310c-47e8-b8b4-87a18ceb04ce","ios":"levelo://app?vid=47958913-310c-47e8-b8b4-87a18ceb04ce"},"vehicle_type_id":"4","last_reported":1747836641,"current_range_meters":1600,"station_id":"ce4bhnp2rcd13ifvqgvg","pricing_plan_id":"cebpf4jnsgd1na2vs0mg"},{"bike_id":"2badc2e1-9e5c-4154-aaae-82c36ef049fa","system_id":"levelo_inurba_marseille","lat":43.27995,"lon":5.40017,"is_reserved":false,"is_disabled":true,"rental_uris":{"android":"levelo://app?vid=2badc2e1-9e5c-4154-aaae-82c36ef049fa","ios":"levelo://app?vid=2badc2e1-9e5c-4154-aaae-82c36ef049fa"},"vehicle_type_id":"4","last_reported":1747836641,"current_range_meters":1600,"station_id":"ce4bho92rcd13ifvqh4g","pricing_plan_id":"cebpf4jnsgd1na2vs0mg"},{"bike_id":"ba59102a-6c47-4600-bcb9-76e5920c2815","system_id":"levelo_inurba_marseille","lat":43.31375,"lon":5.37183,"is_reserved":false,"is_disabled":true,"rental_uris":{"android":"levelo://app?vid=ba59102a-6c47-4600-bcb9-76e5920c2815","ios":"levelo://app?vid=ba59102a-6c47-4600-bcb9-76e5920c2815"},"vehicle_type_id":"4","last_reported":1747836641,"current_range_meters":2000,"station_id":"","pricing_plan_id":"cebpf4jnsgd1na2vs0mg"},{"bike_id":"8ee30b46-14e4-45d5-ab73-c6775c764500","system_id":"levelo_inurba_marseille","lat":43.27813,"lon":5.40714,"is_reserved":false,"is_disabled":true,"rental_uris":{"android":"levelo://app?vid=8ee30b46-14e4-45d5-ab73-c6775c764500","ios":"levelo://app?vid=8ee30b46-14e4-45d5-ab73-c6775c764500"},"vehicle_type_id":"4","last_reported":1747836641,"current_range_meters":2000,"station_id":"ce4bhnh2rcd13ifvqgtg","pricing_plan_id":"cebpf4jnsgd1na2vs0mg"},{"bike_id":"8f0f531d-6a65-4647-8a6f-baa3d982f42f","system_id":"levelo_inurba_marseille","lat":43.28122,"lon":5.42588,"is_reserved":false,"is_disabled":false,"rental_uris":{"android":"levelo://app?vid=8f0f531d-6a65-4647-8a6f-baa3d982f42f","ios":"levelo://app?vid=8f0f531d-6a65-4647-8a6f-baa3d982f42f"},"vehicle_type_id":"4","last_reported":1747836641,"current_range_meters":2800,"station_id":"","pricing_plan_id":"cebpf4jnsgd1na2vs0mg"},{"bike_id":"a5bcf3ab-5daa-4dec-898b-27b2e944e103","system_id":"levelo_inurba_marseille","lat":43.2731,"lon":5.41046,"is_reserved":false,"is_disabled":false,"rental_uris":{"android":"levelo://app?vid=a5bcf3ab-5daa-4dec-898b-27b2e944e103","ios":"levelo://app?vid=a5bcf3ab-5daa-4dec-898b-27b2e944e103"},"vehicle_type_id":"4","last_reported":1747836641,"current_range_meters":2800,"station_id":"","pricing_plan_id":"cebpf4jnsgd1na2vs0mg"},{"bike_id":"3acd9187-0b19-4ab8-be35-b31971d7383c","system_id":"levelo_inurba_marseille","lat":43.30142,"lon":5.37707,"is_reserved":false,"is_disabled":true,"rental_uris":{"android":"levelo://app?vid=3acd9187-0b19-4ab8-be35-b31971d7383c","ios":"levelo://app?vid=3acd9187-0b19-4ab8-be35-b31971d7383c"},"vehicle_type_id":"4","last_reported":1747836641,"current_range_meters":2800,"station_id":"","pricing_plan_id":"cebpf4jnsgd1na2vs0mg"},{"bike_id":"bcfe2151-90a2-4e9e-9ac1-bde9f37ddf3e","system_id":"levelo_inurba_marseille","lat":43.30647,"lon":5.401,"is_reserved":false,"is_disabled":false,"rental_uris":{"android":"levelo://app?vid=bcfe2151-90a2-4e9e-9ac1-bde9f37ddf3e","ios":"levelo://app?vid=bcfe2151-90a2-4e9e-9ac1-bde9f37ddf3e"},"vehicle_type_id":"4","last_reported":1747836641,"current_range_meters":2800,"station_id":"ce4bh112rcd13ifvqda0","pricing_plan_id":"cebpf4jnsgd1na2vs0mg"},{"bike_id":"6b6d22b8-0d87-4d4c-9d40-1eab11eb7e83","system_id":"levelo_inurba_marseille","lat":43.29879,"lon":5.38911,"is_reserved":false,"is_disabled":false,"rental_uris":{"android":"levelo://app?vid=6b6d22b8-0d87-4d4c-9d40-1eab11eb7e83","ios":"levelo://app?vid=6b6d22b8-0d87-4d4c-9d40-1eab11eb7e83"},"vehicle_type_id":"4","last_reported":1747836641,"current_range_meters":2800,"station_id":"ce4bh392rcd13ifvqdl0","pricing_plan_id":"cebpf4jnsgd1na2vs0mg"},{"bike_id":"13caf85e-ea48-4137-bcdd-992cf91509c2","system_id":"levelo_inurba_marseille","lat":43.29,"lon":5.35602,"is_reserved":false,"is_disabled":false,"rental_uris":{"android":"levelo://app?vid=13caf85e-ea48-4137-bcdd-992cf91509c2","ios":"levelo://app?vid=13caf85e-ea48-4137-bcdd-992cf91509c2"},"vehicle_type_id":"4","last_reported":1747836641,"current_range_meters":2800,"station_id":"ce4bhb92rcd13ifvqen0","pricing_plan_id":"cebpf4jnsgd1na2vs0mg"},{"bike_id":"4908505b-1670-4d33-ace0-c6105e9cd4a4","system_id":"levelo_inurba_marseille","lat":43.23964,"lon":5.36629,"is_reserved":false,"is_disabled":false,"rental_uris":{"android":"levelo://app?vid=4908505b-1670-4d33-ace0-c6105e9cd4a4","ios":"levelo://app?vid=4908505b-1670-4d33-ace0-c6105e9cd4a4"},"vehicle_type_id":"4","last_reported":1747836641,"current_range_meters":2800,"station_id":"ce4bhi12rcd13ifvqfp0","pricing_plan_id":"cebpf4jnsgd1na2vs0mg"},{"bike_id":"e8585f68-b662-477a-9410-4b3fb3861f81","system_id":"levelo_inurba_marseille","lat":43.23966,"lon":5.36629,"is_reserved":false,"is_disabled":false,"rental_uris":{"android":"levelo://app?vid=e8585f68-b662-477a-9410-4b3fb3861f81","ios":"levelo://app?vid=e8585f68-b662-477a-9410-4b3fb3861f81"},"vehicle_type_id":"4","last_reported":1747836641,"current_range_meters":2800,"station_id":"ce4bhi12rcd13ifvqfp0","pricing_plan_id":"cebpf4jnsgd1na2vs0mg"},{"bike_id":"ed16016d-166e-42d6-bd96-399bae965458","system_id":"levelo_inurba_marseille","lat":43.23155,"lon":5.43709,"is_reserved":false,"is_disabled":false,"rental_uris":{"android":"levelo://app?vid=ed16016d-166e-42d6-bd96-399bae965458","ios":"levelo://app?vid=ed16016d-166e-42d6-bd96-399bae965458"},"vehicle_type_id":"4","last_reported":1747836641,"current_range_meters":2800,"station_id":"ce4bhmp2rcd13ifvqgog","pricing_plan_id":"cebpf4jnsgd1na2vs0mg"},{"bike_id":"83f7263a-0ba0-4e97-a2c7-39bd1f936666","system_id":"levelo_inurba_marseille","lat":43.29576,"lon":5.39962,"is_reserved":false,"is_disabled":false,"rental_uris":{"android":"levelo://app?vid=83f7263a-0ba0-4e97-a2c7-39bd1f936666","ios":"levelo://app?vid=83f7263a-0ba0-4e97-a2c7-39bd1f936666"},"vehicle_type_id":"4","last_reported":1747836641,"current_range_meters":3200,"station_id":"ce4bh312rcd13ifvqdj0","pricing_plan_id":"cebpf4jnsgd1na2vs0mg"},{"bike_id":"19a7d4e7-b077-4a53-968e-27ee270cd00e","system_id":"levelo_inurba_marseille","lat":43.28418,"lon":5.34979,"is_reserved":false,"is_disabled":false,"rental_uris":{"android":"levelo://app?vid=19a7d4e7-b077-4a53-968e-27ee270cd00e","ios":"levelo://app?vid=19a7d4e7-b077-4a53-968e-27ee270cd00e"},"vehicle_type_id":"4","last_reported":1747836641,"current_range_meters":3200,"station_id":"ce4bhbh2rcd13ifvqepg","pricing_plan_id":"cebpf4jnsgd1na2vs0mg"},{"bike_id":"08fa2d38-2174-4516-984a-f6b18417d67a","system_id":"levelo_inurba_marseille","lat":43.26561,"lon":5.37288,"is_reserved":false,"is_disabled":false,"rental_uris":{"android":"levelo://app?vid=08fa2d38-2174-4516-984a-f6b18417d67a","ios":"levelo://app?vid=08fa2d38-2174-4516-984a-f6b18417d67a"},"vehicle_type_id":"4","last_reported":1747836641,"current_range_meters":3200,"station_id":"ce4bhg12rcd13ifvqf70","pricing_plan_id":"cebpf4jnsgd1na2vs0mg"},{"bike_id":"562da3fe-cb52-415c-a25c-a73818299540","system_id":"levelo_inurba_marseille","lat":43.24546,"lon":5.39524,"is_reserved":false,"is_disabled":false,"rental_uris":{"android":"levelo://app?vid=562da3fe-cb52-415c-a25c-a73818299540","ios":"levelo://app?vid=562da3fe-cb52-415c-a25c-a73818299540"},"vehicle_type_id":"4","last_reported":1747836641,"current_range_meters":3200,"station_id":"ce4bhlp2rcd13ifvqgjg","pricing_plan_id":"cebpf4jnsgd1na2vs0mg"},{"bike_id":"85eaca89-9437-48d0-9bca-a254337b88db","system_id":"levelo_inurba_marseille","lat":43.2746,"lon":5.409647,"is_reserved":false,"is_disabled":false,"rental_uris":{"android":"levelo://app?vid=85eaca89-9437-48d0-9bca-a254337b88db","ios":"levelo://app?vid=85eaca89-9437-48d0-9bca-a254337b88db"},"vehicle_type_id":"4","last_reported":1747836641,"current_range_meters":3600,"station_id":"","pricing_plan_id":"cebpf4jnsgd1na2vs0mg"},{"bike_id":"a06d2977-9a08-44b2-9ed3-56592e611215","system_id":"levelo_inurba_marseille","lat":43.30218,"lon":5.39482,"is_reserved":false,"is_disabled":false,"rental_uris":{"android":"levelo://app?vid=a06d2977-9a08-44b2-9ed3-56592e611215","ios":"levelo://app?vid=a06d2977-9a08-44b2-9ed3-56592e611215"},"vehicle_type_id":"4","last_reported":1747836641,"current_range_meters":3600,"station_id":"ce4bh0p2rcd13ifvqd70","pricing_plan_id":"cebpf4jnsgd1na2vs0mg"},{"bike_id":"25ef9d2b-cc00-4161-958e-ea7d6c86f19a","system_id":"levelo_inurba_marseille","lat":43.286987,"lon":5.374164,"is_reserved":false,"is_disabled":false,"rental_uris":{"android":"levelo://app?vid=25ef9d2b-cc00-4161-958e-ea7d6c86f19a","ios":"levelo://app?vid=25ef9d2b-cc00-4161-958e-ea7d6c86f19a"},"vehicle_type_id":"4","last_reported":1747836641,"current_range_meters":3600,"station_id":"ce4bh3p2rcd13ifvqdq0","pricing_plan_id":"cebpf4jnsgd1na2vs0mg"},{"bike_id":"b544317a-9006-457b-9520-6b4289acada7","system_id":"levelo_inurba_marseille","lat":43.29204,"lon":5.35801,"is_reserved":false,"is_disabled":false,"rental_uris":{"android":"levelo://app?vid=b544317a-9006-457b-9520-6b4289acada7","ios":"levelo://app?vid=b544317a-9006-457b-9520-6b4289acada7"},"vehicle_type_id":"4","last_reported":1747836641,"current_range_meters":3600,"station_id":"ce4bhb12rcd13ifvqel0","pricing_plan_id":"cebpf4jnsgd1na2vs0mg"},{"bike_id":"421a94cc-bcf7-4e8e-879f-85b732fad866","system_id":"levelo_inurba_marseille","lat":43.29005,"lon":5.35617,"is_reserved":false,"is_disabled":false,"rental_uris":{"android":"levelo://app?vid=421a94cc-bcf7-4e8e-879f-85b732fad866","ios":"levelo://app?vid=421a94cc-bcf7-4e8e-879f-85b732fad866"},"vehicle_type_id":"4","last_reported":1747836641,"current_range_meters":3600,"station_id":"ce4bhb92rcd13ifvqen0","pricing_plan_id":"cebpf4jnsgd1na2vs0mg"},{"bike_id":"85b7d259-027a-441d-80b5-ddbfde1e3749","system_id":"levelo_inurba_marseille","lat":43.27379,"lon":5.36256,"is_reserved":false,"is_disabled":false,"rental_uris":{"android":"levelo://app?vid=85b7d259-027a-441d-80b5-ddbfde1e3749","ios":"levelo://app?vid=85b7d259-027a-441d-80b5-ddbfde1e3749"},"vehicle_type_id":"4","last_reported":1747836641,"current_range_meters":3600,"station_id":"ce4bhbh2rcd13ifvqeo0","pricing_plan_id":"cebpf4jnsgd1na2vs0mg"},{"bike_id":"6f3bd03a-0b49-4371-8e7d-5e117793d7ef","system_id":"levelo_inurba_marseille","lat":43.25502,"lon":5.37651,"is_reserved":false,"is_disabled":false,"rental_uris":{"android":"levelo://app?vid=6f3bd03a-0b49-4371-8e7d-5e117793d7ef","ios":"levelo://app?vid=6f3bd03a-0b49-4371-8e7d-5e117793d7ef"},"vehicle_type_id":"4","last_reported":1747836641,"current_range_meters":3600,"station_id":"ce4bhh12rcd13ifvqff0","pricing_plan_id":"cebpf4jnsgd1na2vs0mg"},{"bike_id":"376cb483-5b4f-4eec-932c-4caa547e143b","system_id":"levelo_inurba_marseille","lat":43.27567,"lon":5.38423,"is_reserved":false,"is_disabled":false,"rental_uris":{"android":"levelo://app?vid=376cb483-5b4f-4eec-932c-4caa547e143b","ios":"levelo://app?vid=376cb483-5b4f-4eec-932c-4caa547e143b"},"vehicle_type_id":"4","last_reported":1747836641,"current_range_meters":3600,"station_id":"ce4bhh92rcd13ifvqfi0","pricing_plan_id":"cebpf4jnsgd1na2vs0mg"},{"bike_id":"cbf8065c-fe04-44cc-8b37-cc747f9ab8a0","system_id":"levelo_inurba_marseille","lat":43.24388,"lon":5.37061,"is_reserved":false,"is_disabled":false,"rental_uris":{"android":"levelo://app?vid=cbf8065c-fe04-44cc-8b37-cc747f9ab8a0","ios":"levelo://app?vid=cbf8065c-fe04-44cc-8b37-cc747f9ab8a0"},"vehicle_type_id":"4","last_reported":1747836641,"current_range_meters":3600,"station_id":"ce4bhhh2rcd13ifvqfk0","pricing_plan_id":"cebpf4jnsgd1na2vs0mg"},{"bike_id":"ae73efaa-9167-40cc-8c43-3da2f0976bca","system_id":"levelo_inurba_marseille","lat":43.26788,"lon":5.39414,"is_reserved":false,"is_disabled":false,"rental_uris":{"android":"levelo://app?vid=ae73efaa-9167-40cc-8c43-3da2f0976bca","ios":"levelo://app?vid=ae73efaa-9167-40cc-8c43-3da2f0976bca"},"vehicle_type_id":"4","last_reported":1747836641,"current_range_meters":4000,"station_id":"ce4bhh12rcd13ifvqfg0","pricing_plan_id":"cebpf4jnsgd1na2vs0mg"},{"bike_id":"35f4f27b-865c-4da1-9bad-e26db9f7ba5f","system_id":"levelo_inurba_marseille","lat":43.25587,"lon":5.38249,"is_reserved":false,"is_disabled":false,"rental_uris":{"android":"levelo://app?vid=35f4f27b-865c-4da1-9bad-e26db9f7ba5f","ios":"levelo://app?vid=35f4f27b-865c-4da1-9bad-e26db9f7ba5f"},"vehicle_type_id":"4","last_reported":1747836641,"current_range_meters":4000,"station_id":"ce4bhih2rcd13ifvqfs0","pricing_plan_id":"cebpf4jnsgd1na2vs0mg"},{"bike_id":"1e6f9115-870b-4db9-a9ea-920be691b888","system_id":"levelo_inurba_marseille","lat":43.28723,"lon":5.36101,"is_reserved":false,"is_disabled":false,"rental_uris":{"android":"levelo://app?vid=1e6f9115-870b-4db9-a9ea-920be691b888","ios":"levelo://app?vid=1e6f9115-870b-4db9-a9ea-920be691b888"},"vehicle_type_id":"4","last_reported":1747836641,"current_range_meters":4000,"station_id":"cki0cbj6b192h4jlfktg","pricing_plan_id":"cebpf4jnsgd1na2vs0mg"},{"bike_id":"11ee99c8-073e-4f4a-97ba-968d444a78c2","system_id":"levelo_inurba_marseille","lat":43.27373,"lon":5.3627,"is_reserved":false,"is_disabled":false,"rental_uris":{"android":"levelo://app?vid=11ee99c8-073e-4f4a-97ba-968d444a78c2","ios":"levelo://app?vid=11ee99c8-073e-4f4a-97ba-968d444a78c2"},"vehicle_type_id":"4","last_reported":1747836641,"current_range_meters":4400,"station_id":"ce4bhbh2rcd13ifvqeo0","pricing_plan_id":"cebpf4jnsgd1na2vs0mg"},{"bike_id":"f4751975-7761-4b84-b4a6-fefaf4446dd7","system_id":"levelo_inurba_marseille","lat":43.26219,"lon":5.37426,"is_reserved":false,"is_disabled":false,"rental_uris":{"android":"levelo://app?vid=f4751975-7761-4b84-b4a6-fefaf4446dd7","ios":"levelo://app?vid=f4751975-7761-4b84-b4a6-fefaf4446dd7"},"vehicle_type_id":"4","last_reported":1747836641,"current_range_meters":4400,"station_id":"ce4bhgp2rcd13ifvqfc0","pricing_plan_id":"cebpf4jnsgd1na2vs0mg"},{"bike_id":"5a25477d-f49b-4b0d-a14f-2c8cb3a37303","system_id":"levelo_inurba_marseille","lat":43.27196,"lon":5.39154,"is_reserved":false,"is_disabled":false,"rental_uris":{"android":"levelo://app?vid=5a25477d-f49b-4b0d-a14f-2c8cb3a37303","ios":"levelo://app?vid=5a25477d-f49b-4b0d-a14f-2c8cb3a37303"},"vehicle_type_id":"4","last_reported":1747836641,"current_range_meters":4400,"station_id":"ce4bhhp2rcd13ifvqfm0","pricing_plan_id":"cebpf4jnsgd1na2vs0mg"},{"bike_id":"68a78a1c-cda7-49f2-917e-f5e6a2d3a4bf","system_id":"levelo_inurba_marseille","lat":43.23154,"lon":5.43705,"is_reserved":false,"is_disabled":false,"rental_uris":{"android":"levelo://app?vid=68a78a1c-cda7-49f2-917e-f5e6a2d3a4bf","ios":"levelo://app?vid=68a78a1c-cda7-49f2-917e-f5e6a2d3a4bf"},"vehicle_type_id":"4","last_reported":1747836641,"current_range_meters":4400,"station_id":"ce4bhmp2rcd13ifvqgog","pricing_plan_id":"cebpf4jnsgd1na2vs0mg"},{"bike_id":"9e03cbff-f67f-43b3-b101-e68a807c975a","system_id":"levelo_inurba_marseille","lat":43.23157,"lon":5.43713,"is_reserved":false,"is_disabled":false,"rental_uris":{"android":"levelo://app?vid=9e03cbff-f67f-43b3-b101-e68a807c975a","ios":"levelo://app?vid=9e03cbff-f67f-43b3-b101-e68a807c975a"},"vehicle_type_id":"4","last_reported":1747836641,"current_range_meters":4400,"station_id":"ce4bhmp2rcd13ifvqgog","pricing_plan_id":"cebpf4jnsgd1na2vs0mg"},{"bike_id":"2bdc3e2e-592d-4696-877b-38d9a83a4ef0","system_id":"levelo_inurba_marseille","lat":43.27495,"lon":5.42464,"is_reserved":false,"is_disabled":false,"rental_uris":{"android":"levelo://app?vid=2bdc3e2e-592d-4696-877b-38d9a83a4ef0","ios":"levelo://app?vid=2bdc3e2e-592d-4696-877b-38d9a83a4ef0"},"vehicle_type_id":"4","last_reported":1747836641,"current_range_meters":4400,"station_id":"ce4bhn92rcd13ifvqgrg","pricing_plan_id":"cebpf4jnsgd1na2vs0mg"},{"bike_id":"98e6b04e-048b-411e-914a-7cf74ae76ef4","system_id":"levelo_inurba_marseille","lat":43.28223,"lon":5.3488,"is_reserved":false,"is_disabled":false,"rental_uris":{"android":"levelo://app?vid=98e6b04e-048b-411e-914a-7cf74ae76ef4","ios":"levelo://app?vid=98e6b04e-048b-411e-914a-7cf74ae76ef4"},"vehicle_type_id":"4","last_reported":1747836641,"current_range_meters":4800,"station_id":"","pricing_plan_id":"cebpf4jnsgd1na2vs0mg"},{"bike_id":"52c8ef8c-a485-4b83-ae48-b932efe17ad7","system_id":"levelo_inurba_marseille","lat":43.30899,"lon":5.37187,"is_reserved":false,"is_disabled":false,"rental_uris":{"android":"levelo://app?vid=52c8ef8c-a485-4b83-ae48-b932efe17ad7","ios":"levelo://app?vid=52c8ef8c-a485-4b83-ae48-b932efe17ad7"},"vehicle_type_id":"4","last_reported":1747836641,"current_range_meters":4800,"station_id":"ce4bguh2rcd13ifvqckg","pricing_plan_id":"cebpf4jnsgd1na2vs0mg"},{"bike_id":"059a1b1f-c2a6-4218-a093-f5e3410c3dd3","system_id":"levelo_inurba_marseille","lat":43.26937,"lon":5.40252,"is_reserved":false,"is_disabled":false,"rental_uris":{"android":"levelo://app?vid=059a1b1f-c2a6-4218-a093-f5e3410c3dd3","ios":"levelo://app?vid=059a1b1f-c2a6-4218-a093-f5e3410c3dd3"},"vehicle_type_id":"4","last_reported":1747836641,"current_range_meters":4800,"station_id":"cjm6bp8fraef2m0cb0m0","pricing_plan_id":"cebpf4jnsgd1na2vs0mg"},{"bike_id":"5de0adae-eea1-4748-a608-e7ab8a930be9","system_id":"levelo_inurba_marseille","lat":43.300907,"lon":5.390788,"is_reserved":false,"is_disabled":false,"rental_uris":{"android":"levelo://app?vid=5de0adae-eea1-4748-a608-e7ab8a930be9","ios":"levelo://app?vid=5de0adae-eea1-4748-a608-e7ab8a930be9"},"vehicle_type_id":"4","last_reported":1747836641,"current_range_meters":5600,"station_id":"ce4bh192rcd13ifvqdb0","pricing_plan_id":"cebpf4jnsgd1na2vs0mg"},{"bike_id":"25555ed4-9b2f-4184-8e94-c34b845b7a65","system_id":"levelo_inurba_marseille","lat":43.24393,"lon":5.37064,"is_reserved":false,"is_disabled":false,"rental_uris":{"android":"levelo://app?vid=25555ed4-9b2f-4184-8e94-c34b845b7a65","ios":"levelo://app?vid=25555ed4-9b2f-4184-8e94-c34b845b7a65"},"vehicle_type_id":"4","last_reported":1747836641,"current_range_meters":5600,"station_id":"ce4bhhh2rcd13ifvqfk0","pricing_plan_id":"cebpf4jnsgd1na2vs0mg"},{"bike_id":"fbdf4b39-6018-44a1-b4b1-ed05a1d5a256","system_id":"levelo_inurba_marseille","lat":43.25107,"lon":5.40347,"is_reserved":false,"is_disabled":false,"rental_uris":{"android":"levelo://app?vid=fbdf4b39-6018-44a1-b4b1-ed05a1d5a256","ios":"levelo://app?vid=fbdf4b39-6018-44a1-b4b1-ed05a1d5a256"},"vehicle_type_id":"4","last_reported":1747836641,"current_range_meters":5600,"station_id":"ce4bhlh2rcd13ifvqgig","pricing_plan_id":"cebpf4jnsgd1na2vs0mg"},{"bike_id":"60e67a08-a624-4558-8aaf-acd9b7cecf91","system_id":"levelo_inurba_marseille","lat":43.27619,"lon":5.36122,"is_reserved":false,"is_disabled":false,"rental_uris":{"android":"levelo://app?vid=60e67a08-a624-4558-8aaf-acd9b7cecf91","ios":"levelo://app?vid=60e67a08-a624-4558-8aaf-acd9b7cecf91"},"vehicle_type_id":"4","last_reported":1747836641,"current_range_meters":6000,"station_id":"ce4bgj92rcd13ifvqbe0","pricing_plan_id":"cebpf4jnsgd1na2vs0mg"},{"bike_id":"d0b6d1e3-af36-4bf3-b60f-31bf11e9159a","system_id":"levelo_inurba_marseille","lat":43.29854,"lon":5.36305,"is_reserved":false,"is_disabled":false,"rental_uris":{"android":"levelo://app?vid=d0b6d1e3-af36-4bf3-b60f-31bf11e9159a","ios":"levelo://app?vid=d0b6d1e3-af36-4bf3-b60f-31bf11e9159a"},"vehicle_type_id":"4","last_reported":1747836641,"current_range_meters":6000,"station_id":"ce4bgpp2rcd13ifvqc3g","pricing_plan_id":"cebpf4jnsgd1na2vs0mg"},{"bike_id":"90294c08-e49b-4b97-88f9-e49d62db7883","system_id":"levelo_inurba_marseille","lat":43.24656,"lon":5.38894,"is_reserved":false,"is_disabled":false,"rental_uris":{"android":"levelo://app?vid=90294c08-e49b-4b97-88f9-e49d62db7883","ios":"levelo://app?vid=90294c08-e49b-4b97-88f9-e49d62db7883"},"vehicle_type_id":"4","last_reported":1747836641,"current_range_meters":6000,"station_id":"ce4bhg12rcd13ifvqf60","pricing_plan_id":"cebpf4jnsgd1na2vs0mg"},{"bike_id":"cc89d287-ca28-4daf-bb31-506849abf2e8","system_id":"levelo_inurba_marseille","lat":43.26197,"lon":5.37449,"is_reserved":false,"is_disabled":false,"rental_uris":{"android":"levelo://app?vid=cc89d287-ca28-4daf-bb31-506849abf2e8","ios":"levelo://app?vid=cc89d287-ca28-4daf-bb31-506849abf2e8"},"vehicle_type_id":"4","last_reported":1747836641,"current_range_meters":6000,"station_id":"ce4bhgp2rcd13ifvqfc0","pricing_plan_id":"cebpf4jnsgd1na2vs0mg"},{"bike_id":"4593fc9b-192b-486f-9f4a-5305a29d5846","system_id":"levelo_inurba_marseille","lat":43.32663,"lon":5.40991,"is_reserved":false,"is_disabled":false,"rental_uris":{"android":"levelo://app?vid=4593fc9b-192b-486f-9f4a-5305a29d5846","ios":"levelo://app?vid=4593fc9b-192b-486f-9f4a-5305a29d5846"},"vehicle_type_id":"4","last_reported":1747836641,"current_range_meters":6000,"station_id":"ce4bhpp2rcd13ifvqhgg","pricing_plan_id":"cebpf4jnsgd1na2vs0mg"},{"bike_id":"bffbaf88-357a-4e87-a68c-a9a27a6e01e6","system_id":"levelo_inurba_marseille","lat":43.26236,"lon":5.42136,"is_reserved":false,"is_disabled":false,"rental_uris":{"android":"levelo://app?vid=bffbaf88-357a-4e87-a68c-a9a27a6e01e6","ios":"levelo://app?vid=bffbaf88-357a-4e87-a68c-a9a27a6e01e6"},"vehicle_type_id":"4","last_reported":1747836641,"current_range_meters":6400,"station_id":"","pricing_plan_id":"cebpf4jnsgd1na2vs0mg"},{"bike_id":"f657fad0-f357-4a5c-87f5-70624267cbae","system_id":"levelo_inurba_marseille","lat":43.28411,"lon":5.34977,"is_reserved":false,"is_disabled":false,"rental_uris":{"android":"levelo://app?vid=f657fad0-f357-4a5c-87f5-70624267cbae","ios":"levelo://app?vid=f657fad0-f357-4a5c-87f5-70624267cbae"},"vehicle_type_id":"4","last_reported":1747836641,"current_range_meters":6400,"station_id":"ce4bhbh2rcd13ifvqepg","pricing_plan_id":"cebpf4jnsgd1na2vs0mg"},{"bike_id":"9d98f24e-3aab-426b-b3dc-234aeadf8746","system_id":"levelo_inurba_marseille","lat":43.241659,"lon":5.363934,"is_reserved":false,"is_disabled":false,"rental_uris":{"android":"levelo://app?vid=9d98f24e-3aab-426b-b3dc-234aeadf8746","ios":"levelo://app?vid=9d98f24e-3aab-426b-b3dc-234aeadf8746"},"vehicle_type_id":"4","last_reported":1747836641,"current_range_meters":6400,"station_id":"cpo36qri1sfpv3e86is0","pricing_plan_id":"cebpf4jnsgd1na2vs0mg"},{"bike_id":"286b6ee7-ceda-4c6e-a07e-3d9c79135630","system_id":"levelo_inurba_marseille","lat":43.21749,"lon":5.34598,"is_reserved":false,"is_disabled":false,"rental_uris":{"android":"levelo://app?vid=286b6ee7-ceda-4c6e-a07e-3d9c79135630","ios":"levelo://app?vid=286b6ee7-ceda-4c6e-a07e-3d9c79135630"},"vehicle_type_id":"4","last_reported":1747836641,"current_range_meters":6400,"station_id":"st_cvj6r9ubvosntc0bgbag","pricing_plan_id":"cebpf4jnsgd1na2vs0mg"},{"bike_id":"381693f8-fae2-456e-8c91-925ef88e7ebd","system_id":"levelo_inurba_marseille","lat":43.2994,"lon":5.37201,"is_reserved":false,"is_disabled":false,"rental_uris":{"android":"levelo://app?vid=381693f8-fae2-456e-8c91-925ef88e7ebd","ios":"levelo://app?vid=381693f8-fae2-456e-8c91-925ef88e7ebd"},"vehicle_type_id":"4","last_reported":1747836641,"current_range_meters":6800,"station_id":"ce4bgr92rcd13ifvqc7g","pricing_plan_id":"cebpf4jnsgd1na2vs0mg"},{"bike_id":"d6076a95-bfd3-47e0-93dd-1a8a5c414826","system_id":"levelo_inurba_marseille","lat":43.31171,"lon":5.38717,"is_reserved":false,"is_disabled":false,"rental_uris":{"android":"levelo://app?vid=d6076a95-bfd3-47e0-93dd-1a8a5c414826","ios":"levelo://app?vid=d6076a95-bfd3-47e0-93dd-1a8a5c414826"},"vehicle_type_id":"4","last_reported":1747836641,"current_range_meters":6800,"station_id":"ce4bgv12rcd13ifvqcp0","pricing_plan_id":"cebpf4jnsgd1na2vs0mg"},{"bike_id":"16b3f1f7-96af-45c7-b01e-f68dc8325888","system_id":"levelo_inurba_marseille","lat":43.31075,"lon":5.38354,"is_reserved":false,"is_disabled":false,"rental_uris":{"android":"levelo://app?vid=16b3f1f7-96af-45c7-b01e-f68dc8325888","ios":"levelo://app?vid=16b3f1f7-96af-45c7-b01e-f68dc8325888"},"vehicle_type_id":"4","last_reported":1747836641,"current_range_meters":6800,"station_id":"ce4bgv92rcd13ifvqcr0","pricing_plan_id":"cebpf4jnsgd1na2vs0mg"},{"bike_id":"6684a469-4594-4960-a989-328d3f260b8a","system_id":"levelo_inurba_marseille","lat":43.27374,"lon":5.36236,"is_reserved":false,"is_disabled":false,"rental_uris":{"android":"levelo://app?vid=6684a469-4594-4960-a989-328d3f260b8a","ios":"levelo://app?vid=6684a469-4594-4960-a989-328d3f260b8a"},"vehicle_type_id":"4","last_reported":1747836641,"current_range_meters":6800,"station_id":"ce4bhbh2rcd13ifvqeo0","pricing_plan_id":"cebpf4jnsgd1na2vs0mg"},{"bike_id":"33ba2958-163e-4394-81b4-4ba1123e5d60","system_id":"levelo_inurba_marseille","lat":43.25498,"lon":5.3766,"is_reserved":false,"is_disabled":false,"rental_uris":{"android":"levelo://app?vid=33ba2958-163e-4394-81b4-4ba1123e5d60","ios":"levelo://app?vid=33ba2958-163e-4394-81b4-4ba1123e5d60"},"vehicle_type_id":"4","last_reported":1747836641,"current_range_meters":6800,"station_id":"ce4bhh12rcd13ifvqff0","pricing_plan_id":"cebpf4jnsgd1na2vs0mg"},{"bike_id":"c9bf0bed-ab35-4f97-844c-4eb511b8961d","system_id":"levelo_inurba_marseille","lat":43.25729,"lon":5.4111,"is_reserved":false,"is_disabled":false,"rental_uris":{"android":"levelo://app?vid=c9bf0bed-ab35-4f97-844c-4eb511b8961d","ios":"levelo://app?vid=c9bf0bed-ab35-4f97-844c-4eb511b8961d"},"vehicle_type_id":"4","last_reported":1747836641,"current_range_meters":6800,"station_id":"ce4bhkp2rcd13ifvqgd0","pricing_plan_id":"cebpf4jnsgd1na2vs0mg"},{"bike_id":"1fb80df3-0771-4991-832c-3c3bf3fb4754","system_id":"levelo_inurba_marseille","lat":43.25724,"lon":5.41091,"is_reserved":false,"is_disabled":false,"rental_uris":{"android":"levelo://app?vid=1fb80df3-0771-4991-832c-3c3bf3fb4754","ios":"levelo://app?vid=1fb80df3-0771-4991-832c-3c3bf3fb4754"},"vehicle_type_id":"4","last_reported":1747836641,"current_range_meters":6800,"station_id":"ce4bhkp2rcd13ifvqgd0","pricing_plan_id":"cebpf4jnsgd1na2vs0mg"},{"bike_id":"cf63a139-0651-41ef-99be-64fadc0fca91","system_id":"levelo_inurba_marseille","lat":43.31734,"lon":5.37358,"is_reserved":false,"is_disabled":false,"rental_uris":{"android":"levelo://app?vid=cf63a139-0651-41ef-99be-64fadc0fca91","ios":"levelo://app?vid=cf63a139-0651-41ef-99be-64fadc0fca91"},"vehicle_type_id":"4","last_reported":1747836641,"current_range_meters":7200,"station_id":"","pricing_plan_id":"cebpf4jnsgd1na2vs0mg"},{"bike_id":"b8b511c7-6f48-45be-97af-1e0036b54cc5","system_id":"levelo_inurba_marseille","lat":43.27354,"lon":5.4241,"is_reserved":false,"is_disabled":false,"rental_uris":{"android":"levelo://app?vid=b8b511c7-6f48-45be-97af-1e0036b54cc5","ios":"levelo://app?vid=b8b511c7-6f48-45be-97af-1e0036b54cc5"},"vehicle_type_id":"4","last_reported":1747836641,"current_range_meters":7200,"station_id":"","pricing_plan_id":"cebpf4jnsgd1na2vs0mg"},{"bike_id":"28857b43-ebd3-4b60-a330-2eb375bd1fa6","system_id":"levelo_inurba_marseille","lat":43.31065,"lon":5.38362,"is_reserved":false,"is_disabled":false,"rental_uris":{"android":"levelo://app?vid=28857b43-ebd3-4b60-a330-2eb375bd1fa6","ios":"levelo://app?vid=28857b43-ebd3-4b60-a330-2eb375bd1fa6"},"vehicle_type_id":"4","last_reported":1747836641,"current_range_meters":7200,"station_id":"ce4bgv92rcd13ifvqcr0","pricing_plan_id":"cebpf4jnsgd1na2vs0mg"},{"bike_id":"08ea67a5-d01f-4f32-ab99-7027aef59895","system_id":"levelo_inurba_marseille","lat":43.31328,"lon":5.39691,"is_reserved":false,"is_disabled":false,"rental_uris":{"android":"levelo://app?vid=08ea67a5-d01f-4f32-ab99-7027aef59895","ios":"levelo://app?vid=08ea67a5-d01f-4f32-ab99-7027aef59895"},"vehicle_type_id":"4","last_reported":1747836641,"current_range_meters":7200,"station_id":"ce4bgvp2rcd13ifvqcu0","pricing_plan_id":"cebpf4jnsgd1na2vs0mg"},{"bike_id":"aba86cb5-a684-4f98-9a91-049b3f861df8","system_id":"levelo_inurba_marseille","lat":43.28479,"lon":5.38421,"is_reserved":false,"is_disabled":false,"rental_uris":{"android":"levelo://app?vid=aba86cb5-a684-4f98-9a91-049b3f861df8","ios":"levelo://app?vid=aba86cb5-a684-4f98-9a91-049b3f861df8"},"vehicle_type_id":"4","last_reported":1747836641,"current_range_meters":7200,"station_id":"ce4bh512rcd13ifvqe3g","pricing_plan_id":"cebpf4jnsgd1na2vs0mg"},{"bike_id":"80053634-2f34-4266-a156-bda33be861b7","system_id":"levelo_inurba_marseille","lat":43.246517,"lon":5.388923,"is_reserved":false,"is_disabled":false,"rental_uris":{"android":"levelo://app?vid=80053634-2f34-4266-a156-bda33be861b7","ios":"levelo://app?vid=80053634-2f34-4266-a156-bda33be861b7"},"vehicle_type_id":"4","last_reported":1747836641,"current_range_meters":7200,"station_id":"ce4bhg12rcd13ifvqf60","pricing_plan_id":"cebpf4jnsgd1na2vs0mg"},{"bike_id":"fd343d17-f636-48dd-9200-27acc812859e","system_id":"levelo_inurba_marseille","lat":43.2606,"lon":5.39394,"is_reserved":false,"is_disabled":false,"rental_uris":{"android":"levelo://app?vid=fd343d17-f636-48dd-9200-27acc812859e","ios":"levelo://app?vid=fd343d17-f636-48dd-9200-27acc812859e"},"vehicle_type_id":"4","last_reported":1747836641,"current_range_meters":7200,"station_id":"ce4bhh92rcd13ifvqfj0","pricing_plan_id":"cebpf4jnsgd1na2vs0mg"},{"bike_id":"119414dd-a64a-482e-b0a3-d8cde5e6007d","system_id":"levelo_inurba_marseille","lat":43.27795,"lon":5.40764,"is_reserved":false,"is_disabled":false,"rental_uris":{"android":"levelo://app?vid=119414dd-a64a-482e-b0a3-d8cde5e6007d","ios":"levelo://app?vid=119414dd-a64a-482e-b0a3-d8cde5e6007d"},"vehicle_type_id":"4","last_reported":1747836641,"current_range_meters":7200,"station_id":"ce4bhnh2rcd13ifvqgtg","pricing_plan_id":"cebpf4jnsgd1na2vs0mg"},{"bike_id":"e8162579-a5ad-485f-ad83-fec8a2ebe7e1","system_id":"levelo_inurba_marseille","lat":43.26826,"lon":5.39099,"is_reserved":false,"is_disabled":false,"rental_uris":{"android":"levelo://app?vid=e8162579-a5ad-485f-ad83-fec8a2ebe7e1","ios":"levelo://app?vid=e8162579-a5ad-485f-ad83-fec8a2ebe7e1"},"vehicle_type_id":"4","last_reported":1747836641,"current_range_meters":8000,"station_id":"","pricing_plan_id":"cebpf4jnsgd1na2vs0mg"},{"bike_id":"95a8ce1b-eebf-489a-a2eb-f44e4e75de6f","system_id":"levelo_inurba_marseille","lat":43.28484,"lon":5.38414,"is_reserved":false,"is_disabled":false,"rental_uris":{"android":"levelo://app?vid=95a8ce1b-eebf-489a-a2eb-f44e4e75de6f","ios":"levelo://app?vid=95a8ce1b-eebf-489a-a2eb-f44e4e75de6f"},"vehicle_type_id":"4","last_reported":1747836641,"current_range_meters":8000,"station_id":"ce4bh512rcd13ifvqe3g","pricing_plan_id":"cebpf4jnsgd1na2vs0mg"},{"bike_id":"84f27c97-1548-4faa-8358-cdecc8d2a831","system_id":"levelo_inurba_marseille","lat":43.28421,"lon":5.34973,"is_reserved":false,"is_disabled":false,"rental_uris":{"android":"levelo://app?vid=84f27c97-1548-4faa-8358-cdecc8d2a831","ios":"levelo://app?vid=84f27c97-1548-4faa-8358-cdecc8d2a831"},"vehicle_type_id":"4","last_reported":1747836641,"current_range_meters":8000,"station_id":"ce4bhbh2rcd13ifvqepg","pricing_plan_id":"cebpf4jnsgd1na2vs0mg"},{"bike_id":"118bae6f-0cf1-4bd2-ad4a-5f6b9d087f5d","system_id":"levelo_inurba_marseille","lat":43.27904,"lon":5.39594,"is_reserved":false,"is_disabled":false,"rental_uris":{"android":"levelo://app?vid=118bae6f-0cf1-4bd2-ad4a-5f6b9d087f5d","ios":"levelo://app?vid=118bae6f-0cf1-4bd2-ad4a-5f6b9d087f5d"},"vehicle_type_id":"4","last_reported":1747836641,"current_range_meters":8000,"station_id":"ce4bhf92rcd13ifvqf40","pricing_plan_id":"cebpf4jnsgd1na2vs0mg"},{"bike_id":"e27deab4-cec2-44b8-bc16-ea015c031652","system_id":"levelo_inurba_marseille","lat":43.26789,"lon":5.39414,"is_reserved":false,"is_disabled":false,"rental_uris":{"android":"levelo://app?vid=e27deab4-cec2-44b8-bc16-ea015c031652","ios":"levelo://app?vid=e27deab4-cec2-44b8-bc16-ea015c031652"},"vehicle_type_id":"4","last_reported":1747836641,"current_range_meters":8000,"station_id":"ce4bhh12rcd13ifvqfg0","pricing_plan_id":"cebpf4jnsgd1na2vs0mg"},{"bike_id":"6cdef387-baab-4555-9f86-617fba94902a","system_id":"levelo_inurba_marseille","lat":43.32351,"lon":5.367491,"is_reserved":false,"is_disabled":false,"rental_uris":{"android":"levelo://app?vid=6cdef387-baab-4555-9f86-617fba94902a","ios":"levelo://app?vid=6cdef387-baab-4555-9f86-617fba94902a"},"vehicle_type_id":"4","last_reported":1747836641,"current_range_meters":8000,"station_id":"ce4bhsh2rcd13ifvqi2g","pricing_plan_id":"cebpf4jnsgd1na2vs0mg"},{"bike_id":"3552fbf2-b43a-446f-93f5-d695fc251b73","system_id":"levelo_inurba_marseille","lat":43.25237,"lon":5.37491,"is_reserved":false,"is_disabled":false,"rental_uris":{"android":"levelo://app?vid=3552fbf2-b43a-446f-93f5-d695fc251b73","ios":"levelo://app?vid=3552fbf2-b43a-446f-93f5-d695fc251b73"},"vehicle_type_id":"4","last_reported":1747836641,"current_range_meters":8400,"station_id":"","pricing_plan_id":"cebpf4jnsgd1na2vs0mg"},{"bike_id":"d3d90f21-40c6-4908-8f6c-e998cbcfdece","system_id":"levelo_inurba_marseille","lat":43.2901,"lon":5.38136,"is_reserved":false,"is_disabled":false,"rental_uris":{"android":"levelo://app?vid=d3d90f21-40c6-4908-8f6c-e998cbcfdece","ios":"levelo://app?vid=d3d90f21-40c6-4908-8f6c-e998cbcfdece"},"vehicle_type_id":"4","last_reported":1747836641,"current_range_meters":8400,"station_id":"","pricing_plan_id":"cebpf4jnsgd1na2vs0mg"},{"bike_id":"18125029-cc68-4898-bb36-9b07c9637ded","system_id":"levelo_inurba_marseille","lat":43.2937,"lon":5.3786,"is_reserved":false,"is_disabled":false,"rental_uris":{"android":"levelo://app?vid=18125029-cc68-4898-bb36-9b07c9637ded","ios":"levelo://app?vid=18125029-cc68-4898-bb36-9b07c9637ded"},"vehicle_type_id":"4","last_reported":1747836641,"current_range_meters":8400,"station_id":"ce4bgjh2rcd13ifvqbf0","pricing_plan_id":"cebpf4jnsgd1na2vs0mg"},{"bike_id":"6e2576b6-0da3-4bab-8ab4-bf439787ac40","system_id":"levelo_inurba_marseille","lat":43.297205,"lon":5.40086,"is_reserved":false,"is_disabled":false,"rental_uris":{"android":"levelo://app?vid=6e2576b6-0da3-4bab-8ab4-bf439787ac40","ios":"levelo://app?vid=6e2576b6-0da3-4bab-8ab4-bf439787ac40"},"vehicle_type_id":"4","last_reported":1747836641,"current_range_meters":8400,"station_id":"ce4bh092rcd13ifvqd20","pricing_plan_id":"cebpf4jnsgd1na2vs0mg"},{"bike_id":"90332649-fb6c-4e07-8a1a-0ce2f1a171d1","system_id":"levelo_inurba_marseille","lat":43.2926,"lon":5.40904,"is_reserved":false,"is_disabled":false,"rental_uris":{"android":"levelo://app?vid=90332649-fb6c-4e07-8a1a-0ce2f1a171d1","ios":"levelo://app?vid=90332649-fb6c-4e07-8a1a-0ce2f1a171d1"},"vehicle_type_id":"4","last_reported":1747836641,"current_range_meters":8400,"station_id":"ce4bh192rcd13ifvqdc0","pricing_plan_id":"cebpf4jnsgd1na2vs0mg"},{"bike_id":"c1b9877c-560f-414f-a3b6-a463eba1171d","system_id":"levelo_inurba_marseille","lat":43.28673,"lon":5.38677,"is_reserved":false,"is_disabled":false,"rental_uris":{"android":"levelo://app?vid=c1b9877c-560f-414f-a3b6-a463eba1171d","ios":"levelo://app?vid=c1b9877c-560f-414f-a3b6-a463eba1171d"},"vehicle_type_id":"4","last_reported":1747836641,"current_range_meters":8400,"station_id":"ce4bh492rcd13ifvqdug","pricing_plan_id":"cebpf4jnsgd1na2vs0mg"},{"bike_id":"3e5301be-d291-4d49-8937-b5e76dae1338","system_id":"levelo_inurba_marseille","lat":43.28464,"lon":5.35883,"is_reserved":false,"is_disabled":false,"rental_uris":{"android":"levelo://app?vid=3e5301be-d291-4d49-8937-b5e76dae1338","ios":"levelo://app?vid=3e5301be-d291-4d49-8937-b5e76dae1338"},"vehicle_type_id":"4","last_reported":1747836641,"current_range_meters":8400,"station_id":"ce4bhah2rcd13ifvqei0","pricing_plan_id":"cebpf4jnsgd1na2vs0mg"},{"bike_id":"40bd39a7-7aaf-4a48-a3ee-aa4cdc65474b","system_id":"levelo_inurba_marseille","lat":43.28853,"lon":5.35858,"is_reserved":false,"is_disabled":false,"rental_uris":{"android":"levelo://app?vid=40bd39a7-7aaf-4a48-a3ee-aa4cdc65474b","ios":"levelo://app?vid=40bd39a7-7aaf-4a48-a3ee-aa4cdc65474b"},"vehicle_type_id":"4","last_reported":1747836641,"current_range_meters":8400,"station_id":"ce4bhb12rcd13ifvqem0","pricing_plan_id":"cebpf4jnsgd1na2vs0mg"},{"bike_id":"0a2031d7-3901-4842-8639-467d9466f662","system_id":"levelo_inurba_marseille","lat":43.2738,"lon":5.36269,"is_reserved":false,"is_disabled":false,"rental_uris":{"android":"levelo://app?vid=0a2031d7-3901-4842-8639-467d9466f662","ios":"levelo://app?vid=0a2031d7-3901-4842-8639-467d9466f662"},"vehicle_type_id":"4","last_reported":1747836641,"current_range_meters":8400,"station_id":"ce4bhbh2rcd13ifvqeo0","pricing_plan_id":"cebpf4jnsgd1na2vs0mg"},{"bike_id":"b4dfcdc2-6479-4783-9eb0-5b6bef6a5c8e","system_id":"levelo_inurba_marseille","lat":43.23148,"lon":5.43711,"is_reserved":false,"is_disabled":false,"rental_uris":{"android":"levelo://app?vid=b4dfcdc2-6479-4783-9eb0-5b6bef6a5c8e","ios":"levelo://app?vid=b4dfcdc2-6479-4783-9eb0-5b6bef6a5c8e"},"vehicle_type_id":"4","last_reported":1747836641,"current_range_meters":8400,"station_id":"ce4bhmp2rcd13ifvqgog","pricing_plan_id":"cebpf4jnsgd1na2vs0mg"},{"bike_id":"e4bfec6d-8e79-4c51-896d-6e89422c7aab","system_id":"levelo_inurba_marseille","lat":43.2872,"lon":5.36092,"is_reserved":false,"is_disabled":false,"rental_uris":{"android":"levelo://app?vid=e4bfec6d-8e79-4c51-896d-6e89422c7aab","ios":"levelo://app?vid=e4bfec6d-8e79-4c51-896d-6e89422c7aab"},"vehicle_type_id":"4","last_reported":1747836641,"current_range_meters":8400,"station_id":"cki0cbj6b192h4jlfktg","pricing_plan_id":"cebpf4jnsgd1na2vs0mg"},{"bike_id":"b372620f-8132-4e7e-8d1a-e467489438c7","system_id":"levelo_inurba_marseille","lat":43.28627,"lon":5.40361,"is_reserved":false,"is_disabled":false,"rental_uris":{"android":"levelo://app?vid=b372620f-8132-4e7e-8d1a-e467489438c7","ios":"levelo://app?vid=b372620f-8132-4e7e-8d1a-e467489438c7"},"vehicle_type_id":"4","last_reported":1747836641,"current_range_meters":8800,"station_id":"","pricing_plan_id":"cebpf4jnsgd1na2vs0mg"},{"bike_id":"8be7801a-814f-4d7f-a177-20c6bff19f0a","system_id":"levelo_inurba_marseille","lat":43.31332,"lon":5.39692,"is_reserved":false,"is_disabled":false,"rental_uris":{"android":"levelo://app?vid=8be7801a-814f-4d7f-a177-20c6bff19f0a","ios":"levelo://app?vid=8be7801a-814f-4d7f-a177-20c6bff19f0a"},"vehicle_type_id":"4","last_reported":1747836641,"current_range_meters":8800,"station_id":"ce4bgvp2rcd13ifvqcu0","pricing_plan_id":"cebpf4jnsgd1na2vs0mg"},{"bike_id":"fa5c6983-56cf-4574-acda-7033bea28b79","system_id":"levelo_inurba_marseille","lat":43.29004,"lon":5.35601,"is_reserved":false,"is_disabled":false,"rental_uris":{"android":"levelo://app?vid=fa5c6983-56cf-4574-acda-7033bea28b79","ios":"levelo://app?vid=fa5c6983-56cf-4574-acda-7033bea28b79"},"vehicle_type_id":"4","last_reported":1747836641,"current_range_meters":8800,"station_id":"ce4bhb92rcd13ifvqen0","pricing_plan_id":"cebpf4jnsgd1na2vs0mg"},{"bike_id":"97bb45d4-1fa6-4327-84ca-a9603a7daad6","system_id":"levelo_inurba_marseille","lat":43.28419,"lon":5.34973,"is_reserved":false,"is_disabled":false,"rental_uris":{"android":"levelo://app?vid=97bb45d4-1fa6-4327-84ca-a9603a7daad6","ios":"levelo://app?vid=97bb45d4-1fa6-4327-84ca-a9603a7daad6"},"vehicle_type_id":"4","last_reported":1747836641,"current_range_meters":8800,"station_id":"ce4bhbh2rcd13ifvqepg","pricing_plan_id":"cebpf4jnsgd1na2vs0mg"},{"bike_id":"a33a2755-6841-41cf-b4b7-68716ae56578","system_id":"levelo_inurba_marseille","lat":43.23964,"lon":5.36652,"is_reserved":false,"is_disabled":false,"rental_uris":{"android":"levelo://app?vid=a33a2755-6841-41cf-b4b7-68716ae56578","ios":"levelo://app?vid=a33a2755-6841-41cf-b4b7-68716ae56578"},"vehicle_type_id":"4","last_reported":1747836641,"current_range_meters":8800,"station_id":"ce4bhi12rcd13ifvqfp0","pricing_plan_id":"cebpf4jnsgd1na2vs0mg"},{"bike_id":"1ff4dd87-bf56-4ab1-8365-aad71fcb827c","system_id":"levelo_inurba_marseille","lat":43.316076,"lon":5.423906,"is_reserved":false,"is_disabled":false,"rental_uris":{"android":"levelo://app?vid=1ff4dd87-bf56-4ab1-8365-aad71fcb827c","ios":"levelo://app?vid=1ff4dd87-bf56-4ab1-8365-aad71fcb827c"},"vehicle_type_id":"4","last_reported":1747836641,"current_range_meters":8800,"station_id":"ce4bhp92rcd13ifvqhbg","pricing_plan_id":"cebpf4jnsgd1na2vs0mg"},{"bike_id":"9ee850b4-ede6-4cf0-8e63-8d19cdb0302d","system_id":"levelo_inurba_marseille","lat":43.287323,"lon":5.388746,"is_reserved":false,"is_disabled":false,"rental_uris":{"android":"levelo://app?vid=9ee850b4-ede6-4cf0-8e63-8d19cdb0302d","ios":"levelo://app?vid=9ee850b4-ede6-4cf0-8e63-8d19cdb0302d"},"vehicle_type_id":"4","last_reported":1747836641,"current_range_meters":9200,"station_id":"","pricing_plan_id":"cebpf4jnsgd1na2vs0mg"},{"bike_id":"cbb306e0-b254-4046-bd62-48681c739bdf","system_id":"levelo_inurba_marseille","lat":43.31165,"lon":5.38723,"is_reserved":false,"is_disabled":false,"rental_uris":{"android":"levelo://app?vid=cbb306e0-b254-4046-bd62-48681c739bdf","ios":"levelo://app?vid=cbb306e0-b254-4046-bd62-48681c739bdf"},"vehicle_type_id":"4","last_reported":1747836641,"current_range_meters":9200,"station_id":"ce4bgv12rcd13ifvqcp0","pricing_plan_id":"cebpf4jnsgd1na2vs0mg"},{"bike_id":"c3c11b11-8507-45b4-bd48-1e3bdd46fbbe","system_id":"levelo_inurba_marseille","lat":43.23183,"lon":5.4,"is_reserved":false,"is_disabled":false,"rental_uris":{"android":"levelo://app?vid=c3c11b11-8507-45b4-bd48-1e3bdd46fbbe","ios":"levelo://app?vid=c3c11b11-8507-45b4-bd48-1e3bdd46fbbe"},"vehicle_type_id":"4","last_reported":1747836641,"current_range_meters":9200,"station_id":"ce4bhn12rcd13ifvqgqg","pricing_plan_id":"cebpf4jnsgd1na2vs0mg"},{"bike_id":"26fd2cc0-986c-43ff-bd6f-4286d17267ea","system_id":"levelo_inurba_marseille","lat":43.27946,"lon":5.41049,"is_reserved":false,"is_disabled":false,"rental_uris":{"android":"levelo://app?vid=26fd2cc0-986c-43ff-bd6f-4286d17267ea","ios":"levelo://app?vid=26fd2cc0-986c-43ff-bd6f-4286d17267ea"},"vehicle_type_id":"4","last_reported":1747836641,"current_range_meters":9200,"station_id":"ce4bhnp2rcd13ifvqh0g","pricing_plan_id":"cebpf4jnsgd1na2vs0mg"},{"bike_id":"1873176d-1fd5-4805-b80f-33527362db43","system_id":"levelo_inurba_marseille","lat":43.26941,"lon":5.40262,"is_reserved":false,"is_disabled":false,"rental_uris":{"android":"levelo://app?vid=1873176d-1fd5-4805-b80f-33527362db43","ios":"levelo://app?vid=1873176d-1fd5-4805-b80f-33527362db43"},"vehicle_type_id":"4","last_reported":1747836641,"current_range_meters":9200,"station_id":"cjm6bp8fraef2m0cb0m0","pricing_plan_id":"cebpf4jnsgd1na2vs0mg"},{"bike_id":"b245cc22-951f-4aab-8ad3-345a6aea1f70","system_id":"levelo_inurba_marseille","lat":43.299787,"lon":5.38496,"is_reserved":false,"is_disabled":false,"rental_uris":{"android":"levelo://app?vid=b245cc22-951f-4aab-8ad3-345a6aea1f70","ios":"levelo://app?vid=b245cc22-951f-4aab-8ad3-345a6aea1f70"},"vehicle_type_id":"4","last_reported":1747836641,"current_range_meters":9600,"station_id":"ce4bgj92rcd13ifvqbd0","pricing_plan_id":"cebpf4jnsgd1na2vs0mg"},{"bike_id":"581faced-3eb2-4a56-8f99-90441e13715e","system_id":"levelo_inurba_marseille","lat":43.30426,"lon":5.39748,"is_reserved":false,"is_disabled":false,"rental_uris":{"android":"levelo://app?vid=581faced-3eb2-4a56-8f99-90441e13715e","ios":"levelo://app?vid=581faced-3eb2-4a56-8f99-90441e13715e"},"vehicle_type_id":"4","last_reported":1747836641,"current_range_meters":9600,"station_id":"ce4bh092rcd13ifvqd20","pricing_plan_id":"cebpf4jnsgd1na2vs0mg"},{"bike_id":"8d178d41-4116-44ea-a57a-1269e4f38dd1","system_id":"levelo_inurba_marseille","lat":43.27438,"lon":5.39382,"is_reserved":false,"is_disabled":false,"rental_uris":{"android":"levelo://app?vid=8d178d41-4116-44ea-a57a-1269e4f38dd1","ios":"levelo://app?vid=8d178d41-4116-44ea-a57a-1269e4f38dd1"},"vehicle_type_id":"4","last_reported":1747836641,"current_range_meters":9600,"station_id":"ce4bhdp2rcd13ifvqf20","pricing_plan_id":"cebpf4jnsgd1na2vs0mg"},{"bike_id":"ed198fe1-b533-49de-a6e2-987a45420d5e","system_id":"levelo_inurba_marseille","lat":43.251153,"lon":5.403223,"is_reserved":false,"is_disabled":false,"rental_uris":{"android":"levelo://app?vid=ed198fe1-b533-49de-a6e2-987a45420d5e","ios":"levelo://app?vid=ed198fe1-b533-49de-a6e2-987a45420d5e"},"vehicle_type_id":"4","last_reported":1747836641,"current_range_meters":9600,"station_id":"ce4bhlh2rcd13ifvqgig","pricing_plan_id":"cebpf4jnsgd1na2vs0mg"},{"bike_id":"289edf10-3cb4-4764-b8e9-01dd09886fd6","system_id":"levelo_inurba_marseille","lat":43.23189,"lon":5.39986,"is_reserved":false,"is_disabled":false,"rental_uris":{"android":"levelo://app?vid=289edf10-3cb4-4764-b8e9-01dd09886fd6","ios":"levelo://app?vid=289edf10-3cb4-4764-b8e9-01dd09886fd6"},"vehicle_type_id":"4","last_reported":1747836641,"current_range_meters":9600,"station_id":"ce4bhn12rcd13ifvqgqg","pricing_plan_id":"cebpf4jnsgd1na2vs0mg"},{"bike_id":"6fa2a045-306c-4146-823c-182cbdf87330","system_id":"levelo_inurba_marseille","lat":43.23194,"lon":5.39996,"is_reserved":false,"is_disabled":false,"rental_uris":{"android":"levelo://app?vid=6fa2a045-306c-4146-823c-182cbdf87330","ios":"levelo://app?vid=6fa2a045-306c-4146-823c-182cbdf87330"},"vehicle_type_id":"4","last_reported":1747836641,"current_range_meters":9600,"station_id":"ce4bhn12rcd13ifvqgqg","pricing_plan_id":"cebpf4jnsgd1na2vs0mg"},{"bike_id":"c69b5beb-0c3d-40db-a214-eec95f1e753e","system_id":"levelo_inurba_marseille","lat":43.24165,"lon":5.364,"is_reserved":false,"is_disabled":false,"rental_uris":{"android":"levelo://app?vid=c69b5beb-0c3d-40db-a214-eec95f1e753e","ios":"levelo://app?vid=c69b5beb-0c3d-40db-a214-eec95f1e753e"},"vehicle_type_id":"4","last_reported":1747836641,"current_range_meters":9600,"station_id":"cpo36qri1sfpv3e86is0","pricing_plan_id":"cebpf4jnsgd1na2vs0mg"},{"bike_id":"7c56b7b1-b322-4b28-ba9e-92ffb7dc3157","system_id":"levelo_inurba_marseille","lat":43.2175,"lon":5.34603,"is_reserved":false,"is_disabled":false,"rental_uris":{"android":"levelo://app?vid=7c56b7b1-b322-4b28-ba9e-92ffb7dc3157","ios":"levelo://app?vid=7c56b7b1-b322-4b28-ba9e-92ffb7dc3157"},"vehicle_type_id":"4","last_reported":1747836641,"current_range_meters":9600,"station_id":"st_cvj6r9ubvosntc0bgbag","pricing_plan_id":"cebpf4jnsgd1na2vs0mg"},{"bike_id":"bc444e53-de59-4205-bc37-9ab9d6aed612","system_id":"levelo_inurba_marseille","lat":43.27627,"lon":5.36107,"is_reserved":false,"is_disabled":false,"rental_uris":{"android":"levelo://app?vid=bc444e53-de59-4205-bc37-9ab9d6aed612","ios":"levelo://app?vid=bc444e53-de59-4205-bc37-9ab9d6aed612"},"vehicle_type_id":"4","last_reported":1747836641,"current_range_meters":10000,"station_id":"ce4bgj92rcd13ifvqbe0","pricing_plan_id":"cebpf4jnsgd1na2vs0mg"},{"bike_id":"cff1d919-688b-4861-a740-dad34d852eff","system_id":"levelo_inurba_marseille","lat":43.27376,"lon":5.36256,"is_reserved":false,"is_disabled":false,"rental_uris":{"android":"levelo://app?vid=cff1d919-688b-4861-a740-dad34d852eff","ios":"levelo://app?vid=cff1d919-688b-4861-a740-dad34d852eff"},"vehicle_type_id":"4","last_reported":1747836641,"current_range_meters":10000,"station_id":"ce4bhbh2rcd13ifvqeo0","pricing_plan_id":"cebpf4jnsgd1na2vs0mg"},{"bike_id":"812fa841-0b74-4a66-8e01-ac7b6abb4a4c","system_id":"levelo_inurba_marseille","lat":43.23155,"lon":5.43739,"is_reserved":false,"is_disabled":false,"rental_uris":{"android":"levelo://app?vid=812fa841-0b74-4a66-8e01-ac7b6abb4a4c","ios":"levelo://app?vid=812fa841-0b74-4a66-8e01-ac7b6abb4a4c"},"vehicle_type_id":"4","last_reported":1747836641,"current_range_meters":10000,"station_id":"ce4bhmp2rcd13ifvqgog","pricing_plan_id":"cebpf4jnsgd1na2vs0mg"},{"bike_id":"a8a131af-027d-4c09-9cdc-a1b38a172804","system_id":"levelo_inurba_marseille","lat":43.26814,"lon":5.40281,"is_reserved":false,"is_disabled":false,"rental_uris":{"android":"levelo://app?vid=a8a131af-027d-4c09-9cdc-a1b38a172804","ios":"levelo://app?vid=a8a131af-027d-4c09-9cdc-a1b38a172804"},"vehicle_type_id":"4","last_reported":1747836641,"current_range_meters":10000,"station_id":"ce501612rcd8frsf0b60","pricing_plan_id":"cebpf4jnsgd1na2vs0mg"},{"bike_id":"8cb883dc-c67f-47a7-a646-3d913afaa0a2","system_id":"levelo_inurba_marseille","lat":43.27616,"lon":5.36118,"is_reserved":false,"is_disabled":false,"rental_uris":{"android":"levelo://app?vid=8cb883dc-c67f-47a7-a646-3d913afaa0a2","ios":"levelo://app?vid=8cb883dc-c67f-47a7-a646-3d913afaa0a2"},"vehicle_type_id":"4","last_reported":1747836641,"current_range_meters":10800,"station_id":"ce4bgj92rcd13ifvqbe0","pricing_plan_id":"cebpf4jnsgd1na2vs0mg"},{"bike_id":"324231ab-033b-40ae-97d2-7b70e0442b0c","system_id":"levelo_inurba_marseille","lat":43.312374,"lon":5.368746,"is_reserved":false,"is_disabled":false,"rental_uris":{"android":"levelo://app?vid=324231ab-033b-40ae-97d2-7b70e0442b0c","ios":"levelo://app?vid=324231ab-033b-40ae-97d2-7b70e0442b0c"},"vehicle_type_id":"4","last_reported":1747836641,"current_range_meters":10800,"station_id":"ce4bgl92rcd13ifvqbq0","pricing_plan_id":"cebpf4jnsgd1na2vs0mg"},{"bike_id":"fc12706c-0fe6-439f-8062-02bbdf7b00d9","system_id":"levelo_inurba_marseille","lat":43.28723,"lon":5.3795,"is_reserved":false,"is_disabled":false,"rental_uris":{"android":"levelo://app?vid=fc12706c-0fe6-439f-8062-02bbdf7b00d9","ios":"levelo://app?vid=fc12706c-0fe6-439f-8062-02bbdf7b00d9"},"vehicle_type_id":"4","last_reported":1747836641,"current_range_meters":10800,"station_id":"ce4bh9p2rcd13ifvqec0","pricing_plan_id":"cebpf4jnsgd1na2vs0mg"},{"bike_id":"1df42cc4-ca0d-46b2-9f71-092b4713b502","system_id":"levelo_inurba_marseille","lat":43.28984,"lon":5.35592,"is_reserved":false,"is_disabled":false,"rental_uris":{"android":"levelo://app?vid=1df42cc4-ca0d-46b2-9f71-092b4713b502","ios":"levelo://app?vid=1df42cc4-ca0d-46b2-9f71-092b4713b502"},"vehicle_type_id":"4","last_reported":1747836641,"current_range_meters":10800,"station_id":"ce4bhb92rcd13ifvqen0","pricing_plan_id":"cebpf4jnsgd1na2vs0mg"},{"bike_id":"7752cba4-3205-474a-82f7-119286c114ed","system_id":"levelo_inurba_marseille","lat":43.26556,"lon":5.37281,"is_reserved":false,"is_disabled":false,"rental_uris":{"android":"levelo://app?vid=7752cba4-3205-474a-82f7-119286c114ed","ios":"levelo://app?vid=7752cba4-3205-474a-82f7-119286c114ed"},"vehicle_type_id":"4","last_reported":1747836641,"current_range_meters":10800,"station_id":"ce4bhg12rcd13ifvqf70","pricing_plan_id":"cebpf4jnsgd1na2vs0mg"},{"bike_id":"8bb49edd-d007-4159-bcfa-af1ed613871d","system_id":"levelo_inurba_marseille","lat":43.26682,"lon":5.382627,"is_reserved":false,"is_disabled":false,"rental_uris":{"android":"levelo://app?vid=8bb49edd-d007-4159-bcfa-af1ed613871d","ios":"levelo://app?vid=8bb49edd-d007-4159-bcfa-af1ed613871d"},"vehicle_type_id":"4","last_reported":1747836641,"current_range_meters":10800,"station_id":"ce4bhg92rcd13ifvqf90","pricing_plan_id":"cebpf4jnsgd1na2vs0mg"},{"bike_id":"ce894f0d-b49e-456f-a494-0fb52c05d7a9","system_id":"levelo_inurba_marseille","lat":43.26064,"lon":5.39396,"is_reserved":false,"is_disabled":false,"rental_uris":{"android":"levelo://app?vid=ce894f0d-b49e-456f-a494-0fb52c05d7a9","ios":"levelo://app?vid=ce894f0d-b49e-456f-a494-0fb52c05d7a9"},"vehicle_type_id":"4","last_reported":1747836641,"current_range_meters":10800,"station_id":"ce4bhh92rcd13ifvqfj0","pricing_plan_id":"cebpf4jnsgd1na2vs0mg"},{"bike_id":"cf0185dc-4a06-4588-a272-2e75ffd31e70","system_id":"levelo_inurba_marseille","lat":43.25582,"lon":5.38239,"is_reserved":false,"is_disabled":false,"rental_uris":{"android":"levelo://app?vid=cf0185dc-4a06-4588-a272-2e75ffd31e70","ios":"levelo://app?vid=cf0185dc-4a06-4588-a272-2e75ffd31e70"},"vehicle_type_id":"4","last_reported":1747836641,"current_range_meters":10800,"station_id":"ce4bhih2rcd13ifvqfs0","pricing_plan_id":"cebpf4jnsgd1na2vs0mg"},{"bike_id":"c06c87aa-99e3-4b89-97dc-fd6edd7b18f0","system_id":"levelo_inurba_marseille","lat":43.321048,"lon":5.367725,"is_reserved":false,"is_disabled":false,"rental_uris":{"android":"levelo://app?vid=c06c87aa-99e3-4b89-97dc-fd6edd7b18f0","ios":"levelo://app?vid=c06c87aa-99e3-4b89-97dc-fd6edd7b18f0"},"vehicle_type_id":"4","last_reported":1747836641,"current_range_meters":10800,"station_id":"ce4bhrh2rcd13ifvqhug","pricing_plan_id":"cebpf4jnsgd1na2vs0mg"},{"bike_id":"eb180659-5830-487a-9b05-a4d2d288a3ec","system_id":"levelo_inurba_marseille","lat":43.27624,"lon":5.36119,"is_reserved":false,"is_disabled":false,"rental_uris":{"android":"levelo://app?vid=eb180659-5830-487a-9b05-a4d2d288a3ec","ios":"levelo://app?vid=eb180659-5830-487a-9b05-a4d2d288a3ec"},"vehicle_type_id":"4","last_reported":1747836641,"current_range_meters":11200,"station_id":"ce4bgj92rcd13ifvqbe0","pricing_plan_id":"cebpf4jnsgd1na2vs0mg"},{"bike_id":"19ada90d-5881-4029-ba0b-3d94fe7b25c5","system_id":"levelo_inurba_marseille","lat":43.26034,"lon":5.37542,"is_reserved":false,"is_disabled":false,"rental_uris":{"android":"levelo://app?vid=19ada90d-5881-4029-ba0b-3d94fe7b25c5","ios":"levelo://app?vid=19ada90d-5881-4029-ba0b-3d94fe7b25c5"},"vehicle_type_id":"4","last_reported":1747836641,"current_range_meters":11200,"station_id":"ce4bhgh2rcd13ifvqfa0","pricing_plan_id":"cebpf4jnsgd1na2vs0mg"},{"bike_id":"6912307a-b4d5-42d8-b865-d9e0e18ad5d5","system_id":"levelo_inurba_marseille","lat":43.24547,"lon":5.39523,"is_reserved":false,"is_disabled":false,"rental_uris":{"android":"levelo://app?vid=6912307a-b4d5-42d8-b865-d9e0e18ad5d5","ios":"levelo://app?vid=6912307a-b4d5-42d8-b865-d9e0e18ad5d5"},"vehicle_type_id":"4","last_reported":1747836641,"current_range_meters":11200,"station_id":"ce4bhlp2rcd13ifvqgjg","pricing_plan_id":"cebpf4jnsgd1na2vs0mg"},{"bike_id":"a67ce11f-df32-4782-ba76-6037bcbcbfc3","system_id":"levelo_inurba_marseille","lat":43.30881,"lon":5.39658,"is_reserved":false,"is_disabled":false,"rental_uris":{"android":"levelo://app?vid=a67ce11f-df32-4782-ba76-6037bcbcbfc3","ios":"levelo://app?vid=a67ce11f-df32-4782-ba76-6037bcbcbfc3"},"vehicle_type_id":"4","last_reported":1747836641,"current_range_meters":11600,"station_id":"ce4bh012rcd13ifvqcv0","pricing_plan_id":"cebpf4jnsgd1na2vs0mg"},{"bike_id":"80310c3d-02ad-4b30-9fc2-ab6a27e2f289","system_id":"levelo_inurba_marseille","lat":43.28849,"lon":5.35852,"is_reserved":false,"is_disabled":false,"rental_uris":{"android":"levelo://app?vid=80310c3d-02ad-4b30-9fc2-ab6a27e2f289","ios":"levelo://app?vid=80310c3d-02ad-4b30-9fc2-ab6a27e2f289"},"vehicle_type_id":"4","last_reported":1747836641,"current_range_meters":11600,"station_id":"ce4bhb12rcd13ifvqem0","pricing_plan_id":"cebpf4jnsgd1na2vs0mg"},{"bike_id":"061c9e95-5c99-477b-8463-637a4eca4ac2","system_id":"levelo_inurba_marseille","lat":43.279141,"lon":5.396026,"is_reserved":false,"is_disabled":false,"rental_uris":{"android":"levelo://app?vid=061c9e95-5c99-477b-8463-637a4eca4ac2","ios":"levelo://app?vid=061c9e95-5c99-477b-8463-637a4eca4ac2"},"vehicle_type_id":"4","last_reported":1747836641,"current_range_meters":11600,"station_id":"ce4bhf92rcd13ifvqf40","pricing_plan_id":"cebpf4jnsgd1na2vs0mg"},{"bike_id":"2f34c329-54fe-438b-a307-b47c6ac8481c","system_id":"levelo_inurba_marseille","lat":43.2991,"lon":5.43644,"is_reserved":false,"is_disabled":false,"rental_uris":{"android":"levelo://app?vid=2f34c329-54fe-438b-a307-b47c6ac8481c","ios":"levelo://app?vid=2f34c329-54fe-438b-a307-b47c6ac8481c"},"vehicle_type_id":"4","last_reported":1747836641,"current_range_meters":11600,"station_id":"ce4bhpp2rcd13ifvqhfg","pricing_plan_id":"cebpf4jnsgd1na2vs0mg"},{"bike_id":"120c77ac-e603-404f-94d2-094850d09f86","system_id":"levelo_inurba_marseille","lat":43.25946,"lon":5.40969,"is_reserved":false,"is_disabled":false,"rental_uris":{"android":"levelo://app?vid=120c77ac-e603-404f-94d2-094850d09f86","ios":"levelo://app?vid=120c77ac-e603-404f-94d2-094850d09f86"},"vehicle_type_id":"4","last_reported":1747836641,"current_range_meters":12000,"station_id":"","pricing_plan_id":"cebpf4jnsgd1na2vs0mg"},{"bike_id":"c90ee990-7fe9-477d-8d5b-5822750fd212","system_id":"levelo_inurba_marseille","lat":43.2952,"lon":5.37502,"is_reserved":false,"is_disabled":false,"rental_uris":{"android":"levelo://app?vid=c90ee990-7fe9-477d-8d5b-5822750fd212","ios":"levelo://app?vid=c90ee990-7fe9-477d-8d5b-5822750fd212"},"vehicle_type_id":"4","last_reported":1747836641,"current_range_meters":12000,"station_id":"ce4bgkp2rcd13ifvqbmg","pricing_plan_id":"cebpf4jnsgd1na2vs0mg"},{"bike_id":"4dd8d0be-62d3-431e-a34d-acdf6d508d27","system_id":"levelo_inurba_marseille","lat":43.308929,"lon":5.371797,"is_reserved":false,"is_disabled":false,"rental_uris":{"android":"levelo://app?vid=4dd8d0be-62d3-431e-a34d-acdf6d508d27","ios":"levelo://app?vid=4dd8d0be-62d3-431e-a34d-acdf6d508d27"},"vehicle_type_id":"4","last_reported":1747836641,"current_range_meters":12000,"station_id":"ce4bguh2rcd13ifvqckg","pricing_plan_id":"cebpf4jnsgd1na2vs0mg"},{"bike_id":"57d631dd-bc14-4662-b9c5-d0615aef7666","system_id":"levelo_inurba_marseille","lat":43.27377,"lon":5.36255,"is_reserved":false,"is_disabled":false,"rental_uris":{"android":"levelo://app?vid=57d631dd-bc14-4662-b9c5-d0615aef7666","ios":"levelo://app?vid=57d631dd-bc14-4662-b9c5-d0615aef7666"},"vehicle_type_id":"4","last_reported":1747836641,"current_range_meters":12000,"station_id":"ce4bhbh2rcd13ifvqeo0","pricing_plan_id":"cebpf4jnsgd1na2vs0mg"},{"bike_id":"42192e01-f367-4dc7-ac5e-2317e0319d89","system_id":"levelo_inurba_marseille","lat":43.25867,"lon":5.3992,"is_reserved":false,"is_disabled":false,"rental_uris":{"android":"levelo://app?vid=42192e01-f367-4dc7-ac5e-2317e0319d89","ios":"levelo://app?vid=42192e01-f367-4dc7-ac5e-2317e0319d89"},"vehicle_type_id":"4","last_reported":1747836641,"current_range_meters":12000,"station_id":"ce4bhl92rcd13ifvqghg","pricing_plan_id":"cebpf4jnsgd1na2vs0mg"},{"bike_id":"6adf85a4-0375-4d7e-8308-ee2b97679715","system_id":"levelo_inurba_marseille","lat":43.2926,"lon":5.3763,"is_reserved":false,"is_disabled":false,"rental_uris":{"android":"levelo://app?vid=6adf85a4-0375-4d7e-8308-ee2b97679715","ios":"levelo://app?vid=6adf85a4-0375-4d7e-8308-ee2b97679715"},"vehicle_type_id":"4","last_reported":1747836641,"current_range_meters":12400,"station_id":"ce4bgi12rcd13ifvqb80","pricing_plan_id":"cebpf4jnsgd1na2vs0mg"},{"bike_id":"11c669c1-43f8-46f1-8e08-ccd88ef5b59c","system_id":"levelo_inurba_marseille","lat":43.304275,"lon":5.397438,"is_reserved":false,"is_disabled":false,"rental_uris":{"android":"levelo://app?vid=11c669c1-43f8-46f1-8e08-ccd88ef5b59c","ios":"levelo://app?vid=11c669c1-43f8-46f1-8e08-ccd88ef5b59c"},"vehicle_type_id":"4","last_reported":1747836641,"current_range_meters":12400,"station_id":"ce4bh092rcd13ifvqd20","pricing_plan_id":"cebpf4jnsgd1na2vs0mg"},{"bike_id":"1d11cfbe-df75-471a-b1d1-e56095537749","system_id":"levelo_inurba_marseille","lat":43.291006,"lon":5.381411,"is_reserved":false,"is_disabled":false,"rental_uris":{"android":"levelo://app?vid=1d11cfbe-df75-471a-b1d1-e56095537749","ios":"levelo://app?vid=1d11cfbe-df75-471a-b1d1-e56095537749"},"vehicle_type_id":"4","last_reported":1747836641,"current_range_meters":12400,"station_id":"ce4bh512rcd13ifvqe2g","pricing_plan_id":"cebpf4jnsgd1na2vs0mg"},{"bike_id":"5cd5363e-a0eb-4f2d-995b-65947b212101","system_id":"levelo_inurba_marseille","lat":43.26501,"lon":5.39534,"is_reserved":false,"is_disabled":false,"rental_uris":{"android":"levelo://app?vid=5cd5363e-a0eb-4f2d-995b-65947b212101","ios":"levelo://app?vid=5cd5363e-a0eb-4f2d-995b-65947b212101"},"vehicle_type_id":"4","last_reported":1747836641,"current_range_meters":12400,"station_id":"ce4bhi12rcd13ifvqfq0","pricing_plan_id":"cebpf4jnsgd1na2vs0mg"},{"bike_id":"612036f7-f977-4249-99eb-de208512e03a","system_id":"levelo_inurba_marseille","lat":43.30144,"lon":5.37418,"is_reserved":false,"is_disabled":false,"rental_uris":{"android":"levelo://app?vid=612036f7-f977-4249-99eb-de208512e03a","ios":"levelo://app?vid=612036f7-f977-4249-99eb-de208512e03a"},"vehicle_type_id":"4","last_reported":1747836641,"current_range_meters":12800,"station_id":"ce4bgs92rcd13ifvqcc0","pricing_plan_id":"cebpf4jnsgd1na2vs0mg"},{"bike_id":"1f82e077-15f6-45b8-85fa-c04b6a0c1e65","system_id":"levelo_inurba_marseille","lat":43.30803,"lon":5.3816,"is_reserved":false,"is_disabled":false,"rental_uris":{"android":"levelo://app?vid=1f82e077-15f6-45b8-85fa-c04b6a0c1e65","ios":"levelo://app?vid=1f82e077-15f6-45b8-85fa-c04b6a0c1e65"},"vehicle_type_id":"4","last_reported":1747836641,"current_range_meters":12800,"station_id":"ce4bgt12rcd13ifvqce0","pricing_plan_id":"cebpf4jnsgd1na2vs0mg"},{"bike_id":"97db78b4-f6a0-4dd0-8e9d-50a2a7f941cd","system_id":"levelo_inurba_marseille","lat":43.28418,"lon":5.34998,"is_reserved":false,"is_disabled":false,"rental_uris":{"android":"levelo://app?vid=97db78b4-f6a0-4dd0-8e9d-50a2a7f941cd","ios":"levelo://app?vid=97db78b4-f6a0-4dd0-8e9d-50a2a7f941cd"},"vehicle_type_id":"4","last_reported":1747836641,"current_range_meters":12800,"station_id":"ce4bhbh2rcd13ifvqepg","pricing_plan_id":"cebpf4jnsgd1na2vs0mg"},{"bike_id":"a741c01a-23f9-49f1-802a-352532c3f18a","system_id":"levelo_inurba_marseille","lat":43.23972,"lon":5.36637,"is_reserved":false,"is_disabled":false,"rental_uris":{"android":"levelo://app?vid=a741c01a-23f9-49f1-802a-352532c3f18a","ios":"levelo://app?vid=a741c01a-23f9-49f1-802a-352532c3f18a"},"vehicle_type_id":"4","last_reported":1747836641,"current_range_meters":12800,"station_id":"ce4bhi12rcd13ifvqfp0","pricing_plan_id":"cebpf4jnsgd1na2vs0mg"},{"bike_id":"4e64b7c3-1785-450e-a54f-12bbea8f1756","system_id":"levelo_inurba_marseille","lat":43.26325,"lon":5.37418,"is_reserved":false,"is_disabled":false,"rental_uris":{"android":"levelo://app?vid=4e64b7c3-1785-450e-a54f-12bbea8f1756","ios":"levelo://app?vid=4e64b7c3-1785-450e-a54f-12bbea8f1756"},"vehicle_type_id":"4","last_reported":1747836641,"current_range_meters":13600,"station_id":"","pricing_plan_id":"cebpf4jnsgd1na2vs0mg"},{"bike_id":"c79aaa67-874e-4faa-8ee6-a5700673e428","system_id":"levelo_inurba_marseille","lat":43.30507,"lon":5.37357,"is_reserved":false,"is_disabled":false,"rental_uris":{"android":"levelo://app?vid=c79aaa67-874e-4faa-8ee6-a5700673e428","ios":"levelo://app?vid=c79aaa67-874e-4faa-8ee6-a5700673e428"},"vehicle_type_id":"4","last_reported":1747836641,"current_range_meters":13600,"station_id":"","pricing_plan_id":"cebpf4jnsgd1na2vs0mg"},{"bike_id":"fc2e61b8-8759-4e1d-9b92-10cbb5e53e71","system_id":"levelo_inurba_marseille","lat":43.31363,"lon":5.38493,"is_reserved":false,"is_disabled":false,"rental_uris":{"android":"levelo://app?vid=fc2e61b8-8759-4e1d-9b92-10cbb5e53e71","ios":"levelo://app?vid=fc2e61b8-8759-4e1d-9b92-10cbb5e53e71"},"vehicle_type_id":"4","last_reported":1747836641,"current_range_meters":13600,"station_id":"ce4bgt92rcd13ifvqcf0","pricing_plan_id":"cebpf4jnsgd1na2vs0mg"},{"bike_id":"70e07f6f-f170-46e4-9c2c-3780b57f5b89","system_id":"levelo_inurba_marseille","lat":43.30927,"lon":5.40151,"is_reserved":false,"is_disabled":false,"rental_uris":{"android":"levelo://app?vid=70e07f6f-f170-46e4-9c2c-3780b57f5b89","ios":"levelo://app?vid=70e07f6f-f170-46e4-9c2c-3780b57f5b89"},"vehicle_type_id":"4","last_reported":1747836641,"current_range_meters":13600,"station_id":"ce4bgvp2rcd13ifvqct0","pricing_plan_id":"cebpf4jnsgd1na2vs0mg"},{"bike_id":"3b627b8c-d2de-4c53-8eb7-8f591f312158","system_id":"levelo_inurba_marseille","lat":43.25007,"lon":5.38924,"is_reserved":false,"is_disabled":false,"rental_uris":{"android":"levelo://app?vid=3b627b8c-d2de-4c53-8eb7-8f591f312158","ios":"levelo://app?vid=3b627b8c-d2de-4c53-8eb7-8f591f312158"},"vehicle_type_id":"4","last_reported":1747836641,"current_range_meters":13600,"station_id":"ce4bhgp2rcd13ifvqfd0","pricing_plan_id":"cebpf4jnsgd1na2vs0mg"},{"bike_id":"e2cb30a3-06d3-4a8d-8bb5-0556ae31c6ff","system_id":"levelo_inurba_marseille","lat":43.24549,"lon":5.39542,"is_reserved":false,"is_disabled":false,"rental_uris":{"android":"levelo://app?vid=e2cb30a3-06d3-4a8d-8bb5-0556ae31c6ff","ios":"levelo://app?vid=e2cb30a3-06d3-4a8d-8bb5-0556ae31c6ff"},"vehicle_type_id":"4","last_reported":1747836641,"current_range_meters":13600,"station_id":"ce4bhlp2rcd13ifvqgjg","pricing_plan_id":"cebpf4jnsgd1na2vs0mg"},{"bike_id":"f9fb40c0-1fcd-48cb-8e26-3f2dc0fb2451","system_id":"levelo_inurba_marseille","lat":43.33751,"lon":5.37509,"is_reserved":false,"is_disabled":false,"rental_uris":{"android":"levelo://app?vid=f9fb40c0-1fcd-48cb-8e26-3f2dc0fb2451","ios":"levelo://app?vid=f9fb40c0-1fcd-48cb-8e26-3f2dc0fb2451"},"vehicle_type_id":"4","last_reported":1747836641,"current_range_meters":14000,"station_id":"","pricing_plan_id":"cebpf4jnsgd1na2vs0mg"},{"bike_id":"b4e6cd57-8938-471e-b142-e81ad49e4f5b","system_id":"levelo_inurba_marseille","lat":43.295375,"lon":5.394024,"is_reserved":false,"is_disabled":false,"rental_uris":{"android":"levelo://app?vid=b4e6cd57-8938-471e-b142-e81ad49e4f5b","ios":"levelo://app?vid=b4e6cd57-8938-471e-b142-e81ad49e4f5b"},"vehicle_type_id":"4","last_reported":1747836641,"current_range_meters":14000,"station_id":"ce4bgih2rcd13ifvqba0","pricing_plan_id":"cebpf4jnsgd1na2vs0mg"},{"bike_id":"075229ea-864e-4f22-b902-0c5c2d8953a8","system_id":"levelo_inurba_marseille","lat":43.31363,"lon":5.36721,"is_reserved":false,"is_disabled":false,"rental_uris":{"android":"levelo://app?vid=075229ea-864e-4f22-b902-0c5c2d8953a8","ios":"levelo://app?vid=075229ea-864e-4f22-b902-0c5c2d8953a8"},"vehicle_type_id":"4","last_reported":1747836641,"current_range_meters":14000,"station_id":"ce4bgr92rcd13ifvqc6g","pricing_plan_id":"cebpf4jnsgd1na2vs0mg"},{"bike_id":"8bcc7333-0dd1-4b52-887b-85245a2f2ad5","system_id":"levelo_inurba_marseille","lat":43.27376,"lon":5.3625,"is_reserved":false,"is_disabled":false,"rental_uris":{"android":"levelo://app?vid=8bcc7333-0dd1-4b52-887b-85245a2f2ad5","ios":"levelo://app?vid=8bcc7333-0dd1-4b52-887b-85245a2f2ad5"},"vehicle_type_id":"4","last_reported":1747836641,"current_range_meters":14000,"station_id":"ce4bhbh2rcd13ifvqeo0","pricing_plan_id":"cebpf4jnsgd1na2vs0mg"},{"bike_id":"bfb2d08c-5d55-4d7d-abb2-8a89502093ec","system_id":"levelo_inurba_marseille","lat":43.27054,"lon":5.40265,"is_reserved":false,"is_disabled":false,"rental_uris":{"android":"levelo://app?vid=bfb2d08c-5d55-4d7d-abb2-8a89502093ec","ios":"levelo://app?vid=bfb2d08c-5d55-4d7d-abb2-8a89502093ec"},"vehicle_type_id":"4","last_reported":1747836641,"current_range_meters":14000,"station_id":"ce4bhk92rcd13ifvqgc0","pricing_plan_id":"cebpf4jnsgd1na2vs0mg"},{"bike_id":"3c0300aa-3669-4f50-ae12-06c5f9beef96","system_id":"levelo_inurba_marseille","lat":43.25843,"lon":5.39933,"is_reserved":false,"is_disabled":false,"rental_uris":{"android":"levelo://app?vid=3c0300aa-3669-4f50-ae12-06c5f9beef96","ios":"levelo://app?vid=3c0300aa-3669-4f50-ae12-06c5f9beef96"},"vehicle_type_id":"4","last_reported":1747836641,"current_range_meters":14000,"station_id":"ce4bhl92rcd13ifvqghg","pricing_plan_id":"cebpf4jnsgd1na2vs0mg"},{"bike_id":"60fa0d7f-c32b-4a16-8511-a386e85e89f1","system_id":"levelo_inurba_marseille","lat":43.27809,"lon":5.4071,"is_reserved":false,"is_disabled":false,"rental_uris":{"android":"levelo://app?vid=60fa0d7f-c32b-4a16-8511-a386e85e89f1","ios":"levelo://app?vid=60fa0d7f-c32b-4a16-8511-a386e85e89f1"},"vehicle_type_id":"4","last_reported":1747836641,"current_range_meters":14000,"station_id":"ce4bhnh2rcd13ifvqgtg","pricing_plan_id":"cebpf4jnsgd1na2vs0mg"},{"bike_id":"f693b179-d4c4-4ee0-8a73-552a9c1888ff","system_id":"levelo_inurba_marseille","lat":43.268026,"lon":5.402628,"is_reserved":false,"is_disabled":false,"rental_uris":{"android":"levelo://app?vid=f693b179-d4c4-4ee0-8a73-552a9c1888ff","ios":"levelo://app?vid=f693b179-d4c4-4ee0-8a73-552a9c1888ff"},"vehicle_type_id":"4","last_reported":1747836641,"current_range_meters":14000,"station_id":"ce501612rcd8frsf0b60","pricing_plan_id":"cebpf4jnsgd1na2vs0mg"},{"bike_id":"e2f3b8b2-8d6e-404c-a522-8288897696b6","system_id":"levelo_inurba_marseille","lat":43.30535,"lon":5.36501,"is_reserved":false,"is_disabled":false,"rental_uris":{"android":"levelo://app?vid=e2f3b8b2-8d6e-404c-a522-8288897696b6","ios":"levelo://app?vid=e2f3b8b2-8d6e-404c-a522-8288897696b6"},"vehicle_type_id":"4","last_reported":1747836641,"current_range_meters":14400,"station_id":"","pricing_plan_id":"cebpf4jnsgd1na2vs0mg"},{"bike_id":"9e768466-7feb-4d72-8734-0c160fa865d7","system_id":"levelo_inurba_marseille","lat":43.30161,"lon":5.37449,"is_reserved":false,"is_disabled":false,"rental_uris":{"android":"levelo://app?vid=9e768466-7feb-4d72-8734-0c160fa865d7","ios":"levelo://app?vid=9e768466-7feb-4d72-8734-0c160fa865d7"},"vehicle_type_id":"4","last_reported":1747836641,"current_range_meters":14400,"station_id":"ce4bgs92rcd13ifvqcc0","pricing_plan_id":"cebpf4jnsgd1na2vs0mg"},{"bike_id":"c3fe7e5b-a9f6-4288-9d17-b6cb54cb5c16","system_id":"levelo_inurba_marseille","lat":43.24658,"lon":5.38173,"is_reserved":false,"is_disabled":false,"rental_uris":{"android":"levelo://app?vid=c3fe7e5b-a9f6-4288-9d17-b6cb54cb5c16","ios":"levelo://app?vid=c3fe7e5b-a9f6-4288-9d17-b6cb54cb5c16"},"vehicle_type_id":"4","last_reported":1747836641,"current_range_meters":14400,"station_id":"ce4bhih2rcd13ifvqfr0","pricing_plan_id":"cebpf4jnsgd1na2vs0mg"},{"bike_id":"20d46360-b017-40c9-8a0d-bb0351687016","system_id":"levelo_inurba_marseille","lat":43.25576,"lon":5.38231,"is_reserved":false,"is_disabled":false,"rental_uris":{"android":"levelo://app?vid=20d46360-b017-40c9-8a0d-bb0351687016","ios":"levelo://app?vid=20d46360-b017-40c9-8a0d-bb0351687016"},"vehicle_type_id":"4","last_reported":1747836641,"current_range_meters":14400,"station_id":"ce4bhih2rcd13ifvqfs0","pricing_plan_id":"cebpf4jnsgd1na2vs0mg"},{"bike_id":"2039c3d9-0420-454c-af7f-2ee70cc13f8e","system_id":"levelo_inurba_marseille","lat":43.24169,"lon":5.36391,"is_reserved":false,"is_disabled":false,"rental_uris":{"android":"levelo://app?vid=2039c3d9-0420-454c-af7f-2ee70cc13f8e","ios":"levelo://app?vid=2039c3d9-0420-454c-af7f-2ee70cc13f8e"},"vehicle_type_id":"4","last_reported":1747836641,"current_range_meters":14400,"station_id":"cpo36qri1sfpv3e86is0","pricing_plan_id":"cebpf4jnsgd1na2vs0mg"},{"bike_id":"fc2dfe38-efa8-4040-ba63-22f7139b05ad","system_id":"levelo_inurba_marseille","lat":43.29606,"lon":5.381,"is_reserved":false,"is_disabled":false,"rental_uris":{"android":"levelo://app?vid=fc2dfe38-efa8-4040-ba63-22f7139b05ad","ios":"levelo://app?vid=fc2dfe38-efa8-4040-ba63-22f7139b05ad"},"vehicle_type_id":"4","last_reported":1747836641,"current_range_meters":14800,"station_id":"ce4bgl12rcd13ifvqbo0","pricing_plan_id":"cebpf4jnsgd1na2vs0mg"},{"bike_id":"b97b3197-bbbb-417b-9979-6b777659ca10","system_id":"levelo_inurba_marseille","lat":43.30603,"lon":5.39347,"is_reserved":false,"is_disabled":false,"rental_uris":{"android":"levelo://app?vid=b97b3197-bbbb-417b-9979-6b777659ca10","ios":"levelo://app?vid=b97b3197-bbbb-417b-9979-6b777659ca10"},"vehicle_type_id":"4","last_reported":1747836641,"current_range_meters":14800,"station_id":"ce4bh0p2rcd13ifvqd80","pricing_plan_id":"cebpf4jnsgd1na2vs0mg"},{"bike_id":"3e6e5891-fa97-4b0b-b272-7dfe7cd1bc36","system_id":"levelo_inurba_marseille","lat":43.286376,"lon":5.350981,"is_reserved":false,"is_disabled":false,"rental_uris":{"android":"levelo://app?vid=3e6e5891-fa97-4b0b-b272-7dfe7cd1bc36","ios":"levelo://app?vid=3e6e5891-fa97-4b0b-b272-7dfe7cd1bc36"},"vehicle_type_id":"4","last_reported":1747836641,"current_range_meters":14800,"station_id":"ce4bhch2rcd13ifvqeug","pricing_plan_id":"cebpf4jnsgd1na2vs0mg"},{"bike_id":"dbd701ce-b74f-4507-88cf-7d2b64f801da","system_id":"levelo_inurba_marseille","lat":43.259285,"lon":5.408976,"is_reserved":false,"is_disabled":false,"rental_uris":{"android":"levelo://app?vid=dbd701ce-b74f-4507-88cf-7d2b64f801da","ios":"levelo://app?vid=dbd701ce-b74f-4507-88cf-7d2b64f801da"},"vehicle_type_id":"4","last_reported":1747836641,"current_range_meters":14800,"station_id":"ce4bhm92rcd13ifvqglg","pricing_plan_id":"cebpf4jnsgd1na2vs0mg"},{"bike_id":"05b86b0a-31ec-4559-8e6b-02b0c00e7cc2","system_id":"levelo_inurba_marseille","lat":43.31529,"lon":5.38048,"is_reserved":false,"is_disabled":false,"rental_uris":{"android":"levelo://app?vid=05b86b0a-31ec-4559-8e6b-02b0c00e7cc2","ios":"levelo://app?vid=05b86b0a-31ec-4559-8e6b-02b0c00e7cc2"},"vehicle_type_id":"4","last_reported":1747836641,"current_range_meters":14800,"station_id":"ce4bhsp2rcd13ifvqi50","pricing_plan_id":"cebpf4jnsgd1na2vs0mg"},{"bike_id":"a474af14-2bc6-4217-8307-70947939c252","system_id":"levelo_inurba_marseille","lat":43.28035,"lon":5.36927,"is_reserved":false,"is_disabled":false,"rental_uris":{"android":"levelo://app?vid=a474af14-2bc6-4217-8307-70947939c252","ios":"levelo://app?vid=a474af14-2bc6-4217-8307-70947939c252"},"vehicle_type_id":"4","last_reported":1747836641,"current_range_meters":15200,"station_id":"ce4bha12rcd13ifvqef0","pricing_plan_id":"cebpf4jnsgd1na2vs0mg"},{"bike_id":"b31a529d-2285-43f7-91a3-871694cce4eb","system_id":"levelo_inurba_marseille","lat":43.27377,"lon":5.3624,"is_reserved":false,"is_disabled":false,"rental_uris":{"android":"levelo://app?vid=b31a529d-2285-43f7-91a3-871694cce4eb","ios":"levelo://app?vid=b31a529d-2285-43f7-91a3-871694cce4eb"},"vehicle_type_id":"4","last_reported":1747836641,"current_range_meters":15200,"station_id":"ce4bhbh2rcd13ifvqeo0","pricing_plan_id":"cebpf4jnsgd1na2vs0mg"},{"bike_id":"a19667eb-d1f1-46d1-8257-280b5a2562cc","system_id":"levelo_inurba_marseille","lat":43.2737,"lon":5.36221,"is_reserved":false,"is_disabled":false,"rental_uris":{"android":"levelo://app?vid=a19667eb-d1f1-46d1-8257-280b5a2562cc","ios":"levelo://app?vid=a19667eb-d1f1-46d1-8257-280b5a2562cc"},"vehicle_type_id":"4","last_reported":1747836641,"current_range_meters":15200,"station_id":"ce4bhbh2rcd13ifvqeo0","pricing_plan_id":"cebpf4jnsgd1na2vs0mg"},{"bike_id":"a248ea68-28fa-445c-aa97-f8a74207bb2a","system_id":"levelo_inurba_marseille","lat":43.24391,"lon":5.37056,"is_reserved":false,"is_disabled":false,"rental_uris":{"android":"levelo://app?vid=a248ea68-28fa-445c-aa97-f8a74207bb2a","ios":"levelo://app?vid=a248ea68-28fa-445c-aa97-f8a74207bb2a"},"vehicle_type_id":"4","last_reported":1747836641,"current_range_meters":15200,"station_id":"ce4bhhh2rcd13ifvqfk0","pricing_plan_id":"cebpf4jnsgd1na2vs0mg"},{"bike_id":"1a091a66-2e68-4ded-9fc5-3d6f9e9f6f62","system_id":"levelo_inurba_marseille","lat":43.32093,"lon":5.36836,"is_reserved":false,"is_disabled":false,"rental_uris":{"android":"levelo://app?vid=1a091a66-2e68-4ded-9fc5-3d6f9e9f6f62","ios":"levelo://app?vid=1a091a66-2e68-4ded-9fc5-3d6f9e9f6f62"},"vehicle_type_id":"4","last_reported":1747836641,"current_range_meters":16000,"station_id":"","pricing_plan_id":"cebpf4jnsgd1na2vs0mg"},{"bike_id":"512f77c2-882a-42a0-8896-3fe8d3e5091e","system_id":"levelo_inurba_marseille","lat":43.29995,"lon":5.36353,"is_reserved":false,"is_disabled":false,"rental_uris":{"android":"levelo://app?vid=512f77c2-882a-42a0-8896-3fe8d3e5091e","ios":"levelo://app?vid=512f77c2-882a-42a0-8896-3fe8d3e5091e"},"vehicle_type_id":"4","last_reported":1747836641,"current_range_meters":16000,"station_id":"","pricing_plan_id":"cebpf4jnsgd1na2vs0mg"},{"bike_id":"1f567e8e-00e0-4b64-89de-f1d7dae955c2","system_id":"levelo_inurba_marseille","lat":43.30151,"lon":5.39887,"is_reserved":false,"is_disabled":false,"rental_uris":{"android":"levelo://app?vid=1f567e8e-00e0-4b64-89de-f1d7dae955c2","ios":"levelo://app?vid=1f567e8e-00e0-4b64-89de-f1d7dae955c2"},"vehicle_type_id":"4","last_reported":1747836641,"current_range_meters":16000,"station_id":"ce4bh0h2rcd13ifvqd40","pricing_plan_id":"cebpf4jnsgd1na2vs0mg"},{"bike_id":"d0f4c896-b3fd-42bf-9530-f1d7e5eb6b64","system_id":"levelo_inurba_marseille","lat":43.28419,"lon":5.34976,"is_reserved":false,"is_disabled":false,"rental_uris":{"android":"levelo://app?vid=d0f4c896-b3fd-42bf-9530-f1d7e5eb6b64","ios":"levelo://app?vid=d0f4c896-b3fd-42bf-9530-f1d7e5eb6b64"},"vehicle_type_id":"4","last_reported":1747836641,"current_range_meters":16000,"station_id":"ce4bhbh2rcd13ifvqepg","pricing_plan_id":"cebpf4jnsgd1na2vs0mg"},{"bike_id":"4acf0f29-8bf6-4926-b62f-78fced93ff1f","system_id":"levelo_inurba_marseille","lat":43.286248,"lon":5.351058,"is_reserved":false,"is_disabled":false,"rental_uris":{"android":"levelo://app?vid=4acf0f29-8bf6-4926-b62f-78fced93ff1f","ios":"levelo://app?vid=4acf0f29-8bf6-4926-b62f-78fced93ff1f"},"vehicle_type_id":"4","last_reported":1747836641,"current_range_meters":16000,"station_id":"ce4bhch2rcd13ifvqeug","pricing_plan_id":"cebpf4jnsgd1na2vs0mg"},{"bike_id":"d32f3042-a34d-4b47-a48a-9c3bd2223417","system_id":"levelo_inurba_marseille","lat":43.26557,"lon":5.37287,"is_reserved":false,"is_disabled":false,"rental_uris":{"android":"levelo://app?vid=d32f3042-a34d-4b47-a48a-9c3bd2223417","ios":"levelo://app?vid=d32f3042-a34d-4b47-a48a-9c3bd2223417"},"vehicle_type_id":"4","last_reported":1747836641,"current_range_meters":16000,"station_id":"ce4bhg12rcd13ifvqf70","pricing_plan_id":"cebpf4jnsgd1na2vs0mg"},{"bike_id":"32eb495b-9cf3-41fa-ba6c-72d729a7d0db","system_id":"levelo_inurba_marseille","lat":43.25498,"lon":5.37648,"is_reserved":false,"is_disabled":false,"rental_uris":{"android":"levelo://app?vid=32eb495b-9cf3-41fa-ba6c-72d729a7d0db","ios":"levelo://app?vid=32eb495b-9cf3-41fa-ba6c-72d729a7d0db"},"vehicle_type_id":"4","last_reported":1747836641,"current_range_meters":16000,"station_id":"ce4bhh12rcd13ifvqff0","pricing_plan_id":"cebpf4jnsgd1na2vs0mg"},