{"last_updated":1703239658,"ttl":30,"version":"2.2","data":{"bikes":[{"bike_id":"d9be9273-6818-4dba-90fd-67ea928effa5","system_id":"levelo_inurba_marseille","lat":43.31341,"lon":5.367098,"is_reserved":false,"is_disabled":false,"rental_uris":{"android":"levelo://app?vid=d9be9273-6818-4dba-90fd-67ea928effa5","ios":"levelo://app?vid=d9be9273-6818-4dba-90fd-67ea928effa5"},"vehicle_type_id":"4","last_reported":1703239658,"current_range_meters":28400,"station_id":"ce4bgr92rcd13ifvqc6g","pricing_plan_id":"free"},{"bike_id":"61ea5a5d-9237-4652-afe7-eef3dd69c4f1","system_id":"levelo_inurba_marseille","lat":43.31341,"lon":5.367098,"is_reserved":false,"is_disabled":false,"rental_uris":{"android":"levelo://app?vid=61ea5a5d-9237-4652-afe7-eef3dd69c4f1","ios":"levelo://app?vid=61ea5a5d-9237-4652-afe7-eef3dd69c4f1"},"vehicle_type_id":"4","last_reported":1703239658,"current_range_meters":29200,"station_id":"ce4bgr92rcd13ifvqc6g","pricing_plan_id":"free"},{"bike_id":"a24471a6-dea3-45ed-8119-1dfea2abaea5","system_id":"levelo_inurba_marseille","lat":43.313391,"lon":5.36706,"is_reserved":false,"is_disabled":false,"rental_uris":{"android":"levelo://app?vid=a24471a6-dea3-45ed-8119-1dfea2abaea5","ios":"levelo://app?vid=a24471a6-dea3-45ed-8119-1dfea2abaea5"},"vehicle_type_id":"4","last_reported":1703239658,"current_range_meters":30800,"station_id":"ce4bgr92rcd13ifvqc6g","pricing_plan_id":"free"},{"bike_id":"387e0b76-e3b2-4523-ad04-138ee00889c0","system_id":"levelo_inurba_marseille","lat":43.313391,"lon":5.36706,"is_reserved":false,"is_disabled":false,"rental_uris":{"android":"levelo://app?vid=387e0b76-e3b2-4523-ad04-138ee00889c0","ios":"levelo://app?vid=387e0b76-e3b2-4523-ad04-138ee00889c0"},"vehicle_type_id":"4","last_reported":1703239658,"current_range_meters":29200,"station_id":"ce4bgr92rcd13ifvqc6g","pricing_plan_id":"free"},{"bike_id":"fa5948ab-141d-43da-8a7b-070662ff9bc3","system_id":"levelo_inurba_marseille","lat":43.312239,"lon":5.368562,"is_reserved":false,"is_disabled":false,"rental_uris":{"android":"levelo://app?vid=fa5948ab-141d-43da-8a7b-070662ff9bc3","ios":"levelo://app?vid=fa5948ab-141d-43da-8a7b-070662ff9bc3"},"vehicle_type_id":"4","last_reported":1703239658,"current_range_meters":31200,"station_id":"ce4bgl92rcd13ifvqbq0","pricing_plan_id":"free"},{"bike_id":"fd5fbcb2-82c4-4fdc-b237-a39a5b465b82","system_id":"levelo_inurba_marseille","lat":43.312239,"lon":5.368562,"is_reserved":false,"is_disabled":false,"rental_uris":{"android":"levelo://app?vid=fd5fbcb2-82c4-4fdc-b237-a39a5b465b82","ios":"levelo://app?vid=fd5fbcb2-82c4-4fdc-b237-a39a5b465b82"},"vehicle_type_id":"4","last_reported":1703239658,"current_range_meters":28000,"station_id":"ce4bgl92rcd13ifvqbq0","pricing_plan_id":"free"},{"bike_id":"aa0789ac-8076-426c-ac5c-4a8a9e8240ed","system_id":"levelo_inurba_marseille","lat":43.312239,"lon":5.368562,"is_reserved":false,"is_disabled":false,"rental_uris":{"android":"levelo://app?vid=aa0789ac-8076-426c-ac5c-4a8a9e8240ed","ios":"levelo://app?vid=aa0789ac-8076-426c-ac5c-4a8a9e8240ed"},"vehicle_type_id":"4","last_reported":1703239658,"current_range_meters":14400,"station_id":"ce4bgl92rcd13ifvqbq0","pricing_plan_id":"free"},{"bike_id":"a6d8aaf5-05dd-43b4-9695-3814a2bffc02","system_id":"levelo_inurba_marseille","lat":43.309076,"lon":5.368465,"is_reserved":false,"is_disabled":false,"rental_uris":{"android":"levelo://app?vid=a6d8aaf5-05dd-43b4-9695-3814a2bffc02","ios":"levelo://app?vid=a6d8aaf5-05dd-43b4-9695-3814a2bffc02"},"vehicle_type_id":"4","last_reported":1703239658,"current_range_meters":20800,"station_id":"ce4bgn92rcd13ifvqbvg","pricing_plan_id":"free"},{"bike_id":"005b616b-e817-4c63-8e37-c457555addce","system_id":"levelo_inurba_marseille","lat":43.309076,"lon":5.368465,"is_reserved":false,"is_disabled":false,"rental_uris":{"android":"levelo://app?vid=005b616b-e817-4c63-8e37-c457555addce","ios":"levelo://app?vid=005b616b-e817-4c63-8e37-c457555addce"},"vehicle_type_id":"4","last_reported":1703239658,"current_range_meters":0,"station_id":"ce4bgn92rcd13ifvqbvg","pricing_plan_id":"free"},{"bike_id":"36bf2e2d-745f-4ee0-b732-aecb376261da","system_id":"levelo_inurba_marseille","lat":43.309076,"lon":5.368465,"is_reserved":false,"is_disabled":false,"rental_uris":{"android":"levelo://app?vid=36bf2e2d-745f-4ee0-b732-aecb376261da","ios":"levelo://app?vid=36bf2e2d-745f-4ee0-b732-aecb376261da"},"vehicle_type_id":"4","last_reported":1703239658,"current_range_meters":28800,"station_id":"ce4bgn92rcd13ifvqbvg","pricing_plan_id":"free"},{"bike_id":"7d00b4c3-c846-466c-93d4-52f6c8068ffa","system_id":"levelo_inurba_marseille","lat":43.309039,"lon":5.371797,"is_reserved":false,"is_disabled":false,"rental_uris":{"android":"levelo://app?vid=7d00b4c3-c846-466c-93d4-52f6c8068ffa","ios":"levelo://app?vid=7d00b4c3-c846-466c-93d4-52f6c8068ffa"},"vehicle_type_id":"4","last_reported":1703239658,"current_range_meters":26800,"station_id":"ce4bguh2rcd13ifvqckg","pricing_plan_id":"free"},{"bike_id":"a557f9ba-44ab-462a-9969-6e3ef0543c3f","system_id":"levelo_inurba_marseille","lat":43.305368,"lon":5.367343,"is_reserved":false,"is_disabled":false,"rental_uris":{"android":"levelo://app?vid=a557f9ba-44ab-462a-9969-6e3ef0543c3f","ios":"levelo://app?vid=a557f9ba-44ab-462a-9969-6e3ef0543c3f"},"vehicle_type_id":"4","last_reported":1703239658,"current_range_meters":22800,"station_id":"ce4bgrp2rcd13ifvqc9g","pricing_plan_id":"free"},{"bike_id":"a090a254-4282-4114-9bf4-68aa331f799f","system_id":"levelo_inurba_marseille","lat":43.305712,"lon":5.365641,"is_reserved":false,"is_disabled":false,"rental_uris":{"android":"levelo://app?vid=a090a254-4282-4114-9bf4-68aa331f799f","ios":"levelo://app?vid=a090a254-4282-4114-9bf4-68aa331f799f"},"vehicle_type_id":"4","last_reported":1703239658,"current_range_meters":17200,"station_id":"ce4bgs12rcd13ifvqcag","pricing_plan_id":"free"},{"bike_id":"ec910eeb-fc03-4a03-9fd1-55d811603d77","system_id":"levelo_inurba_marseille","lat":43.305434,"lon":5.365496,"is_reserved":false,"is_disabled":false,"rental_uris":{"android":"levelo://app?vid=ec910eeb-fc03-4a03-9fd1-55d811603d77","ios":"levelo://app?vid=ec910eeb-fc03-4a03-9fd1-55d811603d77"},"vehicle_type_id":"4","last_reported":1703239658,"current_range_meters":17600,"station_id":"ce4bgs12rcd13ifvqcag","pricing_plan_id":"free"},{"bike_id":"6bb7cf40-1a7e-45a3-a7cf-3df1c2fc94e1","system_id":"levelo_inurba_marseille","lat":43.305712,"lon":5.365641,"is_reserved":false,"is_disabled":false,"rental_uris":{"android":"levelo://app?vid=6bb7cf40-1a7e-45a3-a7cf-3df1c2fc94e1","ios":"levelo://app?vid=6bb7cf40-1a7e-45a3-a7cf-3df1c2fc94e1"},"vehicle_type_id":"4","last_reported":1703239658,"current_range_meters":18800,"station_id":"ce4bgs12rcd13ifvqcag","pricing_plan_id":"free"},{"bike_id":"ca053ecb-44c6-462b-a1de-8a4c06fdbfee","system_id":"levelo_inurba_marseille","lat":43.305706,"lon":5.365654,"is_reserved":false,"is_disabled":false,"rental_uris":{"android":"levelo://app?vid=ca053ecb-44c6-462b-a1de-8a4c06fdbfee","ios":"levelo://app?vid=ca053ecb-44c6-462b-a1de-8a4c06fdbfee"},"vehicle_type_id":"4","last_reported":1703239658,"current_range_meters":26400,"station_id":"ce4bgs12rcd13ifvqcag","pricing_plan_id":"free"},{"bike_id":"8f4d2307-67b1-417c-8509-bd6482bd1e10","system_id":"levelo_inurba_marseille","lat":43.305706,"lon":5.365654,"is_reserved":false,"is_disabled":false,"rental_uris":{"android":"levelo://app?vid=8f4d2307-67b1-417c-8509-bd6482bd1e10","ios":"levelo://app?vid=8f4d2307-67b1-417c-8509-bd6482bd1e10"},"vehicle_type_id":"4","last_reported":1703239658,"current_range_meters":18400,"station_id":"ce4bgs12rcd13ifvqcag","pricing_plan_id":"free"},{"bike_id":"401635c5-dff3-40a1-a84e-2a718388a25c","system_id":"levelo_inurba_marseille","lat":43.305706,"lon":5.365654,"is_reserved":false,"is_disabled":false,"rental_uris":{"android":"levelo://app?vid=401635c5-dff3-40a1-a84e-2a718388a25c","ios":"levelo://app?vid=401635c5-dff3-40a1-a84e-2a718388a25c"},"vehicle_type_id":"4","last_reported":1703239658,"current_range_meters":16000,"station_id":"ce4bgs12rcd13ifvqcag","pricing_plan_id":"free"},{"bike_id":"d494bddc-ef67-464b-a6ab-2b4b3b734b7b","system_id":"levelo_inurba_marseille","lat":43.305714,"lon":5.365633,"is_reserved":false,"is_disabled":false,"rental_uris":{"android":"levelo://app?vid=d494bddc-ef67-464b-a6ab-2b4b3b734b7b","ios":"levelo://app?vid=d494bddc-ef67-464b-a6ab-2b4b3b734b7b"},"vehicle_type_id":"4","last_reported":1703239658,"current_range_meters":15600,"station_id":"ce4bgs12rcd13ifvqcag","pricing_plan_id":"free"},{"bike_id":"a02172a4-306e-47e6-8fc2-3de1d8112193","system_id":"levelo_inurba_marseille","lat":43.305706,"lon":5.365654,"is_reserved":false,"is_disabled":false,"rental_uris":{"android":"levelo://app?vid=a02172a4-306e-47e6-8fc2-3de1d8112193","ios":"levelo://app?vid=a02172a4-306e-47e6-8fc2-3de1d8112193"},"vehicle_type_id":"4","last_reported":1703239658,"current_range_meters":2800,"station_id":"ce4bgs12rcd13ifvqcag","pricing_plan_id":"free"},{"bike_id":"24795ba9-15e6-400a-bb03-38187a2b0bfc","system_id":"levelo_inurba_marseille","lat":43.305706,"lon":5.365654,"is_reserved":false,"is_disabled":false,"rental_uris":{"android":"levelo://app?vid=24795ba9-15e6-400a-bb03-38187a2b0bfc","ios":"levelo://app?vid=24795ba9-15e6-400a-bb03-38187a2b0bfc"},"vehicle_type_id":"4","last_reported":1703239658,"current_range_meters":31200,"station_id":"ce4bgs12rcd13ifvqcag","pricing_plan_id":"free"},{"bike_id":"4500c9e6-63b9-4960-afe1-7c9bbc4309d5","system_id":"levelo_inurba_marseille","lat":43.305989,"lon":5.37225,"is_reserved":false,"is_disabled":false,"rental_uris":{"android":"levelo://app?vid=4500c9e6-63b9-4960-afe1-7c9bbc4309d5","ios":"levelo://app?vid=4500c9e6-63b9-4960-afe1-7c9bbc4309d5"},"vehicle_type_id":"4","last_reported":1703239658,"current_range_meters":29200,"station_id":"ce4bgqh2rcd13ifvqc4g","pricing_plan_id":"free"},{"bike_id":"bc92c420-c389-4343-8f3b-bf30be894a65","system_id":"levelo_inurba_marseille","lat":43.305989,"lon":5.37225,"is_reserved":false,"is_disabled":false,"rental_uris":{"android":"levelo://app?vid=bc92c420-c389-4343-8f3b-bf30be894a65","ios":"levelo://app?vid=bc92c420-c389-4343-8f3b-bf30be894a65"},"vehicle_type_id":"4","last_reported":1703239658,"current_range_meters":28000,"station_id":"ce4bgqh2rcd13ifvqc4g","pricing_plan_id":"free"},{"bike_id":"9c2b5c12-1e66-4ea4-a871-3fffc8a7df17","system_id":"levelo_inurba_marseille","lat":43.311141,"lon":5.37771,"is_reserved":false,"is_disabled":false,"rental_uris":{"android":"levelo://app?vid=9c2b5c12-1e66-4ea4-a871-3fffc8a7df17","ios":"levelo://app?vid=9c2b5c12-1e66-4ea4-a871-3fffc8a7df17"},"vehicle_type_id":"4","last_reported":1703239658,"current_range_meters":29600,"station_id":"ce4bgt92rcd13ifvqcg0","pricing_plan_id":"free"},{"bike_id":"62ac327a-9cb6-469c-a7b9-145ba51016e0","system_id":"levelo_inurba_marseille","lat":43.30304,"lon":5.368987,"is_reserved":false,"is_disabled":false,"rental_uris":{"android":"levelo://app?vid=62ac327a-9cb6-469c-a7b9-145ba51016e0","ios":"levelo://app?vid=62ac327a-9cb6-469c-a7b9-145ba51016e0"},"vehicle_type_id":"4","last_reported":1703239658,"current_range_meters":24800,"station_id":"ce4bgqh2rcd13ifvqc5g","pricing_plan_id":"free"},{"bike_id":"44bc54a9-b98d-4a5c-bb42-81c5a129c39a","system_id":"levelo_inurba_marseille","lat":43.303046,"lon":5.368981,"is_reserved":false,"is_disabled":false,"rental_uris":{"android":"levelo://app?vid=44bc54a9-b98d-4a5c-bb42-81c5a129c39a","ios":"levelo://app?vid=44bc54a9-b98d-4a5c-bb42-81c5a129c39a"},"vehicle_type_id":"4","last_reported":1703239658,"current_range_meters":7600,"station_id":"ce4bgqh2rcd13ifvqc5g","pricing_plan_id":"free"},{"bike_id":"f77994c5-9f0d-4ebb-9aea-03e04a6e3169","system_id":"levelo_inurba_marseille","lat":43.30304,"lon":5.368987,"is_reserved":false,"is_disabled":false,"rental_uris":{"android":"levelo://app?vid=f77994c5-9f0d-4ebb-9aea-03e04a6e3169","ios":"levelo://app?vid=f77994c5-9f0d-4ebb-9aea-03e04a6e3169"},"vehicle_type_id":"4","last_reported":1703239658,"current_range_meters":28400,"station_id":"ce4bgqh2rcd13ifvqc5g","pricing_plan_id":"free"},{"bike_id":"1fdb9880-f430-4f17-b3b6-53a1ee4ea0dd","system_id":"levelo_inurba_marseille","lat":43.303046,"lon":5.368981,"is_reserved":false,"is_disabled":false,"rental_uris":{"android":"levelo://app?vid=1fdb9880-f430-4f17-b3b6-53a1ee4ea0dd","ios":"levelo://app?vid=1fdb9880-f430-4f17-b3b6-53a1ee4ea0dd"},"vehicle_type_id":"4","last_reported":1703239658,"current_range_meters":27600,"station_id":"ce4bgqh2rcd13ifvqc5g","pricing_plan_id":"free"},{"bike_id":"9627b6ee-fe68-4ab9-8014-fc9611cab15a","system_id":"levelo_inurba_marseille","lat":43.31518,"lon":5.38034,"is_reserved":false,"is_disabled":false,"rental_uris":{"android":"levelo://app?vid=9627b6ee-fe68-4ab9-8014-fc9611cab15a","ios":"levelo://app?vid=9627b6ee-fe68-4ab9-8014-fc9611cab15a"},"vehicle_type_id":"4","last_reported":1703239658,"current_range_meters":22000,"station_id":"ce4bhsp2rcd13ifvqi50","pricing_plan_id":"free"},{"bike_id":"64f03684-aa32-4bd6-ac3e-304b9aec4804","system_id":"levelo_inurba_marseille","lat":43.301939,"lon":5.366286,"is_reserved":false,"is_disabled":false,"rental_uris":{"android":"levelo://app?vid=64f03684-aa32-4bd6-ac3e-304b9aec4804","ios":"levelo://app?vid=64f03684-aa32-4bd6-ac3e-304b9aec4804"},"vehicle_type_id":"4","last_reported":1703239658,"current_range_meters":6000,"station_id":"ce4bgrh2rcd13ifvqc8g","pricing_plan_id":"free"},{"bike_id":"a3456bb1-172a-4d2e-992b-89be4018978c","system_id":"levelo_inurba_marseille","lat":43.301939,"lon":5.366286,"is_reserved":false,"is_disabled":false,"rental_uris":{"android":"levelo://app?vid=a3456bb1-172a-4d2e-992b-89be4018978c","ios":"levelo://app?vid=a3456bb1-172a-4d2e-992b-89be4018978c"},"vehicle_type_id":"4","last_reported":1703239658,"current_range_meters":18400,"station_id":"ce4bgrh2rcd13ifvqc8g","pricing_plan_id":"free"},{"bike_id":"f1ce7921-8a88-457b-a533-b119dc0cf1f1","system_id":"levelo_inurba_marseille","lat":43.308012,"lon":5.381511,"is_reserved":false,"is_disabled":false,"rental_uris":{"android":"levelo://app?vid=f1ce7921-8a88-457b-a533-b119dc0cf1f1","ios":"levelo://app?vid=f1ce7921-8a88-457b-a533-b119dc0cf1f1"},"vehicle_type_id":"4","last_reported":1703239658,"current_range_meters":20400,"station_id":"ce4bgt12rcd13ifvqce0","pricing_plan_id":"free"},{"bike_id":"ea63f5ff-ed2a-4a1c-a64b-fef4232b63de","system_id":"levelo_inurba_marseille","lat":43.324771,"lon":5.36557,"is_reserved":false,"is_disabled":false,"rental_uris":{"android":"levelo://app?vid=ea63f5ff-ed2a-4a1c-a64b-fef4232b63de","ios":"levelo://app?vid=ea63f5ff-ed2a-4a1c-a64b-fef4232b63de"},"vehicle_type_id":"4","last_reported":1703239658,"current_range_meters":31200,"station_id":"ce4bhs12rcd13ifvqhvg","pricing_plan_id":"free"},{"bike_id":"5393f3a5-e6f3-407b-b0df-71b0efdebe10","system_id":"levelo_inurba_marseille","lat":43.302784,"lon":5.377158,"is_reserved":false,"is_disabled":false,"rental_uris":{"android":"levelo://app?vid=5393f3a5-e6f3-407b-b0df-71b0efdebe10","ios":"levelo://app?vid=5393f3a5-e6f3-407b-b0df-71b0efdebe10"},"vehicle_type_id":"4","last_reported":1703239658,"current_range_meters":25600,"station_id":"ce4bguh2rcd13ifvqcj0","pricing_plan_id":"free"},{"bike_id":"964e9e84-50ee-4e78-94c5-445bac6e6c57","system_id":"levelo_inurba_marseille","lat":43.301429,"lon":5.37413,"is_reserved":false,"is_disabled":false,"rental_uris":{"android":"levelo://app?vid=964e9e84-50ee-4e78-94c5-445bac6e6c57","ios":"levelo://app?vid=964e9e84-50ee-4e78-94c5-445bac6e6c57"},"vehicle_type_id":"4","last_reported":1703239658,"current_range_meters":25600,"station_id":"ce4bgs92rcd13ifvqcc0","pricing_plan_id":"free"},{"bike_id":"2dd3b479-3119-4e1e-b7a4-6c5ad66dd53c","system_id":"levelo_inurba_marseille","lat":43.301429,"lon":5.37413,"is_reserved":false,"is_disabled":false,"rental_uris":{"android":"levelo://app?vid=2dd3b479-3119-4e1e-b7a4-6c5ad66dd53c","ios":"levelo://app?vid=2dd3b479-3119-4e1e-b7a4-6c5ad66dd53c"},"vehicle_type_id":"4","last_reported":1703239658,"current_range_meters":31200,"station_id":"ce4bgs92rcd13ifvqcc0","pricing_plan_id":"free"},{"bike_id":"a77e0d5f-e0fa-46c2-8e74-448c47018ad4","system_id":"levelo_inurba_marseille","lat":43.301429,"lon":5.37413,"is_reserved":false,"is_disabled":false,"rental_uris":{"android":"levelo://app?vid=a77e0d5f-e0fa-46c2-8e74-448c47018ad4","ios":"levelo://app?vid=a77e0d5f-e0fa-46c2-8e74-448c47018ad4"},"vehicle_type_id":"4","last_reported":1703239658,"current_range_meters":28800,"station_id":"ce4bgs92rcd13ifvqcc0","pricing_plan_id":"free"},{"bike_id":"51360f23-00df-4b8c-b369-faeb35be788d","system_id":"levelo_inurba_marseille","lat":43.31998,"lon":5.38152,"is_reserved":false,"is_disabled":false,"rental_uris":{"android":"levelo://app?vid=51360f23-00df-4b8c-b369-faeb35be788d","ios":"levelo://app?vid=51360f23-00df-4b8c-b369-faeb35be788d"},"vehicle_type_id":"4","last_reported":1703239658,"current_range_meters":27200,"station_id":"ce4bhr12rcd13ifvqhpg","pricing_plan_id":"free"},{"bike_id":"0effb7f6-23e5-4f02-a1eb-80bdf14a191a","system_id":"levelo_inurba_marseille","lat":43.31998,"lon":5.38153,"is_reserved":false,"is_disabled":false,"rental_uris":{"android":"levelo://app?vid=0effb7f6-23e5-4f02-a1eb-80bdf14a191a","ios":"levelo://app?vid=0effb7f6-23e5-4f02-a1eb-80bdf14a191a"},"vehicle_type_id":"4","last_reported":1703239658,"current_range_meters":29600,"station_id":"ce4bhr12rcd13ifvqhpg","pricing_plan_id":"free"},{"bike_id":"dc0f6af5-c02c-4610-baea-e5c6ca16f530","system_id":"levelo_inurba_marseille","lat":43.32,"lon":5.381533,"is_reserved":false,"is_disabled":false,"rental_uris":{"android":"levelo://app?vid=dc0f6af5-c02c-4610-baea-e5c6ca16f530","ios":"levelo://app?vid=dc0f6af5-c02c-4610-baea-e5c6ca16f530"},"vehicle_type_id":"4","last_reported":1703239658,"current_range_meters":29600,"station_id":"ce4bhr12rcd13ifvqhpg","pricing_plan_id":"free"},{"bike_id":"af0ab532-e26f-41d4-b9ce-17ae08ae4cee","system_id":"levelo_inurba_marseille","lat":43.320005,"lon":5.381601,"is_reserved":false,"is_disabled":false,"rental_uris":{"android":"levelo://app?vid=af0ab532-e26f-41d4-b9ce-17ae08ae4cee","ios":"levelo://app?vid=af0ab532-e26f-41d4-b9ce-17ae08ae4cee"},"vehicle_type_id":"4","last_reported":1703239658,"current_range_meters":7200,"station_id":"ce4bhr12rcd13ifvqhpg","pricing_plan_id":"free"},{"bike_id":"ee46a1dc-bdbe-494c-9593-3f758d055290","system_id":"levelo_inurba_marseille","lat":43.313571,"lon":5.384829,"is_reserved":false,"is_disabled":false,"rental_uris":{"android":"levelo://app?vid=ee46a1dc-bdbe-494c-9593-3f758d055290","ios":"levelo://app?vid=ee46a1dc-bdbe-494c-9593-3f758d055290"},"vehicle_type_id":"4","last_reported":1703239658,"current_range_meters":4000,"station_id":"ce4bgt92rcd13ifvqcf0","pricing_plan_id":"free"},{"bike_id":"4414ffc8-1564-4297-a5fb-50dceb8116e2","system_id":"levelo_inurba_marseille","lat":43.299724,"lon":5.371829,"is_reserved":false,"is_disabled":false,"rental_uris":{"android":"levelo://app?vid=4414ffc8-1564-4297-a5fb-50dceb8116e2","ios":"levelo://app?vid=4414ffc8-1564-4297-a5fb-50dceb8116e2"},"vehicle_type_id":"4","last_reported":1703239658,"current_range_meters":27600,"station_id":"ce4bgr92rcd13ifvqc7g","pricing_plan_id":"free"},{"bike_id":"f49563f5-7575-4198-b85a-04728c35b251","system_id":"levelo_inurba_marseille","lat":43.299222,"lon":5.365554,"is_reserved":false,"is_disabled":false,"rental_uris":{"android":"levelo://app?vid=f49563f5-7575-4198-b85a-04728c35b251","ios":"levelo://app?vid=f49563f5-7575-4198-b85a-04728c35b251"},"vehicle_type_id":"4","last_reported":1703239658,"current_range_meters":800,"station_id":"ce4bgm92rcd13ifvqbr0","pricing_plan_id":"free"},{"bike_id":"7a3bbe3a-998e-44ae-87c6-dd227d3231d8","system_id":"levelo_inurba_marseille","lat":43.298433,"lon":5.362774,"is_reserved":false,"is_disabled":false,"rental_uris":{"android":"levelo://app?vid=7a3bbe3a-998e-44ae-87c6-dd227d3231d8","ios":"levelo://app?vid=7a3bbe3a-998e-44ae-87c6-dd227d3231d8"},"vehicle_type_id":"4","last_reported":1703239658,"current_range_meters":23600,"station_id":"ce4bgpp2rcd13ifvqc3g","pricing_plan_id":"free"},{"bike_id":"5b2af040-5332-4c1e-a9dc-794899885793","system_id":"levelo_inurba_marseille","lat":43.298433,"lon":5.362774,"is_reserved":false,"is_disabled":false,"rental_uris":{"android":"levelo://app?vid=5b2af040-5332-4c1e-a9dc-794899885793","ios":"levelo://app?vid=5b2af040-5332-4c1e-a9dc-794899885793"},"vehicle_type_id":"4","last_reported":1703239658,"current_range_meters":30000,"station_id":"ce4bgpp2rcd13ifvqc3g","pricing_plan_id":"free"},{"bike_id":"a4170d26-fe94-4121-a8e7-728173f260e9","system_id":"levelo_inurba_marseille","lat":43.298433,"lon":5.362774,"is_reserved":false,"is_disabled":false,"rental_uris":{"android":"levelo://app?vid=a4170d26-fe94-4121-a8e7-728173f260e9","ios":"levelo://app?vid=a4170d26-fe94-4121-a8e7-728173f260e9"},"vehicle_type_id":"4","last_reported":1703239658,"current_range_meters":29200,"station_id":"ce4bgpp2rcd13ifvqc3g","pricing_plan_id":"free"},{"bike_id":"03901e5d-f18d-43d8-ab1d-507c2c1e12a4","system_id":"levelo_inurba_marseille","lat":43.305364,"lon":5.384119,"is_reserved":false,"is_disabled":false,"rental_uris":{"android":"levelo://app?vid=03901e5d-f18d-43d8-ab1d-507c2c1e12a4","ios":"levelo://app?vid=03901e5d-f18d-43d8-ab1d-507c2c1e12a4"},"vehicle_type_id":"4","last_reported":1703239658,"current_range_meters":23200,"station_id":"ce4bgg92rcd13ifvqb30","pricing_plan_id":"free"},{"bike_id":"6baf5627-4f30-41c0-b24e-50b8cd6737f3","system_id":"levelo_inurba_marseille","lat":43.298433,"lon":5.362774,"is_reserved":false,"is_disabled":false,"rental_uris":{"android":"levelo://app?vid=6baf5627-4f30-41c0-b24e-50b8cd6737f3","ios":"levelo://app?vid=6baf5627-4f30-41c0-b24e-50b8cd6737f3"},"vehicle_type_id":"4","last_reported":1703239658,"current_range_meters":20400,"station_id":"ce4bgpp2rcd13ifvqc3g","pricing_plan_id":"free"},{"bike_id":"91d8fa6c-4c4e-4f20-bc59-d4d0dcce4e9b","system_id":"levelo_inurba_marseille","lat":43.31182,"lon":5.38714,"is_reserved":false,"is_disabled":false,"rental_uris":{"android":"levelo://app?vid=91d8fa6c-4c4e-4f20-bc59-d4d0dcce4e9b","ios":"levelo://app?vid=91d8fa6c-4c4e-4f20-bc59-d4d0dcce4e9b"},"vehicle_type_id":"4","last_reported":1703239658,"current_range_meters":27200,"station_id":"ce4bgv12rcd13ifvqcp0","pricing_plan_id":"free"},{"bike_id":"1e359fcf-7be8-4de6-ac96-bfbd93aed775","system_id":"levelo_inurba_marseille","lat":43.29913,"lon":5.3747,"is_reserved":false,"is_disabled":false,"rental_uris":{"android":"levelo://app?vid=1e359fcf-7be8-4de6-ac96-bfbd93aed775","ios":"levelo://app?vid=1e359fcf-7be8-4de6-ac96-bfbd93aed775"},"vehicle_type_id":"4","last_reported":1703239658,"current_range_meters":6000,"station_id":"ce4bgjh2rcd13ifvqbg0","pricing_plan_id":"free"},{"bike_id":"160cd746-5f2e-4ae4-8992-4209d99b45f1","system_id":"levelo_inurba_marseille","lat":43.299243,"lon":5.374807,"is_reserved":false,"is_disabled":false,"rental_uris":{"android":"levelo://app?vid=160cd746-5f2e-4ae4-8992-4209d99b45f1","ios":"levelo://app?vid=160cd746-5f2e-4ae4-8992-4209d99b45f1"},"vehicle_type_id":"4","last_reported":1703239658,"current_range_meters":27600,"station_id":"ce4bgjh2rcd13ifvqbg0","pricing_plan_id":"free"},{"bike_id":"e019a74a-3b6e-4696-ae3e-3617ba3d7ff7","system_id":"levelo_inurba_marseille","lat":43.296921,"lon":5.376579,"is_reserved":false,"is_disabled":false,"rental_uris":{"android":"levelo://app?vid=e019a74a-3b6e-4696-ae3e-3617ba3d7ff7","ios":"levelo://app?vid=e019a74a-3b6e-4696-ae3e-3617ba3d7ff7"},"vehicle_type_id":"4","last_reported":1703239658,"current_range_meters":6400,"station_id":"ce4bgkh2rcd13ifvqbl0","pricing_plan_id":"free"},{"bike_id":"2d0ccb8c-a8f7-4ee9-8463-316526ef0ad5","system_id":"levelo_inurba_marseille","lat":43.322872,"lon":5.382756,"is_reserved":false,"is_disabled":false,"rental_uris":{"android":"levelo://app?vid=2d0ccb8c-a8f7-4ee9-8463-316526ef0ad5","ios":"levelo://app?vid=2d0ccb8c-a8f7-4ee9-8463-316526ef0ad5"},"vehicle_type_id":"4","last_reported":1703239658,"current_range_meters":31600,"station_id":"ce4bhr12rcd13ifvqhqg","pricing_plan_id":"free"},{"bike_id":"451ed64f-5ae8-4224-bf7e-0649f8f2ca92","system_id":"levelo_inurba_marseille","lat":43.322872,"lon":5.382756,"is_reserved":false,"is_disabled":false,"rental_uris":{"android":"levelo://app?vid=451ed64f-5ae8-4224-bf7e-0649f8f2ca92","ios":"levelo://app?vid=451ed64f-5ae8-4224-bf7e-0649f8f2ca92"},"vehicle_type_id":"4","last_reported":1703239658,"current_range_meters":29200,"station_id":"ce4bhr12rcd13ifvqhqg","pricing_plan_id":"free"},{"bike_id":"0e18aacc-a0a4-43f4-b14e-a9e7be78440e","system_id":"levelo_inurba_marseille","lat":43.328371,"lon":5.366909,"is_reserved":false,"is_disabled":false,"rental_uris":{"android":"levelo://app?vid=0e18aacc-a0a4-43f4-b14e-a9e7be78440e","ios":"levelo://app?vid=0e18aacc-a0a4-43f4-b14e-a9e7be78440e"},"vehicle_type_id":"4","last_reported":1703239658,"current_range_meters":29200,"station_id":"ce4bhs92rcd13ifvqi0g","pricing_plan_id":"free"},{"bike_id":"525f6ec1-c089-48ad-8216-d8e073aa768d","system_id":"levelo_inurba_marseille","lat":43.328371,"lon":5.366909,"is_reserved":false,"is_disabled":false,"rental_uris":{"android":"levelo://app?vid=525f6ec1-c089-48ad-8216-d8e073aa768d","ios":"levelo://app?vid=525f6ec1-c089-48ad-8216-d8e073aa768d"},"vehicle_type_id":"4","last_reported":1703239658,"current_range_meters":8400,"station_id":"ce4bhs92rcd13ifvqi0g","pricing_plan_id":"free"},{"bike_id":"e299beb3-acc1-46fa-9fec-22d2fe5e6b13","system_id":"levelo_inurba_marseille","lat":43.328371,"lon":5.366909,"is_reserved":false,"is_disabled":false,"rental_uris":{"android":"levelo://app?vid=e299beb3-acc1-46fa-9fec-22d2fe5e6b13","ios":"levelo://app?vid=e299beb3-acc1-46fa-9fec-22d2fe5e6b13"},"vehicle_type_id":"4","last_reported":1703239658,"current_range_meters":18400,"station_id":"ce4bhs92rcd13ifvqi0g","pricing_plan_id":"free"},{"bike_id":"8bf0395d-c27d-407d-bf00-1fe14b7d1f01","system_id":"levelo_inurba_marseille","lat":43.328371,"lon":5.366909,"is_reserved":false,"is_disabled":false,"rental_uris":{"android":"levelo://app?vid=8bf0395d-c27d-407d-bf00-1fe14b7d1f01","ios":"levelo://app?vid=8bf0395d-c27d-407d-bf00-1fe14b7d1f01"},"vehicle_type_id":"4","last_reported":1703239658,"current_range_meters":6000,"station_id":"ce4bhs92rcd13ifvqi0g","pricing_plan_id":"free"},{"bike_id":"a2dcfe3b-9ec6-4dfd-8623-e573cdb65d23","system_id":"levelo_inurba_marseille","lat":43.297163,"lon":5.365866,"is_reserved":false,"is_disabled":false,"rental_uris":{"android":"levelo://app?vid=a2dcfe3b-9ec6-4dfd-8623-e573cdb65d23","ios":"levelo://app?vid=a2dcfe3b-9ec6-4dfd-8623-e573cdb65d23"},"vehicle_type_id":"4","last_reported":1703239658,"current_range_meters":20000,"station_id":"ce4bgn12rcd13ifvqbt0","pricing_plan_id":"free"},{"bike_id":"fd993600-015b-4a57-8e11-1499ff8a6b71","system_id":"levelo_inurba_marseille","lat":43.328371,"lon":5.366909,"is_reserved":false,"is_disabled":false,"rental_uris":{"android":"levelo://app?vid=fd993600-015b-4a57-8e11-1499ff8a6b71","ios":"levelo://app?vid=fd993600-015b-4a57-8e11-1499ff8a6b71"},"vehicle_type_id":"4","last_reported":1703239658,"current_range_meters":17200,"station_id":"ce4bhs92rcd13ifvqi0g","pricing_plan_id":"free"},{"bike_id":"d417101d-6729-42ff-9b87-7729e5716592","system_id":"levelo_inurba_marseille","lat":43.297163,"lon":5.365866,"is_reserved":false,"is_disabled":false,"rental_uris":{"android":"levelo://app?vid=d417101d-6729-42ff-9b87-7729e5716592","ios":"levelo://app?vid=d417101d-6729-42ff-9b87-7729e5716592"},"vehicle_type_id":"4","last_reported":1703239658,"current_range_meters":18800,"station_id":"ce4bgn12rcd13ifvqbt0","pricing_plan_id":"free"},{"bike_id":"11914dde-91de-4fdf-ab24-de472b689ba3","system_id":"levelo_inurba_marseille","lat":43.328371,"lon":5.366909,"is_reserved":false,"is_disabled":false,"rental_uris":{"android":"levelo://app?vid=11914dde-91de-4fdf-ab24-de472b689ba3","ios":"levelo://app?vid=11914dde-91de-4fdf-ab24-de472b689ba3"},"vehicle_type_id":"4","last_reported":1703239658,"current_range_meters":0,"station_id":"ce4bhs92rcd13ifvqi0g","pricing_plan_id":"free"},{"bike_id":"f1df16cd-78f3-4274-ac16-67f6886fccdc","system_id":"levelo_inurba_marseille","lat":43.297163,"lon":5.365866,"is_reserved":false,"is_disabled":false,"rental_uris":{"android":"levelo://app?vid=f1df16cd-78f3-4274-ac16-67f6886fccdc","ios":"levelo://app?vid=f1df16cd-78f3-4274-ac16-67f6886fccdc"},"vehicle_type_id":"4","last_reported":1703239658,"current_range_meters":7600,"station_id":"ce4bgn12rcd13ifvqbt0","pricing_plan_id":"free"},{"bike_id":"0c61e5bc-f901-4d08-bb9d-5ad9dd6497f2","system_id":"levelo_inurba_marseille","lat":43.297163,"lon":5.365866,"is_reserved":false,"is_disabled":false,"rental_uris":{"android":"levelo://app?vid=0c61e5bc-f901-4d08-bb9d-5ad9dd6497f2","ios":"levelo://app?vid=0c61e5bc-f901-4d08-bb9d-5ad9dd6497f2"},"vehicle_type_id":"4","last_reported":1703239658,"current_range_meters":14400,"station_id":"ce4bgn12rcd13ifvqbt0","pricing_plan_id":"free"},{"bike_id":"a168877e-a7d0-431a-87ce-ca1756882521","system_id":"levelo_inurba_marseille","lat":43.2968,"lon":5.37291,"is_reserved":false,"is_disabled":false,"rental_uris":{"android":"levelo://app?vid=a168877e-a7d0-431a-87ce-ca1756882521","ios":"levelo://app?vid=a168877e-a7d0-431a-87ce-ca1756882521"},"vehicle_type_id":"4","last_reported":1703239658,"current_range_meters":30000,"station_id":"ce4bgk12rcd13ifvqbj0","pricing_plan_id":"free"},{"bike_id":"117fb11a-4928-41fe-91e1-e322676c8bba","system_id":"levelo_inurba_marseille","lat":43.29573,"lon":5.367355,"is_reserved":false,"is_disabled":false,"rental_uris":{"android":"levelo://app?vid=117fb11a-4928-41fe-91e1-e322676c8bba","ios":"levelo://app?vid=117fb11a-4928-41fe-91e1-e322676c8bba"},"vehicle_type_id":"4","last_reported":1703239658,"current_range_meters":27200,"station_id":"ce4bgph2rcd13ifvqc2g","pricing_plan_id":"free"},{"bike_id":"14733658-01bd-46b1-8338-cd76464dddfc","system_id":"levelo_inurba_marseille","lat":43.29573,"lon":5.367355,"is_reserved":false,"is_disabled":false,"rental_uris":{"android":"levelo://app?vid=14733658-01bd-46b1-8338-cd76464dddfc","ios":"levelo://app?vid=14733658-01bd-46b1-8338-cd76464dddfc"},"vehicle_type_id":"4","last_reported":1703239658,"current_range_meters":20400,"station_id":"ce4bgph2rcd13ifvqc2g","pricing_plan_id":"free"},{"bike_id":"3dc9463e-3ad6-422c-9bbe-ec29ab285bb1","system_id":"levelo_inurba_marseille","lat":43.305364,"lon":5.384119,"is_reserved":false,"is_disabled":false,"rental_uris":{"android":"levelo://app?vid=3dc9463e-3ad6-422c-9bbe-ec29ab285bb1","ios":"levelo://app?vid=3dc9463e-3ad6-422c-9bbe-ec29ab285bb1"},"vehicle_type_id":"4","last_reported":1703239658,"current_range_meters":23200,"station_id":"ce4bgg92rcd13ifvqb30","pricing_plan_id":"free"},{"bike_id":"b4d4fddf-56df-423b-aef1-78af0fe7f6dc","system_id":"levelo_inurba_marseille","lat":43.296921,"lon":5.376579,"is_reserved":false,"is_disabled":false,"rental_uris":{"android":"levelo://app?vid=b4d4fddf-56df-423b-aef1-78af0fe7f6dc","ios":"levelo://app?vid=b4d4fddf-56df-423b-aef1-78af0fe7f6dc"},"vehicle_type_id":"4","last_reported":1703239658,"current_range_meters":18800,"station_id":"ce4bgkh2rcd13ifvqbl0","pricing_plan_id":"free"},{"bike_id":"e3a6cc93-a900-4a80-a03c-413bcf2dfa00","system_id":"levelo_inurba_marseille","lat":43.309589,"lon":5.390258,"is_reserved":false,"is_disabled":false,"rental_uris":{"android":"levelo://app?vid=e3a6cc93-a900-4a80-a03c-413bcf2dfa00","ios":"levelo://app?vid=e3a6cc93-a900-4a80-a03c-413bcf2dfa00"},"vehicle_type_id":"4","last_reported":1703239658,"current_range_meters":7600,"station_id":"ce4bgup2rcd13ifvqco0","pricing_plan_id":"free"},{"bike_id":"3a1f228d-06ce-4355-b331-b83130b7013a","system_id":"levelo_inurba_marseille","lat":43.317557,"lon":5.390173,"is_reserved":false,"is_disabled":false,"rental_uris":{"android":"levelo://app?vid=3a1f228d-06ce-4355-b331-b83130b7013a","ios":"levelo://app?vid=3a1f228d-06ce-4355-b331-b83130b7013a"},"vehicle_type_id":"4","last_reported":1703239658,"current_range_meters":10800,"station_id":"ce4bhqp2rcd13ifvqhng","pricing_plan_id":"free"},{"bike_id":"7eada8fb-8c59-41ea-ae15-1164bd9fc1af","system_id":"levelo_inurba_marseille","lat":43.317557,"lon":5.390173,"is_reserved":false,"is_disabled":false,"rental_uris":{"android":"levelo://app?vid=7eada8fb-8c59-41ea-ae15-1164bd9fc1af","ios":"levelo://app?vid=7eada8fb-8c59-41ea-ae15-1164bd9fc1af"},"vehicle_type_id":"4","last_reported":1703239658,"current_range_meters":28800,"station_id":"ce4bhqp2rcd13ifvqhng","pricing_plan_id":"free"},{"bike_id":"53d02047-2fc2-4d30-88b2-583fd58923ab","system_id":"levelo_inurba_marseille","lat":43.317557,"lon":5.390173,"is_reserved":false,"is_disabled":false,"rental_uris":{"android":"levelo://app?vid=53d02047-2fc2-4d30-88b2-583fd58923ab","ios":"levelo://app?vid=53d02047-2fc2-4d30-88b2-583fd58923ab"},"vehicle_type_id":"4","last_reported":1703239658,"current_range_meters":30400,"station_id":"ce4bhqp2rcd13ifvqhng","pricing_plan_id":"free"},{"bike_id":"5dbbe0d3-2073-49ed-bd51-3a7dae0435c3","system_id":"levelo_inurba_marseille","lat":43.298037,"lon":5.381066,"is_reserved":false,"is_disabled":false,"rental_uris":{"android":"levelo://app?vid=5dbbe0d3-2073-49ed-bd51-3a7dae0435c3","ios":"levelo://app?vid=5dbbe0d3-2073-49ed-bd51-3a7dae0435c3"},"vehicle_type_id":"4","last_reported":1703239658,"current_range_meters":10000,"station_id":"ce4bgip2rcd13ifvqbb0","pricing_plan_id":"free"},{"bike_id":"872da237-1341-468d-8aae-cc9af22b8099","system_id":"levelo_inurba_marseille","lat":43.295748,"lon":5.37522,"is_reserved":false,"is_disabled":false,"rental_uris":{"android":"levelo://app?vid=872da237-1341-468d-8aae-cc9af22b8099","ios":"levelo://app?vid=872da237-1341-468d-8aae-cc9af22b8099"},"vehicle_type_id":"4","last_reported":1703239658,"current_range_meters":22800,"station_id":"ce4bgh92rcd13ifvqb50","pricing_plan_id":"free"},{"bike_id":"c6a2fc86-ff42-42d5-90bd-de950cb89509","system_id":"levelo_inurba_marseille","lat":43.295748,"lon":5.37522,"is_reserved":false,"is_disabled":false,"rental_uris":{"android":"levelo://app?vid=c6a2fc86-ff42-42d5-90bd-de950cb89509","ios":"levelo://app?vid=c6a2fc86-ff42-42d5-90bd-de950cb89509"},"vehicle_type_id":"4","last_reported":1703239658,"current_range_meters":29600,"station_id":"ce4bgh92rcd13ifvqb50","pricing_plan_id":"free"},{"bike_id":"cfdcb32e-e3b8-4973-8982-2cba6ee39cd1","system_id":"levelo_inurba_marseille","lat":43.298037,"lon":5.381066,"is_reserved":false,"is_disabled":false,"rental_uris":{"android":"levelo://app?vid=cfdcb32e-e3b8-4973-8982-2cba6ee39cd1","ios":"levelo://app?vid=cfdcb32e-e3b8-4973-8982-2cba6ee39cd1"},"vehicle_type_id":"4","last_reported":1703239658,"current_range_meters":12000,"station_id":"ce4bgip2rcd13ifvqbb0","pricing_plan_id":"free"},{"bike_id":"a87b524f-fbaf-428c-a651-8aec22990b51","system_id":"levelo_inurba_marseille","lat":43.298037,"lon":5.381066,"is_reserved":false,"is_disabled":false,"rental_uris":{"android":"levelo://app?vid=a87b524f-fbaf-428c-a651-8aec22990b51","ios":"levelo://app?vid=a87b524f-fbaf-428c-a651-8aec22990b51"},"vehicle_type_id":"4","last_reported":1703239658,"current_range_meters":0,"station_id":"ce4bgip2rcd13ifvqbb0","pricing_plan_id":"free"},{"bike_id":"921f5be5-469c-4d99-9f85-0673378c5859","system_id":"levelo_inurba_marseille","lat":43.295748,"lon":5.37522,"is_reserved":false,"is_disabled":false,"rental_uris":{"android":"levelo://app?vid=921f5be5-469c-4d99-9f85-0673378c5859","ios":"levelo://app?vid=921f5be5-469c-4d99-9f85-0673378c5859"},"vehicle_type_id":"4","last_reported":1703239658,"current_range_meters":6000,"station_id":"ce4bgh92rcd13ifvqb50","pricing_plan_id":"free"},{"bike_id":"c01385ee-d00a-4c96-acb0-e598efdd5223","system_id":"levelo_inurba_marseille","lat":43.295748,"lon":5.37522,"is_reserved":false,"is_disabled":false,"rental_uris":{"android":"levelo://app?vid=c01385ee-d00a-4c96-acb0-e598efdd5223","ios":"levelo://app?vid=c01385ee-d00a-4c96-acb0-e598efdd5223"},"vehicle_type_id":"4","last_reported":1703239658,"current_range_meters":28400,"station_id":"ce4bgh92rcd13ifvqb50","pricing_plan_id":"free"},{"bike_id":"7eddd4ef-4412-4d08-b904-aadde9d34113","system_id":"levelo_inurba_marseille","lat":43.295748,"lon":5.37522,"is_reserved":false,"is_disabled":false,"rental_uris":{"android":"levelo://app?vid=7eddd4ef-4412-4d08-b904-aadde9d34113","ios":"levelo://app?vid=7eddd4ef-4412-4d08-b904-aadde9d34113"},"vehicle_type_id":"4","last_reported":1703239658,"current_range_meters":28400,"station_id":"ce4bgh92rcd13ifvqb50","pricing_plan_id":"free"},{"bike_id":"ce67ecff-b25e-4ada-9cf2-68349bca3c79","system_id":"levelo_inurba_marseille","lat":43.295748,"lon":5.37522,"is_reserved":false,"is_disabled":false,"rental_uris":{"android":"levelo://app?vid=ce67ecff-b25e-4ada-9cf2-68349bca3c79","ios":"levelo://app?vid=ce67ecff-b25e-4ada-9cf2-68349bca3c79"},"vehicle_type_id":"4","last_reported":1703239658,"current_range_meters":14400,"station_id":"ce4bgh92rcd13ifvqb50","pricing_plan_id":"free"},{"bike_id":"109d1849-4553-4db0-b102-c87c66ebc8a0","system_id":"levelo_inurba_marseille","lat":43.295748,"lon":5.37522,"is_reserved":false,"is_disabled":false,"rental_uris":{"android":"levelo://app?vid=109d1849-4553-4db0-b102-c87c66ebc8a0","ios":"levelo://app?vid=109d1849-4553-4db0-b102-c87c66ebc8a0"},"vehicle_type_id":"4","last_reported":1703239658,"current_range_meters":8800,"station_id":"ce4bgh92rcd13ifvqb50","pricing_plan_id":"free"},{"bike_id":"1f5c3596-63ae-4c95-b4f7-32fe00963874","system_id":"levelo_inurba_marseille","lat":43.304274,"lon":5.388873,"is_reserved":false,"is_disabled":false,"rental_uris":{"android":"levelo://app?vid=1f5c3596-63ae-4c95-b4f7-32fe00963874","ios":"levelo://app?vid=1f5c3596-63ae-4c95-b4f7-32fe00963874"},"vehicle_type_id":"4","last_reported":1703239658,"current_range_meters":19200,"station_id":"ce4bgk12rcd13ifvqbi0","pricing_plan_id":"free"},{"bike_id":"2828041d-2f5f-4d72-b91a-aeda0ea3a794","system_id":"levelo_inurba_marseille","lat":43.304278,"lon":5.388868,"is_reserved":false,"is_disabled":false,"rental_uris":{"android":"levelo://app?vid=2828041d-2f5f-4d72-b91a-aeda0ea3a794","ios":"levelo://app?vid=2828041d-2f5f-4d72-b91a-aeda0ea3a794"},"vehicle_type_id":"4","last_reported":1703239658,"current_range_meters":20800,"station_id":"ce4bgk12rcd13ifvqbi0","pricing_plan_id":"free"},{"bike_id":"0d5e816c-31d4-441c-98a4-07de4bc15f97","system_id":"levelo_inurba_marseille","lat":43.29624,"lon":5.37721,"is_reserved":false,"is_disabled":false,"rental_uris":{"android":"levelo://app?vid=0d5e816c-31d4-441c-98a4-07de4bc15f97","ios":"levelo://app?vid=0d5e816c-31d4-441c-98a4-07de4bc15f97"},"vehicle_type_id":"4","last_reported":1703239658,"current_range_meters":19200,"station_id":"ce4bgi92rcd13ifvqb90","pricing_plan_id":"free"},{"bike_id":"9a0b51af-d451-4427-a8ed-7d038205966d","system_id":"levelo_inurba_marseille","lat":43.296277,"lon":5.377108,"is_reserved":false,"is_disabled":false,"rental_uris":{"android":"levelo://app?vid=9a0b51af-d451-4427-a8ed-7d038205966d","ios":"levelo://app?vid=9a0b51af-d451-4427-a8ed-7d038205966d"},"vehicle_type_id":"4","last_reported":1703239658,"current_range_meters":31200,"station_id":"ce4bgi92rcd13ifvqb90","pricing_plan_id":"free"},{"bike_id":"54356278-0370-4a50-98f3-9c54c29400af","system_id":"levelo_inurba_marseille","lat":43.296263,"lon":5.377094,"is_reserved":false,"is_disabled":false,"rental_uris":{"android":"levelo://app?vid=54356278-0370-4a50-98f3-9c54c29400af","ios":"levelo://app?vid=54356278-0370-4a50-98f3-9c54c29400af"},"vehicle_type_id":"4","last_reported":1703239658,"current_range_meters":31200,"station_id":"ce4bgi92rcd13ifvqb90","pricing_plan_id":"free"},{"bike_id":"00273f06-ee05-4672-aa82-6df6944f519e","system_id":"levelo_inurba_marseille","lat":43.29612,"lon":5.37739,"is_reserved":false,"is_disabled":false,"rental_uris":{"android":"levelo://app?vid=00273f06-ee05-4672-aa82-6df6944f519e","ios":"levelo://app?vid=00273f06-ee05-4672-aa82-6df6944f519e"},"vehicle_type_id":"4","last_reported":1703239658,"current_range_meters":19200,"station_id":"ce4bgi92rcd13ifvqb90","pricing_plan_id":"free"},{"bike_id":"1378810b-812d-44e5-847a-1b7aeb90e4c4","system_id":"levelo_inurba_marseille","lat":43.299,"lon":5.38357,"is_reserved":false,"is_disabled":false,"rental_uris":{"android":"levelo://app?vid=1378810b-812d-44e5-847a-1b7aeb90e4c4","ios":"levelo://app?vid=1378810b-812d-44e5-847a-1b7aeb90e4c4"},"vehicle_type_id":"4","last_reported":1703239658,"current_range_meters":6400,"station_id":"","pricing_plan_id":"free"},{"bike_id":"7919eadd-c520-4cda-9196-5dc5695e55f6","system_id":"levelo_inurba_marseille","lat":43.298447,"lon":5.382693,"is_reserved":false,"is_disabled":false,"rental_uris":{"android":"levelo://app?vid=7919eadd-c520-4cda-9196-5dc5695e55f6","ios":"levelo://app?vid=7919eadd-c520-4cda-9196-5dc5695e55f6"},"vehicle_type_id":"4","last_reported":1703239658,"current_range_meters":6400,"station_id":"","pricing_plan_id":"free"},{"bike_id":"9f4d9fc6-3809-4ec7-a9b1-9283c02a41e8","system_id":"levelo_inurba_marseille","lat":43.295279,"lon":5.375048,"is_reserved":false,"is_disabled":false,"rental_uris":{"android":"levelo://app?vid=9f4d9fc6-3809-4ec7-a9b1-9283c02a41e8","ios":"levelo://app?vid=9f4d9fc6-3809-4ec7-a9b1-9283c02a41e8"},"vehicle_type_id":"4","last_reported":1703239658,"current_range_meters":17200,"station_id":"ce4bgkp2rcd13ifvqbmg","pricing_plan_id":"free"},{"bike_id":"4ec7f9ee-3059-4281-9f08-dc41f2a9f5d0","system_id":"levelo_inurba_marseille","lat":43.32367,"lon":5.388836,"is_reserved":false,"is_disabled":false,"rental_uris":{"android":"levelo://app?vid=4ec7f9ee-3059-4281-9f08-dc41f2a9f5d0","ios":"levelo://app?vid=4ec7f9ee-3059-4281-9f08-dc41f2a9f5d0"},"vehicle_type_id":"4","last_reported":1703239658,"current_range_meters":6800,"station_id":"ce4bhqp2rcd13ifvqhog","pricing_plan_id":"free"},{"bike_id":"7825f2e2-5dc0-48bf-9610-bf0be308ff43","system_id":"levelo_inurba_marseille","lat":43.32367,"lon":5.388836,"is_reserved":false,"is_disabled":false,"rental_uris":{"android":"levelo://app?vid=7825f2e2-5dc0-48bf-9610-bf0be308ff43","ios":"levelo://app?vid=7825f2e2-5dc0-48bf-9610-bf0be308ff43"},"vehicle_type_id":"4","last_reported":1703239658,"current_range_meters":0,"station_id":"ce4bhqp2rcd13ifvqhog","pricing_plan_id":"free"},{"bike_id":"c63e5769-18da-4431-86a0-1325e0ee1435","system_id":"levelo_inurba_marseille","lat":43.32367,"lon":5.388836,"is_reserved":false,"is_disabled":false,"rental_uris":{"android":"levelo://app?vid=c63e5769-18da-4431-86a0-1325e0ee1435","ios":"levelo://app?vid=c63e5769-18da-4431-86a0-1325e0ee1435"},"vehicle_type_id":"4","last_reported":1703239658,"current_range_meters":26400,"station_id":"ce4bhqp2rcd13ifvqhog","pricing_plan_id":"free"},{"bike_id":"78888d1d-13c8-4716-b6b9-c7e50ee13097","system_id":"levelo_inurba_marseille","lat":43.29602,"lon":5.381084,"is_reserved":false,"is_disabled":false,"rental_uris":{"android":"levelo://app?vid=78888d1d-13c8-4716-b6b9-c7e50ee13097","ios":"levelo://app?vid=78888d1d-13c8-4716-b6b9-c7e50ee13097"},"vehicle_type_id":"4","last_reported":1703239658,"current_range_meters":26400,"station_id":"ce4bgl12rcd13ifvqbo0","pricing_plan_id":"free"},{"bike_id":"88b12621-4dbf-465f-a1ae-0f899972429e","system_id":"levelo_inurba_marseille","lat":43.2936,"lon":5.37835,"is_reserved":false,"is_disabled":false,"rental_uris":{"android":"levelo://app?vid=88b12621-4dbf-465f-a1ae-0f899972429e","ios":"levelo://app?vid=88b12621-4dbf-465f-a1ae-0f899972429e"},"vehicle_type_id":"4","last_reported":1703239658,"current_range_meters":11200,"station_id":"ce4bgjh2rcd13ifvqbf0","pricing_plan_id":"free"},{"bike_id":"8f2c94fe-dc7b-46cd-b496-0f86bdda0eeb","system_id":"levelo_inurba_marseille","lat":43.2936,"lon":5.37835,"is_reserved":false,"is_disabled":false,"rental_uris":{"android":"levelo://app?vid=8f2c94fe-dc7b-46cd-b496-0f86bdda0eeb","ios":"levelo://app?vid=8f2c94fe-dc7b-46cd-b496-0f86bdda0eeb"},"vehicle_type_id":"4","last_reported":1703239658,"current_range_meters":400,"station_id":"ce4bgjh2rcd13ifvqbf0","pricing_plan_id":"free"},{"bike_id":"39e64786-6cb3-43b6-a5f4-5edf068890f9","system_id":"levelo_inurba_marseille","lat":43.2936,"lon":5.37835,"is_reserved":false,"is_disabled":false,"rental_uris":{"android":"levelo://app?vid=39e64786-6cb3-43b6-a5f4-5edf068890f9","ios":"levelo://app?vid=39e64786-6cb3-43b6-a5f4-5edf068890f9"},"vehicle_type_id":"4","last_reported":1703239658,"current_range_meters":20400,"station_id":"ce4bgjh2rcd13ifvqbf0","pricing_plan_id":"free"},{"bike_id":"7f9f0616-f2c7-4897-9215-676e387998f9","system_id":"levelo_inurba_marseille","lat":43.2936,"lon":5.37835,"is_reserved":false,"is_disabled":false,"rental_uris":{"android":"levelo://app?vid=7f9f0616-f2c7-4897-9215-676e387998f9","ios":"levelo://app?vid=7f9f0616-f2c7-4897-9215-676e387998f9"},"vehicle_type_id":"4","last_reported":1703239658,"current_range_meters":20400,"station_id":"ce4bgjh2rcd13ifvqbf0","pricing_plan_id":"free"},{"bike_id":"5ab992d5-1898-4ec6-8901-e5165f0f4166","system_id":"levelo_inurba_marseille","lat":43.2936,"lon":5.37835,"is_reserved":false,"is_disabled":false,"rental_uris":{"android":"levelo://app?vid=5ab992d5-1898-4ec6-8901-e5165f0f4166","ios":"levelo://app?vid=5ab992d5-1898-4ec6-8901-e5165f0f4166"},"vehicle_type_id":"4","last_reported":1703239658,"current_range_meters":28800,"station_id":"ce4bgjh2rcd13ifvqbf0","pricing_plan_id":"free"},{"bike_id":"7bae1750-c196-4c01-90e4-4d4e0885a2a4","system_id":"levelo_inurba_marseille","lat":43.2936,"lon":5.37835,"is_reserved":false,"is_disabled":false,"rental_uris":{"android":"levelo://app?vid=7bae1750-c196-4c01-90e4-4d4e0885a2a4","ios":"levelo://app?vid=7bae1750-c196-4c01-90e4-4d4e0885a2a4"},"vehicle_type_id":"4","last_reported":1703239658,"current_range_meters":14000,"station_id":"ce4bgjh2rcd13ifvqbf0","pricing_plan_id":"free"},{"bike_id":"77f4e95c-8f48-403c-84f4-e013bb0c4fc6","system_id":"levelo_inurba_marseille","lat":43.292311,"lon":5.360731,"is_reserved":false,"is_disabled":false,"rental_uris":{"android":"levelo://app?vid=77f4e95c-8f48-403c-84f4-e013bb0c4fc6","ios":"levelo://app?vid=77f4e95c-8f48-403c-84f4-e013bb0c4fc6"},"vehicle_type_id":"4","last_reported":1703239658,"current_range_meters":29600,"station_id":"ce4bhbh2rcd13ifvqeqg","pricing_plan_id":"free"},{"bike_id":"cd731843-4d4c-4905-9d77-813a15c10780","system_id":"levelo_inurba_marseille","lat":43.300852,"lon":5.390859,"is_reserved":false,"is_disabled":false,"rental_uris":{"android":"levelo://app?vid=cd731843-4d4c-4905-9d77-813a15c10780","ios":"levelo://app?vid=cd731843-4d4c-4905-9d77-813a15c10780"},"vehicle_type_id":"4","last_reported":1703239658,"current_range_meters":5600,"station_id":"ce4bh192rcd13ifvqdb0","pricing_plan_id":"free"},{"bike_id":"377d6e2f-1903-4afb-8b95-01b434f2d5d0","system_id":"levelo_inurba_marseille","lat":43.295748,"lon":5.37522,"is_reserved":false,"is_disabled":false,"rental_uris":{"android":"levelo://app?vid=377d6e2f-1903-4afb-8b95-01b434f2d5d0","ios":"levelo://app?vid=377d6e2f-1903-4afb-8b95-01b434f2d5d0"},"vehicle_type_id":"4","last_reported":1703239658,"current_range_meters":17200,"station_id":"ce4bgh92rcd13ifvqb50","pricing_plan_id":"free"},{"bike_id":"6eb6cfa6-7568-4742-8b9c-97bf6ce79a34","system_id":"levelo_inurba_marseille","lat":43.291675,"lon":5.371583,"is_reserved":false,"is_disabled":false,"rental_uris":{"android":"levelo://app?vid=6eb6cfa6-7568-4742-8b9c-97bf6ce79a34","ios":"levelo://app?vid=6eb6cfa6-7568-4742-8b9c-97bf6ce79a34"},"vehicle_type_id":"4","last_reported":1703239658,"current_range_meters":25200,"station_id":"ce4bha92rcd13ifvqeh0","pricing_plan_id":"free"},{"bike_id":"65c3534d-7694-4760-9396-1f7dcbf0c85f","system_id":"levelo_inurba_marseille","lat":43.291675,"lon":5.371583,"is_reserved":false,"is_disabled":false,"rental_uris":{"android":"levelo://app?vid=65c3534d-7694-4760-9396-1f7dcbf0c85f","ios":"levelo://app?vid=65c3534d-7694-4760-9396-1f7dcbf0c85f"},"vehicle_type_id":"4","last_reported":1703239658,"current_range_meters":24400,"station_id":"ce4bha92rcd13ifvqeh0","pricing_plan_id":"free"},{"bike_id":"73fa7f42-8e3e-49a0-b6f9-c711161ecae7","system_id":"levelo_inurba_marseille","lat":43.313291,"lon":5.396838,"is_reserved":false,"is_disabled":false,"rental_uris":{"android":"levelo://app?vid=73fa7f42-8e3e-49a0-b6f9-c711161ecae7","ios":"levelo://app?vid=73fa7f42-8e3e-49a0-b6f9-c711161ecae7"},"vehicle_type_id":"4","last_reported":1703239658,"current_range_meters":2000,"station_id":"ce4bgvp2rcd13ifvqcu0","pricing_plan_id":"free"},{"bike_id":"e6965136-de50-43a4-8ec1-50fd835beea8","system_id":"levelo_inurba_marseille","lat":43.309038,"lon":5.396546,"is_reserved":false,"is_disabled":false,"rental_uris":{"android":"levelo://app?vid=e6965136-de50-43a4-8ec1-50fd835beea8","ios":"levelo://app?vid=e6965136-de50-43a4-8ec1-50fd835beea8"},"vehicle_type_id":"4","last_reported":1703239658,"current_range_meters":22000,"station_id":"ce4bh012rcd13ifvqcv0","pricing_plan_id":"free"},{"bike_id":"38d4d91e-53ce-4931-ba21-154943f23494","system_id":"levelo_inurba_marseille","lat":43.290779,"lon":5.371482,"is_reserved":false,"is_disabled":false,"rental_uris":{"android":"levelo://app?vid=38d4d91e-53ce-4931-ba21-154943f23494","ios":"levelo://app?vid=38d4d91e-53ce-4931-ba21-154943f23494"},"vehicle_type_id":"4","last_reported":1703239658,"current_range_meters":15200,"station_id":"ce4bh5p2rcd13ifvqe4g","pricing_plan_id":"free"},{"bike_id":"8d26d0a4-c518-46db-8383-ef98eb4f0dad","system_id":"levelo_inurba_marseille","lat":43.294153,"lon":5.386305,"is_reserved":false,"is_disabled":false,"rental_uris":{"android":"levelo://app?vid=8d26d0a4-c518-46db-8383-ef98eb4f0dad","ios":"levelo://app?vid=8d26d0a4-c518-46db-8383-ef98eb4f0dad"},"vehicle_type_id":"4","last_reported":1703239658,"current_range_meters":20800,"station_id":"ce4bh2h2rcd13ifvqdh0","pricing_plan_id":"free"},{"bike_id":"db62fe98-159c-4c21-a457-a27274baf165","system_id":"levelo_inurba_marseille","lat":43.290327,"lon":5.375711,"is_reserved":false,"is_disabled":false,"rental_uris":{"android":"levelo://app?vid=db62fe98-159c-4c21-a457-a27274baf165","ios":"levelo://app?vid=db62fe98-159c-4c21-a457-a27274baf165"},"vehicle_type_id":"4","last_reported":1703239658,"current_range_meters":16000,"station_id":"ce4bh692rcd13ifvqe90","pricing_plan_id":"free"},{"bike_id":"88980648-72f1-4882-bb48-af0c0bd51774","system_id":"levelo_inurba_marseille","lat":43.29033,"lon":5.37562,"is_reserved":false,"is_disabled":false,"rental_uris":{"android":"levelo://app?vid=88980648-72f1-4882-bb48-af0c0bd51774","ios":"levelo://app?vid=88980648-72f1-4882-bb48-af0c0bd51774"},"vehicle_type_id":"4","last_reported":1703239658,"current_range_meters":30400,"station_id":"ce4bh692rcd13ifvqe90","pricing_plan_id":"free"},{"bike_id":"0c92cfa0-e7ce-466b-af4e-cdc32ac40189","system_id":"levelo_inurba_marseille","lat":43.289468,"lon":5.363719,"is_reserved":false,"is_disabled":false,"rental_uris":{"android":"levelo://app?vid=0c92cfa0-e7ce-466b-af4e-cdc32ac40189","ios":"levelo://app?vid=0c92cfa0-e7ce-466b-af4e-cdc32ac40189"},"vehicle_type_id":"4","last_reported":1703239658,"current_range_meters":5200,"station_id":"ce4bhc92rcd13ifvqetg","pricing_plan_id":"free"},{"bike_id":"74d0f02e-c7ca-4a05-8370-175097f698e9","system_id":"levelo_inurba_marseille","lat":43.290103,"lon":5.356114,"is_reserved":false,"is_disabled":false,"rental_uris":{"android":"levelo://app?vid=74d0f02e-c7ca-4a05-8370-175097f698e9","ios":"levelo://app?vid=74d0f02e-c7ca-4a05-8370-175097f698e9"},"vehicle_type_id":"4","last_reported":1703239658,"current_range_meters":9200,"station_id":"ce4bhb92rcd13ifvqen0","pricing_plan_id":"free"},{"bike_id":"1d729523-8382-4efa-855f-1a97751d4c16","system_id":"levelo_inurba_marseille","lat":43.290104,"lon":5.356111,"is_reserved":false,"is_disabled":false,"rental_uris":{"android":"levelo://app?vid=1d729523-8382-4efa-855f-1a97751d4c16","ios":"levelo://app?vid=1d729523-8382-4efa-855f-1a97751d4c16"},"vehicle_type_id":"4","last_reported":1703239658,"current_range_meters":28800,"station_id":"ce4bhb92rcd13ifvqen0","pricing_plan_id":"free"},{"bike_id":"4a7f2196-972a-454c-ae30-284dc0a39ba6","system_id":"levelo_inurba_marseille","lat":43.290995,"lon":5.381361,"is_reserved":false,"is_disabled":false,"rental_uris":{"android":"levelo://app?vid=4a7f2196-972a-454c-ae30-284dc0a39ba6","ios":"levelo://app?vid=4a7f2196-972a-454c-ae30-284dc0a39ba6"},"vehicle_type_id":"4","last_reported":1703239658,"current_range_meters":27200,"station_id":"ce4bh512rcd13ifvqe2g","pricing_plan_id":"free"},{"bike_id":"4314f5f3-29cc-43ab-a98f-baac0bf8f813","system_id":"levelo_inurba_marseille","lat":43.289743,"lon":5.378304,"is_reserved":false,"is_disabled":false,"rental_uris":{"android":"levelo://app?vid=4314f5f3-29cc-43ab-a98f-baac0bf8f813","ios":"levelo://app?vid=4314f5f3-29cc-43ab-a98f-baac0bf8f813"},"vehicle_type_id":"4","last_reported":1703239658,"current_range_meters":27600,"station_id":"ce4bh9p2rcd13ifvqed0","pricing_plan_id":"free"},{"bike_id":"99a384e8-0f93-453d-b289-fd41a009a797","system_id":"levelo_inurba_marseille","lat":43.29784,"lon":5.39342,"is_reserved":false,"is_disabled":false,"rental_uris":{"android":"levelo://app?vid=99a384e8-0f93-453d-b289-fd41a009a797","ios":"levelo://app?vid=99a384e8-0f93-453d-b289-fd41a009a797"},"vehicle_type_id":"4","last_reported":1703239658,"current_range_meters":14800,"station_id":"chh1huq6cuj3fo74tm60","pricing_plan_id":"free"},{"bike_id":"bb30e42b-f6a9-4e78-bb1e-3078ad2f2afd","system_id":"levelo_inurba_marseille","lat":43.289741,"lon":5.378306,"is_reserved":false,"is_disabled":false,"rental_uris":{"android":"levelo://app?vid=bb30e42b-f6a9-4e78-bb1e-3078ad2f2afd","ios":"levelo://app?vid=bb30e42b-f6a9-4e78-bb1e-3078ad2f2afd"},"vehicle_type_id":"4","last_reported":1703239658,"current_range_meters":20000,"station_id":"ce4bh9p2rcd13ifvqed0","pricing_plan_id":"free"},{"bike_id":"b699c1ca-f17c-40c3-9145-fdc9be807de0","system_id":"levelo_inurba_marseille","lat":43.33766,"lon":5.37442,"is_reserved":false,"is_disabled":false,"rental_uris":{"android":"levelo://app?vid=b699c1ca-f17c-40c3-9145-fdc9be807de0","ios":"levelo://app?vid=b699c1ca-f17c-40c3-9145-fdc9be807de0"},"vehicle_type_id":"4","last_reported":1703239658,"current_range_meters":1200,"station_id":"ce4rr2p2rcd13i802rgg","pricing_plan_id":"free"},{"bike_id":"a8089545-0974-4646-87ff-8263c36ae20d","system_id":"levelo_inurba_marseille","lat":43.290336,"lon":5.386425,"is_reserved":false,"is_disabled":false,"rental_uris":{"android":"levelo://app?vid=a8089545-0974-4646-87ff-8263c36ae20d","ios":"levelo://app?vid=a8089545-0974-4646-87ff-8263c36ae20d"},"vehicle_type_id":"4","last_reported":1703239658,"current_range_meters":9600,"station_id":"ce4bh4p2rcd13ifvqe0g","pricing_plan_id":"free"},{"bike_id":"7b8822eb-5efd-4aad-b681-c81f0c88fc4c","system_id":"levelo_inurba_marseille","lat":43.290345,"lon":5.38646,"is_reserved":false,"is_disabled":false,"rental_uris":{"android":"levelo://app?vid=7b8822eb-5efd-4aad-b681-c81f0c88fc4c","ios":"levelo://app?vid=7b8822eb-5efd-4aad-b681-c81f0c88fc4c"},"vehicle_type_id":"4","last_reported":1703239658,"current_range_meters":30800,"station_id":"ce4bh4p2rcd13ifvqe0g","pricing_plan_id":"free"},{"bike_id":"49110642-a33f-43ed-9769-eed150c714f4","system_id":"levelo_inurba_marseille","lat":43.290336,"lon":5.386425,"is_reserved":false,"is_disabled":false,"rental_uris":{"android":"levelo://app?vid=49110642-a33f-43ed-9769-eed150c714f4","ios":"levelo://app?vid=49110642-a33f-43ed-9769-eed150c714f4"},"vehicle_type_id":"4","last_reported":1703239658,"current_range_meters":19600,"station_id":"ce4bh4p2rcd13ifvqe0g","pricing_plan_id":"free"},{"bike_id":"71c73cc4-25b2-4e8e-a1fa-707635795d24","system_id":"levelo_inurba_marseille","lat":43.287184,"lon":5.37937,"is_reserved":false,"is_disabled":false,"rental_uris":{"android":"levelo://app?vid=71c73cc4-25b2-4e8e-a1fa-707635795d24","ios":"levelo://app?vid=71c73cc4-25b2-4e8e-a1fa-707635795d24"},"vehicle_type_id":"4","last_reported":1703239658,"current_range_meters":10800,"station_id":"ce4bh9p2rcd13ifvqec0","pricing_plan_id":"free"},{"bike_id":"06946312-c113-44d4-a015-7435c9c570ff","system_id":"levelo_inurba_marseille","lat":43.287185,"lon":5.379373,"is_reserved":false,"is_disabled":false,"rental_uris":{"android":"levelo://app?vid=06946312-c113-44d4-a015-7435c9c570ff","ios":"levelo://app?vid=06946312-c113-44d4-a015-7435c9c570ff"},"vehicle_type_id":"4","last_reported":1703239658,"current_range_meters":21600,"station_id":"ce4bh9p2rcd13ifvqec0","pricing_plan_id":"free"},{"bike_id":"612788aa-0108-4766-b8c9-679afa6cd278","system_id":"levelo_inurba_marseille","lat":43.287185,"lon":5.379373,"is_reserved":false,"is_disabled":false,"rental_uris":{"android":"levelo://app?vid=612788aa-0108-4766-b8c9-679afa6cd278","ios":"levelo://app?vid=612788aa-0108-4766-b8c9-679afa6cd278"},"vehicle_type_id":"4","last_reported":1703239658,"current_range_meters":22800,"station_id":"ce4bh9p2rcd13ifvqec0","pricing_plan_id":"free"},{"bike_id":"40c6375e-ef0c-48ab-9b4c-4db7f4e79c48","system_id":"levelo_inurba_marseille","lat":43.287184,"lon":5.37937,"is_reserved":false,"is_disabled":false,"rental_uris":{"android":"levelo://app?vid=40c6375e-ef0c-48ab-9b4c-4db7f4e79c48","ios":"levelo://app?vid=40c6375e-ef0c-48ab-9b4c-4db7f4e79c48"},"vehicle_type_id":"4","last_reported":1703239658,"current_range_meters":31200,"station_id":"ce4bh9p2rcd13ifvqec0","pricing_plan_id":"free"},{"bike_id":"8adbf8c9-53f7-4485-a157-f85e20d21ffd","system_id":"levelo_inurba_marseille","lat":43.287184,"lon":5.37937,"is_reserved":false,"is_disabled":false,"rental_uris":{"android":"levelo://app?vid=8adbf8c9-53f7-4485-a157-f85e20d21ffd","ios":"levelo://app?vid=8adbf8c9-53f7-4485-a157-f85e20d21ffd"},"vehicle_type_id":"4","last_reported":1703239658,"current_range_meters":27600,"station_id":"ce4bh9p2rcd13ifvqec0","pricing_plan_id":"free"},{"bike_id":"6fbce95b-b536-4245-935a-6aabb63cd754","system_id":"levelo_inurba_marseille","lat":43.287184,"lon":5.37937,"is_reserved":false,"is_disabled":false,"rental_uris":{"android":"levelo://app?vid=6fbce95b-b536-4245-935a-6aabb63cd754","ios":"levelo://app?vid=6fbce95b-b536-4245-935a-6aabb63cd754"},"vehicle_type_id":"4","last_reported":1703239658,"current_range_meters":12000,"station_id":"ce4bh9p2rcd13ifvqec0","pricing_plan_id":"free"},{"bike_id":"92207474-9a10-4739-9f61-76efde2174a5","system_id":"levelo_inurba_marseille","lat":43.316828,"lon":5.404723,"is_reserved":false,"is_disabled":false,"rental_uris":{"android":"levelo://app?vid=92207474-9a10-4739-9f61-76efde2174a5","ios":"levelo://app?vid=92207474-9a10-4739-9f61-76efde2174a5"},"vehicle_type_id":"4","last_reported":1703239658,"current_range_meters":12800,"station_id":"ce4bh012rcd13ifvqd00","pricing_plan_id":"free"},{"bike_id":"358241ce-9140-47c1-83c7-f35ccfb62a5e","system_id":"levelo_inurba_marseille","lat":43.305706,"lon":5.365654,"is_reserved":false,"is_disabled":false,"rental_uris":{"android":"levelo://app?vid=358241ce-9140-47c1-83c7-f35ccfb62a5e","ios":"levelo://app?vid=358241ce-9140-47c1-83c7-f35ccfb62a5e"},"vehicle_type_id":"4","last_reported":1703239658,"current_range_meters":9200,"station_id":"ce4bgs12rcd13ifvqcag","pricing_plan_id":"free"},{"bike_id":"a34fdb4a-0329-4166-8fc7-45c28a4f2c1d","system_id":"levelo_inurba_marseille","lat":43.316828,"lon":5.404723,"is_reserved":false,"is_disabled":false,"rental_uris":{"android":"levelo://app?vid=a34fdb4a-0329-4166-8fc7-45c28a4f2c1d","ios":"levelo://app?vid=a34fdb4a-0329-4166-8fc7-45c28a4f2c1d"},"vehicle_type_id":"4","last_reported":1703239658,"current_range_meters":3600,"station_id":"ce4bh012rcd13ifvqd00","pricing_plan_id":"free"},{"bike_id":"e2adfa7c-882e-48a1-9ee4-b36e6186ebbf","system_id":"levelo_inurba_marseille","lat":43.330912,"lon":5.396935,"is_reserved":false,"is_disabled":false,"rental_uris":{"android":"levelo://app?vid=e2adfa7c-882e-48a1-9ee4-b36e6186ebbf","ios":"levelo://app?vid=e2adfa7c-882e-48a1-9ee4-b36e6186ebbf"},"vehicle_type_id":"4","last_reported":1703239658,"current_range_meters":18800,"station_id":"","pricing_plan_id":"free"},{"bike_id":"700bca41-384f-4b69-92cd-3653afc4403f","system_id":"levelo_inurba_marseille","lat":43.284534,"lon":5.358662,"is_reserved":false,"is_disabled":false,"rental_uris":{"android":"levelo://app?vid=700bca41-384f-4b69-92cd-3653afc4403f","ios":"levelo://app?vid=700bca41-384f-4b69-92cd-3653afc4403f"},"vehicle_type_id":"4","last_reported":1703239658,"current_range_meters":16400,"station_id":"ce4bhah2rcd13ifvqei0","pricing_plan_id":"free"},{"bike_id":"eb0a5cbf-6384-4517-97ef-2cb59c2af9ed","system_id":"levelo_inurba_marseille","lat":43.284538,"lon":5.358657,"is_reserved":false,"is_disabled":false,"rental_uris":{"android":"levelo://app?vid=eb0a5cbf-6384-4517-97ef-2cb59c2af9ed","ios":"levelo://app?vid=eb0a5cbf-6384-4517-97ef-2cb59c2af9ed"},"vehicle_type_id":"4","last_reported":1703239658,"current_range_meters":23600,"station_id":"ce4bhah2rcd13ifvqei0","pricing_plan_id":"free"},{"bike_id":"6681f091-8cae-40db-82be-2afedc79afec","system_id":"levelo_inurba_marseille","lat":43.297918,"lon":5.401022,"is_reserved":false,"is_disabled":false,"rental_uris":{"android":"levelo://app?vid=6681f091-8cae-40db-82be-2afedc79afec","ios":"levelo://app?vid=6681f091-8cae-40db-82be-2afedc79afec"},"vehicle_type_id":"4","last_reported":1703239658,"current_range_meters":6800,"station_id":"","pricing_plan_id":"free"},{"bike_id":"f6295856-df25-4d04-854b-416e9ee6372d","system_id":"levelo_inurba_marseille","lat":43.295713,"lon":5.399639,"is_reserved":false,"is_disabled":false,"rental_uris":{"android":"levelo://app?vid=f6295856-df25-4d04-854b-416e9ee6372d","ios":"levelo://app?vid=f6295856-df25-4d04-854b-416e9ee6372d"},"vehicle_type_id":"4","last_reported":1703239658,"current_range_meters":2400,"station_id":"ce4bh312rcd13ifvqdj0","pricing_plan_id":"free"},{"bike_id":"a396a5d3-3428-4c7d-bbce-d046d97fc93c","system_id":"levelo_inurba_marseille","lat":43.337168,"lon":5.391825,"is_reserved":false,"is_disabled":false,"rental_uris":{"android":"levelo://app?vid=a396a5d3-3428-4c7d-bbce-d046d97fc93c","ios":"levelo://app?vid=a396a5d3-3428-4c7d-bbce-d046d97fc93c"},"vehicle_type_id":"4","last_reported":1703239658,"current_range_meters":27200,"station_id":"ce4bhr92rcd13ifvqhsg","pricing_plan_id":"free"},{"bike_id":"687269d2-e082-4930-b7b6-db76459f0cad","system_id":"levelo_inurba_marseille","lat":43.323464,"lon":5.406297,"is_reserved":false,"is_disabled":false,"rental_uris":{"android":"levelo://app?vid=687269d2-e082-4930-b7b6-db76459f0cad","ios":"levelo://app?vid=687269d2-e082-4930-b7b6-db76459f0cad"},"vehicle_type_id":"4","last_reported":1703239658,"current_range_meters":6800,"station_id":"ce4bhq92rcd13ifvqhjg","pricing_plan_id":"free"},{"bike_id":"aa1bea3e-ff5f-4c49-a630-426ec3e7598d","system_id":"levelo_inurba_marseille","lat":43.323464,"lon":5.406297,"is_reserved":false,"is_disabled":false,"rental_uris":{"android":"levelo://app?vid=aa1bea3e-ff5f-4c49-a630-426ec3e7598d","ios":"levelo://app?vid=aa1bea3e-ff5f-4c49-a630-426ec3e7598d"},"vehicle_type_id":"4","last_reported":1703239658,"current_range_meters":31200,"station_id":"ce4bhq92rcd13ifvqhjg","pricing_plan_id":"free"},{"bike_id":"dfdadb00-295f-4147-bb7b-992e830130a9","system_id":"levelo_inurba_marseille","lat":43.323464,"lon":5.406297,"is_reserved":false,"is_disabled":false,"rental_uris":{"android":"levelo://app?vid=dfdadb00-295f-4147-bb7b-992e830130a9","ios":"levelo://app?vid=dfdadb00-295f-4147-bb7b-992e830130a9"},"vehicle_type_id":"4","last_reported":1703239658,"current_range_meters":31200,"station_id":"ce4bhq92rcd13ifvqhjg","pricing_plan_id":"free"},{"bike_id":"a8907dfb-fc9e-4b68-8020-cc202f99e7fd","system_id":"levelo_inurba_marseille","lat":43.284793,"lon":5.384119,"is_reserved":false,"is_disabled":false,"rental_uris":{"android":"levelo://app?vid=a8907dfb-fc9e-4b68-8020-cc202f99e7fd","ios":"levelo://app?vid=a8907dfb-fc9e-4b68-8020-cc202f99e7fd"},"vehicle_type_id":"4","last_reported":1703239658,"current_range_meters":22800,"station_id":"ce4bh512rcd13ifvqe3g","pricing_plan_id":"free"},{"bike_id":"fa59b084-d1c5-4ace-aa4b-2719bc273797","system_id":"levelo_inurba_marseille","lat":43.282744,"lon":5.350533,"is_reserved":false,"is_disabled":false,"rental_uris":{"android":"levelo://app?vid=fa59b084-d1c5-4ace-aa4b-2719bc273797","ios":"levelo://app?vid=fa59b084-d1c5-4ace-aa4b-2719bc273797"},"vehicle_type_id":"4","last_reported":1703239658,"current_range_meters":30000,"station_id":"ce4bhbp2rcd13ifvqerg","pricing_plan_id":"free"},{"bike_id":"31353ce1-7de5-4c63-ad09-7c6f7f93c1b6","system_id":"levelo_inurba_marseille","lat":43.290412,"lon":5.399633,"is_reserved":false,"is_disabled":false,"rental_uris":{"android":"levelo://app?vid=31353ce1-7de5-4c63-ad09-7c6f7f93c1b6","ios":"levelo://app?vid=31353ce1-7de5-4c63-ad09-7c6f7f93c1b6"},"vehicle_type_id":"4","last_reported":1703239658,"current_range_meters":13200,"station_id":"ce4bh392rcd13ifvqdm0","pricing_plan_id":"free"},{"bike_id":"f09749e3-a89c-4e64-b3bc-a2549fc42be5","system_id":"levelo_inurba_marseille","lat":43.290412,"lon":5.399633,"is_reserved":false,"is_disabled":false,"rental_uris":{"android":"levelo://app?vid=f09749e3-a89c-4e64-b3bc-a2549fc42be5","ios":"levelo://app?vid=f09749e3-a89c-4e64-b3bc-a2549fc42be5"},"vehicle_type_id":"4","last_reported":1703239658,"current_range_meters":26400,"station_id":"ce4bh392rcd13ifvqdm0","pricing_plan_id":"free"},{"bike_id":"052270ca-d550-4333-8329-c4fa8688e83f","system_id":"levelo_inurba_marseille","lat":43.290329,"lon":5.399632,"is_reserved":false,"is_disabled":false,"rental_uris":{"android":"levelo://app?vid=052270ca-d550-4333-8329-c4fa8688e83f","ios":"levelo://app?vid=052270ca-d550-4333-8329-c4fa8688e83f"},"vehicle_type_id":"4","last_reported":1703239658,"current_range_meters":31200,"station_id":"ce4bh392rcd13ifvqdm0","pricing_plan_id":"free"},{"bike_id":"4d870a03-d538-43fd-a2b0-fc2bd923241a","system_id":"levelo_inurba_marseille","lat":43.284462,"lon":5.392121,"is_reserved":false,"is_disabled":false,"rental_uris":{"android":"levelo://app?vid=4d870a03-d538-43fd-a2b0-fc2bd923241a","ios":"levelo://app?vid=4d870a03-d538-43fd-a2b0-fc2bd923241a"},"vehicle_type_id":"4","last_reported":1703239658,"current_range_meters":16800,"station_id":"ce4bhoh2rcd13ifvqh5g","pricing_plan_id":"free"},{"bike_id":"2353930a-a12b-4741-87aa-2168fb6177ea","system_id":"levelo_inurba_marseille","lat":43.287154,"lon":5.399979,"is_reserved":false,"is_disabled":false,"rental_uris":{"android":"levelo://app?vid=2353930a-a12b-4741-87aa-2168fb6177ea","ios":"levelo://app?vid=2353930a-a12b-4741-87aa-2168fb6177ea"},"vehicle_type_id":"4","last_reported":1703239658,"current_range_meters":13600,"station_id":"ce4bho92rcd13ifvqh3g","pricing_plan_id":"free"},{"bike_id":"170ab2bf-d29f-4d5f-982a-a6ad40f685fd","system_id":"levelo_inurba_marseille","lat":43.28601,"lon":5.39998,"is_reserved":false,"is_disabled":false,"rental_uris":{"android":"levelo://app?vid=170ab2bf-d29f-4d5f-982a-a6ad40f685fd","ios":"levelo://app?vid=170ab2bf-d29f-4d5f-982a-a6ad40f685fd"},"vehicle_type_id":"4","last_reported":1703239658,"current_range_meters":13200,"station_id":"","pricing_plan_id":"free"},{"bike_id":"f8dbb7bb-8c28-4dce-b686-6ed784023d66","system_id":"levelo_inurba_marseille","lat":43.279742,"lon":5.38744,"is_reserved":false,"is_disabled":false,"rental_uris":{"android":"levelo://app?vid=f8dbb7bb-8c28-4dce-b686-6ed784023d66","ios":"levelo://app?vid=f8dbb7bb-8c28-4dce-b686-6ed784023d66"},"vehicle_type_id":"4","last_reported":1703239658,"current_range_meters":29200,"station_id":"ce4bhg12rcd13ifvqf80","pricing_plan_id":"free"},{"bike_id":"0673fb2f-211c-4a99-8244-46cab23cfd0d","system_id":"levelo_inurba_marseille","lat":43.299579,"lon":5.413255,"is_reserved":false,"is_disabled":false,"rental_uris":{"android":"levelo://app?vid=0673fb2f-211c-4a99-8244-46cab23cfd0d","ios":"levelo://app?vid=0673fb2f-211c-4a99-8244-46cab23cfd0d"},"vehicle_type_id":"4","last_reported":1703239658,"current_range_meters":5600,"station_id":"ce4bhp12rcd13ifvqh9g","pricing_plan_id":"free"},{"bike_id":"86035899-3910-41fa-a0f7-7e4ab8ff3b90","system_id":"levelo_inurba_marseille","lat":43.279742,"lon":5.38744,"is_reserved":false,"is_disabled":false,"rental_uris":{"android":"levelo://app?vid=86035899-3910-41fa-a0f7-7e4ab8ff3b90","ios":"levelo://app?vid=86035899-3910-41fa-a0f7-7e4ab8ff3b90"},"vehicle_type_id":"4","last_reported":1703239658,"current_range_meters":25600,"station_id":"ce4bhg12rcd13ifvqf80","pricing_plan_id":"free"},{"bike_id":"28f2ff22-78a4-4bd2-b944-6ee6a51ffedf","system_id":"levelo_inurba_marseille","lat":43.279742,"lon":5.38744,"is_reserved":false,"is_disabled":false,"rental_uris":{"android":"levelo://app?vid=28f2ff22-78a4-4bd2-b944-6ee6a51ffedf","ios":"levelo://app?vid=28f2ff22-78a4-4bd2-b944-6ee6a51ffedf"},"vehicle_type_id":"4","last_reported":1703239658,"current_range_meters":30400,"station_id":"ce4bhg12rcd13ifvqf80","pricing_plan_id":"free"},{"bike_id":"1afe6a6f-7637-4a46-9001-5cd508934db3","system_id":"levelo_inurba_marseille","lat":43.32541,"lon":5.41426,"is_reserved":false,"is_disabled":false,"rental_uris":{"android":"levelo://app?vid=1afe6a6f-7637-4a46-9001-5cd508934db3","ios":"levelo://app?vid=1afe6a6f-7637-4a46-9001-5cd508934db3"},"vehicle_type_id":"4","last_reported":1703239658,"current_range_meters":17600,"station_id":"ce4bhq12rcd13ifvqhhg","pricing_plan_id":"free"},{"bike_id":"09a21094-8e68-4ed9-9f1b-f64de89ddab8","system_id":"levelo_inurba_marseille","lat":43.32535,"lon":5.41436,"is_reserved":false,"is_disabled":false,"rental_uris":{"android":"levelo://app?vid=09a21094-8e68-4ed9-9f1b-f64de89ddab8","ios":"levelo://app?vid=09a21094-8e68-4ed9-9f1b-f64de89ddab8"},"vehicle_type_id":"4","last_reported":1703239658,"current_range_meters":27600,"station_id":"ce4bhq12rcd13ifvqhhg","pricing_plan_id":"free"},{"bike_id":"ccf08482-4944-4717-985c-c41efcbf1de2","system_id":"levelo_inurba_marseille","lat":43.325233,"lon":5.414318,"is_reserved":false,"is_disabled":false,"rental_uris":{"android":"levelo://app?vid=ccf08482-4944-4717-985c-c41efcbf1de2","ios":"levelo://app?vid=ccf08482-4944-4717-985c-c41efcbf1de2"},"vehicle_type_id":"4","last_reported":1703239658,"current_range_meters":31200,"station_id":"ce4bhq12rcd13ifvqhhg","pricing_plan_id":"free"},{"bike_id":"7cfd6e71-5272-400f-a668-9236c74e8277","system_id":"levelo_inurba_marseille","lat":43.32542,"lon":5.41442,"is_reserved":false,"is_disabled":false,"rental_uris":{"android":"levelo://app?vid=7cfd6e71-5272-400f-a668-9236c74e8277","ios":"levelo://app?vid=7cfd6e71-5272-400f-a668-9236c74e8277"},"vehicle_type_id":"4","last_reported":1703239658,"current_range_meters":22400,"station_id":"ce4bhq12rcd13ifvqhhg","pricing_plan_id":"free"},{"bike_id":"21f01083-e6a0-46eb-b58f-8e39e640143f","system_id":"levelo_inurba_marseille","lat":43.325233,"lon":5.414318,"is_reserved":false,"is_disabled":false,"rental_uris":{"android":"levelo://app?vid=21f01083-e6a0-46eb-b58f-8e39e640143f","ios":"levelo://app?vid=21f01083-e6a0-46eb-b58f-8e39e640143f"},"vehicle_type_id":"4","last_reported":1703239658,"current_range_meters":26400,"station_id":"ce4bhq12rcd13ifvqhhg","pricing_plan_id":"free"},{"bike_id":"9c5ad8b9-a33c-4feb-91bd-64ce3b0d8c02","system_id":"levelo_inurba_marseille","lat":43.32548,"lon":5.41444,"is_reserved":false,"is_disabled":false,"rental_uris":{"android":"levelo://app?vid=9c5ad8b9-a33c-4feb-91bd-64ce3b0d8c02","ios":"levelo://app?vid=9c5ad8b9-a33c-4feb-91bd-64ce3b0d8c02"},"vehicle_type_id":"4","last_reported":1703239658,"current_range_meters":7600,"station_id":"ce4bhq12rcd13ifvqhhg","pricing_plan_id":"free"},{"bike_id":"d44a9ea5-93b2-46c3-b759-93763ae254bb","system_id":"levelo_inurba_marseille","lat":43.275625,"lon":5.384392,"is_reserved":false,"is_disabled":false,"rental_uris":{"android":"levelo://app?vid=d44a9ea5-93b2-46c3-b759-93763ae254bb","ios":"levelo://app?vid=d44a9ea5-93b2-46c3-b759-93763ae254bb"},"vehicle_type_id":"4","last_reported":1703239658,"current_range_meters":16400,"station_id":"ce4bhh92rcd13ifvqfi0","pricing_plan_id":"free"},{"bike_id":"57705eb8-3f30-4f37-8c6b-23b353501294","system_id":"levelo_inurba_marseille","lat":43.275625,"lon":5.384392,"is_reserved":false,"is_disabled":false,"rental_uris":{"android":"levelo://app?vid=57705eb8-3f30-4f37-8c6b-23b353501294","ios":"levelo://app?vid=57705eb8-3f30-4f37-8c6b-23b353501294"},"vehicle_type_id":"4","last_reported":1703239658,"current_range_meters":18800,"station_id":"ce4bhh92rcd13ifvqfi0","pricing_plan_id":"free"},{"bike_id":"e10cc150-4041-48d5-aaa1-023406c60c29","system_id":"levelo_inurba_marseille","lat":43.273613,"lon":5.362705,"is_reserved":false,"is_disabled":false,"rental_uris":{"android":"levelo://app?vid=e10cc150-4041-48d5-aaa1-023406c60c29","ios":"levelo://app?vid=e10cc150-4041-48d5-aaa1-023406c60c29"},"vehicle_type_id":"4","last_reported":1703239658,"current_range_meters":12000,"station_id":"ce4bhbh2rcd13ifvqeo0","pricing_plan_id":"free"},{"bike_id":"1a20b325-4396-49c1-9079-c0fc13e630d9","system_id":"levelo_inurba_marseille","lat":43.275625,"lon":5.384392,"is_reserved":false,"is_disabled":false,"rental_uris":{"android":"levelo://app?vid=1a20b325-4396-49c1-9079-c0fc13e630d9","ios":"levelo://app?vid=1a20b325-4396-49c1-9079-c0fc13e630d9"},"vehicle_type_id":"4","last_reported":1703239658,"current_range_meters":28400,"station_id":"ce4bhh92rcd13ifvqfi0","pricing_plan_id":"free"},{"bike_id":"f1edc802-0ccc-4821-9ca7-279093c88d45","system_id":"levelo_inurba_marseille","lat":43.336134,"lon":5.410341,"is_reserved":false,"is_disabled":false,"rental_uris":{"android":"levelo://app?vid=f1edc802-0ccc-4821-9ca7-279093c88d45","ios":"levelo://app?vid=f1edc802-0ccc-4821-9ca7-279093c88d45"},"vehicle_type_id":"4","last_reported":1703239658,"current_range_meters":31200,"station_id":"ce4bhqh2rcd13ifvqhmg","pricing_plan_id":"free"},{"bike_id":"0d592487-cd67-400b-87e2-5016980b3d0f","system_id":"levelo_inurba_marseille","lat":43.275625,"lon":5.384392,"is_reserved":false,"is_disabled":false,"rental_uris":{"android":"levelo://app?vid=0d592487-cd67-400b-87e2-5016980b3d0f","ios":"levelo://app?vid=0d592487-cd67-400b-87e2-5016980b3d0f"},"vehicle_type_id":"4","last_reported":1703239658,"current_range_meters":20000,"station_id":"ce4bhh92rcd13ifvqfi0","pricing_plan_id":"free"},{"bike_id":"c12de7e8-a347-40e6-8797-e98d6d1cb1b5","system_id":"levelo_inurba_marseille","lat":43.336148,"lon":5.410349,"is_reserved":false,"is_disabled":false,"rental_uris":{"android":"levelo://app?vid=c12de7e8-a347-40e6-8797-e98d6d1cb1b5","ios":"levelo://app?vid=c12de7e8-a347-40e6-8797-e98d6d1cb1b5"},"vehicle_type_id":"4","last_reported":1703239658,"current_range_meters":30800,"station_id":"ce4bhqh2rcd13ifvqhmg","pricing_plan_id":"free"},{"bike_id":"fa6b1700-890f-4539-9d7b-e8b8a4e0b4f0","system_id":"levelo_inurba_marseille","lat":43.275625,"lon":5.384392,"is_reserved":false,"is_disabled":false,"rental_uris":{"android":"levelo://app?vid=fa6b1700-890f-4539-9d7b-e8b8a4e0b4f0","ios":"levelo://app?vid=fa6b1700-890f-4539-9d7b-e8b8a4e0b4f0"},"vehicle_type_id":"4","last_reported":1703239658,"current_range_meters":29200,"station_id":"ce4bhh92rcd13ifvqfi0","pricing_plan_id":"free"},{"bike_id":"3a1ebf0f-c579-45ad-ab89-953ea01137e2","system_id":"levelo_inurba_marseille","lat":43.336134,"lon":5.410341,"is_reserved":false,"is_disabled":false,"rental_uris":{"android":"levelo://app?vid=3a1ebf0f-c579-45ad-ab89-953ea01137e2","ios":"levelo://app?vid=3a1ebf0f-c579-45ad-ab89-953ea01137e2"},"vehicle_type_id":"4","last_reported":1703239658,"current_range_meters":30800,"station_id":"ce4bhqh2rcd13ifvqhmg","pricing_plan_id":"free"},{"bike_id":"2e898446-aad9-4717-8dfe-629937307daf","system_id":"levelo_inurba_marseille","lat":43.336134,"lon":5.410341,"is_reserved":false,"is_disabled":false,"rental_uris":{"android":"levelo://app?vid=2e898446-aad9-4717-8dfe-629937307daf","ios":"levelo://app?vid=2e898446-aad9-4717-8dfe-629937307daf"},"vehicle_type_id":"4","last_reported":1703239658,"current_range_meters":19600,"station_id":"ce4bhqh2rcd13ifvqhmg","pricing_plan_id":"free"},{"bike_id":"ed49b05d-e08f-44d6-a06e-3caec91c63ff","system_id":"levelo_inurba_marseille","lat":43.27678,"lon":5.38881,"is_reserved":false,"is_disabled":false,"rental_uris":{"android":"levelo://app?vid=ed49b05d-e08f-44d6-a06e-3caec91c63ff","ios":"levelo://app?vid=ed49b05d-e08f-44d6-a06e-3caec91c63ff"},"vehicle_type_id":"4","last_reported":1703239658,"current_range_meters":10800,"station_id":"ce4bhi12rcd13ifvqfo0","pricing_plan_id":"free"},{"bike_id":"3cf1e124-f9b6-49ca-8485-c962bf603890","system_id":"levelo_inurba_marseille","lat":43.276771,"lon":5.388799,"is_reserved":false,"is_disabled":false,"rental_uris":{"android":"levelo://app?vid=3cf1e124-f9b6-49ca-8485-c962bf603890","ios":"levelo://app?vid=3cf1e124-f9b6-49ca-8485-c962bf603890"},"vehicle_type_id":"4","last_reported":1703239658,"current_range_meters":5200,"station_id":"ce4bhi12rcd13ifvqfo0","pricing_plan_id":"free"},{"bike_id":"435d9b30-014f-4fe6-afb2-7fbe848f80a0","system_id":"levelo_inurba_marseille","lat":43.317121,"lon":5.423936,"is_reserved":false,"is_disabled":false,"rental_uris":{"android":"levelo://app?vid=435d9b30-014f-4fe6-afb2-7fbe848f80a0","ios":"levelo://app?vid=435d9b30-014f-4fe6-afb2-7fbe848f80a0"},"vehicle_type_id":"4","last_reported":1703239658,"current_range_meters":27600,"station_id":"ce4bhp92rcd13ifvqhbg","pricing_plan_id":"free"},{"bike_id":"67c95ba1-3b1b-4724-b685-672be7a82fce","system_id":"levelo_inurba_marseille","lat":43.317146,"lon":5.423956,"is_reserved":false,"is_disabled":false,"rental_uris":{"android":"levelo://app?vid=67c95ba1-3b1b-4724-b685-672be7a82fce","ios":"levelo://app?vid=67c95ba1-3b1b-4724-b685-672be7a82fce"},"vehicle_type_id":"4","last_reported":1703239658,"current_range_meters":2400,"station_id":"ce4bhp92rcd13ifvqhbg","pricing_plan_id":"free"},{"bike_id":"77782120-aa28-4661-b6de-5847d624fbaf","system_id":"levelo_inurba_marseille","lat":43.273246,"lon":5.390904,"is_reserved":false,"is_disabled":false,"rental_uris":{"android":"levelo://app?vid=77782120-aa28-4661-b6de-5847d624fbaf","ios":"levelo://app?vid=77782120-aa28-4661-b6de-5847d624fbaf"},"vehicle_type_id":"4","last_reported":1703239658,"current_range_meters":28400,"station_id":"ce4bhgp2rcd13ifvqfe0","pricing_plan_id":"free"},{"bike_id":"b54fecde-7bb3-4d4b-be0c-1e1c91f7bd4b","system_id":"levelo_inurba_marseille","lat":43.273129,"lon":5.390725,"is_reserved":false,"is_disabled":false,"rental_uris":{"android":"levelo://app?vid=b54fecde-7bb3-4d4b-be0c-1e1c91f7bd4b","ios":"levelo://app?vid=b54fecde-7bb3-4d4b-be0c-1e1c91f7bd4b"},"vehicle_type_id":"4","last_reported":1703239658,"current_range_meters":26400,"station_id":"ce4bhgp2rcd13ifvqfe0","pricing_plan_id":"free"},{"bike_id":"7e0cf2e4-cc84-46ea-86bf-3a9320dd40ab","system_id":"levelo_inurba_marseille","lat":43.274099,"lon":5.394019,"is_reserved":false,"is_disabled":false,"rental_uris":{"android":"levelo://app?vid=7e0cf2e4-cc84-46ea-86bf-3a9320dd40ab","ios":"levelo://app?vid=7e0cf2e4-cc84-46ea-86bf-3a9320dd40ab"},"vehicle_type_id":"4","last_reported":1703239658,"current_range_meters":400,"station_id":"ce4bhdp2rcd13ifvqf20","pricing_plan_id":"free"},{"bike_id":"8254fd32-b9d4-49df-ab7e-cfea12d046d7","system_id":"levelo_inurba_marseille","lat":43.304096,"lon":5.425385,"is_reserved":false,"is_disabled":false,"rental_uris":{"android":"levelo://app?vid=8254fd32-b9d4-49df-ab7e-cfea12d046d7","ios":"levelo://app?vid=8254fd32-b9d4-49df-ab7e-cfea12d046d7"},"vehicle_type_id":"4","last_reported":1703239658,"current_range_meters":31200,"station_id":"ce4bhoh2rcd13ifvqh6g","pricing_plan_id":"free"},{"bike_id":"347da428-2949-4089-b216-00f19201e719","system_id":"levelo_inurba_marseille","lat":43.304096,"lon":5.425385,"is_reserved":false,"is_disabled":false,"rental_uris":{"android":"levelo://app?vid=347da428-2949-4089-b216-00f19201e719","ios":"levelo://app?vid=347da428-2949-4089-b216-00f19201e719"},"vehicle_type_id":"4","last_reported":1703239658,"current_range_meters":16000,"station_id":"ce4bhoh2rcd13ifvqh6g","pricing_plan_id":"free"},{"bike_id":"0e4cc326-10fa-4e7e-9ba9-ad4f832bb35e","system_id":"levelo_inurba_marseille","lat":43.304096,"lon":5.425385,"is_reserved":false,"is_disabled":false,"rental_uris":{"android":"levelo://app?vid=0e4cc326-10fa-4e7e-9ba9-ad4f832bb35e","ios":"levelo://app?vid=0e4cc326-10fa-4e7e-9ba9-ad4f832bb35e"},"vehicle_type_id":"4","last_reported":1703239658,"current_range_meters":25600,"station_id":"ce4bhoh2rcd13ifvqh6g","pricing_plan_id":"free"},{"bike_id":"a80c78b0-54bd-4c06-a456-7ff9cb5fb92c","system_id":"levelo_inurba_marseille","lat":43.295586,"lon":5.422803,"is_reserved":false,"is_disabled":false,"rental_uris":{"android":"levelo://app?vid=a80c78b0-54bd-4c06-a456-7ff9cb5fb92c","ios":"levelo://app?vid=a80c78b0-54bd-4c06-a456-7ff9cb5fb92c"},"vehicle_type_id":"4","last_reported":1703239658,"current_range_meters":8400,"station_id":"ce4bhph2rcd13ifvqhdg","pricing_plan_id":"free"},{"bike_id":"96484c65-8dd7-4167-a438-a7d837c6b7a7","system_id":"levelo_inurba_marseille","lat":43.295523,"lon":5.422926,"is_reserved":false,"is_disabled":false,"rental_uris":{"android":"levelo://app?vid=96484c65-8dd7-4167-a438-a7d837c6b7a7","ios":"levelo://app?vid=96484c65-8dd7-4167-a438-a7d837c6b7a7"},"vehicle_type_id":"4","last_reported":1703239658,"current_range_meters":31200,"station_id":"ce4bhph2rcd13ifvqhdg","pricing_plan_id":"free"},{"bike_id":"218ca4ab-a316-43a6-87cd-acfc23cd8e62","system_id":"levelo_inurba_marseille","lat":43.295523,"lon":5.422926,"is_reserved":false,"is_disabled":false,"rental_uris":{"android":"levelo://app?vid=218ca4ab-a316-43a6-87cd-acfc23cd8e62","ios":"levelo://app?vid=218ca4ab-a316-43a6-87cd-acfc23cd8e62"},"vehicle_type_id":"4","last_reported":1703239658,"current_range_meters":19200,"station_id":"ce4bhph2rcd13ifvqhdg","pricing_plan_id":"free"},{"bike_id":"7d800ac1-1b26-47dd-97c6-49cd89d9ab11","system_id":"levelo_inurba_marseille","lat":43.295511,"lon":5.422926,"is_reserved":false,"is_disabled":false,"rental_uris":{"android":"levelo://app?vid=7d800ac1-1b26-47dd-97c6-49cd89d9ab11","ios":"levelo://app?vid=7d800ac1-1b26-47dd-97c6-49cd89d9ab11"},"vehicle_type_id":"4","last_reported":1703239658,"current_range_meters":12400,"station_id":"ce4bhph2rcd13ifvqhdg","pricing_plan_id":"free"},{"bike_id":"23d13786-8601-4dce-a424-5d4a35dea444","system_id":"levelo_inurba_marseille","lat":43.295511,"lon":5.422926,"is_reserved":false,"is_disabled":false,"rental_uris":{"android":"levelo://app?vid=23d13786-8601-4dce-a424-5d4a35dea444","ios":"levelo://app?vid=23d13786-8601-4dce-a424-5d4a35dea444"},"vehicle_type_id":"4","last_reported":1703239658,"current_range_meters":15600,"station_id":"ce4bhph2rcd13ifvqhdg","pricing_plan_id":"free"},{"bike_id":"b55db1a0-b820-479b-9929-7610c21584c5","system_id":"levelo_inurba_marseille","lat":43.295511,"lon":5.422926,"is_reserved":false,"is_disabled":false,"rental_uris":{"android":"levelo://app?vid=b55db1a0-b820-479b-9929-7610c21584c5","ios":"levelo://app?vid=b55db1a0-b820-479b-9929-7610c21584c5"},"vehicle_type_id":"4","last_reported":1703239658,"current_range_meters":25200,"station_id":"ce4bhph2rcd13ifvqhdg","pricing_plan_id":"free"},{"bike_id":"d3cea1e8-7f39-4fcc-ad32-91ac9a408d93","system_id":"levelo_inurba_marseille","lat":43.295511,"lon":5.422926,"is_reserved":false,"is_disabled":false,"rental_uris":{"android":"levelo://app?vid=d3cea1e8-7f39-4fcc-ad32-91ac9a408d93","ios":"levelo://app?vid=d3cea1e8-7f39-4fcc-ad32-91ac9a408d93"},"vehicle_type_id":"4","last_reported":1703239658,"current_range_meters":19200,"station_id":"ce4bhph2rcd13ifvqhdg","pricing_plan_id":"free"},{"bike_id":"c63956f8-a07b-4c45-bdfa-01d6a88ac37e","system_id":"levelo_inurba_marseille","lat":43.272124,"lon":5.391768,"is_reserved":false,"is_disabled":false,"rental_uris":{"android":"levelo://app?vid=c63956f8-a07b-4c45-bdfa-01d6a88ac37e","ios":"levelo://app?vid=c63956f8-a07b-4c45-bdfa-01d6a88ac37e"},"vehicle_type_id":"4","last_reported":1703239658,"current_range_meters":30400,"station_id":"ce4bhhp2rcd13ifvqfm0","pricing_plan_id":"free"},{"bike_id":"2385a3dc-ecc5-4c8e-b554-c8e4b25ef268","system_id":"levelo_inurba_marseille","lat":43.278128,"lon":5.407195,"is_reserved":false,"is_disabled":false,"rental_uris":{"android":"levelo://app?vid=2385a3dc-ecc5-4c8e-b554-c8e4b25ef268","ios":"levelo://app?vid=2385a3dc-ecc5-4c8e-b554-c8e4b25ef268"},"vehicle_type_id":"4","last_reported":1703239658,"current_range_meters":22400,"station_id":"ce4bhnh2rcd13ifvqgtg","pricing_plan_id":"free"},{"bike_id":"049bdc30-fd6c-4d31-872d-3e1439e02591","system_id":"levelo_inurba_marseille","lat":43.26957,"lon":5.38635,"is_reserved":false,"is_disabled":false,"rental_uris":{"android":"levelo://app?vid=049bdc30-fd6c-4d31-872d-3e1439e02591","ios":"levelo://app?vid=049bdc30-fd6c-4d31-872d-3e1439e02591"},"vehicle_type_id":"4","last_reported":1703239658,"current_range_meters":27200,"station_id":"ce4bhh92rcd13ifvqfh0","pricing_plan_id":"free"},{"bike_id":"a39aa9bc-9cb1-453b-ba34-c7f4c7e971f5","system_id":"levelo_inurba_marseille","lat":43.269551,"lon":5.38629,"is_reserved":false,"is_disabled":false,"rental_uris":{"android":"levelo://app?vid=a39aa9bc-9cb1-453b-ba34-c7f4c7e971f5","ios":"levelo://app?vid=a39aa9bc-9cb1-453b-ba34-c7f4c7e971f5"},"vehicle_type_id":"4","last_reported":1703239658,"current_range_meters":4000,"station_id":"ce4bhh92rcd13ifvqfh0","pricing_plan_id":"free"},{"bike_id":"02888f58-acce-4884-aa28-ddf64af52953","system_id":"levelo_inurba_marseille","lat":43.26956,"lon":5.38637,"is_reserved":false,"is_disabled":false,"rental_uris":{"android":"levelo://app?vid=02888f58-acce-4884-aa28-ddf64af52953","ios":"levelo://app?vid=02888f58-acce-4884-aa28-ddf64af52953"},"vehicle_type_id":"4","last_reported":1703239658,"current_range_meters":800,"station_id":"ce4bhh92rcd13ifvqfh0","pricing_plan_id":"free"},{"bike_id":"6b3fe9ee-f6e2-452d-9d89-057b2cb3f257","system_id":"levelo_inurba_marseille","lat":43.26955,"lon":5.38638,"is_reserved":false,"is_disabled":false,"rental_uris":{"android":"levelo://app?vid=6b3fe9ee-f6e2-452d-9d89-057b2cb3f257","ios":"levelo://app?vid=6b3fe9ee-f6e2-452d-9d89-057b2cb3f257"},"vehicle_type_id":"4","last_reported":1703239658,"current_range_meters":13600,"station_id":"ce4bhh92rcd13ifvqfh0","pricing_plan_id":"free"},{"bike_id":"cfb16628-f723-4196-944a-2b33891f61a0","system_id":"levelo_inurba_marseille","lat":43.269467,"lon":5.386439,"is_reserved":false,"is_disabled":false,"rental_uris":{"android":"levelo://app?vid=cfb16628-f723-4196-944a-2b33891f61a0","ios":"levelo://app?vid=cfb16628-f723-4196-944a-2b33891f61a0"},"vehicle_type_id":"4","last_reported":1703239658,"current_range_meters":26000,"station_id":"ce4bhh92rcd13ifvqfh0","pricing_plan_id":"free"},{"bike_id":"017014cf-56d4-4de7-8952-68a5738436e6","system_id":"levelo_inurba_marseille","lat":43.26949,"lon":5.3864,"is_reserved":false,"is_disabled":false,"rental_uris":{"android":"levelo://app?vid=017014cf-56d4-4de7-8952-68a5738436e6","ios":"levelo://app?vid=017014cf-56d4-4de7-8952-68a5738436e6"},"vehicle_type_id":"4","last_reported":1703239658,"current_range_meters":26800,"station_id":"ce4bhh92rcd13ifvqfh0","pricing_plan_id":"free"},{"bike_id":"61550aad-2bdf-4d69-a4fa-2735b97e3ff1","system_id":"levelo_inurba_marseille","lat":43.269467,"lon":5.386439,"is_reserved":false,"is_disabled":false,"rental_uris":{"android":"levelo://app?vid=61550aad-2bdf-4d69-a4fa-2735b97e3ff1","ios":"levelo://app?vid=61550aad-2bdf-4d69-a4fa-2735b97e3ff1"},"vehicle_type_id":"4","last_reported":1703239658,"current_range_meters":30800,"station_id":"ce4bhh92rcd13ifvqfh0","pricing_plan_id":"free"},{"bike_id":"26fac660-15c1-4f47-8cd2-da05ce680e7a","system_id":"levelo_inurba_marseille","lat":43.269319,"lon":5.389397,"is_reserved":false,"is_disabled":false,"rental_uris":{"android":"levelo://app?vid=26fac660-15c1-4f47-8cd2-da05ce680e7a","ios":"levelo://app?vid=26fac660-15c1-4f47-8cd2-da05ce680e7a"},"vehicle_type_id":"4","last_reported":1703239658,"current_range_meters":26800,"station_id":"ce4bhhh2rcd13ifvqfl0","pricing_plan_id":"free"},{"bike_id":"c9e5ec7a-720b-4445-83d0-19583367f177","system_id":"levelo_inurba_marseille","lat":43.269319,"lon":5.389397,"is_reserved":false,"is_disabled":false,"rental_uris":{"android":"levelo://app?vid=c9e5ec7a-720b-4445-83d0-19583367f177","ios":"levelo://app?vid=c9e5ec7a-720b-4445-83d0-19583367f177"},"vehicle_type_id":"4","last_reported":1703239658,"current_range_meters":27200,"station_id":"ce4bhhh2rcd13ifvqfl0","pricing_plan_id":"free"},{"bike_id":"7fc51c9f-a329-4a91-9c7e-e28f7f158fba","system_id":"levelo_inurba_marseille","lat":43.26681,"lon":5.382694,"is_reserved":false,"is_disabled":false,"rental_uris":{"android":"levelo://app?vid=7fc51c9f-a329-4a91-9c7e-e28f7f158fba","ios":"levelo://app?vid=7fc51c9f-a329-4a91-9c7e-e28f7f158fba"},"vehicle_type_id":"4","last_reported":1703239658,"current_range_meters":31200,"station_id":"ce4bhg92rcd13ifvqf90","pricing_plan_id":"free"},{"bike_id":"eab00aa0-8a0c-4319-9016-578c3045e6bf","system_id":"levelo_inurba_marseille","lat":43.26681,"lon":5.382694,"is_reserved":false,"is_disabled":false,"rental_uris":{"android":"levelo://app?vid=eab00aa0-8a0c-4319-9016-578c3045e6bf","ios":"levelo://app?vid=eab00aa0-8a0c-4319-9016-578c3045e6bf"},"vehicle_type_id":"4","last_reported":1703239658,"current_range_meters":26000,"station_id":"ce4bhg92rcd13ifvqf90","pricing_plan_id":"free"},{"bike_id":"fe70d8ba-da37-4354-a6cb-4f9d1fa8fb72","system_id":"levelo_inurba_marseille","lat":43.26681,"lon":5.382694,"is_reserved":false,"is_disabled":false,"rental_uris":{"android":"levelo://app?vid=fe70d8ba-da37-4354-a6cb-4f9d1fa8fb72","ios":"levelo://app?vid=fe70d8ba-da37-4354-a6cb-4f9d1fa8fb72"},"vehicle_type_id":"4","last_reported":1703239658,"current_range_meters":16400,"station_id":"ce4bhg92rcd13ifvqf90","pricing_plan_id":"free"},{"bike_id":"7a1239c7-d1ca-4115-b681-9f15678a0535","system_id":"levelo_inurba_marseille","lat":43.265569,"lon":5.390047,"is_reserved":false,"is_disabled":false,"rental_uris":{"android":"levelo://app?vid=7a1239c7-d1ca-4115-b681-9f15678a0535","ios":"levelo://app?vid=7a1239c7-d1ca-4115-b681-9f15678a0535"},"vehicle_type_id":"4","last_reported":1703239658,"current_range_meters":6800,"station_id":"ce4bhe12rcd13ifvqf30","pricing_plan_id":"free"},{"bike_id":"453c7a65-f861-4622-bcd4-25e559706988","system_id":"levelo_inurba_marseille","lat":43.265569,"lon":5.390047,"is_reserved":false,"is_disabled":false,"rental_uris":{"android":"levelo://app?vid=453c7a65-f861-4622-bcd4-25e559706988","ios":"levelo://app?vid=453c7a65-f861-4622-bcd4-25e559706988"},"vehicle_type_id":"4","last_reported":1703239658,"current_range_meters":6800,"station_id":"ce4bhe12rcd13ifvqf30","pricing_plan_id":"free"},{"bike_id":"d35baa13-0703-46a0-8c43-4fc81c07fb90","system_id":"levelo_inurba_marseille","lat":43.26949,"lon":5.40262,"is_reserved":false,"is_disabled":false,"rental_uris":{"android":"levelo://app?vid=d35baa13-0703-46a0-8c43-4fc81c07fb90","ios":"levelo://app?vid=d35baa13-0703-46a0-8c43-4fc81c07fb90"},"vehicle_type_id":"4","last_reported":1703239658,"current_range_meters":6000,"station_id":"cjm6bp8fraef2m0cb0m0","pricing_plan_id":"free"},{"bike_id":"888b444c-93e8-44fd-a5ab-5cf2bdeac1a1","system_id":"levelo_inurba_marseille","lat":43.26949,"lon":5.40262,"is_reserved":false,"is_disabled":false,"rental_uris":{"android":"levelo://app?vid=888b444c-93e8-44fd-a5ab-5cf2bdeac1a1","ios":"levelo://app?vid=888b444c-93e8-44fd-a5ab-5cf2bdeac1a1"},"vehicle_type_id":"4","last_reported":1703239658,"current_range_meters":0,"station_id":"cjm6bp8fraef2m0cb0m0","pricing_plan_id":"free"},{"bike_id":"00218647-3e78-4519-8cb2-bc0ee7717496","system_id":"levelo_inurba_marseille","lat":43.26949,"lon":5.40262,"is_reserved":false,"is_disabled":false,"rental_uris":{"android":"levelo://app?vid=00218647-3e78-4519-8cb2-bc0ee7717496","ios":"levelo://app?vid=00218647-3e78-4519-8cb2-bc0ee7717496"},"vehicle_type_id":"4","last_reported":1703239658,"current_range_meters":6800,"station_id":"cjm6bp8fraef2m0cb0m0","pricing_plan_id":"free"},{"bike_id":"eb9c0446-e6aa-43d9-91be-89942caa57b1","system_id":"levelo_inurba_marseille","lat":43.261782,"lon":5.374515,"is_reserved":false,"is_disabled":false,"rental_uris":{"android":"levelo://app?vid=eb9c0446-e6aa-43d9-91be-89942caa57b1","ios":"levelo://app?vid=eb9c0446-e6aa-43d9-91be-89942caa57b1"},"vehicle_type_id":"4","last_reported":1703239658,"current_range_meters":0,"station_id":"ce4bhgp2rcd13ifvqfc0","pricing_plan_id":"free"},{"bike_id":"0b0c5e19-ce78-44c0-a9b5-3a785bc8569f","system_id":"levelo_inurba_marseille","lat":43.261782,"lon":5.374515,"is_reserved":false,"is_disabled":false,"rental_uris":{"android":"levelo://app?vid=0b0c5e19-ce78-44c0-a9b5-3a785bc8569f","ios":"levelo://app?vid=0b0c5e19-ce78-44c0-a9b5-3a785bc8569f"},"vehicle_type_id":"4","last_reported":1703239658,"current_range_meters":30000,"station_id":"ce4bhgp2rcd13ifvqfc0","pricing_plan_id":"free"},{"bike_id":"2e62984b-8771-47f8-8e36-d6a6f38059c0","system_id":"levelo_inurba_marseille","lat":43.31716,"lon":5.43702,"is_reserved":false,"is_disabled":false,"rental_uris":{"android":"levelo://app?vid=2e62984b-8771-47f8-8e36-d6a6f38059c0","ios":"levelo://app?vid=2e62984b-8771-47f8-8e36-d6a6f38059c0"},"vehicle_type_id":"4","last_reported":1703239658,"current_range_meters":28400,"station_id":"ce4bhp92rcd13ifvqhcg","pricing_plan_id":"free"},{"bike_id":"2d6427c7-a10a-4b24-b0a5-95d867c65295","system_id":"levelo_inurba_marseille","lat":43.31709,"lon":5.4371,"is_reserved":false,"is_disabled":false,"rental_uris":{"android":"levelo://app?vid=2d6427c7-a10a-4b24-b0a5-95d867c65295","ios":"levelo://app?vid=2d6427c7-a10a-4b24-b0a5-95d867c65295"},"vehicle_type_id":"4","last_reported":1703239658,"current_range_meters":22400,"station_id":"ce4bhp92rcd13ifvqhcg","pricing_plan_id":"free"},{"bike_id":"b2902b78-67e3-446b-b19e-efaf3baa33fc","system_id":"levelo_inurba_marseille","lat":43.2651,"lon":5.39469,"is_reserved":false,"is_disabled":false,"rental_uris":{"android":"levelo://app?vid=b2902b78-67e3-446b-b19e-efaf3baa33fc","ios":"levelo://app?vid=b2902b78-67e3-446b-b19e-efaf3baa33fc"},"vehicle_type_id":"4","last_reported":1703239658,"current_range_meters":5200,"station_id":"ce4bhi12rcd13ifvqfq0","pricing_plan_id":"free"},{"bike_id":"a5d1b4ee-5b3a-4cf4-b3b6-691bc24ef5f0","system_id":"levelo_inurba_marseille","lat":43.2651,"lon":5.39469,"is_reserved":false,"is_disabled":false,"rental_uris":{"android":"levelo://app?vid=a5d1b4ee-5b3a-4cf4-b3b6-691bc24ef5f0","ios":"levelo://app?vid=a5d1b4ee-5b3a-4cf4-b3b6-691bc24ef5f0"},"vehicle_type_id":"4","last_reported":1703239658,"current_range_meters":6800,"station_id":"ce4bhi12rcd13ifvqfq0","pricing_plan_id":"free"},{"bike_id":"9bc11cf7-d766-47fb-a2ac-1ffa731b216c","system_id":"levelo_inurba_marseille","lat":43.298768,"lon":5.43643,"is_reserved":false,"is_disabled":false,"rental_uris":{"android":"levelo://app?vid=9bc11cf7-d766-47fb-a2ac-1ffa731b216c","ios":"levelo://app?vid=9bc11cf7-d766-47fb-a2ac-1ffa731b216c"},"vehicle_type_id":"4","last_reported":1703239658,"current_range_meters":31200,"station_id":"ce4bhpp2rcd13ifvqhfg","pricing_plan_id":"free"},{"bike_id":"487e06aa-6766-4d05-a28b-05b21604896c","system_id":"levelo_inurba_marseille","lat":43.281548,"lon":5.42643,"is_reserved":false,"is_disabled":false,"rental_uris":{"android":"levelo://app?vid=487e06aa-6766-4d05-a28b-05b21604896c","ios":"levelo://app?vid=487e06aa-6766-4d05-a28b-05b21604896c"},"vehicle_type_id":"4","last_reported":1703239658,"current_range_meters":30400,"station_id":"ce4bhnh2rcd13ifvqgug","pricing_plan_id":"free"},{"bike_id":"d92de13b-4182-4332-b67f-e1bb4b612478","system_id":"levelo_inurba_marseille","lat":43.281548,"lon":5.42643,"is_reserved":false,"is_disabled":false,"rental_uris":{"android":"levelo://app?vid=d92de13b-4182-4332-b67f-e1bb4b612478","ios":"levelo://app?vid=d92de13b-4182-4332-b67f-e1bb4b612478"},"vehicle_type_id":"4","last_reported":1703239658,"current_range_meters":21600,"station_id":"ce4bhnh2rcd13ifvqgug","pricing_plan_id":"free"},{"bike_id":"68b66d54-6777-4a5e-9f90-4f5598e74a22","system_id":"levelo_inurba_marseille","lat":43.2607,"lon":5.393983,"is_reserved":false,"is_disabled":false,"rental_uris":{"android":"levelo://app?vid=68b66d54-6777-4a5e-9f90-4f5598e74a22","ios":"levelo://app?vid=68b66d54-6777-4a5e-9f90-4f5598e74a22"},"vehicle_type_id":"4","last_reported":1703239658,"current_range_meters":6000,"station_id":"ce4bhh92rcd13ifvqfj0","pricing_plan_id":"free"},{"bike_id":"6cb7f0b5-d00f-4a19-ac9c-58c7ed3b3f8c","system_id":"levelo_inurba_marseille","lat":43.2607,"lon":5.393983,"is_reserved":false,"is_disabled":false,"rental_uris":{"android":"levelo://app?vid=6cb7f0b5-d00f-4a19-ac9c-58c7ed3b3f8c","ios":"levelo://app?vid=6cb7f0b5-d00f-4a19-ac9c-58c7ed3b3f8c"},"vehicle_type_id":"4","last_reported":1703239658,"current_range_meters":25600,"station_id":"ce4bhh92rcd13ifvqfj0","pricing_plan_id":"free"},{"bike_id":"e3941761-b26c-4646-8433-4f67591110e5","system_id":"levelo_inurba_marseille","lat":43.2607,"lon":5.393983,"is_reserved":false,"is_disabled":false,"rental_uris":{"android":"levelo://app?vid=e3941761-b26c-4646-8433-4f67591110e5","ios":"levelo://app?vid=e3941761-b26c-4646-8433-4f67591110e5"},"vehicle_type_id":"4","last_reported":1703239658,"current_range_meters":28400,"station_id":"ce4bhh92rcd13ifvqfj0","pricing_plan_id":"free"},{"bike_id":"8d07411f-182e-4a27-a061-97b590cccf0f","system_id":"levelo_inurba_marseille","lat":43.275028,"lon":5.424534,"is_reserved":false,"is_disabled":false,"rental_uris":{"android":"levelo://app?vid=8d07411f-182e-4a27-a061-97b590cccf0f","ios":"levelo://app?vid=8d07411f-182e-4a27-a061-97b590cccf0f"},"vehicle_type_id":"4","last_reported":1703239658,"current_range_meters":25600,"station_id":"ce4bhn92rcd13ifvqgrg","pricing_plan_id":"free"},{"bike_id":"856ab754-4ad3-4e07-a9f6-9168b0332d38","system_id":"levelo_inurba_marseille","lat":43.275028,"lon":5.424534,"is_reserved":false,"is_disabled":false,"rental_uris":{"android":"levelo://app?vid=856ab754-4ad3-4e07-a9f6-9168b0332d38","ios":"levelo://app?vid=856ab754-4ad3-4e07-a9f6-9168b0332d38"},"vehicle_type_id":"4","last_reported":1703239658,"current_range_meters":18000,"station_id":"ce4bhn92rcd13ifvqgrg","pricing_plan_id":"free"},{"bike_id":"7977189a-5e27-4e84-99e4-b8bfdea28baa","system_id":"levelo_inurba_marseille","lat":43.275028,"lon":5.424534,"is_reserved":false,"is_disabled":false,"rental_uris":{"android":"levelo://app?vid=7977189a-5e27-4e84-99e4-b8bfdea28baa","ios":"levelo://app?vid=7977189a-5e27-4e84-99e4-b8bfdea28baa"},"vehicle_type_id":"4","last_reported":1703239658,"current_range_meters":20400,"station_id":"ce4bhn92rcd13ifvqgrg","pricing_plan_id":"free"},{"bike_id":"40fa9d3c-a838-4903-8976-1c446d320e83","system_id":"levelo_inurba_marseille","lat":43.27495,"lon":5.42451,"is_reserved":false,"is_disabled":false,"rental_uris":{"android":"levelo://app?vid=40fa9d3c-a838-4903-8976-1c446d320e83","ios":"levelo://app?vid=40fa9d3c-a838-4903-8976-1c446d320e83"},"vehicle_type_id":"4","last_reported":1703239658,"current_range_meters":28800,"station_id":"","pricing_plan_id":"free"},{"bike_id":"00f7622a-f2c7-40cf-a0a0-9a2405bbe743","system_id":"levelo_inurba_marseille","lat":43.27497,"lon":5.42454,"is_reserved":false,"is_disabled":false,"rental_uris":{"android":"levelo://app?vid=00f7622a-f2c7-40cf-a0a0-9a2405bbe743","ios":"levelo://app?vid=00f7622a-f2c7-40cf-a0a0-9a2405bbe743"},"vehicle_type_id":"4","last_reported":1703239658,"current_range_meters":27600,"station_id":"ce4bhn92rcd13ifvqgrg","pricing_plan_id":"free"},{"bike_id":"52ad170f-397e-49b7-ac1e-c25901733480","system_id":"levelo_inurba_marseille","lat":43.275028,"lon":5.424534,"is_reserved":false,"is_disabled":false,"rental_uris":{"android":"levelo://app?vid=52ad170f-397e-49b7-ac1e-c25901733480","ios":"levelo://app?vid=52ad170f-397e-49b7-ac1e-c25901733480"},"vehicle_type_id":"4","last_reported":1703239658,"current_range_meters":30400,"station_id":"ce4bhn92rcd13ifvqgrg","pricing_plan_id":"free"},{"bike_id":"d69d4556-9062-4467-8653-7b3c197379b7","system_id":"levelo_inurba_marseille","lat":43.27493,"lon":5.42457,"is_reserved":false,"is_disabled":false,"rental_uris":{"android":"levelo://app?vid=d69d4556-9062-4467-8653-7b3c197379b7","ios":"levelo://app?vid=d69d4556-9062-4467-8653-7b3c197379b7"},"vehicle_type_id":"4","last_reported":1703239658,"current_range_meters":30000,"station_id":"ce4bhn92rcd13ifvqgrg","pricing_plan_id":"free"},