{"last_updated":1738098498,"ttl":60,"version":"2.2","data":{"bikes":[{"bike_id":"6b5304a6-a180-4f59-bcf5-97751dc352cb","system_id":"levelo_inurba_marseille","lat":43.29533,"lon":5.3852,"is_reserved":false,"is_disabled":false,"rental_uris":{"android":"levelo://app?vid=6b5304a6-a180-4f59-bcf5-97751dc352cb","ios":"levelo://app?vid=6b5304a6-a180-4f59-bcf5-97751dc352cb"},"vehicle_type_id":"4","last_reported":1738098498,"current_range_meters":34000,"station_id":"ce4bgih2rcd13ifvqba0","pricing_plan_id":"cebpf4jnsgd1na2vs0mg"},{"bike_id":"c98c10ad-2c59-465b-9626-e2f31164a824","system_id":"levelo_inurba_marseille","lat":43.2322,"lon":5.35558,"is_reserved":false,"is_disabled":false,"rental_uris":{"android":"levelo://app?vid=c98c10ad-2c59-465b-9626-e2f31164a824","ios":"levelo://app?vid=c98c10ad-2c59-465b-9626-e2f31164a824"},"vehicle_type_id":"4","last_reported":1738098498,"current_range_meters":28000,"station_id":"ce4bhu92rcd13ifvqi70","pricing_plan_id":"cebpf4jnsgd1na2vs0mg"},{"bike_id":"9748ed37-7ad5-4512-a93e-74c6ef3629b0","system_id":"levelo_inurba_marseille","lat":43.28452,"lon":5.35895,"is_reserved":false,"is_disabled":false,"rental_uris":{"android":"levelo://app?vid=9748ed37-7ad5-4512-a93e-74c6ef3629b0","ios":"levelo://app?vid=9748ed37-7ad5-4512-a93e-74c6ef3629b0"},"vehicle_type_id":"4","last_reported":1738098498,"current_range_meters":21600,"station_id":"ce4bhah2rcd13ifvqei0","pricing_plan_id":"cebpf4jnsgd1na2vs0mg"},{"bike_id":"23f8ca48-f2fa-4410-880d-26db1f284e23","system_id":"levelo_inurba_marseille","lat":43.281545,"lon":5.426383,"is_reserved":false,"is_disabled":false,"rental_uris":{"android":"levelo://app?vid=23f8ca48-f2fa-4410-880d-26db1f284e23","ios":"levelo://app?vid=23f8ca48-f2fa-4410-880d-26db1f284e23"},"vehicle_type_id":"4","last_reported":1738098498,"current_range_meters":16400,"station_id":"ce4bhnh2rcd13ifvqgug","pricing_plan_id":"cebpf4jnsgd1na2vs0mg"},{"bike_id":"6e0d659d-5a0e-4e21-92fa-770d4be6c514","system_id":"levelo_inurba_marseille","lat":43.31701,"lon":5.37812,"is_reserved":false,"is_disabled":false,"rental_uris":{"android":"levelo://app?vid=6e0d659d-5a0e-4e21-92fa-770d4be6c514","ios":"levelo://app?vid=6e0d659d-5a0e-4e21-92fa-770d4be6c514"},"vehicle_type_id":"4","last_reported":1738098498,"current_range_meters":12400,"station_id":"","pricing_plan_id":"cebpf4jnsgd1na2vs0mg"},{"bike_id":"8e650e52-700a-42f9-a1a6-468cb3f9711b","system_id":"levelo_inurba_marseille","lat":43.28534,"lon":5.38378,"is_reserved":false,"is_disabled":true,"rental_uris":{"android":"levelo://app?vid=8e650e52-700a-42f9-a1a6-468cb3f9711b","ios":"levelo://app?vid=8e650e52-700a-42f9-a1a6-468cb3f9711b"},"vehicle_type_id":"4","last_reported":1738098498,"current_range_meters":2000,"station_id":"","pricing_plan_id":"cebpf4jnsgd1na2vs0mg"},{"bike_id":"f7f8117f-03ef-415e-85c6-2eeaf165e4f2","system_id":"levelo_inurba_marseille","lat":43.26229,"lon":5.40438,"is_reserved":false,"is_disabled":true,"rental_uris":{"android":"levelo://app?vid=f7f8117f-03ef-415e-85c6-2eeaf165e4f2","ios":"levelo://app?vid=f7f8117f-03ef-415e-85c6-2eeaf165e4f2"},"vehicle_type_id":"4","last_reported":1738098498,"current_range_meters":31200,"station_id":"ce4bhmh2rcd13ifvqgmg","pricing_plan_id":"cebpf4jnsgd1na2vs0mg"},{"bike_id":"45226d1a-6602-4547-9f5f-cb36e591a81b","system_id":"levelo_inurba_marseille","lat":43.26062,"lon":5.39392,"is_reserved":false,"is_disabled":false,"rental_uris":{"android":"levelo://app?vid=45226d1a-6602-4547-9f5f-cb36e591a81b","ios":"levelo://app?vid=45226d1a-6602-4547-9f5f-cb36e591a81b"},"vehicle_type_id":"4","last_reported":1738098498,"current_range_meters":38800,"station_id":"ce4bhh92rcd13ifvqfj0","pricing_plan_id":"cebpf4jnsgd1na2vs0mg"},{"bike_id":"f7eeff0b-3639-4079-b20d-6264b393d68b","system_id":"levelo_inurba_marseille","lat":43.27813,"lon":5.4071,"is_reserved":false,"is_disabled":false,"rental_uris":{"android":"levelo://app?vid=f7eeff0b-3639-4079-b20d-6264b393d68b","ios":"levelo://app?vid=f7eeff0b-3639-4079-b20d-6264b393d68b"},"vehicle_type_id":"4","last_reported":1738098498,"current_range_meters":28800,"station_id":"ce4bhnh2rcd13ifvqgtg","pricing_plan_id":"cebpf4jnsgd1na2vs0mg"},{"bike_id":"60b94ec1-a2e5-42fc-ad7c-d66b2ada9c44","system_id":"levelo_inurba_marseille","lat":43.2396,"lon":5.36634,"is_reserved":false,"is_disabled":false,"rental_uris":{"android":"levelo://app?vid=60b94ec1-a2e5-42fc-ad7c-d66b2ada9c44","ios":"levelo://app?vid=60b94ec1-a2e5-42fc-ad7c-d66b2ada9c44"},"vehicle_type_id":"4","last_reported":1738098498,"current_range_meters":7200,"station_id":"ce4bhi12rcd13ifvqfp0","pricing_plan_id":"cebpf4jnsgd1na2vs0mg"},{"bike_id":"15a8edd6-9f8c-4776-99d7-7dc1f4f51b93","system_id":"levelo_inurba_marseille","lat":43.305968,"lon":5.372294,"is_reserved":false,"is_disabled":false,"rental_uris":{"android":"levelo://app?vid=15a8edd6-9f8c-4776-99d7-7dc1f4f51b93","ios":"levelo://app?vid=15a8edd6-9f8c-4776-99d7-7dc1f4f51b93"},"vehicle_type_id":"4","last_reported":1738098498,"current_range_meters":28400,"station_id":"ce4bgqh2rcd13ifvqc4g","pricing_plan_id":"cebpf4jnsgd1na2vs0mg"},{"bike_id":"d77faba5-2b0c-430f-ad22-bcf40b90e74c","system_id":"levelo_inurba_marseille","lat":43.27807,"lon":5.40737,"is_reserved":false,"is_disabled":true,"rental_uris":{"android":"levelo://app?vid=d77faba5-2b0c-430f-ad22-bcf40b90e74c","ios":"levelo://app?vid=d77faba5-2b0c-430f-ad22-bcf40b90e74c"},"vehicle_type_id":"4","last_reported":1738098498,"current_range_meters":37600,"station_id":"ce4bhnh2rcd13ifvqgtg","pricing_plan_id":"cebpf4jnsgd1na2vs0mg"},{"bike_id":"8ab5a0fc-08ca-4dd4-bf29-74d57d1bca35","system_id":"levelo_inurba_marseille","lat":43.27997,"lon":5.40012,"is_reserved":false,"is_disabled":false,"rental_uris":{"android":"levelo://app?vid=8ab5a0fc-08ca-4dd4-bf29-74d57d1bca35","ios":"levelo://app?vid=8ab5a0fc-08ca-4dd4-bf29-74d57d1bca35"},"vehicle_type_id":"4","last_reported":1738098498,"current_range_meters":28000,"station_id":"ce4bho92rcd13ifvqh4g","pricing_plan_id":"cebpf4jnsgd1na2vs0mg"},{"bike_id":"57422b90-1442-4d8a-922e-1cfa7d14e2c2","system_id":"levelo_inurba_marseille","lat":43.29037,"lon":5.37567,"is_reserved":false,"is_disabled":false,"rental_uris":{"android":"levelo://app?vid=57422b90-1442-4d8a-922e-1cfa7d14e2c2","ios":"levelo://app?vid=57422b90-1442-4d8a-922e-1cfa7d14e2c2"},"vehicle_type_id":"4","last_reported":1738098498,"current_range_meters":39200,"station_id":"ce4bh692rcd13ifvqe90","pricing_plan_id":"cebpf4jnsgd1na2vs0mg"},{"bike_id":"82a45c06-4a01-4139-bba5-8e44d47ac88e","system_id":"levelo_inurba_marseille","lat":43.31286,"lon":5.40172,"is_reserved":false,"is_disabled":false,"rental_uris":{"android":"levelo://app?vid=82a45c06-4a01-4139-bba5-8e44d47ac88e","ios":"levelo://app?vid=82a45c06-4a01-4139-bba5-8e44d47ac88e"},"vehicle_type_id":"4","last_reported":1738098498,"current_range_meters":37600,"station_id":"ce4bh092rcd13ifvqd30","pricing_plan_id":"cebpf4jnsgd1na2vs0mg"},{"bike_id":"269f3eaa-58da-4451-91aa-6ce31bd8e2a5","system_id":"levelo_inurba_marseille","lat":43.31171,"lon":5.3871,"is_reserved":false,"is_disabled":true,"rental_uris":{"android":"levelo://app?vid=269f3eaa-58da-4451-91aa-6ce31bd8e2a5","ios":"levelo://app?vid=269f3eaa-58da-4451-91aa-6ce31bd8e2a5"},"vehicle_type_id":"4","last_reported":1738098498,"current_range_meters":1200,"station_id":"ce4bgv12rcd13ifvqcp0","pricing_plan_id":"cebpf4jnsgd1na2vs0mg"},{"bike_id":"8df2db50-4daa-47a5-9ab9-8a9fa8fdc263","system_id":"levelo_inurba_marseille","lat":43.26495,"lon":5.3956,"is_reserved":false,"is_disabled":false,"rental_uris":{"android":"levelo://app?vid=8df2db50-4daa-47a5-9ab9-8a9fa8fdc263","ios":"levelo://app?vid=8df2db50-4daa-47a5-9ab9-8a9fa8fdc263"},"vehicle_type_id":"4","last_reported":1738098498,"current_range_meters":30800,"station_id":"ce4bhi12rcd13ifvqfq0","pricing_plan_id":"cebpf4jnsgd1na2vs0mg"},{"bike_id":"58e72295-f362-4387-8a27-14a7c991b4f9","system_id":"levelo_inurba_marseille","lat":43.27366,"lon":5.36216,"is_reserved":false,"is_disabled":false,"rental_uris":{"android":"levelo://app?vid=58e72295-f362-4387-8a27-14a7c991b4f9","ios":"levelo://app?vid=58e72295-f362-4387-8a27-14a7c991b4f9"},"vehicle_type_id":"4","last_reported":1738098498,"current_range_meters":38000,"station_id":"ce4bhbh2rcd13ifvqeo0","pricing_plan_id":"cebpf4jnsgd1na2vs0mg"},{"bike_id":"bfe7bbc1-ecb4-402b-afaf-027113b773cc","system_id":"levelo_inurba_marseille","lat":43.31067,"lon":5.38359,"is_reserved":false,"is_disabled":false,"rental_uris":{"android":"levelo://app?vid=bfe7bbc1-ecb4-402b-afaf-027113b773cc","ios":"levelo://app?vid=bfe7bbc1-ecb4-402b-afaf-027113b773cc"},"vehicle_type_id":"4","last_reported":1738098498,"current_range_meters":38400,"station_id":"ce4bgv92rcd13ifvqcr0","pricing_plan_id":"cebpf4jnsgd1na2vs0mg"},{"bike_id":"96c6d005-88bb-4fd6-98f4-0a014c553eb8","system_id":"levelo_inurba_marseille","lat":43.33018,"lon":5.39045,"is_reserved":false,"is_disabled":false,"rental_uris":{"android":"levelo://app?vid=96c6d005-88bb-4fd6-98f4-0a014c553eb8","ios":"levelo://app?vid=96c6d005-88bb-4fd6-98f4-0a014c553eb8"},"vehicle_type_id":"4","last_reported":1738098498,"current_range_meters":39200,"station_id":"ce4bhr92rcd13ifvqhrg","pricing_plan_id":"cebpf4jnsgd1na2vs0mg"},{"bike_id":"d0f1b83c-9011-4852-9b29-f04b40f95b7b","system_id":"levelo_inurba_marseille","lat":43.30131,"lon":5.38777,"is_reserved":false,"is_disabled":false,"rental_uris":{"android":"levelo://app?vid=d0f1b83c-9011-4852-9b29-f04b40f95b7b","ios":"levelo://app?vid=d0f1b83c-9011-4852-9b29-f04b40f95b7b"},"vehicle_type_id":"4","last_reported":1738098498,"current_range_meters":18000,"station_id":"ce4bghh2rcd13ifvqb60","pricing_plan_id":"cebpf4jnsgd1na2vs0mg"},{"bike_id":"5c388708-e3f2-4bbd-88d9-c199a31e81f9","system_id":"levelo_inurba_marseille","lat":43.28709,"lon":5.39992,"is_reserved":false,"is_disabled":true,"rental_uris":{"android":"levelo://app?vid=5c388708-e3f2-4bbd-88d9-c199a31e81f9","ios":"levelo://app?vid=5c388708-e3f2-4bbd-88d9-c199a31e81f9"},"vehicle_type_id":"4","last_reported":1738098498,"current_range_meters":35200,"station_id":"ce4bho92rcd13ifvqh3g","pricing_plan_id":"cebpf4jnsgd1na2vs0mg"},{"bike_id":"4fee5b2c-113a-4e93-8885-ff5a6a124d4d","system_id":"levelo_inurba_marseille","lat":43.27492,"lon":5.42449,"is_reserved":false,"is_disabled":false,"rental_uris":{"android":"levelo://app?vid=4fee5b2c-113a-4e93-8885-ff5a6a124d4d","ios":"levelo://app?vid=4fee5b2c-113a-4e93-8885-ff5a6a124d4d"},"vehicle_type_id":"4","last_reported":1738098498,"current_range_meters":9600,"station_id":"ce4bhn92rcd13ifvqgrg","pricing_plan_id":"cebpf4jnsgd1na2vs0mg"},{"bike_id":"99f052ce-e5d4-4959-9f96-077a48f3f1c5","system_id":"levelo_inurba_marseille","lat":43.27189,"lon":5.40977,"is_reserved":false,"is_disabled":false,"rental_uris":{"android":"levelo://app?vid=99f052ce-e5d4-4959-9f96-077a48f3f1c5","ios":"levelo://app?vid=99f052ce-e5d4-4959-9f96-077a48f3f1c5"},"vehicle_type_id":"4","last_reported":1738098498,"current_range_meters":36800,"station_id":"ce4bhl12rcd13ifvqgf0","pricing_plan_id":"cebpf4jnsgd1na2vs0mg"},{"bike_id":"f57593df-b459-413e-9715-708e0bf4fb20","system_id":"levelo_inurba_marseille","lat":43.29175,"lon":5.37163,"is_reserved":false,"is_disabled":false,"rental_uris":{"android":"levelo://app?vid=f57593df-b459-413e-9715-708e0bf4fb20","ios":"levelo://app?vid=f57593df-b459-413e-9715-708e0bf4fb20"},"vehicle_type_id":"4","last_reported":1738098498,"current_range_meters":38800,"station_id":"ce4bha92rcd13ifvqeh0","pricing_plan_id":"cebpf4jnsgd1na2vs0mg"},{"bike_id":"874aea7d-7edc-43cb-8bc9-2175029864ba","system_id":"levelo_inurba_marseille","lat":43.28566,"lon":5.39507,"is_reserved":false,"is_disabled":false,"rental_uris":{"android":"levelo://app?vid=874aea7d-7edc-43cb-8bc9-2175029864ba","ios":"levelo://app?vid=874aea7d-7edc-43cb-8bc9-2175029864ba"},"vehicle_type_id":"4","last_reported":1738098498,"current_range_meters":30000,"station_id":"ce4bh292rcd13ifvqdg0","pricing_plan_id":"cebpf4jnsgd1na2vs0mg"},{"bike_id":"4bc1c7a2-fe02-4a81-9fbf-e5d28633c3f2","system_id":"levelo_inurba_marseille","lat":43.29203,"lon":5.3932,"is_reserved":false,"is_disabled":false,"rental_uris":{"android":"levelo://app?vid=4bc1c7a2-fe02-4a81-9fbf-e5d28633c3f2","ios":"levelo://app?vid=4bc1c7a2-fe02-4a81-9fbf-e5d28633c3f2"},"vehicle_type_id":"4","last_reported":1738098498,"current_range_meters":33200,"station_id":"ce4bh192rcd13ifvqdd0","pricing_plan_id":"cebpf4jnsgd1na2vs0mg"},{"bike_id":"0a35e13e-7ac4-41c5-852f-a143f236e88c","system_id":"levelo_inurba_marseille","lat":43.3095,"lon":5.39033,"is_reserved":false,"is_disabled":false,"rental_uris":{"android":"levelo://app?vid=0a35e13e-7ac4-41c5-852f-a143f236e88c","ios":"levelo://app?vid=0a35e13e-7ac4-41c5-852f-a143f236e88c"},"vehicle_type_id":"4","last_reported":1738098498,"current_range_meters":23200,"station_id":"ce4bgup2rcd13ifvqco0","pricing_plan_id":"cebpf4jnsgd1na2vs0mg"},{"bike_id":"ce67ae32-7450-4c44-96df-497237dc6471","system_id":"levelo_inurba_marseille","lat":43.29904,"lon":5.37479,"is_reserved":false,"is_disabled":false,"rental_uris":{"android":"levelo://app?vid=ce67ae32-7450-4c44-96df-497237dc6471","ios":"levelo://app?vid=ce67ae32-7450-4c44-96df-497237dc6471"},"vehicle_type_id":"4","last_reported":1738098498,"current_range_meters":13600,"station_id":"ce4bgjh2rcd13ifvqbg0","pricing_plan_id":"cebpf4jnsgd1na2vs0mg"},{"bike_id":"c152bb1b-3ed6-4a3e-b006-0b443bfbc2a0","system_id":"levelo_inurba_marseille","lat":43.23193,"lon":5.39999,"is_reserved":false,"is_disabled":false,"rental_uris":{"android":"levelo://app?vid=c152bb1b-3ed6-4a3e-b006-0b443bfbc2a0","ios":"levelo://app?vid=c152bb1b-3ed6-4a3e-b006-0b443bfbc2a0"},"vehicle_type_id":"4","last_reported":1738098498,"current_range_meters":36000,"station_id":"ce4bhn12rcd13ifvqgqg","pricing_plan_id":"cebpf4jnsgd1na2vs0mg"},{"bike_id":"9bb2c28f-c2d2-4a77-a413-c89696bb1a87","system_id":"levelo_inurba_marseille","lat":43.30924,"lon":5.4015,"is_reserved":false,"is_disabled":false,"rental_uris":{"android":"levelo://app?vid=9bb2c28f-c2d2-4a77-a413-c89696bb1a87","ios":"levelo://app?vid=9bb2c28f-c2d2-4a77-a413-c89696bb1a87"},"vehicle_type_id":"4","last_reported":1738098498,"current_range_meters":12000,"station_id":"ce4bgvp2rcd13ifvqct0","pricing_plan_id":"cebpf4jnsgd1na2vs0mg"},{"bike_id":"cca69c0f-236a-4d55-a2b9-46e854628355","system_id":"levelo_inurba_marseille","lat":43.29882,"lon":5.38906,"is_reserved":false,"is_disabled":false,"rental_uris":{"android":"levelo://app?vid=cca69c0f-236a-4d55-a2b9-46e854628355","ios":"levelo://app?vid=cca69c0f-236a-4d55-a2b9-46e854628355"},"vehicle_type_id":"4","last_reported":1738098498,"current_range_meters":17600,"station_id":"ce4bh392rcd13ifvqdl0","pricing_plan_id":"cebpf4jnsgd1na2vs0mg"},{"bike_id":"069b705e-258c-450c-88dc-0d2ac3a8269c","system_id":"levelo_inurba_marseille","lat":43.31367,"lon":5.38484,"is_reserved":false,"is_disabled":false,"rental_uris":{"android":"levelo://app?vid=069b705e-258c-450c-88dc-0d2ac3a8269c","ios":"levelo://app?vid=069b705e-258c-450c-88dc-0d2ac3a8269c"},"vehicle_type_id":"4","last_reported":1738098498,"current_range_meters":38800,"station_id":"ce4bgt92rcd13ifvqcf0","pricing_plan_id":"cebpf4jnsgd1na2vs0mg"},{"bike_id":"5d4915e0-4a9f-4c36-821a-8bde58abc3cd","system_id":"levelo_inurba_marseille","lat":43.25111,"lon":5.40322,"is_reserved":false,"is_disabled":true,"rental_uris":{"android":"levelo://app?vid=5d4915e0-4a9f-4c36-821a-8bde58abc3cd","ios":"levelo://app?vid=5d4915e0-4a9f-4c36-821a-8bde58abc3cd"},"vehicle_type_id":"4","last_reported":1738098498,"current_range_meters":12800,"station_id":"ce4bhlh2rcd13ifvqgig","pricing_plan_id":"cebpf4jnsgd1na2vs0mg"},{"bike_id":"75f78423-7bb1-46bc-9291-8f61438106b2","system_id":"levelo_inurba_marseille","lat":43.32963,"lon":5.39094,"is_reserved":false,"is_disabled":false,"rental_uris":{"android":"levelo://app?vid=75f78423-7bb1-46bc-9291-8f61438106b2","ios":"levelo://app?vid=75f78423-7bb1-46bc-9291-8f61438106b2"},"vehicle_type_id":"4","last_reported":1738098498,"current_range_meters":28400,"station_id":"","pricing_plan_id":"cebpf4jnsgd1na2vs0mg"},{"bike_id":"7250d302-ebd9-4a4b-acfe-a6570b70f9c8","system_id":"levelo_inurba_marseille","lat":43.27874,"lon":5.37999,"is_reserved":false,"is_disabled":false,"rental_uris":{"android":"levelo://app?vid=7250d302-ebd9-4a4b-acfe-a6570b70f9c8","ios":"levelo://app?vid=7250d302-ebd9-4a4b-acfe-a6570b70f9c8"},"vehicle_type_id":"4","last_reported":1738098498,"current_range_meters":38800,"station_id":"ce4bhf92rcd13ifvqf50","pricing_plan_id":"cebpf4jnsgd1na2vs0mg"},{"bike_id":"6d7b0dc5-1e27-4819-9cd5-e4a58462c9de","system_id":"levelo_inurba_marseille","lat":43.3236,"lon":5.38886,"is_reserved":false,"is_disabled":false,"rental_uris":{"android":"levelo://app?vid=6d7b0dc5-1e27-4819-9cd5-e4a58462c9de","ios":"levelo://app?vid=6d7b0dc5-1e27-4819-9cd5-e4a58462c9de"},"vehicle_type_id":"4","last_reported":1738098498,"current_range_meters":24000,"station_id":"ce4bhqp2rcd13ifvqhog","pricing_plan_id":"cebpf4jnsgd1na2vs0mg"},{"bike_id":"8906b01c-c546-42d8-8a71-d3e4c23c32f6","system_id":"levelo_inurba_marseille","lat":43.24394,"lon":5.37059,"is_reserved":false,"is_disabled":false,"rental_uris":{"android":"levelo://app?vid=8906b01c-c546-42d8-8a71-d3e4c23c32f6","ios":"levelo://app?vid=8906b01c-c546-42d8-8a71-d3e4c23c32f6"},"vehicle_type_id":"4","last_reported":1738098498,"current_range_meters":38800,"station_id":"ce4bhhh2rcd13ifvqfk0","pricing_plan_id":"cebpf4jnsgd1na2vs0mg"},{"bike_id":"8954c4bc-b69c-4d69-b14a-804d9dba8b00","system_id":"levelo_inurba_marseille","lat":43.29033,"lon":5.38651,"is_reserved":false,"is_disabled":false,"rental_uris":{"android":"levelo://app?vid=8954c4bc-b69c-4d69-b14a-804d9dba8b00","ios":"levelo://app?vid=8954c4bc-b69c-4d69-b14a-804d9dba8b00"},"vehicle_type_id":"4","last_reported":1738098498,"current_range_meters":38800,"station_id":"ce4bh4p2rcd13ifvqe0g","pricing_plan_id":"cebpf4jnsgd1na2vs0mg"},{"bike_id":"da7ba8e5-f778-4ede-91e7-c38d6ca8bff8","system_id":"levelo_inurba_marseille","lat":43.287257,"lon":5.360778,"is_reserved":false,"is_disabled":false,"rental_uris":{"android":"levelo://app?vid=da7ba8e5-f778-4ede-91e7-c38d6ca8bff8","ios":"levelo://app?vid=da7ba8e5-f778-4ede-91e7-c38d6ca8bff8"},"vehicle_type_id":"4","last_reported":1738098498,"current_range_meters":16400,"station_id":"cki0cbj6b192h4jlfktg","pricing_plan_id":"cebpf4jnsgd1na2vs0mg"},{"bike_id":"8a4d46bf-5909-4d64-9d00-1eb7f09ece38","system_id":"levelo_inurba_marseille","lat":43.28007,"lon":5.39991,"is_reserved":false,"is_disabled":false,"rental_uris":{"android":"levelo://app?vid=8a4d46bf-5909-4d64-9d00-1eb7f09ece38","ios":"levelo://app?vid=8a4d46bf-5909-4d64-9d00-1eb7f09ece38"},"vehicle_type_id":"4","last_reported":1738098498,"current_range_meters":35200,"station_id":"ce4bho92rcd13ifvqh4g","pricing_plan_id":"cebpf4jnsgd1na2vs0mg"},{"bike_id":"1d9c2f3c-e7a5-4c5a-a836-c08a3178a384","system_id":"levelo_inurba_marseille","lat":43.27379,"lon":5.36257,"is_reserved":false,"is_disabled":false,"rental_uris":{"android":"levelo://app?vid=1d9c2f3c-e7a5-4c5a-a836-c08a3178a384","ios":"levelo://app?vid=1d9c2f3c-e7a5-4c5a-a836-c08a3178a384"},"vehicle_type_id":"4","last_reported":1738098498,"current_range_meters":38800,"station_id":"ce4bhbh2rcd13ifvqeo0","pricing_plan_id":"cebpf4jnsgd1na2vs0mg"},{"bike_id":"c8bc68d8-caaa-480c-8b25-ca1db6b559e7","system_id":"levelo_inurba_marseille","lat":43.27928,"lon":5.39577,"is_reserved":false,"is_disabled":false,"rental_uris":{"android":"levelo://app?vid=c8bc68d8-caaa-480c-8b25-ca1db6b559e7","ios":"levelo://app?vid=c8bc68d8-caaa-480c-8b25-ca1db6b559e7"},"vehicle_type_id":"4","last_reported":1738098498,"current_range_meters":14000,"station_id":"ce4bhf92rcd13ifvqf40","pricing_plan_id":"cebpf4jnsgd1na2vs0mg"},{"bike_id":"df226aeb-f508-4c7a-9e65-ac5758ec5c58","system_id":"levelo_inurba_marseille","lat":43.286173,"lon":5.351025,"is_reserved":false,"is_disabled":false,"rental_uris":{"android":"levelo://app?vid=df226aeb-f508-4c7a-9e65-ac5758ec5c58","ios":"levelo://app?vid=df226aeb-f508-4c7a-9e65-ac5758ec5c58"},"vehicle_type_id":"4","last_reported":1738098498,"current_range_meters":14800,"station_id":"ce4bhch2rcd13ifvqeug","pricing_plan_id":"cebpf4jnsgd1na2vs0mg"},{"bike_id":"89092c7f-916b-4bbe-8be9-3d4ae9fa7b64","system_id":"levelo_inurba_marseille","lat":43.28699,"lon":5.39959,"is_reserved":false,"is_disabled":false,"rental_uris":{"android":"levelo://app?vid=89092c7f-916b-4bbe-8be9-3d4ae9fa7b64","ios":"levelo://app?vid=89092c7f-916b-4bbe-8be9-3d4ae9fa7b64"},"vehicle_type_id":"4","last_reported":1738098498,"current_range_meters":37600,"station_id":"ce4bho92rcd13ifvqh3g","pricing_plan_id":"cebpf4jnsgd1na2vs0mg"},{"bike_id":"1d3d6cfb-1973-4ef0-b19e-3b4fa3b6b11c","system_id":"levelo_inurba_marseille","lat":43.2396,"lon":5.36627,"is_reserved":false,"is_disabled":false,"rental_uris":{"android":"levelo://app?vid=1d3d6cfb-1973-4ef0-b19e-3b4fa3b6b11c","ios":"levelo://app?vid=1d3d6cfb-1973-4ef0-b19e-3b4fa3b6b11c"},"vehicle_type_id":"4","last_reported":1738098498,"current_range_meters":9200,"station_id":"ce4bhi12rcd13ifvqfp0","pricing_plan_id":"cebpf4jnsgd1na2vs0mg"},{"bike_id":"aa292867-ec34-4f9e-af74-19c1fdf17e9c","system_id":"levelo_inurba_marseille","lat":43.28704,"lon":5.37395,"is_reserved":false,"is_disabled":false,"rental_uris":{"android":"levelo://app?vid=aa292867-ec34-4f9e-af74-19c1fdf17e9c","ios":"levelo://app?vid=aa292867-ec34-4f9e-af74-19c1fdf17e9c"},"vehicle_type_id":"4","last_reported":1738098498,"current_range_meters":38800,"station_id":"ce4bh3p2rcd13ifvqdq0","pricing_plan_id":"cebpf4jnsgd1na2vs0mg"},{"bike_id":"d443175e-c838-4f0e-90a6-eae26a0b1d17","system_id":"levelo_inurba_marseille","lat":43.26926,"lon":5.40254,"is_reserved":false,"is_disabled":false,"rental_uris":{"android":"levelo://app?vid=d443175e-c838-4f0e-90a6-eae26a0b1d17","ios":"levelo://app?vid=d443175e-c838-4f0e-90a6-eae26a0b1d17"},"vehicle_type_id":"4","last_reported":1738098498,"current_range_meters":30000,"station_id":"cjm6bp8fraef2m0cb0m0","pricing_plan_id":"cebpf4jnsgd1na2vs0mg"},{"bike_id":"ab7769da-f316-47cb-89d6-5a54360f22ca","system_id":"levelo_inurba_marseille","lat":43.26936,"lon":5.40256,"is_reserved":false,"is_disabled":false,"rental_uris":{"android":"levelo://app?vid=ab7769da-f316-47cb-89d6-5a54360f22ca","ios":"levelo://app?vid=ab7769da-f316-47cb-89d6-5a54360f22ca"},"vehicle_type_id":"4","last_reported":1738098498,"current_range_meters":2800,"station_id":"cjm6bp8fraef2m0cb0m0","pricing_plan_id":"cebpf4jnsgd1na2vs0mg"},{"bike_id":"17ce0d9c-21b4-475e-bc10-60f978ae3a74","system_id":"levelo_inurba_marseille","lat":43.27493,"lon":5.42453,"is_reserved":false,"is_disabled":false,"rental_uris":{"android":"levelo://app?vid=17ce0d9c-21b4-475e-bc10-60f978ae3a74","ios":"levelo://app?vid=17ce0d9c-21b4-475e-bc10-60f978ae3a74"},"vehicle_type_id":"4","last_reported":1738098498,"current_range_meters":37600,"station_id":"ce4bhn92rcd13ifvqgrg","pricing_plan_id":"cebpf4jnsgd1na2vs0mg"},{"bike_id":"2e41790e-7510-44ab-86b2-1693c47c84ea","system_id":"levelo_inurba_marseille","lat":43.30081,"lon":5.3909,"is_reserved":false,"is_disabled":false,"rental_uris":{"android":"levelo://app?vid=2e41790e-7510-44ab-86b2-1693c47c84ea","ios":"levelo://app?vid=2e41790e-7510-44ab-86b2-1693c47c84ea"},"vehicle_type_id":"4","last_reported":1738098498,"current_range_meters":38000,"station_id":"ce4bh192rcd13ifvqdb0","pricing_plan_id":"cebpf4jnsgd1na2vs0mg"},{"bike_id":"c8a3a0ed-dff2-4f3c-87dc-2e6b47b1ad28","system_id":"levelo_inurba_marseille","lat":43.337444,"lon":5.374475,"is_reserved":false,"is_disabled":true,"rental_uris":{"android":"levelo://app?vid=c8a3a0ed-dff2-4f3c-87dc-2e6b47b1ad28","ios":"levelo://app?vid=c8a3a0ed-dff2-4f3c-87dc-2e6b47b1ad28"},"vehicle_type_id":"4","last_reported":1738098498,"current_range_meters":4000,"station_id":"","pricing_plan_id":"cebpf4jnsgd1na2vs0mg"},{"bike_id":"d5f898d2-9087-49d6-a2d2-f86bf1c038b8","system_id":"levelo_inurba_marseille","lat":43.31699,"lon":5.37789,"is_reserved":false,"is_disabled":false,"rental_uris":{"android":"levelo://app?vid=d5f898d2-9087-49d6-a2d2-f86bf1c038b8","ios":"levelo://app?vid=d5f898d2-9087-49d6-a2d2-f86bf1c038b8"},"vehicle_type_id":"4","last_reported":1738098498,"current_range_meters":38800,"station_id":"ce4bgth2rcd13ifvqch0","pricing_plan_id":"cebpf4jnsgd1na2vs0mg"},{"bike_id":"061a807c-1db8-46c7-beec-da6308b151ea","system_id":"levelo_inurba_marseille","lat":43.29602,"lon":5.38097,"is_reserved":false,"is_disabled":true,"rental_uris":{"android":"levelo://app?vid=061a807c-1db8-46c7-beec-da6308b151ea","ios":"levelo://app?vid=061a807c-1db8-46c7-beec-da6308b151ea"},"vehicle_type_id":"4","last_reported":1738098498,"current_range_meters":30800,"station_id":"ce4bgl12rcd13ifvqbo0","pricing_plan_id":"cebpf4jnsgd1na2vs0mg"},{"bike_id":"ce0e52e3-f0c7-474b-b5d2-2606e7da8d9a","system_id":"levelo_inurba_marseille","lat":43.29979,"lon":5.37181,"is_reserved":false,"is_disabled":false,"rental_uris":{"android":"levelo://app?vid=ce0e52e3-f0c7-474b-b5d2-2606e7da8d9a","ios":"levelo://app?vid=ce0e52e3-f0c7-474b-b5d2-2606e7da8d9a"},"vehicle_type_id":"4","last_reported":1738098498,"current_range_meters":37600,"station_id":"ce4bgr92rcd13ifvqc7g","pricing_plan_id":"cebpf4jnsgd1na2vs0mg"},{"bike_id":"eb1e4ea0-bbbe-45dc-8e9a-c9f54a2dbf77","system_id":"levelo_inurba_marseille","lat":43.28851,"lon":5.35857,"is_reserved":false,"is_disabled":false,"rental_uris":{"android":"levelo://app?vid=eb1e4ea0-bbbe-45dc-8e9a-c9f54a2dbf77","ios":"levelo://app?vid=eb1e4ea0-bbbe-45dc-8e9a-c9f54a2dbf77"},"vehicle_type_id":"4","last_reported":1738098498,"current_range_meters":29600,"station_id":"ce4bhb12rcd13ifvqem0","pricing_plan_id":"cebpf4jnsgd1na2vs0mg"},{"bike_id":"8553c0a6-deb9-456c-9106-193b2eb9bd09","system_id":"levelo_inurba_marseille","lat":43.33001,"lon":5.39048,"is_reserved":false,"is_disabled":false,"rental_uris":{"android":"levelo://app?vid=8553c0a6-deb9-456c-9106-193b2eb9bd09","ios":"levelo://app?vid=8553c0a6-deb9-456c-9106-193b2eb9bd09"},"vehicle_type_id":"4","last_reported":1738098498,"current_range_meters":22000,"station_id":"ce4bhr92rcd13ifvqhrg","pricing_plan_id":"cebpf4jnsgd1na2vs0mg"},{"bike_id":"4d09985f-ba74-40e9-9c49-e4c3c882bc80","system_id":"levelo_inurba_marseille","lat":43.2587,"lon":5.39894,"is_reserved":false,"is_disabled":false,"rental_uris":{"android":"levelo://app?vid=4d09985f-ba74-40e9-9c49-e4c3c882bc80","ios":"levelo://app?vid=4d09985f-ba74-40e9-9c49-e4c3c882bc80"},"vehicle_type_id":"4","last_reported":1738098498,"current_range_meters":28800,"station_id":"ce4bhl92rcd13ifvqghg","pricing_plan_id":"cebpf4jnsgd1na2vs0mg"},{"bike_id":"e055110e-8e50-4402-9b32-8745c1542d21","system_id":"levelo_inurba_marseille","lat":43.23962,"lon":5.36628,"is_reserved":false,"is_disabled":false,"rental_uris":{"android":"levelo://app?vid=e055110e-8e50-4402-9b32-8745c1542d21","ios":"levelo://app?vid=e055110e-8e50-4402-9b32-8745c1542d21"},"vehicle_type_id":"4","last_reported":1738098498,"current_range_meters":38800,"station_id":"ce4bhi12rcd13ifvqfp0","pricing_plan_id":"cebpf4jnsgd1na2vs0mg"},{"bike_id":"fe85483f-b447-45f9-a6fe-387c2f728415","system_id":"levelo_inurba_marseille","lat":43.2919,"lon":5.35794,"is_reserved":false,"is_disabled":false,"rental_uris":{"android":"levelo://app?vid=fe85483f-b447-45f9-a6fe-387c2f728415","ios":"levelo://app?vid=fe85483f-b447-45f9-a6fe-387c2f728415"},"vehicle_type_id":"4","last_reported":1738098498,"current_range_meters":38800,"station_id":"ce4bhb12rcd13ifvqel0","pricing_plan_id":"cebpf4jnsgd1na2vs0mg"},{"bike_id":"4ed19bc5-9bdb-4b82-aa65-0d49f9305afa","system_id":"levelo_inurba_marseille","lat":43.31493,"lon":5.37294,"is_reserved":false,"is_disabled":false,"rental_uris":{"android":"levelo://app?vid=4ed19bc5-9bdb-4b82-aa65-0d49f9305afa","ios":"levelo://app?vid=4ed19bc5-9bdb-4b82-aa65-0d49f9305afa"},"vehicle_type_id":"4","last_reported":1738098498,"current_range_meters":38800,"station_id":"ce4bgt12rcd13ifvqcd0","pricing_plan_id":"cebpf4jnsgd1na2vs0mg"},{"bike_id":"fff6f411-d2ed-4224-887f-e6e7eadfc1b7","system_id":"levelo_inurba_marseille","lat":43.3133,"lon":5.396917,"is_reserved":false,"is_disabled":false,"rental_uris":{"android":"levelo://app?vid=fff6f411-d2ed-4224-887f-e6e7eadfc1b7","ios":"levelo://app?vid=fff6f411-d2ed-4224-887f-e6e7eadfc1b7"},"vehicle_type_id":"4","last_reported":1738098498,"current_range_meters":36400,"station_id":"ce4bgvp2rcd13ifvqcu0","pricing_plan_id":"cebpf4jnsgd1na2vs0mg"},{"bike_id":"6cd0b06a-4ef8-4f2a-8edd-d51a1fbf261c","system_id":"levelo_inurba_marseille","lat":43.25122,"lon":5.40315,"is_reserved":false,"is_disabled":false,"rental_uris":{"android":"levelo://app?vid=6cd0b06a-4ef8-4f2a-8edd-d51a1fbf261c","ios":"levelo://app?vid=6cd0b06a-4ef8-4f2a-8edd-d51a1fbf261c"},"vehicle_type_id":"4","last_reported":1738098498,"current_range_meters":17200,"station_id":"ce4bhlh2rcd13ifvqgig","pricing_plan_id":"cebpf4jnsgd1na2vs0mg"},{"bike_id":"5b3233ab-dded-42d1-a805-3278eb23fcd8","system_id":"levelo_inurba_marseille","lat":43.30199,"lon":5.36622,"is_reserved":false,"is_disabled":true,"rental_uris":{"android":"levelo://app?vid=5b3233ab-dded-42d1-a805-3278eb23fcd8","ios":"levelo://app?vid=5b3233ab-dded-42d1-a805-3278eb23fcd8"},"vehicle_type_id":"4","last_reported":1738098498,"current_range_meters":38800,"station_id":"ce4bgrh2rcd13ifvqc8g","pricing_plan_id":"cebpf4jnsgd1na2vs0mg"},{"bike_id":"49b7cb3a-0d2a-43f1-a940-c576b926c3b9","system_id":"levelo_inurba_marseille","lat":43.29531,"lon":5.38547,"is_reserved":false,"is_disabled":false,"rental_uris":{"android":"levelo://app?vid=49b7cb3a-0d2a-43f1-a940-c576b926c3b9","ios":"levelo://app?vid=49b7cb3a-0d2a-43f1-a940-c576b926c3b9"},"vehicle_type_id":"4","last_reported":1738098498,"current_range_meters":18800,"station_id":"ce4bgih2rcd13ifvqba0","pricing_plan_id":"cebpf4jnsgd1na2vs0mg"},{"bike_id":"165cefd3-aba0-463c-ba0d-d46d8e704fee","system_id":"levelo_inurba_marseille","lat":43.27987,"lon":5.40018,"is_reserved":false,"is_disabled":false,"rental_uris":{"android":"levelo://app?vid=165cefd3-aba0-463c-ba0d-d46d8e704fee","ios":"levelo://app?vid=165cefd3-aba0-463c-ba0d-d46d8e704fee"},"vehicle_type_id":"4","last_reported":1738098498,"current_range_meters":11600,"station_id":"ce4bho92rcd13ifvqh4g","pricing_plan_id":"cebpf4jnsgd1na2vs0mg"},{"bike_id":"e730b719-c3ce-4703-8a3d-4e97ddcef0b4","system_id":"levelo_inurba_marseille","lat":43.27009,"lon":5.38176,"is_reserved":false,"is_disabled":false,"rental_uris":{"android":"levelo://app?vid=e730b719-c3ce-4703-8a3d-4e97ddcef0b4","ios":"levelo://app?vid=e730b719-c3ce-4703-8a3d-4e97ddcef0b4"},"vehicle_type_id":"4","last_reported":1738098498,"current_range_meters":16400,"station_id":"ce4bha12rcd13ifvqee0","pricing_plan_id":"cebpf4jnsgd1na2vs0mg"},{"bike_id":"9838cc78-2b53-49d3-ae13-82df62c4fd64","system_id":"levelo_inurba_marseille","lat":43.28412,"lon":5.40934,"is_reserved":false,"is_disabled":true,"rental_uris":{"android":"levelo://app?vid=9838cc78-2b53-49d3-ae13-82df62c4fd64","ios":"levelo://app?vid=9838cc78-2b53-49d3-ae13-82df62c4fd64"},"vehicle_type_id":"4","last_reported":1738098498,"current_range_meters":0,"station_id":"","pricing_plan_id":"cebpf4jnsgd1na2vs0mg"},{"bike_id":"11f70921-b04a-4cdd-83e2-24b869bfe246","system_id":"levelo_inurba_marseille","lat":43.28968,"lon":5.37842,"is_reserved":false,"is_disabled":true,"rental_uris":{"android":"levelo://app?vid=11f70921-b04a-4cdd-83e2-24b869bfe246","ios":"levelo://app?vid=11f70921-b04a-4cdd-83e2-24b869bfe246"},"vehicle_type_id":"4","last_reported":1738098498,"current_range_meters":38800,"station_id":"ce4bh9p2rcd13ifvqed0","pricing_plan_id":"cebpf4jnsgd1na2vs0mg"},{"bike_id":"61ac3e69-6b09-41d4-a1b8-84745cc43cb7","system_id":"levelo_inurba_marseille","lat":43.2319,"lon":5.39977,"is_reserved":false,"is_disabled":false,"rental_uris":{"android":"levelo://app?vid=61ac3e69-6b09-41d4-a1b8-84745cc43cb7","ios":"levelo://app?vid=61ac3e69-6b09-41d4-a1b8-84745cc43cb7"},"vehicle_type_id":"4","last_reported":1738098498,"current_range_meters":36000,"station_id":"ce4bhn12rcd13ifvqgqg","pricing_plan_id":"cebpf4jnsgd1na2vs0mg"},{"bike_id":"44d70056-f722-4d8f-80f9-afd89c389591","system_id":"levelo_inurba_marseille","lat":43.3302,"lon":5.39043,"is_reserved":false,"is_disabled":false,"rental_uris":{"android":"levelo://app?vid=44d70056-f722-4d8f-80f9-afd89c389591","ios":"levelo://app?vid=44d70056-f722-4d8f-80f9-afd89c389591"},"vehicle_type_id":"4","last_reported":1738098498,"current_range_meters":20000,"station_id":"ce4bhr92rcd13ifvqhrg","pricing_plan_id":"cebpf4jnsgd1na2vs0mg"},{"bike_id":"cb4b9878-96ef-4892-8d93-336dc7a1cc89","system_id":"levelo_inurba_marseille","lat":43.34028,"lon":5.35367,"is_reserved":false,"is_disabled":false,"rental_uris":{"android":"levelo://app?vid=cb4b9878-96ef-4892-8d93-336dc7a1cc89","ios":"levelo://app?vid=cb4b9878-96ef-4892-8d93-336dc7a1cc89"},"vehicle_type_id":"4","last_reported":1738098498,"current_range_meters":35200,"station_id":"","pricing_plan_id":"cebpf4jnsgd1na2vs0mg"},{"bike_id":"58101d95-a4cf-4bac-9526-961f9b76b2f5","system_id":"levelo_inurba_marseille","lat":43.30801,"lon":5.43526,"is_reserved":false,"is_disabled":false,"rental_uris":{"android":"levelo://app?vid=58101d95-a4cf-4bac-9526-961f9b76b2f5","ios":"levelo://app?vid=58101d95-a4cf-4bac-9526-961f9b76b2f5"},"vehicle_type_id":"4","last_reported":1738098498,"current_range_meters":32000,"station_id":"ce4bhph2rcd13ifvqheg","pricing_plan_id":"cebpf4jnsgd1na2vs0mg"},{"bike_id":"cebc1cc3-2475-48cb-aa41-05d47858d44e","system_id":"levelo_inurba_marseille","lat":43.2991,"lon":5.43647,"is_reserved":false,"is_disabled":false,"rental_uris":{"android":"levelo://app?vid=cebc1cc3-2475-48cb-aa41-05d47858d44e","ios":"levelo://app?vid=cebc1cc3-2475-48cb-aa41-05d47858d44e"},"vehicle_type_id":"4","last_reported":1738098498,"current_range_meters":28800,"station_id":"ce4bhpp2rcd13ifvqhfg","pricing_plan_id":"cebpf4jnsgd1na2vs0mg"},{"bike_id":"c17a6520-159f-4b2f-9306-57c135ccb1a0","system_id":"levelo_inurba_marseille","lat":43.29264,"lon":5.38451,"is_reserved":false,"is_disabled":false,"rental_uris":{"android":"levelo://app?vid=c17a6520-159f-4b2f-9306-57c135ccb1a0","ios":"levelo://app?vid=c17a6520-159f-4b2f-9306-57c135ccb1a0"},"vehicle_type_id":"4","last_reported":1738098498,"current_range_meters":24400,"station_id":"ce4bh692rcd13ifvqea0","pricing_plan_id":"cebpf4jnsgd1na2vs0mg"},{"bike_id":"8d198b1c-d183-4e75-867d-bee140abe05c","system_id":"levelo_inurba_marseille","lat":43.30817,"lon":5.43521,"is_reserved":false,"is_disabled":false,"rental_uris":{"android":"levelo://app?vid=8d198b1c-d183-4e75-867d-bee140abe05c","ios":"levelo://app?vid=8d198b1c-d183-4e75-867d-bee140abe05c"},"vehicle_type_id":"4","last_reported":1738098498,"current_range_meters":16000,"station_id":"ce4bhph2rcd13ifvqheg","pricing_plan_id":"cebpf4jnsgd1na2vs0mg"},{"bike_id":"2d364341-f0f7-4a8d-b2a4-ab9f71d7866c","system_id":"levelo_inurba_marseille","lat":43.292,"lon":5.39322,"is_reserved":false,"is_disabled":false,"rental_uris":{"android":"levelo://app?vid=2d364341-f0f7-4a8d-b2a4-ab9f71d7866c","ios":"levelo://app?vid=2d364341-f0f7-4a8d-b2a4-ab9f71d7866c"},"vehicle_type_id":"4","last_reported":1738098498,"current_range_meters":30400,"station_id":"ce4bh192rcd13ifvqdd0","pricing_plan_id":"cebpf4jnsgd1na2vs0mg"},{"bike_id":"1bd43cf7-915c-4655-8ec8-429536dd8909","system_id":"levelo_inurba_marseille","lat":43.317229,"lon":5.423889,"is_reserved":false,"is_disabled":false,"rental_uris":{"android":"levelo://app?vid=1bd43cf7-915c-4655-8ec8-429536dd8909","ios":"levelo://app?vid=1bd43cf7-915c-4655-8ec8-429536dd8909"},"vehicle_type_id":"4","last_reported":1738098498,"current_range_meters":34000,"station_id":"ce4bhp92rcd13ifvqhbg","pricing_plan_id":"cebpf4jnsgd1na2vs0mg"},{"bike_id":"2fc6aff4-93b6-4668-ad28-8c3f271862ad","system_id":"levelo_inurba_marseille","lat":43.26556,"lon":5.37277,"is_reserved":false,"is_disabled":false,"rental_uris":{"android":"levelo://app?vid=2fc6aff4-93b6-4668-ad28-8c3f271862ad","ios":"levelo://app?vid=2fc6aff4-93b6-4668-ad28-8c3f271862ad"},"vehicle_type_id":"4","last_reported":1738098498,"current_range_meters":14400,"station_id":"ce4bhg12rcd13ifvqf70","pricing_plan_id":"cebpf4jnsgd1na2vs0mg"},{"bike_id":"10d867d0-346b-4268-b4c3-60fd5321132c","system_id":"levelo_inurba_marseille","lat":43.29416,"lon":5.38623,"is_reserved":false,"is_disabled":false,"rental_uris":{"android":"levelo://app?vid=10d867d0-346b-4268-b4c3-60fd5321132c","ios":"levelo://app?vid=10d867d0-346b-4268-b4c3-60fd5321132c"},"vehicle_type_id":"4","last_reported":1738098498,"current_range_meters":21600,"station_id":"ce4bh2h2rcd13ifvqdh0","pricing_plan_id":"cebpf4jnsgd1na2vs0mg"},{"bike_id":"269eea7b-f0ec-4ee8-9140-13cdab06674c","system_id":"levelo_inurba_marseille","lat":43.31067,"lon":5.38355,"is_reserved":false,"is_disabled":false,"rental_uris":{"android":"levelo://app?vid=269eea7b-f0ec-4ee8-9140-13cdab06674c","ios":"levelo://app?vid=269eea7b-f0ec-4ee8-9140-13cdab06674c"},"vehicle_type_id":"4","last_reported":1738098498,"current_range_meters":34000,"station_id":"ce4bgv92rcd13ifvqcr0","pricing_plan_id":"cebpf4jnsgd1na2vs0mg"},{"bike_id":"2e0a8b86-b457-48a0-8577-213b01080398","system_id":"levelo_inurba_marseille","lat":43.23195,"lon":5.35545,"is_reserved":false,"is_disabled":false,"rental_uris":{"android":"levelo://app?vid=2e0a8b86-b457-48a0-8577-213b01080398","ios":"levelo://app?vid=2e0a8b86-b457-48a0-8577-213b01080398"},"vehicle_type_id":"4","last_reported":1738098498,"current_range_meters":38800,"station_id":"ce4bhu92rcd13ifvqi70","pricing_plan_id":"cebpf4jnsgd1na2vs0mg"},{"bike_id":"5804285d-81c3-4ebe-a786-d954b5f1b298","system_id":"levelo_inurba_marseille","lat":43.330222,"lon":5.390357,"is_reserved":false,"is_disabled":false,"rental_uris":{"android":"levelo://app?vid=5804285d-81c3-4ebe-a786-d954b5f1b298","ios":"levelo://app?vid=5804285d-81c3-4ebe-a786-d954b5f1b298"},"vehicle_type_id":"4","last_reported":1738098498,"current_range_meters":38800,"station_id":"ce4bhr92rcd13ifvqhrg","pricing_plan_id":"cebpf4jnsgd1na2vs0mg"},{"bike_id":"a277d5ba-79dc-4980-ae8c-8d090716a0b3","system_id":"levelo_inurba_marseille","lat":43.27972,"lon":5.3872,"is_reserved":false,"is_disabled":true,"rental_uris":{"android":"levelo://app?vid=a277d5ba-79dc-4980-ae8c-8d090716a0b3","ios":"levelo://app?vid=a277d5ba-79dc-4980-ae8c-8d090716a0b3"},"vehicle_type_id":"4","last_reported":1738098498,"current_range_meters":0,"station_id":"ce4bhg12rcd13ifvqf80","pricing_plan_id":"cebpf4jnsgd1na2vs0mg"},{"bike_id":"d979d8d2-ec65-47af-9229-e4270aab279a","system_id":"levelo_inurba_marseille","lat":43.23059,"lon":5.35495,"is_reserved":false,"is_disabled":false,"rental_uris":{"android":"levelo://app?vid=d979d8d2-ec65-47af-9229-e4270aab279a","ios":"levelo://app?vid=d979d8d2-ec65-47af-9229-e4270aab279a"},"vehicle_type_id":"4","last_reported":1738098498,"current_range_meters":22800,"station_id":"cpo3342slgdg3j2ifvpg","pricing_plan_id":"cebpf4jnsgd1na2vs0mg"},{"bike_id":"beec82ff-6bac-4064-befa-4bdf4421761b","system_id":"levelo_inurba_marseille","lat":43.3172,"lon":5.42384,"is_reserved":false,"is_disabled":false,"rental_uris":{"android":"levelo://app?vid=beec82ff-6bac-4064-befa-4bdf4421761b","ios":"levelo://app?vid=beec82ff-6bac-4064-befa-4bdf4421761b"},"vehicle_type_id":"4","last_reported":1738098498,"current_range_meters":6800,"station_id":"ce4bhp92rcd13ifvqhbg","pricing_plan_id":"cebpf4jnsgd1na2vs0mg"},{"bike_id":"22d31f87-465c-41a2-9e72-62eb49b5f60f","system_id":"levelo_inurba_marseille","lat":43.309,"lon":5.36885,"is_reserved":false,"is_disabled":true,"rental_uris":{"android":"levelo://app?vid=22d31f87-465c-41a2-9e72-62eb49b5f60f","ios":"levelo://app?vid=22d31f87-465c-41a2-9e72-62eb49b5f60f"},"vehicle_type_id":"4","last_reported":1738098498,"current_range_meters":38800,"station_id":"ce4bgn92rcd13ifvqbvg","pricing_plan_id":"cebpf4jnsgd1na2vs0mg"},{"bike_id":"784bccce-d998-49c5-aad0-61143a45a92b","system_id":"levelo_inurba_marseille","lat":43.28851,"lon":5.39298,"is_reserved":false,"is_disabled":false,"rental_uris":{"android":"levelo://app?vid=784bccce-d998-49c5-aad0-61143a45a92b","ios":"levelo://app?vid=784bccce-d998-49c5-aad0-61143a45a92b"},"vehicle_type_id":"4","last_reported":1738098498,"current_range_meters":22800,"station_id":"ce4bh2p2rcd13ifvqdi0","pricing_plan_id":"cebpf4jnsgd1na2vs0mg"},{"bike_id":"e314177d-fabd-43cd-a8a0-48ed9ea43f83","system_id":"levelo_inurba_marseille","lat":43.28848,"lon":5.39306,"is_reserved":false,"is_disabled":false,"rental_uris":{"android":"levelo://app?vid=e314177d-fabd-43cd-a8a0-48ed9ea43f83","ios":"levelo://app?vid=e314177d-fabd-43cd-a8a0-48ed9ea43f83"},"vehicle_type_id":"4","last_reported":1738098498,"current_range_meters":35200,"station_id":"ce4bh2p2rcd13ifvqdi0","pricing_plan_id":"cebpf4jnsgd1na2vs0mg"},{"bike_id":"69cb6892-3180-437b-9e22-9009d261eb4f","system_id":"levelo_inurba_marseille","lat":43.28847,"lon":5.39339,"is_reserved":false,"is_disabled":false,"rental_uris":{"android":"levelo://app?vid=69cb6892-3180-437b-9e22-9009d261eb4f","ios":"levelo://app?vid=69cb6892-3180-437b-9e22-9009d261eb4f"},"vehicle_type_id":"4","last_reported":1738098498,"current_range_meters":9600,"station_id":"ce4bh2p2rcd13ifvqdi0","pricing_plan_id":"cebpf4jnsgd1na2vs0mg"},{"bike_id":"c92f3ed1-1832-45b1-95ae-e066a3c304bb","system_id":"levelo_inurba_marseille","lat":43.33023,"lon":5.39034,"is_reserved":false,"is_disabled":false,"rental_uris":{"android":"levelo://app?vid=c92f3ed1-1832-45b1-95ae-e066a3c304bb","ios":"levelo://app?vid=c92f3ed1-1832-45b1-95ae-e066a3c304bb"},"vehicle_type_id":"4","last_reported":1738098498,"current_range_meters":37600,"station_id":"ce4bhr92rcd13ifvqhrg","pricing_plan_id":"cebpf4jnsgd1na2vs0mg"},{"bike_id":"b56c5d17-83f4-4168-9ac5-5fc63059ecc1","system_id":"levelo_inurba_marseille","lat":43.29569,"lon":5.39966,"is_reserved":false,"is_disabled":false,"rental_uris":{"android":"levelo://app?vid=b56c5d17-83f4-4168-9ac5-5fc63059ecc1","ios":"levelo://app?vid=b56c5d17-83f4-4168-9ac5-5fc63059ecc1"},"vehicle_type_id":"4","last_reported":1738098498,"current_range_meters":27600,"station_id":"ce4bh312rcd13ifvqdj0","pricing_plan_id":"cebpf4jnsgd1na2vs0mg"},{"bike_id":"87e38ff3-c8f7-4c54-8bf8-14d771da3e66","system_id":"levelo_inurba_marseille","lat":43.31723,"lon":5.42397,"is_reserved":false,"is_disabled":false,"rental_uris":{"android":"levelo://app?vid=87e38ff3-c8f7-4c54-8bf8-14d771da3e66","ios":"levelo://app?vid=87e38ff3-c8f7-4c54-8bf8-14d771da3e66"},"vehicle_type_id":"4","last_reported":1738098498,"current_range_meters":14800,"station_id":"ce4bhp92rcd13ifvqhbg","pricing_plan_id":"cebpf4jnsgd1na2vs0mg"},{"bike_id":"75214a19-3086-4aab-8ba6-a177978da634","system_id":"levelo_inurba_marseille","lat":43.29894,"lon":5.43671,"is_reserved":false,"is_disabled":false,"rental_uris":{"android":"levelo://app?vid=75214a19-3086-4aab-8ba6-a177978da634","ios":"levelo://app?vid=75214a19-3086-4aab-8ba6-a177978da634"},"vehicle_type_id":"4","last_reported":1738098498,"current_range_meters":35600,"station_id":"ce4bhpp2rcd13ifvqhfg","pricing_plan_id":"cebpf4jnsgd1na2vs0mg"},{"bike_id":"d8b1c3f9-ff6e-4179-8423-4ba0d2a2af0e","system_id":"levelo_inurba_marseille","lat":43.33727,"lon":5.39174,"is_reserved":false,"is_disabled":false,"rental_uris":{"android":"levelo://app?vid=d8b1c3f9-ff6e-4179-8423-4ba0d2a2af0e","ios":"levelo://app?vid=d8b1c3f9-ff6e-4179-8423-4ba0d2a2af0e"},"vehicle_type_id":"4","last_reported":1738098498,"current_range_meters":38800,"station_id":"ce4bhr92rcd13ifvqhsg","pricing_plan_id":"cebpf4jnsgd1na2vs0mg"},{"bike_id":"ec4e1b41-004b-4ba0-8815-2155424efc7c","system_id":"levelo_inurba_marseille","lat":43.26054,"lon":5.39407,"is_reserved":false,"is_disabled":false,"rental_uris":{"android":"levelo://app?vid=ec4e1b41-004b-4ba0-8815-2155424efc7c","ios":"levelo://app?vid=ec4e1b41-004b-4ba0-8815-2155424efc7c"},"vehicle_type_id":"4","last_reported":1738098498,"current_range_meters":14800,"station_id":"ce4bhh92rcd13ifvqfj0","pricing_plan_id":"cebpf4jnsgd1na2vs0mg"},{"bike_id":"b5409e27-250f-4525-8058-ef21c8db7076","system_id":"levelo_inurba_marseille","lat":43.27367,"lon":5.36249,"is_reserved":false,"is_disabled":false,"rental_uris":{"android":"levelo://app?vid=b5409e27-250f-4525-8058-ef21c8db7076","ios":"levelo://app?vid=b5409e27-250f-4525-8058-ef21c8db7076"},"vehicle_type_id":"4","last_reported":1738098498,"current_range_meters":24400,"station_id":"ce4bhbh2rcd13ifvqeo0","pricing_plan_id":"cebpf4jnsgd1na2vs0mg"},{"bike_id":"ddeeb021-3aa5-4692-ac65-d696b9db8d28","system_id":"levelo_inurba_marseille","lat":43.33023,"lon":5.39015,"is_reserved":false,"is_disabled":false,"rental_uris":{"android":"levelo://app?vid=ddeeb021-3aa5-4692-ac65-d696b9db8d28","ios":"levelo://app?vid=ddeeb021-3aa5-4692-ac65-d696b9db8d28"},"vehicle_type_id":"4","last_reported":1738098498,"current_range_meters":38400,"station_id":"ce4bhr92rcd13ifvqhrg","pricing_plan_id":"cebpf4jnsgd1na2vs0mg"},{"bike_id":"c4ded917-ed6a-4614-820c-ba2a757f778f","system_id":"levelo_inurba_marseille","lat":43.28062,"lon":5.39634,"is_reserved":false,"is_disabled":false,"rental_uris":{"android":"levelo://app?vid=c4ded917-ed6a-4614-820c-ba2a757f778f","ios":"levelo://app?vid=c4ded917-ed6a-4614-820c-ba2a757f778f"},"vehicle_type_id":"4","last_reported":1738098498,"current_range_meters":39200,"station_id":"ce4bho12rcd13ifvqh2g","pricing_plan_id":"cebpf4jnsgd1na2vs0mg"},{"bike_id":"df246887-6ea4-401b-b1c5-149bfd21ae45","system_id":"levelo_inurba_marseille","lat":43.3107,"lon":5.40089,"is_reserved":false,"is_disabled":false,"rental_uris":{"android":"levelo://app?vid=df246887-6ea4-401b-b1c5-149bfd21ae45","ios":"levelo://app?vid=df246887-6ea4-401b-b1c5-149bfd21ae45"},"vehicle_type_id":"4","last_reported":1738098498,"current_range_meters":18000,"station_id":"","pricing_plan_id":"cebpf4jnsgd1na2vs0mg"},{"bike_id":"ee1a29b5-bf27-4ed4-80ab-8de86681f638","system_id":"levelo_inurba_marseille","lat":43.28622,"lon":5.35102,"is_reserved":false,"is_disabled":false,"rental_uris":{"android":"levelo://app?vid=ee1a29b5-bf27-4ed4-80ab-8de86681f638","ios":"levelo://app?vid=ee1a29b5-bf27-4ed4-80ab-8de86681f638"},"vehicle_type_id":"4","last_reported":1738098498,"current_range_meters":38000,"station_id":"ce4bhch2rcd13ifvqeug","pricing_plan_id":"cebpf4jnsgd1na2vs0mg"},{"bike_id":"3c9c9088-9c27-4609-bc62-8218c0dc2be8","system_id":"levelo_inurba_marseille","lat":43.23198,"lon":5.35563,"is_reserved":false,"is_disabled":false,"rental_uris":{"android":"levelo://app?vid=3c9c9088-9c27-4609-bc62-8218c0dc2be8","ios":"levelo://app?vid=3c9c9088-9c27-4609-bc62-8218c0dc2be8"},"vehicle_type_id":"4","last_reported":1738098498,"current_range_meters":31200,"station_id":"ce4bhu92rcd13ifvqi70","pricing_plan_id":"cebpf4jnsgd1na2vs0mg"},{"bike_id":"8841e318-08e5-4f99-b8cb-ed847086d135","system_id":"levelo_inurba_marseille","lat":43.29447,"lon":5.39747,"is_reserved":false,"is_disabled":false,"rental_uris":{"android":"levelo://app?vid=8841e318-08e5-4f99-b8cb-ed847086d135","ios":"levelo://app?vid=8841e318-08e5-4f99-b8cb-ed847086d135"},"vehicle_type_id":"4","last_reported":1738098498,"current_range_meters":34000,"station_id":"ce4bh3h2rcd13ifvqdo0","pricing_plan_id":"cebpf4jnsgd1na2vs0mg"},{"bike_id":"1672a0cd-2a68-4581-bf36-fe2b0d644157","system_id":"levelo_inurba_marseille","lat":43.2843,"lon":5.39173,"is_reserved":false,"is_disabled":false,"rental_uris":{"android":"levelo://app?vid=1672a0cd-2a68-4581-bf36-fe2b0d644157","ios":"levelo://app?vid=1672a0cd-2a68-4581-bf36-fe2b0d644157"},"vehicle_type_id":"4","last_reported":1738098498,"current_range_meters":36400,"station_id":"ce4bhoh2rcd13ifvqh5g","pricing_plan_id":"cebpf4jnsgd1na2vs0mg"},{"bike_id":"65d2e0d4-fa4f-4b0f-ad43-f22b8a0c4c38","system_id":"levelo_inurba_marseille","lat":43.30496,"lon":5.37901,"is_reserved":false,"is_disabled":true,"rental_uris":{"android":"levelo://app?vid=65d2e0d4-fa4f-4b0f-ad43-f22b8a0c4c38","ios":"levelo://app?vid=65d2e0d4-fa4f-4b0f-ad43-f22b8a0c4c38"},"vehicle_type_id":"4","last_reported":1738098498,"current_range_meters":0,"station_id":"ce4bgup2rcd13ifvqcn0","pricing_plan_id":"cebpf4jnsgd1na2vs0mg"},{"bike_id":"2070f1a1-c99f-41bd-9455-3e94630d9548","system_id":"levelo_inurba_marseille","lat":43.288477,"lon":5.365004,"is_reserved":false,"is_disabled":false,"rental_uris":{"android":"levelo://app?vid=2070f1a1-c99f-41bd-9455-3e94630d9548","ios":"levelo://app?vid=2070f1a1-c99f-41bd-9455-3e94630d9548"},"vehicle_type_id":"4","last_reported":1738098498,"current_range_meters":22000,"station_id":"","pricing_plan_id":"cebpf4jnsgd1na2vs0mg"},{"bike_id":"15af56a0-50cc-4287-938a-57061c15f0c6","system_id":"levelo_inurba_marseille","lat":43.33018,"lon":5.39025,"is_reserved":false,"is_disabled":false,"rental_uris":{"android":"levelo://app?vid=15af56a0-50cc-4287-938a-57061c15f0c6","ios":"levelo://app?vid=15af56a0-50cc-4287-938a-57061c15f0c6"},"vehicle_type_id":"4","last_reported":1738098498,"current_range_meters":34800,"station_id":"ce4bhr92rcd13ifvqhrg","pricing_plan_id":"cebpf4jnsgd1na2vs0mg"},{"bike_id":"ca9c9b90-ab08-4721-a324-2cac637ff6d9","system_id":"levelo_inurba_marseille","lat":43.308,"lon":5.38153,"is_reserved":false,"is_disabled":false,"rental_uris":{"android":"levelo://app?vid=ca9c9b90-ab08-4721-a324-2cac637ff6d9","ios":"levelo://app?vid=ca9c9b90-ab08-4721-a324-2cac637ff6d9"},"vehicle_type_id":"4","last_reported":1738098498,"current_range_meters":38000,"station_id":"ce4bgt12rcd13ifvqce0","pricing_plan_id":"cebpf4jnsgd1na2vs0mg"},{"bike_id":"ba714575-ff78-4e9f-977a-8929135fa104","system_id":"levelo_inurba_marseille","lat":43.30134,"lon":5.39863,"is_reserved":false,"is_disabled":false,"rental_uris":{"android":"levelo://app?vid=ba714575-ff78-4e9f-977a-8929135fa104","ios":"levelo://app?vid=ba714575-ff78-4e9f-977a-8929135fa104"},"vehicle_type_id":"4","last_reported":1738098498,"current_range_meters":30000,"station_id":"ce4bh0h2rcd13ifvqd40","pricing_plan_id":"cebpf4jnsgd1na2vs0mg"},{"bike_id":"5e4af79a-d2d9-4974-9bab-3f75dc2d9945","system_id":"levelo_inurba_marseille","lat":43.29421,"lon":5.38614,"is_reserved":false,"is_disabled":false,"rental_uris":{"android":"levelo://app?vid=5e4af79a-d2d9-4974-9bab-3f75dc2d9945","ios":"levelo://app?vid=5e4af79a-d2d9-4974-9bab-3f75dc2d9945"},"vehicle_type_id":"4","last_reported":1738098498,"current_range_meters":17600,"station_id":"ce4bh2h2rcd13ifvqdh0","pricing_plan_id":"cebpf4jnsgd1na2vs0mg"},{"bike_id":"7156cab0-668f-4557-a92c-f351fb294cd4","system_id":"levelo_inurba_marseille","lat":43.24397,"lon":5.37042,"is_reserved":false,"is_disabled":false,"rental_uris":{"android":"levelo://app?vid=7156cab0-668f-4557-a92c-f351fb294cd4","ios":"levelo://app?vid=7156cab0-668f-4557-a92c-f351fb294cd4"},"vehicle_type_id":"4","last_reported":1738098498,"current_range_meters":39200,"station_id":"ce4bhhh2rcd13ifvqfk0","pricing_plan_id":"cebpf4jnsgd1na2vs0mg"},{"bike_id":"53d46465-1c69-4274-9bb5-d6a4feb5e603","system_id":"levelo_inurba_marseille","lat":43.31367,"lon":5.36722,"is_reserved":false,"is_disabled":false,"rental_uris":{"android":"levelo://app?vid=53d46465-1c69-4274-9bb5-d6a4feb5e603","ios":"levelo://app?vid=53d46465-1c69-4274-9bb5-d6a4feb5e603"},"vehicle_type_id":"4","last_reported":1738098498,"current_range_meters":30000,"station_id":"ce4bgr92rcd13ifvqc6g","pricing_plan_id":"cebpf4jnsgd1na2vs0mg"},{"bike_id":"8bd10011-2cfa-4a5d-93cb-01e04119491a","system_id":"levelo_inurba_marseille","lat":43.32359,"lon":5.38883,"is_reserved":false,"is_disabled":false,"rental_uris":{"android":"levelo://app?vid=8bd10011-2cfa-4a5d-93cb-01e04119491a","ios":"levelo://app?vid=8bd10011-2cfa-4a5d-93cb-01e04119491a"},"vehicle_type_id":"4","last_reported":1738098498,"current_range_meters":16400,"station_id":"ce4bhqp2rcd13ifvqhog","pricing_plan_id":"cebpf4jnsgd1na2vs0mg"},{"bike_id":"062acaa4-8533-423f-9d09-91cd05437850","system_id":"levelo_inurba_marseille","lat":43.3302,"lon":5.39034,"is_reserved":false,"is_disabled":false,"rental_uris":{"android":"levelo://app?vid=062acaa4-8533-423f-9d09-91cd05437850","ios":"levelo://app?vid=062acaa4-8533-423f-9d09-91cd05437850"},"vehicle_type_id":"4","last_reported":1738098498,"current_range_meters":8800,"station_id":"ce4bhr92rcd13ifvqhrg","pricing_plan_id":"cebpf4jnsgd1na2vs0mg"},{"bike_id":"0928d7c6-291b-465e-a26d-59a12315b1a9","system_id":"levelo_inurba_marseille","lat":43.31329,"lon":5.39705,"is_reserved":false,"is_disabled":false,"rental_uris":{"android":"levelo://app?vid=0928d7c6-291b-465e-a26d-59a12315b1a9","ios":"levelo://app?vid=0928d7c6-291b-465e-a26d-59a12315b1a9"},"vehicle_type_id":"4","last_reported":1738098498,"current_range_meters":28800,"station_id":"ce4bgvp2rcd13ifvqcu0","pricing_plan_id":"cebpf4jnsgd1na2vs0mg"},{"bike_id":"731da263-a70c-4e1f-9833-f280ab9ff851","system_id":"levelo_inurba_marseille","lat":43.28731,"lon":5.37389,"is_reserved":false,"is_disabled":false,"rental_uris":{"android":"levelo://app?vid=731da263-a70c-4e1f-9833-f280ab9ff851","ios":"levelo://app?vid=731da263-a70c-4e1f-9833-f280ab9ff851"},"vehicle_type_id":"4","last_reported":1738098498,"current_range_meters":38800,"station_id":"ce4bh3p2rcd13ifvqdq0","pricing_plan_id":"cebpf4jnsgd1na2vs0mg"},{"bike_id":"ac928eed-dbf9-4385-9a81-80cba59e220e","system_id":"levelo_inurba_marseille","lat":43.29897,"lon":5.38915,"is_reserved":false,"is_disabled":false,"rental_uris":{"android":"levelo://app?vid=ac928eed-dbf9-4385-9a81-80cba59e220e","ios":"levelo://app?vid=ac928eed-dbf9-4385-9a81-80cba59e220e"},"vehicle_type_id":"4","last_reported":1738098498,"current_range_meters":30000,"station_id":"ce4bh392rcd13ifvqdl0","pricing_plan_id":"cebpf4jnsgd1na2vs0mg"},{"bike_id":"c004ae54-2ede-4268-b5e6-549048b57c37","system_id":"levelo_inurba_marseille","lat":43.28468,"lon":5.35892,"is_reserved":false,"is_disabled":false,"rental_uris":{"android":"levelo://app?vid=c004ae54-2ede-4268-b5e6-549048b57c37","ios":"levelo://app?vid=c004ae54-2ede-4268-b5e6-549048b57c37"},"vehicle_type_id":"4","last_reported":1738098498,"current_range_meters":38400,"station_id":"ce4bhah2rcd13ifvqei0","pricing_plan_id":"cebpf4jnsgd1na2vs0mg"},{"bike_id":"4055047e-0c4f-4698-b155-f0ccf6649608","system_id":"levelo_inurba_marseille","lat":43.29519,"lon":5.39394,"is_reserved":false,"is_disabled":true,"rental_uris":{"android":"levelo://app?vid=4055047e-0c4f-4698-b155-f0ccf6649608","ios":"levelo://app?vid=4055047e-0c4f-4698-b155-f0ccf6649608"},"vehicle_type_id":"4","last_reported":1738098498,"current_range_meters":29600,"station_id":"ce4bh292rcd13ifvqdf0","pricing_plan_id":"cebpf4jnsgd1na2vs0mg"},{"bike_id":"2256710f-428a-4b6c-afaf-f485da875c48","system_id":"levelo_inurba_marseille","lat":43.28638,"lon":5.35103,"is_reserved":false,"is_disabled":false,"rental_uris":{"android":"levelo://app?vid=2256710f-428a-4b6c-afaf-f485da875c48","ios":"levelo://app?vid=2256710f-428a-4b6c-afaf-f485da875c48"},"vehicle_type_id":"4","last_reported":1738098498,"current_range_meters":13600,"station_id":"ce4bhch2rcd13ifvqeug","pricing_plan_id":"cebpf4jnsgd1na2vs0mg"},{"bike_id":"ab2c796a-c23b-4a3a-9534-777b873d6a05","system_id":"levelo_inurba_marseille","lat":43.24152,"lon":5.36421,"is_reserved":false,"is_disabled":false,"rental_uris":{"android":"levelo://app?vid=ab2c796a-c23b-4a3a-9534-777b873d6a05","ios":"levelo://app?vid=ab2c796a-c23b-4a3a-9534-777b873d6a05"},"vehicle_type_id":"4","last_reported":1738098498,"current_range_meters":19200,"station_id":"cpo36qri1sfpv3e86is0","pricing_plan_id":"cebpf4jnsgd1na2vs0mg"},{"bike_id":"cf14396d-2607-4b74-b464-9bf8d326d05d","system_id":"levelo_inurba_marseille","lat":43.28904,"lon":5.36384,"is_reserved":false,"is_disabled":false,"rental_uris":{"android":"levelo://app?vid=cf14396d-2607-4b74-b464-9bf8d326d05d","ios":"levelo://app?vid=cf14396d-2607-4b74-b464-9bf8d326d05d"},"vehicle_type_id":"4","last_reported":1738098498,"current_range_meters":11200,"station_id":"ce4bhc92rcd13ifvqetg","pricing_plan_id":"cebpf4jnsgd1na2vs0mg"},{"bike_id":"d649c18e-0d3b-494a-b8ac-102dfa9b6b68","system_id":"levelo_inurba_marseille","lat":43.26568,"lon":5.37318,"is_reserved":false,"is_disabled":false,"rental_uris":{"android":"levelo://app?vid=d649c18e-0d3b-494a-b8ac-102dfa9b6b68","ios":"levelo://app?vid=d649c18e-0d3b-494a-b8ac-102dfa9b6b68"},"vehicle_type_id":"4","last_reported":1738098498,"current_range_meters":2800,"station_id":"ce4bhg12rcd13ifvqf70","pricing_plan_id":"cebpf4jnsgd1na2vs0mg"},{"bike_id":"787f4146-d570-4c2c-936b-74f37dc80718","system_id":"levelo_inurba_marseille","lat":43.25809,"lon":5.39392,"is_reserved":false,"is_disabled":false,"rental_uris":{"android":"levelo://app?vid=787f4146-d570-4c2c-936b-74f37dc80718","ios":"levelo://app?vid=787f4146-d570-4c2c-936b-74f37dc80718"},"vehicle_type_id":"4","last_reported":1738098498,"current_range_meters":28800,"station_id":"ce4bhip2rcd13ifvqft0","pricing_plan_id":"cebpf4jnsgd1na2vs0mg"},{"bike_id":"529f1ab7-390e-41c3-9180-30692697770e","system_id":"levelo_inurba_marseille","lat":43.28631,"lon":5.35096,"is_reserved":false,"is_disabled":false,"rental_uris":{"android":"levelo://app?vid=529f1ab7-390e-41c3-9180-30692697770e","ios":"levelo://app?vid=529f1ab7-390e-41c3-9180-30692697770e"},"vehicle_type_id":"4","last_reported":1738098498,"current_range_meters":11600,"station_id":"ce4bhch2rcd13ifvqeug","pricing_plan_id":"cebpf4jnsgd1na2vs0mg"},{"bike_id":"7e91c131-e561-4f7d-8496-0c121b252f9d","system_id":"levelo_inurba_marseille","lat":43.27996,"lon":5.40011,"is_reserved":false,"is_disabled":false,"rental_uris":{"android":"levelo://app?vid=7e91c131-e561-4f7d-8496-0c121b252f9d","ios":"levelo://app?vid=7e91c131-e561-4f7d-8496-0c121b252f9d"},"vehicle_type_id":"4","last_reported":1738098498,"current_range_meters":27600,"station_id":"ce4bho92rcd13ifvqh4g","pricing_plan_id":"cebpf4jnsgd1na2vs0mg"},{"bike_id":"24d4f5ef-361b-4b35-a071-0fe3b8f26f07","system_id":"levelo_inurba_marseille","lat":43.27493,"lon":5.42455,"is_reserved":false,"is_disabled":false,"rental_uris":{"android":"levelo://app?vid=24d4f5ef-361b-4b35-a071-0fe3b8f26f07","ios":"levelo://app?vid=24d4f5ef-361b-4b35-a071-0fe3b8f26f07"},"vehicle_type_id":"4","last_reported":1738098498,"current_range_meters":39200,"station_id":"ce4bhn92rcd13ifvqgrg","pricing_plan_id":"cebpf4jnsgd1na2vs0mg"},{"bike_id":"db044992-3250-4510-8cf9-faa44eccf4c7","system_id":"levelo_inurba_marseille","lat":43.279472,"lon":5.410377,"is_reserved":false,"is_disabled":false,"rental_uris":{"android":"levelo://app?vid=db044992-3250-4510-8cf9-faa44eccf4c7","ios":"levelo://app?vid=db044992-3250-4510-8cf9-faa44eccf4c7"},"vehicle_type_id":"4","last_reported":1738098498,"current_range_meters":24800,"station_id":"ce4bhnp2rcd13ifvqh0g","pricing_plan_id":"cebpf4jnsgd1na2vs0mg"},{"bike_id":"b539d7ec-8a8e-42db-88da-6134ef5eb529","system_id":"levelo_inurba_marseille","lat":43.29002,"lon":5.35596,"is_reserved":false,"is_disabled":false,"rental_uris":{"android":"levelo://app?vid=b539d7ec-8a8e-42db-88da-6134ef5eb529","ios":"levelo://app?vid=b539d7ec-8a8e-42db-88da-6134ef5eb529"},"vehicle_type_id":"4","last_reported":1738098498,"current_range_meters":28000,"station_id":"ce4bhb92rcd13ifvqen0","pricing_plan_id":"cebpf4jnsgd1na2vs0mg"},{"bike_id":"cbacff53-b569-4358-8d11-4b56096865df","system_id":"levelo_inurba_marseille","lat":43.30803,"lon":5.43516,"is_reserved":false,"is_disabled":false,"rental_uris":{"android":"levelo://app?vid=cbacff53-b569-4358-8d11-4b56096865df","ios":"levelo://app?vid=cbacff53-b569-4358-8d11-4b56096865df"},"vehicle_type_id":"4","last_reported":1738098498,"current_range_meters":18000,"station_id":"ce4bhph2rcd13ifvqheg","pricing_plan_id":"cebpf4jnsgd1na2vs0mg"},{"bike_id":"b9fff1ad-2509-4856-a182-57d9dc6d3c57","system_id":"levelo_inurba_marseille","lat":43.30212,"lon":5.39459,"is_reserved":false,"is_disabled":false,"rental_uris":{"android":"levelo://app?vid=b9fff1ad-2509-4856-a182-57d9dc6d3c57","ios":"levelo://app?vid=b9fff1ad-2509-4856-a182-57d9dc6d3c57"},"vehicle_type_id":"4","last_reported":1738098498,"current_range_meters":39200,"station_id":"ce4bh0p2rcd13ifvqd70","pricing_plan_id":"cebpf4jnsgd1na2vs0mg"},{"bike_id":"aefa3b58-5280-4eb9-97ee-8c130e0aa227","system_id":"levelo_inurba_marseille","lat":43.28011,"lon":5.40001,"is_reserved":false,"is_disabled":false,"rental_uris":{"android":"levelo://app?vid=aefa3b58-5280-4eb9-97ee-8c130e0aa227","ios":"levelo://app?vid=aefa3b58-5280-4eb9-97ee-8c130e0aa227"},"vehicle_type_id":"4","last_reported":1738098498,"current_range_meters":17200,"station_id":"ce4bho92rcd13ifvqh4g","pricing_plan_id":"cebpf4jnsgd1na2vs0mg"},{"bike_id":"0cc10bbf-dc64-4848-973b-fd8a95a94afc","system_id":"levelo_inurba_marseille","lat":43.29072,"lon":5.3717,"is_reserved":false,"is_disabled":false,"rental_uris":{"android":"levelo://app?vid=0cc10bbf-dc64-4848-973b-fd8a95a94afc","ios":"levelo://app?vid=0cc10bbf-dc64-4848-973b-fd8a95a94afc"},"vehicle_type_id":"4","last_reported":1738098498,"current_range_meters":36800,"station_id":"ce4bh5p2rcd13ifvqe4g","pricing_plan_id":"cebpf4jnsgd1na2vs0mg"},{"bike_id":"4cebd9bc-60f1-469d-bbcb-9d840b15a223","system_id":"levelo_inurba_marseille","lat":43.30951,"lon":5.39036,"is_reserved":false,"is_disabled":false,"rental_uris":{"android":"levelo://app?vid=4cebd9bc-60f1-469d-bbcb-9d840b15a223","ios":"levelo://app?vid=4cebd9bc-60f1-469d-bbcb-9d840b15a223"},"vehicle_type_id":"4","last_reported":1738098498,"current_range_meters":31200,"station_id":"ce4bgup2rcd13ifvqco0","pricing_plan_id":"cebpf4jnsgd1na2vs0mg"},{"bike_id":"3afe2907-14fe-40b0-8ce8-247215ed16c8","system_id":"levelo_inurba_marseille","lat":43.26945,"lon":5.38923,"is_reserved":false,"is_disabled":true,"rental_uris":{"android":"levelo://app?vid=3afe2907-14fe-40b0-8ce8-247215ed16c8","ios":"levelo://app?vid=3afe2907-14fe-40b0-8ce8-247215ed16c8"},"vehicle_type_id":"4","last_reported":1738098498,"current_range_meters":8000,"station_id":"ce4bhhh2rcd13ifvqfl0","pricing_plan_id":"cebpf4jnsgd1na2vs0mg"},{"bike_id":"e8e1f7c6-d773-4c38-bfcc-4a6d773355ce","system_id":"levelo_inurba_marseille","lat":43.229332,"lon":5.353765,"is_reserved":false,"is_disabled":false,"rental_uris":{"android":"levelo://app?vid=e8e1f7c6-d773-4c38-bfcc-4a6d773355ce","ios":"levelo://app?vid=e8e1f7c6-d773-4c38-bfcc-4a6d773355ce"},"vehicle_type_id":"4","last_reported":1738098498,"current_range_meters":38800,"station_id":"cpo3532slgdg3j2ikp40","pricing_plan_id":"cebpf4jnsgd1na2vs0mg"},{"bike_id":"12fcadb7-05ad-46a0-8b01-299958c42265","system_id":"levelo_inurba_marseille","lat":43.24183,"lon":5.39725,"is_reserved":false,"is_disabled":false,"rental_uris":{"android":"levelo://app?vid=12fcadb7-05ad-46a0-8b01-299958c42265","ios":"levelo://app?vid=12fcadb7-05ad-46a0-8b01-299958c42265"},"vehicle_type_id":"4","last_reported":1738098498,"current_range_meters":20800,"station_id":"ce4bhn12rcd13ifvqgpg","pricing_plan_id":"cebpf4jnsgd1na2vs0mg"},{"bike_id":"7a2b5c92-2c81-405c-aac2-0f8b176b6a8c","system_id":"levelo_inurba_marseille","lat":43.25117,"lon":5.4033,"is_reserved":false,"is_disabled":false,"rental_uris":{"android":"levelo://app?vid=7a2b5c92-2c81-405c-aac2-0f8b176b6a8c","ios":"levelo://app?vid=7a2b5c92-2c81-405c-aac2-0f8b176b6a8c"},"vehicle_type_id":"4","last_reported":1738098498,"current_range_meters":36000,"station_id":"ce4bhlh2rcd13ifvqgig","pricing_plan_id":"cebpf4jnsgd1na2vs0mg"},{"bike_id":"cc26c524-9981-41d6-9e25-17cb40d9e550","system_id":"levelo_inurba_marseille","lat":43.248142,"lon":5.374567,"is_reserved":false,"is_disabled":false,"rental_uris":{"android":"levelo://app?vid=cc26c524-9981-41d6-9e25-17cb40d9e550","ios":"levelo://app?vid=cc26c524-9981-41d6-9e25-17cb40d9e550"},"vehicle_type_id":"4","last_reported":1738098498,"current_range_meters":25600,"station_id":"ce4bhgh2rcd13ifvqfb0","pricing_plan_id":"cebpf4jnsgd1na2vs0mg"},{"bike_id":"8b6a2e22-7314-494c-be31-0722e29d3f36","system_id":"levelo_inurba_marseille","lat":43.27988,"lon":5.40015,"is_reserved":false,"is_disabled":true,"rental_uris":{"android":"levelo://app?vid=8b6a2e22-7314-494c-be31-0722e29d3f36","ios":"levelo://app?vid=8b6a2e22-7314-494c-be31-0722e29d3f36"},"vehicle_type_id":"4","last_reported":1738098498,"current_range_meters":6400,"station_id":"ce4bho92rcd13ifvqh4g","pricing_plan_id":"cebpf4jnsgd1na2vs0mg"},{"bike_id":"8743709d-fe7b-4830-a439-3167981cb94d","system_id":"levelo_inurba_marseille","lat":43.29288,"lon":5.37437,"is_reserved":false,"is_disabled":false,"rental_uris":{"android":"levelo://app?vid=8743709d-fe7b-4830-a439-3167981cb94d","ios":"levelo://app?vid=8743709d-fe7b-4830-a439-3167981cb94d"},"vehicle_type_id":"4","last_reported":1738098498,"current_range_meters":14000,"station_id":"ce4bgi12rcd13ifvqb70","pricing_plan_id":"cebpf4jnsgd1na2vs0mg"},{"bike_id":"26c549dd-2ee5-4274-ae6e-bcc12a69942f","system_id":"levelo_inurba_marseille","lat":43.27993,"lon":5.40019,"is_reserved":false,"is_disabled":false,"rental_uris":{"android":"levelo://app?vid=26c549dd-2ee5-4274-ae6e-bcc12a69942f","ios":"levelo://app?vid=26c549dd-2ee5-4274-ae6e-bcc12a69942f"},"vehicle_type_id":"4","last_reported":1738098498,"current_range_meters":6800,"station_id":"ce4bho92rcd13ifvqh4g","pricing_plan_id":"cebpf4jnsgd1na2vs0mg"},{"bike_id":"dd195832-ff3f-4763-a260-74003ef7ff4c","system_id":"levelo_inurba_marseille","lat":43.29203,"lon":5.3604,"is_reserved":false,"is_disabled":true,"rental_uris":{"android":"levelo://app?vid=dd195832-ff3f-4763-a260-74003ef7ff4c","ios":"levelo://app?vid=dd195832-ff3f-4763-a260-74003ef7ff4c"},"vehicle_type_id":"4","last_reported":1738098498,"current_range_meters":36800,"station_id":"ce4bhbh2rcd13ifvqeqg","pricing_plan_id":"cebpf4jnsgd1na2vs0mg"},{"bike_id":"504dea5b-3c2a-489e-8275-d8db04b04cbd","system_id":"levelo_inurba_marseille","lat":43.28724,"lon":5.38434,"is_reserved":false,"is_disabled":false,"rental_uris":{"android":"levelo://app?vid=504dea5b-3c2a-489e-8275-d8db04b04cbd","ios":"levelo://app?vid=504dea5b-3c2a-489e-8275-d8db04b04cbd"},"vehicle_type_id":"4","last_reported":1738098498,"current_range_meters":36800,"station_id":"","pricing_plan_id":"cebpf4jnsgd1na2vs0mg"},{"bike_id":"ce8d2e7d-9589-48c0-bd6b-cfdf28ff366f","system_id":"levelo_inurba_marseille","lat":43.287,"lon":5.37346,"is_reserved":false,"is_disabled":false,"rental_uris":{"android":"levelo://app?vid=ce8d2e7d-9589-48c0-bd6b-cfdf28ff366f","ios":"levelo://app?vid=ce8d2e7d-9589-48c0-bd6b-cfdf28ff366f"},"vehicle_type_id":"4","last_reported":1738098498,"current_range_meters":17200,"station_id":"ce4bh3p2rcd13ifvqdq0","pricing_plan_id":"cebpf4jnsgd1na2vs0mg"},{"bike_id":"0ba66904-dc2a-45c6-8746-f6b15ae063ca","system_id":"levelo_inurba_marseille","lat":43.28936,"lon":5.36395,"is_reserved":false,"is_disabled":false,"rental_uris":{"android":"levelo://app?vid=0ba66904-dc2a-45c6-8746-f6b15ae063ca","ios":"levelo://app?vid=0ba66904-dc2a-45c6-8746-f6b15ae063ca"},"vehicle_type_id":"4","last_reported":1738098498,"current_range_meters":38800,"station_id":"ce4bhc92rcd13ifvqetg","pricing_plan_id":"cebpf4jnsgd1na2vs0mg"},{"bike_id":"aebd8095-8ef5-4afd-88d3-ca8d39be5cd0","system_id":"levelo_inurba_marseille","lat":43.28696,"lon":5.39982,"is_reserved":false,"is_disabled":false,"rental_uris":{"android":"levelo://app?vid=aebd8095-8ef5-4afd-88d3-ca8d39be5cd0","ios":"levelo://app?vid=aebd8095-8ef5-4afd-88d3-ca8d39be5cd0"},"vehicle_type_id":"4","last_reported":1738098498,"current_range_meters":7200,"station_id":"ce4bho92rcd13ifvqh3g","pricing_plan_id":"cebpf4jnsgd1na2vs0mg"},{"bike_id":"8a75c218-745e-4d5a-8531-47bf77bd2d40","system_id":"levelo_inurba_marseille","lat":43.24627,"lon":5.38921,"is_reserved":false,"is_disabled":false,"rental_uris":{"android":"levelo://app?vid=8a75c218-745e-4d5a-8531-47bf77bd2d40","ios":"levelo://app?vid=8a75c218-745e-4d5a-8531-47bf77bd2d40"},"vehicle_type_id":"4","last_reported":1738098498,"current_range_meters":30400,"station_id":"ce4bhg12rcd13ifvqf60","pricing_plan_id":"cebpf4jnsgd1na2vs0mg"},{"bike_id":"71f34f72-d3b7-46a5-9bd4-1fe057b3152f","system_id":"levelo_inurba_marseille","lat":43.22943,"lon":5.35386,"is_reserved":false,"is_disabled":false,"rental_uris":{"android":"levelo://app?vid=71f34f72-d3b7-46a5-9bd4-1fe057b3152f","ios":"levelo://app?vid=71f34f72-d3b7-46a5-9bd4-1fe057b3152f"},"vehicle_type_id":"4","last_reported":1738098498,"current_range_meters":38800,"station_id":"cpo3532slgdg3j2ikp40","pricing_plan_id":"cebpf4jnsgd1na2vs0mg"},{"bike_id":"754180fa-75b5-4e37-bdee-d689a877d3c4","system_id":"levelo_inurba_marseille","lat":43.29788,"lon":5.39335,"is_reserved":false,"is_disabled":false,"rental_uris":{"android":"levelo://app?vid=754180fa-75b5-4e37-bdee-d689a877d3c4","ios":"levelo://app?vid=754180fa-75b5-4e37-bdee-d689a877d3c4"},"vehicle_type_id":"4","last_reported":1738098498,"current_range_meters":32000,"station_id":"chh1huq6cuj3fo74tm60","pricing_plan_id":"cebpf4jnsgd1na2vs0mg"},{"bike_id":"20029bdd-9f9c-4ff9-86e4-5ba6ed30f46a","system_id":"levelo_inurba_marseille","lat":43.2315,"lon":5.43716,"is_reserved":false,"is_disabled":true,"rental_uris":{"android":"levelo://app?vid=20029bdd-9f9c-4ff9-86e4-5ba6ed30f46a","ios":"levelo://app?vid=20029bdd-9f9c-4ff9-86e4-5ba6ed30f46a"},"vehicle_type_id":"4","last_reported":1738098498,"current_range_meters":0,"station_id":"ce4bhmp2rcd13ifvqgog","pricing_plan_id":"cebpf4jnsgd1na2vs0mg"},{"bike_id":"a1e9ea9a-e681-4867-9abc-c1bdcd9eed05","system_id":"levelo_inurba_marseille","lat":43.29963,"lon":5.41321,"is_reserved":false,"is_disabled":false,"rental_uris":{"android":"levelo://app?vid=a1e9ea9a-e681-4867-9abc-c1bdcd9eed05","ios":"levelo://app?vid=a1e9ea9a-e681-4867-9abc-c1bdcd9eed05"},"vehicle_type_id":"4","last_reported":1738098498,"current_range_meters":25200,"station_id":"ce4bhp12rcd13ifvqh9g","pricing_plan_id":"cebpf4jnsgd1na2vs0mg"},{"bike_id":"c1709d9f-ce43-4fc8-94d2-255fa0787b9a","system_id":"levelo_inurba_marseille","lat":43.27621,"lon":5.36099,"is_reserved":false,"is_disabled":false,"rental_uris":{"android":"levelo://app?vid=c1709d9f-ce43-4fc8-94d2-255fa0787b9a","ios":"levelo://app?vid=c1709d9f-ce43-4fc8-94d2-255fa0787b9a"},"vehicle_type_id":"4","last_reported":1738098498,"current_range_meters":20800,"station_id":"ce4bgj92rcd13ifvqbe0","pricing_plan_id":"cebpf4jnsgd1na2vs0mg"},{"bike_id":"2e003583-b2a5-4f99-ba64-ee4456cc2f4c","system_id":"levelo_inurba_marseille","lat":43.26488,"lon":5.39562,"is_reserved":false,"is_disabled":false,"rental_uris":{"android":"levelo://app?vid=2e003583-b2a5-4f99-ba64-ee4456cc2f4c","ios":"levelo://app?vid=2e003583-b2a5-4f99-ba64-ee4456cc2f4c"},"vehicle_type_id":"4","last_reported":1738098498,"current_range_meters":36800,"station_id":"ce4bhi12rcd13ifvqfq0","pricing_plan_id":"cebpf4jnsgd1na2vs0mg"},{"bike_id":"a59f3d0b-557f-4121-a079-085a773d4368","system_id":"levelo_inurba_marseille","lat":43.30881,"lon":5.39636,"is_reserved":false,"is_disabled":false,"rental_uris":{"android":"levelo://app?vid=a59f3d0b-557f-4121-a079-085a773d4368","ios":"levelo://app?vid=a59f3d0b-557f-4121-a079-085a773d4368"},"vehicle_type_id":"4","last_reported":1738098498,"current_range_meters":38800,"station_id":"ce4bh012rcd13ifvqcv0","pricing_plan_id":"cebpf4jnsgd1na2vs0mg"},{"bike_id":"01c346e4-7211-4b0a-9252-8b8a59a9b82f","system_id":"levelo_inurba_marseille","lat":43.28856,"lon":5.35841,"is_reserved":false,"is_disabled":true,"rental_uris":{"android":"levelo://app?vid=01c346e4-7211-4b0a-9252-8b8a59a9b82f","ios":"levelo://app?vid=01c346e4-7211-4b0a-9252-8b8a59a9b82f"},"vehicle_type_id":"4","last_reported":1738098498,"current_range_meters":37600,"station_id":"ce4bhb12rcd13ifvqem0","pricing_plan_id":"cebpf4jnsgd1na2vs0mg"},{"bike_id":"2d76eec1-0b3b-4dbc-b00a-b439704973f7","system_id":"levelo_inurba_marseille","lat":43.29296,"lon":5.37458,"is_reserved":false,"is_disabled":false,"rental_uris":{"android":"levelo://app?vid=2d76eec1-0b3b-4dbc-b00a-b439704973f7","ios":"levelo://app?vid=2d76eec1-0b3b-4dbc-b00a-b439704973f7"},"vehicle_type_id":"4","last_reported":1738098498,"current_range_meters":36400,"station_id":"ce4bgi12rcd13ifvqb70","pricing_plan_id":"cebpf4jnsgd1na2vs0mg"},{"bike_id":"c1132413-fb6f-4b53-ab60-34a0c7b41d69","system_id":"levelo_inurba_marseille","lat":43.29915,"lon":5.37479,"is_reserved":false,"is_disabled":false,"rental_uris":{"android":"levelo://app?vid=c1132413-fb6f-4b53-ab60-34a0c7b41d69","ios":"levelo://app?vid=c1132413-fb6f-4b53-ab60-34a0c7b41d69"},"vehicle_type_id":"4","last_reported":1738098498,"current_range_meters":19600,"station_id":"ce4bgjh2rcd13ifvqbg0","pricing_plan_id":"cebpf4jnsgd1na2vs0mg"},{"bike_id":"3fb74e29-7f1d-4c67-8af5-0bb8332df870","system_id":"levelo_inurba_marseille","lat":43.24379,"lon":5.37064,"is_reserved":false,"is_disabled":false,"rental_uris":{"android":"levelo://app?vid=3fb74e29-7f1d-4c67-8af5-0bb8332df870","ios":"levelo://app?vid=3fb74e29-7f1d-4c67-8af5-0bb8332df870"},"vehicle_type_id":"4","last_reported":1738098498,"current_range_meters":24800,"station_id":"ce4bhhh2rcd13ifvqfk0","pricing_plan_id":"cebpf4jnsgd1na2vs0mg"},{"bike_id":"6543d157-4c86-4954-a20d-5ff1654b92fc","system_id":"levelo_inurba_marseille","lat":43.30186,"lon":5.36639,"is_reserved":false,"is_disabled":false,"rental_uris":{"android":"levelo://app?vid=6543d157-4c86-4954-a20d-5ff1654b92fc","ios":"levelo://app?vid=6543d157-4c86-4954-a20d-5ff1654b92fc"},"vehicle_type_id":"4","last_reported":1738098498,"current_range_meters":37600,"station_id":"ce4bgrh2rcd13ifvqc8g","pricing_plan_id":"cebpf4jnsgd1na2vs0mg"},{"bike_id":"51c8493b-5e44-4e55-8625-0373a8442058","system_id":"levelo_inurba_marseille","lat":43.29888,"lon":5.39727,"is_reserved":false,"is_disabled":false,"rental_uris":{"android":"levelo://app?vid=51c8493b-5e44-4e55-8625-0373a8442058","ios":"levelo://app?vid=51c8493b-5e44-4e55-8625-0373a8442058"},"vehicle_type_id":"4","last_reported":1738098498,"current_range_meters":30000,"station_id":"ce4bh0h2rcd13ifvqd50","pricing_plan_id":"cebpf4jnsgd1na2vs0mg"},{"bike_id":"a1f25abd-5197-4524-ac53-ad8743bef105","system_id":"levelo_inurba_marseille","lat":43.29876,"lon":5.4364,"is_reserved":false,"is_disabled":true,"rental_uris":{"android":"levelo://app?vid=a1f25abd-5197-4524-ac53-ad8743bef105","ios":"levelo://app?vid=a1f25abd-5197-4524-ac53-ad8743bef105"},"vehicle_type_id":"4","last_reported":1738098498,"current_range_meters":36800,"station_id":"ce4bhpp2rcd13ifvqhfg","pricing_plan_id":"cebpf4jnsgd1na2vs0mg"},{"bike_id":"06686260-72d2-43b9-a3a8-8211c10cf549","system_id":"levelo_inurba_marseille","lat":43.29228,"lon":5.36066,"is_reserved":false,"is_disabled":false,"rental_uris":{"android":"levelo://app?vid=06686260-72d2-43b9-a3a8-8211c10cf549","ios":"levelo://app?vid=06686260-72d2-43b9-a3a8-8211c10cf549"},"vehicle_type_id":"4","last_reported":1738098498,"current_range_meters":24000,"station_id":"ce4bhbh2rcd13ifvqeqg","pricing_plan_id":"cebpf4jnsgd1na2vs0mg"},{"bike_id":"dcdb3115-44a3-4e7a-bf25-5375e3e168b2","system_id":"levelo_inurba_marseille","lat":43.28135,"lon":5.42647,"is_reserved":false,"is_disabled":false,"rental_uris":{"android":"levelo://app?vid=dcdb3115-44a3-4e7a-bf25-5375e3e168b2","ios":"levelo://app?vid=dcdb3115-44a3-4e7a-bf25-5375e3e168b2"},"vehicle_type_id":"4","last_reported":1738098498,"current_range_meters":12400,"station_id":"ce4bhnh2rcd13ifvqgug","pricing_plan_id":"cebpf4jnsgd1na2vs0mg"},{"bike_id":"d2720e1a-503c-493a-a400-fc47b5a1c2f3","system_id":"levelo_inurba_marseille","lat":43.28083,"lon":5.39661,"is_reserved":false,"is_disabled":false,"rental_uris":{"android":"levelo://app?vid=d2720e1a-503c-493a-a400-fc47b5a1c2f3","ios":"levelo://app?vid=d2720e1a-503c-493a-a400-fc47b5a1c2f3"},"vehicle_type_id":"4","last_reported":1738098498,"current_range_meters":28400,"station_id":"ce4bho12rcd13ifvqh2g","pricing_plan_id":"cebpf4jnsgd1na2vs0mg"},{"bike_id":"ff68af14-5554-4f8d-a3de-4549d987f602","system_id":"levelo_inurba_marseille","lat":43.29897,"lon":5.4367,"is_reserved":false,"is_disabled":false,"rental_uris":{"android":"levelo://app?vid=ff68af14-5554-4f8d-a3de-4549d987f602","ios":"levelo://app?vid=ff68af14-5554-4f8d-a3de-4549d987f602"},"vehicle_type_id":"4","last_reported":1738098498,"current_range_meters":34800,"station_id":"ce4bhpp2rcd13ifvqhfg","pricing_plan_id":"cebpf4jnsgd1na2vs0mg"},{"bike_id":"296acca2-a355-4830-bc97-a6939a85f573","system_id":"levelo_inurba_marseille","lat":43.25576,"lon":5.38228,"is_reserved":false,"is_disabled":false,"rental_uris":{"android":"levelo://app?vid=296acca2-a355-4830-bc97-a6939a85f573","ios":"levelo://app?vid=296acca2-a355-4830-bc97-a6939a85f573"},"vehicle_type_id":"4","last_reported":1738098498,"current_range_meters":26800,"station_id":"ce4bhih2rcd13ifvqfs0","pricing_plan_id":"cebpf4jnsgd1na2vs0mg"},{"bike_id":"e2aa4144-f725-4497-81a8-6271243a9220","system_id":"levelo_inurba_marseille","lat":43.28275,"lon":5.40828,"is_reserved":false,"is_disabled":false,"rental_uris":{"android":"levelo://app?vid=e2aa4144-f725-4497-81a8-6271243a9220","ios":"levelo://app?vid=e2aa4144-f725-4497-81a8-6271243a9220"},"vehicle_type_id":"4","last_reported":1738098498,"current_range_meters":28800,"station_id":"","pricing_plan_id":"cebpf4jnsgd1na2vs0mg"},{"bike_id":"4d9fa240-b39c-4020-8e5c-e180926338b7","system_id":"levelo_inurba_marseille","lat":43.25119,"lon":5.40315,"is_reserved":false,"is_disabled":false,"rental_uris":{"android":"levelo://app?vid=4d9fa240-b39c-4020-8e5c-e180926338b7","ios":"levelo://app?vid=4d9fa240-b39c-4020-8e5c-e180926338b7"},"vehicle_type_id":"4","last_reported":1738098498,"current_range_meters":22000,"station_id":"ce4bhlh2rcd13ifvqgig","pricing_plan_id":"cebpf4jnsgd1na2vs0mg"},{"bike_id":"103bf1f3-ca8c-4e84-a2e4-e3f7fc301cac","system_id":"levelo_inurba_marseille","lat":43.28438,"lon":5.39187,"is_reserved":false,"is_disabled":false,"rental_uris":{"android":"levelo://app?vid=103bf1f3-ca8c-4e84-a2e4-e3f7fc301cac","ios":"levelo://app?vid=103bf1f3-ca8c-4e84-a2e4-e3f7fc301cac"},"vehicle_type_id":"4","last_reported":1738098498,"current_range_meters":39200,"station_id":"ce4bhoh2rcd13ifvqh5g","pricing_plan_id":"cebpf4jnsgd1na2vs0mg"},{"bike_id":"678c8fdd-4c28-4b55-b0aa-99dc7ed3818a","system_id":"levelo_inurba_marseille","lat":43.31267,"lon":5.40162,"is_reserved":false,"is_disabled":false,"rental_uris":{"android":"levelo://app?vid=678c8fdd-4c28-4b55-b0aa-99dc7ed3818a","ios":"levelo://app?vid=678c8fdd-4c28-4b55-b0aa-99dc7ed3818a"},"vehicle_type_id":"4","last_reported":1738098498,"current_range_meters":25600,"station_id":"ce4bh092rcd13ifvqd30","pricing_plan_id":"cebpf4jnsgd1na2vs0mg"},{"bike_id":"3d95239f-7aae-4c5a-bf4d-ca1ab46f24f8","system_id":"levelo_inurba_marseille","lat":43.27815,"lon":5.40712,"is_reserved":false,"is_disabled":false,"rental_uris":{"android":"levelo://app?vid=3d95239f-7aae-4c5a-bf4d-ca1ab46f24f8","ios":"levelo://app?vid=3d95239f-7aae-4c5a-bf4d-ca1ab46f24f8"},"vehicle_type_id":"4","last_reported":1738098498,"current_range_meters":30000,"station_id":"ce4bhnh2rcd13ifvqgtg","pricing_plan_id":"cebpf4jnsgd1na2vs0mg"},{"bike_id":"43919733-0116-4bda-953e-fee30a8c550f","system_id":"levelo_inurba_marseille","lat":43.25118,"lon":5.40319,"is_reserved":false,"is_disabled":false,"rental_uris":{"android":"levelo://app?vid=43919733-0116-4bda-953e-fee30a8c550f","ios":"levelo://app?vid=43919733-0116-4bda-953e-fee30a8c550f"},"vehicle_type_id":"4","last_reported":1738098498,"current_range_meters":39200,"station_id":"ce4bhlh2rcd13ifvqgig","pricing_plan_id":"cebpf4jnsgd1na2vs0mg"},{"bike_id":"c51fdcf5-aa05-4fab-b82e-fcd4468f8c52","system_id":"levelo_inurba_marseille","lat":43.28111,"lon":5.37831,"is_reserved":false,"is_disabled":false,"rental_uris":{"android":"levelo://app?vid=c51fdcf5-aa05-4fab-b82e-fcd4468f8c52","ios":"levelo://app?vid=c51fdcf5-aa05-4fab-b82e-fcd4468f8c52"},"vehicle_type_id":"4","last_reported":1738098498,"current_range_meters":37600,"station_id":"ce4bha12rcd13ifvqee0","pricing_plan_id":"cebpf4jnsgd1na2vs0mg"},{"bike_id":"58ade26b-ff8c-4ecb-96f1-1f17bf6e2b88","system_id":"levelo_inurba_marseille","lat":43.30393,"lon":5.38698,"is_reserved":false,"is_disabled":false,"rental_uris":{"android":"levelo://app?vid=58ade26b-ff8c-4ecb-96f1-1f17bf6e2b88","ios":"levelo://app?vid=58ade26b-ff8c-4ecb-96f1-1f17bf6e2b88"},"vehicle_type_id":"4","last_reported":1738098498,"current_range_meters":22400,"station_id":"ce4bgk12rcd13ifvqbi0","pricing_plan_id":"cebpf4jnsgd1na2vs0mg"},{"bike_id":"d99314e3-b622-4523-ade9-373c26871ce9","system_id":"levelo_inurba_marseille","lat":43.287,"lon":5.39988,"is_reserved":false,"is_disabled":false,"rental_uris":{"android":"levelo://app?vid=d99314e3-b622-4523-ade9-373c26871ce9","ios":"levelo://app?vid=d99314e3-b622-4523-ade9-373c26871ce9"},"vehicle_type_id":"4","last_reported":1738098498,"current_range_meters":4400,"station_id":"ce4bho92rcd13ifvqh3g","pricing_plan_id":"cebpf4jnsgd1na2vs0mg"},{"bike_id":"e3c5a10e-948d-477c-91ce-8c835a7fe362","system_id":"levelo_inurba_marseille","lat":43.28086,"lon":5.39663,"is_reserved":false,"is_disabled":true,"rental_uris":{"android":"levelo://app?vid=e3c5a10e-948d-477c-91ce-8c835a7fe362","ios":"levelo://app?vid=e3c5a10e-948d-477c-91ce-8c835a7fe362"},"vehicle_type_id":"4","last_reported":1738098498,"current_range_meters":0,"station_id":"ce4bho12rcd13ifvqh2g","pricing_plan_id":"cebpf4jnsgd1na2vs0mg"},{"bike_id":"1da23ccd-27fd-456b-83d4-bcbc0d0a4318","system_id":"levelo_inurba_marseille","lat":43.29176,"lon":5.37147,"is_reserved":false,"is_disabled":false,"rental_uris":{"android":"levelo://app?vid=1da23ccd-27fd-456b-83d4-bcbc0d0a4318","ios":"levelo://app?vid=1da23ccd-27fd-456b-83d4-bcbc0d0a4318"},"vehicle_type_id":"4","last_reported":1738098498,"current_range_meters":28000,"station_id":"ce4bha92rcd13ifvqeh0","pricing_plan_id":"cebpf4jnsgd1na2vs0mg"},{"bike_id":"7fc34398-d3b8-48de-93ad-2c00907a0510","system_id":"levelo_inurba_marseille","lat":43.25101,"lon":5.40336,"is_reserved":false,"is_disabled":false,"rental_uris":{"android":"levelo://app?vid=7fc34398-d3b8-48de-93ad-2c00907a0510","ios":"levelo://app?vid=7fc34398-d3b8-48de-93ad-2c00907a0510"},"vehicle_type_id":"4","last_reported":1738098498,"current_range_meters":10800,"station_id":"ce4bhlh2rcd13ifvqgig","pricing_plan_id":"cebpf4jnsgd1na2vs0mg"},{"bike_id":"9f018113-1138-458d-9938-2357ae09399b","system_id":"levelo_inurba_marseille","lat":43.28625,"lon":5.35105,"is_reserved":false,"is_disabled":false,"rental_uris":{"android":"levelo://app?vid=9f018113-1138-458d-9938-2357ae09399b","ios":"levelo://app?vid=9f018113-1138-458d-9938-2357ae09399b"},"vehicle_type_id":"4","last_reported":1738098498,"current_range_meters":37600,"station_id":"ce4bhch2rcd13ifvqeug","pricing_plan_id":"cebpf4jnsgd1na2vs0mg"},{"bike_id":"62e006bb-09fe-4b52-a9a4-ad97710ad8e1","system_id":"levelo_inurba_marseille","lat":43.28927,"lon":5.3838,"is_reserved":false,"is_disabled":false,"rental_uris":{"android":"levelo://app?vid=62e006bb-09fe-4b52-a9a4-ad97710ad8e1","ios":"levelo://app?vid=62e006bb-09fe-4b52-a9a4-ad97710ad8e1"},"vehicle_type_id":"4","last_reported":1738098498,"current_range_meters":38800,"station_id":"ce4bh612rcd13ifvqe6g","pricing_plan_id":"cebpf4jnsgd1na2vs0mg"},{"bike_id":"f846d495-effa-4e8f-ae39-f2d7b1fc0ba3","system_id":"levelo_inurba_marseille","lat":43.268,"lon":5.40254,"is_reserved":false,"is_disabled":false,"rental_uris":{"android":"levelo://app?vid=f846d495-effa-4e8f-ae39-f2d7b1fc0ba3","ios":"levelo://app?vid=f846d495-effa-4e8f-ae39-f2d7b1fc0ba3"},"vehicle_type_id":"4","last_reported":1738098498,"current_range_meters":38800,"station_id":"ce501612rcd8frsf0b60","pricing_plan_id":"cebpf4jnsgd1na2vs0mg"},{"bike_id":"78bc61bf-426e-4c8b-af21-b3b451435e49","system_id":"levelo_inurba_marseille","lat":43.29195,"lon":5.35817,"is_reserved":false,"is_disabled":false,"rental_uris":{"android":"levelo://app?vid=78bc61bf-426e-4c8b-af21-b3b451435e49","ios":"levelo://app?vid=78bc61bf-426e-4c8b-af21-b3b451435e49"},"vehicle_type_id":"4","last_reported":1738098498,"current_range_meters":16800,"station_id":"ce4bhb12rcd13ifvqel0","pricing_plan_id":"cebpf4jnsgd1na2vs0mg"},{"bike_id":"dc7c1c67-58fd-4b23-90e5-a1f21ef47cbc","system_id":"levelo_inurba_marseille","lat":43.29597,"lon":5.36726,"is_reserved":false,"is_disabled":true,"rental_uris":{"android":"levelo://app?vid=dc7c1c67-58fd-4b23-90e5-a1f21ef47cbc","ios":"levelo://app?vid=dc7c1c67-58fd-4b23-90e5-a1f21ef47cbc"},"vehicle_type_id":"4","last_reported":1738098498,"current_range_meters":3600,"station_id":"ce4bgph2rcd13ifvqc2g","pricing_plan_id":"cebpf4jnsgd1na2vs0mg"},{"bike_id":"ddbfe7d0-a6f0-4e27-8c41-b60c2e038dd3","system_id":"levelo_inurba_marseille","lat":43.31535,"lon":5.38023,"is_reserved":false,"is_disabled":false,"rental_uris":{"android":"levelo://app?vid=ddbfe7d0-a6f0-4e27-8c41-b60c2e038dd3","ios":"levelo://app?vid=ddbfe7d0-a6f0-4e27-8c41-b60c2e038dd3"},"vehicle_type_id":"4","last_reported":1738098498,"current_range_meters":38400,"station_id":"ce4bhsp2rcd13ifvqi50","pricing_plan_id":"cebpf4jnsgd1na2vs0mg"},{"bike_id":"43365e76-6a0a-432b-afea-fb872341bb02","system_id":"levelo_inurba_marseille","lat":43.27999,"lon":5.40014,"is_reserved":false,"is_disabled":false,"rental_uris":{"android":"levelo://app?vid=43365e76-6a0a-432b-afea-fb872341bb02","ios":"levelo://app?vid=43365e76-6a0a-432b-afea-fb872341bb02"},"vehicle_type_id":"4","last_reported":1738098498,"current_range_meters":24000,"station_id":"ce4bho92rcd13ifvqh4g","pricing_plan_id":"cebpf4jnsgd1na2vs0mg"},{"bike_id":"a414687e-4132-4ef7-8751-5f8aea9316aa","system_id":"levelo_inurba_marseille","lat":43.30428,"lon":5.39739,"is_reserved":false,"is_disabled":false,"rental_uris":{"android":"levelo://app?vid=a414687e-4132-4ef7-8751-5f8aea9316aa","ios":"levelo://app?vid=a414687e-4132-4ef7-8751-5f8aea9316aa"},"vehicle_type_id":"4","last_reported":1738098498,"current_range_meters":33200,"station_id":"ce4bh092rcd13ifvqd20","pricing_plan_id":"cebpf4jnsgd1na2vs0mg"},{"bike_id":"f9173de2-2fa5-436f-a76b-3c96bd571284","system_id":"levelo_inurba_marseille","lat":43.29798,"lon":5.40417,"is_reserved":false,"is_disabled":true,"rental_uris":{"android":"levelo://app?vid=f9173de2-2fa5-436f-a76b-3c96bd571284","ios":"levelo://app?vid=f9173de2-2fa5-436f-a76b-3c96bd571284"},"vehicle_type_id":"4","last_reported":1738098498,"current_range_meters":36000,"station_id":"ce4bh112rcd13ifvqd90","pricing_plan_id":"cebpf4jnsgd1na2vs0mg"},{"bike_id":"8f1fc58a-f1e0-4997-82d7-d2e187f0e836","system_id":"levelo_inurba_marseille","lat":43.31094,"lon":5.42451,"is_reserved":false,"is_disabled":false,"rental_uris":{"android":"levelo://app?vid=8f1fc58a-f1e0-4997-82d7-d2e187f0e836","ios":"levelo://app?vid=8f1fc58a-f1e0-4997-82d7-d2e187f0e836"},"vehicle_type_id":"4","last_reported":1738098498,"current_range_meters":38800,"station_id":"ce4bhp92rcd13ifvqhag","pricing_plan_id":"cebpf4jnsgd1na2vs0mg"},{"bike_id":"1932502a-a386-4bd4-8041-b68d3b661876","system_id":"levelo_inurba_marseille","lat":43.23193,"lon":5.35547,"is_reserved":false,"is_disabled":false,"rental_uris":{"android":"levelo://app?vid=1932502a-a386-4bd4-8041-b68d3b661876","ios":"levelo://app?vid=1932502a-a386-4bd4-8041-b68d3b661876"},"vehicle_type_id":"4","last_reported":1738098498,"current_range_meters":24400,"station_id":"ce4bhu92rcd13ifvqi70","pricing_plan_id":"cebpf4jnsgd1na2vs0mg"},{"bike_id":"d2f08ce9-194e-43c4-a9f1-3260fde37c7e","system_id":"levelo_inurba_marseille","lat":43.27952,"lon":5.41025,"is_reserved":false,"is_disabled":false,"rental_uris":{"android":"levelo://app?vid=d2f08ce9-194e-43c4-a9f1-3260fde37c7e","ios":"levelo://app?vid=d2f08ce9-194e-43c4-a9f1-3260fde37c7e"},"vehicle_type_id":"4","last_reported":1738098498,"current_range_meters":16400,"station_id":"ce4bhnp2rcd13ifvqh0g","pricing_plan_id":"cebpf4jnsgd1na2vs0mg"},{"bike_id":"7ed987be-8222-4cb7-a343-d6041f2f509b","system_id":"levelo_inurba_marseille","lat":43.30219,"lon":5.39469,"is_reserved":false,"is_disabled":false,"rental_uris":{"android":"levelo://app?vid=7ed987be-8222-4cb7-a343-d6041f2f509b","ios":"levelo://app?vid=7ed987be-8222-4cb7-a343-d6041f2f509b"},"vehicle_type_id":"4","last_reported":1738098498,"current_range_meters":19200,"station_id":"ce4bh0p2rcd13ifvqd70","pricing_plan_id":"cebpf4jnsgd1na2vs0mg"},{"bike_id":"c71d9a58-79c2-4121-bc4b-958cbabc75f1","system_id":"levelo_inurba_marseille","lat":43.29264,"lon":5.40144,"is_reserved":false,"is_disabled":true,"rental_uris":{"android":"levelo://app?vid=c71d9a58-79c2-4121-bc4b-958cbabc75f1","ios":"levelo://app?vid=c71d9a58-79c2-4121-bc4b-958cbabc75f1"},"vehicle_type_id":"4","last_reported":1738098498,"current_range_meters":6400,"station_id":"ce4bh312rcd13ifvqdk0","pricing_plan_id":"cebpf4jnsgd1na2vs0mg"},{"bike_id":"cd68e35b-e291-4244-8751-8931f1c888e6","system_id":"levelo_inurba_marseille","lat":43.24388,"lon":5.37064,"is_reserved":false,"is_disabled":false,"rental_uris":{"android":"levelo://app?vid=cd68e35b-e291-4244-8751-8931f1c888e6","ios":"levelo://app?vid=cd68e35b-e291-4244-8751-8931f1c888e6"},"vehicle_type_id":"4","last_reported":1738098498,"current_range_meters":16400,"station_id":"ce4bhhh2rcd13ifvqfk0","pricing_plan_id":"cebpf4jnsgd1na2vs0mg"},{"bike_id":"4efc21d0-1ed7-4b14-b806-9fedf9d3c529","system_id":"levelo_inurba_marseille","lat":43.32337,"lon":5.40623,"is_reserved":false,"is_disabled":false,"rental_uris":{"android":"levelo://app?vid=4efc21d0-1ed7-4b14-b806-9fedf9d3c529","ios":"levelo://app?vid=4efc21d0-1ed7-4b14-b806-9fedf9d3c529"},"vehicle_type_id":"4","last_reported":1738098498,"current_range_meters":22800,"station_id":"ce4bhq92rcd13ifvqhjg","pricing_plan_id":"cebpf4jnsgd1na2vs0mg"},{"bike_id":"ae2c8842-6ea5-4914-8b4f-8f46ba50c128","system_id":"levelo_inurba_marseille","lat":43.29917,"lon":5.37478,"is_reserved":false,"is_disabled":false,"rental_uris":{"android":"levelo://app?vid=ae2c8842-6ea5-4914-8b4f-8f46ba50c128","ios":"levelo://app?vid=ae2c8842-6ea5-4914-8b4f-8f46ba50c128"},"vehicle_type_id":"4","last_reported":1738098498,"current_range_meters":30800,"station_id":"ce4bgjh2rcd13ifvqbg0","pricing_plan_id":"cebpf4jnsgd1na2vs0mg"},{"bike_id":"38406c4f-f465-463a-8917-08b734d2865e","system_id":"levelo_inurba_marseille","lat":43.28075,"lon":5.39656,"is_reserved":false,"is_disabled":false,"rental_uris":{"android":"levelo://app?vid=38406c4f-f465-463a-8917-08b734d2865e","ios":"levelo://app?vid=38406c4f-f465-463a-8917-08b734d2865e"},"vehicle_type_id":"4","last_reported":1738098498,"current_range_meters":26000,"station_id":"ce4bho12rcd13ifvqh2g","pricing_plan_id":"cebpf4jnsgd1na2vs0mg"},{"bike_id":"e5171e38-fbd8-48a8-8900-ffeb261a164a","system_id":"levelo_inurba_marseille","lat":43.28674,"lon":5.36369,"is_reserved":false,"is_disabled":false,"rental_uris":{"android":"levelo://app?vid=e5171e38-fbd8-48a8-8900-ffeb261a164a","ios":"levelo://app?vid=e5171e38-fbd8-48a8-8900-ffeb261a164a"},"vehicle_type_id":"4","last_reported":1738098498,"current_range_meters":37600,"station_id":"ce4bhah2rcd13ifvqej0","pricing_plan_id":"cebpf4jnsgd1na2vs0mg"},{"bike_id":"5db1114c-8044-4d39-8b54-bc9610487a91","system_id":"levelo_inurba_marseille","lat":43.31323,"lon":5.397,"is_reserved":false,"is_disabled":false,"rental_uris":{"android":"levelo://app?vid=5db1114c-8044-4d39-8b54-bc9610487a91","ios":"levelo://app?vid=5db1114c-8044-4d39-8b54-bc9610487a91"},"vehicle_type_id":"4","last_reported":1738098498,"current_range_meters":13600,"station_id":"ce4bgvp2rcd13ifvqcu0","pricing_plan_id":"cebpf4jnsgd1na2vs0mg"},{"bike_id":"c9242e06-810e-49f1-b440-56548629c43f","system_id":"levelo_inurba_marseille","lat":43.28417,"lon":5.37515,"is_reserved":false,"is_disabled":false,"rental_uris":{"android":"levelo://app?vid=c9242e06-810e-49f1-b440-56548629c43f","ios":"levelo://app?vid=c9242e06-810e-49f1-b440-56548629c43f"},"vehicle_type_id":"4","last_reported":1738098498,"current_range_meters":8400,"station_id":"ce4bh412rcd13ifvqds0","pricing_plan_id":"cebpf4jnsgd1na2vs0mg"},{"bike_id":"642c128b-5936-43e1-a3d1-7ce190f71190","system_id":"levelo_inurba_marseille","lat":43.25868,"lon":5.39931,"is_reserved":false,"is_disabled":false,"rental_uris":{"android":"levelo://app?vid=642c128b-5936-43e1-a3d1-7ce190f71190","ios":"levelo://app?vid=642c128b-5936-43e1-a3d1-7ce190f71190"},"vehicle_type_id":"4","last_reported":1738098498,"current_range_meters":38800,"station_id":"ce4bhl92rcd13ifvqghg","pricing_plan_id":"cebpf4jnsgd1na2vs0mg"},{"bike_id":"283c25d8-9fc5-495b-9825-5a72a68442bd","system_id":"levelo_inurba_marseille","lat":43.29252,"lon":5.40919,"is_reserved":false,"is_disabled":true,"rental_uris":{"android":"levelo://app?vid=283c25d8-9fc5-495b-9825-5a72a68442bd","ios":"levelo://app?vid=283c25d8-9fc5-495b-9825-5a72a68442bd"},"vehicle_type_id":"4","last_reported":1738098498,"current_range_meters":38800,"station_id":"ce4bh192rcd13ifvqdc0","pricing_plan_id":"cebpf4jnsgd1na2vs0mg"},{"bike_id":"77f3bf21-63b8-49a8-935c-8a5687b8349a","system_id":"levelo_inurba_marseille","lat":43.329049,"lon":5.390675,"is_reserved":false,"is_disabled":false,"rental_uris":{"android":"levelo://app?vid=77f3bf21-63b8-49a8-935c-8a5687b8349a","ios":"levelo://app?vid=77f3bf21-63b8-49a8-935c-8a5687b8349a"},"vehicle_type_id":"4","last_reported":1738098498,"current_range_meters":16800,"station_id":"","pricing_plan_id":"cebpf4jnsgd1na2vs0mg"},{"bike_id":"e3e26aee-15e1-425c-a48f-db58aa520742","system_id":"levelo_inurba_marseille","lat":43.23071,"lon":5.35486,"is_reserved":false,"is_disabled":false,"rental_uris":{"android":"levelo://app?vid=e3e26aee-15e1-425c-a48f-db58aa520742","ios":"levelo://app?vid=e3e26aee-15e1-425c-a48f-db58aa520742"},"vehicle_type_id":"4","last_reported":1738098498,"current_range_meters":36800,"station_id":"cpo3342slgdg3j2ifvpg","pricing_plan_id":"cebpf4jnsgd1na2vs0mg"},{"bike_id":"566e23ec-1d41-4cca-b6b1-4c286a9b4684","system_id":"levelo_inurba_marseille","lat":43.25716,"lon":5.41109,"is_reserved":false,"is_disabled":false,"rental_uris":{"android":"levelo://app?vid=566e23ec-1d41-4cca-b6b1-4c286a9b4684","ios":"levelo://app?vid=566e23ec-1d41-4cca-b6b1-4c286a9b4684"},"vehicle_type_id":"4","last_reported":1738098498,"current_range_meters":39200,"station_id":"ce4bhkp2rcd13ifvqgd0","pricing_plan_id":"cebpf4jnsgd1na2vs0mg"},{"bike_id":"2f721776-a64e-4635-b65d-4f02e23630ab","system_id":"levelo_inurba_marseille","lat":43.29201,"lon":5.36098,"is_reserved":false,"is_disabled":false,"rental_uris":{"android":"levelo://app?vid=2f721776-a64e-4635-b65d-4f02e23630ab","ios":"levelo://app?vid=2f721776-a64e-4635-b65d-4f02e23630ab"},"vehicle_type_id":"4","last_reported":1738098498,"current_range_meters":32800,"station_id":"ce4bhbh2rcd13ifvqeqg","pricing_plan_id":"cebpf4jnsgd1na2vs0mg"},{"bike_id":"bf81ccdb-746e-43b8-9227-df99d5d4c562","system_id":"levelo_inurba_marseille","lat":43.24999,"lon":5.38924,"is_reserved":false,"is_disabled":false,"rental_uris":{"android":"levelo://app?vid=bf81ccdb-746e-43b8-9227-df99d5d4c562","ios":"levelo://app?vid=bf81ccdb-746e-43b8-9227-df99d5d4c562"},"vehicle_type_id":"4","last_reported":1738098498,"current_range_meters":20000,"station_id":"ce4bhgp2rcd13ifvqfd0","pricing_plan_id":"cebpf4jnsgd1na2vs0mg"},{"bike_id":"df2653fe-4fdf-43fd-a7c1-0f1c8d8556c5","system_id":"levelo_inurba_marseille","lat":43.33013,"lon":5.39053,"is_reserved":false,"is_disabled":false,"rental_uris":{"android":"levelo://app?vid=df2653fe-4fdf-43fd-a7c1-0f1c8d8556c5","ios":"levelo://app?vid=df2653fe-4fdf-43fd-a7c1-0f1c8d8556c5"},"vehicle_type_id":"4","last_reported":1738098498,"current_range_meters":38000,"station_id":"ce4bhr92rcd13ifvqhrg","pricing_plan_id":"cebpf4jnsgd1na2vs0mg"},{"bike_id":"7c78a755-c7f5-4f07-a96b-621451d47948","system_id":"levelo_inurba_marseille","lat":43.29895,"lon":5.43643,"is_reserved":false,"is_disabled":false,"rental_uris":{"android":"levelo://app?vid=7c78a755-c7f5-4f07-a96b-621451d47948","ios":"levelo://app?vid=7c78a755-c7f5-4f07-a96b-621451d47948"},"vehicle_type_id":"4","last_reported":1738098498,"current_range_meters":21600,"station_id":"ce4bhpp2rcd13ifvqhfg","pricing_plan_id":"cebpf4jnsgd1na2vs0mg"},{"bike_id":"c77700e7-1edb-4c3c-aeff-eb28df744e37","system_id":"levelo_inurba_marseille","lat":43.30652,"lon":5.39304,"is_reserved":false,"is_disabled":false,"rental_uris":{"android":"levelo://app?vid=c77700e7-1edb-4c3c-aeff-eb28df744e37","ios":"levelo://app?vid=c77700e7-1edb-4c3c-aeff-eb28df744e37"},"vehicle_type_id":"4","last_reported":1738098498,"current_range_meters":36400,"station_id":"ce4bghh2rcd13ifvqb60","pricing_plan_id":"cebpf4jnsgd1na2vs0mg"},{"bike_id":"3d1fcd99-fa1f-402d-be1e-7639922ccd47","system_id":"levelo_inurba_marseille","lat":43.22928,"lon":5.35379,"is_reserved":false,"is_disabled":false,"rental_uris":{"android":"levelo://app?vid=3d1fcd99-fa1f-402d-be1e-7639922ccd47","ios":"levelo://app?vid=3d1fcd99-fa1f-402d-be1e-7639922ccd47"},"vehicle_type_id":"4","last_reported":1738098498,"current_range_meters":38000,"station_id":"cpo3532slgdg3j2ikp40","pricing_plan_id":"cebpf4jnsgd1na2vs0mg"},{"bike_id":"409231ee-d438-41db-8576-1da7468c5edd","system_id":"levelo_inurba_marseille","lat":43.28415,"lon":5.3751,"is_reserved":false,"is_disabled":false,"rental_uris":{"android":"levelo://app?vid=409231ee-d438-41db-8576-1da7468c5edd","ios":"levelo://app?vid=409231ee-d438-41db-8576-1da7468c5edd"},"vehicle_type_id":"4","last_reported":1738098498,"current_range_meters":38400,"station_id":"ce4bh412rcd13ifvqds0","pricing_plan_id":"cebpf4jnsgd1na2vs0mg"},{"bike_id":"803e03d8-7d2e-4feb-ac46-774902d16dee","system_id":"levelo_inurba_marseille","lat":43.33754,"lon":5.37434,"is_reserved":false,"is_disabled":true,"rental_uris":{"android":"levelo://app?vid=803e03d8-7d2e-4feb-ac46-774902d16dee","ios":"levelo://app?vid=803e03d8-7d2e-4feb-ac46-774902d16dee"},"vehicle_type_id":"4","last_reported":1738098498,"current_range_meters":36400,"station_id":"","pricing_plan_id":"cebpf4jnsgd1na2vs0mg"},{"bike_id":"28aff257-a41f-41b4-b492-84a82ec49355","system_id":"levelo_inurba_marseille","lat":43.32486,"lon":5.36569,"is_reserved":false,"is_disabled":false,"rental_uris":{"android":"levelo://app?vid=28aff257-a41f-41b4-b492-84a82ec49355","ios":"levelo://app?vid=28aff257-a41f-41b4-b492-84a82ec49355"},"vehicle_type_id":"4","last_reported":1738098498,"current_range_meters":6400,"station_id":"ce4bhs12rcd13ifvqhvg","pricing_plan_id":"cebpf4jnsgd1na2vs0mg"},{"bike_id":"ff1e303e-f01b-45b4-953d-3439c6552787","system_id":"levelo_inurba_marseille","lat":43.269405,"lon":5.402372,"is_reserved":false,"is_disabled":false,"rental_uris":{"android":"levelo://app?vid=ff1e303e-f01b-45b4-953d-3439c6552787","ios":"levelo://app?vid=ff1e303e-f01b-45b4-953d-3439c6552787"},"vehicle_type_id":"4","last_reported":1738098498,"current_range_meters":32000,"station_id":"cjm6bp8fraef2m0cb0m0","pricing_plan_id":"cebpf4jnsgd1na2vs0mg"},{"bike_id":"70e60ad6-ef20-4b17-bf61-dc343f8741d5","system_id":"levelo_inurba_marseille","lat":43.27813,"lon":5.40729,"is_reserved":false,"is_disabled":false,"rental_uris":{"android":"levelo://app?vid=70e60ad6-ef20-4b17-bf61-dc343f8741d5","ios":"levelo://app?vid=70e60ad6-ef20-4b17-bf61-dc343f8741d5"},"vehicle_type_id":"4","last_reported":1738098498,"current_range_meters":38800,"station_id":"ce4bhnh2rcd13ifvqgtg","pricing_plan_id":"cebpf4jnsgd1na2vs0mg"},{"bike_id":"7f762cad-14d3-4378-9c59-c304651b7679","system_id":"levelo_inurba_marseille","lat":43.29566,"lon":5.39956,"is_reserved":false,"is_disabled":true,"rental_uris":{"android":"levelo://app?vid=7f762cad-14d3-4378-9c59-c304651b7679","ios":"levelo://app?vid=7f762cad-14d3-4378-9c59-c304651b7679"},"vehicle_type_id":"4","last_reported":1738098498,"current_range_meters":28400,"station_id":"ce4bh312rcd13ifvqdj0","pricing_plan_id":"cebpf4jnsgd1na2vs0mg"},{"bike_id":"772c38ae-72c4-4555-84c9-637dd33f66b3","system_id":"levelo_inurba_marseille","lat":43.30804,"lon":5.38142,"is_reserved":false,"is_disabled":false,"rental_uris":{"android":"levelo://app?vid=772c38ae-72c4-4555-84c9-637dd33f66b3","ios":"levelo://app?vid=772c38ae-72c4-4555-84c9-637dd33f66b3"},"vehicle_type_id":"4","last_reported":1738098498,"current_range_meters":22000,"station_id":"ce4bgt12rcd13ifvqce0","pricing_plan_id":"cebpf4jnsgd1na2vs0mg"},{"bike_id":"84d39699-f039-4bf6-9aed-f2958a6d0e4f","system_id":"levelo_inurba_marseille","lat":43.27922,"lon":5.41222,"is_reserved":false,"is_disabled":false,"rental_uris":{"android":"levelo://app?vid=84d39699-f039-4bf6-9aed-f2958a6d0e4f","ios":"levelo://app?vid=84d39699-f039-4bf6-9aed-f2958a6d0e4f"},"vehicle_type_id":"4","last_reported":1738098498,"current_range_meters":22800,"station_id":"ce4bhnp2rcd13ifvqh0g","pricing_plan_id":"cebpf4jnsgd1na2vs0mg"},