{"last_updated":1738058954,"ttl":60,"version":"2.2","data":{"bikes":[{"bike_id":"ac96a8e7-a800-4f54-96d7-b3e9ad5b04b6","system_id":"levelo_inurba_marseille","lat":43.3032,"lon":5.36879,"is_reserved":false,"is_disabled":false,"rental_uris":{"android":"levelo://app?vid=ac96a8e7-a800-4f54-96d7-b3e9ad5b04b6","ios":"levelo://app?vid=ac96a8e7-a800-4f54-96d7-b3e9ad5b04b6"},"vehicle_type_id":"4","last_reported":1738058954,"current_range_meters":22000,"station_id":"ce4bgqh2rcd13ifvqc5g","pricing_plan_id":"cebpf4jnsgd1na2vs0mg"},{"bike_id":"e9b0d1c8-beb5-43d1-ab95-b66b56c6f77d","system_id":"levelo_inurba_marseille","lat":43.276207,"lon":5.361112,"is_reserved":false,"is_disabled":false,"rental_uris":{"android":"levelo://app?vid=e9b0d1c8-beb5-43d1-ab95-b66b56c6f77d","ios":"levelo://app?vid=e9b0d1c8-beb5-43d1-ab95-b66b56c6f77d"},"vehicle_type_id":"4","last_reported":1738058954,"current_range_meters":25200,"station_id":"ce4bgj92rcd13ifvqbe0","pricing_plan_id":"cebpf4jnsgd1na2vs0mg"},{"bike_id":"ae221386-cfc0-4a72-b3b2-a39cf988493a","system_id":"levelo_inurba_marseille","lat":43.31506,"lon":5.37301,"is_reserved":false,"is_disabled":true,"rental_uris":{"android":"levelo://app?vid=ae221386-cfc0-4a72-b3b2-a39cf988493a","ios":"levelo://app?vid=ae221386-cfc0-4a72-b3b2-a39cf988493a"},"vehicle_type_id":"4","last_reported":1738058954,"current_range_meters":32800,"station_id":"ce4bgt12rcd13ifvqcd0","pricing_plan_id":"cebpf4jnsgd1na2vs0mg"},{"bike_id":"35279fba-64d9-4900-83c9-5b62edc2415e","system_id":"levelo_inurba_marseille","lat":43.23146,"lon":5.43716,"is_reserved":false,"is_disabled":false,"rental_uris":{"android":"levelo://app?vid=35279fba-64d9-4900-83c9-5b62edc2415e","ios":"levelo://app?vid=35279fba-64d9-4900-83c9-5b62edc2415e"},"vehicle_type_id":"4","last_reported":1738058954,"current_range_meters":12800,"station_id":"ce4bhmp2rcd13ifvqgog","pricing_plan_id":"cebpf4jnsgd1na2vs0mg"},{"bike_id":"ce9c6111-0118-42d1-bfda-6fdbc9033126","system_id":"levelo_inurba_marseille","lat":43.2799,"lon":5.40027,"is_reserved":false,"is_disabled":false,"rental_uris":{"android":"levelo://app?vid=ce9c6111-0118-42d1-bfda-6fdbc9033126","ios":"levelo://app?vid=ce9c6111-0118-42d1-bfda-6fdbc9033126"},"vehicle_type_id":"4","last_reported":1738058954,"current_range_meters":28800,"station_id":"ce4bho92rcd13ifvqh4g","pricing_plan_id":"cebpf4jnsgd1na2vs0mg"},{"bike_id":"470b3892-2df1-4c2f-bf4a-4e97fe4979fb","system_id":"levelo_inurba_marseille","lat":43.28376,"lon":5.38635,"is_reserved":false,"is_disabled":false,"rental_uris":{"android":"levelo://app?vid=470b3892-2df1-4c2f-bf4a-4e97fe4979fb","ios":"levelo://app?vid=470b3892-2df1-4c2f-bf4a-4e97fe4979fb"},"vehicle_type_id":"4","last_reported":1738058954,"current_range_meters":20800,"station_id":"ce4bh492rcd13ifvqdvg","pricing_plan_id":"cebpf4jnsgd1na2vs0mg"},{"bike_id":"8b1098b1-640e-4fd5-a15c-8d21ce3dcecf","system_id":"levelo_inurba_marseille","lat":43.27993,"lon":5.40023,"is_reserved":false,"is_disabled":false,"rental_uris":{"android":"levelo://app?vid=8b1098b1-640e-4fd5-a15c-8d21ce3dcecf","ios":"levelo://app?vid=8b1098b1-640e-4fd5-a15c-8d21ce3dcecf"},"vehicle_type_id":"4","last_reported":1738058954,"current_range_meters":38800,"station_id":"ce4bho92rcd13ifvqh4g","pricing_plan_id":"cebpf4jnsgd1na2vs0mg"},{"bike_id":"6a4f93d7-bb26-4465-a4ef-5db4e9a25afb","system_id":"levelo_inurba_marseille","lat":43.29007,"lon":5.35601,"is_reserved":false,"is_disabled":false,"rental_uris":{"android":"levelo://app?vid=6a4f93d7-bb26-4465-a4ef-5db4e9a25afb","ios":"levelo://app?vid=6a4f93d7-bb26-4465-a4ef-5db4e9a25afb"},"vehicle_type_id":"4","last_reported":1738058954,"current_range_meters":38800,"station_id":"ce4bhb92rcd13ifvqen0","pricing_plan_id":"cebpf4jnsgd1na2vs0mg"},{"bike_id":"866fd95d-aeff-404c-aea4-033129ac5411","system_id":"levelo_inurba_marseille","lat":43.31696,"lon":5.37737,"is_reserved":false,"is_disabled":false,"rental_uris":{"android":"levelo://app?vid=866fd95d-aeff-404c-aea4-033129ac5411","ios":"levelo://app?vid=866fd95d-aeff-404c-aea4-033129ac5411"},"vehicle_type_id":"4","last_reported":1738058954,"current_range_meters":23200,"station_id":"ce4bgth2rcd13ifvqch0","pricing_plan_id":"cebpf4jnsgd1na2vs0mg"},{"bike_id":"c2d2d49b-e5df-488d-b462-7be34a33e75e","system_id":"levelo_inurba_marseille","lat":43.2748,"lon":5.42495,"is_reserved":false,"is_disabled":false,"rental_uris":{"android":"levelo://app?vid=c2d2d49b-e5df-488d-b462-7be34a33e75e","ios":"levelo://app?vid=c2d2d49b-e5df-488d-b462-7be34a33e75e"},"vehicle_type_id":"4","last_reported":1738058954,"current_range_meters":33200,"station_id":"ce4bhn92rcd13ifvqgrg","pricing_plan_id":"cebpf4jnsgd1na2vs0mg"},{"bike_id":"09f5de13-c5b2-41ad-94a7-f8c8d825deef","system_id":"levelo_inurba_marseille","lat":43.278,"lon":5.4074,"is_reserved":false,"is_disabled":false,"rental_uris":{"android":"levelo://app?vid=09f5de13-c5b2-41ad-94a7-f8c8d825deef","ios":"levelo://app?vid=09f5de13-c5b2-41ad-94a7-f8c8d825deef"},"vehicle_type_id":"4","last_reported":1738058954,"current_range_meters":38800,"station_id":"ce4bhnh2rcd13ifvqgtg","pricing_plan_id":"cebpf4jnsgd1na2vs0mg"},{"bike_id":"d1005862-4bfe-477a-9e05-78e14cdb6942","system_id":"levelo_inurba_marseille","lat":43.29548,"lon":5.4228,"is_reserved":false,"is_disabled":false,"rental_uris":{"android":"levelo://app?vid=d1005862-4bfe-477a-9e05-78e14cdb6942","ios":"levelo://app?vid=d1005862-4bfe-477a-9e05-78e14cdb6942"},"vehicle_type_id":"4","last_reported":1738058954,"current_range_meters":38800,"station_id":"ce4bhph2rcd13ifvqhdg","pricing_plan_id":"cebpf4jnsgd1na2vs0mg"},{"bike_id":"1f36278f-5607-42b1-a26a-47f15a4b6277","system_id":"levelo_inurba_marseille","lat":43.29224,"lon":5.36041,"is_reserved":false,"is_disabled":false,"rental_uris":{"android":"levelo://app?vid=1f36278f-5607-42b1-a26a-47f15a4b6277","ios":"levelo://app?vid=1f36278f-5607-42b1-a26a-47f15a4b6277"},"vehicle_type_id":"4","last_reported":1738058954,"current_range_meters":38800,"station_id":"ce4bhbh2rcd13ifvqeqg","pricing_plan_id":"cebpf4jnsgd1na2vs0mg"},{"bike_id":"0e5577eb-e782-4733-a49d-962e327ff8c3","system_id":"levelo_inurba_marseille","lat":43.336014,"lon":5.410332,"is_reserved":false,"is_disabled":false,"rental_uris":{"android":"levelo://app?vid=0e5577eb-e782-4733-a49d-962e327ff8c3","ios":"levelo://app?vid=0e5577eb-e782-4733-a49d-962e327ff8c3"},"vehicle_type_id":"4","last_reported":1738058954,"current_range_meters":38800,"station_id":"ce4bhqh2rcd13ifvqhmg","pricing_plan_id":"cebpf4jnsgd1na2vs0mg"},{"bike_id":"a5bebe06-3ff8-4c00-bc91-f9e9b1fd7d83","system_id":"levelo_inurba_marseille","lat":43.313614,"lon":5.366992,"is_reserved":false,"is_disabled":false,"rental_uris":{"android":"levelo://app?vid=a5bebe06-3ff8-4c00-bc91-f9e9b1fd7d83","ios":"levelo://app?vid=a5bebe06-3ff8-4c00-bc91-f9e9b1fd7d83"},"vehicle_type_id":"4","last_reported":1738058954,"current_range_meters":24400,"station_id":"ce4bgr92rcd13ifvqc6g","pricing_plan_id":"cebpf4jnsgd1na2vs0mg"},{"bike_id":"4dcddd28-ada1-4c40-824d-38858fdbfc1d","system_id":"levelo_inurba_marseille","lat":43.26035,"lon":5.37548,"is_reserved":false,"is_disabled":false,"rental_uris":{"android":"levelo://app?vid=4dcddd28-ada1-4c40-824d-38858fdbfc1d","ios":"levelo://app?vid=4dcddd28-ada1-4c40-824d-38858fdbfc1d"},"vehicle_type_id":"4","last_reported":1738058954,"current_range_meters":9600,"station_id":"ce4bhgh2rcd13ifvqfa0","pricing_plan_id":"cebpf4jnsgd1na2vs0mg"},{"bike_id":"94968907-42c6-4dd9-8886-4829765ca65c","system_id":"levelo_inurba_marseille","lat":43.30122,"lon":5.39854,"is_reserved":false,"is_disabled":false,"rental_uris":{"android":"levelo://app?vid=94968907-42c6-4dd9-8886-4829765ca65c","ios":"levelo://app?vid=94968907-42c6-4dd9-8886-4829765ca65c"},"vehicle_type_id":"4","last_reported":1738058954,"current_range_meters":22000,"station_id":"ce4bh0h2rcd13ifvqd40","pricing_plan_id":"cebpf4jnsgd1na2vs0mg"},{"bike_id":"96c6d005-88bb-4fd6-98f4-0a014c553eb8","system_id":"levelo_inurba_marseille","lat":43.33029,"lon":5.39039,"is_reserved":false,"is_disabled":false,"rental_uris":{"android":"levelo://app?vid=96c6d005-88bb-4fd6-98f4-0a014c553eb8","ios":"levelo://app?vid=96c6d005-88bb-4fd6-98f4-0a014c553eb8"},"vehicle_type_id":"4","last_reported":1738058954,"current_range_meters":38400,"station_id":"ce4bhr92rcd13ifvqhrg","pricing_plan_id":"cebpf4jnsgd1na2vs0mg"},{"bike_id":"84b75094-6b85-43d4-9705-26193b8ae131","system_id":"levelo_inurba_marseille","lat":43.30909,"lon":5.36856,"is_reserved":false,"is_disabled":false,"rental_uris":{"android":"levelo://app?vid=84b75094-6b85-43d4-9705-26193b8ae131","ios":"levelo://app?vid=84b75094-6b85-43d4-9705-26193b8ae131"},"vehicle_type_id":"4","last_reported":1738058954,"current_range_meters":38800,"station_id":"ce4bgn92rcd13ifvqbvg","pricing_plan_id":"cebpf4jnsgd1na2vs0mg"},{"bike_id":"5c388708-e3f2-4bbd-88d9-c199a31e81f9","system_id":"levelo_inurba_marseille","lat":43.28716,"lon":5.39998,"is_reserved":false,"is_disabled":true,"rental_uris":{"android":"levelo://app?vid=5c388708-e3f2-4bbd-88d9-c199a31e81f9","ios":"levelo://app?vid=5c388708-e3f2-4bbd-88d9-c199a31e81f9"},"vehicle_type_id":"4","last_reported":1738058954,"current_range_meters":37600,"station_id":"ce4bho92rcd13ifvqh3g","pricing_plan_id":"cebpf4jnsgd1na2vs0mg"},{"bike_id":"f73b8c2d-b8e9-4e51-bbc1-ba0e506daecd","system_id":"levelo_inurba_marseille","lat":43.31362,"lon":5.36701,"is_reserved":false,"is_disabled":false,"rental_uris":{"android":"levelo://app?vid=f73b8c2d-b8e9-4e51-bbc1-ba0e506daecd","ios":"levelo://app?vid=f73b8c2d-b8e9-4e51-bbc1-ba0e506daecd"},"vehicle_type_id":"4","last_reported":1738058954,"current_range_meters":26000,"station_id":"ce4bgr92rcd13ifvqc6g","pricing_plan_id":"cebpf4jnsgd1na2vs0mg"},{"bike_id":"7b2f5f64-8d5b-4c7d-a864-3b434ad17a80","system_id":"levelo_inurba_marseille","lat":43.28847,"lon":5.35326,"is_reserved":false,"is_disabled":false,"rental_uris":{"android":"levelo://app?vid=7b2f5f64-8d5b-4c7d-a864-3b434ad17a80","ios":"levelo://app?vid=7b2f5f64-8d5b-4c7d-a864-3b434ad17a80"},"vehicle_type_id":"4","last_reported":1738058954,"current_range_meters":18800,"station_id":"","pricing_plan_id":"cebpf4jnsgd1na2vs0mg"},{"bike_id":"df3feb83-e269-4c5e-8150-66ea71b787a7","system_id":"levelo_inurba_marseille","lat":43.27501,"lon":5.4246,"is_reserved":false,"is_disabled":false,"rental_uris":{"android":"levelo://app?vid=df3feb83-e269-4c5e-8150-66ea71b787a7","ios":"levelo://app?vid=df3feb83-e269-4c5e-8150-66ea71b787a7"},"vehicle_type_id":"4","last_reported":1738058954,"current_range_meters":30000,"station_id":"ce4bhn92rcd13ifvqgrg","pricing_plan_id":"cebpf4jnsgd1na2vs0mg"},{"bike_id":"da9caaa4-727f-4a66-88c0-575268010829","system_id":"levelo_inurba_marseille","lat":43.27806,"lon":5.40739,"is_reserved":false,"is_disabled":false,"rental_uris":{"android":"levelo://app?vid=da9caaa4-727f-4a66-88c0-575268010829","ios":"levelo://app?vid=da9caaa4-727f-4a66-88c0-575268010829"},"vehicle_type_id":"4","last_reported":1738058954,"current_range_meters":33200,"station_id":"ce4bhnh2rcd13ifvqgtg","pricing_plan_id":"cebpf4jnsgd1na2vs0mg"},{"bike_id":"d302b16d-f581-4992-9151-b0c15c078cdc","system_id":"levelo_inurba_marseille","lat":43.26783,"lon":5.40281,"is_reserved":false,"is_disabled":false,"rental_uris":{"android":"levelo://app?vid=d302b16d-f581-4992-9151-b0c15c078cdc","ios":"levelo://app?vid=d302b16d-f581-4992-9151-b0c15c078cdc"},"vehicle_type_id":"4","last_reported":1738058954,"current_range_meters":38800,"station_id":"ce501612rcd8frsf0b60","pricing_plan_id":"cebpf4jnsgd1na2vs0mg"},{"bike_id":"7fdce8e7-f4f3-4cc9-a881-56ece1ecdb22","system_id":"levelo_inurba_marseille","lat":43.2797,"lon":5.3873,"is_reserved":false,"is_disabled":true,"rental_uris":{"android":"levelo://app?vid=7fdce8e7-f4f3-4cc9-a881-56ece1ecdb22","ios":"levelo://app?vid=7fdce8e7-f4f3-4cc9-a881-56ece1ecdb22"},"vehicle_type_id":"4","last_reported":1738058954,"current_range_meters":1200,"station_id":"ce4bhg12rcd13ifvqf80","pricing_plan_id":"cebpf4jnsgd1na2vs0mg"},{"bike_id":"514e0375-0362-4f63-8567-42a290d6fde8","system_id":"levelo_inurba_marseille","lat":43.25572,"lon":5.38249,"is_reserved":false,"is_disabled":false,"rental_uris":{"android":"levelo://app?vid=514e0375-0362-4f63-8567-42a290d6fde8","ios":"levelo://app?vid=514e0375-0362-4f63-8567-42a290d6fde8"},"vehicle_type_id":"4","last_reported":1738058954,"current_range_meters":38800,"station_id":"ce4bhih2rcd13ifvqfs0","pricing_plan_id":"cebpf4jnsgd1na2vs0mg"},{"bike_id":"26b11614-6415-40a3-bed2-5926abfaad8a","system_id":"levelo_inurba_marseille","lat":43.26678,"lon":5.38299,"is_reserved":false,"is_disabled":true,"rental_uris":{"android":"levelo://app?vid=26b11614-6415-40a3-bed2-5926abfaad8a","ios":"levelo://app?vid=26b11614-6415-40a3-bed2-5926abfaad8a"},"vehicle_type_id":"4","last_reported":1738058954,"current_range_meters":32400,"station_id":"ce4bhg92rcd13ifvqf90","pricing_plan_id":"cebpf4jnsgd1na2vs0mg"},{"bike_id":"7b5b0941-39bf-4913-8de4-07b4c51fbb92","system_id":"levelo_inurba_marseille","lat":43.3136,"lon":5.36708,"is_reserved":false,"is_disabled":false,"rental_uris":{"android":"levelo://app?vid=7b5b0941-39bf-4913-8de4-07b4c51fbb92","ios":"levelo://app?vid=7b5b0941-39bf-4913-8de4-07b4c51fbb92"},"vehicle_type_id":"4","last_reported":1738058954,"current_range_meters":34800,"station_id":"ce4bgr92rcd13ifvqc6g","pricing_plan_id":"cebpf4jnsgd1na2vs0mg"},{"bike_id":"63a44a15-400e-4d6f-b9d2-a11851cf2123","system_id":"levelo_inurba_marseille","lat":43.29781,"lon":5.38095,"is_reserved":false,"is_disabled":true,"rental_uris":{"android":"levelo://app?vid=63a44a15-400e-4d6f-b9d2-a11851cf2123","ios":"levelo://app?vid=63a44a15-400e-4d6f-b9d2-a11851cf2123"},"vehicle_type_id":"4","last_reported":1738058954,"current_range_meters":33600,"station_id":"ce4bgip2rcd13ifvqbb0","pricing_plan_id":"cebpf4jnsgd1na2vs0mg"},{"bike_id":"f2eeac19-a1a3-4bf8-959a-fcabe948ad45","system_id":"levelo_inurba_marseille","lat":43.33605,"lon":5.41033,"is_reserved":false,"is_disabled":false,"rental_uris":{"android":"levelo://app?vid=f2eeac19-a1a3-4bf8-959a-fcabe948ad45","ios":"levelo://app?vid=f2eeac19-a1a3-4bf8-959a-fcabe948ad45"},"vehicle_type_id":"4","last_reported":1738058954,"current_range_meters":38800,"station_id":"ce4bhqh2rcd13ifvqhmg","pricing_plan_id":"cebpf4jnsgd1na2vs0mg"},{"bike_id":"12f85043-32ca-49b8-bd75-39b0a52fbb53","system_id":"levelo_inurba_marseille","lat":43.27485,"lon":5.42481,"is_reserved":false,"is_disabled":false,"rental_uris":{"android":"levelo://app?vid=12f85043-32ca-49b8-bd75-39b0a52fbb53","ios":"levelo://app?vid=12f85043-32ca-49b8-bd75-39b0a52fbb53"},"vehicle_type_id":"4","last_reported":1738058954,"current_range_meters":32000,"station_id":"ce4bhn92rcd13ifvqgrg","pricing_plan_id":"cebpf4jnsgd1na2vs0mg"},{"bike_id":"4cd885e7-07fa-42ad-a294-3a57579ff57e","system_id":"levelo_inurba_marseille","lat":43.27494,"lon":5.42462,"is_reserved":false,"is_disabled":false,"rental_uris":{"android":"levelo://app?vid=4cd885e7-07fa-42ad-a294-3a57579ff57e","ios":"levelo://app?vid=4cd885e7-07fa-42ad-a294-3a57579ff57e"},"vehicle_type_id":"4","last_reported":1738058954,"current_range_meters":13600,"station_id":"ce4bhn92rcd13ifvqgrg","pricing_plan_id":"cebpf4jnsgd1na2vs0mg"},{"bike_id":"f97d89ed-9b9d-4475-a732-b5f09d6f3218","system_id":"levelo_inurba_marseille","lat":43.30888,"lon":5.36852,"is_reserved":false,"is_disabled":false,"rental_uris":{"android":"levelo://app?vid=f97d89ed-9b9d-4475-a732-b5f09d6f3218","ios":"levelo://app?vid=f97d89ed-9b9d-4475-a732-b5f09d6f3218"},"vehicle_type_id":"4","last_reported":1738058954,"current_range_meters":18800,"station_id":"ce4bgn92rcd13ifvqbvg","pricing_plan_id":"cebpf4jnsgd1na2vs0mg"},{"bike_id":"f0be5cae-50c5-43f8-968c-330479d5d428","system_id":"levelo_inurba_marseille","lat":43.24803,"lon":5.37452,"is_reserved":false,"is_disabled":false,"rental_uris":{"android":"levelo://app?vid=f0be5cae-50c5-43f8-968c-330479d5d428","ios":"levelo://app?vid=f0be5cae-50c5-43f8-968c-330479d5d428"},"vehicle_type_id":"4","last_reported":1738058954,"current_range_meters":16400,"station_id":"ce4bhgh2rcd13ifvqfb0","pricing_plan_id":"cebpf4jnsgd1na2vs0mg"},{"bike_id":"75f78423-7bb1-46bc-9291-8f61438106b2","system_id":"levelo_inurba_marseille","lat":43.33011,"lon":5.39027,"is_reserved":false,"is_disabled":false,"rental_uris":{"android":"levelo://app?vid=75f78423-7bb1-46bc-9291-8f61438106b2","ios":"levelo://app?vid=75f78423-7bb1-46bc-9291-8f61438106b2"},"vehicle_type_id":"4","last_reported":1738058954,"current_range_meters":30000,"station_id":"ce4bhr92rcd13ifvqhrg","pricing_plan_id":"cebpf4jnsgd1na2vs0mg"},{"bike_id":"6b58c0d3-b393-43a6-b788-79693e31f83f","system_id":"levelo_inurba_marseille","lat":43.27091,"lon":5.42252,"is_reserved":false,"is_disabled":false,"rental_uris":{"android":"levelo://app?vid=6b58c0d3-b393-43a6-b788-79693e31f83f","ios":"levelo://app?vid=6b58c0d3-b393-43a6-b788-79693e31f83f"},"vehicle_type_id":"4","last_reported":1738058954,"current_range_meters":32400,"station_id":"ce4bhk92rcd13ifvqgb0","pricing_plan_id":"cebpf4jnsgd1na2vs0mg"},{"bike_id":"5b093e90-300a-4b0a-a15d-ae22ef06f7a6","system_id":"levelo_inurba_marseille","lat":43.30527,"lon":5.3654,"is_reserved":false,"is_disabled":false,"rental_uris":{"android":"levelo://app?vid=5b093e90-300a-4b0a-a15d-ae22ef06f7a6","ios":"levelo://app?vid=5b093e90-300a-4b0a-a15d-ae22ef06f7a6"},"vehicle_type_id":"4","last_reported":1738058954,"current_range_meters":32800,"station_id":"ce4bgs12rcd13ifvqcag","pricing_plan_id":"cebpf4jnsgd1na2vs0mg"},{"bike_id":"8906b01c-c546-42d8-8a71-d3e4c23c32f6","system_id":"levelo_inurba_marseille","lat":43.2439,"lon":5.3706,"is_reserved":false,"is_disabled":false,"rental_uris":{"android":"levelo://app?vid=8906b01c-c546-42d8-8a71-d3e4c23c32f6","ios":"levelo://app?vid=8906b01c-c546-42d8-8a71-d3e4c23c32f6"},"vehicle_type_id":"4","last_reported":1738058954,"current_range_meters":38800,"station_id":"ce4bhhh2rcd13ifvqfk0","pricing_plan_id":"cebpf4jnsgd1na2vs0mg"},{"bike_id":"0613f6f9-5bdf-4b1e-a3b8-9eb5f8cb8163","system_id":"levelo_inurba_marseille","lat":43.27677,"lon":5.38935,"is_reserved":false,"is_disabled":false,"rental_uris":{"android":"levelo://app?vid=0613f6f9-5bdf-4b1e-a3b8-9eb5f8cb8163","ios":"levelo://app?vid=0613f6f9-5bdf-4b1e-a3b8-9eb5f8cb8163"},"vehicle_type_id":"4","last_reported":1738058954,"current_range_meters":38400,"station_id":"ce4bhi12rcd13ifvqfo0","pricing_plan_id":"cebpf4jnsgd1na2vs0mg"},{"bike_id":"5525a6bb-1f00-4c3d-ae5a-2f9c42d6c256","system_id":"levelo_inurba_marseille","lat":43.3148,"lon":5.3731,"is_reserved":false,"is_disabled":false,"rental_uris":{"android":"levelo://app?vid=5525a6bb-1f00-4c3d-ae5a-2f9c42d6c256","ios":"levelo://app?vid=5525a6bb-1f00-4c3d-ae5a-2f9c42d6c256"},"vehicle_type_id":"4","last_reported":1738058954,"current_range_meters":16800,"station_id":"ce4bgt12rcd13ifvqcd0","pricing_plan_id":"cebpf4jnsgd1na2vs0mg"},{"bike_id":"6629ea50-bbe0-48da-bc0b-667611788b58","system_id":"levelo_inurba_marseille","lat":43.29959,"lon":5.38514,"is_reserved":false,"is_disabled":true,"rental_uris":{"android":"levelo://app?vid=6629ea50-bbe0-48da-bc0b-667611788b58","ios":"levelo://app?vid=6629ea50-bbe0-48da-bc0b-667611788b58"},"vehicle_type_id":"4","last_reported":1738058954,"current_range_meters":38800,"station_id":"ce4bgj92rcd13ifvqbd0","pricing_plan_id":"cebpf4jnsgd1na2vs0mg"},{"bike_id":"2bf0aa1d-7589-466f-a2ca-1611b0a4101e","system_id":"levelo_inurba_marseille","lat":43.27209,"lon":5.39159,"is_reserved":false,"is_disabled":false,"rental_uris":{"android":"levelo://app?vid=2bf0aa1d-7589-466f-a2ca-1611b0a4101e","ios":"levelo://app?vid=2bf0aa1d-7589-466f-a2ca-1611b0a4101e"},"vehicle_type_id":"4","last_reported":1738058954,"current_range_meters":38800,"station_id":"ce4bhhp2rcd13ifvqfm0","pricing_plan_id":"cebpf4jnsgd1na2vs0mg"},{"bike_id":"5e75d8b0-b560-4c96-83a9-6442fc0ee09c","system_id":"levelo_inurba_marseille","lat":43.29252,"lon":5.40895,"is_reserved":false,"is_disabled":false,"rental_uris":{"android":"levelo://app?vid=5e75d8b0-b560-4c96-83a9-6442fc0ee09c","ios":"levelo://app?vid=5e75d8b0-b560-4c96-83a9-6442fc0ee09c"},"vehicle_type_id":"4","last_reported":1738058954,"current_range_meters":36000,"station_id":"ce4bh192rcd13ifvqdc0","pricing_plan_id":"cebpf4jnsgd1na2vs0mg"},{"bike_id":"74f5b4fb-c983-4859-8997-cbdd1d625684","system_id":"levelo_inurba_marseille","lat":43.25928,"lon":5.40878,"is_reserved":false,"is_disabled":false,"rental_uris":{"android":"levelo://app?vid=74f5b4fb-c983-4859-8997-cbdd1d625684","ios":"levelo://app?vid=74f5b4fb-c983-4859-8997-cbdd1d625684"},"vehicle_type_id":"4","last_reported":1738058954,"current_range_meters":33200,"station_id":"ce4bhm92rcd13ifvqglg","pricing_plan_id":"cebpf4jnsgd1na2vs0mg"},{"bike_id":"79c90c8a-816b-46b4-9c46-d33ce70db34a","system_id":"levelo_inurba_marseille","lat":43.32101,"lon":5.36782,"is_reserved":false,"is_disabled":false,"rental_uris":{"android":"levelo://app?vid=79c90c8a-816b-46b4-9c46-d33ce70db34a","ios":"levelo://app?vid=79c90c8a-816b-46b4-9c46-d33ce70db34a"},"vehicle_type_id":"4","last_reported":1738058954,"current_range_meters":32800,"station_id":"ce4bhrh2rcd13ifvqhug","pricing_plan_id":"cebpf4jnsgd1na2vs0mg"},{"bike_id":"38ba650d-dcb0-462c-b073-ac81cea830a1","system_id":"levelo_inurba_marseille","lat":43.25003,"lon":5.38925,"is_reserved":false,"is_disabled":false,"rental_uris":{"android":"levelo://app?vid=38ba650d-dcb0-462c-b073-ac81cea830a1","ios":"levelo://app?vid=38ba650d-dcb0-462c-b073-ac81cea830a1"},"vehicle_type_id":"4","last_reported":1738058954,"current_range_meters":24800,"station_id":"ce4bhgp2rcd13ifvqfd0","pricing_plan_id":"cebpf4jnsgd1na2vs0mg"},{"bike_id":"528dd257-e231-44f4-876b-6552ff415f71","system_id":"levelo_inurba_marseille","lat":43.2294,"lon":5.35372,"is_reserved":false,"is_disabled":false,"rental_uris":{"android":"levelo://app?vid=528dd257-e231-44f4-876b-6552ff415f71","ios":"levelo://app?vid=528dd257-e231-44f4-876b-6552ff415f71"},"vehicle_type_id":"4","last_reported":1738058954,"current_range_meters":37600,"station_id":"cpo3532slgdg3j2ikp40","pricing_plan_id":"cebpf4jnsgd1na2vs0mg"},{"bike_id":"c8a3a0ed-dff2-4f3c-87dc-2e6b47b1ad28","system_id":"levelo_inurba_marseille","lat":43.337444,"lon":5.374475,"is_reserved":false,"is_disabled":true,"rental_uris":{"android":"levelo://app?vid=c8a3a0ed-dff2-4f3c-87dc-2e6b47b1ad28","ios":"levelo://app?vid=c8a3a0ed-dff2-4f3c-87dc-2e6b47b1ad28"},"vehicle_type_id":"4","last_reported":1738058954,"current_range_meters":6000,"station_id":"","pricing_plan_id":"cebpf4jnsgd1na2vs0mg"},{"bike_id":"061a807c-1db8-46c7-beec-da6308b151ea","system_id":"levelo_inurba_marseille","lat":43.29598,"lon":5.38107,"is_reserved":false,"is_disabled":true,"rental_uris":{"android":"levelo://app?vid=061a807c-1db8-46c7-beec-da6308b151ea","ios":"levelo://app?vid=061a807c-1db8-46c7-beec-da6308b151ea"},"vehicle_type_id":"4","last_reported":1738058954,"current_range_meters":33200,"station_id":"ce4bgl12rcd13ifvqbo0","pricing_plan_id":"cebpf4jnsgd1na2vs0mg"},{"bike_id":"7d24dbad-2018-45ea-9c9d-de820bc3cba6","system_id":"levelo_inurba_marseille","lat":43.30435,"lon":5.38898,"is_reserved":false,"is_disabled":false,"rental_uris":{"android":"levelo://app?vid=7d24dbad-2018-45ea-9c9d-de820bc3cba6","ios":"levelo://app?vid=7d24dbad-2018-45ea-9c9d-de820bc3cba6"},"vehicle_type_id":"4","last_reported":1738058954,"current_range_meters":33200,"station_id":"ce4bgk12rcd13ifvqbi0","pricing_plan_id":"cebpf4jnsgd1na2vs0mg"},{"bike_id":"38540e81-16ab-49ee-bc5b-9723b654df44","system_id":"levelo_inurba_marseille","lat":43.278,"lon":5.40743,"is_reserved":false,"is_disabled":true,"rental_uris":{"android":"levelo://app?vid=38540e81-16ab-49ee-bc5b-9723b654df44","ios":"levelo://app?vid=38540e81-16ab-49ee-bc5b-9723b654df44"},"vehicle_type_id":"4","last_reported":1738058954,"current_range_meters":10800,"station_id":"ce4bhnh2rcd13ifvqgtg","pricing_plan_id":"cebpf4jnsgd1na2vs0mg"},{"bike_id":"0a3c2fc6-3a3b-4b11-853c-a8532910522d","system_id":"levelo_inurba_marseille","lat":43.31744,"lon":5.39022,"is_reserved":false,"is_disabled":false,"rental_uris":{"android":"levelo://app?vid=0a3c2fc6-3a3b-4b11-853c-a8532910522d","ios":"levelo://app?vid=0a3c2fc6-3a3b-4b11-853c-a8532910522d"},"vehicle_type_id":"4","last_reported":1738058954,"current_range_meters":25600,"station_id":"ce4bhqp2rcd13ifvqhng","pricing_plan_id":"cebpf4jnsgd1na2vs0mg"},{"bike_id":"e4faaccf-23da-4bae-9adc-e267b5f4cf59","system_id":"levelo_inurba_marseille","lat":43.24692,"lon":5.38127,"is_reserved":false,"is_disabled":false,"rental_uris":{"android":"levelo://app?vid=e4faaccf-23da-4bae-9adc-e267b5f4cf59","ios":"levelo://app?vid=e4faaccf-23da-4bae-9adc-e267b5f4cf59"},"vehicle_type_id":"4","last_reported":1738058954,"current_range_meters":38800,"station_id":"ce4bhih2rcd13ifvqfr0","pricing_plan_id":"cebpf4jnsgd1na2vs0mg"},{"bike_id":"c56189c5-04b6-46c3-862e-b1fd4715143e","system_id":"levelo_inurba_marseille","lat":43.23148,"lon":5.43721,"is_reserved":false,"is_disabled":false,"rental_uris":{"android":"levelo://app?vid=c56189c5-04b6-46c3-862e-b1fd4715143e","ios":"levelo://app?vid=c56189c5-04b6-46c3-862e-b1fd4715143e"},"vehicle_type_id":"4","last_reported":1738058954,"current_range_meters":24800,"station_id":"ce4bhmp2rcd13ifvqgog","pricing_plan_id":"cebpf4jnsgd1na2vs0mg"},{"bike_id":"7125fabb-d4fe-450e-b9a8-9b858c3dc86d","system_id":"levelo_inurba_marseille","lat":43.32451,"lon":5.36577,"is_reserved":false,"is_disabled":false,"rental_uris":{"android":"levelo://app?vid=7125fabb-d4fe-450e-b9a8-9b858c3dc86d","ios":"levelo://app?vid=7125fabb-d4fe-450e-b9a8-9b858c3dc86d"},"vehicle_type_id":"4","last_reported":1738058954,"current_range_meters":29600,"station_id":"ce4bhs12rcd13ifvqhvg","pricing_plan_id":"cebpf4jnsgd1na2vs0mg"},{"bike_id":"aee4e70d-7c25-4aa8-8d7f-352cd3d32fa9","system_id":"levelo_inurba_marseille","lat":43.30549,"lon":5.36511,"is_reserved":false,"is_disabled":false,"rental_uris":{"android":"levelo://app?vid=aee4e70d-7c25-4aa8-8d7f-352cd3d32fa9","ios":"levelo://app?vid=aee4e70d-7c25-4aa8-8d7f-352cd3d32fa9"},"vehicle_type_id":"4","last_reported":1738058954,"current_range_meters":8000,"station_id":"ce4bgs12rcd13ifvqcag","pricing_plan_id":"cebpf4jnsgd1na2vs0mg"},{"bike_id":"cd82f50f-1e86-40da-9758-123ed9f78048","system_id":"levelo_inurba_marseille","lat":43.27407,"lon":5.3938,"is_reserved":false,"is_disabled":false,"rental_uris":{"android":"levelo://app?vid=cd82f50f-1e86-40da-9758-123ed9f78048","ios":"levelo://app?vid=cd82f50f-1e86-40da-9758-123ed9f78048"},"vehicle_type_id":"4","last_reported":1738058954,"current_range_meters":35200,"station_id":"ce4bhdp2rcd13ifvqf20","pricing_plan_id":"cebpf4jnsgd1na2vs0mg"},{"bike_id":"ac87515a-8bb4-48b1-b85c-2c3a2a77a9ff","system_id":"levelo_inurba_marseille","lat":43.29788,"lon":5.37631,"is_reserved":false,"is_disabled":false,"rental_uris":{"android":"levelo://app?vid=ac87515a-8bb4-48b1-b85c-2c3a2a77a9ff","ios":"levelo://app?vid=ac87515a-8bb4-48b1-b85c-2c3a2a77a9ff"},"vehicle_type_id":"4","last_reported":1738058954,"current_range_meters":30000,"station_id":"ce4bgkh2rcd13ifvqbl0","pricing_plan_id":"cebpf4jnsgd1na2vs0mg"},{"bike_id":"9838cc78-2b53-49d3-ae13-82df62c4fd64","system_id":"levelo_inurba_marseille","lat":43.28412,"lon":5.40934,"is_reserved":false,"is_disabled":true,"rental_uris":{"android":"levelo://app?vid=9838cc78-2b53-49d3-ae13-82df62c4fd64","ios":"levelo://app?vid=9838cc78-2b53-49d3-ae13-82df62c4fd64"},"vehicle_type_id":"4","last_reported":1738058954,"current_range_meters":0,"station_id":"","pricing_plan_id":"cebpf4jnsgd1na2vs0mg"},{"bike_id":"e5cef4a6-2186-4da7-b93b-16853bc4d9e8","system_id":"levelo_inurba_marseille","lat":43.29047,"lon":5.39963,"is_reserved":false,"is_disabled":false,"rental_uris":{"android":"levelo://app?vid=e5cef4a6-2186-4da7-b93b-16853bc4d9e8","ios":"levelo://app?vid=e5cef4a6-2186-4da7-b93b-16853bc4d9e8"},"vehicle_type_id":"4","last_reported":1738058954,"current_range_meters":30400,"station_id":"ce4bh392rcd13ifvqdm0","pricing_plan_id":"cebpf4jnsgd1na2vs0mg"},{"bike_id":"f3a886a3-500d-4d32-a120-4a7101c0f911","system_id":"levelo_inurba_marseille","lat":43.26916,"lon":5.4027,"is_reserved":false,"is_disabled":false,"rental_uris":{"android":"levelo://app?vid=f3a886a3-500d-4d32-a120-4a7101c0f911","ios":"levelo://app?vid=f3a886a3-500d-4d32-a120-4a7101c0f911"},"vehicle_type_id":"4","last_reported":1738058954,"current_range_meters":38800,"station_id":"cjm6bp8fraef2m0cb0m0","pricing_plan_id":"cebpf4jnsgd1na2vs0mg"},{"bike_id":"08f4db7c-088d-4d66-9ae3-751c57486c2e","system_id":"levelo_inurba_marseille","lat":43.30941,"lon":5.36845,"is_reserved":false,"is_disabled":false,"rental_uris":{"android":"levelo://app?vid=08f4db7c-088d-4d66-9ae3-751c57486c2e","ios":"levelo://app?vid=08f4db7c-088d-4d66-9ae3-751c57486c2e"},"vehicle_type_id":"4","last_reported":1738058954,"current_range_meters":10800,"station_id":"ce4bgn92rcd13ifvqbvg","pricing_plan_id":"cebpf4jnsgd1na2vs0mg"},{"bike_id":"1c756a91-157c-4d1a-b52a-f5d48998978e","system_id":"levelo_inurba_marseille","lat":43.27432,"lon":5.39393,"is_reserved":false,"is_disabled":false,"rental_uris":{"android":"levelo://app?vid=1c756a91-157c-4d1a-b52a-f5d48998978e","ios":"levelo://app?vid=1c756a91-157c-4d1a-b52a-f5d48998978e"},"vehicle_type_id":"4","last_reported":1738058954,"current_range_meters":33600,"station_id":"ce4bhdp2rcd13ifvqf20","pricing_plan_id":"cebpf4jnsgd1na2vs0mg"},{"bike_id":"5fb9b113-0d22-4ec1-b097-cf11c9f99255","system_id":"levelo_inurba_marseille","lat":43.29413,"lon":5.38626,"is_reserved":false,"is_disabled":false,"rental_uris":{"android":"levelo://app?vid=5fb9b113-0d22-4ec1-b097-cf11c9f99255","ios":"levelo://app?vid=5fb9b113-0d22-4ec1-b097-cf11c9f99255"},"vehicle_type_id":"4","last_reported":1738058954,"current_range_meters":14400,"station_id":"ce4bh2h2rcd13ifvqdh0","pricing_plan_id":"cebpf4jnsgd1na2vs0mg"},{"bike_id":"cc9d89cf-0068-491f-97e3-130e63a3faaa","system_id":"levelo_inurba_marseille","lat":43.2977,"lon":5.38112,"is_reserved":false,"is_disabled":true,"rental_uris":{"android":"levelo://app?vid=cc9d89cf-0068-491f-97e3-130e63a3faaa","ios":"levelo://app?vid=cc9d89cf-0068-491f-97e3-130e63a3faaa"},"vehicle_type_id":"4","last_reported":1738058954,"current_range_meters":27200,"station_id":"ce4bgip2rcd13ifvqbb0","pricing_plan_id":"cebpf4jnsgd1na2vs0mg"},{"bike_id":"8c6478bf-a68b-4f59-8f60-278c687f9aff","system_id":"levelo_inurba_marseille","lat":43.30593,"lon":5.36713,"is_reserved":false,"is_disabled":false,"rental_uris":{"android":"levelo://app?vid=8c6478bf-a68b-4f59-8f60-278c687f9aff","ios":"levelo://app?vid=8c6478bf-a68b-4f59-8f60-278c687f9aff"},"vehicle_type_id":"4","last_reported":1738058954,"current_range_meters":32000,"station_id":"","pricing_plan_id":"cebpf4jnsgd1na2vs0mg"},{"bike_id":"4e5bc90a-2973-4125-8399-ba9ae9a7ee72","system_id":"levelo_inurba_marseille","lat":43.26944,"lon":5.38648,"is_reserved":false,"is_disabled":false,"rental_uris":{"android":"levelo://app?vid=4e5bc90a-2973-4125-8399-ba9ae9a7ee72","ios":"levelo://app?vid=4e5bc90a-2973-4125-8399-ba9ae9a7ee72"},"vehicle_type_id":"4","last_reported":1738058954,"current_range_meters":38800,"station_id":"ce4bhh92rcd13ifvqfh0","pricing_plan_id":"cebpf4jnsgd1na2vs0mg"},{"bike_id":"5f13e8a2-4920-45e0-93ce-e92fd94b11f7","system_id":"levelo_inurba_marseille","lat":43.30128,"lon":5.39831,"is_reserved":false,"is_disabled":false,"rental_uris":{"android":"levelo://app?vid=5f13e8a2-4920-45e0-93ce-e92fd94b11f7","ios":"levelo://app?vid=5f13e8a2-4920-45e0-93ce-e92fd94b11f7"},"vehicle_type_id":"4","last_reported":1738058954,"current_range_meters":28800,"station_id":"ce4bh0h2rcd13ifvqd40","pricing_plan_id":"cebpf4jnsgd1na2vs0mg"},{"bike_id":"b0de57b4-71b0-4ad9-943f-ebe0984e3daf","system_id":"levelo_inurba_marseille","lat":43.29009,"lon":5.35593,"is_reserved":false,"is_disabled":false,"rental_uris":{"android":"levelo://app?vid=b0de57b4-71b0-4ad9-943f-ebe0984e3daf","ios":"levelo://app?vid=b0de57b4-71b0-4ad9-943f-ebe0984e3daf"},"vehicle_type_id":"4","last_reported":1738058954,"current_range_meters":31200,"station_id":"ce4bhb92rcd13ifvqen0","pricing_plan_id":"cebpf4jnsgd1na2vs0mg"},{"bike_id":"2e0a8b86-b457-48a0-8577-213b01080398","system_id":"levelo_inurba_marseille","lat":43.23172,"lon":5.35598,"is_reserved":false,"is_disabled":false,"rental_uris":{"android":"levelo://app?vid=2e0a8b86-b457-48a0-8577-213b01080398","ios":"levelo://app?vid=2e0a8b86-b457-48a0-8577-213b01080398"},"vehicle_type_id":"4","last_reported":1738058954,"current_range_meters":38800,"station_id":"ce4bhu92rcd13ifvqi70","pricing_plan_id":"cebpf4jnsgd1na2vs0mg"},{"bike_id":"ed8d6eb5-8dfb-4a99-93df-d68092e160e1","system_id":"levelo_inurba_marseille","lat":43.30008,"lon":5.37196,"is_reserved":false,"is_disabled":false,"rental_uris":{"android":"levelo://app?vid=ed8d6eb5-8dfb-4a99-93df-d68092e160e1","ios":"levelo://app?vid=ed8d6eb5-8dfb-4a99-93df-d68092e160e1"},"vehicle_type_id":"4","last_reported":1738058954,"current_range_meters":17600,"station_id":"ce4bgr92rcd13ifvqc7g","pricing_plan_id":"cebpf4jnsgd1na2vs0mg"},{"bike_id":"5e223a13-d9d6-4104-a061-2e2e2022fe21","system_id":"levelo_inurba_marseille","lat":43.23146,"lon":5.43723,"is_reserved":false,"is_disabled":false,"rental_uris":{"android":"levelo://app?vid=5e223a13-d9d6-4104-a061-2e2e2022fe21","ios":"levelo://app?vid=5e223a13-d9d6-4104-a061-2e2e2022fe21"},"vehicle_type_id":"4","last_reported":1738058954,"current_range_meters":20400,"station_id":"ce4bhmp2rcd13ifvqgog","pricing_plan_id":"cebpf4jnsgd1na2vs0mg"},{"bike_id":"d979d8d2-ec65-47af-9229-e4270aab279a","system_id":"levelo_inurba_marseille","lat":43.2306,"lon":5.355,"is_reserved":false,"is_disabled":false,"rental_uris":{"android":"levelo://app?vid=d979d8d2-ec65-47af-9229-e4270aab279a","ios":"levelo://app?vid=d979d8d2-ec65-47af-9229-e4270aab279a"},"vehicle_type_id":"4","last_reported":1738058954,"current_range_meters":24800,"station_id":"cpo3342slgdg3j2ifvpg","pricing_plan_id":"cebpf4jnsgd1na2vs0mg"},{"bike_id":"beec82ff-6bac-4064-befa-4bdf4421761b","system_id":"levelo_inurba_marseille","lat":43.31724,"lon":5.42391,"is_reserved":false,"is_disabled":false,"rental_uris":{"android":"levelo://app?vid=beec82ff-6bac-4064-befa-4bdf4421761b","ios":"levelo://app?vid=beec82ff-6bac-4064-befa-4bdf4421761b"},"vehicle_type_id":"4","last_reported":1738058954,"current_range_meters":8000,"station_id":"ce4bhp92rcd13ifvqhbg","pricing_plan_id":"cebpf4jnsgd1na2vs0mg"},{"bike_id":"11b433ad-6e62-4b44-a5d1-e7d765e0fd67","system_id":"levelo_inurba_marseille","lat":43.27993,"lon":5.40016,"is_reserved":false,"is_disabled":false,"rental_uris":{"android":"levelo://app?vid=11b433ad-6e62-4b44-a5d1-e7d765e0fd67","ios":"levelo://app?vid=11b433ad-6e62-4b44-a5d1-e7d765e0fd67"},"vehicle_type_id":"4","last_reported":1738058954,"current_range_meters":38800,"station_id":"ce4bho92rcd13ifvqh4g","pricing_plan_id":"cebpf4jnsgd1na2vs0mg"},{"bike_id":"6664f5d0-d4fd-4cc2-bf4f-e873b1144bc5","system_id":"levelo_inurba_marseille","lat":43.267,"lon":5.3825,"is_reserved":false,"is_disabled":false,"rental_uris":{"android":"levelo://app?vid=6664f5d0-d4fd-4cc2-bf4f-e873b1144bc5","ios":"levelo://app?vid=6664f5d0-d4fd-4cc2-bf4f-e873b1144bc5"},"vehicle_type_id":"4","last_reported":1738058954,"current_range_meters":14400,"station_id":"ce4bhg92rcd13ifvqf90","pricing_plan_id":"cebpf4jnsgd1na2vs0mg"},{"bike_id":"c92f3ed1-1832-45b1-95ae-e066a3c304bb","system_id":"levelo_inurba_marseille","lat":43.33032,"lon":5.39041,"is_reserved":false,"is_disabled":false,"rental_uris":{"android":"levelo://app?vid=c92f3ed1-1832-45b1-95ae-e066a3c304bb","ios":"levelo://app?vid=c92f3ed1-1832-45b1-95ae-e066a3c304bb"},"vehicle_type_id":"4","last_reported":1738058954,"current_range_meters":38400,"station_id":"ce4bhr92rcd13ifvqhrg","pricing_plan_id":"cebpf4jnsgd1na2vs0mg"},{"bike_id":"de5ffb6b-cadf-441a-b662-70d925ff7e04","system_id":"levelo_inurba_marseille","lat":43.28937,"lon":5.36636,"is_reserved":false,"is_disabled":false,"rental_uris":{"android":"levelo://app?vid=de5ffb6b-cadf-441a-b662-70d925ff7e04","ios":"levelo://app?vid=de5ffb6b-cadf-441a-b662-70d925ff7e04"},"vehicle_type_id":"4","last_reported":1738058954,"current_range_meters":8800,"station_id":"ce4bhap2rcd13ifvqek0","pricing_plan_id":"cebpf4jnsgd1na2vs0mg"},{"bike_id":"60881969-2b21-4328-b823-e3e5062d06ef","system_id":"levelo_inurba_marseille","lat":43.27498,"lon":5.42467,"is_reserved":false,"is_disabled":false,"rental_uris":{"android":"levelo://app?vid=60881969-2b21-4328-b823-e3e5062d06ef","ios":"levelo://app?vid=60881969-2b21-4328-b823-e3e5062d06ef"},"vehicle_type_id":"4","last_reported":1738058954,"current_range_meters":10000,"station_id":"ce4bhn92rcd13ifvqgrg","pricing_plan_id":"cebpf4jnsgd1na2vs0mg"},{"bike_id":"65e5d743-4939-4264-b58d-d07fa3ba4595","system_id":"levelo_inurba_marseille","lat":43.24805,"lon":5.37462,"is_reserved":false,"is_disabled":false,"rental_uris":{"android":"levelo://app?vid=65e5d743-4939-4264-b58d-d07fa3ba4595","ios":"levelo://app?vid=65e5d743-4939-4264-b58d-d07fa3ba4595"},"vehicle_type_id":"4","last_reported":1738058954,"current_range_meters":38800,"station_id":"ce4bhgh2rcd13ifvqfb0","pricing_plan_id":"cebpf4jnsgd1na2vs0mg"},{"bike_id":"3c8d6470-90d1-4f9d-b17d-61a5490cc1f8","system_id":"levelo_inurba_marseille","lat":43.30647,"lon":5.40103,"is_reserved":false,"is_disabled":false,"rental_uris":{"android":"levelo://app?vid=3c8d6470-90d1-4f9d-b17d-61a5490cc1f8","ios":"levelo://app?vid=3c8d6470-90d1-4f9d-b17d-61a5490cc1f8"},"vehicle_type_id":"4","last_reported":1738058954,"current_range_meters":33600,"station_id":"ce4bh112rcd13ifvqda0","pricing_plan_id":"cebpf4jnsgd1na2vs0mg"},{"bike_id":"75214a19-3086-4aab-8ba6-a177978da634","system_id":"levelo_inurba_marseille","lat":43.29894,"lon":5.43661,"is_reserved":false,"is_disabled":false,"rental_uris":{"android":"levelo://app?vid=75214a19-3086-4aab-8ba6-a177978da634","ios":"levelo://app?vid=75214a19-3086-4aab-8ba6-a177978da634"},"vehicle_type_id":"4","last_reported":1738058954,"current_range_meters":36400,"station_id":"ce4bhpp2rcd13ifvqhfg","pricing_plan_id":"cebpf4jnsgd1na2vs0mg"},{"bike_id":"30bbb00e-1612-4a25-b2e9-c8ad656fb58a","system_id":"levelo_inurba_marseille","lat":43.33731,"lon":5.39178,"is_reserved":false,"is_disabled":false,"rental_uris":{"android":"levelo://app?vid=30bbb00e-1612-4a25-b2e9-c8ad656fb58a","ios":"levelo://app?vid=30bbb00e-1612-4a25-b2e9-c8ad656fb58a"},"vehicle_type_id":"4","last_reported":1738058954,"current_range_meters":38800,"station_id":"ce4bhr92rcd13ifvqhsg","pricing_plan_id":"cebpf4jnsgd1na2vs0mg"},{"bike_id":"9e44b3dc-28f0-4b62-9e2e-e27779f8c54f","system_id":"levelo_inurba_marseille","lat":43.29766,"lon":5.38146,"is_reserved":false,"is_disabled":false,"rental_uris":{"android":"levelo://app?vid=9e44b3dc-28f0-4b62-9e2e-e27779f8c54f","ios":"levelo://app?vid=9e44b3dc-28f0-4b62-9e2e-e27779f8c54f"},"vehicle_type_id":"4","last_reported":1738058954,"current_range_meters":37600,"station_id":"ce4bgip2rcd13ifvqbb0","pricing_plan_id":"cebpf4jnsgd1na2vs0mg"},{"bike_id":"911a9686-a84c-48d0-8f81-51ea016cf4c6","system_id":"levelo_inurba_marseille","lat":43.304635,"lon":5.378981,"is_reserved":false,"is_disabled":false,"rental_uris":{"android":"levelo://app?vid=911a9686-a84c-48d0-8f81-51ea016cf4c6","ios":"levelo://app?vid=911a9686-a84c-48d0-8f81-51ea016cf4c6"},"vehicle_type_id":"4","last_reported":1738058954,"current_range_meters":38800,"station_id":"ce4bgup2rcd13ifvqcn0","pricing_plan_id":"cebpf4jnsgd1na2vs0mg"},{"bike_id":"ddeeb021-3aa5-4692-ac65-d696b9db8d28","system_id":"levelo_inurba_marseille","lat":43.33019,"lon":5.3904,"is_reserved":false,"is_disabled":false,"rental_uris":{"android":"levelo://app?vid=ddeeb021-3aa5-4692-ac65-d696b9db8d28","ios":"levelo://app?vid=ddeeb021-3aa5-4692-ac65-d696b9db8d28"},"vehicle_type_id":"4","last_reported":1738058954,"current_range_meters":38400,"station_id":"ce4bhr92rcd13ifvqhrg","pricing_plan_id":"cebpf4jnsgd1na2vs0mg"},{"bike_id":"af721f4e-7a43-4ca7-b439-ce7407c250b4","system_id":"levelo_inurba_marseille","lat":43.30724,"lon":5.37694,"is_reserved":false,"is_disabled":false,"rental_uris":{"android":"levelo://app?vid=af721f4e-7a43-4ca7-b439-ce7407c250b4","ios":"levelo://app?vid=af721f4e-7a43-4ca7-b439-ce7407c250b4"},"vehicle_type_id":"4","last_reported":1738058954,"current_range_meters":33600,"station_id":"","pricing_plan_id":"cebpf4jnsgd1na2vs0mg"},{"bike_id":"580828f0-3b12-422d-95d2-0d346530f1dd","system_id":"levelo_inurba_marseille","lat":43.25088,"lon":5.39535,"is_reserved":false,"is_disabled":false,"rental_uris":{"android":"levelo://app?vid=580828f0-3b12-422d-95d2-0d346530f1dd","ios":"levelo://app?vid=580828f0-3b12-422d-95d2-0d346530f1dd"},"vehicle_type_id":"4","last_reported":1738058954,"current_range_meters":19600,"station_id":"ce4bhm12rcd13ifvqgkg","pricing_plan_id":"cebpf4jnsgd1na2vs0mg"},{"bike_id":"1c11a251-cd73-4f08-868f-b1cd32c09816","system_id":"levelo_inurba_marseille","lat":43.269472,"lon":5.386376,"is_reserved":false,"is_disabled":false,"rental_uris":{"android":"levelo://app?vid=1c11a251-cd73-4f08-868f-b1cd32c09816","ios":"levelo://app?vid=1c11a251-cd73-4f08-868f-b1cd32c09816"},"vehicle_type_id":"4","last_reported":1738058954,"current_range_meters":35200,"station_id":"ce4bhh92rcd13ifvqfh0","pricing_plan_id":"cebpf4jnsgd1na2vs0mg"},{"bike_id":"f1ad41f9-c5f1-4f55-82b6-b825d6f763d2","system_id":"levelo_inurba_marseille","lat":43.337444,"lon":5.374475,"is_reserved":false,"is_disabled":true,"rental_uris":{"android":"levelo://app?vid=f1ad41f9-c5f1-4f55-82b6-b825d6f763d2","ios":"levelo://app?vid=f1ad41f9-c5f1-4f55-82b6-b825d6f763d2"},"vehicle_type_id":"4","last_reported":1738058954,"current_range_meters":2000,"station_id":"","pricing_plan_id":"cebpf4jnsgd1na2vs0mg"},{"bike_id":"3c9c9088-9c27-4609-bc62-8218c0dc2be8","system_id":"levelo_inurba_marseille","lat":43.23191,"lon":5.35555,"is_reserved":false,"is_disabled":false,"rental_uris":{"android":"levelo://app?vid=3c9c9088-9c27-4609-bc62-8218c0dc2be8","ios":"levelo://app?vid=3c9c9088-9c27-4609-bc62-8218c0dc2be8"},"vehicle_type_id":"4","last_reported":1738058954,"current_range_meters":33600,"station_id":"ce4bhu92rcd13ifvqi70","pricing_plan_id":"cebpf4jnsgd1na2vs0mg"},{"bike_id":"222c6341-6836-4407-979a-eee9206f6e0f","system_id":"levelo_inurba_marseille","lat":43.29219,"lon":5.36078,"is_reserved":false,"is_disabled":true,"rental_uris":{"android":"levelo://app?vid=222c6341-6836-4407-979a-eee9206f6e0f","ios":"levelo://app?vid=222c6341-6836-4407-979a-eee9206f6e0f"},"vehicle_type_id":"4","last_reported":1738058954,"current_range_meters":15200,"station_id":"ce4bhbh2rcd13ifvqeqg","pricing_plan_id":"cebpf4jnsgd1na2vs0mg"},{"bike_id":"d3c44002-3e32-4d2c-9b3e-5f533cea1eff","system_id":"levelo_inurba_marseille","lat":43.28855,"lon":5.39322,"is_reserved":false,"is_disabled":false,"rental_uris":{"android":"levelo://app?vid=d3c44002-3e32-4d2c-9b3e-5f533cea1eff","ios":"levelo://app?vid=d3c44002-3e32-4d2c-9b3e-5f533cea1eff"},"vehicle_type_id":"4","last_reported":1738058954,"current_range_meters":16400,"station_id":"ce4bh2p2rcd13ifvqdi0","pricing_plan_id":"cebpf4jnsgd1na2vs0mg"},{"bike_id":"b308046a-c027-4900-b5fd-3955e36a4117","system_id":"levelo_inurba_marseille","lat":43.29299,"lon":5.37146,"is_reserved":false,"is_disabled":false,"rental_uris":{"android":"levelo://app?vid=b308046a-c027-4900-b5fd-3955e36a4117","ios":"levelo://app?vid=b308046a-c027-4900-b5fd-3955e36a4117"},"vehicle_type_id":"4","last_reported":1738058954,"current_range_meters":38800,"station_id":"ce4bgh92rcd13ifvqb40","pricing_plan_id":"cebpf4jnsgd1na2vs0mg"},{"bike_id":"4c6e6037-c2de-4c78-8ebc-763221a61613","system_id":"levelo_inurba_marseille","lat":43.22925,"lon":5.35389,"is_reserved":false,"is_disabled":false,"rental_uris":{"android":"levelo://app?vid=4c6e6037-c2de-4c78-8ebc-763221a61613","ios":"levelo://app?vid=4c6e6037-c2de-4c78-8ebc-763221a61613"},"vehicle_type_id":"4","last_reported":1738058954,"current_range_meters":28000,"station_id":"cpo3532slgdg3j2ikp40","pricing_plan_id":"cebpf4jnsgd1na2vs0mg"},{"bike_id":"c5b4b0de-be85-4e58-bc32-b96b8050a2a3","system_id":"levelo_inurba_marseille","lat":43.29273,"lon":5.37447,"is_reserved":false,"is_disabled":false,"rental_uris":{"android":"levelo://app?vid=c5b4b0de-be85-4e58-bc32-b96b8050a2a3","ios":"levelo://app?vid=c5b4b0de-be85-4e58-bc32-b96b8050a2a3"},"vehicle_type_id":"4","last_reported":1738058954,"current_range_meters":36400,"station_id":"ce4bgi12rcd13ifvqb70","pricing_plan_id":"cebpf4jnsgd1na2vs0mg"},{"bike_id":"df1440ab-6c98-4811-96ed-60cc1ae214b5","system_id":"levelo_inurba_marseille","lat":43.24041,"lon":5.37792,"is_reserved":false,"is_disabled":false,"rental_uris":{"android":"levelo://app?vid=df1440ab-6c98-4811-96ed-60cc1ae214b5","ios":"levelo://app?vid=df1440ab-6c98-4811-96ed-60cc1ae214b5"},"vehicle_type_id":"4","last_reported":1738058954,"current_range_meters":39200,"station_id":"ce4bhnp2rcd13ifvqgvg","pricing_plan_id":"cebpf4jnsgd1na2vs0mg"},{"bike_id":"282600db-9c86-4885-85ae-fe60779ea362","system_id":"levelo_inurba_marseille","lat":43.23959,"lon":5.36627,"is_reserved":false,"is_disabled":false,"rental_uris":{"android":"levelo://app?vid=282600db-9c86-4885-85ae-fe60779ea362","ios":"levelo://app?vid=282600db-9c86-4885-85ae-fe60779ea362"},"vehicle_type_id":"4","last_reported":1738058954,"current_range_meters":28400,"station_id":"ce4bhi12rcd13ifvqfp0","pricing_plan_id":"cebpf4jnsgd1na2vs0mg"},{"bike_id":"1843b88d-f8ae-4628-91d5-5fe0627f2a44","system_id":"levelo_inurba_marseille","lat":43.30455,"lon":5.37907,"is_reserved":false,"is_disabled":false,"rental_uris":{"android":"levelo://app?vid=1843b88d-f8ae-4628-91d5-5fe0627f2a44","ios":"levelo://app?vid=1843b88d-f8ae-4628-91d5-5fe0627f2a44"},"vehicle_type_id":"4","last_reported":1738058954,"current_range_meters":38800,"station_id":"ce4bgup2rcd13ifvqcn0","pricing_plan_id":"cebpf4jnsgd1na2vs0mg"},{"bike_id":"b58e9c2c-f4fa-4e4d-a3e6-d964f639b0fc","system_id":"levelo_inurba_marseille","lat":43.31357,"lon":5.36698,"is_reserved":false,"is_disabled":false,"rental_uris":{"android":"levelo://app?vid=b58e9c2c-f4fa-4e4d-a3e6-d964f639b0fc","ios":"levelo://app?vid=b58e9c2c-f4fa-4e4d-a3e6-d964f639b0fc"},"vehicle_type_id":"4","last_reported":1738058954,"current_range_meters":38800,"station_id":"ce4bgr92rcd13ifvqc6g","pricing_plan_id":"cebpf4jnsgd1na2vs0mg"},{"bike_id":"8707dca8-5fb6-4e35-a1ec-1f30a01fea05","system_id":"levelo_inurba_marseille","lat":43.2955,"lon":5.42271,"is_reserved":false,"is_disabled":false,"rental_uris":{"android":"levelo://app?vid=8707dca8-5fb6-4e35-a1ec-1f30a01fea05","ios":"levelo://app?vid=8707dca8-5fb6-4e35-a1ec-1f30a01fea05"},"vehicle_type_id":"4","last_reported":1738058954,"current_range_meters":37600,"station_id":"ce4bhph2rcd13ifvqhdg","pricing_plan_id":"cebpf4jnsgd1na2vs0mg"},{"bike_id":"512ddda1-0b06-49e2-9acb-b21f4e0f457f","system_id":"levelo_inurba_marseille","lat":43.2558,"lon":5.38233,"is_reserved":false,"is_disabled":false,"rental_uris":{"android":"levelo://app?vid=512ddda1-0b06-49e2-9acb-b21f4e0f457f","ios":"levelo://app?vid=512ddda1-0b06-49e2-9acb-b21f4e0f457f"},"vehicle_type_id":"4","last_reported":1738058954,"current_range_meters":17200,"station_id":"ce4bhih2rcd13ifvqfs0","pricing_plan_id":"cebpf4jnsgd1na2vs0mg"},{"bike_id":"004864ba-ecd8-4d69-a4f9-e3487808ef58","system_id":"levelo_inurba_marseille","lat":43.2953,"lon":5.38553,"is_reserved":false,"is_disabled":false,"rental_uris":{"android":"levelo://app?vid=004864ba-ecd8-4d69-a4f9-e3487808ef58","ios":"levelo://app?vid=004864ba-ecd8-4d69-a4f9-e3487808ef58"},"vehicle_type_id":"4","last_reported":1738058954,"current_range_meters":38800,"station_id":"ce4bgih2rcd13ifvqba0","pricing_plan_id":"cebpf4jnsgd1na2vs0mg"},{"bike_id":"5d33832e-6e89-409d-93b6-0f3932cd9c7b","system_id":"levelo_inurba_marseille","lat":43.28947,"lon":5.36618,"is_reserved":false,"is_disabled":false,"rental_uris":{"android":"levelo://app?vid=5d33832e-6e89-409d-93b6-0f3932cd9c7b","ios":"levelo://app?vid=5d33832e-6e89-409d-93b6-0f3932cd9c7b"},"vehicle_type_id":"4","last_reported":1738058954,"current_range_meters":38800,"station_id":"ce4bhap2rcd13ifvqek0","pricing_plan_id":"cebpf4jnsgd1na2vs0mg"},{"bike_id":"bf0ed1e8-82f8-4620-b3d7-9f782ec23355","system_id":"levelo_inurba_marseille","lat":43.29632,"lon":5.37717,"is_reserved":false,"is_disabled":false,"rental_uris":{"android":"levelo://app?vid=bf0ed1e8-82f8-4620-b3d7-9f782ec23355","ios":"levelo://app?vid=bf0ed1e8-82f8-4620-b3d7-9f782ec23355"},"vehicle_type_id":"4","last_reported":1738058954,"current_range_meters":38400,"station_id":"ce4bgi92rcd13ifvqb90","pricing_plan_id":"cebpf4jnsgd1na2vs0mg"},{"bike_id":"2256710f-428a-4b6c-afaf-f485da875c48","system_id":"levelo_inurba_marseille","lat":43.28619,"lon":5.35106,"is_reserved":false,"is_disabled":false,"rental_uris":{"android":"levelo://app?vid=2256710f-428a-4b6c-afaf-f485da875c48","ios":"levelo://app?vid=2256710f-428a-4b6c-afaf-f485da875c48"},"vehicle_type_id":"4","last_reported":1738058954,"current_range_meters":16000,"station_id":"ce4bhch2rcd13ifvqeug","pricing_plan_id":"cebpf4jnsgd1na2vs0mg"},{"bike_id":"ab2c796a-c23b-4a3a-9534-777b873d6a05","system_id":"levelo_inurba_marseille","lat":43.2417,"lon":5.36401,"is_reserved":false,"is_disabled":false,"rental_uris":{"android":"levelo://app?vid=ab2c796a-c23b-4a3a-9534-777b873d6a05","ios":"levelo://app?vid=ab2c796a-c23b-4a3a-9534-777b873d6a05"},"vehicle_type_id":"4","last_reported":1738058954,"current_range_meters":22000,"station_id":"cpo36qri1sfpv3e86is0","pricing_plan_id":"cebpf4jnsgd1na2vs0mg"},{"bike_id":"e6123354-d261-4fed-9cd4-585f2a421229","system_id":"levelo_inurba_marseille","lat":43.29357,"lon":5.3785,"is_reserved":false,"is_disabled":false,"rental_uris":{"android":"levelo://app?vid=e6123354-d261-4fed-9cd4-585f2a421229","ios":"levelo://app?vid=e6123354-d261-4fed-9cd4-585f2a421229"},"vehicle_type_id":"4","last_reported":1738058954,"current_range_meters":38800,"station_id":"ce4bgjh2rcd13ifvqbf0","pricing_plan_id":"cebpf4jnsgd1na2vs0mg"},{"bike_id":"47ca1ed0-ef62-4af3-9e98-affec9af63de","system_id":"levelo_inurba_marseille","lat":43.2695,"lon":5.38634,"is_reserved":false,"is_disabled":false,"rental_uris":{"android":"levelo://app?vid=47ca1ed0-ef62-4af3-9e98-affec9af63de","ios":"levelo://app?vid=47ca1ed0-ef62-4af3-9e98-affec9af63de"},"vehicle_type_id":"4","last_reported":1738058954,"current_range_meters":22000,"station_id":"ce4bhh92rcd13ifvqfh0","pricing_plan_id":"cebpf4jnsgd1na2vs0mg"},{"bike_id":"26946c1a-5572-4995-9cdf-45c1e4a8c19b","system_id":"levelo_inurba_marseille","lat":43.29599,"lon":5.381015,"is_reserved":false,"is_disabled":false,"rental_uris":{"android":"levelo://app?vid=26946c1a-5572-4995-9cdf-45c1e4a8c19b","ios":"levelo://app?vid=26946c1a-5572-4995-9cdf-45c1e4a8c19b"},"vehicle_type_id":"4","last_reported":1738058954,"current_range_meters":38800,"station_id":"ce4bgl12rcd13ifvqbo0","pricing_plan_id":"cebpf4jnsgd1na2vs0mg"},{"bike_id":"529f1ab7-390e-41c3-9180-30692697770e","system_id":"levelo_inurba_marseille","lat":43.28608,"lon":5.35111,"is_reserved":false,"is_disabled":false,"rental_uris":{"android":"levelo://app?vid=529f1ab7-390e-41c3-9180-30692697770e","ios":"levelo://app?vid=529f1ab7-390e-41c3-9180-30692697770e"},"vehicle_type_id":"4","last_reported":1738058954,"current_range_meters":14800,"station_id":"ce4bhch2rcd13ifvqeug","pricing_plan_id":"cebpf4jnsgd1na2vs0mg"},{"bike_id":"f2c519ee-f950-4f91-8f4f-4520f08e04ef","system_id":"levelo_inurba_marseille","lat":43.30954,"lon":5.39044,"is_reserved":false,"is_disabled":false,"rental_uris":{"android":"levelo://app?vid=f2c519ee-f950-4f91-8f4f-4520f08e04ef","ios":"levelo://app?vid=f2c519ee-f950-4f91-8f4f-4520f08e04ef"},"vehicle_type_id":"4","last_reported":1738058954,"current_range_meters":33600,"station_id":"ce4bgup2rcd13ifvqco0","pricing_plan_id":"cebpf4jnsgd1na2vs0mg"},{"bike_id":"16d6d945-2d41-4a8f-b124-3ab49d837ec5","system_id":"levelo_inurba_marseille","lat":43.24648,"lon":5.38896,"is_reserved":false,"is_disabled":false,"rental_uris":{"android":"levelo://app?vid=16d6d945-2d41-4a8f-b124-3ab49d837ec5","ios":"levelo://app?vid=16d6d945-2d41-4a8f-b124-3ab49d837ec5"},"vehicle_type_id":"4","last_reported":1738058954,"current_range_meters":36800,"station_id":"ce4bhg12rcd13ifvqf60","pricing_plan_id":"cebpf4jnsgd1na2vs0mg"},{"bike_id":"327345a1-b351-4923-bb98-74bfc4d3d655","system_id":"levelo_inurba_marseille","lat":43.31082,"lon":5.42438,"is_reserved":false,"is_disabled":false,"rental_uris":{"android":"levelo://app?vid=327345a1-b351-4923-bb98-74bfc4d3d655","ios":"levelo://app?vid=327345a1-b351-4923-bb98-74bfc4d3d655"},"vehicle_type_id":"4","last_reported":1738058954,"current_range_meters":27600,"station_id":"ce4bhp92rcd13ifvqhag","pricing_plan_id":"cebpf4jnsgd1na2vs0mg"},{"bike_id":"197b6f4f-0d2d-47f1-b413-ea947f6d6a9d","system_id":"levelo_inurba_marseille","lat":43.30344,"lon":5.3689,"is_reserved":false,"is_disabled":false,"rental_uris":{"android":"levelo://app?vid=197b6f4f-0d2d-47f1-b413-ea947f6d6a9d","ios":"levelo://app?vid=197b6f4f-0d2d-47f1-b413-ea947f6d6a9d"},"vehicle_type_id":"4","last_reported":1738058954,"current_range_meters":29600,"station_id":"ce4bgqh2rcd13ifvqc5g","pricing_plan_id":"cebpf4jnsgd1na2vs0mg"},{"bike_id":"47b7bf9e-8708-47cd-851f-e2a4fed2fb3f","system_id":"levelo_inurba_marseille","lat":43.27494,"lon":5.42457,"is_reserved":false,"is_disabled":false,"rental_uris":{"android":"levelo://app?vid=47b7bf9e-8708-47cd-851f-e2a4fed2fb3f","ios":"levelo://app?vid=47b7bf9e-8708-47cd-851f-e2a4fed2fb3f"},"vehicle_type_id":"4","last_reported":1738058954,"current_range_meters":28000,"station_id":"ce4bhn92rcd13ifvqgrg","pricing_plan_id":"cebpf4jnsgd1na2vs0mg"},{"bike_id":"6b544164-ad64-4907-9140-df7ab85fac74","system_id":"levelo_inurba_marseille","lat":43.32352,"lon":5.36758,"is_reserved":false,"is_disabled":false,"rental_uris":{"android":"levelo://app?vid=6b544164-ad64-4907-9140-df7ab85fac74","ios":"levelo://app?vid=6b544164-ad64-4907-9140-df7ab85fac74"},"vehicle_type_id":"4","last_reported":1738058954,"current_range_meters":25200,"station_id":"ce4bhsh2rcd13ifvqi2g","pricing_plan_id":"cebpf4jnsgd1na2vs0mg"},{"bike_id":"eea5a0be-f050-4c1c-898c-49d8503e58ff","system_id":"levelo_inurba_marseille","lat":43.25718,"lon":5.41122,"is_reserved":false,"is_disabled":false,"rental_uris":{"android":"levelo://app?vid=eea5a0be-f050-4c1c-898c-49d8503e58ff","ios":"levelo://app?vid=eea5a0be-f050-4c1c-898c-49d8503e58ff"},"vehicle_type_id":"4","last_reported":1738058954,"current_range_meters":38800,"station_id":"ce4bhkp2rcd13ifvqgd0","pricing_plan_id":"cebpf4jnsgd1na2vs0mg"},{"bike_id":"ce200621-4a37-4224-9cd0-032fa0353241","system_id":"levelo_inurba_marseille","lat":43.30432,"lon":5.37903,"is_reserved":false,"is_disabled":false,"rental_uris":{"android":"levelo://app?vid=ce200621-4a37-4224-9cd0-032fa0353241","ios":"levelo://app?vid=ce200621-4a37-4224-9cd0-032fa0353241"},"vehicle_type_id":"4","last_reported":1738058954,"current_range_meters":35200,"station_id":"ce4bgup2rcd13ifvqcn0","pricing_plan_id":"cebpf4jnsgd1na2vs0mg"},{"bike_id":"8b40e27c-8c10-491e-a52e-68dd5092f0c4","system_id":"levelo_inurba_marseille","lat":43.28932,"lon":5.36644,"is_reserved":false,"is_disabled":false,"rental_uris":{"android":"levelo://app?vid=8b40e27c-8c10-491e-a52e-68dd5092f0c4","ios":"levelo://app?vid=8b40e27c-8c10-491e-a52e-68dd5092f0c4"},"vehicle_type_id":"4","last_reported":1738058954,"current_range_meters":26000,"station_id":"ce4bhap2rcd13ifvqek0","pricing_plan_id":"cebpf4jnsgd1na2vs0mg"},{"bike_id":"59fba6e2-1c91-4bdd-8616-c3bf121449aa","system_id":"levelo_inurba_marseille","lat":43.24389,"lon":5.37065,"is_reserved":false,"is_disabled":false,"rental_uris":{"android":"levelo://app?vid=59fba6e2-1c91-4bdd-8616-c3bf121449aa","ios":"levelo://app?vid=59fba6e2-1c91-4bdd-8616-c3bf121449aa"},"vehicle_type_id":"4","last_reported":1738058954,"current_range_meters":29600,"station_id":"ce4bhhh2rcd13ifvqfk0","pricing_plan_id":"cebpf4jnsgd1na2vs0mg"},{"bike_id":"d6b21433-c8a5-40d4-97c4-27121f8fd81b","system_id":"levelo_inurba_marseille","lat":43.3176,"lon":5.39023,"is_reserved":false,"is_disabled":false,"rental_uris":{"android":"levelo://app?vid=d6b21433-c8a5-40d4-97c4-27121f8fd81b","ios":"levelo://app?vid=d6b21433-c8a5-40d4-97c4-27121f8fd81b"},"vehicle_type_id":"4","last_reported":1738058954,"current_range_meters":38800,"station_id":"ce4bhqp2rcd13ifvqhng","pricing_plan_id":"cebpf4jnsgd1na2vs0mg"},{"bike_id":"a782a3fe-f38f-4917-898a-c67496e57d24","system_id":"levelo_inurba_marseille","lat":43.31289,"lon":5.36866,"is_reserved":false,"is_disabled":false,"rental_uris":{"android":"levelo://app?vid=a782a3fe-f38f-4917-898a-c67496e57d24","ios":"levelo://app?vid=a782a3fe-f38f-4917-898a-c67496e57d24"},"vehicle_type_id":"4","last_reported":1738058954,"current_range_meters":27600,"station_id":"ce4bgl92rcd13ifvqbq0","pricing_plan_id":"cebpf4jnsgd1na2vs0mg"},{"bike_id":"ab49a04c-dd96-41a9-a748-d8c2a0ac3e9f","system_id":"levelo_inurba_marseille","lat":43.27401,"lon":5.39003,"is_reserved":false,"is_disabled":false,"rental_uris":{"android":"levelo://app?vid=ab49a04c-dd96-41a9-a748-d8c2a0ac3e9f","ios":"levelo://app?vid=ab49a04c-dd96-41a9-a748-d8c2a0ac3e9f"},"vehicle_type_id":"4","last_reported":1738058954,"current_range_meters":28400,"station_id":"ce4bhgp2rcd13ifvqfe0","pricing_plan_id":"cebpf4jnsgd1na2vs0mg"},{"bike_id":"50e576ea-8cf1-44ed-a9e7-398301a57e78","system_id":"levelo_inurba_marseille","lat":43.24377,"lon":5.37068,"is_reserved":false,"is_disabled":false,"rental_uris":{"android":"levelo://app?vid=50e576ea-8cf1-44ed-a9e7-398301a57e78","ios":"levelo://app?vid=50e576ea-8cf1-44ed-a9e7-398301a57e78"},"vehicle_type_id":"4","last_reported":1738058954,"current_range_meters":27600,"station_id":"ce4bhhh2rcd13ifvqfk0","pricing_plan_id":"cebpf4jnsgd1na2vs0mg"},{"bike_id":"631c6d7f-0a07-4944-b4e5-ab7a6e90fccd","system_id":"levelo_inurba_marseille","lat":43.27454,"lon":5.42517,"is_reserved":false,"is_disabled":false,"rental_uris":{"android":"levelo://app?vid=631c6d7f-0a07-4944-b4e5-ab7a6e90fccd","ios":"levelo://app?vid=631c6d7f-0a07-4944-b4e5-ab7a6e90fccd"},"vehicle_type_id":"4","last_reported":1738058954,"current_range_meters":4000,"station_id":"ce4bhn92rcd13ifvqgrg","pricing_plan_id":"cebpf4jnsgd1na2vs0mg"},{"bike_id":"35ce5706-68d6-4465-9190-eb3933849e0d","system_id":"levelo_inurba_marseille","lat":43.26935,"lon":5.38643,"is_reserved":false,"is_disabled":false,"rental_uris":{"android":"levelo://app?vid=35ce5706-68d6-4465-9190-eb3933849e0d","ios":"levelo://app?vid=35ce5706-68d6-4465-9190-eb3933849e0d"},"vehicle_type_id":"4","last_reported":1738058954,"current_range_meters":36800,"station_id":"ce4bhh92rcd13ifvqfh0","pricing_plan_id":"cebpf4jnsgd1na2vs0mg"},{"bike_id":"6914daed-3bb1-4aba-9f0f-f0734c8e9a20","system_id":"levelo_inurba_marseille","lat":43.30127,"lon":5.38076,"is_reserved":false,"is_disabled":true,"rental_uris":{"android":"levelo://app?vid=6914daed-3bb1-4aba-9f0f-f0734c8e9a20","ios":"levelo://app?vid=6914daed-3bb1-4aba-9f0f-f0734c8e9a20"},"vehicle_type_id":"4","last_reported":1738058954,"current_range_meters":0,"station_id":"ce4bgjp2rcd13ifvqbh0","pricing_plan_id":"cebpf4jnsgd1na2vs0mg"},{"bike_id":"583c045c-99a3-4ecb-a384-47990a0acc2e","system_id":"levelo_inurba_marseille","lat":43.27899,"lon":5.4102,"is_reserved":false,"is_disabled":true,"rental_uris":{"android":"levelo://app?vid=583c045c-99a3-4ecb-a384-47990a0acc2e","ios":"levelo://app?vid=583c045c-99a3-4ecb-a384-47990a0acc2e"},"vehicle_type_id":"4","last_reported":1738058954,"current_range_meters":1200,"station_id":"ce4bhnp2rcd13ifvqh0g","pricing_plan_id":"cebpf4jnsgd1na2vs0mg"},{"bike_id":"aac07ce5-bb93-4511-9347-c3cd45dbc53c","system_id":"levelo_inurba_marseille","lat":43.29287,"lon":5.36842,"is_reserved":false,"is_disabled":false,"rental_uris":{"android":"levelo://app?vid=aac07ce5-bb93-4511-9347-c3cd45dbc53c","ios":"levelo://app?vid=aac07ce5-bb93-4511-9347-c3cd45dbc53c"},"vehicle_type_id":"4","last_reported":1738058954,"current_range_meters":38000,"station_id":"ce4bhbp2rcd13ifvqesg","pricing_plan_id":"cebpf4jnsgd1na2vs0mg"},{"bike_id":"ec4a6360-0c6e-4077-9f57-cd9481292224","system_id":"levelo_inurba_marseille","lat":43.30536,"lon":5.36717,"is_reserved":false,"is_disabled":true,"rental_uris":{"android":"levelo://app?vid=ec4a6360-0c6e-4077-9f57-cd9481292224","ios":"levelo://app?vid=ec4a6360-0c6e-4077-9f57-cd9481292224"},"vehicle_type_id":"4","last_reported":1738058954,"current_range_meters":1200,"station_id":"ce4bgrp2rcd13ifvqc9g","pricing_plan_id":"cebpf4jnsgd1na2vs0mg"},{"bike_id":"f8239b01-3b23-4214-aeee-b03ebaf1b50d","system_id":"levelo_inurba_marseille","lat":43.30558,"lon":5.36725,"is_reserved":false,"is_disabled":false,"rental_uris":{"android":"levelo://app?vid=f8239b01-3b23-4214-aeee-b03ebaf1b50d","ios":"levelo://app?vid=f8239b01-3b23-4214-aeee-b03ebaf1b50d"},"vehicle_type_id":"4","last_reported":1738058954,"current_range_meters":35600,"station_id":"ce4bgrp2rcd13ifvqc9g","pricing_plan_id":"cebpf4jnsgd1na2vs0mg"},{"bike_id":"fcbf88ef-8a29-4fcc-8125-c57cb42f8ed7","system_id":"levelo_inurba_marseille","lat":43.28943,"lon":5.36614,"is_reserved":false,"is_disabled":false,"rental_uris":{"android":"levelo://app?vid=fcbf88ef-8a29-4fcc-8125-c57cb42f8ed7","ios":"levelo://app?vid=fcbf88ef-8a29-4fcc-8125-c57cb42f8ed7"},"vehicle_type_id":"4","last_reported":1738058954,"current_range_meters":39200,"station_id":"ce4bhap2rcd13ifvqek0","pricing_plan_id":"cebpf4jnsgd1na2vs0mg"},{"bike_id":"75aec4e9-8c83-4922-b4f3-7c72360cfb91","system_id":"levelo_inurba_marseille","lat":43.240744,"lon":5.377484,"is_reserved":false,"is_disabled":false,"rental_uris":{"android":"levelo://app?vid=75aec4e9-8c83-4922-b4f3-7c72360cfb91","ios":"levelo://app?vid=75aec4e9-8c83-4922-b4f3-7c72360cfb91"},"vehicle_type_id":"4","last_reported":1738058954,"current_range_meters":18000,"station_id":"ce4bhnp2rcd13ifvqgvg","pricing_plan_id":"cebpf4jnsgd1na2vs0mg"},{"bike_id":"1d7b9602-4d85-4297-ad77-d6b02e9149dc","system_id":"levelo_inurba_marseille","lat":43.25493,"lon":5.37677,"is_reserved":false,"is_disabled":false,"rental_uris":{"android":"levelo://app?vid=1d7b9602-4d85-4297-ad77-d6b02e9149dc","ios":"levelo://app?vid=1d7b9602-4d85-4297-ad77-d6b02e9149dc"},"vehicle_type_id":"4","last_reported":1738058954,"current_range_meters":38800,"station_id":"ce4bhh12rcd13ifvqff0","pricing_plan_id":"cebpf4jnsgd1na2vs0mg"},{"bike_id":"b1b71e4d-f7f1-4639-9836-d82bceddafdd","system_id":"levelo_inurba_marseille","lat":43.30153,"lon":5.38101,"is_reserved":false,"is_disabled":false,"rental_uris":{"android":"levelo://app?vid=b1b71e4d-f7f1-4639-9836-d82bceddafdd","ios":"levelo://app?vid=b1b71e4d-f7f1-4639-9836-d82bceddafdd"},"vehicle_type_id":"4","last_reported":1738058954,"current_range_meters":38800,"station_id":"ce4bgjp2rcd13ifvqbh0","pricing_plan_id":"cebpf4jnsgd1na2vs0mg"},{"bike_id":"cd48da39-a655-4dcb-97c2-bcb8d3d8c55b","system_id":"levelo_inurba_marseille","lat":43.23155,"lon":5.43757,"is_reserved":false,"is_disabled":true,"rental_uris":{"android":"levelo://app?vid=cd48da39-a655-4dcb-97c2-bcb8d3d8c55b","ios":"levelo://app?vid=cd48da39-a655-4dcb-97c2-bcb8d3d8c55b"},"vehicle_type_id":"4","last_reported":1738058954,"current_range_meters":0,"station_id":"","pricing_plan_id":"cebpf4jnsgd1na2vs0mg"},{"bike_id":"380db4f1-f717-47f9-90c2-eaffe33861d5","system_id":"levelo_inurba_marseille","lat":43.31213,"lon":5.36846,"is_reserved":false,"is_disabled":false,"rental_uris":{"android":"levelo://app?vid=380db4f1-f717-47f9-90c2-eaffe33861d5","ios":"levelo://app?vid=380db4f1-f717-47f9-90c2-eaffe33861d5"},"vehicle_type_id":"4","last_reported":1738058954,"current_range_meters":27600,"station_id":"ce4bgl92rcd13ifvqbq0","pricing_plan_id":"cebpf4jnsgd1na2vs0mg"},{"bike_id":"011d7420-27de-40cd-a8ff-cf2697b56327","system_id":"levelo_inurba_marseille","lat":43.25574,"lon":5.38229,"is_reserved":false,"is_disabled":false,"rental_uris":{"android":"levelo://app?vid=011d7420-27de-40cd-a8ff-cf2697b56327","ios":"levelo://app?vid=011d7420-27de-40cd-a8ff-cf2697b56327"},"vehicle_type_id":"4","last_reported":1738058954,"current_range_meters":30000,"station_id":"ce4bhih2rcd13ifvqfs0","pricing_plan_id":"cebpf4jnsgd1na2vs0mg"},{"bike_id":"bd4e7579-8ccd-40b4-8f4d-6d6163bff9b1","system_id":"levelo_inurba_marseille","lat":43.29307,"lon":5.37144,"is_reserved":false,"is_disabled":false,"rental_uris":{"android":"levelo://app?vid=bd4e7579-8ccd-40b4-8f4d-6d6163bff9b1","ios":"levelo://app?vid=bd4e7579-8ccd-40b4-8f4d-6d6163bff9b1"},"vehicle_type_id":"4","last_reported":1738058954,"current_range_meters":32400,"station_id":"ce4bgh92rcd13ifvqb40","pricing_plan_id":"cebpf4jnsgd1na2vs0mg"},{"bike_id":"3ff78077-81fa-49f8-9cb4-98d15ff3a2a2","system_id":"levelo_inurba_marseille","lat":43.28852,"lon":5.35829,"is_reserved":false,"is_disabled":false,"rental_uris":{"android":"levelo://app?vid=3ff78077-81fa-49f8-9cb4-98d15ff3a2a2","ios":"levelo://app?vid=3ff78077-81fa-49f8-9cb4-98d15ff3a2a2"},"vehicle_type_id":"4","last_reported":1738058954,"current_range_meters":38800,"station_id":"ce4bhb12rcd13ifvqem0","pricing_plan_id":"cebpf4jnsgd1na2vs0mg"},{"bike_id":"42b548da-ac0e-49a3-8880-db80f7eeb6ba","system_id":"levelo_inurba_marseille","lat":43.29164,"lon":5.37151,"is_reserved":false,"is_disabled":false,"rental_uris":{"android":"levelo://app?vid=42b548da-ac0e-49a3-8880-db80f7eeb6ba","ios":"levelo://app?vid=42b548da-ac0e-49a3-8880-db80f7eeb6ba"},"vehicle_type_id":"4","last_reported":1738058954,"current_range_meters":36800,"station_id":"ce4bha92rcd13ifvqeh0","pricing_plan_id":"cebpf4jnsgd1na2vs0mg"},{"bike_id":"3fb74e29-7f1d-4c67-8af5-0bb8332df870","system_id":"levelo_inurba_marseille","lat":43.2439,"lon":5.3705,"is_reserved":false,"is_disabled":false,"rental_uris":{"android":"levelo://app?vid=3fb74e29-7f1d-4c67-8af5-0bb8332df870","ios":"levelo://app?vid=3fb74e29-7f1d-4c67-8af5-0bb8332df870"},"vehicle_type_id":"4","last_reported":1738058954,"current_range_meters":26800,"station_id":"ce4bhhh2rcd13ifvqfk0","pricing_plan_id":"cebpf4jnsgd1na2vs0mg"},{"bike_id":"6bb764e6-4204-4240-a28d-3c5a178bdeed","system_id":"levelo_inurba_marseille","lat":43.29796,"lon":5.38109,"is_reserved":false,"is_disabled":false,"rental_uris":{"android":"levelo://app?vid=6bb764e6-4204-4240-a28d-3c5a178bdeed","ios":"levelo://app?vid=6bb764e6-4204-4240-a28d-3c5a178bdeed"},"vehicle_type_id":"4","last_reported":1738058954,"current_range_meters":38800,"station_id":"ce4bgip2rcd13ifvqbb0","pricing_plan_id":"cebpf4jnsgd1na2vs0mg"},{"bike_id":"611fad2e-6d45-44eb-a5e7-b3ab022b1b90","system_id":"levelo_inurba_marseille","lat":43.3054,"lon":5.36557,"is_reserved":false,"is_disabled":false,"rental_uris":{"android":"levelo://app?vid=611fad2e-6d45-44eb-a5e7-b3ab022b1b90","ios":"levelo://app?vid=611fad2e-6d45-44eb-a5e7-b3ab022b1b90"},"vehicle_type_id":"4","last_reported":1738058954,"current_range_meters":33200,"station_id":"ce4bgs12rcd13ifvqcag","pricing_plan_id":"cebpf4jnsgd1na2vs0mg"},{"bike_id":"a1f25abd-5197-4524-ac53-ad8743bef105","system_id":"levelo_inurba_marseille","lat":43.29913,"lon":5.43636,"is_reserved":false,"is_disabled":true,"rental_uris":{"android":"levelo://app?vid=a1f25abd-5197-4524-ac53-ad8743bef105","ios":"levelo://app?vid=a1f25abd-5197-4524-ac53-ad8743bef105"},"vehicle_type_id":"4","last_reported":1738058954,"current_range_meters":38400,"station_id":"ce4bhpp2rcd13ifvqhfg","pricing_plan_id":"cebpf4jnsgd1na2vs0mg"},{"bike_id":"93a03b7f-b087-426b-aea4-84310305d4a9","system_id":"levelo_inurba_marseille","lat":43.3118,"lon":5.3871,"is_reserved":false,"is_disabled":true,"rental_uris":{"android":"levelo://app?vid=93a03b7f-b087-426b-aea4-84310305d4a9","ios":"levelo://app?vid=93a03b7f-b087-426b-aea4-84310305d4a9"},"vehicle_type_id":"4","last_reported":1738058954,"current_range_meters":38800,"station_id":"ce4bgv12rcd13ifvqcp0","pricing_plan_id":"cebpf4jnsgd1na2vs0mg"},{"bike_id":"076810f3-e37e-4a24-a2bf-ae6df07f807b","system_id":"levelo_inurba_marseille","lat":43.29293,"lon":5.37443,"is_reserved":false,"is_disabled":false,"rental_uris":{"android":"levelo://app?vid=076810f3-e37e-4a24-a2bf-ae6df07f807b","ios":"levelo://app?vid=076810f3-e37e-4a24-a2bf-ae6df07f807b"},"vehicle_type_id":"4","last_reported":1738058954,"current_range_meters":22800,"station_id":"ce4bgi12rcd13ifvqb70","pricing_plan_id":"cebpf4jnsgd1na2vs0mg"},{"bike_id":"56f4a55c-99ae-48a0-8425-42e6a7c55aff","system_id":"levelo_inurba_marseille","lat":43.29016,"lon":5.38632,"is_reserved":false,"is_disabled":false,"rental_uris":{"android":"levelo://app?vid=56f4a55c-99ae-48a0-8425-42e6a7c55aff","ios":"levelo://app?vid=56f4a55c-99ae-48a0-8425-42e6a7c55aff"},"vehicle_type_id":"4","last_reported":1738058954,"current_range_meters":28400,"station_id":"ce4bh4p2rcd13ifvqe0g","pricing_plan_id":"cebpf4jnsgd1na2vs0mg"},{"bike_id":"ff68af14-5554-4f8d-a3de-4549d987f602","system_id":"levelo_inurba_marseille","lat":43.29881,"lon":5.43771,"is_reserved":false,"is_disabled":false,"rental_uris":{"android":"levelo://app?vid=ff68af14-5554-4f8d-a3de-4549d987f602","ios":"levelo://app?vid=ff68af14-5554-4f8d-a3de-4549d987f602"},"vehicle_type_id":"4","last_reported":1738058954,"current_range_meters":36800,"station_id":"ce4bhpp2rcd13ifvqhfg","pricing_plan_id":"cebpf4jnsgd1na2vs0mg"},{"bike_id":"296acca2-a355-4830-bc97-a6939a85f573","system_id":"levelo_inurba_marseille","lat":43.25545,"lon":5.38312,"is_reserved":false,"is_disabled":false,"rental_uris":{"android":"levelo://app?vid=296acca2-a355-4830-bc97-a6939a85f573","ios":"levelo://app?vid=296acca2-a355-4830-bc97-a6939a85f573"},"vehicle_type_id":"4","last_reported":1738058954,"current_range_meters":28400,"station_id":"","pricing_plan_id":"cebpf4jnsgd1na2vs0mg"},{"bike_id":"dee8af9f-e546-4dcf-a1c4-bee1911d6e8f","system_id":"levelo_inurba_marseille","lat":43.2694,"lon":5.38642,"is_reserved":false,"is_disabled":false,"rental_uris":{"android":"levelo://app?vid=dee8af9f-e546-4dcf-a1c4-bee1911d6e8f","ios":"levelo://app?vid=dee8af9f-e546-4dcf-a1c4-bee1911d6e8f"},"vehicle_type_id":"4","last_reported":1738058954,"current_range_meters":33600,"station_id":"ce4bhh92rcd13ifvqfh0","pricing_plan_id":"cebpf4jnsgd1na2vs0mg"},{"bike_id":"56f5e465-3cae-49ed-b051-549f21f0a43b","system_id":"levelo_inurba_marseille","lat":43.24678,"lon":5.3814,"is_reserved":false,"is_disabled":false,"rental_uris":{"android":"levelo://app?vid=56f5e465-3cae-49ed-b051-549f21f0a43b","ios":"levelo://app?vid=56f5e465-3cae-49ed-b051-549f21f0a43b"},"vehicle_type_id":"4","last_reported":1738058954,"current_range_meters":28400,"station_id":"ce4bhih2rcd13ifvqfr0","pricing_plan_id":"cebpf4jnsgd1na2vs0mg"},{"bike_id":"3c5cbf2e-5914-44e5-adf1-7229185be9cb","system_id":"levelo_inurba_marseille","lat":43.32463,"lon":5.36574,"is_reserved":false,"is_disabled":false,"rental_uris":{"android":"levelo://app?vid=3c5cbf2e-5914-44e5-adf1-7229185be9cb","ios":"levelo://app?vid=3c5cbf2e-5914-44e5-adf1-7229185be9cb"},"vehicle_type_id":"4","last_reported":1738058954,"current_range_meters":13600,"station_id":"ce4bhs12rcd13ifvqhvg","pricing_plan_id":"cebpf4jnsgd1na2vs0mg"},{"bike_id":"b1d260c0-acdb-4241-b1fa-29a58e464bb9","system_id":"levelo_inurba_marseille","lat":43.24383,"lon":5.37051,"is_reserved":false,"is_disabled":false,"rental_uris":{"android":"levelo://app?vid=b1d260c0-acdb-4241-b1fa-29a58e464bb9","ios":"levelo://app?vid=b1d260c0-acdb-4241-b1fa-29a58e464bb9"},"vehicle_type_id":"4","last_reported":1738058954,"current_range_meters":36400,"station_id":"ce4bhhh2rcd13ifvqfk0","pricing_plan_id":"cebpf4jnsgd1na2vs0mg"},{"bike_id":"e406b37f-e444-4bb4-9ab2-33091cf154bd","system_id":"levelo_inurba_marseille","lat":43.29302,"lon":5.37446,"is_reserved":false,"is_disabled":false,"rental_uris":{"android":"levelo://app?vid=e406b37f-e444-4bb4-9ab2-33091cf154bd","ios":"levelo://app?vid=e406b37f-e444-4bb4-9ab2-33091cf154bd"},"vehicle_type_id":"4","last_reported":1738058954,"current_range_meters":33200,"station_id":"ce4bgi12rcd13ifvqb70","pricing_plan_id":"cebpf4jnsgd1na2vs0mg"},{"bike_id":"f9b3113d-a999-4331-8471-e72a17a54399","system_id":"levelo_inurba_marseille","lat":43.29797,"lon":5.3811,"is_reserved":false,"is_disabled":false,"rental_uris":{"android":"levelo://app?vid=f9b3113d-a999-4331-8471-e72a17a54399","ios":"levelo://app?vid=f9b3113d-a999-4331-8471-e72a17a54399"},"vehicle_type_id":"4","last_reported":1738058954,"current_range_meters":38800,"station_id":"ce4bgip2rcd13ifvqbb0","pricing_plan_id":"cebpf4jnsgd1na2vs0mg"},{"bike_id":"b5cc55f2-2a30-479b-8fa6-5ff8568d3372","system_id":"levelo_inurba_marseille","lat":43.26691,"lon":5.38271,"is_reserved":false,"is_disabled":true,"rental_uris":{"android":"levelo://app?vid=b5cc55f2-2a30-479b-8fa6-5ff8568d3372","ios":"levelo://app?vid=b5cc55f2-2a30-479b-8fa6-5ff8568d3372"},"vehicle_type_id":"4","last_reported":1738058954,"current_range_meters":38800,"station_id":"ce4bhg92rcd13ifvqf90","pricing_plan_id":"cebpf4jnsgd1na2vs0mg"},{"bike_id":"c38308b0-f289-46ea-8979-3bd8ba6469f6","system_id":"levelo_inurba_marseille","lat":43.29361,"lon":5.37845,"is_reserved":false,"is_disabled":false,"rental_uris":{"android":"levelo://app?vid=c38308b0-f289-46ea-8979-3bd8ba6469f6","ios":"levelo://app?vid=c38308b0-f289-46ea-8979-3bd8ba6469f6"},"vehicle_type_id":"4","last_reported":1738058954,"current_range_meters":38800,"station_id":"ce4bgjh2rcd13ifvqbf0","pricing_plan_id":"cebpf4jnsgd1na2vs0mg"},{"bike_id":"16e377ed-0b1f-4464-b29d-b7d1caa6fca1","system_id":"levelo_inurba_marseille","lat":43.25933,"lon":5.409,"is_reserved":false,"is_disabled":false,"rental_uris":{"android":"levelo://app?vid=16e377ed-0b1f-4464-b29d-b7d1caa6fca1","ios":"levelo://app?vid=16e377ed-0b1f-4464-b29d-b7d1caa6fca1"},"vehicle_type_id":"4","last_reported":1738058954,"current_range_meters":11200,"station_id":"ce4bhm92rcd13ifvqglg","pricing_plan_id":"cebpf4jnsgd1na2vs0mg"},{"bike_id":"e3c5a10e-948d-477c-91ce-8c835a7fe362","system_id":"levelo_inurba_marseille","lat":43.280943,"lon":5.39658,"is_reserved":false,"is_disabled":true,"rental_uris":{"android":"levelo://app?vid=e3c5a10e-948d-477c-91ce-8c835a7fe362","ios":"levelo://app?vid=e3c5a10e-948d-477c-91ce-8c835a7fe362"},"vehicle_type_id":"4","last_reported":1738058954,"current_range_meters":0,"station_id":"ce4bho12rcd13ifvqh2g","pricing_plan_id":"cebpf4jnsgd1na2vs0mg"},{"bike_id":"12441ce6-c606-4cf0-a632-b36c396bdd89","system_id":"levelo_inurba_marseille","lat":43.29518,"lon":5.39053,"is_reserved":false,"is_disabled":false,"rental_uris":{"android":"levelo://app?vid=12441ce6-c606-4cf0-a632-b36c396bdd89","ios":"levelo://app?vid=12441ce6-c606-4cf0-a632-b36c396bdd89"},"vehicle_type_id":"4","last_reported":1738058954,"current_range_meters":38400,"station_id":"ce4bh3p2rcd13ifvqdp0","pricing_plan_id":"cebpf4jnsgd1na2vs0mg"},{"bike_id":"7fb886b9-6149-42e6-a2c1-57c7e1e59df6","system_id":"levelo_inurba_marseille","lat":43.27501,"lon":5.42461,"is_reserved":false,"is_disabled":false,"rental_uris":{"android":"levelo://app?vid=7fb886b9-6149-42e6-a2c1-57c7e1e59df6","ios":"levelo://app?vid=7fb886b9-6149-42e6-a2c1-57c7e1e59df6"},"vehicle_type_id":"4","last_reported":1738058954,"current_range_meters":28800,"station_id":"ce4bhn92rcd13ifvqgrg","pricing_plan_id":"cebpf4jnsgd1na2vs0mg"},{"bike_id":"90613773-17ef-4e53-bb03-72ff902442d3","system_id":"levelo_inurba_marseille","lat":43.3065,"lon":5.40102,"is_reserved":false,"is_disabled":false,"rental_uris":{"android":"levelo://app?vid=90613773-17ef-4e53-bb03-72ff902442d3","ios":"levelo://app?vid=90613773-17ef-4e53-bb03-72ff902442d3"},"vehicle_type_id":"4","last_reported":1738058954,"current_range_meters":38800,"station_id":"ce4bh112rcd13ifvqda0","pricing_plan_id":"cebpf4jnsgd1na2vs0mg"},{"bike_id":"fcbfd13a-871b-4036-9edd-8d1d75f770b8","system_id":"levelo_inurba_marseille","lat":43.28857,"lon":5.35862,"is_reserved":false,"is_disabled":false,"rental_uris":{"android":"levelo://app?vid=fcbfd13a-871b-4036-9edd-8d1d75f770b8","ios":"levelo://app?vid=fcbfd13a-871b-4036-9edd-8d1d75f770b8"},"vehicle_type_id":"4","last_reported":1738058954,"current_range_meters":38400,"station_id":"ce4bhb12rcd13ifvqem0","pricing_plan_id":"cebpf4jnsgd1na2vs0mg"},{"bike_id":"f846d495-effa-4e8f-ae39-f2d7b1fc0ba3","system_id":"levelo_inurba_marseille","lat":43.26789,"lon":5.40259,"is_reserved":false,"is_disabled":false,"rental_uris":{"android":"levelo://app?vid=f846d495-effa-4e8f-ae39-f2d7b1fc0ba3","ios":"levelo://app?vid=f846d495-effa-4e8f-ae39-f2d7b1fc0ba3"},"vehicle_type_id":"4","last_reported":1738058954,"current_range_meters":38800,"station_id":"ce501612rcd8frsf0b60","pricing_plan_id":"cebpf4jnsgd1na2vs0mg"},{"bike_id":"6f9a802d-aaea-4039-a843-8574df6ec0f3","system_id":"levelo_inurba_marseille","lat":43.293,"lon":5.37157,"is_reserved":false,"is_disabled":false,"rental_uris":{"android":"levelo://app?vid=6f9a802d-aaea-4039-a843-8574df6ec0f3","ios":"levelo://app?vid=6f9a802d-aaea-4039-a843-8574df6ec0f3"},"vehicle_type_id":"4","last_reported":1738058954,"current_range_meters":19600,"station_id":"ce4bgh92rcd13ifvqb40","pricing_plan_id":"cebpf4jnsgd1na2vs0mg"},{"bike_id":"a4be99d0-9f57-4d65-9197-81844e4eb908","system_id":"levelo_inurba_marseille","lat":43.32439,"lon":5.36578,"is_reserved":false,"is_disabled":false,"rental_uris":{"android":"levelo://app?vid=a4be99d0-9f57-4d65-9197-81844e4eb908","ios":"levelo://app?vid=a4be99d0-9f57-4d65-9197-81844e4eb908"},"vehicle_type_id":"4","last_reported":1738058954,"current_range_meters":28800,"station_id":"ce4bhs12rcd13ifvqhvg","pricing_plan_id":"cebpf4jnsgd1na2vs0mg"},{"bike_id":"d1e9a39d-8c53-46bf-8978-e830f4e17d3f","system_id":"levelo_inurba_marseille","lat":43.27489,"lon":5.42472,"is_reserved":false,"is_disabled":false,"rental_uris":{"android":"levelo://app?vid=d1e9a39d-8c53-46bf-8978-e830f4e17d3f","ios":"levelo://app?vid=d1e9a39d-8c53-46bf-8978-e830f4e17d3f"},"vehicle_type_id":"4","last_reported":1738058954,"current_range_meters":10000,"station_id":"ce4bhn92rcd13ifvqgrg","pricing_plan_id":"cebpf4jnsgd1na2vs0mg"},{"bike_id":"f9173de2-2fa5-436f-a76b-3c96bd571284","system_id":"levelo_inurba_marseille","lat":43.2979,"lon":5.40428,"is_reserved":false,"is_disabled":true,"rental_uris":{"android":"levelo://app?vid=f9173de2-2fa5-436f-a76b-3c96bd571284","ios":"levelo://app?vid=f9173de2-2fa5-436f-a76b-3c96bd571284"},"vehicle_type_id":"4","last_reported":1738058954,"current_range_meters":37600,"station_id":"ce4bh112rcd13ifvqd90","pricing_plan_id":"cebpf4jnsgd1na2vs0mg"},{"bike_id":"54a3b066-8322-48b3-9a4e-9afae5461793","system_id":"levelo_inurba_marseille","lat":43.30359,"lon":5.41863,"is_reserved":false,"is_disabled":true,"rental_uris":{"android":"levelo://app?vid=54a3b066-8322-48b3-9a4e-9afae5461793","ios":"levelo://app?vid=54a3b066-8322-48b3-9a4e-9afae5461793"},"vehicle_type_id":"4","last_reported":1738058954,"current_range_meters":38800,"station_id":"ce4bhop2rcd13ifvqh7g","pricing_plan_id":"cebpf4jnsgd1na2vs0mg"},{"bike_id":"70f3f1f8-1315-445c-95fc-f2adfccc5254","system_id":"levelo_inurba_marseille","lat":43.30302,"lon":5.36879,"is_reserved":false,"is_disabled":false,"rental_uris":{"android":"levelo://app?vid=70f3f1f8-1315-445c-95fc-f2adfccc5254","ios":"levelo://app?vid=70f3f1f8-1315-445c-95fc-f2adfccc5254"},"vehicle_type_id":"4","last_reported":1738058954,"current_range_meters":28400,"station_id":"ce4bgqh2rcd13ifvqc5g","pricing_plan_id":"cebpf4jnsgd1na2vs0mg"},{"bike_id":"1932502a-a386-4bd4-8041-b68d3b661876","system_id":"levelo_inurba_marseille","lat":43.23193,"lon":5.35549,"is_reserved":false,"is_disabled":false,"rental_uris":{"android":"levelo://app?vid=1932502a-a386-4bd4-8041-b68d3b661876","ios":"levelo://app?vid=1932502a-a386-4bd4-8041-b68d3b661876"},"vehicle_type_id":"4","last_reported":1738058954,"current_range_meters":25600,"station_id":"ce4bhu92rcd13ifvqi70","pricing_plan_id":"cebpf4jnsgd1na2vs0mg"},{"bike_id":"db3aaaa1-2c83-4416-9be0-650e00b3a100","system_id":"levelo_inurba_marseille","lat":43.317625,"lon":5.390167,"is_reserved":false,"is_disabled":false,"rental_uris":{"android":"levelo://app?vid=db3aaaa1-2c83-4416-9be0-650e00b3a100","ios":"levelo://app?vid=db3aaaa1-2c83-4416-9be0-650e00b3a100"},"vehicle_type_id":"4","last_reported":1738058954,"current_range_meters":38800,"station_id":"ce4bhqp2rcd13ifvqhng","pricing_plan_id":"cebpf4jnsgd1na2vs0mg"},{"bike_id":"8cc6a59e-3f3f-4790-a830-2f3487f9a7a9","system_id":"levelo_inurba_marseille","lat":43.30131,"lon":5.38092,"is_reserved":false,"is_disabled":false,"rental_uris":{"android":"levelo://app?vid=8cc6a59e-3f3f-4790-a830-2f3487f9a7a9","ios":"levelo://app?vid=8cc6a59e-3f3f-4790-a830-2f3487f9a7a9"},"vehicle_type_id":"4","last_reported":1738058954,"current_range_meters":27600,"station_id":"ce4bgjp2rcd13ifvqbh0","pricing_plan_id":"cebpf4jnsgd1na2vs0mg"},{"bike_id":"6e870492-3daf-430e-80f4-636a365d2a06","system_id":"levelo_inurba_marseille","lat":43.25927,"lon":5.4091,"is_reserved":false,"is_disabled":false,"rental_uris":{"android":"levelo://app?vid=6e870492-3daf-430e-80f4-636a365d2a06","ios":"levelo://app?vid=6e870492-3daf-430e-80f4-636a365d2a06"},"vehicle_type_id":"4","last_reported":1738058954,"current_range_meters":16000,"station_id":"ce4bhm92rcd13ifvqglg","pricing_plan_id":"cebpf4jnsgd1na2vs0mg"},{"bike_id":"413f6424-c760-4e18-9938-356d52760352","system_id":"levelo_inurba_marseille","lat":43.29181,"lon":5.37154,"is_reserved":false,"is_disabled":false,"rental_uris":{"android":"levelo://app?vid=413f6424-c760-4e18-9938-356d52760352","ios":"levelo://app?vid=413f6424-c760-4e18-9938-356d52760352"},"vehicle_type_id":"4","last_reported":1738058954,"current_range_meters":21600,"station_id":"ce4bha92rcd13ifvqeh0","pricing_plan_id":"cebpf4jnsgd1na2vs0mg"},{"bike_id":"ee77105d-fb85-4ff3-b170-8616151c7d95","system_id":"levelo_inurba_marseille","lat":43.33601,"lon":5.41026,"is_reserved":false,"is_disabled":false,"rental_uris":{"android":"levelo://app?vid=ee77105d-fb85-4ff3-b170-8616151c7d95","ios":"levelo://app?vid=ee77105d-fb85-4ff3-b170-8616151c7d95"},"vehicle_type_id":"4","last_reported":1738058954,"current_range_meters":38800,"station_id":"ce4bhqh2rcd13ifvqhmg","pricing_plan_id":"cebpf4jnsgd1na2vs0mg"},{"bike_id":"930e80b9-31b1-4794-a031-336d148aef30","system_id":"levelo_inurba_marseille","lat":43.30155,"lon":5.38117,"is_reserved":false,"is_disabled":false,"rental_uris":{"android":"levelo://app?vid=930e80b9-31b1-4794-a031-336d148aef30","ios":"levelo://app?vid=930e80b9-31b1-4794-a031-336d148aef30"},"vehicle_type_id":"4","last_reported":1738058954,"current_range_meters":36800,"station_id":"ce4bgjp2rcd13ifvqbh0","pricing_plan_id":"cebpf4jnsgd1na2vs0mg"},{"bike_id":"305cbcdf-1336-4710-b16c-ff53a745a72a","system_id":"levelo_inurba_marseille","lat":43.30741,"lon":5.37665,"is_reserved":false,"is_disabled":false,"rental_uris":{"android":"levelo://app?vid=305cbcdf-1336-4710-b16c-ff53a745a72a","ios":"levelo://app?vid=305cbcdf-1336-4710-b16c-ff53a745a72a"},"vehicle_type_id":"4","last_reported":1738058954,"current_range_meters":25600,"station_id":"","pricing_plan_id":"cebpf4jnsgd1na2vs0mg"},{"bike_id":"bd86ca95-3511-4a7f-bfd2-309a852a8052","system_id":"levelo_inurba_marseille","lat":43.32289,"lon":5.38262,"is_reserved":false,"is_disabled":false,"rental_uris":{"android":"levelo://app?vid=bd86ca95-3511-4a7f-bfd2-309a852a8052","ios":"levelo://app?vid=bd86ca95-3511-4a7f-bfd2-309a852a8052"},"vehicle_type_id":"4","last_reported":1738058954,"current_range_meters":35600,"station_id":"ce4bhr12rcd13ifvqhqg","pricing_plan_id":"cebpf4jnsgd1na2vs0mg"},{"bike_id":"e000af5e-3a35-4a7d-8d13-5b04594427a0","system_id":"levelo_inurba_marseille","lat":43.28495,"lon":5.38533,"is_reserved":false,"is_disabled":false,"rental_uris":{"android":"levelo://app?vid=e000af5e-3a35-4a7d-8d13-5b04594427a0","ios":"levelo://app?vid=e000af5e-3a35-4a7d-8d13-5b04594427a0"},"vehicle_type_id":"4","last_reported":1738058954,"current_range_meters":11200,"station_id":"ce4bh8p2rcd13ifvqeb0","pricing_plan_id":"cebpf4jnsgd1na2vs0mg"},{"bike_id":"283c25d8-9fc5-495b-9825-5a72a68442bd","system_id":"levelo_inurba_marseille","lat":43.29251,"lon":5.40908,"is_reserved":false,"is_disabled":true,"rental_uris":{"android":"levelo://app?vid=283c25d8-9fc5-495b-9825-5a72a68442bd","ios":"levelo://app?vid=283c25d8-9fc5-495b-9825-5a72a68442bd"},"vehicle_type_id":"4","last_reported":1738058954,"current_range_meters":0,"station_id":"ce4bh192rcd13ifvqdc0","pricing_plan_id":"cebpf4jnsgd1na2vs0mg"},{"bike_id":"a3d00b76-e3d3-48a4-a596-66088ecb8491","system_id":"levelo_inurba_marseille","lat":43.33591,"lon":5.40973,"is_reserved":false,"is_disabled":false,"rental_uris":{"android":"levelo://app?vid=a3d00b76-e3d3-48a4-a596-66088ecb8491","ios":"levelo://app?vid=a3d00b76-e3d3-48a4-a596-66088ecb8491"},"vehicle_type_id":"4","last_reported":1738058954,"current_range_meters":38800,"station_id":"ce4bhqh2rcd13ifvqhmg","pricing_plan_id":"cebpf4jnsgd1na2vs0mg"},{"bike_id":"e3e26aee-15e1-425c-a48f-db58aa520742","system_id":"levelo_inurba_marseille","lat":43.23075,"lon":5.35489,"is_reserved":false,"is_disabled":false,"rental_uris":{"android":"levelo://app?vid=e3e26aee-15e1-425c-a48f-db58aa520742","ios":"levelo://app?vid=e3e26aee-15e1-425c-a48f-db58aa520742"},"vehicle_type_id":"4","last_reported":1738058954,"current_range_meters":37600,"station_id":"cpo3342slgdg3j2ifvpg","pricing_plan_id":"cebpf4jnsgd1na2vs0mg"},{"bike_id":"9fb813cb-e992-4585-8f3d-d25d13081f3b","system_id":"levelo_inurba_marseille","lat":43.23195,"lon":5.35544,"is_reserved":false,"is_disabled":false,"rental_uris":{"android":"levelo://app?vid=9fb813cb-e992-4585-8f3d-d25d13081f3b","ios":"levelo://app?vid=9fb813cb-e992-4585-8f3d-d25d13081f3b"},"vehicle_type_id":"4","last_reported":1738058954,"current_range_meters":38800,"station_id":"ce4bhu92rcd13ifvqi70","pricing_plan_id":"cebpf4jnsgd1na2vs0mg"},{"bike_id":"7c2c04a0-5c2d-4f19-b8a8-ceb0916ec7df","system_id":"levelo_inurba_marseille","lat":43.27417,"lon":5.39385,"is_reserved":false,"is_disabled":false,"rental_uris":{"android":"levelo://app?vid=7c2c04a0-5c2d-4f19-b8a8-ceb0916ec7df","ios":"levelo://app?vid=7c2c04a0-5c2d-4f19-b8a8-ceb0916ec7df"},"vehicle_type_id":"4","last_reported":1738058954,"current_range_meters":38800,"station_id":"ce4bhdp2rcd13ifvqf20","pricing_plan_id":"cebpf4jnsgd1na2vs0mg"},{"bike_id":"305b6e3a-8db9-4c6e-beb8-77b9a88d18a4","system_id":"levelo_inurba_marseille","lat":43.30741,"lon":5.37672,"is_reserved":false,"is_disabled":false,"rental_uris":{"android":"levelo://app?vid=305b6e3a-8db9-4c6e-beb8-77b9a88d18a4","ios":"levelo://app?vid=305b6e3a-8db9-4c6e-beb8-77b9a88d18a4"},"vehicle_type_id":"4","last_reported":1738058954,"current_range_meters":22000,"station_id":"","pricing_plan_id":"cebpf4jnsgd1na2vs0mg"},{"bike_id":"f0b8ce21-4cd0-4f39-b268-34205ffefbbe","system_id":"levelo_inurba_marseille","lat":43.30492,"lon":5.3792,"is_reserved":false,"is_disabled":false,"rental_uris":{"android":"levelo://app?vid=f0b8ce21-4cd0-4f39-b268-34205ffefbbe","ios":"levelo://app?vid=f0b8ce21-4cd0-4f39-b268-34205ffefbbe"},"vehicle_type_id":"4","last_reported":1738058954,"current_range_meters":19600,"station_id":"ce4bgup2rcd13ifvqcn0","pricing_plan_id":"cebpf4jnsgd1na2vs0mg"},{"bike_id":"7c78a755-c7f5-4f07-a96b-621451d47948","system_id":"levelo_inurba_marseille","lat":43.29888,"lon":5.43673,"is_reserved":false,"is_disabled":false,"rental_uris":{"android":"levelo://app?vid=7c78a755-c7f5-4f07-a96b-621451d47948","ios":"levelo://app?vid=7c78a755-c7f5-4f07-a96b-621451d47948"},"vehicle_type_id":"4","last_reported":1738058954,"current_range_meters":24400,"station_id":"ce4bhpp2rcd13ifvqhfg","pricing_plan_id":"cebpf4jnsgd1na2vs0mg"},{"bike_id":"253ac287-c4d2-43fd-b62c-c7884c1170df","system_id":"levelo_inurba_marseille","lat":43.30233,"lon":5.3947,"is_reserved":false,"is_disabled":false,"rental_uris":{"android":"levelo://app?vid=253ac287-c4d2-43fd-b62c-c7884c1170df","ios":"levelo://app?vid=253ac287-c4d2-43fd-b62c-c7884c1170df"},"vehicle_type_id":"4","last_reported":1738058954,"current_range_meters":17600,"station_id":"ce4bh0p2rcd13ifvqd70","pricing_plan_id":"cebpf4jnsgd1na2vs0mg"},{"bike_id":"72ff5c35-8977-46bf-8e5f-606a7fde9ab4","system_id":"levelo_inurba_marseille","lat":43.27491,"lon":5.42467,"is_reserved":false,"is_disabled":false,"rental_uris":{"android":"levelo://app?vid=72ff5c35-8977-46bf-8e5f-606a7fde9ab4","ios":"levelo://app?vid=72ff5c35-8977-46bf-8e5f-606a7fde9ab4"},"vehicle_type_id":"4","last_reported":1738058954,"current_range_meters":10800,"station_id":"ce4bhn92rcd13ifvqgrg","pricing_plan_id":"cebpf4jnsgd1na2vs0mg"},{"bike_id":"36e6a427-7530-445e-8f33-06e366ba2f54","system_id":"levelo_inurba_marseille","lat":43.27896,"lon":5.3803,"is_reserved":false,"is_disabled":false,"rental_uris":{"android":"levelo://app?vid=36e6a427-7530-445e-8f33-06e366ba2f54","ios":"levelo://app?vid=36e6a427-7530-445e-8f33-06e366ba2f54"},"vehicle_type_id":"4","last_reported":1738058954,"current_range_meters":37600,"station_id":"ce4bhf92rcd13ifvqf50","pricing_plan_id":"cebpf4jnsgd1na2vs0mg"},{"bike_id":"803e03d8-7d2e-4feb-ac46-774902d16dee","system_id":"levelo_inurba_marseille","lat":43.33747,"lon":5.37438,"is_reserved":false,"is_disabled":true,"rental_uris":{"android":"levelo://app?vid=803e03d8-7d2e-4feb-ac46-774902d16dee","ios":"levelo://app?vid=803e03d8-7d2e-4feb-ac46-774902d16dee"},"vehicle_type_id":"4","last_reported":1738058954,"current_range_meters":38400,"station_id":"","pricing_plan_id":"cebpf4jnsgd1na2vs0mg"},{"bike_id":"a48a4fa8-387b-4ecc-bc7a-c3f07822bf47","system_id":"levelo_inurba_marseille","lat":43.270726,"lon":5.392326,"is_reserved":false,"is_disabled":true,"rental_uris":{"android":"levelo://app?vid=a48a4fa8-387b-4ecc-bc7a-c3f07822bf47","ios":"levelo://app?vid=a48a4fa8-387b-4ecc-bc7a-c3f07822bf47"},"vehicle_type_id":"4","last_reported":1738058954,"current_range_meters":0,"station_id":"","pricing_plan_id":"cebpf4jnsgd1na2vs0mg"},{"bike_id":"d8e3e652-bcf6-43e0-be03-ff712527ceec","system_id":"levelo_inurba_marseille","lat":43.2749,"lon":5.42477,"is_reserved":false,"is_disabled":false,"rental_uris":{"android":"levelo://app?vid=d8e3e652-bcf6-43e0-be03-ff712527ceec","ios":"levelo://app?vid=d8e3e652-bcf6-43e0-be03-ff712527ceec"},"vehicle_type_id":"4","last_reported":1738058954,"current_range_meters":8400,"station_id":"ce4bhn92rcd13ifvqgrg","pricing_plan_id":"cebpf4jnsgd1na2vs0mg"},{"bike_id":"5f52cd29-90ea-433d-ad73-70ea1f779142","system_id":"levelo_inurba_marseille","lat":43.30547,"lon":5.38421,"is_reserved":false,"is_disabled":false,"rental_uris":{"android":"levelo://app?vid=5f52cd29-90ea-433d-ad73-70ea1f779142","ios":"levelo://app?vid=5f52cd29-90ea-433d-ad73-70ea1f779142"},"vehicle_type_id":"4","last_reported":1738058954,"current_range_meters":36400,"station_id":"ce4bgg92rcd13ifvqb30","pricing_plan_id":"cebpf4jnsgd1na2vs0mg"},{"bike_id":"a8d0380b-0a88-41c3-845f-e00ffb2cbc88","system_id":"levelo_inurba_marseille","lat":43.279898,"lon":5.399985,"is_reserved":false,"is_disabled":true,"rental_uris":{"android":"levelo://app?vid=a8d0380b-0a88-41c3-845f-e00ffb2cbc88","ios":"levelo://app?vid=a8d0380b-0a88-41c3-845f-e00ffb2cbc88"},"vehicle_type_id":"4","last_reported":1738058954,"current_range_meters":26800,"station_id":"ce4bho92rcd13ifvqh4g","pricing_plan_id":"cebpf4jnsgd1na2vs0mg"},{"bike_id":"960c2b1e-93ba-4e0e-baf5-fd8a6baa3c6b","system_id":"levelo_inurba_marseille","lat":43.25854,"lon":5.39908,"is_reserved":false,"is_disabled":true,"rental_uris":{"android":"levelo://app?vid=960c2b1e-93ba-4e0e-baf5-fd8a6baa3c6b","ios":"levelo://app?vid=960c2b1e-93ba-4e0e-baf5-fd8a6baa3c6b"},"vehicle_type_id":"4","last_reported":1738058954,"current_range_meters":32400,"station_id":"ce4bhl92rcd13ifvqghg","pricing_plan_id":"cebpf4jnsgd1na2vs0mg"},{"bike_id":"688eea87-7c36-4baa-b6b9-0ba0449d07a2","system_id":"levelo_inurba_marseille","lat":43.2808,"lon":5.39661,"is_reserved":false,"is_disabled":false,"rental_uris":{"android":"levelo://app?vid=688eea87-7c36-4baa-b6b9-0ba0449d07a2","ios":"levelo://app?vid=688eea87-7c36-4baa-b6b9-0ba0449d07a2"},"vehicle_type_id":"4","last_reported":1738058954,"current_range_meters":4000,"station_id":"ce4bho12rcd13ifvqh2g","pricing_plan_id":"cebpf4jnsgd1na2vs0mg"},{"bike_id":"907721ac-bc82-4cfe-b462-7b1a112329de","system_id":"levelo_inurba_marseille","lat":43.30552,"lon":5.36695,"is_reserved":false,"is_disabled":false,"rental_uris":{"android":"levelo://app?vid=907721ac-bc82-4cfe-b462-7b1a112329de","ios":"levelo://app?vid=907721ac-bc82-4cfe-b462-7b1a112329de"},"vehicle_type_id":"4","last_reported":1738058954,"current_range_meters":9200,"station_id":"ce4bgrp2rcd13ifvqc9g","pricing_plan_id":"cebpf4jnsgd1na2vs0mg"},{"bike_id":"f5489a71-672f-4a76-b5cc-64a130203e4a","system_id":"levelo_inurba_marseille","lat":43.30149,"lon":5.38094,"is_reserved":false,"is_disabled":false,"rental_uris":{"android":"levelo://app?vid=f5489a71-672f-4a76-b5cc-64a130203e4a","ios":"levelo://app?vid=f5489a71-672f-4a76-b5cc-64a130203e4a"},"vehicle_type_id":"4","last_reported":1738058954,"current_range_meters":20000,"station_id":"ce4bgjp2rcd13ifvqbh0","pricing_plan_id":"cebpf4jnsgd1na2vs0mg"},{"bike_id":"c0199c43-6ad3-4c6c-a838-a256a1dd9983","system_id":"levelo_inurba_marseille","lat":43.29295,"lon":5.37459,"is_reserved":false,"is_disabled":false,"rental_uris":{"android":"levelo://app?vid=c0199c43-6ad3-4c6c-a838-a256a1dd9983","ios":"levelo://app?vid=c0199c43-6ad3-4c6c-a838-a256a1dd9983"},"vehicle_type_id":"4","last_reported":1738058954,"current_range_meters":32800,"station_id":"ce4bgi12rcd13ifvqb70","pricing_plan_id":"cebpf4jnsgd1na2vs0mg"},{"bike_id":"956c4638-e69d-49a1-8f2c-e421141733f2","system_id":"levelo_inurba_marseille","lat":43.25864,"lon":5.39896,"is_reserved":false,"is_disabled":false,"rental_uris":{"android":"levelo://app?vid=956c4638-e69d-49a1-8f2c-e421141733f2","ios":"levelo://app?vid=956c4638-e69d-49a1-8f2c-e421141733f2"},"vehicle_type_id":"4","last_reported":1738058954,"current_range_meters":22000,"station_id":"ce4bhl92rcd13ifvqghg","pricing_plan_id":"cebpf4jnsgd1na2vs0mg"},{"bike_id":"8f123f58-2803-4f70-aa06-7d428b4ad0fc","system_id":"levelo_inurba_marseille","lat":43.28588,"lon":5.35147,"is_reserved":false,"is_disabled":false,"rental_uris":{"android":"levelo://app?vid=8f123f58-2803-4f70-aa06-7d428b4ad0fc","ios":"levelo://app?vid=8f123f58-2803-4f70-aa06-7d428b4ad0fc"},"vehicle_type_id":"4","last_reported":1738058954,"current_range_meters":10000,"station_id":"","pricing_plan_id":"cebpf4jnsgd1na2vs0mg"},{"bike_id":"46e9dfca-a070-4ff1-bf66-a3d1f2830a40","system_id":"levelo_inurba_marseille","lat":43.289333,"lon":5.366417,"is_reserved":false,"is_disabled":false,"rental_uris":{"android":"levelo://app?vid=46e9dfca-a070-4ff1-bf66-a3d1f2830a40","ios":"levelo://app?vid=46e9dfca-a070-4ff1-bf66-a3d1f2830a40"},"vehicle_type_id":"4","last_reported":1738058954,"current_range_meters":37600,"station_id":"ce4bhap2rcd13ifvqek0","pricing_plan_id":"cebpf4jnsgd1na2vs0mg"},{"bike_id":"c438c788-2c8f-4eda-8233-a8485c23c4af","system_id":"levelo_inurba_marseille","lat":43.30429,"lon":5.41297,"is_reserved":false,"is_disabled":true,"rental_uris":{"android":"levelo://app?vid=c438c788-2c8f-4eda-8233-a8485c23c4af","ios":"levelo://app?vid=c438c788-2c8f-4eda-8233-a8485c23c4af"},"vehicle_type_id":"4","last_reported":1738058954,"current_range_meters":0,"station_id":"ce4bhop2rcd13ifvqh8g","pricing_plan_id":"cebpf4jnsgd1na2vs0mg"},{"bike_id":"85af6c92-372c-4cd2-84da-c4ec61fa470d","system_id":"levelo_inurba_marseille","lat":43.25721,"lon":5.41117,"is_reserved":false,"is_disabled":true,"rental_uris":{"android":"levelo://app?vid=85af6c92-372c-4cd2-84da-c4ec61fa470d","ios":"levelo://app?vid=85af6c92-372c-4cd2-84da-c4ec61fa470d"},"vehicle_type_id":"4","last_reported":1738058954,"current_range_meters":38000,"station_id":"ce4bhkp2rcd13ifvqgd0","pricing_plan_id":"cebpf4jnsgd1na2vs0mg"},{"bike_id":"8ae2ff4b-08c8-42fe-b882-9be17aabf42b","system_id":"levelo_inurba_marseille","lat":43.30937,"lon":5.40144,"is_reserved":false,"is_disabled":false,"rental_uris":{"android":"levelo://app?vid=8ae2ff4b-08c8-42fe-b882-9be17aabf42b","ios":"levelo://app?vid=8ae2ff4b-08c8-42fe-b882-9be17aabf42b"},"vehicle_type_id":"4","last_reported":1738058954,"current_range_meters":38800,"station_id":"ce4bgvp2rcd13ifvqct0","pricing_plan_id":"cebpf4jnsgd1na2vs0mg"},{"bike_id":"0a5fde81-0685-4894-b805-5edb46505778","system_id":"levelo_inurba_marseille","lat":43.24696,"lon":5.38137,"is_reserved":false,"is_disabled":true,"rental_uris":{"android":"levelo://app?vid=0a5fde81-0685-4894-b805-5edb46505778","ios":"levelo://app?vid=0a5fde81-0685-4894-b805-5edb46505778"},"vehicle_type_id":"4","last_reported":1738058954,"current_range_meters":37600,"station_id":"ce4bhih2rcd13ifvqfr0","pricing_plan_id":"cebpf4jnsgd1na2vs0mg"},{"bike_id":"9c8682a0-e665-42ca-9e8b-8233d9f42b52","system_id":"levelo_inurba_marseille","lat":43.2691,"lon":5.40277,"is_reserved":false,"is_disabled":false,"rental_uris":{"android":"levelo://app?vid=9c8682a0-e665-42ca-9e8b-8233d9f42b52","ios":"levelo://app?vid=9c8682a0-e665-42ca-9e8b-8233d9f42b52"},"vehicle_type_id":"4","last_reported":1738058954,"current_range_meters":7200,"station_id":"cjm6bp8fraef2m0cb0m0","pricing_plan_id":"cebpf4jnsgd1na2vs0mg"},{"bike_id":"2e02df94-9b0d-4dde-ace7-107552e26bd2","system_id":"levelo_inurba_marseille","lat":43.268,"lon":5.40244,"is_reserved":false,"is_disabled":false,"rental_uris":{"android":"levelo://app?vid=2e02df94-9b0d-4dde-ace7-107552e26bd2","ios":"levelo://app?vid=2e02df94-9b0d-4dde-ace7-107552e26bd2"},"vehicle_type_id":"4","last_reported":1738058954,"current_range_meters":38800,"station_id":"ce501612rcd8frsf0b60","pricing_plan_id":"cebpf4jnsgd1na2vs0mg"},{"bike_id":"5cf2daf4-98e7-4431-9d2f-0da0360b7949","system_id":"levelo_inurba_marseille","lat":43.29284,"lon":5.37433,"is_reserved":false,"is_disabled":false,"rental_uris":{"android":"levelo://app?vid=5cf2daf4-98e7-4431-9d2f-0da0360b7949","ios":"levelo://app?vid=5cf2daf4-98e7-4431-9d2f-0da0360b7949"},"vehicle_type_id":"4","last_reported":1738058954,"current_range_meters":18800,"station_id":"ce4bgi12rcd13ifvqb70","pricing_plan_id":"cebpf4jnsgd1na2vs0mg"},{"bike_id":"343d8c01-99ed-4d90-9570-a1a7b987806d","system_id":"levelo_inurba_marseille","lat":43.24795,"lon":5.37451,"is_reserved":false,"is_disabled":false,"rental_uris":{"android":"levelo://app?vid=343d8c01-99ed-4d90-9570-a1a7b987806d","ios":"levelo://app?vid=343d8c01-99ed-4d90-9570-a1a7b987806d"},"vehicle_type_id":"4","last_reported":1738058954,"current_range_meters":38800,"station_id":"ce4bhgh2rcd13ifvqfb0","pricing_plan_id":"cebpf4jnsgd1na2vs0mg"},{"bike_id":"0a0ae71f-4f56-4994-bc72-73253d32ead8","system_id":"levelo_inurba_marseille","lat":43.27449,"lon":5.39437,"is_reserved":false,"is_disabled":false,"rental_uris":{"android":"levelo://app?vid=0a0ae71f-4f56-4994-bc72-73253d32ead8","ios":"levelo://app?vid=0a0ae71f-4f56-4994-bc72-73253d32ead8"},"vehicle_type_id":"4","last_reported":1738058954,"current_range_meters":39200,"station_id":"ce4bhdp2rcd13ifvqf20","pricing_plan_id":"cebpf4jnsgd1na2vs0mg"},{"bike_id":"841a0645-dfe7-45bf-88ea-b397461e80ce","system_id":"levelo_inurba_marseille","lat":43.31483,"lon":5.37306,"is_reserved":false,"is_disabled":false,"rental_uris":{"android":"levelo://app?vid=841a0645-dfe7-45bf-88ea-b397461e80ce","ios":"levelo://app?vid=841a0645-dfe7-45bf-88ea-b397461e80ce"},"vehicle_type_id":"4","last_reported":1738058954,"current_range_meters":18000,"station_id":"ce4bgt12rcd13ifvqcd0","pricing_plan_id":"cebpf4jnsgd1na2vs0mg"},{"bike_id":"3d98c6ce-e80d-46e8-b577-648cd8c28632","system_id":"levelo_inurba_marseille","lat":43.34699,"lon":5.34741,"is_reserved":false,"is_disabled":true,"rental_uris":{"android":"levelo://app?vid=3d98c6ce-e80d-46e8-b577-648cd8c28632","ios":"levelo://app?vid=3d98c6ce-e80d-46e8-b577-648cd8c28632"},"vehicle_type_id":"4","last_reported":1738058954,"current_range_meters":0,"station_id":"","pricing_plan_id":"cebpf4jnsgd1na2vs0mg"},{"bike_id":"f45e92fa-0e85-41e7-bd5d-428e50cde5ed","system_id":"levelo_inurba_marseille","lat":43.27429,"lon":5.39405,"is_reserved":false,"is_disabled":false,"rental_uris":{"android":"levelo://app?vid=f45e92fa-0e85-41e7-bd5d-428e50cde5ed","ios":"levelo://app?vid=f45e92fa-0e85-41e7-bd5d-428e50cde5ed"},"vehicle_type_id":"4","last_reported":1738058954,"current_range_meters":8800,"station_id":"ce4bhdp2rcd13ifvqf20","pricing_plan_id":"cebpf4jnsgd1na2vs0mg"},