{"last_updated":1741270171,"ttl":60,"version":"2.2","data":{"bikes":[{"bike_id":"64ad3f0d-e2ae-4204-9e7f-203143b622b5","system_id":"levelo_inurba_marseille","lat":43.2557,"lon":5.38246,"is_reserved":false,"is_disabled":false,"rental_uris":{"android":"levelo://app?vid=64ad3f0d-e2ae-4204-9e7f-203143b622b5","ios":"levelo://app?vid=64ad3f0d-e2ae-4204-9e7f-203143b622b5"},"vehicle_type_id":"4","last_reported":1741270171,"current_range_meters":2800,"station_id":"ce4bhih2rcd13ifvqfs0","pricing_plan_id":"cebpf4jnsgd1na2vs0mg"},{"bike_id":"8d72e8fd-85af-461d-aef5-c1cf5551512e","system_id":"levelo_inurba_marseille","lat":43.30547,"lon":5.38427,"is_reserved":false,"is_disabled":false,"rental_uris":{"android":"levelo://app?vid=8d72e8fd-85af-461d-aef5-c1cf5551512e","ios":"levelo://app?vid=8d72e8fd-85af-461d-aef5-c1cf5551512e"},"vehicle_type_id":"4","last_reported":1741270171,"current_range_meters":2800,"station_id":"ce4bgg92rcd13ifvqb30","pricing_plan_id":"cebpf4jnsgd1na2vs0mg"},{"bike_id":"0ad0e73b-d620-40bd-a6e0-aa7c47099ea1","system_id":"levelo_inurba_marseille","lat":43.25869,"lon":5.39898,"is_reserved":false,"is_disabled":false,"rental_uris":{"android":"levelo://app?vid=0ad0e73b-d620-40bd-a6e0-aa7c47099ea1","ios":"levelo://app?vid=0ad0e73b-d620-40bd-a6e0-aa7c47099ea1"},"vehicle_type_id":"4","last_reported":1741270171,"current_range_meters":2800,"station_id":"ce4bhl92rcd13ifvqghg","pricing_plan_id":"cebpf4jnsgd1na2vs0mg"},{"bike_id":"675b3dc9-9abe-4d06-a8ab-9ce8f149dc5a","system_id":"levelo_inurba_marseille","lat":43.23149,"lon":5.43731,"is_reserved":false,"is_disabled":false,"rental_uris":{"android":"levelo://app?vid=675b3dc9-9abe-4d06-a8ab-9ce8f149dc5a","ios":"levelo://app?vid=675b3dc9-9abe-4d06-a8ab-9ce8f149dc5a"},"vehicle_type_id":"4","last_reported":1741270171,"current_range_meters":2800,"station_id":"ce4bhmp2rcd13ifvqgog","pricing_plan_id":"cebpf4jnsgd1na2vs0mg"},{"bike_id":"24d208cf-96d1-4ed1-8e99-caacc8a3f18c","system_id":"levelo_inurba_marseille","lat":43.28037,"lon":5.3695,"is_reserved":false,"is_disabled":false,"rental_uris":{"android":"levelo://app?vid=24d208cf-96d1-4ed1-8e99-caacc8a3f18c","ios":"levelo://app?vid=24d208cf-96d1-4ed1-8e99-caacc8a3f18c"},"vehicle_type_id":"4","last_reported":1741270171,"current_range_meters":3200,"station_id":"ce4bha12rcd13ifvqef0","pricing_plan_id":"cebpf4jnsgd1na2vs0mg"},{"bike_id":"a4cdc098-5554-4667-b7fd-3635ecf8cfb2","system_id":"levelo_inurba_marseille","lat":43.30257,"lon":5.40074,"is_reserved":false,"is_disabled":false,"rental_uris":{"android":"levelo://app?vid=a4cdc098-5554-4667-b7fd-3635ecf8cfb2","ios":"levelo://app?vid=a4cdc098-5554-4667-b7fd-3635ecf8cfb2"},"vehicle_type_id":"4","last_reported":1741270171,"current_range_meters":3200,"station_id":"ce4bgvh2rcd13ifvqcs0","pricing_plan_id":"cebpf4jnsgd1na2vs0mg"},{"bike_id":"90e18d06-e9b1-4c5b-b67a-3560ed0529d0","system_id":"levelo_inurba_marseille","lat":43.31318,"lon":5.39695,"is_reserved":false,"is_disabled":false,"rental_uris":{"android":"levelo://app?vid=90e18d06-e9b1-4c5b-b67a-3560ed0529d0","ios":"levelo://app?vid=90e18d06-e9b1-4c5b-b67a-3560ed0529d0"},"vehicle_type_id":"4","last_reported":1741270171,"current_range_meters":3600,"station_id":"ce4bgvp2rcd13ifvqcu0","pricing_plan_id":"cebpf4jnsgd1na2vs0mg"},{"bike_id":"25975a0c-4f8e-488d-a46f-9d1f7ee052a4","system_id":"levelo_inurba_marseille","lat":43.25828,"lon":5.39441,"is_reserved":false,"is_disabled":false,"rental_uris":{"android":"levelo://app?vid=25975a0c-4f8e-488d-a46f-9d1f7ee052a4","ios":"levelo://app?vid=25975a0c-4f8e-488d-a46f-9d1f7ee052a4"},"vehicle_type_id":"4","last_reported":1741270171,"current_range_meters":3600,"station_id":"ce4bhip2rcd13ifvqft0","pricing_plan_id":"cebpf4jnsgd1na2vs0mg"},{"bike_id":"c9181474-071a-48c1-9e23-dc6456f80bde","system_id":"levelo_inurba_marseille","lat":43.32108,"lon":5.36757,"is_reserved":false,"is_disabled":false,"rental_uris":{"android":"levelo://app?vid=c9181474-071a-48c1-9e23-dc6456f80bde","ios":"levelo://app?vid=c9181474-071a-48c1-9e23-dc6456f80bde"},"vehicle_type_id":"4","last_reported":1741270171,"current_range_meters":4000,"station_id":"ce4bhrh2rcd13ifvqhug","pricing_plan_id":"cebpf4jnsgd1na2vs0mg"},{"bike_id":"f1973a2e-11ba-465c-979c-09b7cf88c93f","system_id":"levelo_inurba_marseille","lat":43.291136,"lon":5.46159,"is_reserved":false,"is_disabled":false,"rental_uris":{"android":"levelo://app?vid=f1973a2e-11ba-465c-979c-09b7cf88c93f","ios":"levelo://app?vid=f1973a2e-11ba-465c-979c-09b7cf88c93f"},"vehicle_type_id":"4","last_reported":1741270171,"current_range_meters":4400,"station_id":"ce4bh0h2rcd13ifvqd40","pricing_plan_id":"cebpf4jnsgd1na2vs0mg"},{"bike_id":"0a4c7ab3-f7a5-4a6a-be49-c17e9255e5d4","system_id":"levelo_inurba_marseille","lat":43.27952,"lon":5.38701,"is_reserved":false,"is_disabled":false,"rental_uris":{"android":"levelo://app?vid=0a4c7ab3-f7a5-4a6a-be49-c17e9255e5d4","ios":"levelo://app?vid=0a4c7ab3-f7a5-4a6a-be49-c17e9255e5d4"},"vehicle_type_id":"4","last_reported":1741270171,"current_range_meters":4400,"station_id":"ce4bhg12rcd13ifvqf80","pricing_plan_id":"cebpf4jnsgd1na2vs0mg"},{"bike_id":"6ea067ad-0927-492e-ad44-171812dd1748","system_id":"levelo_inurba_marseille","lat":43.26232,"lon":5.40448,"is_reserved":false,"is_disabled":false,"rental_uris":{"android":"levelo://app?vid=6ea067ad-0927-492e-ad44-171812dd1748","ios":"levelo://app?vid=6ea067ad-0927-492e-ad44-171812dd1748"},"vehicle_type_id":"4","last_reported":1741270171,"current_range_meters":4800,"station_id":"ce4bhmh2rcd13ifvqgmg","pricing_plan_id":"cebpf4jnsgd1na2vs0mg"},{"bike_id":"3a5d4a98-6f37-4482-8059-c3254c57db8e","system_id":"levelo_inurba_marseille","lat":43.29201,"lon":5.39336,"is_reserved":false,"is_disabled":false,"rental_uris":{"android":"levelo://app?vid=3a5d4a98-6f37-4482-8059-c3254c57db8e","ios":"levelo://app?vid=3a5d4a98-6f37-4482-8059-c3254c57db8e"},"vehicle_type_id":"4","last_reported":1741270171,"current_range_meters":8800,"station_id":"ce4bh192rcd13ifvqdd0","pricing_plan_id":"cebpf4jnsgd1na2vs0mg"},{"bike_id":"9a4ee881-5327-475b-a07b-46e6fc0999e0","system_id":"levelo_inurba_marseille","lat":43.30913,"lon":5.36848,"is_reserved":false,"is_disabled":false,"rental_uris":{"android":"levelo://app?vid=9a4ee881-5327-475b-a07b-46e6fc0999e0","ios":"levelo://app?vid=9a4ee881-5327-475b-a07b-46e6fc0999e0"},"vehicle_type_id":"4","last_reported":1741270171,"current_range_meters":5600,"station_id":"ce4bgn92rcd13ifvqbvg","pricing_plan_id":"cebpf4jnsgd1na2vs0mg"},{"bike_id":"7872a017-bcf6-4f1b-8b30-7922da2f3220","system_id":"levelo_inurba_marseille","lat":43.26566,"lon":5.37287,"is_reserved":false,"is_disabled":false,"rental_uris":{"android":"levelo://app?vid=7872a017-bcf6-4f1b-8b30-7922da2f3220","ios":"levelo://app?vid=7872a017-bcf6-4f1b-8b30-7922da2f3220"},"vehicle_type_id":"4","last_reported":1741270171,"current_range_meters":5600,"station_id":"ce4bhg12rcd13ifvqf70","pricing_plan_id":"cebpf4jnsgd1na2vs0mg"},{"bike_id":"379c3515-78ad-4897-96ab-a8510869f2e9","system_id":"levelo_inurba_marseille","lat":43.25581,"lon":5.38242,"is_reserved":false,"is_disabled":false,"rental_uris":{"android":"levelo://app?vid=379c3515-78ad-4897-96ab-a8510869f2e9","ios":"levelo://app?vid=379c3515-78ad-4897-96ab-a8510869f2e9"},"vehicle_type_id":"4","last_reported":1741270171,"current_range_meters":5600,"station_id":"ce4bhih2rcd13ifvqfs0","pricing_plan_id":"cebpf4jnsgd1na2vs0mg"},{"bike_id":"798acd2b-25fe-4105-b652-b2441316d3ae","system_id":"levelo_inurba_marseille","lat":43.26688,"lon":5.38258,"is_reserved":false,"is_disabled":false,"rental_uris":{"android":"levelo://app?vid=798acd2b-25fe-4105-b652-b2441316d3ae","ios":"levelo://app?vid=798acd2b-25fe-4105-b652-b2441316d3ae"},"vehicle_type_id":"4","last_reported":1741270171,"current_range_meters":5600,"station_id":"ce4bhg92rcd13ifvqf90","pricing_plan_id":"cebpf4jnsgd1na2vs0mg"},{"bike_id":"3439a580-4b13-4596-bc3a-9d40342307f1","system_id":"levelo_inurba_marseille","lat":43.32106,"lon":5.36769,"is_reserved":false,"is_disabled":false,"rental_uris":{"android":"levelo://app?vid=3439a580-4b13-4596-bc3a-9d40342307f1","ios":"levelo://app?vid=3439a580-4b13-4596-bc3a-9d40342307f1"},"vehicle_type_id":"4","last_reported":1741270171,"current_range_meters":5600,"station_id":"ce4bhrh2rcd13ifvqhug","pricing_plan_id":"cebpf4jnsgd1na2vs0mg"},{"bike_id":"1c0978b7-e0b0-4c04-8863-236630968acd","system_id":"levelo_inurba_marseille","lat":43.25904,"lon":5.4088,"is_reserved":false,"is_disabled":false,"rental_uris":{"android":"levelo://app?vid=1c0978b7-e0b0-4c04-8863-236630968acd","ios":"levelo://app?vid=1c0978b7-e0b0-4c04-8863-236630968acd"},"vehicle_type_id":"4","last_reported":1741270171,"current_range_meters":6000,"station_id":"ce4bhm92rcd13ifvqglg","pricing_plan_id":"cebpf4jnsgd1na2vs0mg"},{"bike_id":"bef2af2a-4b13-4f10-8d0b-f6100cb40ac2","system_id":"levelo_inurba_marseille","lat":43.26221,"lon":5.40448,"is_reserved":false,"is_disabled":false,"rental_uris":{"android":"levelo://app?vid=bef2af2a-4b13-4f10-8d0b-f6100cb40ac2","ios":"levelo://app?vid=bef2af2a-4b13-4f10-8d0b-f6100cb40ac2"},"vehicle_type_id":"4","last_reported":1741270171,"current_range_meters":6000,"station_id":"ce4bhmh2rcd13ifvqgmg","pricing_plan_id":"cebpf4jnsgd1na2vs0mg"},{"bike_id":"1a9a1a38-e26e-46fe-a4b7-afafd9b5c7a5","system_id":"levelo_inurba_marseille","lat":43.297962,"lon":5.381074,"is_reserved":false,"is_disabled":false,"rental_uris":{"android":"levelo://app?vid=1a9a1a38-e26e-46fe-a4b7-afafd9b5c7a5","ios":"levelo://app?vid=1a9a1a38-e26e-46fe-a4b7-afafd9b5c7a5"},"vehicle_type_id":"4","last_reported":1741270171,"current_range_meters":6800,"station_id":"ce4bgup2rcd13ifvqcn0","pricing_plan_id":"cebpf4jnsgd1na2vs0mg"},{"bike_id":"881b3c35-94b3-4ee8-8119-f136bef976fc","system_id":"levelo_inurba_marseille","lat":43.29265,"lon":5.37627,"is_reserved":false,"is_disabled":false,"rental_uris":{"android":"levelo://app?vid=881b3c35-94b3-4ee8-8119-f136bef976fc","ios":"levelo://app?vid=881b3c35-94b3-4ee8-8119-f136bef976fc"},"vehicle_type_id":"4","last_reported":1741270171,"current_range_meters":6000,"station_id":"ce4bgi12rcd13ifvqb80","pricing_plan_id":"cebpf4jnsgd1na2vs0mg"},{"bike_id":"ed658983-ed9c-4fca-8a9d-4be7f4b03ae1","system_id":"levelo_inurba_marseille","lat":43.26687,"lon":5.38268,"is_reserved":false,"is_disabled":false,"rental_uris":{"android":"levelo://app?vid=ed658983-ed9c-4fca-8a9d-4be7f4b03ae1","ios":"levelo://app?vid=ed658983-ed9c-4fca-8a9d-4be7f4b03ae1"},"vehicle_type_id":"4","last_reported":1741270171,"current_range_meters":6400,"station_id":"ce4bhg92rcd13ifvqf90","pricing_plan_id":"cebpf4jnsgd1na2vs0mg"},{"bike_id":"19efd70f-ded3-49b8-bb74-e9ec18104730","system_id":"levelo_inurba_marseille","lat":43.29252,"lon":5.376,"is_reserved":false,"is_disabled":false,"rental_uris":{"android":"levelo://app?vid=19efd70f-ded3-49b8-bb74-e9ec18104730","ios":"levelo://app?vid=19efd70f-ded3-49b8-bb74-e9ec18104730"},"vehicle_type_id":"4","last_reported":1741270171,"current_range_meters":6800,"station_id":"ce4bgi12rcd13ifvqb80","pricing_plan_id":"cebpf4jnsgd1na2vs0mg"},{"bike_id":"e1d1289d-8afc-4e42-bf08-576ebfa53cf2","system_id":"levelo_inurba_marseille","lat":43.30957,"lon":5.3904,"is_reserved":false,"is_disabled":false,"rental_uris":{"android":"levelo://app?vid=e1d1289d-8afc-4e42-bf08-576ebfa53cf2","ios":"levelo://app?vid=e1d1289d-8afc-4e42-bf08-576ebfa53cf2"},"vehicle_type_id":"4","last_reported":1741270171,"current_range_meters":3600,"station_id":"ce4bgup2rcd13ifvqco0","pricing_plan_id":"cebpf4jnsgd1na2vs0mg"},{"bike_id":"7b058a0d-7ab3-4875-a592-bff01d27bd4a","system_id":"levelo_inurba_marseille","lat":43.30294,"lon":5.39191,"is_reserved":false,"is_disabled":false,"rental_uris":{"android":"levelo://app?vid=7b058a0d-7ab3-4875-a592-bff01d27bd4a","ios":"levelo://app?vid=7b058a0d-7ab3-4875-a592-bff01d27bd4a"},"vehicle_type_id":"4","last_reported":1741270171,"current_range_meters":6400,"station_id":"ce4bgkh2rcd13ifvqbk0","pricing_plan_id":"cebpf4jnsgd1na2vs0mg"},{"bike_id":"a508c450-2471-4823-b989-5917711248cb","system_id":"levelo_inurba_marseille","lat":43.27057,"lon":5.4027,"is_reserved":false,"is_disabled":false,"rental_uris":{"android":"levelo://app?vid=a508c450-2471-4823-b989-5917711248cb","ios":"levelo://app?vid=a508c450-2471-4823-b989-5917711248cb"},"vehicle_type_id":"4","last_reported":1741270171,"current_range_meters":6800,"station_id":"ce4bhk92rcd13ifvqgc0","pricing_plan_id":"cebpf4jnsgd1na2vs0mg"},{"bike_id":"0ce9eef2-7f51-4f9c-9643-42b0b1d4f216","system_id":"levelo_inurba_marseille","lat":43.2306,"lon":5.35489,"is_reserved":false,"is_disabled":false,"rental_uris":{"android":"levelo://app?vid=0ce9eef2-7f51-4f9c-9643-42b0b1d4f216","ios":"levelo://app?vid=0ce9eef2-7f51-4f9c-9643-42b0b1d4f216"},"vehicle_type_id":"4","last_reported":1741270171,"current_range_meters":6800,"station_id":"cpo3342slgdg3j2ifvpg","pricing_plan_id":"cebpf4jnsgd1na2vs0mg"},{"bike_id":"7a9136d8-ff26-492a-bfc3-14d6b4036cce","system_id":"levelo_inurba_marseille","lat":43.27194,"lon":5.4099,"is_reserved":false,"is_disabled":false,"rental_uris":{"android":"levelo://app?vid=7a9136d8-ff26-492a-bfc3-14d6b4036cce","ios":"levelo://app?vid=7a9136d8-ff26-492a-bfc3-14d6b4036cce"},"vehicle_type_id":"4","last_reported":1741270171,"current_range_meters":6800,"station_id":"ce4bhl12rcd13ifvqgf0","pricing_plan_id":"cebpf4jnsgd1na2vs0mg"},{"bike_id":"06d62d7d-628f-4c84-8b7e-887a0c7398dc","system_id":"levelo_inurba_marseille","lat":43.25586,"lon":5.38227,"is_reserved":false,"is_disabled":false,"rental_uris":{"android":"levelo://app?vid=06d62d7d-628f-4c84-8b7e-887a0c7398dc","ios":"levelo://app?vid=06d62d7d-628f-4c84-8b7e-887a0c7398dc"},"vehicle_type_id":"4","last_reported":1741270171,"current_range_meters":6800,"station_id":"ce4bhih2rcd13ifvqfs0","pricing_plan_id":"cebpf4jnsgd1na2vs0mg"},{"bike_id":"7cc2b240-b455-43dc-bacc-98a56609dc63","system_id":"levelo_inurba_marseille","lat":43.28346,"lon":5.38114,"is_reserved":false,"is_disabled":false,"rental_uris":{"android":"levelo://app?vid=7cc2b240-b455-43dc-bacc-98a56609dc63","ios":"levelo://app?vid=7cc2b240-b455-43dc-bacc-98a56609dc63"},"vehicle_type_id":"4","last_reported":1741270171,"current_range_meters":7200,"station_id":"ce4bh412rcd13ifvqdr0","pricing_plan_id":"cebpf4jnsgd1na2vs0mg"},{"bike_id":"33ee4e93-6a3a-4141-9b38-4e4b915ca63a","system_id":"levelo_inurba_marseille","lat":43.25905,"lon":5.40894,"is_reserved":false,"is_disabled":false,"rental_uris":{"android":"levelo://app?vid=33ee4e93-6a3a-4141-9b38-4e4b915ca63a","ios":"levelo://app?vid=33ee4e93-6a3a-4141-9b38-4e4b915ca63a"},"vehicle_type_id":"4","last_reported":1741270171,"current_range_meters":7200,"station_id":"ce4bhm92rcd13ifvqglg","pricing_plan_id":"cebpf4jnsgd1na2vs0mg"},{"bike_id":"f5023c05-3266-41c5-bd0b-7f6c199177f5","system_id":"levelo_inurba_marseille","lat":43.31489,"lon":5.37298,"is_reserved":false,"is_disabled":false,"rental_uris":{"android":"levelo://app?vid=f5023c05-3266-41c5-bd0b-7f6c199177f5","ios":"levelo://app?vid=f5023c05-3266-41c5-bd0b-7f6c199177f5"},"vehicle_type_id":"4","last_reported":1741270171,"current_range_meters":7200,"station_id":"ce4bgt12rcd13ifvqcd0","pricing_plan_id":"cebpf4jnsgd1na2vs0mg"},{"bike_id":"641805c3-6a9a-4f09-b595-5e405820520c","system_id":"levelo_inurba_marseille","lat":43.30882,"lon":5.39645,"is_reserved":false,"is_disabled":false,"rental_uris":{"android":"levelo://app?vid=641805c3-6a9a-4f09-b595-5e405820520c","ios":"levelo://app?vid=641805c3-6a9a-4f09-b595-5e405820520c"},"vehicle_type_id":"4","last_reported":1741270171,"current_range_meters":7200,"station_id":"ce4bh012rcd13ifvqcv0","pricing_plan_id":"cebpf4jnsgd1na2vs0mg"},{"bike_id":"93ca3b70-81fd-4606-b0f0-eacd4f8b03b3","system_id":"levelo_inurba_marseille","lat":43.28445,"lon":5.359,"is_reserved":false,"is_disabled":false,"rental_uris":{"android":"levelo://app?vid=93ca3b70-81fd-4606-b0f0-eacd4f8b03b3","ios":"levelo://app?vid=93ca3b70-81fd-4606-b0f0-eacd4f8b03b3"},"vehicle_type_id":"4","last_reported":1741270171,"current_range_meters":7200,"station_id":"ce4bhah2rcd13ifvqei0","pricing_plan_id":"cebpf4jnsgd1na2vs0mg"},{"bike_id":"46698f66-147a-4935-ac30-db15edbe5343","system_id":"levelo_inurba_marseille","lat":43.29531,"lon":5.38545,"is_reserved":false,"is_disabled":false,"rental_uris":{"android":"levelo://app?vid=46698f66-147a-4935-ac30-db15edbe5343","ios":"levelo://app?vid=46698f66-147a-4935-ac30-db15edbe5343"},"vehicle_type_id":"4","last_reported":1741270171,"current_range_meters":7200,"station_id":"ce4bgih2rcd13ifvqba0","pricing_plan_id":"cebpf4jnsgd1na2vs0mg"},{"bike_id":"b85d017b-6a01-4685-aff5-ab816144f26c","system_id":"levelo_inurba_marseille","lat":43.29709,"lon":5.36593,"is_reserved":false,"is_disabled":false,"rental_uris":{"android":"levelo://app?vid=b85d017b-6a01-4685-aff5-ab816144f26c","ios":"levelo://app?vid=b85d017b-6a01-4685-aff5-ab816144f26c"},"vehicle_type_id":"4","last_reported":1741270171,"current_range_meters":7200,"station_id":"ce4bgn12rcd13ifvqbt0","pricing_plan_id":"cebpf4jnsgd1na2vs0mg"},{"bike_id":"1c6ed226-c458-4e0d-b4b7-4c05c0b756b5","system_id":"levelo_inurba_marseille","lat":43.2942,"lon":5.38622,"is_reserved":false,"is_disabled":false,"rental_uris":{"android":"levelo://app?vid=1c6ed226-c458-4e0d-b4b7-4c05c0b756b5","ios":"levelo://app?vid=1c6ed226-c458-4e0d-b4b7-4c05c0b756b5"},"vehicle_type_id":"4","last_reported":1741270171,"current_range_meters":3600,"station_id":"ce4bh2h2rcd13ifvqdh0","pricing_plan_id":"cebpf4jnsgd1na2vs0mg"},{"bike_id":"1de0f565-f235-4966-bb60-a7475c8384c7","system_id":"levelo_inurba_marseille","lat":43.29264,"lon":5.4091,"is_reserved":false,"is_disabled":false,"rental_uris":{"android":"levelo://app?vid=1de0f565-f235-4966-bb60-a7475c8384c7","ios":"levelo://app?vid=1de0f565-f235-4966-bb60-a7475c8384c7"},"vehicle_type_id":"4","last_reported":1741270171,"current_range_meters":8000,"station_id":"ce4bh192rcd13ifvqdc0","pricing_plan_id":"cebpf4jnsgd1na2vs0mg"},{"bike_id":"3b56de4a-494d-4a53-becf-aa2a3f986b1b","system_id":"levelo_inurba_marseille","lat":43.26943,"lon":5.38652,"is_reserved":false,"is_disabled":false,"rental_uris":{"android":"levelo://app?vid=3b56de4a-494d-4a53-becf-aa2a3f986b1b","ios":"levelo://app?vid=3b56de4a-494d-4a53-becf-aa2a3f986b1b"},"vehicle_type_id":"4","last_reported":1741270171,"current_range_meters":8000,"station_id":"ce4bhh92rcd13ifvqfh0","pricing_plan_id":"cebpf4jnsgd1na2vs0mg"},{"bike_id":"b5960a40-2eb9-4c34-b1a9-0d83184e90f0","system_id":"levelo_inurba_marseille","lat":43.28713,"lon":5.37938,"is_reserved":false,"is_disabled":false,"rental_uris":{"android":"levelo://app?vid=b5960a40-2eb9-4c34-b1a9-0d83184e90f0","ios":"levelo://app?vid=b5960a40-2eb9-4c34-b1a9-0d83184e90f0"},"vehicle_type_id":"4","last_reported":1741270171,"current_range_meters":7200,"station_id":"ce4bh9p2rcd13ifvqec0","pricing_plan_id":"cebpf4jnsgd1na2vs0mg"},{"bike_id":"87cc2b62-b442-4215-a043-611256d11643","system_id":"levelo_inurba_marseille","lat":43.31089,"lon":5.42427,"is_reserved":false,"is_disabled":false,"rental_uris":{"android":"levelo://app?vid=87cc2b62-b442-4215-a043-611256d11643","ios":"levelo://app?vid=87cc2b62-b442-4215-a043-611256d11643"},"vehicle_type_id":"4","last_reported":1741270171,"current_range_meters":8000,"station_id":"ce4bhp92rcd13ifvqhag","pricing_plan_id":"cebpf4jnsgd1na2vs0mg"},{"bike_id":"27188222-8fd0-4715-ba4f-61aba374ecc4","system_id":"levelo_inurba_marseille","lat":43.31324,"lon":5.39695,"is_reserved":false,"is_disabled":false,"rental_uris":{"android":"levelo://app?vid=27188222-8fd0-4715-ba4f-61aba374ecc4","ios":"levelo://app?vid=27188222-8fd0-4715-ba4f-61aba374ecc4"},"vehicle_type_id":"4","last_reported":1741270171,"current_range_meters":8000,"station_id":"ce4bgvp2rcd13ifvqcu0","pricing_plan_id":"cebpf4jnsgd1na2vs0mg"},{"bike_id":"423bf051-8930-4ea7-a1eb-89c6f2901cdd","system_id":"levelo_inurba_marseille","lat":43.30471,"lon":5.36516,"is_reserved":false,"is_disabled":false,"rental_uris":{"android":"levelo://app?vid=423bf051-8930-4ea7-a1eb-89c6f2901cdd","ios":"levelo://app?vid=423bf051-8930-4ea7-a1eb-89c6f2901cdd"},"vehicle_type_id":"4","last_reported":1741270171,"current_range_meters":8000,"station_id":"","pricing_plan_id":"cebpf4jnsgd1na2vs0mg"},{"bike_id":"14ec57cb-179b-4206-812f-fe514bf8347a","system_id":"levelo_inurba_marseille","lat":43.31233,"lon":5.36852,"is_reserved":false,"is_disabled":false,"rental_uris":{"android":"levelo://app?vid=14ec57cb-179b-4206-812f-fe514bf8347a","ios":"levelo://app?vid=14ec57cb-179b-4206-812f-fe514bf8347a"},"vehicle_type_id":"4","last_reported":1741270171,"current_range_meters":8000,"station_id":"ce4bgl92rcd13ifvqbq0","pricing_plan_id":"cebpf4jnsgd1na2vs0mg"},{"bike_id":"f96a4a64-eafb-45d6-8922-dbe6b82a0a17","system_id":"levelo_inurba_marseille","lat":43.27671,"lon":5.3889,"is_reserved":false,"is_disabled":false,"rental_uris":{"android":"levelo://app?vid=f96a4a64-eafb-45d6-8922-dbe6b82a0a17","ios":"levelo://app?vid=f96a4a64-eafb-45d6-8922-dbe6b82a0a17"},"vehicle_type_id":"4","last_reported":1741270171,"current_range_meters":8400,"station_id":"ce4bhi12rcd13ifvqfo0","pricing_plan_id":"cebpf4jnsgd1na2vs0mg"},{"bike_id":"3c9fb7aa-d314-4ae9-9a21-9f8267fff743","system_id":"levelo_inurba_marseille","lat":43.27304,"lon":5.39077,"is_reserved":false,"is_disabled":false,"rental_uris":{"android":"levelo://app?vid=3c9fb7aa-d314-4ae9-9a21-9f8267fff743","ios":"levelo://app?vid=3c9fb7aa-d314-4ae9-9a21-9f8267fff743"},"vehicle_type_id":"4","last_reported":1741270171,"current_range_meters":8400,"station_id":"ce4bhgp2rcd13ifvqfe0","pricing_plan_id":"cebpf4jnsgd1na2vs0mg"},{"bike_id":"86723d49-325c-4da0-97b3-2b48647b3a72","system_id":"levelo_inurba_marseille","lat":43.29976,"lon":5.41348,"is_reserved":false,"is_disabled":false,"rental_uris":{"android":"levelo://app?vid=86723d49-325c-4da0-97b3-2b48647b3a72","ios":"levelo://app?vid=86723d49-325c-4da0-97b3-2b48647b3a72"},"vehicle_type_id":"4","last_reported":1741270171,"current_range_meters":8400,"station_id":"ce4bhp12rcd13ifvqh9g","pricing_plan_id":"cebpf4jnsgd1na2vs0mg"},{"bike_id":"489b73a7-8ee1-4198-9c9b-2e1eabd9d5e3","system_id":"levelo_inurba_marseille","lat":43.27495,"lon":5.42459,"is_reserved":false,"is_disabled":false,"rental_uris":{"android":"levelo://app?vid=489b73a7-8ee1-4198-9c9b-2e1eabd9d5e3","ios":"levelo://app?vid=489b73a7-8ee1-4198-9c9b-2e1eabd9d5e3"},"vehicle_type_id":"4","last_reported":1741270171,"current_range_meters":8400,"station_id":"ce4bhn92rcd13ifvqgrg","pricing_plan_id":"cebpf4jnsgd1na2vs0mg"},{"bike_id":"6a466a18-6158-47da-9e87-6f9644a55fbd","system_id":"levelo_inurba_marseille","lat":43.31335,"lon":5.36712,"is_reserved":false,"is_disabled":false,"rental_uris":{"android":"levelo://app?vid=6a466a18-6158-47da-9e87-6f9644a55fbd","ios":"levelo://app?vid=6a466a18-6158-47da-9e87-6f9644a55fbd"},"vehicle_type_id":"4","last_reported":1741270171,"current_range_meters":8800,"station_id":"ce4bgr92rcd13ifvqc6g","pricing_plan_id":"cebpf4jnsgd1na2vs0mg"},{"bike_id":"4745ff99-6e02-48bd-bb85-324b653b0068","system_id":"levelo_inurba_marseille","lat":43.26206,"lon":5.3745,"is_reserved":false,"is_disabled":false,"rental_uris":{"android":"levelo://app?vid=4745ff99-6e02-48bd-bb85-324b653b0068","ios":"levelo://app?vid=4745ff99-6e02-48bd-bb85-324b653b0068"},"vehicle_type_id":"4","last_reported":1741270171,"current_range_meters":8800,"station_id":"ce4bhgp2rcd13ifvqfc0","pricing_plan_id":"cebpf4jnsgd1na2vs0mg"},{"bike_id":"595e4d02-fa5d-460e-8d13-b5f6a4edf528","system_id":"levelo_inurba_marseille","lat":43.29224,"lon":5.36079,"is_reserved":false,"is_disabled":false,"rental_uris":{"android":"levelo://app?vid=595e4d02-fa5d-460e-8d13-b5f6a4edf528","ios":"levelo://app?vid=595e4d02-fa5d-460e-8d13-b5f6a4edf528"},"vehicle_type_id":"4","last_reported":1741270171,"current_range_meters":8800,"station_id":"ce4bhbh2rcd13ifvqeqg","pricing_plan_id":"cebpf4jnsgd1na2vs0mg"},{"bike_id":"26e76935-0278-442e-9aa7-9f5eef519d86","system_id":"levelo_inurba_marseille","lat":43.293304,"lon":5.386244,"is_reserved":false,"is_disabled":false,"rental_uris":{"android":"levelo://app?vid=26e76935-0278-442e-9aa7-9f5eef519d86","ios":"levelo://app?vid=26e76935-0278-442e-9aa7-9f5eef519d86"},"vehicle_type_id":"4","last_reported":1741270171,"current_range_meters":8800,"station_id":"ce4bh3h2rcd13ifvqdo0","pricing_plan_id":"cebpf4jnsgd1na2vs0mg"},{"bike_id":"951b107f-f0eb-40e8-8c2d-ed26e73d0648","system_id":"levelo_inurba_marseille","lat":43.28141,"lon":5.42625,"is_reserved":false,"is_disabled":false,"rental_uris":{"android":"levelo://app?vid=951b107f-f0eb-40e8-8c2d-ed26e73d0648","ios":"levelo://app?vid=951b107f-f0eb-40e8-8c2d-ed26e73d0648"},"vehicle_type_id":"4","last_reported":1741270171,"current_range_meters":9200,"station_id":"ce4bhnh2rcd13ifvqgug","pricing_plan_id":"cebpf4jnsgd1na2vs0mg"},{"bike_id":"e4af08ba-24cd-45d5-9b26-2efe8a8e5fbe","system_id":"levelo_inurba_marseille","lat":43.26566,"lon":5.39006,"is_reserved":false,"is_disabled":false,"rental_uris":{"android":"levelo://app?vid=e4af08ba-24cd-45d5-9b26-2efe8a8e5fbe","ios":"levelo://app?vid=e4af08ba-24cd-45d5-9b26-2efe8a8e5fbe"},"vehicle_type_id":"4","last_reported":1741270171,"current_range_meters":9200,"station_id":"ce4bhe12rcd13ifvqf30","pricing_plan_id":"cebpf4jnsgd1na2vs0mg"},{"bike_id":"24cdf152-42fe-4f34-80ac-7bdbcee9ddb4","system_id":"levelo_inurba_marseille","lat":43.24163,"lon":5.39735,"is_reserved":false,"is_disabled":false,"rental_uris":{"android":"levelo://app?vid=24cdf152-42fe-4f34-80ac-7bdbcee9ddb4","ios":"levelo://app?vid=24cdf152-42fe-4f34-80ac-7bdbcee9ddb4"},"vehicle_type_id":"4","last_reported":1741270171,"current_range_meters":9200,"station_id":"ce4bhn12rcd13ifvqgpg","pricing_plan_id":"cebpf4jnsgd1na2vs0mg"},{"bike_id":"fdde8103-1f2a-4455-bcfa-e1d74ecb0194","system_id":"levelo_inurba_marseille","lat":43.2781,"lon":5.40724,"is_reserved":false,"is_disabled":false,"rental_uris":{"android":"levelo://app?vid=fdde8103-1f2a-4455-bcfa-e1d74ecb0194","ios":"levelo://app?vid=fdde8103-1f2a-4455-bcfa-e1d74ecb0194"},"vehicle_type_id":"4","last_reported":1741270171,"current_range_meters":9200,"station_id":"ce4bhnh2rcd13ifvqgtg","pricing_plan_id":"cebpf4jnsgd1na2vs0mg"},{"bike_id":"97656ef5-6fcd-4fe7-b66c-c57feb6ee9b5","system_id":"levelo_inurba_marseille","lat":43.2816,"lon":5.42647,"is_reserved":false,"is_disabled":false,"rental_uris":{"android":"levelo://app?vid=97656ef5-6fcd-4fe7-b66c-c57feb6ee9b5","ios":"levelo://app?vid=97656ef5-6fcd-4fe7-b66c-c57feb6ee9b5"},"vehicle_type_id":"4","last_reported":1741270171,"current_range_meters":9200,"station_id":"ce4bhnh2rcd13ifvqgug","pricing_plan_id":"cebpf4jnsgd1na2vs0mg"},{"bike_id":"2f6e8ea5-869d-49f9-9eec-05395c743a29","system_id":"levelo_inurba_marseille","lat":43.29922,"lon":5.36526,"is_reserved":false,"is_disabled":false,"rental_uris":{"android":"levelo://app?vid=2f6e8ea5-869d-49f9-9eec-05395c743a29","ios":"levelo://app?vid=2f6e8ea5-869d-49f9-9eec-05395c743a29"},"vehicle_type_id":"4","last_reported":1741270171,"current_range_meters":9200,"station_id":"ce4bgm92rcd13ifvqbr0","pricing_plan_id":"cebpf4jnsgd1na2vs0mg"},{"bike_id":"c35c2362-05ef-4e3d-bc36-27e5cc67d277","system_id":"levelo_inurba_marseille","lat":43.23142,"lon":5.43719,"is_reserved":false,"is_disabled":false,"rental_uris":{"android":"levelo://app?vid=c35c2362-05ef-4e3d-bc36-27e5cc67d277","ios":"levelo://app?vid=c35c2362-05ef-4e3d-bc36-27e5cc67d277"},"vehicle_type_id":"4","last_reported":1741270171,"current_range_meters":9200,"station_id":"ce4bhmp2rcd13ifvqgog","pricing_plan_id":"cebpf4jnsgd1na2vs0mg"},{"bike_id":"9173078c-cdb7-4e3d-ba42-5872df75c830","system_id":"levelo_inurba_marseille","lat":43.28477,"lon":5.38555,"is_reserved":false,"is_disabled":false,"rental_uris":{"android":"levelo://app?vid=9173078c-cdb7-4e3d-ba42-5872df75c830","ios":"levelo://app?vid=9173078c-cdb7-4e3d-ba42-5872df75c830"},"vehicle_type_id":"4","last_reported":1741270171,"current_range_meters":9600,"station_id":"ce4bh8p2rcd13ifvqeb0","pricing_plan_id":"cebpf4jnsgd1na2vs0mg"},{"bike_id":"e0c0bec3-454a-410d-a60f-3aed516ec149","system_id":"levelo_inurba_marseille","lat":43.23196,"lon":5.35556,"is_reserved":false,"is_disabled":false,"rental_uris":{"android":"levelo://app?vid=e0c0bec3-454a-410d-a60f-3aed516ec149","ios":"levelo://app?vid=e0c0bec3-454a-410d-a60f-3aed516ec149"},"vehicle_type_id":"4","last_reported":1741270171,"current_range_meters":9600,"station_id":"ce4bhu92rcd13ifvqi70","pricing_plan_id":"cebpf4jnsgd1na2vs0mg"},{"bike_id":"0072baa2-5ee5-490a-aff5-898d4f86e5f0","system_id":"levelo_inurba_marseille","lat":43.25817,"lon":5.394358,"is_reserved":false,"is_disabled":false,"rental_uris":{"android":"levelo://app?vid=0072baa2-5ee5-490a-aff5-898d4f86e5f0","ios":"levelo://app?vid=0072baa2-5ee5-490a-aff5-898d4f86e5f0"},"vehicle_type_id":"4","last_reported":1741270171,"current_range_meters":9600,"station_id":"ce4bhip2rcd13ifvqft0","pricing_plan_id":"cebpf4jnsgd1na2vs0mg"},{"bike_id":"f661abac-8df8-4bd5-ac60-6c99a7df961d","system_id":"levelo_inurba_marseille","lat":43.28943,"lon":5.36643,"is_reserved":false,"is_disabled":false,"rental_uris":{"android":"levelo://app?vid=f661abac-8df8-4bd5-ac60-6c99a7df961d","ios":"levelo://app?vid=f661abac-8df8-4bd5-ac60-6c99a7df961d"},"vehicle_type_id":"4","last_reported":1741270171,"current_range_meters":9600,"station_id":"ce4bhap2rcd13ifvqek0","pricing_plan_id":"cebpf4jnsgd1na2vs0mg"},{"bike_id":"567a106a-a9cf-4c80-aa19-664bcf263197","system_id":"levelo_inurba_marseille","lat":43.27317,"lon":5.3907,"is_reserved":false,"is_disabled":false,"rental_uris":{"android":"levelo://app?vid=567a106a-a9cf-4c80-aa19-664bcf263197","ios":"levelo://app?vid=567a106a-a9cf-4c80-aa19-664bcf263197"},"vehicle_type_id":"4","last_reported":1741270171,"current_range_meters":9200,"station_id":"ce4bhgp2rcd13ifvqfe0","pricing_plan_id":"cebpf4jnsgd1na2vs0mg"},{"bike_id":"9208d63c-369f-4c4e-a7fc-9ad972621275","system_id":"levelo_inurba_marseille","lat":43.25898,"lon":5.40911,"is_reserved":false,"is_disabled":false,"rental_uris":{"android":"levelo://app?vid=9208d63c-369f-4c4e-a7fc-9ad972621275","ios":"levelo://app?vid=9208d63c-369f-4c4e-a7fc-9ad972621275"},"vehicle_type_id":"4","last_reported":1741270171,"current_range_meters":9600,"station_id":"ce4bhm92rcd13ifvqglg","pricing_plan_id":"cebpf4jnsgd1na2vs0mg"},{"bike_id":"7f1905bf-da4d-4f13-af14-c5d46804e585","system_id":"levelo_inurba_marseille","lat":43.23201,"lon":5.35543,"is_reserved":false,"is_disabled":false,"rental_uris":{"android":"levelo://app?vid=7f1905bf-da4d-4f13-af14-c5d46804e585","ios":"levelo://app?vid=7f1905bf-da4d-4f13-af14-c5d46804e585"},"vehicle_type_id":"4","last_reported":1741270171,"current_range_meters":9600,"station_id":"ce4bhu92rcd13ifvqi70","pricing_plan_id":"cebpf4jnsgd1na2vs0mg"},{"bike_id":"55143ccc-4643-438a-b590-0670915d6f05","system_id":"levelo_inurba_marseille","lat":43.29254,"lon":5.38439,"is_reserved":false,"is_disabled":false,"rental_uris":{"android":"levelo://app?vid=55143ccc-4643-438a-b590-0670915d6f05","ios":"levelo://app?vid=55143ccc-4643-438a-b590-0670915d6f05"},"vehicle_type_id":"4","last_reported":1741270171,"current_range_meters":10000,"station_id":"ce4bh692rcd13ifvqea0","pricing_plan_id":"cebpf4jnsgd1na2vs0mg"},{"bike_id":"f6d97c97-a9c7-4685-a7c7-9119daa3f02b","system_id":"levelo_inurba_marseille","lat":43.29977,"lon":5.38494,"is_reserved":false,"is_disabled":false,"rental_uris":{"android":"levelo://app?vid=f6d97c97-a9c7-4685-a7c7-9119daa3f02b","ios":"levelo://app?vid=f6d97c97-a9c7-4685-a7c7-9119daa3f02b"},"vehicle_type_id":"4","last_reported":1741270171,"current_range_meters":10000,"station_id":"ce4bgj92rcd13ifvqbd0","pricing_plan_id":"cebpf4jnsgd1na2vs0mg"},{"bike_id":"d042490b-89be-4965-8498-025836790f65","system_id":"levelo_inurba_marseille","lat":43.25931,"lon":5.40898,"is_reserved":false,"is_disabled":false,"rental_uris":{"android":"levelo://app?vid=d042490b-89be-4965-8498-025836790f65","ios":"levelo://app?vid=d042490b-89be-4965-8498-025836790f65"},"vehicle_type_id":"4","last_reported":1741270171,"current_range_meters":10000,"station_id":"ce4bhm92rcd13ifvqglg","pricing_plan_id":"cebpf4jnsgd1na2vs0mg"},{"bike_id":"f4a9b063-e070-437f-9fba-9edf97433ed7","system_id":"levelo_inurba_marseille","lat":43.27945,"lon":5.41051,"is_reserved":false,"is_disabled":false,"rental_uris":{"android":"levelo://app?vid=f4a9b063-e070-437f-9fba-9edf97433ed7","ios":"levelo://app?vid=f4a9b063-e070-437f-9fba-9edf97433ed7"},"vehicle_type_id":"4","last_reported":1741270171,"current_range_meters":10000,"station_id":"ce4bhnp2rcd13ifvqh0g","pricing_plan_id":"cebpf4jnsgd1na2vs0mg"},{"bike_id":"bc1ff28f-0226-4fe1-bb42-0a1e2869659e","system_id":"levelo_inurba_marseille","lat":43.32344,"lon":5.38879,"is_reserved":false,"is_disabled":false,"rental_uris":{"android":"levelo://app?vid=bc1ff28f-0226-4fe1-bb42-0a1e2869659e","ios":"levelo://app?vid=bc1ff28f-0226-4fe1-bb42-0a1e2869659e"},"vehicle_type_id":"4","last_reported":1741270171,"current_range_meters":10000,"station_id":"ce4bhqp2rcd13ifvqhog","pricing_plan_id":"cebpf4jnsgd1na2vs0mg"},{"bike_id":"78cb67d5-b301-4808-acd3-eaf12189ee87","system_id":"levelo_inurba_marseille","lat":43.30893,"lon":5.37191,"is_reserved":false,"is_disabled":false,"rental_uris":{"android":"levelo://app?vid=78cb67d5-b301-4808-acd3-eaf12189ee87","ios":"levelo://app?vid=78cb67d5-b301-4808-acd3-eaf12189ee87"},"vehicle_type_id":"4","last_reported":1741270171,"current_range_meters":9200,"station_id":"ce4bguh2rcd13ifvqckg","pricing_plan_id":"cebpf4jnsgd1na2vs0mg"},{"bike_id":"8a9efcae-7962-44eb-b602-3d52cc43d3b5","system_id":"levelo_inurba_marseille","lat":43.26214,"lon":5.37443,"is_reserved":false,"is_disabled":false,"rental_uris":{"android":"levelo://app?vid=8a9efcae-7962-44eb-b602-3d52cc43d3b5","ios":"levelo://app?vid=8a9efcae-7962-44eb-b602-3d52cc43d3b5"},"vehicle_type_id":"4","last_reported":1741270171,"current_range_meters":10800,"station_id":"ce4bhgp2rcd13ifvqfc0","pricing_plan_id":"cebpf4jnsgd1na2vs0mg"},{"bike_id":"21b00a54-4e29-48af-82d5-6aa688c17fc3","system_id":"levelo_inurba_marseille","lat":43.26563,"lon":5.39001,"is_reserved":false,"is_disabled":false,"rental_uris":{"android":"levelo://app?vid=21b00a54-4e29-48af-82d5-6aa688c17fc3","ios":"levelo://app?vid=21b00a54-4e29-48af-82d5-6aa688c17fc3"},"vehicle_type_id":"4","last_reported":1741270171,"current_range_meters":10800,"station_id":"ce4bhe12rcd13ifvqf30","pricing_plan_id":"cebpf4jnsgd1na2vs0mg"},{"bike_id":"365b0577-ed8a-415d-b047-7a6332ca8f71","system_id":"levelo_inurba_marseille","lat":43.30891,"lon":5.39648,"is_reserved":false,"is_disabled":false,"rental_uris":{"android":"levelo://app?vid=365b0577-ed8a-415d-b047-7a6332ca8f71","ios":"levelo://app?vid=365b0577-ed8a-415d-b047-7a6332ca8f71"},"vehicle_type_id":"4","last_reported":1741270171,"current_range_meters":10800,"station_id":"ce4bh012rcd13ifvqcv0","pricing_plan_id":"cebpf4jnsgd1na2vs0mg"},{"bike_id":"18c3b85a-815f-4976-aacf-4867e9fb6633","system_id":"levelo_inurba_marseille","lat":43.28725,"lon":5.37939,"is_reserved":false,"is_disabled":false,"rental_uris":{"android":"levelo://app?vid=18c3b85a-815f-4976-aacf-4867e9fb6633","ios":"levelo://app?vid=18c3b85a-815f-4976-aacf-4867e9fb6633"},"vehicle_type_id":"4","last_reported":1741270171,"current_range_meters":10800,"station_id":"ce4bh9p2rcd13ifvqec0","pricing_plan_id":"cebpf4jnsgd1na2vs0mg"},{"bike_id":"63815b6e-f9bf-4ae0-9cc4-53a2a981b401","system_id":"levelo_inurba_marseille","lat":43.26806,"lon":5.40262,"is_reserved":false,"is_disabled":false,"rental_uris":{"android":"levelo://app?vid=63815b6e-f9bf-4ae0-9cc4-53a2a981b401","ios":"levelo://app?vid=63815b6e-f9bf-4ae0-9cc4-53a2a981b401"},"vehicle_type_id":"4","last_reported":1741270171,"current_range_meters":10800,"station_id":"ce501612rcd8frsf0b60","pricing_plan_id":"cebpf4jnsgd1na2vs0mg"},{"bike_id":"4b494c34-91a4-4833-8163-e2901a7f1b21","system_id":"levelo_inurba_marseille","lat":43.23084,"lon":5.35478,"is_reserved":false,"is_disabled":false,"rental_uris":{"android":"levelo://app?vid=4b494c34-91a4-4833-8163-e2901a7f1b21","ios":"levelo://app?vid=4b494c34-91a4-4833-8163-e2901a7f1b21"},"vehicle_type_id":"4","last_reported":1741270171,"current_range_meters":10800,"station_id":"cpo3342slgdg3j2ifvpg","pricing_plan_id":"cebpf4jnsgd1na2vs0mg"},{"bike_id":"77bbfba9-a996-49a8-b4ec-f3adbcb8a1b3","system_id":"levelo_inurba_marseille","lat":43.29801,"lon":5.38112,"is_reserved":false,"is_disabled":false,"rental_uris":{"android":"levelo://app?vid=77bbfba9-a996-49a8-b4ec-f3adbcb8a1b3","ios":"levelo://app?vid=77bbfba9-a996-49a8-b4ec-f3adbcb8a1b3"},"vehicle_type_id":"4","last_reported":1741270171,"current_range_meters":9600,"station_id":"ce4bgip2rcd13ifvqbb0","pricing_plan_id":"cebpf4jnsgd1na2vs0mg"},{"bike_id":"b903bacb-1cd5-49b0-a9df-3aece3b8ab75","system_id":"levelo_inurba_marseille","lat":43.28941,"lon":5.39637,"is_reserved":false,"is_disabled":false,"rental_uris":{"android":"levelo://app?vid=b903bacb-1cd5-49b0-a9df-3aece3b8ab75","ios":"levelo://app?vid=b903bacb-1cd5-49b0-a9df-3aece3b8ab75"},"vehicle_type_id":"4","last_reported":1741270171,"current_range_meters":10800,"station_id":"ce4bh3h2rcd13ifvqdn0","pricing_plan_id":"cebpf4jnsgd1na2vs0mg"},{"bike_id":"560ccf1b-397f-4408-9cdd-006f49a0bd17","system_id":"levelo_inurba_marseille","lat":43.28698,"lon":5.37401,"is_reserved":false,"is_disabled":false,"rental_uris":{"android":"levelo://app?vid=560ccf1b-397f-4408-9cdd-006f49a0bd17","ios":"levelo://app?vid=560ccf1b-397f-4408-9cdd-006f49a0bd17"},"vehicle_type_id":"4","last_reported":1741270171,"current_range_meters":11200,"station_id":"ce4bh3p2rcd13ifvqdq0","pricing_plan_id":"cebpf4jnsgd1na2vs0mg"},{"bike_id":"4ffbde8a-41dc-4f53-95be-d85324e7130e","system_id":"levelo_inurba_marseille","lat":43.28342,"lon":5.38108,"is_reserved":false,"is_disabled":false,"rental_uris":{"android":"levelo://app?vid=4ffbde8a-41dc-4f53-95be-d85324e7130e","ios":"levelo://app?vid=4ffbde8a-41dc-4f53-95be-d85324e7130e"},"vehicle_type_id":"4","last_reported":1741270171,"current_range_meters":11200,"station_id":"ce4bh412rcd13ifvqdr0","pricing_plan_id":"cebpf4jnsgd1na2vs0mg"},{"bike_id":"cf26d351-765c-4c7a-9fdf-203d97df6f46","system_id":"levelo_inurba_marseille","lat":43.30886,"lon":5.3963,"is_reserved":false,"is_disabled":false,"rental_uris":{"android":"levelo://app?vid=cf26d351-765c-4c7a-9fdf-203d97df6f46","ios":"levelo://app?vid=cf26d351-765c-4c7a-9fdf-203d97df6f46"},"vehicle_type_id":"4","last_reported":1741270171,"current_range_meters":11200,"station_id":"ce4bh012rcd13ifvqcv0","pricing_plan_id":"cebpf4jnsgd1na2vs0mg"},{"bike_id":"16063099-28c1-42d4-a56e-3be9f5bb543c","system_id":"levelo_inurba_marseille","lat":43.2622,"lon":5.37442,"is_reserved":false,"is_disabled":false,"rental_uris":{"android":"levelo://app?vid=16063099-28c1-42d4-a56e-3be9f5bb543c","ios":"levelo://app?vid=16063099-28c1-42d4-a56e-3be9f5bb543c"},"vehicle_type_id":"4","last_reported":1741270171,"current_range_meters":11200,"station_id":"ce4bhgp2rcd13ifvqfc0","pricing_plan_id":"cebpf4jnsgd1na2vs0mg"},{"bike_id":"b9402bce-baee-47a9-a1d9-e231cafb0319","system_id":"levelo_inurba_marseille","lat":43.30146,"lon":5.38082,"is_reserved":false,"is_disabled":false,"rental_uris":{"android":"levelo://app?vid=b9402bce-baee-47a9-a1d9-e231cafb0319","ios":"levelo://app?vid=b9402bce-baee-47a9-a1d9-e231cafb0319"},"vehicle_type_id":"4","last_reported":1741270171,"current_range_meters":11200,"station_id":"ce4bgjp2rcd13ifvqbh0","pricing_plan_id":"cebpf4jnsgd1na2vs0mg"},{"bike_id":"74ef305b-8c9c-452f-bc4a-15f57e847ae0","system_id":"levelo_inurba_marseille","lat":43.25734,"lon":5.41128,"is_reserved":false,"is_disabled":false,"rental_uris":{"android":"levelo://app?vid=74ef305b-8c9c-452f-bc4a-15f57e847ae0","ios":"levelo://app?vid=74ef305b-8c9c-452f-bc4a-15f57e847ae0"},"vehicle_type_id":"4","last_reported":1741270171,"current_range_meters":11200,"station_id":"ce4bhkp2rcd13ifvqgd0","pricing_plan_id":"cebpf4jnsgd1na2vs0mg"},{"bike_id":"9ed60a22-42b3-4e9d-bf75-676adf1f82a5","system_id":"levelo_inurba_marseille","lat":43.24062,"lon":5.37742,"is_reserved":false,"is_disabled":false,"rental_uris":{"android":"levelo://app?vid=9ed60a22-42b3-4e9d-bf75-676adf1f82a5","ios":"levelo://app?vid=9ed60a22-42b3-4e9d-bf75-676adf1f82a5"},"vehicle_type_id":"4","last_reported":1741270171,"current_range_meters":11200,"station_id":"ce4bhnp2rcd13ifvqgvg","pricing_plan_id":"cebpf4jnsgd1na2vs0mg"},{"bike_id":"fb878ffe-48c4-493f-bea4-dad92b2ed37e","system_id":"levelo_inurba_marseille","lat":43.25905,"lon":5.40893,"is_reserved":false,"is_disabled":false,"rental_uris":{"android":"levelo://app?vid=fb878ffe-48c4-493f-bea4-dad92b2ed37e","ios":"levelo://app?vid=fb878ffe-48c4-493f-bea4-dad92b2ed37e"},"vehicle_type_id":"4","last_reported":1741270171,"current_range_meters":11600,"station_id":"ce4bhm92rcd13ifvqglg","pricing_plan_id":"cebpf4jnsgd1na2vs0mg"},{"bike_id":"0bb66ad3-1db2-4ca1-8a68-790ba8a9f8b5","system_id":"levelo_inurba_marseille","lat":43.29921,"lon":5.37459,"is_reserved":false,"is_disabled":false,"rental_uris":{"android":"levelo://app?vid=0bb66ad3-1db2-4ca1-8a68-790ba8a9f8b5","ios":"levelo://app?vid=0bb66ad3-1db2-4ca1-8a68-790ba8a9f8b5"},"vehicle_type_id":"4","last_reported":1741270171,"current_range_meters":13600,"station_id":"ce4bgjh2rcd13ifvqbg0","pricing_plan_id":"cebpf4jnsgd1na2vs0mg"},{"bike_id":"565c699f-172b-4fa9-b14b-91624dd55667","system_id":"levelo_inurba_marseille","lat":43.27509,"lon":5.42452,"is_reserved":false,"is_disabled":false,"rental_uris":{"android":"levelo://app?vid=565c699f-172b-4fa9-b14b-91624dd55667","ios":"levelo://app?vid=565c699f-172b-4fa9-b14b-91624dd55667"},"vehicle_type_id":"4","last_reported":1741270171,"current_range_meters":11600,"station_id":"ce4bhn92rcd13ifvqgrg","pricing_plan_id":"cebpf4jnsgd1na2vs0mg"},{"bike_id":"f927a9c8-5d84-472f-b8fd-88f2fc3bc3e6","system_id":"levelo_inurba_marseille","lat":43.2991,"lon":5.43675,"is_reserved":false,"is_disabled":false,"rental_uris":{"android":"levelo://app?vid=f927a9c8-5d84-472f-b8fd-88f2fc3bc3e6","ios":"levelo://app?vid=f927a9c8-5d84-472f-b8fd-88f2fc3bc3e6"},"vehicle_type_id":"4","last_reported":1741270171,"current_range_meters":11600,"station_id":"ce4bhpp2rcd13ifvqhfg","pricing_plan_id":"cebpf4jnsgd1na2vs0mg"},{"bike_id":"88f1cdf8-d5f9-4bd1-9807-7495f7918208","system_id":"levelo_inurba_marseille","lat":43.31251,"lon":5.36846,"is_reserved":false,"is_disabled":false,"rental_uris":{"android":"levelo://app?vid=88f1cdf8-d5f9-4bd1-9807-7495f7918208","ios":"levelo://app?vid=88f1cdf8-d5f9-4bd1-9807-7495f7918208"},"vehicle_type_id":"4","last_reported":1741270171,"current_range_meters":11600,"station_id":"ce4bgl92rcd13ifvqbq0","pricing_plan_id":"cebpf4jnsgd1na2vs0mg"},{"bike_id":"1629132a-a702-4681-8548-2949993d2e93","system_id":"levelo_inurba_marseille","lat":43.29606,"lon":5.38098,"is_reserved":false,"is_disabled":false,"rental_uris":{"android":"levelo://app?vid=1629132a-a702-4681-8548-2949993d2e93","ios":"levelo://app?vid=1629132a-a702-4681-8548-2949993d2e93"},"vehicle_type_id":"4","last_reported":1741270171,"current_range_meters":11600,"station_id":"ce4bgl12rcd13ifvqbo0","pricing_plan_id":"cebpf4jnsgd1na2vs0mg"},{"bike_id":"3503b4af-2db6-47c1-876e-f82db3bfc75b","system_id":"levelo_inurba_marseille","lat":43.30597,"lon":5.39353,"is_reserved":false,"is_disabled":false,"rental_uris":{"android":"levelo://app?vid=3503b4af-2db6-47c1-876e-f82db3bfc75b","ios":"levelo://app?vid=3503b4af-2db6-47c1-876e-f82db3bfc75b"},"vehicle_type_id":"4","last_reported":1741270171,"current_range_meters":11600,"station_id":"ce4bh0p2rcd13ifvqd80","pricing_plan_id":"cebpf4jnsgd1na2vs0mg"},{"bike_id":"0236009d-b83e-4481-b97e-6a8e1f189885","system_id":"levelo_inurba_marseille","lat":43.29792,"lon":5.3811,"is_reserved":false,"is_disabled":false,"rental_uris":{"android":"levelo://app?vid=0236009d-b83e-4481-b97e-6a8e1f189885","ios":"levelo://app?vid=0236009d-b83e-4481-b97e-6a8e1f189885"},"vehicle_type_id":"4","last_reported":1741270171,"current_range_meters":12000,"station_id":"ce4bgip2rcd13ifvqbb0","pricing_plan_id":"cebpf4jnsgd1na2vs0mg"},{"bike_id":"7d90bab6-8eaa-45bf-b411-a730181c17b7","system_id":"levelo_inurba_marseille","lat":43.23145,"lon":5.4372,"is_reserved":false,"is_disabled":false,"rental_uris":{"android":"levelo://app?vid=7d90bab6-8eaa-45bf-b411-a730181c17b7","ios":"levelo://app?vid=7d90bab6-8eaa-45bf-b411-a730181c17b7"},"vehicle_type_id":"4","last_reported":1741270171,"current_range_meters":12000,"station_id":"ce4bhmp2rcd13ifvqgog","pricing_plan_id":"cebpf4jnsgd1na2vs0mg"},{"bike_id":"76ccea9c-0963-4678-bd6c-2ee15628fca7","system_id":"levelo_inurba_marseille","lat":43.30555,"lon":5.36702,"is_reserved":false,"is_disabled":false,"rental_uris":{"android":"levelo://app?vid=76ccea9c-0963-4678-bd6c-2ee15628fca7","ios":"levelo://app?vid=76ccea9c-0963-4678-bd6c-2ee15628fca7"},"vehicle_type_id":"4","last_reported":1741270171,"current_range_meters":12000,"station_id":"ce4bgrp2rcd13ifvqc9g","pricing_plan_id":"cebpf4jnsgd1na2vs0mg"},{"bike_id":"982b7307-3d9c-4fc5-8f8b-0355d142cec2","system_id":"levelo_inurba_marseille","lat":43.26228,"lon":5.40454,"is_reserved":false,"is_disabled":false,"rental_uris":{"android":"levelo://app?vid=982b7307-3d9c-4fc5-8f8b-0355d142cec2","ios":"levelo://app?vid=982b7307-3d9c-4fc5-8f8b-0355d142cec2"},"vehicle_type_id":"4","last_reported":1741270171,"current_range_meters":12400,"station_id":"ce4bhmh2rcd13ifvqgmg","pricing_plan_id":"cebpf4jnsgd1na2vs0mg"},{"bike_id":"0fd15513-1c3e-443d-8fc1-867495994c6c","system_id":"levelo_inurba_marseille","lat":43.29971,"lon":5.41323,"is_reserved":false,"is_disabled":false,"rental_uris":{"android":"levelo://app?vid=0fd15513-1c3e-443d-8fc1-867495994c6c","ios":"levelo://app?vid=0fd15513-1c3e-443d-8fc1-867495994c6c"},"vehicle_type_id":"4","last_reported":1741270171,"current_range_meters":12400,"station_id":"ce4bhp12rcd13ifvqh9g","pricing_plan_id":"cebpf4jnsgd1na2vs0mg"},{"bike_id":"47a2c1d2-7bbe-43e6-9a15-82f857b8ebdc","system_id":"levelo_inurba_marseille","lat":43.311737,"lon":5.387183,"is_reserved":false,"is_disabled":false,"rental_uris":{"android":"levelo://app?vid=47a2c1d2-7bbe-43e6-9a15-82f857b8ebdc","ios":"levelo://app?vid=47a2c1d2-7bbe-43e6-9a15-82f857b8ebdc"},"vehicle_type_id":"4","last_reported":1741270171,"current_range_meters":12400,"station_id":"ce4bgip2rcd13ifvqbb0","pricing_plan_id":"cebpf4jnsgd1na2vs0mg"},{"bike_id":"e9ea0b14-f81c-40e0-9aad-18b138d7f8c8","system_id":"levelo_inurba_marseille","lat":43.30173,"lon":5.37401,"is_reserved":false,"is_disabled":false,"rental_uris":{"android":"levelo://app?vid=e9ea0b14-f81c-40e0-9aad-18b138d7f8c8","ios":"levelo://app?vid=e9ea0b14-f81c-40e0-9aad-18b138d7f8c8"},"vehicle_type_id":"4","last_reported":1741270171,"current_range_meters":12400,"station_id":"ce4bgs92rcd13ifvqcc0","pricing_plan_id":"cebpf4jnsgd1na2vs0mg"},{"bike_id":"fea69d50-f2ea-4834-832b-1cb0af7b7762","system_id":"levelo_inurba_marseille","lat":43.28415,"lon":5.34979,"is_reserved":false,"is_disabled":false,"rental_uris":{"android":"levelo://app?vid=fea69d50-f2ea-4834-832b-1cb0af7b7762","ios":"levelo://app?vid=fea69d50-f2ea-4834-832b-1cb0af7b7762"},"vehicle_type_id":"4","last_reported":1741270171,"current_range_meters":12400,"station_id":"ce4bhbh2rcd13ifvqepg","pricing_plan_id":"cebpf4jnsgd1na2vs0mg"},{"bike_id":"0ebfb0a1-5453-4457-b370-17af6d67dab3","system_id":"levelo_inurba_marseille","lat":43.30466,"lon":5.37915,"is_reserved":false,"is_disabled":false,"rental_uris":{"android":"levelo://app?vid=0ebfb0a1-5453-4457-b370-17af6d67dab3","ios":"levelo://app?vid=0ebfb0a1-5453-4457-b370-17af6d67dab3"},"vehicle_type_id":"4","last_reported":1741270171,"current_range_meters":12400,"station_id":"ce4bgup2rcd13ifvqcn0","pricing_plan_id":"cebpf4jnsgd1na2vs0mg"},{"bike_id":"bf58d102-5f79-4fe1-a6b1-3d04079d1032","system_id":"levelo_inurba_marseille","lat":43.24686,"lon":5.38157,"is_reserved":false,"is_disabled":false,"rental_uris":{"android":"levelo://app?vid=bf58d102-5f79-4fe1-a6b1-3d04079d1032","ios":"levelo://app?vid=bf58d102-5f79-4fe1-a6b1-3d04079d1032"},"vehicle_type_id":"4","last_reported":1741270171,"current_range_meters":12800,"station_id":"ce4bhih2rcd13ifvqfr0","pricing_plan_id":"cebpf4jnsgd1na2vs0mg"},{"bike_id":"55c7f4f7-7673-447a-8e28-160ee124449b","system_id":"levelo_inurba_marseille","lat":43.30884,"lon":5.37195,"is_reserved":false,"is_disabled":false,"rental_uris":{"android":"levelo://app?vid=55c7f4f7-7673-447a-8e28-160ee124449b","ios":"levelo://app?vid=55c7f4f7-7673-447a-8e28-160ee124449b"},"vehicle_type_id":"4","last_reported":1741270171,"current_range_meters":12800,"station_id":"ce4bguh2rcd13ifvqckg","pricing_plan_id":"cebpf4jnsgd1na2vs0mg"},{"bike_id":"adfca881-2638-43ee-933e-d9e17205d395","system_id":"levelo_inurba_marseille","lat":43.26502,"lon":5.3954,"is_reserved":false,"is_disabled":false,"rental_uris":{"android":"levelo://app?vid=adfca881-2638-43ee-933e-d9e17205d395","ios":"levelo://app?vid=adfca881-2638-43ee-933e-d9e17205d395"},"vehicle_type_id":"4","last_reported":1741270171,"current_range_meters":12800,"station_id":"ce4bhi12rcd13ifvqfq0","pricing_plan_id":"cebpf4jnsgd1na2vs0mg"},{"bike_id":"ff07e600-78e5-4934-a970-5ca3d0f97cc6","system_id":"levelo_inurba_marseille","lat":43.23154,"lon":5.43709,"is_reserved":false,"is_disabled":false,"rental_uris":{"android":"levelo://app?vid=ff07e600-78e5-4934-a970-5ca3d0f97cc6","ios":"levelo://app?vid=ff07e600-78e5-4934-a970-5ca3d0f97cc6"},"vehicle_type_id":"4","last_reported":1741270171,"current_range_meters":12800,"station_id":"ce4bhmp2rcd13ifvqgog","pricing_plan_id":"cebpf4jnsgd1na2vs0mg"},{"bike_id":"0215b218-f040-4999-9f1b-4d49e23d6279","system_id":"levelo_inurba_marseille","lat":43.28348,"lon":5.38107,"is_reserved":false,"is_disabled":false,"rental_uris":{"android":"levelo://app?vid=0215b218-f040-4999-9f1b-4d49e23d6279","ios":"levelo://app?vid=0215b218-f040-4999-9f1b-4d49e23d6279"},"vehicle_type_id":"4","last_reported":1741270171,"current_range_meters":12800,"station_id":"ce4bh412rcd13ifvqdr0","pricing_plan_id":"cebpf4jnsgd1na2vs0mg"},{"bike_id":"9d2898fe-22b7-4394-9e98-c2ca811f982c","system_id":"levelo_inurba_marseille","lat":43.27054,"lon":5.40259,"is_reserved":false,"is_disabled":false,"rental_uris":{"android":"levelo://app?vid=9d2898fe-22b7-4394-9e98-c2ca811f982c","ios":"levelo://app?vid=9d2898fe-22b7-4394-9e98-c2ca811f982c"},"vehicle_type_id":"4","last_reported":1741270171,"current_range_meters":12800,"station_id":"ce4bhk92rcd13ifvqgc0","pricing_plan_id":"cebpf4jnsgd1na2vs0mg"},{"bike_id":"0683a293-51f0-4d0e-abbf-5ca227d6f896","system_id":"levelo_inurba_marseille","lat":43.3248,"lon":5.36592,"is_reserved":false,"is_disabled":false,"rental_uris":{"android":"levelo://app?vid=0683a293-51f0-4d0e-abbf-5ca227d6f896","ios":"levelo://app?vid=0683a293-51f0-4d0e-abbf-5ca227d6f896"},"vehicle_type_id":"4","last_reported":1741270171,"current_range_meters":12800,"station_id":"ce4bhs12rcd13ifvqhvg","pricing_plan_id":"cebpf4jnsgd1na2vs0mg"},{"bike_id":"9f732c14-c448-4d71-9ef0-1abee6556861","system_id":"levelo_inurba_marseille","lat":43.30299,"lon":5.3921,"is_reserved":false,"is_disabled":false,"rental_uris":{"android":"levelo://app?vid=9f732c14-c448-4d71-9ef0-1abee6556861","ios":"levelo://app?vid=9f732c14-c448-4d71-9ef0-1abee6556861"},"vehicle_type_id":"4","last_reported":1741270171,"current_range_meters":13600,"station_id":"ce4bgkh2rcd13ifvqbk0","pricing_plan_id":"cebpf4jnsgd1na2vs0mg"},{"bike_id":"4f010ebc-b518-4755-8362-bd39d3f72f51","system_id":"levelo_inurba_marseille","lat":43.23152,"lon":5.43724,"is_reserved":false,"is_disabled":false,"rental_uris":{"android":"levelo://app?vid=4f010ebc-b518-4755-8362-bd39d3f72f51","ios":"levelo://app?vid=4f010ebc-b518-4755-8362-bd39d3f72f51"},"vehicle_type_id":"4","last_reported":1741270171,"current_range_meters":13600,"station_id":"ce4bhmp2rcd13ifvqgog","pricing_plan_id":"cebpf4jnsgd1na2vs0mg"},{"bike_id":"443ac59a-1f13-4797-b3b9-92637f649748","system_id":"levelo_inurba_marseille","lat":43.30799,"lon":5.43532,"is_reserved":false,"is_disabled":false,"rental_uris":{"android":"levelo://app?vid=443ac59a-1f13-4797-b3b9-92637f649748","ios":"levelo://app?vid=443ac59a-1f13-4797-b3b9-92637f649748"},"vehicle_type_id":"4","last_reported":1741270171,"current_range_meters":13600,"station_id":"ce4bhph2rcd13ifvqheg","pricing_plan_id":"cebpf4jnsgd1na2vs0mg"},{"bike_id":"f96e9681-fc6b-46e8-ae29-9ab91057dd0c","system_id":"levelo_inurba_marseille","lat":43.27318,"lon":5.39123,"is_reserved":false,"is_disabled":false,"rental_uris":{"android":"levelo://app?vid=f96e9681-fc6b-46e8-ae29-9ab91057dd0c","ios":"levelo://app?vid=f96e9681-fc6b-46e8-ae29-9ab91057dd0c"},"vehicle_type_id":"4","last_reported":1741270171,"current_range_meters":12400,"station_id":"ce4bhgp2rcd13ifvqfe0","pricing_plan_id":"cebpf4jnsgd1na2vs0mg"},{"bike_id":"b043deb3-5f97-4ce3-88c2-227d7050deac","system_id":"levelo_inurba_marseille","lat":43.29791,"lon":5.38118,"is_reserved":false,"is_disabled":false,"rental_uris":{"android":"levelo://app?vid=b043deb3-5f97-4ce3-88c2-227d7050deac","ios":"levelo://app?vid=b043deb3-5f97-4ce3-88c2-227d7050deac"},"vehicle_type_id":"4","last_reported":1741270171,"current_range_meters":8000,"station_id":"ce4bgip2rcd13ifvqbb0","pricing_plan_id":"cebpf4jnsgd1na2vs0mg"},{"bike_id":"39e3a970-39ca-42d9-acb3-4797e11da7c3","system_id":"levelo_inurba_marseille","lat":43.29196,"lon":5.35813,"is_reserved":false,"is_disabled":false,"rental_uris":{"android":"levelo://app?vid=39e3a970-39ca-42d9-acb3-4797e11da7c3","ios":"levelo://app?vid=39e3a970-39ca-42d9-acb3-4797e11da7c3"},"vehicle_type_id":"4","last_reported":1741270171,"current_range_meters":12800,"station_id":"ce4bhb12rcd13ifvqel0","pricing_plan_id":"cebpf4jnsgd1na2vs0mg"},{"bike_id":"d2e9d193-6ed4-41e3-9dc3-dda9f78ad6eb","system_id":"levelo_inurba_marseille","lat":43.30798,"lon":5.38168,"is_reserved":false,"is_disabled":false,"rental_uris":{"android":"levelo://app?vid=d2e9d193-6ed4-41e3-9dc3-dda9f78ad6eb","ios":"levelo://app?vid=d2e9d193-6ed4-41e3-9dc3-dda9f78ad6eb"},"vehicle_type_id":"4","last_reported":1741270171,"current_range_meters":12800,"station_id":"ce4bgt12rcd13ifvqce0","pricing_plan_id":"cebpf4jnsgd1na2vs0mg"},{"bike_id":"0799081a-0fb3-40ee-b1df-4c2c74a231ba","system_id":"levelo_inurba_marseille","lat":43.30908,"lon":5.36924,"is_reserved":false,"is_disabled":false,"rental_uris":{"android":"levelo://app?vid=0799081a-0fb3-40ee-b1df-4c2c74a231ba","ios":"levelo://app?vid=0799081a-0fb3-40ee-b1df-4c2c74a231ba"},"vehicle_type_id":"4","last_reported":1741270171,"current_range_meters":14000,"station_id":"","pricing_plan_id":"cebpf4jnsgd1na2vs0mg"},{"bike_id":"f034aec5-5b6c-48cf-96b2-b0b4a7344012","system_id":"levelo_inurba_marseille","lat":43.29093,"lon":5.38152,"is_reserved":false,"is_disabled":false,"rental_uris":{"android":"levelo://app?vid=f034aec5-5b6c-48cf-96b2-b0b4a7344012","ios":"levelo://app?vid=f034aec5-5b6c-48cf-96b2-b0b4a7344012"},"vehicle_type_id":"4","last_reported":1741270171,"current_range_meters":15200,"station_id":"ce4bh512rcd13ifvqe2g","pricing_plan_id":"cebpf4jnsgd1na2vs0mg"},{"bike_id":"9f0f0224-b72b-4ee3-a38d-b5ba80204629","system_id":"levelo_inurba_marseille","lat":43.23197,"lon":5.35546,"is_reserved":false,"is_disabled":false,"rental_uris":{"android":"levelo://app?vid=9f0f0224-b72b-4ee3-a38d-b5ba80204629","ios":"levelo://app?vid=9f0f0224-b72b-4ee3-a38d-b5ba80204629"},"vehicle_type_id":"4","last_reported":1741270171,"current_range_meters":14000,"station_id":"ce4bhu92rcd13ifvqi70","pricing_plan_id":"cebpf4jnsgd1na2vs0mg"},{"bike_id":"c4293533-5a39-4152-a03b-3f45fba2830d","system_id":"levelo_inurba_marseille","lat":43.28929,"lon":5.36633,"is_reserved":false,"is_disabled":false,"rental_uris":{"android":"levelo://app?vid=c4293533-5a39-4152-a03b-3f45fba2830d","ios":"levelo://app?vid=c4293533-5a39-4152-a03b-3f45fba2830d"},"vehicle_type_id":"4","last_reported":1741270171,"current_range_meters":12000,"station_id":"ce4bhap2rcd13ifvqek0","pricing_plan_id":"cebpf4jnsgd1na2vs0mg"},{"bike_id":"2391a076-05f8-4541-8e5e-a1b1dca75567","system_id":"levelo_inurba_marseille","lat":43.29224,"lon":5.36062,"is_reserved":false,"is_disabled":false,"rental_uris":{"android":"levelo://app?vid=2391a076-05f8-4541-8e5e-a1b1dca75567","ios":"levelo://app?vid=2391a076-05f8-4541-8e5e-a1b1dca75567"},"vehicle_type_id":"4","last_reported":1741270171,"current_range_meters":14000,"station_id":"ce4bhbh2rcd13ifvqeqg","pricing_plan_id":"cebpf4jnsgd1na2vs0mg"},{"bike_id":"42799173-f7c7-4b35-acfb-0b8fc5282cea","system_id":"levelo_inurba_marseille","lat":43.27821,"lon":5.4071,"is_reserved":false,"is_disabled":false,"rental_uris":{"android":"levelo://app?vid=42799173-f7c7-4b35-acfb-0b8fc5282cea","ios":"levelo://app?vid=42799173-f7c7-4b35-acfb-0b8fc5282cea"},"vehicle_type_id":"4","last_reported":1741270171,"current_range_meters":14000,"station_id":"ce4bhnh2rcd13ifvqgtg","pricing_plan_id":"cebpf4jnsgd1na2vs0mg"},{"bike_id":"ebe5c538-72b7-4b88-beba-17ee9d602e20","system_id":"levelo_inurba_marseille","lat":43.29088,"lon":5.38146,"is_reserved":false,"is_disabled":false,"rental_uris":{"android":"levelo://app?vid=ebe5c538-72b7-4b88-beba-17ee9d602e20","ios":"levelo://app?vid=ebe5c538-72b7-4b88-beba-17ee9d602e20"},"vehicle_type_id":"4","last_reported":1741270171,"current_range_meters":16400,"station_id":"ce4bh512rcd13ifvqe2g","pricing_plan_id":"cebpf4jnsgd1na2vs0mg"},{"bike_id":"684a20c3-4eb4-49e9-bdda-cdaca37116ee","system_id":"levelo_inurba_marseille","lat":43.3124,"lon":5.36857,"is_reserved":false,"is_disabled":false,"rental_uris":{"android":"levelo://app?vid=684a20c3-4eb4-49e9-bdda-cdaca37116ee","ios":"levelo://app?vid=684a20c3-4eb4-49e9-bdda-cdaca37116ee"},"vehicle_type_id":"4","last_reported":1741270171,"current_range_meters":14400,"station_id":"ce4bgl92rcd13ifvqbq0","pricing_plan_id":"cebpf4jnsgd1na2vs0mg"},{"bike_id":"47df52c5-e35f-48fb-baca-7d1e015990f8","system_id":"levelo_inurba_marseille","lat":43.23162,"lon":5.43719,"is_reserved":false,"is_disabled":false,"rental_uris":{"android":"levelo://app?vid=47df52c5-e35f-48fb-baca-7d1e015990f8","ios":"levelo://app?vid=47df52c5-e35f-48fb-baca-7d1e015990f8"},"vehicle_type_id":"4","last_reported":1741270171,"current_range_meters":14400,"station_id":"ce4bhmp2rcd13ifvqgog","pricing_plan_id":"cebpf4jnsgd1na2vs0mg"},{"bike_id":"ce51e43d-08e5-4352-a6bd-d7aa7e8463bf","system_id":"levelo_inurba_marseille","lat":43.32493,"lon":5.36594,"is_reserved":false,"is_disabled":false,"rental_uris":{"android":"levelo://app?vid=ce51e43d-08e5-4352-a6bd-d7aa7e8463bf","ios":"levelo://app?vid=ce51e43d-08e5-4352-a6bd-d7aa7e8463bf"},"vehicle_type_id":"4","last_reported":1741270171,"current_range_meters":14400,"station_id":"ce4bhs12rcd13ifvqhvg","pricing_plan_id":"cebpf4jnsgd1na2vs0mg"},{"bike_id":"c16ccb51-1ff7-4b93-8e4d-d5c1c6809677","system_id":"levelo_inurba_marseille","lat":43.30382,"lon":5.41247,"is_reserved":false,"is_disabled":false,"rental_uris":{"android":"levelo://app?vid=c16ccb51-1ff7-4b93-8e4d-d5c1c6809677","ios":"levelo://app?vid=c16ccb51-1ff7-4b93-8e4d-d5c1c6809677"},"vehicle_type_id":"4","last_reported":1741270171,"current_range_meters":14400,"station_id":"ce4bhop2rcd13ifvqh8g","pricing_plan_id":"cebpf4jnsgd1na2vs0mg"},{"bike_id":"fdeb047a-0850-4e2c-9729-5f1373c80816","system_id":"levelo_inurba_marseille","lat":43.29534,"lon":5.38562,"is_reserved":false,"is_disabled":false,"rental_uris":{"android":"levelo://app?vid=fdeb047a-0850-4e2c-9729-5f1373c80816","ios":"levelo://app?vid=fdeb047a-0850-4e2c-9729-5f1373c80816"},"vehicle_type_id":"4","last_reported":1741270171,"current_range_meters":14400,"station_id":"ce4bgih2rcd13ifvqba0","pricing_plan_id":"cebpf4jnsgd1na2vs0mg"},{"bike_id":"fcb3f727-9b2f-47fb-a1e9-413a06c00f65","system_id":"levelo_inurba_marseille","lat":43.29614,"lon":5.37732,"is_reserved":false,"is_disabled":false,"rental_uris":{"android":"levelo://app?vid=fcb3f727-9b2f-47fb-a1e9-413a06c00f65","ios":"levelo://app?vid=fcb3f727-9b2f-47fb-a1e9-413a06c00f65"},"vehicle_type_id":"4","last_reported":1741270171,"current_range_meters":14400,"station_id":"ce4bgi92rcd13ifvqb90","pricing_plan_id":"cebpf4jnsgd1na2vs0mg"},{"bike_id":"ab299589-5097-4a43-aad9-ae91d239ea78","system_id":"levelo_inurba_marseille","lat":43.249572,"lon":5.389103,"is_reserved":false,"is_disabled":false,"rental_uris":{"android":"levelo://app?vid=ab299589-5097-4a43-aad9-ae91d239ea78","ios":"levelo://app?vid=ab299589-5097-4a43-aad9-ae91d239ea78"},"vehicle_type_id":"4","last_reported":1741270171,"current_range_meters":14400,"station_id":"ce4bhgp2rcd13ifvqfd0","pricing_plan_id":"cebpf4jnsgd1na2vs0mg"},{"bike_id":"93420cc2-3b33-42c8-81e2-c54621ab438f","system_id":"levelo_inurba_marseille","lat":43.25824,"lon":5.39435,"is_reserved":false,"is_disabled":false,"rental_uris":{"android":"levelo://app?vid=93420cc2-3b33-42c8-81e2-c54621ab438f","ios":"levelo://app?vid=93420cc2-3b33-42c8-81e2-c54621ab438f"},"vehicle_type_id":"4","last_reported":1741270171,"current_range_meters":14000,"station_id":"ce4bhip2rcd13ifvqft0","pricing_plan_id":"cebpf4jnsgd1na2vs0mg"},{"bike_id":"c4afb286-08d7-4be7-bcdf-4e625046e836","system_id":"levelo_inurba_marseille","lat":43.32369,"lon":5.38877,"is_reserved":false,"is_disabled":false,"rental_uris":{"android":"levelo://app?vid=c4afb286-08d7-4be7-bcdf-4e625046e836","ios":"levelo://app?vid=c4afb286-08d7-4be7-bcdf-4e625046e836"},"vehicle_type_id":"4","last_reported":1741270171,"current_range_meters":14400,"station_id":"ce4bhqp2rcd13ifvqhog","pricing_plan_id":"cebpf4jnsgd1na2vs0mg"},{"bike_id":"b5cbd564-5d49-420d-af6c-2ba92e996c40","system_id":"levelo_inurba_marseille","lat":43.29917,"lon":5.37478,"is_reserved":false,"is_disabled":false,"rental_uris":{"android":"levelo://app?vid=b5cbd564-5d49-420d-af6c-2ba92e996c40","ios":"levelo://app?vid=b5cbd564-5d49-420d-af6c-2ba92e996c40"},"vehicle_type_id":"4","last_reported":1741270171,"current_range_meters":14000,"station_id":"ce4bgjh2rcd13ifvqbg0","pricing_plan_id":"cebpf4jnsgd1na2vs0mg"},{"bike_id":"75e1a560-978d-46cd-a17f-6087dfda8ed1","system_id":"levelo_inurba_marseille","lat":43.26573,"lon":5.39013,"is_reserved":false,"is_disabled":false,"rental_uris":{"android":"levelo://app?vid=75e1a560-978d-46cd-a17f-6087dfda8ed1","ios":"levelo://app?vid=75e1a560-978d-46cd-a17f-6087dfda8ed1"},"vehicle_type_id":"4","last_reported":1741270171,"current_range_meters":14800,"station_id":"ce4bhe12rcd13ifvqf30","pricing_plan_id":"cebpf4jnsgd1na2vs0mg"},{"bike_id":"73f15c14-8d63-49a0-80a4-2e2dc3783872","system_id":"levelo_inurba_marseille","lat":43.2926,"lon":5.37616,"is_reserved":false,"is_disabled":false,"rental_uris":{"android":"levelo://app?vid=73f15c14-8d63-49a0-80a4-2e2dc3783872","ios":"levelo://app?vid=73f15c14-8d63-49a0-80a4-2e2dc3783872"},"vehicle_type_id":"4","last_reported":1741270171,"current_range_meters":14800,"station_id":"ce4bgi12rcd13ifvqb80","pricing_plan_id":"cebpf4jnsgd1na2vs0mg"},{"bike_id":"e1a93dfa-76d7-4bc0-aad1-22c7a384b60a","system_id":"levelo_inurba_marseille","lat":43.25,"lon":5.38919,"is_reserved":false,"is_disabled":false,"rental_uris":{"android":"levelo://app?vid=e1a93dfa-76d7-4bc0-aad1-22c7a384b60a","ios":"levelo://app?vid=e1a93dfa-76d7-4bc0-aad1-22c7a384b60a"},"vehicle_type_id":"4","last_reported":1741270171,"current_range_meters":14800,"station_id":"ce4bhgp2rcd13ifvqfd0","pricing_plan_id":"cebpf4jnsgd1na2vs0mg"},{"bike_id":"bccbc5da-5b7e-433d-934c-8c077e95294c","system_id":"levelo_inurba_marseille","lat":43.28678,"lon":5.37359,"is_reserved":false,"is_disabled":false,"rental_uris":{"android":"levelo://app?vid=bccbc5da-5b7e-433d-934c-8c077e95294c","ios":"levelo://app?vid=bccbc5da-5b7e-433d-934c-8c077e95294c"},"vehicle_type_id":"4","last_reported":1741270171,"current_range_meters":14800,"station_id":"ce4bh3p2rcd13ifvqdq0","pricing_plan_id":"cebpf4jnsgd1na2vs0mg"},{"bike_id":"c847df0b-d5ea-4935-928c-14ed1eca219e","system_id":"levelo_inurba_marseille","lat":43.29594,"lon":5.37733,"is_reserved":false,"is_disabled":false,"rental_uris":{"android":"levelo://app?vid=c847df0b-d5ea-4935-928c-14ed1eca219e","ios":"levelo://app?vid=c847df0b-d5ea-4935-928c-14ed1eca219e"},"vehicle_type_id":"4","last_reported":1741270171,"current_range_meters":14800,"station_id":"ce4bgi92rcd13ifvqb90","pricing_plan_id":"cebpf4jnsgd1na2vs0mg"},{"bike_id":"396b3c83-63a7-4e9f-81bd-e5810b939dad","system_id":"levelo_inurba_marseille","lat":43.28644,"lon":5.35062,"is_reserved":false,"is_disabled":false,"rental_uris":{"android":"levelo://app?vid=396b3c83-63a7-4e9f-81bd-e5810b939dad","ios":"levelo://app?vid=396b3c83-63a7-4e9f-81bd-e5810b939dad"},"vehicle_type_id":"4","last_reported":1741270171,"current_range_meters":15200,"station_id":"ce4bhch2rcd13ifvqeug","pricing_plan_id":"cebpf4jnsgd1na2vs0mg"},{"bike_id":"44f6f9d0-736d-4d41-bbe3-81b58bdcff46","system_id":"levelo_inurba_marseille","lat":43.3136,"lon":5.36744,"is_reserved":false,"is_disabled":false,"rental_uris":{"android":"levelo://app?vid=44f6f9d0-736d-4d41-bbe3-81b58bdcff46","ios":"levelo://app?vid=44f6f9d0-736d-4d41-bbe3-81b58bdcff46"},"vehicle_type_id":"4","last_reported":1741270171,"current_range_meters":16000,"station_id":"ce4bgr92rcd13ifvqc6g","pricing_plan_id":"cebpf4jnsgd1na2vs0mg"},{"bike_id":"b3eaca3c-3e02-4788-8e1c-7df7f67f5818","system_id":"levelo_inurba_marseille","lat":43.29859,"lon":5.36291,"is_reserved":false,"is_disabled":false,"rental_uris":{"android":"levelo://app?vid=b3eaca3c-3e02-4788-8e1c-7df7f67f5818","ios":"levelo://app?vid=b3eaca3c-3e02-4788-8e1c-7df7f67f5818"},"vehicle_type_id":"4","last_reported":1741270171,"current_range_meters":16000,"station_id":"ce4bgpp2rcd13ifvqc3g","pricing_plan_id":"cebpf4jnsgd1na2vs0mg"},{"bike_id":"a21a2bd8-5bf4-4722-aba8-9a9dc9fb2a97","system_id":"levelo_inurba_marseille","lat":43.30553,"lon":5.36543,"is_reserved":false,"is_disabled":false,"rental_uris":{"android":"levelo://app?vid=a21a2bd8-5bf4-4722-aba8-9a9dc9fb2a97","ios":"levelo://app?vid=a21a2bd8-5bf4-4722-aba8-9a9dc9fb2a97"},"vehicle_type_id":"4","last_reported":1741270171,"current_range_meters":16000,"station_id":"ce4bgs12rcd13ifvqcag","pricing_plan_id":"cebpf4jnsgd1na2vs0mg"},{"bike_id":"31cff341-cb85-475f-8296-2450ab763581","system_id":"levelo_inurba_marseille","lat":43.30536,"lon":5.36552,"is_reserved":false,"is_disabled":false,"rental_uris":{"android":"levelo://app?vid=31cff341-cb85-475f-8296-2450ab763581","ios":"levelo://app?vid=31cff341-cb85-475f-8296-2450ab763581"},"vehicle_type_id":"4","last_reported":1741270171,"current_range_meters":16000,"station_id":"ce4bgs12rcd13ifvqcag","pricing_plan_id":"cebpf4jnsgd1na2vs0mg"},{"bike_id":"2b335451-2759-471c-83e1-a5a099aba791","system_id":"levelo_inurba_marseille","lat":43.25841,"lon":5.39397,"is_reserved":false,"is_disabled":false,"rental_uris":{"android":"levelo://app?vid=2b335451-2759-471c-83e1-a5a099aba791","ios":"levelo://app?vid=2b335451-2759-471c-83e1-a5a099aba791"},"vehicle_type_id":"4","last_reported":1741270171,"current_range_meters":16000,"station_id":"ce4bhip2rcd13ifvqft0","pricing_plan_id":"cebpf4jnsgd1na2vs0mg"},{"bike_id":"82dc1250-3133-44ae-ab67-1eae2b3ebd4d","system_id":"levelo_inurba_marseille","lat":43.32488,"lon":5.36566,"is_reserved":false,"is_disabled":false,"rental_uris":{"android":"levelo://app?vid=82dc1250-3133-44ae-ab67-1eae2b3ebd4d","ios":"levelo://app?vid=82dc1250-3133-44ae-ab67-1eae2b3ebd4d"},"vehicle_type_id":"4","last_reported":1741270171,"current_range_meters":16000,"station_id":"ce4bhs12rcd13ifvqhvg","pricing_plan_id":"cebpf4jnsgd1na2vs0mg"},{"bike_id":"fd005411-fc0b-4419-a182-330c4d3471e2","system_id":"levelo_inurba_marseille","lat":43.28142,"lon":5.42661,"is_reserved":false,"is_disabled":false,"rental_uris":{"android":"levelo://app?vid=fd005411-fc0b-4419-a182-330c4d3471e2","ios":"levelo://app?vid=fd005411-fc0b-4419-a182-330c4d3471e2"},"vehicle_type_id":"4","last_reported":1741270171,"current_range_meters":16000,"station_id":"ce4bhnh2rcd13ifvqgug","pricing_plan_id":"cebpf4jnsgd1na2vs0mg"},{"bike_id":"63103f47-b772-4a88-ba86-2d2dd36204d9","system_id":"levelo_inurba_marseille","lat":43.26567,"lon":5.39026,"is_reserved":false,"is_disabled":false,"rental_uris":{"android":"levelo://app?vid=63103f47-b772-4a88-ba86-2d2dd36204d9","ios":"levelo://app?vid=63103f47-b772-4a88-ba86-2d2dd36204d9"},"vehicle_type_id":"4","last_reported":1741270171,"current_range_meters":16000,"station_id":"ce4bhe12rcd13ifvqf30","pricing_plan_id":"cebpf4jnsgd1na2vs0mg"},{"bike_id":"53dfe59b-0c50-4856-8045-31a40c505364","system_id":"levelo_inurba_marseille","lat":43.28724,"lon":5.36084,"is_reserved":false,"is_disabled":false,"rental_uris":{"android":"levelo://app?vid=53dfe59b-0c50-4856-8045-31a40c505364","ios":"levelo://app?vid=53dfe59b-0c50-4856-8045-31a40c505364"},"vehicle_type_id":"4","last_reported":1741270171,"current_range_meters":16000,"station_id":"cki0cbj6b192h4jlfktg","pricing_plan_id":"cebpf4jnsgd1na2vs0mg"},{"bike_id":"5ccfb67b-e8ae-4525-8742-ac0b6f2453a4","system_id":"levelo_inurba_marseille","lat":43.28359,"lon":5.38655,"is_reserved":false,"is_disabled":false,"rental_uris":{"android":"levelo://app?vid=5ccfb67b-e8ae-4525-8742-ac0b6f2453a4","ios":"levelo://app?vid=5ccfb67b-e8ae-4525-8742-ac0b6f2453a4"},"vehicle_type_id":"4","last_reported":1741270171,"current_range_meters":16400,"station_id":"ce4bh492rcd13ifvqdvg","pricing_plan_id":"cebpf4jnsgd1na2vs0mg"},{"bike_id":"0a71887a-d2fa-49ed-b64a-19c6442d7cbb","system_id":"levelo_inurba_marseille","lat":43.30413,"lon":5.41278,"is_reserved":false,"is_disabled":false,"rental_uris":{"android":"levelo://app?vid=0a71887a-d2fa-49ed-b64a-19c6442d7cbb","ios":"levelo://app?vid=0a71887a-d2fa-49ed-b64a-19c6442d7cbb"},"vehicle_type_id":"4","last_reported":1741270171,"current_range_meters":16800,"station_id":"ce4bhop2rcd13ifvqh8g","pricing_plan_id":"cebpf4jnsgd1na2vs0mg"},{"bike_id":"11e06683-8fbf-4e8d-be1a-c9322e803342","system_id":"levelo_inurba_marseille","lat":43.2315,"lon":5.43706,"is_reserved":false,"is_disabled":false,"rental_uris":{"android":"levelo://app?vid=11e06683-8fbf-4e8d-be1a-c9322e803342","ios":"levelo://app?vid=11e06683-8fbf-4e8d-be1a-c9322e803342"},"vehicle_type_id":"4","last_reported":1741270171,"current_range_meters":16400,"station_id":"ce4bhmp2rcd13ifvqgog","pricing_plan_id":"cebpf4jnsgd1na2vs0mg"},{"bike_id":"d6d3e602-171a-4195-b35d-08e208ee736e","system_id":"levelo_inurba_marseille","lat":43.30136,"lon":5.38786,"is_reserved":false,"is_disabled":false,"rental_uris":{"android":"levelo://app?vid=d6d3e602-171a-4195-b35d-08e208ee736e","ios":"levelo://app?vid=d6d3e602-171a-4195-b35d-08e208ee736e"},"vehicle_type_id":"4","last_reported":1741270171,"current_range_meters":16000,"station_id":"ce4bghh2rcd13ifvqb60","pricing_plan_id":"cebpf4jnsgd1na2vs0mg"},{"bike_id":"acb01695-3aa8-47e2-8873-ad6047fd837f","system_id":"levelo_inurba_marseille","lat":43.26559,"lon":5.37286,"is_reserved":false,"is_disabled":false,"rental_uris":{"android":"levelo://app?vid=acb01695-3aa8-47e2-8873-ad6047fd837f","ios":"levelo://app?vid=acb01695-3aa8-47e2-8873-ad6047fd837f"},"vehicle_type_id":"4","last_reported":1741270171,"current_range_meters":16400,"station_id":"ce4bhg12rcd13ifvqf70","pricing_plan_id":"cebpf4jnsgd1na2vs0mg"},{"bike_id":"3051c4d5-4c9c-4da3-b1b4-f0b027471483","system_id":"levelo_inurba_marseille","lat":43.28718,"lon":5.37941,"is_reserved":false,"is_disabled":false,"rental_uris":{"android":"levelo://app?vid=3051c4d5-4c9c-4da3-b1b4-f0b027471483","ios":"levelo://app?vid=3051c4d5-4c9c-4da3-b1b4-f0b027471483"},"vehicle_type_id":"4","last_reported":1741270171,"current_range_meters":16400,"station_id":"ce4bh9p2rcd13ifvqec0","pricing_plan_id":"cebpf4jnsgd1na2vs0mg"},{"bike_id":"c1e622d4-dc56-4621-ad53-23c51b257c0a","system_id":"levelo_inurba_marseille","lat":43.30932,"lon":5.40131,"is_reserved":false,"is_disabled":false,"rental_uris":{"android":"levelo://app?vid=c1e622d4-dc56-4621-ad53-23c51b257c0a","ios":"levelo://app?vid=c1e622d4-dc56-4621-ad53-23c51b257c0a"},"vehicle_type_id":"4","last_reported":1741270171,"current_range_meters":16800,"station_id":"ce4bgvp2rcd13ifvqct0","pricing_plan_id":"cebpf4jnsgd1na2vs0mg"},{"bike_id":"33ab1adf-cfa2-4786-a73c-05ed38e5ab7f","system_id":"levelo_inurba_marseille","lat":43.25864,"lon":5.39898,"is_reserved":false,"is_disabled":false,"rental_uris":{"android":"levelo://app?vid=33ab1adf-cfa2-4786-a73c-05ed38e5ab7f","ios":"levelo://app?vid=33ab1adf-cfa2-4786-a73c-05ed38e5ab7f"},"vehicle_type_id":"4","last_reported":1741270171,"current_range_meters":14800,"station_id":"ce4bhl92rcd13ifvqghg","pricing_plan_id":"cebpf4jnsgd1na2vs0mg"},{"bike_id":"45f4ecdc-62e3-4913-a128-6a69a7c660ef","system_id":"levelo_inurba_marseille","lat":43.28373,"lon":5.42389,"is_reserved":false,"is_disabled":false,"rental_uris":{"android":"levelo://app?vid=45f4ecdc-62e3-4913-a128-6a69a7c660ef","ios":"levelo://app?vid=45f4ecdc-62e3-4913-a128-6a69a7c660ef"},"vehicle_type_id":"4","last_reported":1741270171,"current_range_meters":16800,"station_id":"ce4bghh2rcd13ifvqb60","pricing_plan_id":"cebpf4jnsgd1na2vs0mg"},{"bike_id":"68c19fc9-ba1c-4395-a7d2-1805fe31ec71","system_id":"levelo_inurba_marseille","lat":43.24174,"lon":5.39732,"is_reserved":false,"is_disabled":false,"rental_uris":{"android":"levelo://app?vid=68c19fc9-ba1c-4395-a7d2-1805fe31ec71","ios":"levelo://app?vid=68c19fc9-ba1c-4395-a7d2-1805fe31ec71"},"vehicle_type_id":"4","last_reported":1741270171,"current_range_meters":16800,"station_id":"ce4bhn12rcd13ifvqgpg","pricing_plan_id":"cebpf4jnsgd1na2vs0mg"},{"bike_id":"ec64a508-7319-4739-97c4-1afcf12fbdad","system_id":"levelo_inurba_marseille","lat":43.32057,"lon":5.41539,"is_reserved":false,"is_disabled":false,"rental_uris":{"android":"levelo://app?vid=ec64a508-7319-4739-97c4-1afcf12fbdad","ios":"levelo://app?vid=ec64a508-7319-4739-97c4-1afcf12fbdad"},"vehicle_type_id":"4","last_reported":1741270171,"current_range_meters":16800,"station_id":"ce4bhq92rcd13ifvqhkg","pricing_plan_id":"cebpf4jnsgd1na2vs0mg"},{"bike_id":"67597cc4-63f0-46c6-91c9-f53823d64889","system_id":"levelo_inurba_marseille","lat":43.30468,"lon":5.37909,"is_reserved":false,"is_disabled":false,"rental_uris":{"android":"levelo://app?vid=67597cc4-63f0-46c6-91c9-f53823d64889","ios":"levelo://app?vid=67597cc4-63f0-46c6-91c9-f53823d64889"},"vehicle_type_id":"4","last_reported":1741270171,"current_range_meters":16800,"station_id":"ce4bgup2rcd13ifvqcn0","pricing_plan_id":"cebpf4jnsgd1na2vs0mg"},{"bike_id":"75e132d9-5d1a-422c-a075-9f44ef62fb9b","system_id":"levelo_inurba_marseille","lat":43.2873,"lon":5.37939,"is_reserved":false,"is_disabled":false,"rental_uris":{"android":"levelo://app?vid=75e132d9-5d1a-422c-a075-9f44ef62fb9b","ios":"levelo://app?vid=75e132d9-5d1a-422c-a075-9f44ef62fb9b"},"vehicle_type_id":"4","last_reported":1741270171,"current_range_meters":16800,"station_id":"ce4bh9p2rcd13ifvqec0","pricing_plan_id":"cebpf4jnsgd1na2vs0mg"},{"bike_id":"9e6acd30-5458-4971-b8a0-116d587606c9","system_id":"levelo_inurba_marseille","lat":43.23158,"lon":5.43717,"is_reserved":false,"is_disabled":false,"rental_uris":{"android":"levelo://app?vid=9e6acd30-5458-4971-b8a0-116d587606c9","ios":"levelo://app?vid=9e6acd30-5458-4971-b8a0-116d587606c9"},"vehicle_type_id":"4","last_reported":1741270171,"current_range_meters":16800,"station_id":"ce4bhmp2rcd13ifvqgog","pricing_plan_id":"cebpf4jnsgd1na2vs0mg"},{"bike_id":"0421e6dd-fe40-4615-a3de-97c26c00f3d6","system_id":"levelo_inurba_marseille","lat":43.26199,"lon":5.37928,"is_reserved":false,"is_disabled":false,"rental_uris":{"android":"levelo://app?vid=0421e6dd-fe40-4615-a3de-97c26c00f3d6","ios":"levelo://app?vid=0421e6dd-fe40-4615-a3de-97c26c00f3d6"},"vehicle_type_id":"4","last_reported":1741270171,"current_range_meters":15200,"station_id":"ce4bhjp2rcd13ifvqg90","pricing_plan_id":"cebpf4jnsgd1na2vs0mg"},{"bike_id":"d0a9e0b6-7460-48af-b167-fa241d6b44c3","system_id":"levelo_inurba_marseille","lat":43.32111,"lon":5.3677,"is_reserved":false,"is_disabled":false,"rental_uris":{"android":"levelo://app?vid=d0a9e0b6-7460-48af-b167-fa241d6b44c3","ios":"levelo://app?vid=d0a9e0b6-7460-48af-b167-fa241d6b44c3"},"vehicle_type_id":"4","last_reported":1741270171,"current_range_meters":16800,"station_id":"ce4bhrh2rcd13ifvqhug","pricing_plan_id":"cebpf4jnsgd1na2vs0mg"},{"bike_id":"10b74c6d-04bc-43c8-b892-4a1d3e03c2bd","system_id":"levelo_inurba_marseille","lat":43.23064,"lon":5.35497,"is_reserved":false,"is_disabled":false,"rental_uris":{"android":"levelo://app?vid=10b74c6d-04bc-43c8-b892-4a1d3e03c2bd","ios":"levelo://app?vid=10b74c6d-04bc-43c8-b892-4a1d3e03c2bd"},"vehicle_type_id":"4","last_reported":1741270171,"current_range_meters":17200,"station_id":"cpo3342slgdg3j2ifvpg","pricing_plan_id":"cebpf4jnsgd1na2vs0mg"},{"bike_id":"21b9ed8c-7add-4579-9243-a4149facf391","system_id":"levelo_inurba_marseille","lat":43.296308,"lon":5.377136,"is_reserved":false,"is_disabled":false,"rental_uris":{"android":"levelo://app?vid=21b9ed8c-7add-4579-9243-a4149facf391","ios":"levelo://app?vid=21b9ed8c-7add-4579-9243-a4149facf391"},"vehicle_type_id":"4","last_reported":1741270171,"current_range_meters":16800,"station_id":"ce4bh292rcd13ifvqdf0","pricing_plan_id":"cebpf4jnsgd1na2vs0mg"},{"bike_id":"5081bc74-b6da-48a3-9607-217c03012d3d","system_id":"levelo_inurba_marseille","lat":43.3093,"lon":5.40141,"is_reserved":false,"is_disabled":false,"rental_uris":{"android":"levelo://app?vid=5081bc74-b6da-48a3-9607-217c03012d3d","ios":"levelo://app?vid=5081bc74-b6da-48a3-9607-217c03012d3d"},"vehicle_type_id":"4","last_reported":1741270171,"current_range_meters":17200,"station_id":"ce4bgvp2rcd13ifvqct0","pricing_plan_id":"cebpf4jnsgd1na2vs0mg"},{"bike_id":"deabf1df-2edb-4371-bf19-1fc9db16ee77","system_id":"levelo_inurba_marseille","lat":43.28155,"lon":5.42635,"is_reserved":false,"is_disabled":false,"rental_uris":{"android":"levelo://app?vid=deabf1df-2edb-4371-bf19-1fc9db16ee77","ios":"levelo://app?vid=deabf1df-2edb-4371-bf19-1fc9db16ee77"},"vehicle_type_id":"4","last_reported":1741270171,"current_range_meters":17200,"station_id":"ce4bhnh2rcd13ifvqgug","pricing_plan_id":"cebpf4jnsgd1na2vs0mg"},{"bike_id":"e5356a80-524b-4878-bf89-9a6370a33b6d","system_id":"levelo_inurba_marseille","lat":43.31687,"lon":5.4048,"is_reserved":false,"is_disabled":false,"rental_uris":{"android":"levelo://app?vid=e5356a80-524b-4878-bf89-9a6370a33b6d","ios":"levelo://app?vid=e5356a80-524b-4878-bf89-9a6370a33b6d"},"vehicle_type_id":"4","last_reported":1741270171,"current_range_meters":17200,"station_id":"ce4bh012rcd13ifvqd00","pricing_plan_id":"cebpf4jnsgd1na2vs0mg"},{"bike_id":"680115eb-a6e4-4d4c-a087-a6555fdf8cad","system_id":"levelo_inurba_marseille","lat":43.27066,"lon":5.42269,"is_reserved":false,"is_disabled":false,"rental_uris":{"android":"levelo://app?vid=680115eb-a6e4-4d4c-a087-a6555fdf8cad","ios":"levelo://app?vid=680115eb-a6e4-4d4c-a087-a6555fdf8cad"},"vehicle_type_id":"4","last_reported":1741270171,"current_range_meters":17200,"station_id":"ce4bhk92rcd13ifvqgb0","pricing_plan_id":"cebpf4jnsgd1na2vs0mg"},{"bike_id":"b67d48b9-ea4b-4185-a104-7bbabafceb74","system_id":"levelo_inurba_marseille","lat":43.29271,"lon":5.37635,"is_reserved":false,"is_disabled":false,"rental_uris":{"android":"levelo://app?vid=b67d48b9-ea4b-4185-a104-7bbabafceb74","ios":"levelo://app?vid=b67d48b9-ea4b-4185-a104-7bbabafceb74"},"vehicle_type_id":"4","last_reported":1741270171,"current_range_meters":17600,"station_id":"ce4bgi12rcd13ifvqb80","pricing_plan_id":"cebpf4jnsgd1na2vs0mg"},{"bike_id":"ff64210b-0c56-444c-9cec-537674a31171","system_id":"levelo_inurba_marseille","lat":43.29024,"lon":5.38127,"is_reserved":false,"is_disabled":false,"rental_uris":{"android":"levelo://app?vid=ff64210b-0c56-444c-9cec-537674a31171","ios":"levelo://app?vid=ff64210b-0c56-444c-9cec-537674a31171"},"vehicle_type_id":"4","last_reported":1741270171,"current_range_meters":17200,"station_id":"ce4bh4p2rcd13ifvqe1g","pricing_plan_id":"cebpf4jnsgd1na2vs0mg"},{"bike_id":"37ed541d-8ef2-44e2-8968-bbec0b7e3bc7","system_id":"levelo_inurba_marseille","lat":43.29935,"lon":5.36541,"is_reserved":false,"is_disabled":false,"rental_uris":{"android":"levelo://app?vid=37ed541d-8ef2-44e2-8968-bbec0b7e3bc7","ios":"levelo://app?vid=37ed541d-8ef2-44e2-8968-bbec0b7e3bc7"},"vehicle_type_id":"4","last_reported":1741270171,"current_range_meters":17600,"station_id":"ce4bgm92rcd13ifvqbr0","pricing_plan_id":"cebpf4jnsgd1na2vs0mg"},{"bike_id":"68e488c2-9d73-4c91-9da2-5e65e0d498b1","system_id":"levelo_inurba_marseille","lat":43.26571,"lon":5.3901,"is_reserved":false,"is_disabled":false,"rental_uris":{"android":"levelo://app?vid=68e488c2-9d73-4c91-9da2-5e65e0d498b1","ios":"levelo://app?vid=68e488c2-9d73-4c91-9da2-5e65e0d498b1"},"vehicle_type_id":"4","last_reported":1741270171,"current_range_meters":17600,"station_id":"ce4bhe12rcd13ifvqf30","pricing_plan_id":"cebpf4jnsgd1na2vs0mg"},{"bike_id":"18666bef-bb0a-4782-879a-cb050b2778bd","system_id":"levelo_inurba_marseille","lat":43.28105,"lon":5.37838,"is_reserved":false,"is_disabled":false,"rental_uris":{"android":"levelo://app?vid=18666bef-bb0a-4782-879a-cb050b2778bd","ios":"levelo://app?vid=18666bef-bb0a-4782-879a-cb050b2778bd"},"vehicle_type_id":"4","last_reported":1741270171,"current_range_meters":16800,"station_id":"ce4bha12rcd13ifvqee0","pricing_plan_id":"cebpf4jnsgd1na2vs0mg"},{"bike_id":"e611ddb4-2d57-440d-a1c3-d46416438919","system_id":"levelo_inurba_marseille","lat":43.30887,"lon":5.37189,"is_reserved":false,"is_disabled":false,"rental_uris":{"android":"levelo://app?vid=e611ddb4-2d57-440d-a1c3-d46416438919","ios":"levelo://app?vid=e611ddb4-2d57-440d-a1c3-d46416438919"},"vehicle_type_id":"4","last_reported":1741270171,"current_range_meters":17600,"station_id":"ce4bguh2rcd13ifvqckg","pricing_plan_id":"cebpf4jnsgd1na2vs0mg"},{"bike_id":"782fe08b-9d60-4ad0-96e6-ef5b7062712d","system_id":"levelo_inurba_marseille","lat":43.28353,"lon":5.38111,"is_reserved":false,"is_disabled":false,"rental_uris":{"android":"levelo://app?vid=782fe08b-9d60-4ad0-96e6-ef5b7062712d","ios":"levelo://app?vid=782fe08b-9d60-4ad0-96e6-ef5b7062712d"},"vehicle_type_id":"4","last_reported":1741270171,"current_range_meters":17600,"station_id":"ce4bh412rcd13ifvqdr0","pricing_plan_id":"cebpf4jnsgd1na2vs0mg"},{"bike_id":"8c6f03b2-af08-4d17-8a89-09d5a96c686f","system_id":"levelo_inurba_marseille","lat":43.30297,"lon":5.37698,"is_reserved":false,"is_disabled":false,"rental_uris":{"android":"levelo://app?vid=8c6f03b2-af08-4d17-8a89-09d5a96c686f","ios":"levelo://app?vid=8c6f03b2-af08-4d17-8a89-09d5a96c686f"},"vehicle_type_id":"4","last_reported":1741270171,"current_range_meters":18000,"station_id":"ce4bguh2rcd13ifvqcj0","pricing_plan_id":"cebpf4jnsgd1na2vs0mg"},{"bike_id":"6ae77951-a909-4dfa-a933-35324bca41b7","system_id":"levelo_inurba_marseille","lat":43.25009,"lon":5.38918,"is_reserved":false,"is_disabled":false,"rental_uris":{"android":"levelo://app?vid=6ae77951-a909-4dfa-a933-35324bca41b7","ios":"levelo://app?vid=6ae77951-a909-4dfa-a933-35324bca41b7"},"vehicle_type_id":"4","last_reported":1741270171,"current_range_meters":18000,"station_id":"ce4bhgp2rcd13ifvqfd0","pricing_plan_id":"cebpf4jnsgd1na2vs0mg"},{"bike_id":"f7c96bee-6cb6-4ce4-a6a6-fb758722f7f3","system_id":"levelo_inurba_marseille","lat":43.30477,"lon":5.37901,"is_reserved":false,"is_disabled":false,"rental_uris":{"android":"levelo://app?vid=f7c96bee-6cb6-4ce4-a6a6-fb758722f7f3","ios":"levelo://app?vid=f7c96bee-6cb6-4ce4-a6a6-fb758722f7f3"},"vehicle_type_id":"4","last_reported":1741270171,"current_range_meters":18000,"station_id":"ce4bgup2rcd13ifvqcn0","pricing_plan_id":"cebpf4jnsgd1na2vs0mg"},{"bike_id":"23c00217-cd33-4f6d-b608-3a3b813868fb","system_id":"levelo_inurba_marseille","lat":43.295023,"lon":5.377645,"is_reserved":false,"is_disabled":false,"rental_uris":{"android":"levelo://app?vid=23c00217-cd33-4f6d-b608-3a3b813868fb","ios":"levelo://app?vid=23c00217-cd33-4f6d-b608-3a3b813868fb"},"vehicle_type_id":"4","last_reported":1741270171,"current_range_meters":16800,"station_id":"ce4bh4p2rcd13ifvqe1g","pricing_plan_id":"cebpf4jnsgd1na2vs0mg"},{"bike_id":"8d203f57-3343-4bc0-8a9c-79d1c1be1625","system_id":"levelo_inurba_marseille","lat":43.26851,"lon":5.40182,"is_reserved":false,"is_disabled":false,"rental_uris":{"android":"levelo://app?vid=8d203f57-3343-4bc0-8a9c-79d1c1be1625","ios":"levelo://app?vid=8d203f57-3343-4bc0-8a9c-79d1c1be1625"},"vehicle_type_id":"4","last_reported":1741270171,"current_range_meters":18000,"station_id":"ce501612rcd8frsf0b60","pricing_plan_id":"cebpf4jnsgd1na2vs0mg"},{"bike_id":"f8298a02-4bea-458e-90c1-7ea5b53e3d92","system_id":"levelo_inurba_marseille","lat":43.26939,"lon":5.3863,"is_reserved":false,"is_disabled":false,"rental_uris":{"android":"levelo://app?vid=f8298a02-4bea-458e-90c1-7ea5b53e3d92","ios":"levelo://app?vid=f8298a02-4bea-458e-90c1-7ea5b53e3d92"},"vehicle_type_id":"4","last_reported":1741270171,"current_range_meters":18000,"station_id":"ce4bhh92rcd13ifvqfh0","pricing_plan_id":"cebpf4jnsgd1na2vs0mg"},{"bike_id":"ff4c0e43-2823-47ee-adad-49bbb5289237","system_id":"levelo_inurba_marseille","lat":43.27817,"lon":5.4072,"is_reserved":false,"is_disabled":false,"rental_uris":{"android":"levelo://app?vid=ff4c0e43-2823-47ee-adad-49bbb5289237","ios":"levelo://app?vid=ff4c0e43-2823-47ee-adad-49bbb5289237"},"vehicle_type_id":"4","last_reported":1741270171,"current_range_meters":19200,"station_id":"ce4bhnh2rcd13ifvqgtg","pricing_plan_id":"cebpf4jnsgd1na2vs0mg"},{"bike_id":"5f75ba61-02d5-48cc-b264-b113b66ed19b","system_id":"levelo_inurba_marseille","lat":43.3256,"lon":5.41431,"is_reserved":false,"is_disabled":false,"rental_uris":{"android":"levelo://app?vid=5f75ba61-02d5-48cc-b264-b113b66ed19b","ios":"levelo://app?vid=5f75ba61-02d5-48cc-b264-b113b66ed19b"},"vehicle_type_id":"4","last_reported":1741270171,"current_range_meters":18800,"station_id":"ce4bhq12rcd13ifvqhhg","pricing_plan_id":"cebpf4jnsgd1na2vs0mg"},{"bike_id":"50063e9c-9b9b-462a-b0ae-6e92457af5fc","system_id":"levelo_inurba_marseille","lat":43.261895,"lon":5.37455,"is_reserved":false,"is_disabled":false,"rental_uris":{"android":"levelo://app?vid=50063e9c-9b9b-462a-b0ae-6e92457af5fc","ios":"levelo://app?vid=50063e9c-9b9b-462a-b0ae-6e92457af5fc"},"vehicle_type_id":"4","last_reported":1741270171,"current_range_meters":18800,"station_id":"ce4bhgp2rcd13ifvqfc0","pricing_plan_id":"cebpf4jnsgd1na2vs0mg"},{"bike_id":"3c94b931-3649-4c69-bf1c-99f8fd15e284","system_id":"levelo_inurba_marseille","lat":43.32483,"lon":5.36607,"is_reserved":false,"is_disabled":false,"rental_uris":{"android":"levelo://app?vid=3c94b931-3649-4c69-bf1c-99f8fd15e284","ios":"levelo://app?vid=3c94b931-3649-4c69-bf1c-99f8fd15e284"},"vehicle_type_id":"4","last_reported":1741270171,"current_range_meters":18800,"station_id":"ce4bhs12rcd13ifvqhvg","pricing_plan_id":"cebpf4jnsgd1na2vs0mg"},{"bike_id":"7a44d963-efce-4388-9c6d-7fafd873e3d1","system_id":"levelo_inurba_marseille","lat":43.29046,"lon":5.35916,"is_reserved":false,"is_disabled":false,"rental_uris":{"android":"levelo://app?vid=7a44d963-efce-4388-9c6d-7fafd873e3d1","ios":"levelo://app?vid=7a44d963-efce-4388-9c6d-7fafd873e3d1"},"vehicle_type_id":"4","last_reported":1741270171,"current_range_meters":18000,"station_id":"ce4bha92rcd13ifvqeg0","pricing_plan_id":"cebpf4jnsgd1na2vs0mg"},{"bike_id":"70cf1a2f-99f5-4d66-9b42-353b1e8f5a3d","system_id":"levelo_inurba_marseille","lat":43.30165,"lon":5.39841,"is_reserved":false,"is_disabled":false,"rental_uris":{"android":"levelo://app?vid=70cf1a2f-99f5-4d66-9b42-353b1e8f5a3d","ios":"levelo://app?vid=70cf1a2f-99f5-4d66-9b42-353b1e8f5a3d"},"vehicle_type_id":"4","last_reported":1741270171,"current_range_meters":18800,"station_id":"ce4bh0h2rcd13ifvqd40","pricing_plan_id":"cebpf4jnsgd1na2vs0mg"},{"bike_id":"50cc25e7-2674-4ae1-8422-ecfe3d745977","system_id":"levelo_inurba_marseille","lat":43.31753,"lon":5.39014,"is_reserved":false,"is_disabled":false,"rental_uris":{"android":"levelo://app?vid=50cc25e7-2674-4ae1-8422-ecfe3d745977","ios":"levelo://app?vid=50cc25e7-2674-4ae1-8422-ecfe3d745977"},"vehicle_type_id":"4","last_reported":1741270171,"current_range_meters":18000,"station_id":"ce4bhqp2rcd13ifvqhng","pricing_plan_id":"cebpf4jnsgd1na2vs0mg"},{"bike_id":"fc5e5c55-9445-4dba-ad37-85e93ab621a0","system_id":"levelo_inurba_marseille","lat":43.30439,"lon":5.38901,"is_reserved":false,"is_disabled":false,"rental_uris":{"android":"levelo://app?vid=fc5e5c55-9445-4dba-ad37-85e93ab621a0","ios":"levelo://app?vid=fc5e5c55-9445-4dba-ad37-85e93ab621a0"},"vehicle_type_id":"4","last_reported":1741270171,"current_range_meters":18000,"station_id":"ce4bgk12rcd13ifvqbi0","pricing_plan_id":"cebpf4jnsgd1na2vs0mg"},{"bike_id":"b6c74503-6132-4659-8da3-1e80fe8c6907","system_id":"levelo_inurba_marseille","lat":43.30888,"lon":5.39659,"is_reserved":false,"is_disabled":false,"rental_uris":{"android":"levelo://app?vid=b6c74503-6132-4659-8da3-1e80fe8c6907","ios":"levelo://app?vid=b6c74503-6132-4659-8da3-1e80fe8c6907"},"vehicle_type_id":"4","last_reported":1741270171,"current_range_meters":18800,"station_id":"ce4bh012rcd13ifvqcv0","pricing_plan_id":"cebpf4jnsgd1na2vs0mg"},{"bike_id":"9c7cb00e-e6d2-4bc9-a9fc-400712c604dc","system_id":"levelo_inurba_marseille","lat":43.26949,"lon":5.38633,"is_reserved":false,"is_disabled":false,"rental_uris":{"android":"levelo://app?vid=9c7cb00e-e6d2-4bc9-a9fc-400712c604dc","ios":"levelo://app?vid=9c7cb00e-e6d2-4bc9-a9fc-400712c604dc"},"vehicle_type_id":"4","last_reported":1741270171,"current_range_meters":18800,"station_id":"ce4bhh92rcd13ifvqfh0","pricing_plan_id":"cebpf4jnsgd1na2vs0mg"},{"bike_id":"8d4e15ff-fc6c-455c-bb5c-437a16e3b2d9","system_id":"levelo_inurba_marseille","lat":43.29968,"lon":5.38498,"is_reserved":false,"is_disabled":false,"rental_uris":{"android":"levelo://app?vid=8d4e15ff-fc6c-455c-bb5c-437a16e3b2d9","ios":"levelo://app?vid=8d4e15ff-fc6c-455c-bb5c-437a16e3b2d9"},"vehicle_type_id":"4","last_reported":1741270171,"current_range_meters":18800,"station_id":"ce4bgj92rcd13ifvqbd0","pricing_plan_id":"cebpf4jnsgd1na2vs0mg"},{"bike_id":"43d55693-be44-4f7b-870d-2b17a576a397","system_id":"levelo_inurba_marseille","lat":43.26208,"lon":5.37447,"is_reserved":false,"is_disabled":false,"rental_uris":{"android":"levelo://app?vid=43d55693-be44-4f7b-870d-2b17a576a397","ios":"levelo://app?vid=43d55693-be44-4f7b-870d-2b17a576a397"},"vehicle_type_id":"4","last_reported":1741270171,"current_range_meters":18800,"station_id":"ce4bhgp2rcd13ifvqfc0","pricing_plan_id":"cebpf4jnsgd1na2vs0mg"},{"bike_id":"a4aa75d7-d545-4bab-b60f-bc7cc1a9b6bc","system_id":"levelo_inurba_marseille","lat":43.26947,"lon":5.38629,"is_reserved":false,"is_disabled":false,"rental_uris":{"android":"levelo://app?vid=a4aa75d7-d545-4bab-b60f-bc7cc1a9b6bc","ios":"levelo://app?vid=a4aa75d7-d545-4bab-b60f-bc7cc1a9b6bc"},"vehicle_type_id":"4","last_reported":1741270171,"current_range_meters":18800,"station_id":"ce4bhh92rcd13ifvqfh0","pricing_plan_id":"cebpf4jnsgd1na2vs0mg"},{"bike_id":"85ee9588-f81a-4c88-802c-f27bbd0c8743","system_id":"levelo_inurba_marseille","lat":43.24654,"lon":5.38897,"is_reserved":false,"is_disabled":false,"rental_uris":{"android":"levelo://app?vid=85ee9588-f81a-4c88-802c-f27bbd0c8743","ios":"levelo://app?vid=85ee9588-f81a-4c88-802c-f27bbd0c8743"},"vehicle_type_id":"4","last_reported":1741270171,"current_range_meters":18000,"station_id":"ce4bhg12rcd13ifvqf60","pricing_plan_id":"cebpf4jnsgd1na2vs0mg"},{"bike_id":"4ce2d241-bcc9-4c37-b1ef-4046d874123a","system_id":"levelo_inurba_marseille","lat":43.29529,"lon":5.38547,"is_reserved":false,"is_disabled":false,"rental_uris":{"android":"levelo://app?vid=4ce2d241-bcc9-4c37-b1ef-4046d874123a","ios":"levelo://app?vid=4ce2d241-bcc9-4c37-b1ef-4046d874123a"},"vehicle_type_id":"4","last_reported":1741270171,"current_range_meters":19200,"station_id":"ce4bgih2rcd13ifvqba0","pricing_plan_id":"cebpf4jnsgd1na2vs0mg"},{"bike_id":"7a79b030-019a-4618-81d3-5b82c803f46a","system_id":"levelo_inurba_marseille","lat":43.29547,"lon":5.42272,"is_reserved":false,"is_disabled":false,"rental_uris":{"android":"levelo://app?vid=7a79b030-019a-4618-81d3-5b82c803f46a","ios":"levelo://app?vid=7a79b030-019a-4618-81d3-5b82c803f46a"},"vehicle_type_id":"4","last_reported":1741270171,"current_range_meters":19200,"station_id":"ce4bhph2rcd13ifvqhdg","pricing_plan_id":"cebpf4jnsgd1na2vs0mg"},{"bike_id":"fe2a1c26-6de6-44ee-8be0-f51cd2d0b446","system_id":"levelo_inurba_marseille","lat":43.28411,"lon":5.34992,"is_reserved":false,"is_disabled":false,"rental_uris":{"android":"levelo://app?vid=fe2a1c26-6de6-44ee-8be0-f51cd2d0b446","ios":"levelo://app?vid=fe2a1c26-6de6-44ee-8be0-f51cd2d0b446"},"vehicle_type_id":"4","last_reported":1741270171,"current_range_meters":19200,"station_id":"ce4bhbh2rcd13ifvqepg","pricing_plan_id":"cebpf4jnsgd1na2vs0mg"},{"bike_id":"a65182ff-0dee-4759-ab8b-eeb4f816f0e0","system_id":"levelo_inurba_marseille","lat":43.32538,"lon":5.41524,"is_reserved":false,"is_disabled":false,"rental_uris":{"android":"levelo://app?vid=a65182ff-0dee-4759-ab8b-eeb4f816f0e0","ios":"levelo://app?vid=a65182ff-0dee-4759-ab8b-eeb4f816f0e0"},"vehicle_type_id":"4","last_reported":1741270171,"current_range_meters":19200,"station_id":"","pricing_plan_id":"cebpf4jnsgd1na2vs0mg"},{"bike_id":"9f81a8d7-3e2b-4007-9464-c777fd8529ba","system_id":"levelo_inurba_marseille","lat":43.33026,"lon":5.39051,"is_reserved":false,"is_disabled":false,"rental_uris":{"android":"levelo://app?vid=9f81a8d7-3e2b-4007-9464-c777fd8529ba","ios":"levelo://app?vid=9f81a8d7-3e2b-4007-9464-c777fd8529ba"},"vehicle_type_id":"4","last_reported":1741270171,"current_range_meters":19200,"station_id":"ce4bhr92rcd13ifvqhrg","pricing_plan_id":"cebpf4jnsgd1na2vs0mg"},{"bike_id":"cbef79a0-9215-4d9c-af7a-1290faf12d6d","system_id":"levelo_inurba_marseille","lat":43.31696,"lon":5.40471,"is_reserved":false,"is_disabled":false,"rental_uris":{"android":"levelo://app?vid=cbef79a0-9215-4d9c-af7a-1290faf12d6d","ios":"levelo://app?vid=cbef79a0-9215-4d9c-af7a-1290faf12d6d"},"vehicle_type_id":"4","last_reported":1741270171,"current_range_meters":18000,"station_id":"ce4bh012rcd13ifvqd00","pricing_plan_id":"cebpf4jnsgd1na2vs0mg"},{"bike_id":"fe736804-2578-42fd-a04b-772858c93829","system_id":"levelo_inurba_marseille","lat":43.28483,"lon":5.38552,"is_reserved":false,"is_disabled":false,"rental_uris":{"android":"levelo://app?vid=fe736804-2578-42fd-a04b-772858c93829","ios":"levelo://app?vid=fe736804-2578-42fd-a04b-772858c93829"},"vehicle_type_id":"4","last_reported":1741270171,"current_range_meters":19200,"station_id":"ce4bh8p2rcd13ifvqeb0","pricing_plan_id":"cebpf4jnsgd1na2vs0mg"},{"bike_id":"f31c2a5a-1e7c-4df6-9d65-1a6496834185","system_id":"levelo_inurba_marseille","lat":43.26684,"lon":5.38278,"is_reserved":false,"is_disabled":false,"rental_uris":{"android":"levelo://app?vid=f31c2a5a-1e7c-4df6-9d65-1a6496834185","ios":"levelo://app?vid=f31c2a5a-1e7c-4df6-9d65-1a6496834185"},"vehicle_type_id":"4","last_reported":1741270171,"current_range_meters":19200,"station_id":"ce4bhg92rcd13ifvqf90","pricing_plan_id":"cebpf4jnsgd1na2vs0mg"},{"bike_id":"a7f3e889-c3a6-4f50-a104-03a3556dd10a","system_id":"levelo_inurba_marseille","lat":43.27946,"lon":5.41043,"is_reserved":false,"is_disabled":false,"rental_uris":{"android":"levelo://app?vid=a7f3e889-c3a6-4f50-a104-03a3556dd10a","ios":"levelo://app?vid=a7f3e889-c3a6-4f50-a104-03a3556dd10a"},"vehicle_type_id":"4","last_reported":1741270171,"current_range_meters":19200,"station_id":"ce4bhnp2rcd13ifvqh0g","pricing_plan_id":"cebpf4jnsgd1na2vs0mg"},{"bike_id":"3062e565-4c14-4a7b-b700-94831e991b87","system_id":"levelo_inurba_marseille","lat":43.27069,"lon":5.4228,"is_reserved":false,"is_disabled":false,"rental_uris":{"android":"levelo://app?vid=3062e565-4c14-4a7b-b700-94831e991b87","ios":"levelo://app?vid=3062e565-4c14-4a7b-b700-94831e991b87"},"vehicle_type_id":"4","last_reported":1741270171,"current_range_meters":19600,"station_id":"ce4bhk92rcd13ifvqgb0","pricing_plan_id":"cebpf4jnsgd1na2vs0mg"},{"bike_id":"e524bcef-a391-41b2-bad2-673eae53ea51","system_id":"levelo_inurba_marseille","lat":43.3171,"lon":5.43699,"is_reserved":false,"is_disabled":false,"rental_uris":{"android":"levelo://app?vid=e524bcef-a391-41b2-bad2-673eae53ea51","ios":"levelo://app?vid=e524bcef-a391-41b2-bad2-673eae53ea51"},"vehicle_type_id":"4","last_reported":1741270171,"current_range_meters":19600,"station_id":"ce4bhp92rcd13ifvqhcg","pricing_plan_id":"cebpf4jnsgd1na2vs0mg"},{"bike_id":"6b456c2a-d0ea-456c-8562-d6ad0ddd0148","system_id":"levelo_inurba_marseille","lat":43.27072,"lon":5.42282,"is_reserved":false,"is_disabled":false,"rental_uris":{"android":"levelo://app?vid=6b456c2a-d0ea-456c-8562-d6ad0ddd0148","ios":"levelo://app?vid=6b456c2a-d0ea-456c-8562-d6ad0ddd0148"},"vehicle_type_id":"4","last_reported":1741270171,"current_range_meters":20000,"station_id":"ce4bhk92rcd13ifvqgb0","pricing_plan_id":"cebpf4jnsgd1na2vs0mg"},{"bike_id":"53b1defd-cf01-4d05-bdf7-4791c1f3925a","system_id":"levelo_inurba_marseille","lat":43.31703,"lon":5.40434,"is_reserved":false,"is_disabled":false,"rental_uris":{"android":"levelo://app?vid=53b1defd-cf01-4d05-bdf7-4791c1f3925a","ios":"levelo://app?vid=53b1defd-cf01-4d05-bdf7-4791c1f3925a"},"vehicle_type_id":"4","last_reported":1741270171,"current_range_meters":19600,"station_id":"ce4bh012rcd13ifvqd00","pricing_plan_id":"cebpf4jnsgd1na2vs0mg"},{"bike_id":"4068d782-6797-4026-9aff-0d1ac9958dc3","system_id":"levelo_inurba_marseille","lat":43.301063,"lon":5.400759,"is_reserved":false,"is_disabled":false,"rental_uris":{"android":"levelo://app?vid=4068d782-6797-4026-9aff-0d1ac9958dc3","ios":"levelo://app?vid=4068d782-6797-4026-9aff-0d1ac9958dc3"},"vehicle_type_id":"4","last_reported":1741270171,"current_range_meters":19600,"station_id":"","pricing_plan_id":"cebpf4jnsgd1na2vs0mg"},{"bike_id":"622487ed-2d0e-40eb-b7db-b9ef6865058d","system_id":"levelo_inurba_marseille","lat":43.29875,"lon":5.38919,"is_reserved":false,"is_disabled":false,"rental_uris":{"android":"levelo://app?vid=622487ed-2d0e-40eb-b7db-b9ef6865058d","ios":"levelo://app?vid=622487ed-2d0e-40eb-b7db-b9ef6865058d"},"vehicle_type_id":"4","last_reported":1741270171,"current_range_meters":20000,"station_id":"ce4bh392rcd13ifvqdl0","pricing_plan_id":"cebpf4jnsgd1na2vs0mg"},{"bike_id":"eceb8f20-a77b-42ec-9831-dc7c7060d8e2","system_id":"levelo_inurba_marseille","lat":43.30927,"lon":5.4014,"is_reserved":false,"is_disabled":false,"rental_uris":{"android":"levelo://app?vid=eceb8f20-a77b-42ec-9831-dc7c7060d8e2","ios":"levelo://app?vid=eceb8f20-a77b-42ec-9831-dc7c7060d8e2"},"vehicle_type_id":"4","last_reported":1741270171,"current_range_meters":19600,"station_id":"ce4bgvp2rcd13ifvqct0","pricing_plan_id":"cebpf4jnsgd1na2vs0mg"},{"bike_id":"94bb4b42-765a-4dcc-84e5-1e56175a727a","system_id":"levelo_inurba_marseille","lat":43.33793,"lon":5.37448,"is_reserved":false,"is_disabled":false,"rental_uris":{"android":"levelo://app?vid=94bb4b42-765a-4dcc-84e5-1e56175a727a","ios":"levelo://app?vid=94bb4b42-765a-4dcc-84e5-1e56175a727a"},"vehicle_type_id":"4","last_reported":1741270171,"current_range_meters":20000,"station_id":"","pricing_plan_id":"cebpf4jnsgd1na2vs0mg"},{"bike_id":"f32a6f88-147e-4457-80ec-f35f2785fabc","system_id":"levelo_inurba_marseille","lat":43.30887,"lon":5.39647,"is_reserved":false,"is_disabled":false,"rental_uris":{"android":"levelo://app?vid=f32a6f88-147e-4457-80ec-f35f2785fabc","ios":"levelo://app?vid=f32a6f88-147e-4457-80ec-f35f2785fabc"},"vehicle_type_id":"4","last_reported":1741270171,"current_range_meters":20000,"station_id":"ce4bh012rcd13ifvqcv0","pricing_plan_id":"cebpf4jnsgd1na2vs0mg"},{"bike_id":"7f90a204-ba12-4318-8f93-0f61dbb65f55","system_id":"levelo_inurba_marseille","lat":43.28616,"lon":5.35107,"is_reserved":false,"is_disabled":false,"rental_uris":{"android":"levelo://app?vid=7f90a204-ba12-4318-8f93-0f61dbb65f55","ios":"levelo://app?vid=7f90a204-ba12-4318-8f93-0f61dbb65f55"},"vehicle_type_id":"4","last_reported":1741270171,"current_range_meters":20000,"station_id":"ce4bhch2rcd13ifvqeug","pricing_plan_id":"cebpf4jnsgd1na2vs0mg"},{"bike_id":"aa8d24b0-b6f5-4e22-b008-b98ffbe2f868","system_id":"levelo_inurba_marseille","lat":43.2994,"lon":5.36558,"is_reserved":false,"is_disabled":false,"rental_uris":{"android":"levelo://app?vid=aa8d24b0-b6f5-4e22-b008-b98ffbe2f868","ios":"levelo://app?vid=aa8d24b0-b6f5-4e22-b008-b98ffbe2f868"},"vehicle_type_id":"4","last_reported":1741270171,"current_range_meters":20000,"station_id":"ce4bgm92rcd13ifvqbr0","pricing_plan_id":"cebpf4jnsgd1na2vs0mg"},