{"last_updated":1735499159,"ttl":60,"version":"2.2","data":{"bikes":[{"bike_id":"165cdd7b-2529-448e-9c75-c0b1cba85ad1","system_id":"levelo_inurba_marseille","lat":43.29539,"lon":5.38537,"is_reserved":false,"is_disabled":false,"rental_uris":{"android":"levelo://app?vid=165cdd7b-2529-448e-9c75-c0b1cba85ad1","ios":"levelo://app?vid=165cdd7b-2529-448e-9c75-c0b1cba85ad1"},"vehicle_type_id":"4","last_reported":1735499159,"current_range_meters":35600,"station_id":"ce4bgih2rcd13ifvqba0","pricing_plan_id":"cebpf4jnsgd1na2vs0mg"},{"bike_id":"762f8cd0-5247-4557-a388-96f9984a4fbd","system_id":"levelo_inurba_marseille","lat":43.30584,"lon":5.39351,"is_reserved":false,"is_disabled":false,"rental_uris":{"android":"levelo://app?vid=762f8cd0-5247-4557-a388-96f9984a4fbd","ios":"levelo://app?vid=762f8cd0-5247-4557-a388-96f9984a4fbd"},"vehicle_type_id":"4","last_reported":1735499159,"current_range_meters":23200,"station_id":"ce4bh0p2rcd13ifvqd80","pricing_plan_id":"cebpf4jnsgd1na2vs0mg"},{"bike_id":"a3793f4e-de76-4b88-b43c-210bdae1e205","system_id":"levelo_inurba_marseille","lat":43.28756,"lon":5.38571,"is_reserved":false,"is_disabled":false,"rental_uris":{"android":"levelo://app?vid=a3793f4e-de76-4b88-b43c-210bdae1e205","ios":"levelo://app?vid=a3793f4e-de76-4b88-b43c-210bdae1e205"},"vehicle_type_id":"4","last_reported":1735499159,"current_range_meters":9600,"station_id":"","pricing_plan_id":"cebpf4jnsgd1na2vs0mg"},{"bike_id":"5af25717-8ba6-4a01-9c8b-2b037b32eae1","system_id":"levelo_inurba_marseille","lat":43.27421,"lon":5.3942,"is_reserved":false,"is_disabled":false,"rental_uris":{"android":"levelo://app?vid=5af25717-8ba6-4a01-9c8b-2b037b32eae1","ios":"levelo://app?vid=5af25717-8ba6-4a01-9c8b-2b037b32eae1"},"vehicle_type_id":"4","last_reported":1735499159,"current_range_meters":6400,"station_id":"ce4bhdp2rcd13ifvqf20","pricing_plan_id":"cebpf4jnsgd1na2vs0mg"},{"bike_id":"5b638167-1ef1-4432-b33a-08fdb21c9862","system_id":"levelo_inurba_marseille","lat":43.27949,"lon":5.41043,"is_reserved":false,"is_disabled":false,"rental_uris":{"android":"levelo://app?vid=5b638167-1ef1-4432-b33a-08fdb21c9862","ios":"levelo://app?vid=5b638167-1ef1-4432-b33a-08fdb21c9862"},"vehicle_type_id":"4","last_reported":1735499159,"current_range_meters":31200,"station_id":"ce4bhnp2rcd13ifvqh0g","pricing_plan_id":"cebpf4jnsgd1na2vs0mg"},{"bike_id":"4a587697-2a9f-42ac-8bf6-25562233e2a1","system_id":"levelo_inurba_marseille","lat":43.3033,"lon":5.40446,"is_reserved":false,"is_disabled":false,"rental_uris":{"android":"levelo://app?vid=4a587697-2a9f-42ac-8bf6-25562233e2a1","ios":"levelo://app?vid=4a587697-2a9f-42ac-8bf6-25562233e2a1"},"vehicle_type_id":"4","last_reported":1735499159,"current_range_meters":26000,"station_id":"ce4bh012rcd13ifvqd10","pricing_plan_id":"cebpf4jnsgd1na2vs0mg"},{"bike_id":"3991aac2-ec7f-43c8-801f-23e11845f2d6","system_id":"levelo_inurba_marseille","lat":43.28154,"lon":5.42627,"is_reserved":false,"is_disabled":false,"rental_uris":{"android":"levelo://app?vid=3991aac2-ec7f-43c8-801f-23e11845f2d6","ios":"levelo://app?vid=3991aac2-ec7f-43c8-801f-23e11845f2d6"},"vehicle_type_id":"4","last_reported":1735499159,"current_range_meters":38800,"station_id":"ce4bhnh2rcd13ifvqgug","pricing_plan_id":"cebpf4jnsgd1na2vs0mg"},{"bike_id":"bfb71632-0921-4877-825c-d3e953035924","system_id":"levelo_inurba_marseille","lat":43.30782,"lon":5.3765,"is_reserved":false,"is_disabled":false,"rental_uris":{"android":"levelo://app?vid=bfb71632-0921-4877-825c-d3e953035924","ios":"levelo://app?vid=bfb71632-0921-4877-825c-d3e953035924"},"vehicle_type_id":"4","last_reported":1735499159,"current_range_meters":38000,"station_id":"ce4bgv92rcd13ifvqcq0","pricing_plan_id":"cebpf4jnsgd1na2vs0mg"},{"bike_id":"03e6bafc-8218-4612-9dca-578185ae41b4","system_id":"levelo_inurba_marseille","lat":43.29233,"lon":5.36078,"is_reserved":false,"is_disabled":false,"rental_uris":{"android":"levelo://app?vid=03e6bafc-8218-4612-9dca-578185ae41b4","ios":"levelo://app?vid=03e6bafc-8218-4612-9dca-578185ae41b4"},"vehicle_type_id":"4","last_reported":1735499159,"current_range_meters":33200,"station_id":"ce4bhbh2rcd13ifvqeqg","pricing_plan_id":"cebpf4jnsgd1na2vs0mg"},{"bike_id":"1c27e5ae-df55-47e4-a11a-b007af723439","system_id":"levelo_inurba_marseille","lat":43.25583,"lon":5.3824,"is_reserved":false,"is_disabled":false,"rental_uris":{"android":"levelo://app?vid=1c27e5ae-df55-47e4-a11a-b007af723439","ios":"levelo://app?vid=1c27e5ae-df55-47e4-a11a-b007af723439"},"vehicle_type_id":"4","last_reported":1735499159,"current_range_meters":10800,"station_id":"ce4bhih2rcd13ifvqfs0","pricing_plan_id":"cebpf4jnsgd1na2vs0mg"},{"bike_id":"b74a63ef-de2c-467a-b13d-21a8ed4eabe8","system_id":"levelo_inurba_marseille","lat":43.28035,"lon":5.36945,"is_reserved":false,"is_disabled":false,"rental_uris":{"android":"levelo://app?vid=b74a63ef-de2c-467a-b13d-21a8ed4eabe8","ios":"levelo://app?vid=b74a63ef-de2c-467a-b13d-21a8ed4eabe8"},"vehicle_type_id":"4","last_reported":1735499159,"current_range_meters":14400,"station_id":"ce4bha12rcd13ifvqef0","pricing_plan_id":"cebpf4jnsgd1na2vs0mg"},{"bike_id":"3b3d2c75-4195-4f81-af35-afa13ebc8eea","system_id":"levelo_inurba_marseille","lat":43.27378,"lon":5.36249,"is_reserved":false,"is_disabled":true,"rental_uris":{"android":"levelo://app?vid=3b3d2c75-4195-4f81-af35-afa13ebc8eea","ios":"levelo://app?vid=3b3d2c75-4195-4f81-af35-afa13ebc8eea"},"vehicle_type_id":"4","last_reported":1735499159,"current_range_meters":26000,"station_id":"ce4bhbh2rcd13ifvqeo0","pricing_plan_id":"cebpf4jnsgd1na2vs0mg"},{"bike_id":"a1a5f3fe-7f90-4223-b04a-63f973fe01fd","system_id":"levelo_inurba_marseille","lat":43.24045,"lon":5.37734,"is_reserved":false,"is_disabled":false,"rental_uris":{"android":"levelo://app?vid=a1a5f3fe-7f90-4223-b04a-63f973fe01fd","ios":"levelo://app?vid=a1a5f3fe-7f90-4223-b04a-63f973fe01fd"},"vehicle_type_id":"4","last_reported":1735499159,"current_range_meters":16800,"station_id":"ce4bhnp2rcd13ifvqgvg","pricing_plan_id":"cebpf4jnsgd1na2vs0mg"},{"bike_id":"ecf0e1df-bdc6-4c78-ae54-45aa3b911979","system_id":"levelo_inurba_marseille","lat":43.29072,"lon":5.37188,"is_reserved":false,"is_disabled":false,"rental_uris":{"android":"levelo://app?vid=ecf0e1df-bdc6-4c78-ae54-45aa3b911979","ios":"levelo://app?vid=ecf0e1df-bdc6-4c78-ae54-45aa3b911979"},"vehicle_type_id":"4","last_reported":1735499159,"current_range_meters":27600,"station_id":"ce4bh5p2rcd13ifvqe4g","pricing_plan_id":"cebpf4jnsgd1na2vs0mg"},{"bike_id":"99c6b87a-843d-4eac-96f7-03bb3144a23d","system_id":"levelo_inurba_marseille","lat":43.23194,"lon":5.35554,"is_reserved":false,"is_disabled":false,"rental_uris":{"android":"levelo://app?vid=99c6b87a-843d-4eac-96f7-03bb3144a23d","ios":"levelo://app?vid=99c6b87a-843d-4eac-96f7-03bb3144a23d"},"vehicle_type_id":"4","last_reported":1735499159,"current_range_meters":14400,"station_id":"ce4bhu92rcd13ifvqi70","pricing_plan_id":"cebpf4jnsgd1na2vs0mg"},{"bike_id":"4a19b747-9ad3-4c70-a28f-5d0cc9e5a615","system_id":"levelo_inurba_marseille","lat":43.28848,"lon":5.35851,"is_reserved":false,"is_disabled":false,"rental_uris":{"android":"levelo://app?vid=4a19b747-9ad3-4c70-a28f-5d0cc9e5a615","ios":"levelo://app?vid=4a19b747-9ad3-4c70-a28f-5d0cc9e5a615"},"vehicle_type_id":"4","last_reported":1735499159,"current_range_meters":17600,"station_id":"ce4bhb12rcd13ifvqem0","pricing_plan_id":"cebpf4jnsgd1na2vs0mg"},{"bike_id":"bb7ba38a-7f5f-4f4b-91ca-64dbf75baab1","system_id":"levelo_inurba_marseille","lat":43.30929,"lon":5.40154,"is_reserved":false,"is_disabled":false,"rental_uris":{"android":"levelo://app?vid=bb7ba38a-7f5f-4f4b-91ca-64dbf75baab1","ios":"levelo://app?vid=bb7ba38a-7f5f-4f4b-91ca-64dbf75baab1"},"vehicle_type_id":"4","last_reported":1735499159,"current_range_meters":27200,"station_id":"ce4bgvp2rcd13ifvqct0","pricing_plan_id":"cebpf4jnsgd1na2vs0mg"},{"bike_id":"bbf509d3-d0d2-4376-b43d-ddcdf50db3b4","system_id":"levelo_inurba_marseille","lat":43.29522,"lon":5.39048,"is_reserved":false,"is_disabled":false,"rental_uris":{"android":"levelo://app?vid=bbf509d3-d0d2-4376-b43d-ddcdf50db3b4","ios":"levelo://app?vid=bbf509d3-d0d2-4376-b43d-ddcdf50db3b4"},"vehicle_type_id":"4","last_reported":1735499159,"current_range_meters":38800,"station_id":"ce4bh3p2rcd13ifvqdp0","pricing_plan_id":"cebpf4jnsgd1na2vs0mg"},{"bike_id":"868a89d7-7c44-478d-96e8-8fa0023480b8","system_id":"levelo_inurba_marseille","lat":43.29247,"lon":5.3839,"is_reserved":false,"is_disabled":false,"rental_uris":{"android":"levelo://app?vid=868a89d7-7c44-478d-96e8-8fa0023480b8","ios":"levelo://app?vid=868a89d7-7c44-478d-96e8-8fa0023480b8"},"vehicle_type_id":"4","last_reported":1735499159,"current_range_meters":16400,"station_id":"cki0cbj6b192h4jlfktg","pricing_plan_id":"cebpf4jnsgd1na2vs0mg"},{"bike_id":"1c085eb0-a838-474b-8463-2fa9b3ca6bc7","system_id":"levelo_inurba_marseille","lat":43.30092,"lon":5.3909,"is_reserved":false,"is_disabled":false,"rental_uris":{"android":"levelo://app?vid=1c085eb0-a838-474b-8463-2fa9b3ca6bc7","ios":"levelo://app?vid=1c085eb0-a838-474b-8463-2fa9b3ca6bc7"},"vehicle_type_id":"4","last_reported":1735499159,"current_range_meters":37600,"station_id":"ce4bh192rcd13ifvqdb0","pricing_plan_id":"cebpf4jnsgd1na2vs0mg"},{"bike_id":"9a503b4a-6ab1-4b37-b592-79eca06f8ee8","system_id":"levelo_inurba_marseille","lat":43.29077,"lon":5.37182,"is_reserved":false,"is_disabled":false,"rental_uris":{"android":"levelo://app?vid=9a503b4a-6ab1-4b37-b592-79eca06f8ee8","ios":"levelo://app?vid=9a503b4a-6ab1-4b37-b592-79eca06f8ee8"},"vehicle_type_id":"4","last_reported":1735499159,"current_range_meters":38800,"station_id":"ce4bh5p2rcd13ifvqe4g","pricing_plan_id":"cebpf4jnsgd1na2vs0mg"},{"bike_id":"857344dd-6be1-4d34-90e7-6f62afbbef2e","system_id":"levelo_inurba_marseille","lat":43.32109,"lon":5.36769,"is_reserved":false,"is_disabled":false,"rental_uris":{"android":"levelo://app?vid=857344dd-6be1-4d34-90e7-6f62afbbef2e","ios":"levelo://app?vid=857344dd-6be1-4d34-90e7-6f62afbbef2e"},"vehicle_type_id":"4","last_reported":1735499159,"current_range_meters":27600,"station_id":"ce4bhrh2rcd13ifvqhug","pricing_plan_id":"cebpf4jnsgd1na2vs0mg"},{"bike_id":"f72bcf9d-a5e7-43a8-8f8f-cc80fe217a5e","system_id":"levelo_inurba_marseille","lat":43.29079,"lon":5.37156,"is_reserved":false,"is_disabled":false,"rental_uris":{"android":"levelo://app?vid=f72bcf9d-a5e7-43a8-8f8f-cc80fe217a5e","ios":"levelo://app?vid=f72bcf9d-a5e7-43a8-8f8f-cc80fe217a5e"},"vehicle_type_id":"4","last_reported":1735499159,"current_range_meters":9200,"station_id":"ce4bh5p2rcd13ifvqe4g","pricing_plan_id":"cebpf4jnsgd1na2vs0mg"},{"bike_id":"a2908599-b253-4069-b7e7-2a8f33214fc4","system_id":"levelo_inurba_marseille","lat":43.29719,"lon":5.36613,"is_reserved":false,"is_disabled":false,"rental_uris":{"android":"levelo://app?vid=a2908599-b253-4069-b7e7-2a8f33214fc4","ios":"levelo://app?vid=a2908599-b253-4069-b7e7-2a8f33214fc4"},"vehicle_type_id":"4","last_reported":1735499159,"current_range_meters":16800,"station_id":"ce4bgn12rcd13ifvqbt0","pricing_plan_id":"cebpf4jnsgd1na2vs0mg"},{"bike_id":"791805a4-5015-47f5-8bb1-ef1b970db458","system_id":"levelo_inurba_marseille","lat":43.29971,"lon":5.37177,"is_reserved":false,"is_disabled":false,"rental_uris":{"android":"levelo://app?vid=791805a4-5015-47f5-8bb1-ef1b970db458","ios":"levelo://app?vid=791805a4-5015-47f5-8bb1-ef1b970db458"},"vehicle_type_id":"4","last_reported":1735499159,"current_range_meters":28000,"station_id":"ce4bgr92rcd13ifvqc7g","pricing_plan_id":"cebpf4jnsgd1na2vs0mg"},{"bike_id":"c38becf3-9c4b-494c-915f-7784b11d7666","system_id":"levelo_inurba_marseille","lat":43.25284,"lon":5.39948,"is_reserved":false,"is_disabled":false,"rental_uris":{"android":"levelo://app?vid=c38becf3-9c4b-494c-915f-7784b11d7666","ios":"levelo://app?vid=c38becf3-9c4b-494c-915f-7784b11d7666"},"vehicle_type_id":"4","last_reported":1735499159,"current_range_meters":27600,"station_id":"","pricing_plan_id":"cebpf4jnsgd1na2vs0mg"},{"bike_id":"7b9bf2a8-b76d-4924-b0cf-29f18adcab67","system_id":"levelo_inurba_marseille","lat":43.29568,"lon":5.37517,"is_reserved":false,"is_disabled":false,"rental_uris":{"android":"levelo://app?vid=7b9bf2a8-b76d-4924-b0cf-29f18adcab67","ios":"levelo://app?vid=7b9bf2a8-b76d-4924-b0cf-29f18adcab67"},"vehicle_type_id":"4","last_reported":1735499159,"current_range_meters":15200,"station_id":"ce4bgh92rcd13ifvqb50","pricing_plan_id":"cebpf4jnsgd1na2vs0mg"},{"bike_id":"b4d130c6-4fa7-4fa3-83b8-3ae416781279","system_id":"levelo_inurba_marseille","lat":43.27443,"lon":5.39282,"is_reserved":false,"is_disabled":false,"rental_uris":{"android":"levelo://app?vid=b4d130c6-4fa7-4fa3-83b8-3ae416781279","ios":"levelo://app?vid=b4d130c6-4fa7-4fa3-83b8-3ae416781279"},"vehicle_type_id":"4","last_reported":1735499159,"current_range_meters":14400,"station_id":"","pricing_plan_id":"cebpf4jnsgd1na2vs0mg"},{"bike_id":"faf79fff-d49d-466c-be91-734b6fcae91b","system_id":"levelo_inurba_marseille","lat":43.25017,"lon":5.38969,"is_reserved":false,"is_disabled":false,"rental_uris":{"android":"levelo://app?vid=faf79fff-d49d-466c-be91-734b6fcae91b","ios":"levelo://app?vid=faf79fff-d49d-466c-be91-734b6fcae91b"},"vehicle_type_id":"4","last_reported":1735499159,"current_range_meters":10800,"station_id":"ce4bhgp2rcd13ifvqfd0","pricing_plan_id":"cebpf4jnsgd1na2vs0mg"},{"bike_id":"ff49d49a-53c3-499a-b296-89a67f332a8a","system_id":"levelo_inurba_marseille","lat":43.24153,"lon":5.36418,"is_reserved":false,"is_disabled":false,"rental_uris":{"android":"levelo://app?vid=ff49d49a-53c3-499a-b296-89a67f332a8a","ios":"levelo://app?vid=ff49d49a-53c3-499a-b296-89a67f332a8a"},"vehicle_type_id":"4","last_reported":1735499159,"current_range_meters":12800,"station_id":"cpo36qri1sfpv3e86is0","pricing_plan_id":"cebpf4jnsgd1na2vs0mg"},{"bike_id":"b7270f7e-efcc-44fd-b740-29e900502759","system_id":"levelo_inurba_marseille","lat":43.29233,"lon":5.38453,"is_reserved":false,"is_disabled":false,"rental_uris":{"android":"levelo://app?vid=b7270f7e-efcc-44fd-b740-29e900502759","ios":"levelo://app?vid=b7270f7e-efcc-44fd-b740-29e900502759"},"vehicle_type_id":"4","last_reported":1735499159,"current_range_meters":39200,"station_id":"ce4bh692rcd13ifvqea0","pricing_plan_id":"cebpf4jnsgd1na2vs0mg"},{"bike_id":"e0f18b20-a6d5-4c71-a99c-2f6fb63ca56a","system_id":"levelo_inurba_marseille","lat":43.26023,"lon":5.37547,"is_reserved":false,"is_disabled":false,"rental_uris":{"android":"levelo://app?vid=e0f18b20-a6d5-4c71-a99c-2f6fb63ca56a","ios":"levelo://app?vid=e0f18b20-a6d5-4c71-a99c-2f6fb63ca56a"},"vehicle_type_id":"4","last_reported":1735499159,"current_range_meters":36800,"station_id":"ce4bhgh2rcd13ifvqfa0","pricing_plan_id":"cebpf4jnsgd1na2vs0mg"},{"bike_id":"753fe1a2-6ec1-4d51-9513-13144401ea46","system_id":"levelo_inurba_marseille","lat":43.29165,"lon":5.37149,"is_reserved":false,"is_disabled":false,"rental_uris":{"android":"levelo://app?vid=753fe1a2-6ec1-4d51-9513-13144401ea46","ios":"levelo://app?vid=753fe1a2-6ec1-4d51-9513-13144401ea46"},"vehicle_type_id":"4","last_reported":1735499159,"current_range_meters":28800,"station_id":"ce4bha92rcd13ifvqeh0","pricing_plan_id":"cebpf4jnsgd1na2vs0mg"},{"bike_id":"b499cbbc-a3fc-4e01-a04d-7c1114c63ec5","system_id":"levelo_inurba_marseille","lat":43.28687,"lon":5.38672,"is_reserved":false,"is_disabled":false,"rental_uris":{"android":"levelo://app?vid=b499cbbc-a3fc-4e01-a04d-7c1114c63ec5","ios":"levelo://app?vid=b499cbbc-a3fc-4e01-a04d-7c1114c63ec5"},"vehicle_type_id":"4","last_reported":1735499159,"current_range_meters":35600,"station_id":"ce4bh492rcd13ifvqdug","pricing_plan_id":"cebpf4jnsgd1na2vs0mg"},{"bike_id":"e103866f-14c7-4ded-8376-d3a94f2c98c3","system_id":"levelo_inurba_marseille","lat":43.31707,"lon":5.43694,"is_reserved":false,"is_disabled":true,"rental_uris":{"android":"levelo://app?vid=e103866f-14c7-4ded-8376-d3a94f2c98c3","ios":"levelo://app?vid=e103866f-14c7-4ded-8376-d3a94f2c98c3"},"vehicle_type_id":"4","last_reported":1735499159,"current_range_meters":22800,"station_id":"ce4bhp92rcd13ifvqhcg","pricing_plan_id":"cebpf4jnsgd1na2vs0mg"},{"bike_id":"92ac6347-8dd4-4c7e-a4d0-6e7f04311c47","system_id":"levelo_inurba_marseille","lat":43.29678,"lon":5.38066,"is_reserved":false,"is_disabled":false,"rental_uris":{"android":"levelo://app?vid=92ac6347-8dd4-4c7e-a4d0-6e7f04311c47","ios":"levelo://app?vid=92ac6347-8dd4-4c7e-a4d0-6e7f04311c47"},"vehicle_type_id":"4","last_reported":1735499159,"current_range_meters":36800,"station_id":"ce4bgl12rcd13ifvqbo0","pricing_plan_id":"cebpf4jnsgd1na2vs0mg"},{"bike_id":"940dd016-68b5-4f1d-a1ee-5c7ee555f38b","system_id":"levelo_inurba_marseille","lat":43.26787,"lon":5.39408,"is_reserved":false,"is_disabled":false,"rental_uris":{"android":"levelo://app?vid=940dd016-68b5-4f1d-a1ee-5c7ee555f38b","ios":"levelo://app?vid=940dd016-68b5-4f1d-a1ee-5c7ee555f38b"},"vehicle_type_id":"4","last_reported":1735499159,"current_range_meters":22800,"station_id":"ce4bhh12rcd13ifvqfg0","pricing_plan_id":"cebpf4jnsgd1na2vs0mg"},{"bike_id":"7c78c533-ca3a-4ac5-ad8b-e1c0befcd7b8","system_id":"levelo_inurba_marseille","lat":43.25081,"lon":5.39507,"is_reserved":false,"is_disabled":false,"rental_uris":{"android":"levelo://app?vid=7c78c533-ca3a-4ac5-ad8b-e1c0befcd7b8","ios":"levelo://app?vid=7c78c533-ca3a-4ac5-ad8b-e1c0befcd7b8"},"vehicle_type_id":"4","last_reported":1735499159,"current_range_meters":35600,"station_id":"ce4bhm12rcd13ifvqgkg","pricing_plan_id":"cebpf4jnsgd1na2vs0mg"},{"bike_id":"2250d420-576a-4546-b27b-df90a1274fdf","system_id":"levelo_inurba_marseille","lat":43.2961,"lon":5.37723,"is_reserved":false,"is_disabled":false,"rental_uris":{"android":"levelo://app?vid=2250d420-576a-4546-b27b-df90a1274fdf","ios":"levelo://app?vid=2250d420-576a-4546-b27b-df90a1274fdf"},"vehicle_type_id":"4","last_reported":1735499159,"current_range_meters":38800,"station_id":"ce4bgi92rcd13ifvqb90","pricing_plan_id":"cebpf4jnsgd1na2vs0mg"},{"bike_id":"13f84696-4405-43e0-b0f5-1a61d67abe32","system_id":"levelo_inurba_marseille","lat":43.2785,"lon":5.392,"is_reserved":false,"is_disabled":false,"rental_uris":{"android":"levelo://app?vid=13f84696-4405-43e0-b0f5-1a61d67abe32","ios":"levelo://app?vid=13f84696-4405-43e0-b0f5-1a61d67abe32"},"vehicle_type_id":"4","last_reported":1735499159,"current_range_meters":23200,"station_id":"ce4bhjp2rcd13ifvqga0","pricing_plan_id":"cebpf4jnsgd1na2vs0mg"},{"bike_id":"0329d095-85d3-4efe-94e1-c9f1165af9e0","system_id":"levelo_inurba_marseille","lat":43.30271,"lon":5.40085,"is_reserved":false,"is_disabled":false,"rental_uris":{"android":"levelo://app?vid=0329d095-85d3-4efe-94e1-c9f1165af9e0","ios":"levelo://app?vid=0329d095-85d3-4efe-94e1-c9f1165af9e0"},"vehicle_type_id":"4","last_reported":1735499159,"current_range_meters":10000,"station_id":"ce4bgvh2rcd13ifvqcs0","pricing_plan_id":"cebpf4jnsgd1na2vs0mg"},{"bike_id":"caab34a4-5264-4b72-a12f-e55159fe93b6","system_id":"levelo_inurba_marseille","lat":43.27079,"lon":5.42254,"is_reserved":false,"is_disabled":false,"rental_uris":{"android":"levelo://app?vid=caab34a4-5264-4b72-a12f-e55159fe93b6","ios":"levelo://app?vid=caab34a4-5264-4b72-a12f-e55159fe93b6"},"vehicle_type_id":"4","last_reported":1735499159,"current_range_meters":24000,"station_id":"ce4bhk92rcd13ifvqgb0","pricing_plan_id":"cebpf4jnsgd1na2vs0mg"},{"bike_id":"e28936d1-deab-45e5-b02d-5934b2fa2a26","system_id":"levelo_inurba_marseille","lat":43.24563,"lon":5.39526,"is_reserved":false,"is_disabled":true,"rental_uris":{"android":"levelo://app?vid=e28936d1-deab-45e5-b02d-5934b2fa2a26","ios":"levelo://app?vid=e28936d1-deab-45e5-b02d-5934b2fa2a26"},"vehicle_type_id":"4","last_reported":1735499159,"current_range_meters":8400,"station_id":"ce4bhlp2rcd13ifvqgjg","pricing_plan_id":"cebpf4jnsgd1na2vs0mg"},{"bike_id":"68071365-6693-471a-8bf9-0f6efd75ecd6","system_id":"levelo_inurba_marseille","lat":43.29197,"lon":5.39319,"is_reserved":false,"is_disabled":false,"rental_uris":{"android":"levelo://app?vid=68071365-6693-471a-8bf9-0f6efd75ecd6","ios":"levelo://app?vid=68071365-6693-471a-8bf9-0f6efd75ecd6"},"vehicle_type_id":"4","last_reported":1735499159,"current_range_meters":18000,"station_id":"ce4bh192rcd13ifvqdd0","pricing_plan_id":"cebpf4jnsgd1na2vs0mg"},{"bike_id":"282e923e-ac5d-40e2-a3bb-abd81b562ee0","system_id":"levelo_inurba_marseille","lat":43.28152,"lon":5.42639,"is_reserved":false,"is_disabled":false,"rental_uris":{"android":"levelo://app?vid=282e923e-ac5d-40e2-a3bb-abd81b562ee0","ios":"levelo://app?vid=282e923e-ac5d-40e2-a3bb-abd81b562ee0"},"vehicle_type_id":"4","last_reported":1735499159,"current_range_meters":28000,"station_id":"ce4bhnh2rcd13ifvqgug","pricing_plan_id":"cebpf4jnsgd1na2vs0mg"},{"bike_id":"2eaf5aab-e12e-4e93-a20d-88a34894165c","system_id":"levelo_inurba_marseille","lat":43.28468,"lon":5.35884,"is_reserved":false,"is_disabled":true,"rental_uris":{"android":"levelo://app?vid=2eaf5aab-e12e-4e93-a20d-88a34894165c","ios":"levelo://app?vid=2eaf5aab-e12e-4e93-a20d-88a34894165c"},"vehicle_type_id":"4","last_reported":1735499159,"current_range_meters":0,"station_id":"ce4bhah2rcd13ifvqei0","pricing_plan_id":"cebpf4jnsgd1na2vs0mg"},{"bike_id":"baf79831-1c1b-477f-b0d7-98eea0e95cc5","system_id":"levelo_inurba_marseille","lat":43.29536,"lon":5.38529,"is_reserved":false,"is_disabled":false,"rental_uris":{"android":"levelo://app?vid=baf79831-1c1b-477f-b0d7-98eea0e95cc5","ios":"levelo://app?vid=baf79831-1c1b-477f-b0d7-98eea0e95cc5"},"vehicle_type_id":"4","last_reported":1735499159,"current_range_meters":10800,"station_id":"ce4bgih2rcd13ifvqba0","pricing_plan_id":"cebpf4jnsgd1na2vs0mg"},{"bike_id":"d8e15cb7-f332-47a1-86c8-d28da7833ff4","system_id":"levelo_inurba_marseille","lat":43.30891,"lon":5.3721,"is_reserved":false,"is_disabled":true,"rental_uris":{"android":"levelo://app?vid=d8e15cb7-f332-47a1-86c8-d28da7833ff4","ios":"levelo://app?vid=d8e15cb7-f332-47a1-86c8-d28da7833ff4"},"vehicle_type_id":"4","last_reported":1735499159,"current_range_meters":13600,"station_id":"ce4bguh2rcd13ifvqckg","pricing_plan_id":"cebpf4jnsgd1na2vs0mg"},{"bike_id":"e46e6ee3-d847-41d4-a74b-f47432fcce8f","system_id":"levelo_inurba_marseille","lat":43.29034,"lon":5.37565,"is_reserved":false,"is_disabled":false,"rental_uris":{"android":"levelo://app?vid=e46e6ee3-d847-41d4-a74b-f47432fcce8f","ios":"levelo://app?vid=e46e6ee3-d847-41d4-a74b-f47432fcce8f"},"vehicle_type_id":"4","last_reported":1735499159,"current_range_meters":32400,"station_id":"ce4bh692rcd13ifvqe90","pricing_plan_id":"cebpf4jnsgd1na2vs0mg"},{"bike_id":"40751c83-44df-4b84-9574-7f225ea60506","system_id":"levelo_inurba_marseille","lat":43.31115,"lon":5.377682,"is_reserved":false,"is_disabled":false,"rental_uris":{"android":"levelo://app?vid=40751c83-44df-4b84-9574-7f225ea60506","ios":"levelo://app?vid=40751c83-44df-4b84-9574-7f225ea60506"},"vehicle_type_id":"4","last_reported":1735499159,"current_range_meters":24400,"station_id":"ce4bgt92rcd13ifvqcg0","pricing_plan_id":"cebpf4jnsgd1na2vs0mg"},{"bike_id":"3e8e5b80-8e9d-4b59-bf4e-80386a1b0e52","system_id":"levelo_inurba_marseille","lat":43.28276,"lon":5.35054,"is_reserved":false,"is_disabled":false,"rental_uris":{"android":"levelo://app?vid=3e8e5b80-8e9d-4b59-bf4e-80386a1b0e52","ios":"levelo://app?vid=3e8e5b80-8e9d-4b59-bf4e-80386a1b0e52"},"vehicle_type_id":"4","last_reported":1735499159,"current_range_meters":38400,"station_id":"ce4bhbp2rcd13ifvqerg","pricing_plan_id":"cebpf4jnsgd1na2vs0mg"},{"bike_id":"5d9a1d03-e1f6-4d8a-be37-f6044ad3c3a4","system_id":"levelo_inurba_marseille","lat":43.28868,"lon":5.35858,"is_reserved":false,"is_disabled":false,"rental_uris":{"android":"levelo://app?vid=5d9a1d03-e1f6-4d8a-be37-f6044ad3c3a4","ios":"levelo://app?vid=5d9a1d03-e1f6-4d8a-be37-f6044ad3c3a4"},"vehicle_type_id":"4","last_reported":1735499159,"current_range_meters":20000,"station_id":"ce4bhb12rcd13ifvqem0","pricing_plan_id":"cebpf4jnsgd1na2vs0mg"},{"bike_id":"ac0d2b0c-59a0-4393-8aab-55a8e9b1870d","system_id":"levelo_inurba_marseille","lat":43.28363,"lon":5.38637,"is_reserved":false,"is_disabled":false,"rental_uris":{"android":"levelo://app?vid=ac0d2b0c-59a0-4393-8aab-55a8e9b1870d","ios":"levelo://app?vid=ac0d2b0c-59a0-4393-8aab-55a8e9b1870d"},"vehicle_type_id":"4","last_reported":1735499159,"current_range_meters":10800,"station_id":"ce4bh492rcd13ifvqdvg","pricing_plan_id":"cebpf4jnsgd1na2vs0mg"},{"bike_id":"d225e49f-de10-470b-90af-648b3c15cce7","system_id":"levelo_inurba_marseille","lat":43.25755,"lon":5.41072,"is_reserved":false,"is_disabled":false,"rental_uris":{"android":"levelo://app?vid=d225e49f-de10-470b-90af-648b3c15cce7","ios":"levelo://app?vid=d225e49f-de10-470b-90af-648b3c15cce7"},"vehicle_type_id":"4","last_reported":1735499159,"current_range_meters":38400,"station_id":"ce4bhkp2rcd13ifvqgd0","pricing_plan_id":"cebpf4jnsgd1na2vs0mg"},{"bike_id":"2ad96645-53b8-4b57-b8b9-898b5d0758ec","system_id":"levelo_inurba_marseille","lat":43.273335,"lon":5.362704,"is_reserved":false,"is_disabled":false,"rental_uris":{"android":"levelo://app?vid=2ad96645-53b8-4b57-b8b9-898b5d0758ec","ios":"levelo://app?vid=2ad96645-53b8-4b57-b8b9-898b5d0758ec"},"vehicle_type_id":"4","last_reported":1735499159,"current_range_meters":23200,"station_id":"ce4bhbh2rcd13ifvqeo0","pricing_plan_id":"cebpf4jnsgd1na2vs0mg"},{"bike_id":"8499c959-998d-4486-a511-9d65f0b01fae","system_id":"levelo_inurba_marseille","lat":43.2573,"lon":5.41102,"is_reserved":false,"is_disabled":false,"rental_uris":{"android":"levelo://app?vid=8499c959-998d-4486-a511-9d65f0b01fae","ios":"levelo://app?vid=8499c959-998d-4486-a511-9d65f0b01fae"},"vehicle_type_id":"4","last_reported":1735499159,"current_range_meters":35200,"station_id":"ce4bhkp2rcd13ifvqgd0","pricing_plan_id":"cebpf4jnsgd1na2vs0mg"},{"bike_id":"c01c55d7-98fa-4e98-812c-532f93510a65","system_id":"levelo_inurba_marseille","lat":43.29788,"lon":5.38115,"is_reserved":false,"is_disabled":false,"rental_uris":{"android":"levelo://app?vid=c01c55d7-98fa-4e98-812c-532f93510a65","ios":"levelo://app?vid=c01c55d7-98fa-4e98-812c-532f93510a65"},"vehicle_type_id":"4","last_reported":1735499159,"current_range_meters":10800,"station_id":"ce4bgip2rcd13ifvqbb0","pricing_plan_id":"cebpf4jnsgd1na2vs0mg"},{"bike_id":"158e017f-4a76-4ad7-a5e3-1ca7daceabea","system_id":"levelo_inurba_marseille","lat":43.27491,"lon":5.42446,"is_reserved":false,"is_disabled":false,"rental_uris":{"android":"levelo://app?vid=158e017f-4a76-4ad7-a5e3-1ca7daceabea","ios":"levelo://app?vid=158e017f-4a76-4ad7-a5e3-1ca7daceabea"},"vehicle_type_id":"4","last_reported":1735499159,"current_range_meters":16000,"station_id":"ce4bhn92rcd13ifvqgrg","pricing_plan_id":"cebpf4jnsgd1na2vs0mg"},{"bike_id":"d6144803-d96b-4980-90a1-d59f6d11564c","system_id":"levelo_inurba_marseille","lat":43.28152,"lon":5.42641,"is_reserved":false,"is_disabled":false,"rental_uris":{"android":"levelo://app?vid=d6144803-d96b-4980-90a1-d59f6d11564c","ios":"levelo://app?vid=d6144803-d96b-4980-90a1-d59f6d11564c"},"vehicle_type_id":"4","last_reported":1735499159,"current_range_meters":38400,"station_id":"ce4bhnh2rcd13ifvqgug","pricing_plan_id":"cebpf4jnsgd1na2vs0mg"},{"bike_id":"3d0f1c62-792d-4663-a675-38453b68e6d5","system_id":"levelo_inurba_marseille","lat":43.30304,"lon":5.39197,"is_reserved":false,"is_disabled":false,"rental_uris":{"android":"levelo://app?vid=3d0f1c62-792d-4663-a675-38453b68e6d5","ios":"levelo://app?vid=3d0f1c62-792d-4663-a675-38453b68e6d5"},"vehicle_type_id":"4","last_reported":1735499159,"current_range_meters":23200,"station_id":"ce4bgkh2rcd13ifvqbk0","pricing_plan_id":"cebpf4jnsgd1na2vs0mg"},{"bike_id":"74acaa5f-ba0d-4364-9dc6-fe430ef5f4f0","system_id":"levelo_inurba_marseille","lat":43.24804,"lon":5.37456,"is_reserved":false,"is_disabled":false,"rental_uris":{"android":"levelo://app?vid=74acaa5f-ba0d-4364-9dc6-fe430ef5f4f0","ios":"levelo://app?vid=74acaa5f-ba0d-4364-9dc6-fe430ef5f4f0"},"vehicle_type_id":"4","last_reported":1735499159,"current_range_meters":33200,"station_id":"ce4bhgh2rcd13ifvqfb0","pricing_plan_id":"cebpf4jnsgd1na2vs0mg"},{"bike_id":"1c391f8c-66d8-41d3-94a9-68053d0aae93","system_id":"levelo_inurba_marseille","lat":43.26064,"lon":5.39394,"is_reserved":false,"is_disabled":false,"rental_uris":{"android":"levelo://app?vid=1c391f8c-66d8-41d3-94a9-68053d0aae93","ios":"levelo://app?vid=1c391f8c-66d8-41d3-94a9-68053d0aae93"},"vehicle_type_id":"4","last_reported":1735499159,"current_range_meters":14400,"station_id":"ce4bhh92rcd13ifvqfj0","pricing_plan_id":"cebpf4jnsgd1na2vs0mg"},{"bike_id":"a8e7d48d-7fa4-4853-895c-22e26fde92bf","system_id":"levelo_inurba_marseille","lat":43.3081,"lon":5.4352,"is_reserved":false,"is_disabled":false,"rental_uris":{"android":"levelo://app?vid=a8e7d48d-7fa4-4853-895c-22e26fde92bf","ios":"levelo://app?vid=a8e7d48d-7fa4-4853-895c-22e26fde92bf"},"vehicle_type_id":"4","last_reported":1735499159,"current_range_meters":12000,"station_id":"ce4bhph2rcd13ifvqheg","pricing_plan_id":"cebpf4jnsgd1na2vs0mg"},{"bike_id":"eda45388-92d0-4a58-91c9-693d11916522","system_id":"levelo_inurba_marseille","lat":43.28077,"lon":5.39654,"is_reserved":false,"is_disabled":false,"rental_uris":{"android":"levelo://app?vid=eda45388-92d0-4a58-91c9-693d11916522","ios":"levelo://app?vid=eda45388-92d0-4a58-91c9-693d11916522"},"vehicle_type_id":"4","last_reported":1735499159,"current_range_meters":37600,"station_id":"ce4bho12rcd13ifvqh2g","pricing_plan_id":"cebpf4jnsgd1na2vs0mg"},{"bike_id":"ea5f7699-af81-4ced-bb43-4fdb79de8421","system_id":"levelo_inurba_marseille","lat":43.24815,"lon":5.37448,"is_reserved":false,"is_disabled":false,"rental_uris":{"android":"levelo://app?vid=ea5f7699-af81-4ced-bb43-4fdb79de8421","ios":"levelo://app?vid=ea5f7699-af81-4ced-bb43-4fdb79de8421"},"vehicle_type_id":"4","last_reported":1735499159,"current_range_meters":38800,"station_id":"ce4bhgh2rcd13ifvqfb0","pricing_plan_id":"cebpf4jnsgd1na2vs0mg"},{"bike_id":"dbe4486f-8c86-42c2-a5c3-689a811de8a5","system_id":"levelo_inurba_marseille","lat":43.28478,"lon":5.38411,"is_reserved":false,"is_disabled":false,"rental_uris":{"android":"levelo://app?vid=dbe4486f-8c86-42c2-a5c3-689a811de8a5","ios":"levelo://app?vid=dbe4486f-8c86-42c2-a5c3-689a811de8a5"},"vehicle_type_id":"4","last_reported":1735499159,"current_range_meters":22400,"station_id":"ce4bh512rcd13ifvqe3g","pricing_plan_id":"cebpf4jnsgd1na2vs0mg"},{"bike_id":"b8c97997-1ed1-4dde-a409-deecfb8321e5","system_id":"levelo_inurba_marseille","lat":43.29581,"lon":5.36744,"is_reserved":false,"is_disabled":false,"rental_uris":{"android":"levelo://app?vid=b8c97997-1ed1-4dde-a409-deecfb8321e5","ios":"levelo://app?vid=b8c97997-1ed1-4dde-a409-deecfb8321e5"},"vehicle_type_id":"4","last_reported":1735499159,"current_range_meters":37600,"station_id":"ce4bgph2rcd13ifvqc2g","pricing_plan_id":"cebpf4jnsgd1na2vs0mg"},{"bike_id":"607a52e0-cc96-40b4-acd4-57002d9d59df","system_id":"levelo_inurba_marseille","lat":43.25123,"lon":5.40327,"is_reserved":false,"is_disabled":false,"rental_uris":{"android":"levelo://app?vid=607a52e0-cc96-40b4-acd4-57002d9d59df","ios":"levelo://app?vid=607a52e0-cc96-40b4-acd4-57002d9d59df"},"vehicle_type_id":"4","last_reported":1735499159,"current_range_meters":22800,"station_id":"ce4bhlh2rcd13ifvqgig","pricing_plan_id":"cebpf4jnsgd1na2vs0mg"},{"bike_id":"d50467ff-4045-4217-9eed-2c7923083da7","system_id":"levelo_inurba_marseille","lat":43.27558,"lon":5.38369,"is_reserved":false,"is_disabled":false,"rental_uris":{"android":"levelo://app?vid=d50467ff-4045-4217-9eed-2c7923083da7","ios":"levelo://app?vid=d50467ff-4045-4217-9eed-2c7923083da7"},"vehicle_type_id":"4","last_reported":1735499159,"current_range_meters":36400,"station_id":"ce4bhh92rcd13ifvqfi0","pricing_plan_id":"cebpf4jnsgd1na2vs0mg"},{"bike_id":"b21f3b16-f9ad-4c8a-82a4-6190802075da","system_id":"levelo_inurba_marseille","lat":43.31896,"lon":5.40721,"is_reserved":false,"is_disabled":true,"rental_uris":{"android":"levelo://app?vid=b21f3b16-f9ad-4c8a-82a4-6190802075da","ios":"levelo://app?vid=b21f3b16-f9ad-4c8a-82a4-6190802075da"},"vehicle_type_id":"4","last_reported":1735499159,"current_range_meters":0,"station_id":"ce4bhq12rcd13ifvqhig","pricing_plan_id":"cebpf4jnsgd1na2vs0mg"},{"bike_id":"e72c6d65-0b04-411e-bf0f-f72d15cad0d7","system_id":"levelo_inurba_marseille","lat":43.33725,"lon":5.39178,"is_reserved":false,"is_disabled":false,"rental_uris":{"android":"levelo://app?vid=e72c6d65-0b04-411e-bf0f-f72d15cad0d7","ios":"levelo://app?vid=e72c6d65-0b04-411e-bf0f-f72d15cad0d7"},"vehicle_type_id":"4","last_reported":1735499159,"current_range_meters":38800,"station_id":"ce4bhr92rcd13ifvqhsg","pricing_plan_id":"cebpf4jnsgd1na2vs0mg"},{"bike_id":"b7bd28c3-f286-46f2-b628-daa7cc1da6d3","system_id":"levelo_inurba_marseille","lat":43.28486,"lon":5.38416,"is_reserved":false,"is_disabled":false,"rental_uris":{"android":"levelo://app?vid=b7bd28c3-f286-46f2-b628-daa7cc1da6d3","ios":"levelo://app?vid=b7bd28c3-f286-46f2-b628-daa7cc1da6d3"},"vehicle_type_id":"4","last_reported":1735499159,"current_range_meters":36800,"station_id":"ce4bh512rcd13ifvqe3g","pricing_plan_id":"cebpf4jnsgd1na2vs0mg"},{"bike_id":"a5704d90-60ec-470f-81af-3d2e29ba0a42","system_id":"levelo_inurba_marseille","lat":43.295319,"lon":5.385448,"is_reserved":false,"is_disabled":false,"rental_uris":{"android":"levelo://app?vid=a5704d90-60ec-470f-81af-3d2e29ba0a42","ios":"levelo://app?vid=a5704d90-60ec-470f-81af-3d2e29ba0a42"},"vehicle_type_id":"4","last_reported":1735499159,"current_range_meters":38800,"station_id":"ce4bgih2rcd13ifvqba0","pricing_plan_id":"cebpf4jnsgd1na2vs0mg"},{"bike_id":"cb4c58fb-15b0-4686-966f-8c99a60eda43","system_id":"levelo_inurba_marseille","lat":43.29605,"lon":5.37701,"is_reserved":false,"is_disabled":false,"rental_uris":{"android":"levelo://app?vid=cb4c58fb-15b0-4686-966f-8c99a60eda43","ios":"levelo://app?vid=cb4c58fb-15b0-4686-966f-8c99a60eda43"},"vehicle_type_id":"4","last_reported":1735499159,"current_range_meters":35200,"station_id":"ce4bgi92rcd13ifvqb90","pricing_plan_id":"cebpf4jnsgd1na2vs0mg"},{"bike_id":"78084a79-78e2-4d52-836f-7ba28d6cf127","system_id":"levelo_inurba_marseille","lat":43.30936,"lon":5.40146,"is_reserved":false,"is_disabled":false,"rental_uris":{"android":"levelo://app?vid=78084a79-78e2-4d52-836f-7ba28d6cf127","ios":"levelo://app?vid=78084a79-78e2-4d52-836f-7ba28d6cf127"},"vehicle_type_id":"4","last_reported":1735499159,"current_range_meters":27600,"station_id":"ce4bgvp2rcd13ifvqct0","pricing_plan_id":"cebpf4jnsgd1na2vs0mg"},{"bike_id":"2fdeab75-c3c7-44e1-8744-5eb7e97729bb","system_id":"levelo_inurba_marseille","lat":43.32111,"lon":5.36776,"is_reserved":false,"is_disabled":false,"rental_uris":{"android":"levelo://app?vid=2fdeab75-c3c7-44e1-8744-5eb7e97729bb","ios":"levelo://app?vid=2fdeab75-c3c7-44e1-8744-5eb7e97729bb"},"vehicle_type_id":"4","last_reported":1735499159,"current_range_meters":38800,"station_id":"ce4bhrh2rcd13ifvqhug","pricing_plan_id":"cebpf4jnsgd1na2vs0mg"},{"bike_id":"5416a2c8-e6bc-42cf-83d8-c71e60fc0453","system_id":"levelo_inurba_marseille","lat":43.2862,"lon":5.35104,"is_reserved":false,"is_disabled":false,"rental_uris":{"android":"levelo://app?vid=5416a2c8-e6bc-42cf-83d8-c71e60fc0453","ios":"levelo://app?vid=5416a2c8-e6bc-42cf-83d8-c71e60fc0453"},"vehicle_type_id":"4","last_reported":1735499159,"current_range_meters":16000,"station_id":"ce4bhch2rcd13ifvqeug","pricing_plan_id":"cebpf4jnsgd1na2vs0mg"},{"bike_id":"40d33d5a-b0d6-4ca7-b92a-5a5e00a2e584","system_id":"levelo_inurba_marseille","lat":43.27311,"lon":5.39076,"is_reserved":false,"is_disabled":false,"rental_uris":{"android":"levelo://app?vid=40d33d5a-b0d6-4ca7-b92a-5a5e00a2e584","ios":"levelo://app?vid=40d33d5a-b0d6-4ca7-b92a-5a5e00a2e584"},"vehicle_type_id":"4","last_reported":1735499159,"current_range_meters":34000,"station_id":"ce4bhgp2rcd13ifvqfe0","pricing_plan_id":"cebpf4jnsgd1na2vs0mg"},{"bike_id":"ac46f39a-e383-44b1-b69a-2eba41522dea","system_id":"levelo_inurba_marseille","lat":43.2707,"lon":5.42281,"is_reserved":false,"is_disabled":false,"rental_uris":{"android":"levelo://app?vid=ac46f39a-e383-44b1-b69a-2eba41522dea","ios":"levelo://app?vid=ac46f39a-e383-44b1-b69a-2eba41522dea"},"vehicle_type_id":"4","last_reported":1735499159,"current_range_meters":31200,"station_id":"ce4bhk92rcd13ifvqgb0","pricing_plan_id":"cebpf4jnsgd1na2vs0mg"},{"bike_id":"57103b12-06fc-494b-9a1a-1903f8f245d5","system_id":"levelo_inurba_marseille","lat":43.27995,"lon":5.4166,"is_reserved":false,"is_disabled":false,"rental_uris":{"android":"levelo://app?vid=57103b12-06fc-494b-9a1a-1903f8f245d5","ios":"levelo://app?vid=57103b12-06fc-494b-9a1a-1903f8f245d5"},"vehicle_type_id":"4","last_reported":1735499159,"current_range_meters":16800,"station_id":"ce4bho12rcd13ifvqh1g","pricing_plan_id":"cebpf4jnsgd1na2vs0mg"},{"bike_id":"c93a8900-340a-4a6d-ac3e-8882057837af","system_id":"levelo_inurba_marseille","lat":43.27376,"lon":5.36248,"is_reserved":false,"is_disabled":false,"rental_uris":{"android":"levelo://app?vid=c93a8900-340a-4a6d-ac3e-8882057837af","ios":"levelo://app?vid=c93a8900-340a-4a6d-ac3e-8882057837af"},"vehicle_type_id":"4","last_reported":1735499159,"current_range_meters":36400,"station_id":"ce4bhbh2rcd13ifvqeo0","pricing_plan_id":"cebpf4jnsgd1na2vs0mg"},{"bike_id":"0efd8b4a-f61c-4241-be97-bb2bd49c806e","system_id":"levelo_inurba_marseille","lat":43.25085,"lon":5.39521,"is_reserved":false,"is_disabled":false,"rental_uris":{"android":"levelo://app?vid=0efd8b4a-f61c-4241-be97-bb2bd49c806e","ios":"levelo://app?vid=0efd8b4a-f61c-4241-be97-bb2bd49c806e"},"vehicle_type_id":"4","last_reported":1735499159,"current_range_meters":27200,"station_id":"ce4bhm12rcd13ifvqgkg","pricing_plan_id":"cebpf4jnsgd1na2vs0mg"},{"bike_id":"d9d97985-8792-47a3-ab8c-09980f6a9900","system_id":"levelo_inurba_marseille","lat":43.29518,"lon":5.37505,"is_reserved":false,"is_disabled":false,"rental_uris":{"android":"levelo://app?vid=d9d97985-8792-47a3-ab8c-09980f6a9900","ios":"levelo://app?vid=d9d97985-8792-47a3-ab8c-09980f6a9900"},"vehicle_type_id":"4","last_reported":1735499159,"current_range_meters":38800,"station_id":"ce4bgkp2rcd13ifvqbmg","pricing_plan_id":"cebpf4jnsgd1na2vs0mg"},{"bike_id":"be451069-3b16-493e-a3f1-29db08986d43","system_id":"levelo_inurba_marseille","lat":43.30934,"lon":5.40143,"is_reserved":false,"is_disabled":false,"rental_uris":{"android":"levelo://app?vid=be451069-3b16-493e-a3f1-29db08986d43","ios":"levelo://app?vid=be451069-3b16-493e-a3f1-29db08986d43"},"vehicle_type_id":"4","last_reported":1735499159,"current_range_meters":10000,"station_id":"ce4bgvp2rcd13ifvqct0","pricing_plan_id":"cebpf4jnsgd1na2vs0mg"},{"bike_id":"81b7dbd4-2034-4c75-9f95-f800613fb5e7","system_id":"levelo_inurba_marseille","lat":43.28152,"lon":5.42634,"is_reserved":false,"is_disabled":false,"rental_uris":{"android":"levelo://app?vid=81b7dbd4-2034-4c75-9f95-f800613fb5e7","ios":"levelo://app?vid=81b7dbd4-2034-4c75-9f95-f800613fb5e7"},"vehicle_type_id":"4","last_reported":1735499159,"current_range_meters":10000,"station_id":"ce4bhnh2rcd13ifvqgug","pricing_plan_id":"cebpf4jnsgd1na2vs0mg"},{"bike_id":"7f7fb4cd-2a55-49f5-a886-63d44f44e08d","system_id":"levelo_inurba_marseille","lat":43.28109,"lon":5.37841,"is_reserved":false,"is_disabled":false,"rental_uris":{"android":"levelo://app?vid=7f7fb4cd-2a55-49f5-a886-63d44f44e08d","ios":"levelo://app?vid=7f7fb4cd-2a55-49f5-a886-63d44f44e08d"},"vehicle_type_id":"4","last_reported":1735499159,"current_range_meters":26800,"station_id":"ce4bha12rcd13ifvqee0","pricing_plan_id":"cebpf4jnsgd1na2vs0mg"},{"bike_id":"e3996919-d2cb-4431-8ea7-fb9a0daea44d","system_id":"levelo_inurba_marseille","lat":43.27558,"lon":5.38434,"is_reserved":false,"is_disabled":false,"rental_uris":{"android":"levelo://app?vid=e3996919-d2cb-4431-8ea7-fb9a0daea44d","ios":"levelo://app?vid=e3996919-d2cb-4431-8ea7-fb9a0daea44d"},"vehicle_type_id":"4","last_reported":1735499159,"current_range_meters":38000,"station_id":"ce4bhh92rcd13ifvqfi0","pricing_plan_id":"cebpf4jnsgd1na2vs0mg"},{"bike_id":"482b0b80-c53d-4d05-aa82-218b22575b6c","system_id":"levelo_inurba_marseille","lat":43.23154,"lon":5.43701,"is_reserved":false,"is_disabled":true,"rental_uris":{"android":"levelo://app?vid=482b0b80-c53d-4d05-aa82-218b22575b6c","ios":"levelo://app?vid=482b0b80-c53d-4d05-aa82-218b22575b6c"},"vehicle_type_id":"4","last_reported":1735499159,"current_range_meters":37600,"station_id":"ce4bhmp2rcd13ifvqgog","pricing_plan_id":"cebpf4jnsgd1na2vs0mg"},{"bike_id":"0800f83e-c07a-46b1-81c6-ee4c1f6cbfa1","system_id":"levelo_inurba_marseille","lat":43.30417,"lon":5.4128,"is_reserved":false,"is_disabled":false,"rental_uris":{"android":"levelo://app?vid=0800f83e-c07a-46b1-81c6-ee4c1f6cbfa1","ios":"levelo://app?vid=0800f83e-c07a-46b1-81c6-ee4c1f6cbfa1"},"vehicle_type_id":"4","last_reported":1735499159,"current_range_meters":38000,"station_id":"ce4bhop2rcd13ifvqh8g","pricing_plan_id":"cebpf4jnsgd1na2vs0mg"},{"bike_id":"968f8345-d048-4768-bf95-8ef9f2d80532","system_id":"levelo_inurba_marseille","lat":43.25086,"lon":5.3952,"is_reserved":false,"is_disabled":false,"rental_uris":{"android":"levelo://app?vid=968f8345-d048-4768-bf95-8ef9f2d80532","ios":"levelo://app?vid=968f8345-d048-4768-bf95-8ef9f2d80532"},"vehicle_type_id":"4","last_reported":1735499159,"current_range_meters":35200,"station_id":"ce4bhm12rcd13ifvqgkg","pricing_plan_id":"cebpf4jnsgd1na2vs0mg"},{"bike_id":"4ad34a32-ce6e-4371-9e72-66dccc664f48","system_id":"levelo_inurba_marseille","lat":43.28467,"lon":5.38417,"is_reserved":false,"is_disabled":false,"rental_uris":{"android":"levelo://app?vid=4ad34a32-ce6e-4371-9e72-66dccc664f48","ios":"levelo://app?vid=4ad34a32-ce6e-4371-9e72-66dccc664f48"},"vehicle_type_id":"4","last_reported":1735499159,"current_range_meters":22000,"station_id":"ce4bh512rcd13ifvqe3g","pricing_plan_id":"cebpf4jnsgd1na2vs0mg"},{"bike_id":"ddea5cf6-35e9-4a55-b314-437412c7d2fc","system_id":"levelo_inurba_marseille","lat":43.29418,"lon":5.38622,"is_reserved":false,"is_disabled":false,"rental_uris":{"android":"levelo://app?vid=ddea5cf6-35e9-4a55-b314-437412c7d2fc","ios":"levelo://app?vid=ddea5cf6-35e9-4a55-b314-437412c7d2fc"},"vehicle_type_id":"4","last_reported":1735499159,"current_range_meters":13600,"station_id":"ce4bh2h2rcd13ifvqdh0","pricing_plan_id":"cebpf4jnsgd1na2vs0mg"},{"bike_id":"4d598eae-1cfb-44eb-8092-aca2df872482","system_id":"levelo_inurba_marseille","lat":43.23068,"lon":5.354788,"is_reserved":false,"is_disabled":false,"rental_uris":{"android":"levelo://app?vid=4d598eae-1cfb-44eb-8092-aca2df872482","ios":"levelo://app?vid=4d598eae-1cfb-44eb-8092-aca2df872482"},"vehicle_type_id":"4","last_reported":1735499159,"current_range_meters":13600,"station_id":"cpo3342slgdg3j2ifvpg","pricing_plan_id":"cebpf4jnsgd1na2vs0mg"},{"bike_id":"59fc5870-b971-4cb3-9795-c1174dfeb490","system_id":"levelo_inurba_marseille","lat":43.24078,"lon":5.37748,"is_reserved":false,"is_disabled":false,"rental_uris":{"android":"levelo://app?vid=59fc5870-b971-4cb3-9795-c1174dfeb490","ios":"levelo://app?vid=59fc5870-b971-4cb3-9795-c1174dfeb490"},"vehicle_type_id":"4","last_reported":1735499159,"current_range_meters":35600,"station_id":"ce4bhnp2rcd13ifvqgvg","pricing_plan_id":"cebpf4jnsgd1na2vs0mg"},{"bike_id":"c4e33464-90ab-45ef-82c6-733a360bdee4","system_id":"levelo_inurba_marseille","lat":43.23187,"lon":5.39999,"is_reserved":false,"is_disabled":false,"rental_uris":{"android":"levelo://app?vid=c4e33464-90ab-45ef-82c6-733a360bdee4","ios":"levelo://app?vid=c4e33464-90ab-45ef-82c6-733a360bdee4"},"vehicle_type_id":"4","last_reported":1735499159,"current_range_meters":38800,"station_id":"ce4bhn12rcd13ifvqgqg","pricing_plan_id":"cebpf4jnsgd1na2vs0mg"},{"bike_id":"e7b60c17-e828-4ed1-972e-2ce3547a1c03","system_id":"levelo_inurba_marseille","lat":43.29795,"lon":5.38102,"is_reserved":false,"is_disabled":false,"rental_uris":{"android":"levelo://app?vid=e7b60c17-e828-4ed1-972e-2ce3547a1c03","ios":"levelo://app?vid=e7b60c17-e828-4ed1-972e-2ce3547a1c03"},"vehicle_type_id":"4","last_reported":1735499159,"current_range_meters":30000,"station_id":"ce4bgip2rcd13ifvqbb0","pricing_plan_id":"cebpf4jnsgd1na2vs0mg"},{"bike_id":"e95b6aa1-746a-4e6b-9a58-1d539e3272fb","system_id":"levelo_inurba_marseille","lat":43.3089,"lon":5.37197,"is_reserved":false,"is_disabled":false,"rental_uris":{"android":"levelo://app?vid=e95b6aa1-746a-4e6b-9a58-1d539e3272fb","ios":"levelo://app?vid=e95b6aa1-746a-4e6b-9a58-1d539e3272fb"},"vehicle_type_id":"4","last_reported":1735499159,"current_range_meters":38800,"station_id":"ce4bguh2rcd13ifvqckg","pricing_plan_id":"cebpf4jnsgd1na2vs0mg"},{"bike_id":"f6a398ba-af8e-4fe3-a6c0-f28cb0077f88","system_id":"levelo_inurba_marseille","lat":43.28178,"lon":5.42656,"is_reserved":false,"is_disabled":false,"rental_uris":{"android":"levelo://app?vid=f6a398ba-af8e-4fe3-a6c0-f28cb0077f88","ios":"levelo://app?vid=f6a398ba-af8e-4fe3-a6c0-f28cb0077f88"},"vehicle_type_id":"4","last_reported":1735499159,"current_range_meters":19200,"station_id":"ce4bhnh2rcd13ifvqgug","pricing_plan_id":"cebpf4jnsgd1na2vs0mg"},{"bike_id":"0bcec2f5-0203-436b-a80c-c30c50ac99f3","system_id":"levelo_inurba_marseille","lat":43.287242,"lon":5.379386,"is_reserved":false,"is_disabled":false,"rental_uris":{"android":"levelo://app?vid=0bcec2f5-0203-436b-a80c-c30c50ac99f3","ios":"levelo://app?vid=0bcec2f5-0203-436b-a80c-c30c50ac99f3"},"vehicle_type_id":"4","last_reported":1735499159,"current_range_meters":38400,"station_id":"ce4bh9p2rcd13ifvqec0","pricing_plan_id":"cebpf4jnsgd1na2vs0mg"},{"bike_id":"7bd44d09-e872-4291-b548-1cbe40f16cac","system_id":"levelo_inurba_marseille","lat":43.281565,"lon":5.426354,"is_reserved":false,"is_disabled":false,"rental_uris":{"android":"levelo://app?vid=7bd44d09-e872-4291-b548-1cbe40f16cac","ios":"levelo://app?vid=7bd44d09-e872-4291-b548-1cbe40f16cac"},"vehicle_type_id":"4","last_reported":1735499159,"current_range_meters":24000,"station_id":"ce4bhnh2rcd13ifvqgug","pricing_plan_id":"cebpf4jnsgd1na2vs0mg"},{"bike_id":"d648ed32-95e8-4506-9861-c5c50b60ec2c","system_id":"levelo_inurba_marseille","lat":43.3108,"lon":5.42433,"is_reserved":false,"is_disabled":false,"rental_uris":{"android":"levelo://app?vid=d648ed32-95e8-4506-9861-c5c50b60ec2c","ios":"levelo://app?vid=d648ed32-95e8-4506-9861-c5c50b60ec2c"},"vehicle_type_id":"4","last_reported":1735499159,"current_range_meters":38800,"station_id":"ce4bhp92rcd13ifvqhag","pricing_plan_id":"cebpf4jnsgd1na2vs0mg"},{"bike_id":"d124b3fa-f3a5-4c6d-bebc-2f7ad1a1004e","system_id":"levelo_inurba_marseille","lat":43.26956,"lon":5.38634,"is_reserved":false,"is_disabled":false,"rental_uris":{"android":"levelo://app?vid=d124b3fa-f3a5-4c6d-bebc-2f7ad1a1004e","ios":"levelo://app?vid=d124b3fa-f3a5-4c6d-bebc-2f7ad1a1004e"},"vehicle_type_id":"4","last_reported":1735499159,"current_range_meters":38800,"station_id":"ce4bhh92rcd13ifvqfh0","pricing_plan_id":"cebpf4jnsgd1na2vs0mg"},{"bike_id":"6798ddd0-08c4-461a-8ae1-920fee12db81","system_id":"levelo_inurba_marseille","lat":43.24546,"lon":5.39522,"is_reserved":false,"is_disabled":false,"rental_uris":{"android":"levelo://app?vid=6798ddd0-08c4-461a-8ae1-920fee12db81","ios":"levelo://app?vid=6798ddd0-08c4-461a-8ae1-920fee12db81"},"vehicle_type_id":"4","last_reported":1735499159,"current_range_meters":26000,"station_id":"ce4bhlp2rcd13ifvqgjg","pricing_plan_id":"cebpf4jnsgd1na2vs0mg"},{"bike_id":"f63317ac-2b4d-4644-a66d-b50745f72387","system_id":"levelo_inurba_marseille","lat":43.28726,"lon":5.36089,"is_reserved":false,"is_disabled":false,"rental_uris":{"android":"levelo://app?vid=f63317ac-2b4d-4644-a66d-b50745f72387","ios":"levelo://app?vid=f63317ac-2b4d-4644-a66d-b50745f72387"},"vehicle_type_id":"4","last_reported":1735499159,"current_range_meters":39200,"station_id":"cki0cbj6b192h4jlfktg","pricing_plan_id":"cebpf4jnsgd1na2vs0mg"},{"bike_id":"af266f2f-b3af-487b-b92f-871abe1fae46","system_id":"levelo_inurba_marseille","lat":43.28355,"lon":5.38106,"is_reserved":false,"is_disabled":false,"rental_uris":{"android":"levelo://app?vid=af266f2f-b3af-487b-b92f-871abe1fae46","ios":"levelo://app?vid=af266f2f-b3af-487b-b92f-871abe1fae46"},"vehicle_type_id":"4","last_reported":1735499159,"current_range_meters":32800,"station_id":"ce4bh412rcd13ifvqdr0","pricing_plan_id":"cebpf4jnsgd1na2vs0mg"},{"bike_id":"63aa2811-727c-4801-b2aa-c7aeb5d3a6bf","system_id":"levelo_inurba_marseille","lat":43.29419,"lon":5.38614,"is_reserved":false,"is_disabled":false,"rental_uris":{"android":"levelo://app?vid=63aa2811-727c-4801-b2aa-c7aeb5d3a6bf","ios":"levelo://app?vid=63aa2811-727c-4801-b2aa-c7aeb5d3a6bf"},"vehicle_type_id":"4","last_reported":1735499159,"current_range_meters":6800,"station_id":"ce4bh2h2rcd13ifvqdh0","pricing_plan_id":"cebpf4jnsgd1na2vs0mg"},{"bike_id":"1107b56a-98a5-4a01-8449-9eba086fee5a","system_id":"levelo_inurba_marseille","lat":43.29073,"lon":5.39883,"is_reserved":false,"is_disabled":true,"rental_uris":{"android":"levelo://app?vid=1107b56a-98a5-4a01-8449-9eba086fee5a","ios":"levelo://app?vid=1107b56a-98a5-4a01-8449-9eba086fee5a"},"vehicle_type_id":"4","last_reported":1735499159,"current_range_meters":14800,"station_id":"","pricing_plan_id":"cebpf4jnsgd1na2vs0mg"},{"bike_id":"b45568d0-1db0-4941-aaa0-668e3367a47d","system_id":"levelo_inurba_marseille","lat":43.29218,"lon":5.36044,"is_reserved":false,"is_disabled":false,"rental_uris":{"android":"levelo://app?vid=b45568d0-1db0-4941-aaa0-668e3367a47d","ios":"levelo://app?vid=b45568d0-1db0-4941-aaa0-668e3367a47d"},"vehicle_type_id":"4","last_reported":1735499159,"current_range_meters":38800,"station_id":"ce4bhbh2rcd13ifvqeqg","pricing_plan_id":"cebpf4jnsgd1na2vs0mg"},{"bike_id":"20b351ce-aa3b-4fc8-af62-864415db2c56","system_id":"levelo_inurba_marseille","lat":43.23071,"lon":5.35484,"is_reserved":false,"is_disabled":false,"rental_uris":{"android":"levelo://app?vid=20b351ce-aa3b-4fc8-af62-864415db2c56","ios":"levelo://app?vid=20b351ce-aa3b-4fc8-af62-864415db2c56"},"vehicle_type_id":"4","last_reported":1735499159,"current_range_meters":25600,"station_id":"cpo3342slgdg3j2ifvpg","pricing_plan_id":"cebpf4jnsgd1na2vs0mg"},{"bike_id":"ada2058e-a52a-4583-af61-71c2577d4b09","system_id":"levelo_inurba_marseille","lat":43.27205,"lon":5.39173,"is_reserved":false,"is_disabled":false,"rental_uris":{"android":"levelo://app?vid=ada2058e-a52a-4583-af61-71c2577d4b09","ios":"levelo://app?vid=ada2058e-a52a-4583-af61-71c2577d4b09"},"vehicle_type_id":"4","last_reported":1735499159,"current_range_meters":38800,"station_id":"ce4bhhp2rcd13ifvqfm0","pricing_plan_id":"cebpf4jnsgd1na2vs0mg"},{"bike_id":"d7e2f014-6be7-4cae-8eda-04af633a33ca","system_id":"levelo_inurba_marseille","lat":43.296,"lon":5.38106,"is_reserved":false,"is_disabled":false,"rental_uris":{"android":"levelo://app?vid=d7e2f014-6be7-4cae-8eda-04af633a33ca","ios":"levelo://app?vid=d7e2f014-6be7-4cae-8eda-04af633a33ca"},"vehicle_type_id":"4","last_reported":1735499159,"current_range_meters":14800,"station_id":"ce4bgl12rcd13ifvqbo0","pricing_plan_id":"cebpf4jnsgd1na2vs0mg"},{"bike_id":"5b02a7e9-264b-41e0-b822-c97ba7603e3b","system_id":"levelo_inurba_marseille","lat":43.28428,"lon":5.3495,"is_reserved":false,"is_disabled":true,"rental_uris":{"android":"levelo://app?vid=5b02a7e9-264b-41e0-b822-c97ba7603e3b","ios":"levelo://app?vid=5b02a7e9-264b-41e0-b822-c97ba7603e3b"},"vehicle_type_id":"4","last_reported":1735499159,"current_range_meters":2000,"station_id":"ce4bhbh2rcd13ifvqepg","pricing_plan_id":"cebpf4jnsgd1na2vs0mg"},{"bike_id":"ca5dd0d4-1b37-4612-8f0a-f30de343dfab","system_id":"levelo_inurba_marseille","lat":43.31481,"lon":5.37284,"is_reserved":false,"is_disabled":false,"rental_uris":{"android":"levelo://app?vid=ca5dd0d4-1b37-4612-8f0a-f30de343dfab","ios":"levelo://app?vid=ca5dd0d4-1b37-4612-8f0a-f30de343dfab"},"vehicle_type_id":"4","last_reported":1735499159,"current_range_meters":38400,"station_id":"ce4bgt12rcd13ifvqcd0","pricing_plan_id":"cebpf4jnsgd1na2vs0mg"},{"bike_id":"57869636-6c57-433c-84df-16414c4c43f3","system_id":"levelo_inurba_marseille","lat":43.29871,"lon":5.39731,"is_reserved":false,"is_disabled":false,"rental_uris":{"android":"levelo://app?vid=57869636-6c57-433c-84df-16414c4c43f3","ios":"levelo://app?vid=57869636-6c57-433c-84df-16414c4c43f3"},"vehicle_type_id":"4","last_reported":1735499159,"current_range_meters":28400,"station_id":"ce4bh0h2rcd13ifvqd50","pricing_plan_id":"cebpf4jnsgd1na2vs0mg"},{"bike_id":"4d27df13-2d95-45c3-a330-3061a2ba88d8","system_id":"levelo_inurba_marseille","lat":43.29533,"lon":5.38535,"is_reserved":false,"is_disabled":false,"rental_uris":{"android":"levelo://app?vid=4d27df13-2d95-45c3-a330-3061a2ba88d8","ios":"levelo://app?vid=4d27df13-2d95-45c3-a330-3061a2ba88d8"},"vehicle_type_id":"4","last_reported":1735499159,"current_range_meters":31200,"station_id":"ce4bgih2rcd13ifvqba0","pricing_plan_id":"cebpf4jnsgd1na2vs0mg"},{"bike_id":"731bb0c1-af09-4dd7-8187-8a856a9319fb","system_id":"levelo_inurba_marseille","lat":43.29264,"lon":5.38444,"is_reserved":false,"is_disabled":false,"rental_uris":{"android":"levelo://app?vid=731bb0c1-af09-4dd7-8187-8a856a9319fb","ios":"levelo://app?vid=731bb0c1-af09-4dd7-8187-8a856a9319fb"},"vehicle_type_id":"4","last_reported":1735499159,"current_range_meters":27600,"station_id":"ce4bh692rcd13ifvqea0","pricing_plan_id":"cebpf4jnsgd1na2vs0mg"},{"bike_id":"61444556-f9f6-47d1-84b2-598dace643cc","system_id":"levelo_inurba_marseille","lat":43.29878,"lon":5.38912,"is_reserved":false,"is_disabled":false,"rental_uris":{"android":"levelo://app?vid=61444556-f9f6-47d1-84b2-598dace643cc","ios":"levelo://app?vid=61444556-f9f6-47d1-84b2-598dace643cc"},"vehicle_type_id":"4","last_reported":1735499159,"current_range_meters":36800,"station_id":"ce4bh392rcd13ifvqdl0","pricing_plan_id":"cebpf4jnsgd1na2vs0mg"},{"bike_id":"41e441a8-4ad2-4bf0-81ba-96c35feaf6d8","system_id":"levelo_inurba_marseille","lat":43.28154,"lon":5.42639,"is_reserved":false,"is_disabled":false,"rental_uris":{"android":"levelo://app?vid=41e441a8-4ad2-4bf0-81ba-96c35feaf6d8","ios":"levelo://app?vid=41e441a8-4ad2-4bf0-81ba-96c35feaf6d8"},"vehicle_type_id":"4","last_reported":1735499159,"current_range_meters":28000,"station_id":"ce4bhnh2rcd13ifvqgug","pricing_plan_id":"cebpf4jnsgd1na2vs0mg"},{"bike_id":"4de13b80-6216-46ec-ba58-8fb9fe37c463","system_id":"levelo_inurba_marseille","lat":43.2972,"lon":5.36598,"is_reserved":false,"is_disabled":false,"rental_uris":{"android":"levelo://app?vid=4de13b80-6216-46ec-ba58-8fb9fe37c463","ios":"levelo://app?vid=4de13b80-6216-46ec-ba58-8fb9fe37c463"},"vehicle_type_id":"4","last_reported":1735499159,"current_range_meters":38800,"station_id":"ce4bgn12rcd13ifvqbt0","pricing_plan_id":"cebpf4jnsgd1na2vs0mg"},{"bike_id":"824f434a-d906-4537-b700-767717f4fbbe","system_id":"levelo_inurba_marseille","lat":43.29535,"lon":5.38537,"is_reserved":false,"is_disabled":false,"rental_uris":{"android":"levelo://app?vid=824f434a-d906-4537-b700-767717f4fbbe","ios":"levelo://app?vid=824f434a-d906-4537-b700-767717f4fbbe"},"vehicle_type_id":"4","last_reported":1735499159,"current_range_meters":35200,"station_id":"ce4bgih2rcd13ifvqba0","pricing_plan_id":"cebpf4jnsgd1na2vs0mg"},{"bike_id":"b0d45b52-6895-4f7d-b544-51d0d9d0ee35","system_id":"levelo_inurba_marseille","lat":43.30546,"lon":5.36712,"is_reserved":false,"is_disabled":true,"rental_uris":{"android":"levelo://app?vid=b0d45b52-6895-4f7d-b544-51d0d9d0ee35","ios":"levelo://app?vid=b0d45b52-6895-4f7d-b544-51d0d9d0ee35"},"vehicle_type_id":"4","last_reported":1735499159,"current_range_meters":5600,"station_id":"ce4bgrp2rcd13ifvqc9g","pricing_plan_id":"cebpf4jnsgd1na2vs0mg"},{"bike_id":"9cbeea91-6305-4ee1-ad7f-82772e35ad52","system_id":"levelo_inurba_marseille","lat":43.28147,"lon":5.4265,"is_reserved":false,"is_disabled":false,"rental_uris":{"android":"levelo://app?vid=9cbeea91-6305-4ee1-ad7f-82772e35ad52","ios":"levelo://app?vid=9cbeea91-6305-4ee1-ad7f-82772e35ad52"},"vehicle_type_id":"4","last_reported":1735499159,"current_range_meters":26800,"station_id":"ce4bhnh2rcd13ifvqgug","pricing_plan_id":"cebpf4jnsgd1na2vs0mg"},{"bike_id":"5639f52b-1196-4558-b062-4f7891cec443","system_id":"levelo_inurba_marseille","lat":43.28418,"lon":5.37536,"is_reserved":false,"is_disabled":true,"rental_uris":{"android":"levelo://app?vid=5639f52b-1196-4558-b062-4f7891cec443","ios":"levelo://app?vid=5639f52b-1196-4558-b062-4f7891cec443"},"vehicle_type_id":"4","last_reported":1735499159,"current_range_meters":24800,"station_id":"ce4bh412rcd13ifvqds0","pricing_plan_id":"cebpf4jnsgd1na2vs0mg"},{"bike_id":"1727a0bf-5c41-4aa7-be74-58dfcc6e8f12","system_id":"levelo_inurba_marseille","lat":43.31505,"lon":5.37313,"is_reserved":false,"is_disabled":false,"rental_uris":{"android":"levelo://app?vid=1727a0bf-5c41-4aa7-be74-58dfcc6e8f12","ios":"levelo://app?vid=1727a0bf-5c41-4aa7-be74-58dfcc6e8f12"},"vehicle_type_id":"4","last_reported":1735499159,"current_range_meters":38800,"station_id":"ce4bgt12rcd13ifvqcd0","pricing_plan_id":"cebpf4jnsgd1na2vs0mg"},{"bike_id":"bc4ae83f-7bf8-4e81-9ba1-772065d31c8d","system_id":"levelo_inurba_marseille","lat":43.2998,"lon":5.38484,"is_reserved":false,"is_disabled":false,"rental_uris":{"android":"levelo://app?vid=bc4ae83f-7bf8-4e81-9ba1-772065d31c8d","ios":"levelo://app?vid=bc4ae83f-7bf8-4e81-9ba1-772065d31c8d"},"vehicle_type_id":"4","last_reported":1735499159,"current_range_meters":32800,"station_id":"ce4bgj92rcd13ifvqbd0","pricing_plan_id":"cebpf4jnsgd1na2vs0mg"},{"bike_id":"b7e38ea1-e86c-4ccd-9d7a-0a636ba39fe4","system_id":"levelo_inurba_marseille","lat":43.2884,"lon":5.35846,"is_reserved":false,"is_disabled":false,"rental_uris":{"android":"levelo://app?vid=b7e38ea1-e86c-4ccd-9d7a-0a636ba39fe4","ios":"levelo://app?vid=b7e38ea1-e86c-4ccd-9d7a-0a636ba39fe4"},"vehicle_type_id":"4","last_reported":1735499159,"current_range_meters":27600,"station_id":"ce4bhb12rcd13ifvqem0","pricing_plan_id":"cebpf4jnsgd1na2vs0mg"},{"bike_id":"c4464463-92cc-48b8-b950-7ed437f91335","system_id":"levelo_inurba_marseille","lat":43.29219,"lon":5.3605,"is_reserved":false,"is_disabled":false,"rental_uris":{"android":"levelo://app?vid=c4464463-92cc-48b8-b950-7ed437f91335","ios":"levelo://app?vid=c4464463-92cc-48b8-b950-7ed437f91335"},"vehicle_type_id":"4","last_reported":1735499159,"current_range_meters":33200,"station_id":"ce4bhbh2rcd13ifvqeqg","pricing_plan_id":"cebpf4jnsgd1na2vs0mg"},{"bike_id":"b7b3ea37-8573-4b19-8923-b324e0cbf1e6","system_id":"levelo_inurba_marseille","lat":43.28679,"lon":5.38662,"is_reserved":false,"is_disabled":false,"rental_uris":{"android":"levelo://app?vid=b7b3ea37-8573-4b19-8923-b324e0cbf1e6","ios":"levelo://app?vid=b7b3ea37-8573-4b19-8923-b324e0cbf1e6"},"vehicle_type_id":"4","last_reported":1735499159,"current_range_meters":28400,"station_id":"ce4bh492rcd13ifvqdug","pricing_plan_id":"cebpf4jnsgd1na2vs0mg"},{"bike_id":"356fd92d-e963-40e6-b40e-58fc72ac9553","system_id":"levelo_inurba_marseille","lat":43.32103,"lon":5.36777,"is_reserved":false,"is_disabled":false,"rental_uris":{"android":"levelo://app?vid=356fd92d-e963-40e6-b40e-58fc72ac9553","ios":"levelo://app?vid=356fd92d-e963-40e6-b40e-58fc72ac9553"},"vehicle_type_id":"4","last_reported":1735499159,"current_range_meters":36400,"station_id":"ce4bhrh2rcd13ifvqhug","pricing_plan_id":"cebpf4jnsgd1na2vs0mg"},{"bike_id":"67ace3d6-f856-461e-bae1-ce541a83d8dd","system_id":"levelo_inurba_marseille","lat":43.23203,"lon":5.35541,"is_reserved":false,"is_disabled":false,"rental_uris":{"android":"levelo://app?vid=67ace3d6-f856-461e-bae1-ce541a83d8dd","ios":"levelo://app?vid=67ace3d6-f856-461e-bae1-ce541a83d8dd"},"vehicle_type_id":"4","last_reported":1735499159,"current_range_meters":38000,"station_id":"ce4bhu92rcd13ifvqi70","pricing_plan_id":"cebpf4jnsgd1na2vs0mg"},{"bike_id":"12b64bf2-4ce1-4146-af5b-eb3b72f8d5ae","system_id":"levelo_inurba_marseille","lat":43.25729,"lon":5.41109,"is_reserved":false,"is_disabled":false,"rental_uris":{"android":"levelo://app?vid=12b64bf2-4ce1-4146-af5b-eb3b72f8d5ae","ios":"levelo://app?vid=12b64bf2-4ce1-4146-af5b-eb3b72f8d5ae"},"vehicle_type_id":"4","last_reported":1735499159,"current_range_meters":39200,"station_id":"ce4bhkp2rcd13ifvqgd0","pricing_plan_id":"cebpf4jnsgd1na2vs0mg"},{"bike_id":"f6c3569e-efa4-4a1c-b75b-94ded8df3e64","system_id":"levelo_inurba_marseille","lat":43.27967,"lon":5.38735,"is_reserved":false,"is_disabled":true,"rental_uris":{"android":"levelo://app?vid=f6c3569e-efa4-4a1c-b75b-94ded8df3e64","ios":"levelo://app?vid=f6c3569e-efa4-4a1c-b75b-94ded8df3e64"},"vehicle_type_id":"4","last_reported":1735499159,"current_range_meters":0,"station_id":"ce4bhg12rcd13ifvqf80","pricing_plan_id":"cebpf4jnsgd1na2vs0mg"},{"bike_id":"30fe37d8-0cbd-4fc4-b590-d7b8f562d149","system_id":"levelo_inurba_marseille","lat":43.23149,"lon":5.43722,"is_reserved":false,"is_disabled":false,"rental_uris":{"android":"levelo://app?vid=30fe37d8-0cbd-4fc4-b590-d7b8f562d149","ios":"levelo://app?vid=30fe37d8-0cbd-4fc4-b590-d7b8f562d149"},"vehicle_type_id":"4","last_reported":1735499159,"current_range_meters":10800,"station_id":"ce4bhmp2rcd13ifvqgog","pricing_plan_id":"cebpf4jnsgd1na2vs0mg"},{"bike_id":"ed091efc-2b15-4f66-b15d-9165d4b9554b","system_id":"levelo_inurba_marseille","lat":43.28976,"lon":5.37841,"is_reserved":false,"is_disabled":false,"rental_uris":{"android":"levelo://app?vid=ed091efc-2b15-4f66-b15d-9165d4b9554b","ios":"levelo://app?vid=ed091efc-2b15-4f66-b15d-9165d4b9554b"},"vehicle_type_id":"4","last_reported":1735499159,"current_range_meters":38800,"station_id":"ce4bh9p2rcd13ifvqed0","pricing_plan_id":"cebpf4jnsgd1na2vs0mg"},{"bike_id":"6877c719-73d3-43cc-9160-8941b8d588f2","system_id":"levelo_inurba_marseille","lat":43.28571,"lon":5.39493,"is_reserved":false,"is_disabled":false,"rental_uris":{"android":"levelo://app?vid=6877c719-73d3-43cc-9160-8941b8d588f2","ios":"levelo://app?vid=6877c719-73d3-43cc-9160-8941b8d588f2"},"vehicle_type_id":"4","last_reported":1735499159,"current_range_meters":38800,"station_id":"ce4bh292rcd13ifvqdg0","pricing_plan_id":"cebpf4jnsgd1na2vs0mg"},{"bike_id":"5055049c-e7a1-4b11-8693-0ad632a3d8d7","system_id":"levelo_inurba_marseille","lat":43.26947,"lon":5.38628,"is_reserved":false,"is_disabled":false,"rental_uris":{"android":"levelo://app?vid=5055049c-e7a1-4b11-8693-0ad632a3d8d7","ios":"levelo://app?vid=5055049c-e7a1-4b11-8693-0ad632a3d8d7"},"vehicle_type_id":"4","last_reported":1735499159,"current_range_meters":16400,"station_id":"ce4bhh92rcd13ifvqfh0","pricing_plan_id":"cebpf4jnsgd1na2vs0mg"},{"bike_id":"d63ee0f9-88ea-4e16-a67c-487c5e05d3f5","system_id":"levelo_inurba_marseille","lat":43.3091,"lon":5.37215,"is_reserved":false,"is_disabled":false,"rental_uris":{"android":"levelo://app?vid=d63ee0f9-88ea-4e16-a67c-487c5e05d3f5","ios":"levelo://app?vid=d63ee0f9-88ea-4e16-a67c-487c5e05d3f5"},"vehicle_type_id":"4","last_reported":1735499159,"current_range_meters":39200,"station_id":"ce4bguh2rcd13ifvqckg","pricing_plan_id":"cebpf4jnsgd1na2vs0mg"},{"bike_id":"673ed0fe-3027-4e1f-9efc-2804b0e32190","system_id":"levelo_inurba_marseille","lat":43.26681,"lon":5.3827,"is_reserved":false,"is_disabled":false,"rental_uris":{"android":"levelo://app?vid=673ed0fe-3027-4e1f-9efc-2804b0e32190","ios":"levelo://app?vid=673ed0fe-3027-4e1f-9efc-2804b0e32190"},"vehicle_type_id":"4","last_reported":1735499159,"current_range_meters":38800,"station_id":"ce4bhg92rcd13ifvqf90","pricing_plan_id":"cebpf4jnsgd1na2vs0mg"},{"bike_id":"cb71a6cb-39c5-48cf-8727-515cd67f00f1","system_id":"levelo_inurba_marseille","lat":43.23193,"lon":5.35552,"is_reserved":false,"is_disabled":false,"rental_uris":{"android":"levelo://app?vid=cb71a6cb-39c5-48cf-8727-515cd67f00f1","ios":"levelo://app?vid=cb71a6cb-39c5-48cf-8727-515cd67f00f1"},"vehicle_type_id":"4","last_reported":1735499159,"current_range_meters":9600,"station_id":"ce4bhu92rcd13ifvqi70","pricing_plan_id":"cebpf4jnsgd1na2vs0mg"},{"bike_id":"7fe6e02c-a028-4b5e-9375-4c772c306e62","system_id":"levelo_inurba_marseille","lat":43.30583,"lon":5.37222,"is_reserved":false,"is_disabled":false,"rental_uris":{"android":"levelo://app?vid=7fe6e02c-a028-4b5e-9375-4c772c306e62","ios":"levelo://app?vid=7fe6e02c-a028-4b5e-9375-4c772c306e62"},"vehicle_type_id":"4","last_reported":1735499159,"current_range_meters":36800,"station_id":"ce4bgqh2rcd13ifvqc4g","pricing_plan_id":"cebpf4jnsgd1na2vs0mg"},{"bike_id":"9eb7b9f3-106c-4e64-badd-640107d9d620","system_id":"levelo_inurba_marseille","lat":43.24995,"lon":5.3893,"is_reserved":false,"is_disabled":false,"rental_uris":{"android":"levelo://app?vid=9eb7b9f3-106c-4e64-badd-640107d9d620","ios":"levelo://app?vid=9eb7b9f3-106c-4e64-badd-640107d9d620"},"vehicle_type_id":"4","last_reported":1735499159,"current_range_meters":18800,"station_id":"ce4bhgp2rcd13ifvqfd0","pricing_plan_id":"cebpf4jnsgd1na2vs0mg"},{"bike_id":"e70ce8bb-674e-436b-ab6d-79ca756c291a","system_id":"levelo_inurba_marseille","lat":43.25726,"lon":5.4111,"is_reserved":false,"is_disabled":false,"rental_uris":{"android":"levelo://app?vid=e70ce8bb-674e-436b-ab6d-79ca756c291a","ios":"levelo://app?vid=e70ce8bb-674e-436b-ab6d-79ca756c291a"},"vehicle_type_id":"4","last_reported":1735499159,"current_range_meters":30400,"station_id":"ce4bhkp2rcd13ifvqgd0","pricing_plan_id":"cebpf4jnsgd1na2vs0mg"},{"bike_id":"c8d1c33c-78e9-42be-a881-5b72ffd6d815","system_id":"levelo_inurba_marseille","lat":43.29921,"lon":5.37477,"is_reserved":false,"is_disabled":false,"rental_uris":{"android":"levelo://app?vid=c8d1c33c-78e9-42be-a881-5b72ffd6d815","ios":"levelo://app?vid=c8d1c33c-78e9-42be-a881-5b72ffd6d815"},"vehicle_type_id":"4","last_reported":1735499159,"current_range_meters":39200,"station_id":"ce4bgjh2rcd13ifvqbg0","pricing_plan_id":"cebpf4jnsgd1na2vs0mg"},{"bike_id":"0344f336-00ff-4388-b353-9f72a30c331a","system_id":"levelo_inurba_marseille","lat":43.30912,"lon":5.374715,"is_reserved":false,"is_disabled":false,"rental_uris":{"android":"levelo://app?vid=0344f336-00ff-4388-b353-9f72a30c331a","ios":"levelo://app?vid=0344f336-00ff-4388-b353-9f72a30c331a"},"vehicle_type_id":"4","last_reported":1735499159,"current_range_meters":23200,"station_id":"ce4bhch2rcd13ifvqeug","pricing_plan_id":"cebpf4jnsgd1na2vs0mg"},{"bike_id":"4c585d4a-4b38-45b7-9e0e-7dad53e1840b","system_id":"levelo_inurba_marseille","lat":43.32994,"lon":5.38998,"is_reserved":false,"is_disabled":false,"rental_uris":{"android":"levelo://app?vid=4c585d4a-4b38-45b7-9e0e-7dad53e1840b","ios":"levelo://app?vid=4c585d4a-4b38-45b7-9e0e-7dad53e1840b"},"vehicle_type_id":"4","last_reported":1735499159,"current_range_meters":38000,"station_id":"ce4bhr92rcd13ifvqhrg","pricing_plan_id":"cebpf4jnsgd1na2vs0mg"},{"bike_id":"e1bcf252-18b4-4805-9368-7dd66d02d24f","system_id":"levelo_inurba_marseille","lat":43.29071,"lon":5.37165,"is_reserved":false,"is_disabled":false,"rental_uris":{"android":"levelo://app?vid=e1bcf252-18b4-4805-9368-7dd66d02d24f","ios":"levelo://app?vid=e1bcf252-18b4-4805-9368-7dd66d02d24f"},"vehicle_type_id":"4","last_reported":1735499159,"current_range_meters":38800,"station_id":"ce4bh5p2rcd13ifvqe4g","pricing_plan_id":"cebpf4jnsgd1na2vs0mg"},{"bike_id":"35142cb1-da84-4465-a902-1b70f5829b31","system_id":"levelo_inurba_marseille","lat":43.25748,"lon":5.41086,"is_reserved":false,"is_disabled":false,"rental_uris":{"android":"levelo://app?vid=35142cb1-da84-4465-a902-1b70f5829b31","ios":"levelo://app?vid=35142cb1-da84-4465-a902-1b70f5829b31"},"vehicle_type_id":"4","last_reported":1735499159,"current_range_meters":38400,"station_id":"ce4bhkp2rcd13ifvqgd0","pricing_plan_id":"cebpf4jnsgd1na2vs0mg"},{"bike_id":"5b7c7869-2d00-4414-b00b-e625d286e84e","system_id":"levelo_inurba_marseille","lat":43.29565,"lon":5.37507,"is_reserved":false,"is_disabled":false,"rental_uris":{"android":"levelo://app?vid=5b7c7869-2d00-4414-b00b-e625d286e84e","ios":"levelo://app?vid=5b7c7869-2d00-4414-b00b-e625d286e84e"},"vehicle_type_id":"4","last_reported":1735499159,"current_range_meters":24800,"station_id":"ce4bgh92rcd13ifvqb50","pricing_plan_id":"cebpf4jnsgd1na2vs0mg"},{"bike_id":"df0eb88d-fd2c-4e51-b29b-0b4e96cdb399","system_id":"levelo_inurba_marseille","lat":43.28152,"lon":5.42634,"is_reserved":false,"is_disabled":false,"rental_uris":{"android":"levelo://app?vid=df0eb88d-fd2c-4e51-b29b-0b4e96cdb399","ios":"levelo://app?vid=df0eb88d-fd2c-4e51-b29b-0b4e96cdb399"},"vehicle_type_id":"4","last_reported":1735499159,"current_range_meters":28800,"station_id":"ce4bhnh2rcd13ifvqgug","pricing_plan_id":"cebpf4jnsgd1na2vs0mg"},{"bike_id":"50d419a8-0577-4450-96f5-1afba6b70679","system_id":"levelo_inurba_marseille","lat":43.30303,"lon":5.39209,"is_reserved":false,"is_disabled":false,"rental_uris":{"android":"levelo://app?vid=50d419a8-0577-4450-96f5-1afba6b70679","ios":"levelo://app?vid=50d419a8-0577-4450-96f5-1afba6b70679"},"vehicle_type_id":"4","last_reported":1735499159,"current_range_meters":38800,"station_id":"ce4bgkh2rcd13ifvqbk0","pricing_plan_id":"cebpf4jnsgd1na2vs0mg"},{"bike_id":"b05b2056-1756-4acc-b9bc-e5f9e37c6e15","system_id":"levelo_inurba_marseille","lat":43.27067,"lon":5.42278,"is_reserved":false,"is_disabled":false,"rental_uris":{"android":"levelo://app?vid=b05b2056-1756-4acc-b9bc-e5f9e37c6e15","ios":"levelo://app?vid=b05b2056-1756-4acc-b9bc-e5f9e37c6e15"},"vehicle_type_id":"4","last_reported":1735499159,"current_range_meters":32400,"station_id":"ce4bhk92rcd13ifvqgb0","pricing_plan_id":"cebpf4jnsgd1na2vs0mg"},{"bike_id":"585de49c-4b3d-4a09-97c5-0ee13dcc1b7c","system_id":"levelo_inurba_marseille","lat":43.2955,"lon":5.42273,"is_reserved":false,"is_disabled":false,"rental_uris":{"android":"levelo://app?vid=585de49c-4b3d-4a09-97c5-0ee13dcc1b7c","ios":"levelo://app?vid=585de49c-4b3d-4a09-97c5-0ee13dcc1b7c"},"vehicle_type_id":"4","last_reported":1735499159,"current_range_meters":38800,"station_id":"ce4bhph2rcd13ifvqhdg","pricing_plan_id":"cebpf4jnsgd1na2vs0mg"},{"bike_id":"fc0b3bf8-65df-44b7-8333-cabe97ef9a6c","system_id":"levelo_inurba_marseille","lat":43.25721,"lon":5.41118,"is_reserved":false,"is_disabled":false,"rental_uris":{"android":"levelo://app?vid=fc0b3bf8-65df-44b7-8333-cabe97ef9a6c","ios":"levelo://app?vid=fc0b3bf8-65df-44b7-8333-cabe97ef9a6c"},"vehicle_type_id":"4","last_reported":1735499159,"current_range_meters":13600,"station_id":"ce4bhkp2rcd13ifvqgd0","pricing_plan_id":"cebpf4jnsgd1na2vs0mg"},{"bike_id":"309a9554-13e3-4a27-8da4-4d931614d914","system_id":"levelo_inurba_marseille","lat":43.29035,"lon":5.38124,"is_reserved":false,"is_disabled":true,"rental_uris":{"android":"levelo://app?vid=309a9554-13e3-4a27-8da4-4d931614d914","ios":"levelo://app?vid=309a9554-13e3-4a27-8da4-4d931614d914"},"vehicle_type_id":"4","last_reported":1735499159,"current_range_meters":1200,"station_id":"ce4bh4p2rcd13ifvqe1g","pricing_plan_id":"cebpf4jnsgd1na2vs0mg"},{"bike_id":"0ca8bd24-8041-4da3-80dd-d8dddaba9365","system_id":"levelo_inurba_marseille","lat":43.30889,"lon":5.37203,"is_reserved":false,"is_disabled":false,"rental_uris":{"android":"levelo://app?vid=0ca8bd24-8041-4da3-80dd-d8dddaba9365","ios":"levelo://app?vid=0ca8bd24-8041-4da3-80dd-d8dddaba9365"},"vehicle_type_id":"4","last_reported":1735499159,"current_range_meters":25600,"station_id":"ce4bguh2rcd13ifvqckg","pricing_plan_id":"cebpf4jnsgd1na2vs0mg"},{"bike_id":"86d96291-f1b0-4d83-abc8-f84a17b325be","system_id":"levelo_inurba_marseille","lat":43.27054,"lon":5.40321,"is_reserved":false,"is_disabled":true,"rental_uris":{"android":"levelo://app?vid=86d96291-f1b0-4d83-abc8-f84a17b325be","ios":"levelo://app?vid=86d96291-f1b0-4d83-abc8-f84a17b325be"},"vehicle_type_id":"4","last_reported":1735499159,"current_range_meters":26800,"station_id":"ce4bhk92rcd13ifvqgc0","pricing_plan_id":"cebpf4jnsgd1na2vs0mg"},{"bike_id":"2d76d9f4-5ac3-420c-b7d3-8710df44025b","system_id":"levelo_inurba_marseille","lat":43.295507,"lon":5.422802,"is_reserved":false,"is_disabled":true,"rental_uris":{"android":"levelo://app?vid=2d76d9f4-5ac3-420c-b7d3-8710df44025b","ios":"levelo://app?vid=2d76d9f4-5ac3-420c-b7d3-8710df44025b"},"vehicle_type_id":"4","last_reported":1735499159,"current_range_meters":8800,"station_id":"ce4bhph2rcd13ifvqhdg","pricing_plan_id":"cebpf4jnsgd1na2vs0mg"},{"bike_id":"5477d212-35e2-4622-b27a-bfe5ff434d03","system_id":"levelo_inurba_marseille","lat":43.337603,"lon":5.374424,"is_reserved":false,"is_disabled":false,"rental_uris":{"android":"levelo://app?vid=5477d212-35e2-4622-b27a-bfe5ff434d03","ios":"levelo://app?vid=5477d212-35e2-4622-b27a-bfe5ff434d03"},"vehicle_type_id":"4","last_reported":1735499159,"current_range_meters":19600,"station_id":"","pricing_plan_id":"cebpf4jnsgd1na2vs0mg"},{"bike_id":"d92b2bcc-24da-4e55-bd37-7a2caeccd448","system_id":"levelo_inurba_marseille","lat":43.26947,"lon":5.38641,"is_reserved":false,"is_disabled":false,"rental_uris":{"android":"levelo://app?vid=d92b2bcc-24da-4e55-bd37-7a2caeccd448","ios":"levelo://app?vid=d92b2bcc-24da-4e55-bd37-7a2caeccd448"},"vehicle_type_id":"4","last_reported":1735499159,"current_range_meters":24800,"station_id":"ce4bhh92rcd13ifvqfh0","pricing_plan_id":"cebpf4jnsgd1na2vs0mg"},{"bike_id":"799ea7ee-8b83-4134-b8f0-a8325f2cecf9","system_id":"levelo_inurba_marseille","lat":43.30551,"lon":5.36719,"is_reserved":false,"is_disabled":false,"rental_uris":{"android":"levelo://app?vid=799ea7ee-8b83-4134-b8f0-a8325f2cecf9","ios":"levelo://app?vid=799ea7ee-8b83-4134-b8f0-a8325f2cecf9"},"vehicle_type_id":"4","last_reported":1735499159,"current_range_meters":36400,"station_id":"ce4bgrp2rcd13ifvqc9g","pricing_plan_id":"cebpf4jnsgd1na2vs0mg"},{"bike_id":"9c699461-17d5-4077-8f28-482b484da4fe","system_id":"levelo_inurba_marseille","lat":43.29186,"lon":5.35811,"is_reserved":false,"is_disabled":false,"rental_uris":{"android":"levelo://app?vid=9c699461-17d5-4077-8f28-482b484da4fe","ios":"levelo://app?vid=9c699461-17d5-4077-8f28-482b484da4fe"},"vehicle_type_id":"4","last_reported":1735499159,"current_range_meters":38800,"station_id":"ce4bhb12rcd13ifvqel0","pricing_plan_id":"cebpf4jnsgd1na2vs0mg"},{"bike_id":"7aab2ffc-cec0-4dd6-981d-6bd7c8cbfd0b","system_id":"levelo_inurba_marseille","lat":43.26052,"lon":5.39397,"is_reserved":false,"is_disabled":true,"rental_uris":{"android":"levelo://app?vid=7aab2ffc-cec0-4dd6-981d-6bd7c8cbfd0b","ios":"levelo://app?vid=7aab2ffc-cec0-4dd6-981d-6bd7c8cbfd0b"},"vehicle_type_id":"4","last_reported":1735499159,"current_range_meters":38000,"station_id":"ce4bhh92rcd13ifvqfj0","pricing_plan_id":"cebpf4jnsgd1na2vs0mg"},{"bike_id":"63283394-4602-4c8b-b9c0-e5ecbaff8db5","system_id":"levelo_inurba_marseille","lat":43.30535,"lon":5.36718,"is_reserved":false,"is_disabled":false,"rental_uris":{"android":"levelo://app?vid=63283394-4602-4c8b-b9c0-e5ecbaff8db5","ios":"levelo://app?vid=63283394-4602-4c8b-b9c0-e5ecbaff8db5"},"vehicle_type_id":"4","last_reported":1735499159,"current_range_meters":16400,"station_id":"ce4bgrp2rcd13ifvqc9g","pricing_plan_id":"cebpf4jnsgd1na2vs0mg"},{"bike_id":"fc5a7c50-b088-4366-8ec0-23ac2c6135e5","system_id":"levelo_inurba_marseille","lat":43.29003,"lon":5.3562,"is_reserved":false,"is_disabled":false,"rental_uris":{"android":"levelo://app?vid=fc5a7c50-b088-4366-8ec0-23ac2c6135e5","ios":"levelo://app?vid=fc5a7c50-b088-4366-8ec0-23ac2c6135e5"},"vehicle_type_id":"4","last_reported":1735499159,"current_range_meters":29600,"station_id":"ce4bhb92rcd13ifvqen0","pricing_plan_id":"cebpf4jnsgd1na2vs0mg"},{"bike_id":"f933ac73-74d5-4067-944d-67580cf592f1","system_id":"levelo_inurba_marseille","lat":43.24547,"lon":5.39526,"is_reserved":false,"is_disabled":false,"rental_uris":{"android":"levelo://app?vid=f933ac73-74d5-4067-944d-67580cf592f1","ios":"levelo://app?vid=f933ac73-74d5-4067-944d-67580cf592f1"},"vehicle_type_id":"4","last_reported":1735499159,"current_range_meters":11200,"station_id":"ce4bhlp2rcd13ifvqgjg","pricing_plan_id":"cebpf4jnsgd1na2vs0mg"},{"bike_id":"b3a22d3f-7399-4a51-a5ee-8e43c846f17c","system_id":"levelo_inurba_marseille","lat":43.30612,"lon":5.37233,"is_reserved":false,"is_disabled":true,"rental_uris":{"android":"levelo://app?vid=b3a22d3f-7399-4a51-a5ee-8e43c846f17c","ios":"levelo://app?vid=b3a22d3f-7399-4a51-a5ee-8e43c846f17c"},"vehicle_type_id":"4","last_reported":1735499159,"current_range_meters":9200,"station_id":"ce4bgqh2rcd13ifvqc4g","pricing_plan_id":"cebpf4jnsgd1na2vs0mg"},{"bike_id":"a9fa3d0c-8669-4d62-8eb2-a587f4a9779c","system_id":"levelo_inurba_marseille","lat":43.27917,"lon":5.39566,"is_reserved":false,"is_disabled":true,"rental_uris":{"android":"levelo://app?vid=a9fa3d0c-8669-4d62-8eb2-a587f4a9779c","ios":"levelo://app?vid=a9fa3d0c-8669-4d62-8eb2-a587f4a9779c"},"vehicle_type_id":"4","last_reported":1735499159,"current_range_meters":34000,"station_id":"ce4bhf92rcd13ifvqf40","pricing_plan_id":"cebpf4jnsgd1na2vs0mg"},{"bike_id":"b1c0ee8d-93e8-4cc8-82d6-c539d877336e","system_id":"levelo_inurba_marseille","lat":43.24389,"lon":5.37038,"is_reserved":false,"is_disabled":false,"rental_uris":{"android":"levelo://app?vid=b1c0ee8d-93e8-4cc8-82d6-c539d877336e","ios":"levelo://app?vid=b1c0ee8d-93e8-4cc8-82d6-c539d877336e"},"vehicle_type_id":"4","last_reported":1735499159,"current_range_meters":38800,"station_id":"ce4bhhh2rcd13ifvqfk0","pricing_plan_id":"cebpf4jnsgd1na2vs0mg"},{"bike_id":"f90fe6af-a7e4-48f4-ba24-07230b06c288","system_id":"levelo_inurba_marseille","lat":43.24997,"lon":5.38932,"is_reserved":false,"is_disabled":false,"rental_uris":{"android":"levelo://app?vid=f90fe6af-a7e4-48f4-ba24-07230b06c288","ios":"levelo://app?vid=f90fe6af-a7e4-48f4-ba24-07230b06c288"},"vehicle_type_id":"4","last_reported":1735499159,"current_range_meters":36800,"station_id":"ce4bhgp2rcd13ifvqfd0","pricing_plan_id":"cebpf4jnsgd1na2vs0mg"},{"bike_id":"d59150ed-784b-42f2-997d-e8403a07ff75","system_id":"levelo_inurba_marseille","lat":43.29874,"lon":5.39732,"is_reserved":false,"is_disabled":false,"rental_uris":{"android":"levelo://app?vid=d59150ed-784b-42f2-997d-e8403a07ff75","ios":"levelo://app?vid=d59150ed-784b-42f2-997d-e8403a07ff75"},"vehicle_type_id":"4","last_reported":1735499159,"current_range_meters":20800,"station_id":"ce4bh0h2rcd13ifvqd50","pricing_plan_id":"cebpf4jnsgd1na2vs0mg"},{"bike_id":"c86acf33-e1ff-4585-8778-ceca4b61b11f","system_id":"levelo_inurba_marseille","lat":43.2942,"lon":5.38625,"is_reserved":false,"is_disabled":false,"rental_uris":{"android":"levelo://app?vid=c86acf33-e1ff-4585-8778-ceca4b61b11f","ios":"levelo://app?vid=c86acf33-e1ff-4585-8778-ceca4b61b11f"},"vehicle_type_id":"4","last_reported":1735499159,"current_range_meters":8400,"station_id":"ce4bh2h2rcd13ifvqdh0","pricing_plan_id":"cebpf4jnsgd1na2vs0mg"},{"bike_id":"a5f518bb-4119-4201-87a3-1707c496c472","system_id":"levelo_inurba_marseille","lat":43.29223,"lon":5.36053,"is_reserved":false,"is_disabled":false,"rental_uris":{"android":"levelo://app?vid=a5f518bb-4119-4201-87a3-1707c496c472","ios":"levelo://app?vid=a5f518bb-4119-4201-87a3-1707c496c472"},"vehicle_type_id":"4","last_reported":1735499159,"current_range_meters":32400,"station_id":"ce4bhbh2rcd13ifvqeqg","pricing_plan_id":"cebpf4jnsgd1na2vs0mg"},{"bike_id":"dd708212-6c95-4591-b555-43b33b8da7f5","system_id":"levelo_inurba_marseille","lat":43.25735,"lon":5.4109,"is_reserved":false,"is_disabled":false,"rental_uris":{"android":"levelo://app?vid=dd708212-6c95-4591-b555-43b33b8da7f5","ios":"levelo://app?vid=dd708212-6c95-4591-b555-43b33b8da7f5"},"vehicle_type_id":"4","last_reported":1735499159,"current_range_meters":36800,"station_id":"ce4bhkp2rcd13ifvqgd0","pricing_plan_id":"cebpf4jnsgd1na2vs0mg"},{"bike_id":"e136f1d4-4971-4f61-8f4c-57a4d567118a","system_id":"levelo_inurba_marseille","lat":43.30093,"lon":5.39076,"is_reserved":false,"is_disabled":false,"rental_uris":{"android":"levelo://app?vid=e136f1d4-4971-4f61-8f4c-57a4d567118a","ios":"levelo://app?vid=e136f1d4-4971-4f61-8f4c-57a4d567118a"},"vehicle_type_id":"4","last_reported":1735499159,"current_range_meters":30000,"station_id":"ce4bh192rcd13ifvqdb0","pricing_plan_id":"cebpf4jnsgd1na2vs0mg"},{"bike_id":"19685a13-7a85-431c-8414-1ee43562c472","system_id":"levelo_inurba_marseille","lat":43.24798,"lon":5.37457,"is_reserved":false,"is_disabled":false,"rental_uris":{"android":"levelo://app?vid=19685a13-7a85-431c-8414-1ee43562c472","ios":"levelo://app?vid=19685a13-7a85-431c-8414-1ee43562c472"},"vehicle_type_id":"4","last_reported":1735499159,"current_range_meters":29600,"station_id":"ce4bhgh2rcd13ifvqfb0","pricing_plan_id":"cebpf4jnsgd1na2vs0mg"},{"bike_id":"155e094f-d3d6-41ed-afa0-ddd620691c2e","system_id":"levelo_inurba_marseille","lat":43.31762,"lon":5.3901,"is_reserved":false,"is_disabled":false,"rental_uris":{"android":"levelo://app?vid=155e094f-d3d6-41ed-afa0-ddd620691c2e","ios":"levelo://app?vid=155e094f-d3d6-41ed-afa0-ddd620691c2e"},"vehicle_type_id":"4","last_reported":1735499159,"current_range_meters":38800,"station_id":"ce4bhqp2rcd13ifvqhng","pricing_plan_id":"cebpf4jnsgd1na2vs0mg"},{"bike_id":"c0705706-6590-403a-ac14-19c18f0f308c","system_id":"levelo_inurba_marseille","lat":43.29538,"lon":5.3855,"is_reserved":false,"is_disabled":false,"rental_uris":{"android":"levelo://app?vid=c0705706-6590-403a-ac14-19c18f0f308c","ios":"levelo://app?vid=c0705706-6590-403a-ac14-19c18f0f308c"},"vehicle_type_id":"4","last_reported":1735499159,"current_range_meters":29600,"station_id":"ce4bgih2rcd13ifvqba0","pricing_plan_id":"cebpf4jnsgd1na2vs0mg"},{"bike_id":"002e2884-777f-482c-bc93-bcaac216dd84","system_id":"levelo_inurba_marseille","lat":43.29509,"lon":5.39418,"is_reserved":false,"is_disabled":false,"rental_uris":{"android":"levelo://app?vid=002e2884-777f-482c-bc93-bcaac216dd84","ios":"levelo://app?vid=002e2884-777f-482c-bc93-bcaac216dd84"},"vehicle_type_id":"4","last_reported":1735499159,"current_range_meters":26800,"station_id":"ce4bh292rcd13ifvqdf0","pricing_plan_id":"cebpf4jnsgd1na2vs0mg"},{"bike_id":"af28d292-226b-4b0c-b39e-417b89319493","system_id":"levelo_inurba_marseille","lat":43.232,"lon":5.35552,"is_reserved":false,"is_disabled":false,"rental_uris":{"android":"levelo://app?vid=af28d292-226b-4b0c-b39e-417b89319493","ios":"levelo://app?vid=af28d292-226b-4b0c-b39e-417b89319493"},"vehicle_type_id":"4","last_reported":1735499159,"current_range_meters":20800,"station_id":"ce4bhu92rcd13ifvqi70","pricing_plan_id":"cebpf4jnsgd1na2vs0mg"},{"bike_id":"a2dfaa5b-c1ad-4316-ae45-cf62c09c30b3","system_id":"levelo_inurba_marseille","lat":43.32112,"lon":5.36772,"is_reserved":false,"is_disabled":false,"rental_uris":{"android":"levelo://app?vid=a2dfaa5b-c1ad-4316-ae45-cf62c09c30b3","ios":"levelo://app?vid=a2dfaa5b-c1ad-4316-ae45-cf62c09c30b3"},"vehicle_type_id":"4","last_reported":1735499159,"current_range_meters":16800,"station_id":"ce4bhrh2rcd13ifvqhug","pricing_plan_id":"cebpf4jnsgd1na2vs0mg"},{"bike_id":"5f8ee9c5-4e33-43ee-b8aa-ac908ba0aac5","system_id":"levelo_inurba_marseille","lat":43.27497,"lon":5.42446,"is_reserved":false,"is_disabled":false,"rental_uris":{"android":"levelo://app?vid=5f8ee9c5-4e33-43ee-b8aa-ac908ba0aac5","ios":"levelo://app?vid=5f8ee9c5-4e33-43ee-b8aa-ac908ba0aac5"},"vehicle_type_id":"4","last_reported":1735499159,"current_range_meters":24400,"station_id":"ce4bhn92rcd13ifvqgrg","pricing_plan_id":"cebpf4jnsgd1na2vs0mg"},{"bike_id":"f6eaced9-ca89-417f-a01d-b87955fe3119","system_id":"levelo_inurba_marseille","lat":43.28427,"lon":5.34988,"is_reserved":false,"is_disabled":true,"rental_uris":{"android":"levelo://app?vid=f6eaced9-ca89-417f-a01d-b87955fe3119","ios":"levelo://app?vid=f6eaced9-ca89-417f-a01d-b87955fe3119"},"vehicle_type_id":"4","last_reported":1735499159,"current_range_meters":2000,"station_id":"ce4bhbh2rcd13ifvqepg","pricing_plan_id":"cebpf4jnsgd1na2vs0mg"},{"bike_id":"bf73b372-dbdf-4ab7-87f0-a65780f75385","system_id":"levelo_inurba_marseille","lat":43.28852,"lon":5.39322,"is_reserved":false,"is_disabled":false,"rental_uris":{"android":"levelo://app?vid=bf73b372-dbdf-4ab7-87f0-a65780f75385","ios":"levelo://app?vid=bf73b372-dbdf-4ab7-87f0-a65780f75385"},"vehicle_type_id":"4","last_reported":1735499159,"current_range_meters":39200,"station_id":"ce4bh2p2rcd13ifvqdi0","pricing_plan_id":"cebpf4jnsgd1na2vs0mg"},{"bike_id":"06a27198-57a9-4c59-a2ef-6e5d24e15208","system_id":"levelo_inurba_marseille","lat":43.27941,"lon":5.41028,"is_reserved":false,"is_disabled":false,"rental_uris":{"android":"levelo://app?vid=06a27198-57a9-4c59-a2ef-6e5d24e15208","ios":"levelo://app?vid=06a27198-57a9-4c59-a2ef-6e5d24e15208"},"vehicle_type_id":"4","last_reported":1735499159,"current_range_meters":25200,"station_id":"ce4bhnp2rcd13ifvqh0g","pricing_plan_id":"cebpf4jnsgd1na2vs0mg"},{"bike_id":"5d22d4f6-c5a9-4ef2-8663-0ea09a357db3","system_id":"levelo_inurba_marseille","lat":43.27209,"lon":5.39177,"is_reserved":false,"is_disabled":false,"rental_uris":{"android":"levelo://app?vid=5d22d4f6-c5a9-4ef2-8663-0ea09a357db3","ios":"levelo://app?vid=5d22d4f6-c5a9-4ef2-8663-0ea09a357db3"},"vehicle_type_id":"4","last_reported":1735499159,"current_range_meters":39200,"station_id":"ce4bhhp2rcd13ifvqfm0","pricing_plan_id":"cebpf4jnsgd1na2vs0mg"},{"bike_id":"e23a7d55-7ce1-4f20-a71a-26c06c907d82","system_id":"levelo_inurba_marseille","lat":43.279493,"lon":5.410477,"is_reserved":false,"is_disabled":false,"rental_uris":{"android":"levelo://app?vid=e23a7d55-7ce1-4f20-a71a-26c06c907d82","ios":"levelo://app?vid=e23a7d55-7ce1-4f20-a71a-26c06c907d82"},"vehicle_type_id":"4","last_reported":1735499159,"current_range_meters":37600,"station_id":"ce4bhnp2rcd13ifvqh0g","pricing_plan_id":"cebpf4jnsgd1na2vs0mg"},{"bike_id":"727b49cc-2a12-48ab-80e0-74df305a51db","system_id":"levelo_inurba_marseille","lat":43.32362,"lon":5.36757,"is_reserved":false,"is_disabled":false,"rental_uris":{"android":"levelo://app?vid=727b49cc-2a12-48ab-80e0-74df305a51db","ios":"levelo://app?vid=727b49cc-2a12-48ab-80e0-74df305a51db"},"vehicle_type_id":"4","last_reported":1735499159,"current_range_meters":30800,"station_id":"ce4bhsh2rcd13ifvqi2g","pricing_plan_id":"cebpf4jnsgd1na2vs0mg"},{"bike_id":"5367a292-5564-4681-91cd-97babb89fc00","system_id":"levelo_inurba_marseille","lat":43.22929,"lon":5.35359,"is_reserved":false,"is_disabled":false,"rental_uris":{"android":"levelo://app?vid=5367a292-5564-4681-91cd-97babb89fc00","ios":"levelo://app?vid=5367a292-5564-4681-91cd-97babb89fc00"},"vehicle_type_id":"4","last_reported":1735499159,"current_range_meters":35200,"station_id":"cpo3532slgdg3j2ikp40","pricing_plan_id":"cebpf4jnsgd1na2vs0mg"},{"bike_id":"778ae1d6-18b2-4f07-a710-06efb20d161f","system_id":"levelo_inurba_marseille","lat":43.32341,"lon":5.4061,"is_reserved":false,"is_disabled":false,"rental_uris":{"android":"levelo://app?vid=778ae1d6-18b2-4f07-a710-06efb20d161f","ios":"levelo://app?vid=778ae1d6-18b2-4f07-a710-06efb20d161f"},"vehicle_type_id":"4","last_reported":1735499159,"current_range_meters":24000,"station_id":"ce4bhq92rcd13ifvqhjg","pricing_plan_id":"cebpf4jnsgd1na2vs0mg"},{"bike_id":"0483d5a5-12c2-4b90-8e6c-47d6d5a4b82c","system_id":"levelo_inurba_marseille","lat":43.25823,"lon":5.39428,"is_reserved":false,"is_disabled":false,"rental_uris":{"android":"levelo://app?vid=0483d5a5-12c2-4b90-8e6c-47d6d5a4b82c","ios":"levelo://app?vid=0483d5a5-12c2-4b90-8e6c-47d6d5a4b82c"},"vehicle_type_id":"4","last_reported":1735499159,"current_range_meters":16000,"station_id":"ce4bhip2rcd13ifvqft0","pricing_plan_id":"cebpf4jnsgd1na2vs0mg"},{"bike_id":"07308ae1-bea8-48ff-879f-15b3edeb7a1a","system_id":"levelo_inurba_marseille","lat":43.28109,"lon":5.37826,"is_reserved":false,"is_disabled":false,"rental_uris":{"android":"levelo://app?vid=07308ae1-bea8-48ff-879f-15b3edeb7a1a","ios":"levelo://app?vid=07308ae1-bea8-48ff-879f-15b3edeb7a1a"},"vehicle_type_id":"4","last_reported":1735499159,"current_range_meters":38800,"station_id":"ce4bha12rcd13ifvqee0","pricing_plan_id":"cebpf4jnsgd1na2vs0mg"},{"bike_id":"68809eeb-1028-4255-859f-70ec9b3590f7","system_id":"levelo_inurba_marseille","lat":43.27811,"lon":5.40715,"is_reserved":false,"is_disabled":false,"rental_uris":{"android":"levelo://app?vid=68809eeb-1028-4255-859f-70ec9b3590f7","ios":"levelo://app?vid=68809eeb-1028-4255-859f-70ec9b3590f7"},"vehicle_type_id":"4","last_reported":1735499159,"current_range_meters":25600,"station_id":"ce4bhnh2rcd13ifvqgtg","pricing_plan_id":"cebpf4jnsgd1na2vs0mg"},{"bike_id":"7c0ace64-49ff-46c5-99ef-7fa4db85a49e","system_id":"levelo_inurba_marseille","lat":43.3236,"lon":5.36759,"is_reserved":false,"is_disabled":false,"rental_uris":{"android":"levelo://app?vid=7c0ace64-49ff-46c5-99ef-7fa4db85a49e","ios":"levelo://app?vid=7c0ace64-49ff-46c5-99ef-7fa4db85a49e"},"vehicle_type_id":"4","last_reported":1735499159,"current_range_meters":18000,"station_id":"ce4bhsh2rcd13ifvqi2g","pricing_plan_id":"cebpf4jnsgd1na2vs0mg"},{"bike_id":"1d692dd0-d491-415a-9c0a-9a7cdf6017fd","system_id":"levelo_inurba_marseille","lat":43.28271,"lon":5.35074,"is_reserved":false,"is_disabled":false,"rental_uris":{"android":"levelo://app?vid=1d692dd0-d491-415a-9c0a-9a7cdf6017fd","ios":"levelo://app?vid=1d692dd0-d491-415a-9c0a-9a7cdf6017fd"},"vehicle_type_id":"4","last_reported":1735499159,"current_range_meters":38400,"station_id":"ce4bhbp2rcd13ifvqerg","pricing_plan_id":"cebpf4jnsgd1na2vs0mg"},{"bike_id":"cd0f8fde-5dbd-4dfd-9841-71397d7c30f7","system_id":"levelo_inurba_marseille","lat":43.2609,"lon":5.3732,"is_reserved":false,"is_disabled":false,"rental_uris":{"android":"levelo://app?vid=cd0f8fde-5dbd-4dfd-9841-71397d7c30f7","ios":"levelo://app?vid=cd0f8fde-5dbd-4dfd-9841-71397d7c30f7"},"vehicle_type_id":"4","last_reported":1735499159,"current_range_meters":27200,"station_id":"","pricing_plan_id":"cebpf4jnsgd1na2vs0mg"},{"bike_id":"a8ed4535-9ac1-40e1-8792-f8893013f535","system_id":"levelo_inurba_marseille","lat":43.26576,"lon":5.37284,"is_reserved":false,"is_disabled":false,"rental_uris":{"android":"levelo://app?vid=a8ed4535-9ac1-40e1-8792-f8893013f535","ios":"levelo://app?vid=a8ed4535-9ac1-40e1-8792-f8893013f535"},"vehicle_type_id":"4","last_reported":1735499159,"current_range_meters":25200,"station_id":"ce4bhg12rcd13ifvqf70","pricing_plan_id":"cebpf4jnsgd1na2vs0mg"},{"bike_id":"b5de2562-f095-45cd-9528-ee25a0af8e8e","system_id":"levelo_inurba_marseille","lat":43.2923,"lon":5.36085,"is_reserved":false,"is_disabled":false,"rental_uris":{"android":"levelo://app?vid=b5de2562-f095-45cd-9528-ee25a0af8e8e","ios":"levelo://app?vid=b5de2562-f095-45cd-9528-ee25a0af8e8e"},"vehicle_type_id":"4","last_reported":1735499159,"current_range_meters":38800,"station_id":"ce4bhbh2rcd13ifvqeqg","pricing_plan_id":"cebpf4jnsgd1na2vs0mg"},{"bike_id":"450de7c6-68ca-4a47-8685-03d1b8b10383","system_id":"levelo_inurba_marseille","lat":43.2999,"lon":5.3717,"is_reserved":false,"is_disabled":false,"rental_uris":{"android":"levelo://app?vid=450de7c6-68ca-4a47-8685-03d1b8b10383","ios":"levelo://app?vid=450de7c6-68ca-4a47-8685-03d1b8b10383"},"vehicle_type_id":"4","last_reported":1735499159,"current_range_meters":17200,"station_id":"ce4bgr92rcd13ifvqc7g","pricing_plan_id":"cebpf4jnsgd1na2vs0mg"},{"bike_id":"79c4e503-18a8-4eeb-88be-9bc7971aa5bb","system_id":"levelo_inurba_marseille","lat":43.26512,"lon":5.3953,"is_reserved":false,"is_disabled":false,"rental_uris":{"android":"levelo://app?vid=79c4e503-18a8-4eeb-88be-9bc7971aa5bb","ios":"levelo://app?vid=79c4e503-18a8-4eeb-88be-9bc7971aa5bb"},"vehicle_type_id":"4","last_reported":1735499159,"current_range_meters":38800,"station_id":"ce4bhi12rcd13ifvqfq0","pricing_plan_id":"cebpf4jnsgd1na2vs0mg"},{"bike_id":"2e19126c-44cf-40bf-a549-dc01e1a05272","system_id":"levelo_inurba_marseille","lat":43.28415,"lon":5.3752,"is_reserved":false,"is_disabled":false,"rental_uris":{"android":"levelo://app?vid=2e19126c-44cf-40bf-a549-dc01e1a05272","ios":"levelo://app?vid=2e19126c-44cf-40bf-a549-dc01e1a05272"},"vehicle_type_id":"4","last_reported":1735499159,"current_range_meters":16400,"station_id":"ce4bh412rcd13ifvqds0","pricing_plan_id":"cebpf4jnsgd1na2vs0mg"},{"bike_id":"1001dbc9-16b2-4c5e-a840-61b2733f0196","system_id":"levelo_inurba_marseille","lat":43.30815,"lon":5.38149,"is_reserved":false,"is_disabled":false,"rental_uris":{"android":"levelo://app?vid=1001dbc9-16b2-4c5e-a840-61b2733f0196","ios":"levelo://app?vid=1001dbc9-16b2-4c5e-a840-61b2733f0196"},"vehicle_type_id":"4","last_reported":1735499159,"current_range_meters":15200,"station_id":"ce4bgt12rcd13ifvqce0","pricing_plan_id":"cebpf4jnsgd1na2vs0mg"},{"bike_id":"942f8ae0-f6f5-42e2-980f-8bfebed0d611","system_id":"levelo_inurba_marseille","lat":43.32077,"lon":5.41524,"is_reserved":false,"is_disabled":false,"rental_uris":{"android":"levelo://app?vid=942f8ae0-f6f5-42e2-980f-8bfebed0d611","ios":"levelo://app?vid=942f8ae0-f6f5-42e2-980f-8bfebed0d611"},"vehicle_type_id":"4","last_reported":1735499159,"current_range_meters":36800,"station_id":"ce4bhq92rcd13ifvqhkg","pricing_plan_id":"cebpf4jnsgd1na2vs0mg"},{"bike_id":"aa0853a1-d76a-43ef-bc0a-45679f566eb0","system_id":"levelo_inurba_marseille","lat":43.29787,"lon":5.38067,"is_reserved":false,"is_disabled":false,"rental_uris":{"android":"levelo://app?vid=aa0853a1-d76a-43ef-bc0a-45679f566eb0","ios":"levelo://app?vid=aa0853a1-d76a-43ef-bc0a-45679f566eb0"},"vehicle_type_id":"4","last_reported":1735499159,"current_range_meters":14800,"station_id":"ce4bgip2rcd13ifvqbb0","pricing_plan_id":"cebpf4jnsgd1na2vs0mg"},{"bike_id":"dac94ecf-3203-4c89-acc0-21c14e979588","system_id":"levelo_inurba_marseille","lat":43.2669,"lon":5.38272,"is_reserved":false,"is_disabled":false,"rental_uris":{"android":"levelo://app?vid=dac94ecf-3203-4c89-acc0-21c14e979588","ios":"levelo://app?vid=dac94ecf-3203-4c89-acc0-21c14e979588"},"vehicle_type_id":"4","last_reported":1735499159,"current_range_meters":25200,"station_id":"ce4bhg92rcd13ifvqf90","pricing_plan_id":"cebpf4jnsgd1na2vs0mg"},{"bike_id":"91bb292a-df5c-4dce-bd7e-6647a12df4cd","system_id":"levelo_inurba_marseille","lat":43.26954,"lon":5.38643,"is_reserved":false,"is_disabled":false,"rental_uris":{"android":"levelo://app?vid=91bb292a-df5c-4dce-bd7e-6647a12df4cd","ios":"levelo://app?vid=91bb292a-df5c-4dce-bd7e-6647a12df4cd"},"vehicle_type_id":"4","last_reported":1735499159,"current_range_meters":39200,"station_id":"ce4bhh92rcd13ifvqfh0","pricing_plan_id":"cebpf4jnsgd1na2vs0mg"},{"bike_id":"dae442df-0334-4a2a-8901-28b38cfe10c7","system_id":"levelo_inurba_marseille","lat":43.23154,"lon":5.43707,"is_reserved":false,"is_disabled":false,"rental_uris":{"android":"levelo://app?vid=dae442df-0334-4a2a-8901-28b38cfe10c7","ios":"levelo://app?vid=dae442df-0334-4a2a-8901-28b38cfe10c7"},"vehicle_type_id":"4","last_reported":1735499159,"current_range_meters":39200,"station_id":"ce4bhmp2rcd13ifvqgog","pricing_plan_id":"cebpf4jnsgd1na2vs0mg"},{"bike_id":"d787e330-e288-4e1c-926a-5bcb7a236ca2","system_id":"levelo_inurba_marseille","lat":43.28154,"lon":5.42647,"is_reserved":false,"is_disabled":false,"rental_uris":{"android":"levelo://app?vid=d787e330-e288-4e1c-926a-5bcb7a236ca2","ios":"levelo://app?vid=d787e330-e288-4e1c-926a-5bcb7a236ca2"},"vehicle_type_id":"4","last_reported":1735499159,"current_range_meters":23200,"station_id":"ce4bhnh2rcd13ifvqgug","pricing_plan_id":"cebpf4jnsgd1na2vs0mg"},{"bike_id":"ef2bb02b-e0bd-4647-b72f-a9fb16a261e5","system_id":"levelo_inurba_marseille","lat":43.29073,"lon":5.37175,"is_reserved":false,"is_disabled":false,"rental_uris":{"android":"levelo://app?vid=ef2bb02b-e0bd-4647-b72f-a9fb16a261e5","ios":"levelo://app?vid=ef2bb02b-e0bd-4647-b72f-a9fb16a261e5"},"vehicle_type_id":"4","last_reported":1735499159,"current_range_meters":11200,"station_id":"ce4bh5p2rcd13ifvqe4g","pricing_plan_id":"cebpf4jnsgd1na2vs0mg"},{"bike_id":"f2f05d7d-466f-450f-ba9a-36b85f6cb7f5","system_id":"levelo_inurba_marseille","lat":43.30144,"lon":5.37427,"is_reserved":false,"is_disabled":false,"rental_uris":{"android":"levelo://app?vid=f2f05d7d-466f-450f-ba9a-36b85f6cb7f5","ios":"levelo://app?vid=f2f05d7d-466f-450f-ba9a-36b85f6cb7f5"},"vehicle_type_id":"4","last_reported":1735499159,"current_range_meters":22800,"station_id":"ce4bgs92rcd13ifvqcc0","pricing_plan_id":"cebpf4jnsgd1na2vs0mg"},{"bike_id":"5af48ed4-70be-4d97-acf2-82d6f3c0b2fb","system_id":"levelo_inurba_marseille","lat":43.31725,"lon":5.37738,"is_reserved":false,"is_disabled":true,"rental_uris":{"android":"levelo://app?vid=5af48ed4-70be-4d97-acf2-82d6f3c0b2fb","ios":"levelo://app?vid=5af48ed4-70be-4d97-acf2-82d6f3c0b2fb"},"vehicle_type_id":"4","last_reported":1735499159,"current_range_meters":36400,"station_id":"ce4bgth2rcd13ifvqch0","pricing_plan_id":"cebpf4jnsgd1na2vs0mg"},{"bike_id":"232a259e-b619-4b4a-85da-cb3ed4bdf186","system_id":"levelo_inurba_marseille","lat":43.29976,"lon":5.38494,"is_reserved":false,"is_disabled":true,"rental_uris":{"android":"levelo://app?vid=232a259e-b619-4b4a-85da-cb3ed4bdf186","ios":"levelo://app?vid=232a259e-b619-4b4a-85da-cb3ed4bdf186"},"vehicle_type_id":"4","last_reported":1735499159,"current_range_meters":14800,"station_id":"ce4bgj92rcd13ifvqbd0","pricing_plan_id":"cebpf4jnsgd1na2vs0mg"},{"bike_id":"bbe4269e-fea3-4f75-a72b-3be3839ecec6","system_id":"levelo_inurba_marseille","lat":43.28718,"lon":5.37947,"is_reserved":false,"is_disabled":false,"rental_uris":{"android":"levelo://app?vid=bbe4269e-fea3-4f75-a72b-3be3839ecec6","ios":"levelo://app?vid=bbe4269e-fea3-4f75-a72b-3be3839ecec6"},"vehicle_type_id":"4","last_reported":1735499159,"current_range_meters":16800,"station_id":"ce4bh9p2rcd13ifvqec0","pricing_plan_id":"cebpf4jnsgd1na2vs0mg"},{"bike_id":"9c5bca43-a233-42d3-afe6-7aaa0033f973","system_id":"levelo_inurba_marseille","lat":43.31717,"lon":5.37749,"is_reserved":false,"is_disabled":true,"rental_uris":{"android":"levelo://app?vid=9c5bca43-a233-42d3-afe6-7aaa0033f973","ios":"levelo://app?vid=9c5bca43-a233-42d3-afe6-7aaa0033f973"},"vehicle_type_id":"4","last_reported":1735499159,"current_range_meters":12400,"station_id":"ce4bgth2rcd13ifvqch0","pricing_plan_id":"cebpf4jnsgd1na2vs0mg"},{"bike_id":"5e57eef6-8100-463f-8b9f-a736bec4d03f","system_id":"levelo_inurba_marseille","lat":43.2695,"lon":5.38631,"is_reserved":false,"is_disabled":false,"rental_uris":{"android":"levelo://app?vid=5e57eef6-8100-463f-8b9f-a736bec4d03f","ios":"levelo://app?vid=5e57eef6-8100-463f-8b9f-a736bec4d03f"},"vehicle_type_id":"4","last_reported":1735499159,"current_range_meters":33600,"station_id":"ce4bhh92rcd13ifvqfh0","pricing_plan_id":"cebpf4jnsgd1na2vs0mg"},{"bike_id":"6198e6eb-6ef2-4d7d-884c-8a56e46ae50e","system_id":"levelo_inurba_marseille","lat":43.30138,"lon":5.39875,"is_reserved":false,"is_disabled":false,"rental_uris":{"android":"levelo://app?vid=6198e6eb-6ef2-4d7d-884c-8a56e46ae50e","ios":"levelo://app?vid=6198e6eb-6ef2-4d7d-884c-8a56e46ae50e"},"vehicle_type_id":"4","last_reported":1735499159,"current_range_meters":38800,"station_id":"ce4bh0h2rcd13ifvqd40","pricing_plan_id":"cebpf4jnsgd1na2vs0mg"},{"bike_id":"61e76abb-4f45-432f-b11c-8efbc3b7479f","system_id":"levelo_inurba_marseille","lat":43.32315,"lon":5.36648,"is_reserved":false,"is_disabled":false,"rental_uris":{"android":"levelo://app?vid=61e76abb-4f45-432f-b11c-8efbc3b7479f","ios":"levelo://app?vid=61e76abb-4f45-432f-b11c-8efbc3b7479f"},"vehicle_type_id":"4","last_reported":1735499159,"current_range_meters":36400,"station_id":"ce4bhsh2rcd13ifvqi2g","pricing_plan_id":"cebpf4jnsgd1na2vs0mg"},{"bike_id":"4bb75e55-263b-4f00-8036-5d9fe1a445cf","system_id":"levelo_inurba_marseille","lat":43.27057,"lon":5.40245,"is_reserved":false,"is_disabled":true,"rental_uris":{"android":"levelo://app?vid=4bb75e55-263b-4f00-8036-5d9fe1a445cf","ios":"levelo://app?vid=4bb75e55-263b-4f00-8036-5d9fe1a445cf"},"vehicle_type_id":"4","last_reported":1735499159,"current_range_meters":0,"station_id":"ce4bhk92rcd13ifvqgc0","pricing_plan_id":"cebpf4jnsgd1na2vs0mg"},{"bike_id":"95558d69-b7ab-4481-8bab-7de4df498d07","system_id":"levelo_inurba_marseille","lat":43.30455,"lon":5.38902,"is_reserved":false,"is_disabled":false,"rental_uris":{"android":"levelo://app?vid=95558d69-b7ab-4481-8bab-7de4df498d07","ios":"levelo://app?vid=95558d69-b7ab-4481-8bab-7de4df498d07"},"vehicle_type_id":"4","last_reported":1735499159,"current_range_meters":19600,"station_id":"ce4bgk12rcd13ifvqbi0","pricing_plan_id":"cebpf4jnsgd1na2vs0mg"},{"bike_id":"fe17c963-ee96-4f5b-8f42-7842d71e406c","system_id":"levelo_inurba_marseille","lat":43.25751,"lon":5.41021,"is_reserved":false,"is_disabled":false,"rental_uris":{"android":"levelo://app?vid=fe17c963-ee96-4f5b-8f42-7842d71e406c","ios":"levelo://app?vid=fe17c963-ee96-4f5b-8f42-7842d71e406c"},"vehicle_type_id":"4","last_reported":1735499159,"current_range_meters":21600,"station_id":"","pricing_plan_id":"cebpf4jnsgd1na2vs0mg"},