{"last_updated":1738595350,"ttl":60,"version":"2.2","data":{"bikes":[{"bike_id":"0731d36f-35c9-460b-967c-3fbdf2d55c05","system_id":"levelo_inurba_marseille","lat":43.25121,"lon":5.40303,"is_reserved":false,"is_disabled":false,"rental_uris":{"android":"levelo://app?vid=0731d36f-35c9-460b-967c-3fbdf2d55c05","ios":"levelo://app?vid=0731d36f-35c9-460b-967c-3fbdf2d55c05"},"vehicle_type_id":"4","last_reported":1738595350,"current_range_meters":38800,"station_id":"ce4bhlh2rcd13ifvqgig","pricing_plan_id":"cebpf4jnsgd1na2vs0mg"},{"bike_id":"4503b3d1-12ff-4a64-857d-cb4670ac32b7","system_id":"levelo_inurba_marseille","lat":43.27623,"lon":5.36113,"is_reserved":false,"is_disabled":false,"rental_uris":{"android":"levelo://app?vid=4503b3d1-12ff-4a64-857d-cb4670ac32b7","ios":"levelo://app?vid=4503b3d1-12ff-4a64-857d-cb4670ac32b7"},"vehicle_type_id":"4","last_reported":1738595350,"current_range_meters":22000,"station_id":"ce4bgj92rcd13ifvqbe0","pricing_plan_id":"cebpf4jnsgd1na2vs0mg"},{"bike_id":"7880d2f6-75fb-4027-8e2a-e7e0a241edc0","system_id":"levelo_inurba_marseille","lat":43.305493,"lon":5.365355,"is_reserved":false,"is_disabled":false,"rental_uris":{"android":"levelo://app?vid=7880d2f6-75fb-4027-8e2a-e7e0a241edc0","ios":"levelo://app?vid=7880d2f6-75fb-4027-8e2a-e7e0a241edc0"},"vehicle_type_id":"4","last_reported":1738595350,"current_range_meters":38800,"station_id":"ce4bgs12rcd13ifvqcag","pricing_plan_id":"cebpf4jnsgd1na2vs0mg"},{"bike_id":"89d69b25-b923-4ac3-9049-63970ca818f9","system_id":"levelo_inurba_marseille","lat":43.30907,"lon":5.36853,"is_reserved":false,"is_disabled":false,"rental_uris":{"android":"levelo://app?vid=89d69b25-b923-4ac3-9049-63970ca818f9","ios":"levelo://app?vid=89d69b25-b923-4ac3-9049-63970ca818f9"},"vehicle_type_id":"4","last_reported":1738595350,"current_range_meters":27600,"station_id":"ce4bgn92rcd13ifvqbvg","pricing_plan_id":"cebpf4jnsgd1na2vs0mg"},{"bike_id":"d4a3addb-559d-4f65-b8df-c8ccf0c35775","system_id":"levelo_inurba_marseille","lat":43.28937,"lon":5.36373,"is_reserved":false,"is_disabled":false,"rental_uris":{"android":"levelo://app?vid=d4a3addb-559d-4f65-b8df-c8ccf0c35775","ios":"levelo://app?vid=d4a3addb-559d-4f65-b8df-c8ccf0c35775"},"vehicle_type_id":"4","last_reported":1738595350,"current_range_meters":19600,"station_id":"ce4bhc92rcd13ifvqetg","pricing_plan_id":"cebpf4jnsgd1na2vs0mg"},{"bike_id":"fc814a83-4ff5-43a8-a34b-7b78fc22ed1e","system_id":"levelo_inurba_marseille","lat":43.26696,"lon":5.38276,"is_reserved":false,"is_disabled":true,"rental_uris":{"android":"levelo://app?vid=fc814a83-4ff5-43a8-a34b-7b78fc22ed1e","ios":"levelo://app?vid=fc814a83-4ff5-43a8-a34b-7b78fc22ed1e"},"vehicle_type_id":"4","last_reported":1738595350,"current_range_meters":400,"station_id":"ce4bhg92rcd13ifvqf90","pricing_plan_id":"cebpf4jnsgd1na2vs0mg"},{"bike_id":"0c4ce1c9-5dfd-498a-9268-e97e1b569d3a","system_id":"levelo_inurba_marseille","lat":43.23193,"lon":5.35552,"is_reserved":false,"is_disabled":false,"rental_uris":{"android":"levelo://app?vid=0c4ce1c9-5dfd-498a-9268-e97e1b569d3a","ios":"levelo://app?vid=0c4ce1c9-5dfd-498a-9268-e97e1b569d3a"},"vehicle_type_id":"4","last_reported":1738595350,"current_range_meters":38000,"station_id":"ce4bhu92rcd13ifvqi70","pricing_plan_id":"cebpf4jnsgd1na2vs0mg"},{"bike_id":"e79de88d-901e-467e-848a-7a75619d3b03","system_id":"levelo_inurba_marseille","lat":43.307915,"lon":5.376485,"is_reserved":false,"is_disabled":false,"rental_uris":{"android":"levelo://app?vid=e79de88d-901e-467e-848a-7a75619d3b03","ios":"levelo://app?vid=e79de88d-901e-467e-848a-7a75619d3b03"},"vehicle_type_id":"4","last_reported":1738595350,"current_range_meters":36800,"station_id":"ce4bgv92rcd13ifvqcq0","pricing_plan_id":"cebpf4jnsgd1na2vs0mg"},{"bike_id":"7ad543c6-fb45-451c-add8-0b23712390bd","system_id":"levelo_inurba_marseille","lat":43.26933,"lon":5.40256,"is_reserved":false,"is_disabled":false,"rental_uris":{"android":"levelo://app?vid=7ad543c6-fb45-451c-add8-0b23712390bd","ios":"levelo://app?vid=7ad543c6-fb45-451c-add8-0b23712390bd"},"vehicle_type_id":"4","last_reported":1738595350,"current_range_meters":21600,"station_id":"cjm6bp8fraef2m0cb0m0","pricing_plan_id":"cebpf4jnsgd1na2vs0mg"},{"bike_id":"f4db27d7-bf1c-414e-8d0e-4facd2c9531c","system_id":"levelo_inurba_marseille","lat":43.30307,"lon":5.39208,"is_reserved":false,"is_disabled":false,"rental_uris":{"android":"levelo://app?vid=f4db27d7-bf1c-414e-8d0e-4facd2c9531c","ios":"levelo://app?vid=f4db27d7-bf1c-414e-8d0e-4facd2c9531c"},"vehicle_type_id":"4","last_reported":1738595350,"current_range_meters":38800,"station_id":"ce4bgkh2rcd13ifvqbk0","pricing_plan_id":"cebpf4jnsgd1na2vs0mg"},{"bike_id":"e028bef9-de68-41b8-97d0-a5d118a020b1","system_id":"levelo_inurba_marseille","lat":43.27056,"lon":5.40274,"is_reserved":false,"is_disabled":false,"rental_uris":{"android":"levelo://app?vid=e028bef9-de68-41b8-97d0-a5d118a020b1","ios":"levelo://app?vid=e028bef9-de68-41b8-97d0-a5d118a020b1"},"vehicle_type_id":"4","last_reported":1738595350,"current_range_meters":38800,"station_id":"ce4bhk92rcd13ifvqgc0","pricing_plan_id":"cebpf4jnsgd1na2vs0mg"},{"bike_id":"ec868846-7d6c-4ce8-b0a8-2ef76718c412","system_id":"levelo_inurba_marseille","lat":43.25826,"lon":5.39447,"is_reserved":false,"is_disabled":false,"rental_uris":{"android":"levelo://app?vid=ec868846-7d6c-4ce8-b0a8-2ef76718c412","ios":"levelo://app?vid=ec868846-7d6c-4ce8-b0a8-2ef76718c412"},"vehicle_type_id":"4","last_reported":1738595350,"current_range_meters":10800,"station_id":"ce4bhip2rcd13ifvqft0","pricing_plan_id":"cebpf4jnsgd1na2vs0mg"},{"bike_id":"39fe4d38-0e6b-4ea1-b4af-c92b785fbb3f","system_id":"levelo_inurba_marseille","lat":43.30544,"lon":5.36531,"is_reserved":false,"is_disabled":false,"rental_uris":{"android":"levelo://app?vid=39fe4d38-0e6b-4ea1-b4af-c92b785fbb3f","ios":"levelo://app?vid=39fe4d38-0e6b-4ea1-b4af-c92b785fbb3f"},"vehicle_type_id":"4","last_reported":1738595350,"current_range_meters":38400,"station_id":"ce4bgs12rcd13ifvqcag","pricing_plan_id":"cebpf4jnsgd1na2vs0mg"},{"bike_id":"b2f5ad0b-e859-4a5a-afe6-19f2444b14ba","system_id":"levelo_inurba_marseille","lat":43.3199,"lon":5.38168,"is_reserved":false,"is_disabled":false,"rental_uris":{"android":"levelo://app?vid=b2f5ad0b-e859-4a5a-afe6-19f2444b14ba","ios":"levelo://app?vid=b2f5ad0b-e859-4a5a-afe6-19f2444b14ba"},"vehicle_type_id":"4","last_reported":1738595350,"current_range_meters":38800,"station_id":"ce4bhr12rcd13ifvqhpg","pricing_plan_id":"cebpf4jnsgd1na2vs0mg"},{"bike_id":"4b55146f-456f-4644-8ce8-4072f1047f3c","system_id":"levelo_inurba_marseille","lat":43.30418,"lon":5.41282,"is_reserved":false,"is_disabled":true,"rental_uris":{"android":"levelo://app?vid=4b55146f-456f-4644-8ce8-4072f1047f3c","ios":"levelo://app?vid=4b55146f-456f-4644-8ce8-4072f1047f3c"},"vehicle_type_id":"4","last_reported":1738595350,"current_range_meters":0,"station_id":"ce4bhop2rcd13ifvqh8g","pricing_plan_id":"cebpf4jnsgd1na2vs0mg"},{"bike_id":"46d57953-5a8b-4a73-a05f-e65f22d873c6","system_id":"levelo_inurba_marseille","lat":43.27063,"lon":5.40254,"is_reserved":false,"is_disabled":false,"rental_uris":{"android":"levelo://app?vid=46d57953-5a8b-4a73-a05f-e65f22d873c6","ios":"levelo://app?vid=46d57953-5a8b-4a73-a05f-e65f22d873c6"},"vehicle_type_id":"4","last_reported":1738595350,"current_range_meters":36400,"station_id":"ce4bhk92rcd13ifvqgc0","pricing_plan_id":"cebpf4jnsgd1na2vs0mg"},{"bike_id":"51e99714-43e1-4b69-bc80-ad86f9cd141f","system_id":"levelo_inurba_marseille","lat":43.28264,"lon":5.35077,"is_reserved":false,"is_disabled":false,"rental_uris":{"android":"levelo://app?vid=51e99714-43e1-4b69-bc80-ad86f9cd141f","ios":"levelo://app?vid=51e99714-43e1-4b69-bc80-ad86f9cd141f"},"vehicle_type_id":"4","last_reported":1738595350,"current_range_meters":34000,"station_id":"ce4bhbp2rcd13ifvqerg","pricing_plan_id":"cebpf4jnsgd1na2vs0mg"},{"bike_id":"fc2c2534-6b38-404c-91a0-095506c82e66","system_id":"levelo_inurba_marseille","lat":43.26934,"lon":5.40246,"is_reserved":false,"is_disabled":false,"rental_uris":{"android":"levelo://app?vid=fc2c2534-6b38-404c-91a0-095506c82e66","ios":"levelo://app?vid=fc2c2534-6b38-404c-91a0-095506c82e66"},"vehicle_type_id":"4","last_reported":1738595350,"current_range_meters":38800,"station_id":"cjm6bp8fraef2m0cb0m0","pricing_plan_id":"cebpf4jnsgd1na2vs0mg"},{"bike_id":"4dab361d-d445-4e11-8bd8-e3dcc5e52dc4","system_id":"levelo_inurba_marseille","lat":43.30295,"lon":5.3921,"is_reserved":false,"is_disabled":false,"rental_uris":{"android":"levelo://app?vid=4dab361d-d445-4e11-8bd8-e3dcc5e52dc4","ios":"levelo://app?vid=4dab361d-d445-4e11-8bd8-e3dcc5e52dc4"},"vehicle_type_id":"4","last_reported":1738595350,"current_range_meters":16400,"station_id":"ce4bgkh2rcd13ifvqbk0","pricing_plan_id":"cebpf4jnsgd1na2vs0mg"},{"bike_id":"4255d86f-6cd2-4c78-b044-c18b3a57a600","system_id":"levelo_inurba_marseille","lat":43.26943,"lon":5.40244,"is_reserved":false,"is_disabled":false,"rental_uris":{"android":"levelo://app?vid=4255d86f-6cd2-4c78-b044-c18b3a57a600","ios":"levelo://app?vid=4255d86f-6cd2-4c78-b044-c18b3a57a600"},"vehicle_type_id":"4","last_reported":1738595350,"current_range_meters":39200,"station_id":"cjm6bp8fraef2m0cb0m0","pricing_plan_id":"cebpf4jnsgd1na2vs0mg"},{"bike_id":"5f2e9518-7d8d-4b3b-872f-985dce81789d","system_id":"levelo_inurba_marseille","lat":43.30878,"lon":5.39656,"is_reserved":false,"is_disabled":false,"rental_uris":{"android":"levelo://app?vid=5f2e9518-7d8d-4b3b-872f-985dce81789d","ios":"levelo://app?vid=5f2e9518-7d8d-4b3b-872f-985dce81789d"},"vehicle_type_id":"4","last_reported":1738595350,"current_range_meters":37600,"station_id":"ce4bh012rcd13ifvqcv0","pricing_plan_id":"cebpf4jnsgd1na2vs0mg"},{"bike_id":"49d702a3-2f94-4939-8d0c-bbe18c7c2959","system_id":"levelo_inurba_marseille","lat":43.30268,"lon":5.377,"is_reserved":false,"is_disabled":false,"rental_uris":{"android":"levelo://app?vid=49d702a3-2f94-4939-8d0c-bbe18c7c2959","ios":"levelo://app?vid=49d702a3-2f94-4939-8d0c-bbe18c7c2959"},"vehicle_type_id":"4","last_reported":1738595350,"current_range_meters":38800,"station_id":"ce4bguh2rcd13ifvqcj0","pricing_plan_id":"cebpf4jnsgd1na2vs0mg"},{"bike_id":"430d5648-146c-4ec7-bbfa-6e1440b57110","system_id":"levelo_inurba_marseille","lat":43.337444,"lon":5.374475,"is_reserved":false,"is_disabled":false,"rental_uris":{"android":"levelo://app?vid=430d5648-146c-4ec7-bbfa-6e1440b57110","ios":"levelo://app?vid=430d5648-146c-4ec7-bbfa-6e1440b57110"},"vehicle_type_id":"4","last_reported":1738595350,"current_range_meters":20800,"station_id":"","pricing_plan_id":"cebpf4jnsgd1na2vs0mg"},{"bike_id":"3e574816-3754-460d-8072-f6ebe3757ea0","system_id":"levelo_inurba_marseille","lat":43.323572,"lon":5.367556,"is_reserved":false,"is_disabled":false,"rental_uris":{"android":"levelo://app?vid=3e574816-3754-460d-8072-f6ebe3757ea0","ios":"levelo://app?vid=3e574816-3754-460d-8072-f6ebe3757ea0"},"vehicle_type_id":"4","last_reported":1738595350,"current_range_meters":22400,"station_id":"ce4bhsh2rcd13ifvqi2g","pricing_plan_id":"cebpf4jnsgd1na2vs0mg"},{"bike_id":"73c5adb8-0998-4854-bb2c-683f7adc0ad5","system_id":"levelo_inurba_marseille","lat":43.3249,"lon":5.36541,"is_reserved":false,"is_disabled":false,"rental_uris":{"android":"levelo://app?vid=73c5adb8-0998-4854-bb2c-683f7adc0ad5","ios":"levelo://app?vid=73c5adb8-0998-4854-bb2c-683f7adc0ad5"},"vehicle_type_id":"4","last_reported":1738595350,"current_range_meters":26800,"station_id":"ce4bhs12rcd13ifvqhvg","pricing_plan_id":"cebpf4jnsgd1na2vs0mg"},{"bike_id":"a1a7079b-68b5-45ca-9af8-b6bc9f7cd559","system_id":"levelo_inurba_marseille","lat":43.22937,"lon":5.3538,"is_reserved":false,"is_disabled":false,"rental_uris":{"android":"levelo://app?vid=a1a7079b-68b5-45ca-9af8-b6bc9f7cd559","ios":"levelo://app?vid=a1a7079b-68b5-45ca-9af8-b6bc9f7cd559"},"vehicle_type_id":"4","last_reported":1738595350,"current_range_meters":38800,"station_id":"cpo3532slgdg3j2ikp40","pricing_plan_id":"cebpf4jnsgd1na2vs0mg"},{"bike_id":"391156ab-23e6-4087-9fff-4d00554806c8","system_id":"levelo_inurba_marseille","lat":43.27554,"lon":5.3841,"is_reserved":false,"is_disabled":false,"rental_uris":{"android":"levelo://app?vid=391156ab-23e6-4087-9fff-4d00554806c8","ios":"levelo://app?vid=391156ab-23e6-4087-9fff-4d00554806c8"},"vehicle_type_id":"4","last_reported":1738595350,"current_range_meters":36800,"station_id":"ce4bhh92rcd13ifvqfi0","pricing_plan_id":"cebpf4jnsgd1na2vs0mg"},{"bike_id":"4a02347c-ae91-4c9d-adba-44e31fcd384a","system_id":"levelo_inurba_marseille","lat":43.28415,"lon":5.34997,"is_reserved":false,"is_disabled":false,"rental_uris":{"android":"levelo://app?vid=4a02347c-ae91-4c9d-adba-44e31fcd384a","ios":"levelo://app?vid=4a02347c-ae91-4c9d-adba-44e31fcd384a"},"vehicle_type_id":"4","last_reported":1738595350,"current_range_meters":8400,"station_id":"ce4bhbh2rcd13ifvqepg","pricing_plan_id":"cebpf4jnsgd1na2vs0mg"},{"bike_id":"da7d54f2-4f6e-44e6-aeb6-caaaeacccf51","system_id":"levelo_inurba_marseille","lat":43.27942,"lon":5.41052,"is_reserved":false,"is_disabled":false,"rental_uris":{"android":"levelo://app?vid=da7d54f2-4f6e-44e6-aeb6-caaaeacccf51","ios":"levelo://app?vid=da7d54f2-4f6e-44e6-aeb6-caaaeacccf51"},"vehicle_type_id":"4","last_reported":1738595350,"current_range_meters":14000,"station_id":"ce4bhnp2rcd13ifvqh0g","pricing_plan_id":"cebpf4jnsgd1na2vs0mg"},{"bike_id":"54b0dd71-98b7-45aa-bc5a-92212f533bcf","system_id":"levelo_inurba_marseille","lat":43.27564,"lon":5.38416,"is_reserved":false,"is_disabled":false,"rental_uris":{"android":"levelo://app?vid=54b0dd71-98b7-45aa-bc5a-92212f533bcf","ios":"levelo://app?vid=54b0dd71-98b7-45aa-bc5a-92212f533bcf"},"vehicle_type_id":"4","last_reported":1738595350,"current_range_meters":6800,"station_id":"ce4bhh92rcd13ifvqfi0","pricing_plan_id":"cebpf4jnsgd1na2vs0mg"},{"bike_id":"1e80229c-3730-4f6a-ad92-db35f7d75e3d","system_id":"levelo_inurba_marseille","lat":43.27231,"lon":5.4095,"is_reserved":false,"is_disabled":false,"rental_uris":{"android":"levelo://app?vid=1e80229c-3730-4f6a-ad92-db35f7d75e3d","ios":"levelo://app?vid=1e80229c-3730-4f6a-ad92-db35f7d75e3d"},"vehicle_type_id":"4","last_reported":1738595350,"current_range_meters":39200,"station_id":"ce4bhl12rcd13ifvqgf0","pricing_plan_id":"cebpf4jnsgd1na2vs0mg"},{"bike_id":"b2a6436f-4c95-46dd-a3bd-6af91e9591d2","system_id":"levelo_inurba_marseille","lat":43.25578,"lon":5.38229,"is_reserved":false,"is_disabled":false,"rental_uris":{"android":"levelo://app?vid=b2a6436f-4c95-46dd-a3bd-6af91e9591d2","ios":"levelo://app?vid=b2a6436f-4c95-46dd-a3bd-6af91e9591d2"},"vehicle_type_id":"4","last_reported":1738595350,"current_range_meters":24000,"station_id":"ce4bhih2rcd13ifvqfs0","pricing_plan_id":"cebpf4jnsgd1na2vs0mg"},{"bike_id":"153e7900-8e47-41b0-9025-8d72f8093f30","system_id":"levelo_inurba_marseille","lat":43.29302,"lon":5.37163,"is_reserved":false,"is_disabled":false,"rental_uris":{"android":"levelo://app?vid=153e7900-8e47-41b0-9025-8d72f8093f30","ios":"levelo://app?vid=153e7900-8e47-41b0-9025-8d72f8093f30"},"vehicle_type_id":"4","last_reported":1738595350,"current_range_meters":27600,"station_id":"ce4bgh92rcd13ifvqb40","pricing_plan_id":"cebpf4jnsgd1na2vs0mg"},{"bike_id":"e3cfeb5a-9d21-412c-be20-0ee979654d92","system_id":"levelo_inurba_marseille","lat":43.25143,"lon":5.40351,"is_reserved":false,"is_disabled":false,"rental_uris":{"android":"levelo://app?vid=e3cfeb5a-9d21-412c-be20-0ee979654d92","ios":"levelo://app?vid=e3cfeb5a-9d21-412c-be20-0ee979654d92"},"vehicle_type_id":"4","last_reported":1738595350,"current_range_meters":16800,"station_id":"","pricing_plan_id":"cebpf4jnsgd1na2vs0mg"},{"bike_id":"239e8734-9ddf-4b45-b436-8839db0497f3","system_id":"levelo_inurba_marseille","lat":43.255,"lon":5.37651,"is_reserved":false,"is_disabled":false,"rental_uris":{"android":"levelo://app?vid=239e8734-9ddf-4b45-b436-8839db0497f3","ios":"levelo://app?vid=239e8734-9ddf-4b45-b436-8839db0497f3"},"vehicle_type_id":"4","last_reported":1738595350,"current_range_meters":10800,"station_id":"ce4bhh12rcd13ifvqff0","pricing_plan_id":"cebpf4jnsgd1na2vs0mg"},{"bike_id":"1a794636-1de8-48ff-a1bf-f41557cb147d","system_id":"levelo_inurba_marseille","lat":43.34617,"lon":5.38064,"is_reserved":false,"is_disabled":false,"rental_uris":{"android":"levelo://app?vid=1a794636-1de8-48ff-a1bf-f41557cb147d","ios":"levelo://app?vid=1a794636-1de8-48ff-a1bf-f41557cb147d"},"vehicle_type_id":"4","last_reported":1738595350,"current_range_meters":17600,"station_id":"","pricing_plan_id":"cebpf4jnsgd1na2vs0mg"},{"bike_id":"1edd7b2e-e82f-4e72-9817-ea746e1c199a","system_id":"levelo_inurba_marseille","lat":43.24648,"lon":5.38896,"is_reserved":false,"is_disabled":false,"rental_uris":{"android":"levelo://app?vid=1edd7b2e-e82f-4e72-9817-ea746e1c199a","ios":"levelo://app?vid=1edd7b2e-e82f-4e72-9817-ea746e1c199a"},"vehicle_type_id":"4","last_reported":1738595350,"current_range_meters":37600,"station_id":"ce4bhg12rcd13ifvqf60","pricing_plan_id":"cebpf4jnsgd1na2vs0mg"},{"bike_id":"38020501-1a3f-448d-99bc-341766efd62f","system_id":"levelo_inurba_marseille","lat":43.30866,"lon":5.39655,"is_reserved":false,"is_disabled":false,"rental_uris":{"android":"levelo://app?vid=38020501-1a3f-448d-99bc-341766efd62f","ios":"levelo://app?vid=38020501-1a3f-448d-99bc-341766efd62f"},"vehicle_type_id":"4","last_reported":1738595350,"current_range_meters":38000,"station_id":"ce4bh012rcd13ifvqcv0","pricing_plan_id":"cebpf4jnsgd1na2vs0mg"},{"bike_id":"8ffd93a7-f1da-4894-a175-b7b2afaf3cb9","system_id":"levelo_inurba_marseille","lat":43.29274,"lon":5.36849,"is_reserved":false,"is_disabled":false,"rental_uris":{"android":"levelo://app?vid=8ffd93a7-f1da-4894-a175-b7b2afaf3cb9","ios":"levelo://app?vid=8ffd93a7-f1da-4894-a175-b7b2afaf3cb9"},"vehicle_type_id":"4","last_reported":1738595350,"current_range_meters":38400,"station_id":"ce4bhbp2rcd13ifvqesg","pricing_plan_id":"cebpf4jnsgd1na2vs0mg"},{"bike_id":"1072a59e-6a14-4a14-b356-7d5cf661bfb6","system_id":"levelo_inurba_marseille","lat":43.3015,"lon":5.37399,"is_reserved":false,"is_disabled":false,"rental_uris":{"android":"levelo://app?vid=1072a59e-6a14-4a14-b356-7d5cf661bfb6","ios":"levelo://app?vid=1072a59e-6a14-4a14-b356-7d5cf661bfb6"},"vehicle_type_id":"4","last_reported":1738595350,"current_range_meters":38000,"station_id":"ce4bgs92rcd13ifvqcc0","pricing_plan_id":"cebpf4jnsgd1na2vs0mg"},{"bike_id":"45d9d2cd-ea1e-47f9-9ccc-2db3cf095c07","system_id":"levelo_inurba_marseille","lat":43.30878,"lon":5.3957,"is_reserved":false,"is_disabled":false,"rental_uris":{"android":"levelo://app?vid=45d9d2cd-ea1e-47f9-9ccc-2db3cf095c07","ios":"levelo://app?vid=45d9d2cd-ea1e-47f9-9ccc-2db3cf095c07"},"vehicle_type_id":"4","last_reported":1738595350,"current_range_meters":36800,"station_id":"","pricing_plan_id":"cebpf4jnsgd1na2vs0mg"},{"bike_id":"30d68ac6-7ba6-4749-8154-bf914e372a6a","system_id":"levelo_inurba_marseille","lat":43.32368,"lon":5.38883,"is_reserved":false,"is_disabled":true,"rental_uris":{"android":"levelo://app?vid=30d68ac6-7ba6-4749-8154-bf914e372a6a","ios":"levelo://app?vid=30d68ac6-7ba6-4749-8154-bf914e372a6a"},"vehicle_type_id":"4","last_reported":1738595350,"current_range_meters":0,"station_id":"ce4bhqp2rcd13ifvqhog","pricing_plan_id":"cebpf4jnsgd1na2vs0mg"},{"bike_id":"70db77fa-5101-4cc3-b5ef-7ecd27e20697","system_id":"levelo_inurba_marseille","lat":43.23058,"lon":5.35494,"is_reserved":false,"is_disabled":false,"rental_uris":{"android":"levelo://app?vid=70db77fa-5101-4cc3-b5ef-7ecd27e20697","ios":"levelo://app?vid=70db77fa-5101-4cc3-b5ef-7ecd27e20697"},"vehicle_type_id":"4","last_reported":1738595350,"current_range_meters":27600,"station_id":"cpo3342slgdg3j2ifvpg","pricing_plan_id":"cebpf4jnsgd1na2vs0mg"},{"bike_id":"e33c097b-83d0-40ec-9fbf-364e5b0a9ef8","system_id":"levelo_inurba_marseille","lat":43.23196,"lon":5.35551,"is_reserved":false,"is_disabled":false,"rental_uris":{"android":"levelo://app?vid=e33c097b-83d0-40ec-9fbf-364e5b0a9ef8","ios":"levelo://app?vid=e33c097b-83d0-40ec-9fbf-364e5b0a9ef8"},"vehicle_type_id":"4","last_reported":1738595350,"current_range_meters":38800,"station_id":"ce4bhu92rcd13ifvqi70","pricing_plan_id":"cebpf4jnsgd1na2vs0mg"},{"bike_id":"f0ee6f69-0d7d-40af-9e27-223a4ba42233","system_id":"levelo_inurba_marseille","lat":43.266923,"lon":5.382725,"is_reserved":false,"is_disabled":false,"rental_uris":{"android":"levelo://app?vid=f0ee6f69-0d7d-40af-9e27-223a4ba42233","ios":"levelo://app?vid=f0ee6f69-0d7d-40af-9e27-223a4ba42233"},"vehicle_type_id":"4","last_reported":1738595350,"current_range_meters":28000,"station_id":"ce4bhg92rcd13ifvqf90","pricing_plan_id":"cebpf4jnsgd1na2vs0mg"},{"bike_id":"8210c432-ac74-47b7-8e64-bb053ed8969d","system_id":"levelo_inurba_marseille","lat":43.312093,"lon":5.368678,"is_reserved":false,"is_disabled":false,"rental_uris":{"android":"levelo://app?vid=8210c432-ac74-47b7-8e64-bb053ed8969d","ios":"levelo://app?vid=8210c432-ac74-47b7-8e64-bb053ed8969d"},"vehicle_type_id":"4","last_reported":1738595350,"current_range_meters":8800,"station_id":"ce4bgl92rcd13ifvqbq0","pricing_plan_id":"cebpf4jnsgd1na2vs0mg"},{"bike_id":"272a6181-bfe1-4f12-b3df-d057573256ce","system_id":"levelo_inurba_marseille","lat":43.28457,"lon":5.35896,"is_reserved":false,"is_disabled":true,"rental_uris":{"android":"levelo://app?vid=272a6181-bfe1-4f12-b3df-d057573256ce","ios":"levelo://app?vid=272a6181-bfe1-4f12-b3df-d057573256ce"},"vehicle_type_id":"4","last_reported":1738595350,"current_range_meters":0,"station_id":"ce4bhah2rcd13ifvqei0","pricing_plan_id":"cebpf4jnsgd1na2vs0mg"},{"bike_id":"2c690888-32aa-449a-908e-291aa526507f","system_id":"levelo_inurba_marseille","lat":43.27827,"lon":5.39193,"is_reserved":false,"is_disabled":false,"rental_uris":{"android":"levelo://app?vid=2c690888-32aa-449a-908e-291aa526507f","ios":"levelo://app?vid=2c690888-32aa-449a-908e-291aa526507f"},"vehicle_type_id":"4","last_reported":1738595350,"current_range_meters":37600,"station_id":"ce4bhjp2rcd13ifvqga0","pricing_plan_id":"cebpf4jnsgd1na2vs0mg"},{"bike_id":"88a9606f-57eb-4ada-bcd9-9d189bfeae6e","system_id":"levelo_inurba_marseille","lat":43.31339,"lon":5.36724,"is_reserved":false,"is_disabled":false,"rental_uris":{"android":"levelo://app?vid=88a9606f-57eb-4ada-bcd9-9d189bfeae6e","ios":"levelo://app?vid=88a9606f-57eb-4ada-bcd9-9d189bfeae6e"},"vehicle_type_id":"4","last_reported":1738595350,"current_range_meters":14800,"station_id":"ce4bgr92rcd13ifvqc6g","pricing_plan_id":"cebpf4jnsgd1na2vs0mg"},{"bike_id":"67012a58-6a52-417b-bf60-1c6bb4a1ddc8","system_id":"levelo_inurba_marseille","lat":43.27056,"lon":5.42264,"is_reserved":false,"is_disabled":false,"rental_uris":{"android":"levelo://app?vid=67012a58-6a52-417b-bf60-1c6bb4a1ddc8","ios":"levelo://app?vid=67012a58-6a52-417b-bf60-1c6bb4a1ddc8"},"vehicle_type_id":"4","last_reported":1738595350,"current_range_meters":9200,"station_id":"ce4bhk92rcd13ifvqgb0","pricing_plan_id":"cebpf4jnsgd1na2vs0mg"},{"bike_id":"965eadaa-c150-4624-b3c2-7d3c174bc6b8","system_id":"levelo_inurba_marseille","lat":43.29224,"lon":5.36083,"is_reserved":false,"is_disabled":false,"rental_uris":{"android":"levelo://app?vid=965eadaa-c150-4624-b3c2-7d3c174bc6b8","ios":"levelo://app?vid=965eadaa-c150-4624-b3c2-7d3c174bc6b8"},"vehicle_type_id":"4","last_reported":1738595350,"current_range_meters":38400,"station_id":"ce4bhbh2rcd13ifvqeqg","pricing_plan_id":"cebpf4jnsgd1na2vs0mg"},{"bike_id":"98aea7c6-6ead-45cc-83b7-57b81452bc31","system_id":"levelo_inurba_marseille","lat":43.28415,"lon":5.37515,"is_reserved":false,"is_disabled":false,"rental_uris":{"android":"levelo://app?vid=98aea7c6-6ead-45cc-83b7-57b81452bc31","ios":"levelo://app?vid=98aea7c6-6ead-45cc-83b7-57b81452bc31"},"vehicle_type_id":"4","last_reported":1738595350,"current_range_meters":27600,"station_id":"ce4bh412rcd13ifvqds0","pricing_plan_id":"cebpf4jnsgd1na2vs0mg"},{"bike_id":"de27dfc9-f2fb-4778-8226-69a993c0eb2e","system_id":"levelo_inurba_marseille","lat":43.24556,"lon":5.39504,"is_reserved":false,"is_disabled":false,"rental_uris":{"android":"levelo://app?vid=de27dfc9-f2fb-4778-8226-69a993c0eb2e","ios":"levelo://app?vid=de27dfc9-f2fb-4778-8226-69a993c0eb2e"},"vehicle_type_id":"4","last_reported":1738595350,"current_range_meters":38800,"station_id":"ce4bhlp2rcd13ifvqgjg","pricing_plan_id":"cebpf4jnsgd1na2vs0mg"},{"bike_id":"053b7c86-8fa2-42a0-8ea3-d5126e8cd464","system_id":"levelo_inurba_marseille","lat":43.28148,"lon":5.42666,"is_reserved":false,"is_disabled":false,"rental_uris":{"android":"levelo://app?vid=053b7c86-8fa2-42a0-8ea3-d5126e8cd464","ios":"levelo://app?vid=053b7c86-8fa2-42a0-8ea3-d5126e8cd464"},"vehicle_type_id":"4","last_reported":1738595350,"current_range_meters":28800,"station_id":"ce4bhnh2rcd13ifvqgug","pricing_plan_id":"cebpf4jnsgd1na2vs0mg"},{"bike_id":"761f8c7e-e88b-48dc-b0de-7607c12c337a","system_id":"levelo_inurba_marseille","lat":43.25014,"lon":5.3892,"is_reserved":false,"is_disabled":false,"rental_uris":{"android":"levelo://app?vid=761f8c7e-e88b-48dc-b0de-7607c12c337a","ios":"levelo://app?vid=761f8c7e-e88b-48dc-b0de-7607c12c337a"},"vehicle_type_id":"4","last_reported":1738595350,"current_range_meters":12400,"station_id":"ce4bhgp2rcd13ifvqfd0","pricing_plan_id":"cebpf4jnsgd1na2vs0mg"},{"bike_id":"5cec77fb-14d3-4ecb-af74-10163858df0a","system_id":"levelo_inurba_marseille","lat":43.24393,"lon":5.37053,"is_reserved":false,"is_disabled":false,"rental_uris":{"android":"levelo://app?vid=5cec77fb-14d3-4ecb-af74-10163858df0a","ios":"levelo://app?vid=5cec77fb-14d3-4ecb-af74-10163858df0a"},"vehicle_type_id":"4","last_reported":1738595350,"current_range_meters":38400,"station_id":"ce4bhhh2rcd13ifvqfk0","pricing_plan_id":"cebpf4jnsgd1na2vs0mg"},{"bike_id":"45cacf3b-3b2b-48eb-888e-67187dbe7395","system_id":"levelo_inurba_marseille","lat":43.28611,"lon":5.3511,"is_reserved":false,"is_disabled":false,"rental_uris":{"android":"levelo://app?vid=45cacf3b-3b2b-48eb-888e-67187dbe7395","ios":"levelo://app?vid=45cacf3b-3b2b-48eb-888e-67187dbe7395"},"vehicle_type_id":"4","last_reported":1738595350,"current_range_meters":38400,"station_id":"ce4bhch2rcd13ifvqeug","pricing_plan_id":"cebpf4jnsgd1na2vs0mg"},{"bike_id":"89887b4f-d13d-48c5-baf0-23a3ebf8279c","system_id":"levelo_inurba_marseille","lat":43.24057,"lon":5.37748,"is_reserved":false,"is_disabled":false,"rental_uris":{"android":"levelo://app?vid=89887b4f-d13d-48c5-baf0-23a3ebf8279c","ios":"levelo://app?vid=89887b4f-d13d-48c5-baf0-23a3ebf8279c"},"vehicle_type_id":"4","last_reported":1738595350,"current_range_meters":37600,"station_id":"ce4bhnp2rcd13ifvqgvg","pricing_plan_id":"cebpf4jnsgd1na2vs0mg"},{"bike_id":"d18dcab5-1dbc-42eb-a21f-17812e3cfff3","system_id":"levelo_inurba_marseille","lat":43.30543,"lon":5.36554,"is_reserved":false,"is_disabled":false,"rental_uris":{"android":"levelo://app?vid=d18dcab5-1dbc-42eb-a21f-17812e3cfff3","ios":"levelo://app?vid=d18dcab5-1dbc-42eb-a21f-17812e3cfff3"},"vehicle_type_id":"4","last_reported":1738595350,"current_range_meters":33600,"station_id":"ce4bgs12rcd13ifvqcag","pricing_plan_id":"cebpf4jnsgd1na2vs0mg"},{"bike_id":"9c55c2fa-e65e-408b-bf27-53eaa05dc05f","system_id":"levelo_inurba_marseille","lat":43.30536,"lon":5.36692,"is_reserved":false,"is_disabled":false,"rental_uris":{"android":"levelo://app?vid=9c55c2fa-e65e-408b-bf27-53eaa05dc05f","ios":"levelo://app?vid=9c55c2fa-e65e-408b-bf27-53eaa05dc05f"},"vehicle_type_id":"4","last_reported":1738595350,"current_range_meters":21600,"station_id":"ce4bgrp2rcd13ifvqc9g","pricing_plan_id":"cebpf4jnsgd1na2vs0mg"},{"bike_id":"3ab0ceb6-cd89-477f-8038-1be761eb4bda","system_id":"levelo_inurba_marseille","lat":43.29217,"lon":5.36043,"is_reserved":false,"is_disabled":false,"rental_uris":{"android":"levelo://app?vid=3ab0ceb6-cd89-477f-8038-1be761eb4bda","ios":"levelo://app?vid=3ab0ceb6-cd89-477f-8038-1be761eb4bda"},"vehicle_type_id":"4","last_reported":1738595350,"current_range_meters":18800,"station_id":"ce4bhbh2rcd13ifvqeqg","pricing_plan_id":"cebpf4jnsgd1na2vs0mg"},{"bike_id":"ec4a35f5-4c8d-43d6-bd79-61d936024c79","system_id":"levelo_inurba_marseille","lat":43.28277,"lon":5.35078,"is_reserved":false,"is_disabled":false,"rental_uris":{"android":"levelo://app?vid=ec4a35f5-4c8d-43d6-bd79-61d936024c79","ios":"levelo://app?vid=ec4a35f5-4c8d-43d6-bd79-61d936024c79"},"vehicle_type_id":"4","last_reported":1738595350,"current_range_meters":30000,"station_id":"ce4bhbp2rcd13ifvqerg","pricing_plan_id":"cebpf4jnsgd1na2vs0mg"},{"bike_id":"8e599b88-5a17-40c8-a99e-aa5dfac0c156","system_id":"levelo_inurba_marseille","lat":43.24823,"lon":5.3746,"is_reserved":false,"is_disabled":false,"rental_uris":{"android":"levelo://app?vid=8e599b88-5a17-40c8-a99e-aa5dfac0c156","ios":"levelo://app?vid=8e599b88-5a17-40c8-a99e-aa5dfac0c156"},"vehicle_type_id":"4","last_reported":1738595350,"current_range_meters":29600,"station_id":"ce4bhgh2rcd13ifvqfb0","pricing_plan_id":"cebpf4jnsgd1na2vs0mg"},{"bike_id":"508fa1c9-aee4-4f6d-9b9e-b05c02995bbb","system_id":"levelo_inurba_marseille","lat":43.32365,"lon":5.36756,"is_reserved":false,"is_disabled":false,"rental_uris":{"android":"levelo://app?vid=508fa1c9-aee4-4f6d-9b9e-b05c02995bbb","ios":"levelo://app?vid=508fa1c9-aee4-4f6d-9b9e-b05c02995bbb"},"vehicle_type_id":"4","last_reported":1738595350,"current_range_meters":18800,"station_id":"ce4bhsh2rcd13ifvqi2g","pricing_plan_id":"cebpf4jnsgd1na2vs0mg"},{"bike_id":"336ba170-f212-47ec-a8a9-236ae819b98c","system_id":"levelo_inurba_marseille","lat":43.3087,"lon":5.37186,"is_reserved":false,"is_disabled":false,"rental_uris":{"android":"levelo://app?vid=336ba170-f212-47ec-a8a9-236ae819b98c","ios":"levelo://app?vid=336ba170-f212-47ec-a8a9-236ae819b98c"},"vehicle_type_id":"4","last_reported":1738595350,"current_range_meters":28400,"station_id":"ce4bguh2rcd13ifvqckg","pricing_plan_id":"cebpf4jnsgd1na2vs0mg"},{"bike_id":"040c186f-291f-4f61-a54f-cd742e5fa1c4","system_id":"levelo_inurba_marseille","lat":43.32466,"lon":5.36544,"is_reserved":false,"is_disabled":false,"rental_uris":{"android":"levelo://app?vid=040c186f-291f-4f61-a54f-cd742e5fa1c4","ios":"levelo://app?vid=040c186f-291f-4f61-a54f-cd742e5fa1c4"},"vehicle_type_id":"4","last_reported":1738595350,"current_range_meters":12400,"station_id":"ce4bhs12rcd13ifvqhvg","pricing_plan_id":"cebpf4jnsgd1na2vs0mg"},{"bike_id":"e7c80f8b-1242-47b4-a3b2-fe3e5e85ce7e","system_id":"levelo_inurba_marseille","lat":43.26056,"lon":5.39398,"is_reserved":false,"is_disabled":false,"rental_uris":{"android":"levelo://app?vid=e7c80f8b-1242-47b4-a3b2-fe3e5e85ce7e","ios":"levelo://app?vid=e7c80f8b-1242-47b4-a3b2-fe3e5e85ce7e"},"vehicle_type_id":"4","last_reported":1738595350,"current_range_meters":6400,"station_id":"ce4bhh92rcd13ifvqfj0","pricing_plan_id":"cebpf4jnsgd1na2vs0mg"},{"bike_id":"e29e66e1-4289-4b80-9618-7d822ef1b86e","system_id":"levelo_inurba_marseille","lat":43.31757,"lon":5.39014,"is_reserved":false,"is_disabled":false,"rental_uris":{"android":"levelo://app?vid=e29e66e1-4289-4b80-9618-7d822ef1b86e","ios":"levelo://app?vid=e29e66e1-4289-4b80-9618-7d822ef1b86e"},"vehicle_type_id":"4","last_reported":1738595350,"current_range_meters":26800,"station_id":"ce4bhqp2rcd13ifvqhng","pricing_plan_id":"cebpf4jnsgd1na2vs0mg"},{"bike_id":"1ef2749b-6ebf-4975-819b-d45d930de217","system_id":"levelo_inurba_marseille","lat":43.26787,"lon":5.39409,"is_reserved":false,"is_disabled":true,"rental_uris":{"android":"levelo://app?vid=1ef2749b-6ebf-4975-819b-d45d930de217","ios":"levelo://app?vid=1ef2749b-6ebf-4975-819b-d45d930de217"},"vehicle_type_id":"4","last_reported":1738595350,"current_range_meters":2000,"station_id":"ce4bhh12rcd13ifvqfg0","pricing_plan_id":"cebpf4jnsgd1na2vs0mg"},{"bike_id":"4e8d7c8d-4293-4a28-9fc6-2f0611784c68","system_id":"levelo_inurba_marseille","lat":43.30528,"lon":5.38405,"is_reserved":false,"is_disabled":false,"rental_uris":{"android":"levelo://app?vid=4e8d7c8d-4293-4a28-9fc6-2f0611784c68","ios":"levelo://app?vid=4e8d7c8d-4293-4a28-9fc6-2f0611784c68"},"vehicle_type_id":"4","last_reported":1738595350,"current_range_meters":38800,"station_id":"ce4bgg92rcd13ifvqb30","pricing_plan_id":"cebpf4jnsgd1na2vs0mg"},{"bike_id":"fd3d96e7-ab9e-49b9-8fde-ad45645e97d7","system_id":"levelo_inurba_marseille","lat":43.31235,"lon":5.36851,"is_reserved":false,"is_disabled":false,"rental_uris":{"android":"levelo://app?vid=fd3d96e7-ab9e-49b9-8fde-ad45645e97d7","ios":"levelo://app?vid=fd3d96e7-ab9e-49b9-8fde-ad45645e97d7"},"vehicle_type_id":"4","last_reported":1738595350,"current_range_meters":38400,"station_id":"ce4bgl92rcd13ifvqbq0","pricing_plan_id":"cebpf4jnsgd1na2vs0mg"},{"bike_id":"8c9670cf-f6dc-4cff-9a27-e6e571437e57","system_id":"levelo_inurba_marseille","lat":43.29526,"lon":5.3854,"is_reserved":false,"is_disabled":false,"rental_uris":{"android":"levelo://app?vid=8c9670cf-f6dc-4cff-9a27-e6e571437e57","ios":"levelo://app?vid=8c9670cf-f6dc-4cff-9a27-e6e571437e57"},"vehicle_type_id":"4","last_reported":1738595350,"current_range_meters":31200,"station_id":"ce4bgih2rcd13ifvqba0","pricing_plan_id":"cebpf4jnsgd1na2vs0mg"},{"bike_id":"8cd59970-9ef1-427d-a900-944a7d837b93","system_id":"levelo_inurba_marseille","lat":43.30418,"lon":5.41289,"is_reserved":false,"is_disabled":false,"rental_uris":{"android":"levelo://app?vid=8cd59970-9ef1-427d-a900-944a7d837b93","ios":"levelo://app?vid=8cd59970-9ef1-427d-a900-944a7d837b93"},"vehicle_type_id":"4","last_reported":1738595350,"current_range_meters":16000,"station_id":"ce4bhop2rcd13ifvqh8g","pricing_plan_id":"cebpf4jnsgd1na2vs0mg"},{"bike_id":"932e631e-8837-4f8e-b148-8a51a367af40","system_id":"levelo_inurba_marseille","lat":43.27045,"lon":5.40286,"is_reserved":false,"is_disabled":false,"rental_uris":{"android":"levelo://app?vid=932e631e-8837-4f8e-b148-8a51a367af40","ios":"levelo://app?vid=932e631e-8837-4f8e-b148-8a51a367af40"},"vehicle_type_id":"4","last_reported":1738595350,"current_range_meters":16400,"station_id":"ce4bhk92rcd13ifvqgc0","pricing_plan_id":"cebpf4jnsgd1na2vs0mg"},{"bike_id":"d60394e9-bb09-422e-8517-fb839b12f2b7","system_id":"levelo_inurba_marseille","lat":43.29363,"lon":5.37852,"is_reserved":false,"is_disabled":false,"rental_uris":{"android":"levelo://app?vid=d60394e9-bb09-422e-8517-fb839b12f2b7","ios":"levelo://app?vid=d60394e9-bb09-422e-8517-fb839b12f2b7"},"vehicle_type_id":"4","last_reported":1738595350,"current_range_meters":6400,"station_id":"ce4bgjh2rcd13ifvqbf0","pricing_plan_id":"cebpf4jnsgd1na2vs0mg"},{"bike_id":"d956c0fa-8e81-4a5c-a819-66560ebeacd2","system_id":"levelo_inurba_marseille","lat":43.28155,"lon":5.42651,"is_reserved":false,"is_disabled":false,"rental_uris":{"android":"levelo://app?vid=d956c0fa-8e81-4a5c-a819-66560ebeacd2","ios":"levelo://app?vid=d956c0fa-8e81-4a5c-a819-66560ebeacd2"},"vehicle_type_id":"4","last_reported":1738595350,"current_range_meters":10000,"station_id":"ce4bhnh2rcd13ifvqgug","pricing_plan_id":"cebpf4jnsgd1na2vs0mg"},{"bike_id":"da34d4f8-fcc3-4716-a4b5-ebb5e90aeefc","system_id":"levelo_inurba_marseille","lat":43.31329,"lon":5.39689,"is_reserved":false,"is_disabled":false,"rental_uris":{"android":"levelo://app?vid=da34d4f8-fcc3-4716-a4b5-ebb5e90aeefc","ios":"levelo://app?vid=da34d4f8-fcc3-4716-a4b5-ebb5e90aeefc"},"vehicle_type_id":"4","last_reported":1738595350,"current_range_meters":38800,"station_id":"ce4bgvp2rcd13ifvqcu0","pricing_plan_id":"cebpf4jnsgd1na2vs0mg"},{"bike_id":"21c89297-c791-4464-9214-e643c17f7aa6","system_id":"levelo_inurba_marseille","lat":43.31332,"lon":5.39688,"is_reserved":false,"is_disabled":false,"rental_uris":{"android":"levelo://app?vid=21c89297-c791-4464-9214-e643c17f7aa6","ios":"levelo://app?vid=21c89297-c791-4464-9214-e643c17f7aa6"},"vehicle_type_id":"4","last_reported":1738595350,"current_range_meters":38800,"station_id":"ce4bgvp2rcd13ifvqcu0","pricing_plan_id":"cebpf4jnsgd1na2vs0mg"},{"bike_id":"49eec8cc-6a00-4932-8e40-e0bcc3ebae12","system_id":"levelo_inurba_marseille","lat":43.240763,"lon":5.377573,"is_reserved":false,"is_disabled":false,"rental_uris":{"android":"levelo://app?vid=49eec8cc-6a00-4932-8e40-e0bcc3ebae12","ios":"levelo://app?vid=49eec8cc-6a00-4932-8e40-e0bcc3ebae12"},"vehicle_type_id":"4","last_reported":1738595350,"current_range_meters":10000,"station_id":"ce4bhnp2rcd13ifvqgvg","pricing_plan_id":"cebpf4jnsgd1na2vs0mg"},{"bike_id":"755dbd08-04f6-4adb-a85e-e083ecdb6f2e","system_id":"levelo_inurba_marseille","lat":43.29608,"lon":5.38116,"is_reserved":false,"is_disabled":false,"rental_uris":{"android":"levelo://app?vid=755dbd08-04f6-4adb-a85e-e083ecdb6f2e","ios":"levelo://app?vid=755dbd08-04f6-4adb-a85e-e083ecdb6f2e"},"vehicle_type_id":"4","last_reported":1738595350,"current_range_meters":26800,"station_id":"ce4bgl12rcd13ifvqbo0","pricing_plan_id":"cebpf4jnsgd1na2vs0mg"},{"bike_id":"9c1e07d4-8833-47fd-909a-691fb3f415b8","system_id":"levelo_inurba_marseille","lat":43.269257,"lon":5.389117,"is_reserved":false,"is_disabled":false,"rental_uris":{"android":"levelo://app?vid=9c1e07d4-8833-47fd-909a-691fb3f415b8","ios":"levelo://app?vid=9c1e07d4-8833-47fd-909a-691fb3f415b8"},"vehicle_type_id":"4","last_reported":1738595350,"current_range_meters":38000,"station_id":"ce4bhhh2rcd13ifvqfl0","pricing_plan_id":"cebpf4jnsgd1na2vs0mg"},{"bike_id":"9852d283-9027-465c-82cf-12dda472aabb","system_id":"levelo_inurba_marseille","lat":43.30524,"lon":5.36709,"is_reserved":false,"is_disabled":false,"rental_uris":{"android":"levelo://app?vid=9852d283-9027-465c-82cf-12dda472aabb","ios":"levelo://app?vid=9852d283-9027-465c-82cf-12dda472aabb"},"vehicle_type_id":"4","last_reported":1738595350,"current_range_meters":33600,"station_id":"ce4bgrp2rcd13ifvqc9g","pricing_plan_id":"cebpf4jnsgd1na2vs0mg"},{"bike_id":"48296484-df26-4d78-a52d-13e2d3a2043a","system_id":"levelo_inurba_marseille","lat":43.28477,"lon":5.38412,"is_reserved":false,"is_disabled":true,"rental_uris":{"android":"levelo://app?vid=48296484-df26-4d78-a52d-13e2d3a2043a","ios":"levelo://app?vid=48296484-df26-4d78-a52d-13e2d3a2043a"},"vehicle_type_id":"4","last_reported":1738595350,"current_range_meters":23200,"station_id":"ce4bh512rcd13ifvqe3g","pricing_plan_id":"cebpf4jnsgd1na2vs0mg"},{"bike_id":"18a697ac-22ba-405f-9c3b-66eb1d33e741","system_id":"levelo_inurba_marseille","lat":43.27231,"lon":5.39174,"is_reserved":false,"is_disabled":false,"rental_uris":{"android":"levelo://app?vid=18a697ac-22ba-405f-9c3b-66eb1d33e741","ios":"levelo://app?vid=18a697ac-22ba-405f-9c3b-66eb1d33e741"},"vehicle_type_id":"4","last_reported":1738595350,"current_range_meters":39200,"station_id":"ce4bhhp2rcd13ifvqfm0","pricing_plan_id":"cebpf4jnsgd1na2vs0mg"},{"bike_id":"48c23db0-b5b4-47ef-bf29-862bb3b67da5","system_id":"levelo_inurba_marseille","lat":43.29973,"lon":5.3683,"is_reserved":false,"is_disabled":false,"rental_uris":{"android":"levelo://app?vid=48c23db0-b5b4-47ef-bf29-862bb3b67da5","ios":"levelo://app?vid=48c23db0-b5b4-47ef-bf29-862bb3b67da5"},"vehicle_type_id":"4","last_reported":1738595350,"current_range_meters":33200,"station_id":"ce4bgm92rcd13ifvqbr0","pricing_plan_id":"cebpf4jnsgd1na2vs0mg"},{"bike_id":"a2bd818b-5c72-4d97-adbe-ad40a0a97fbb","system_id":"levelo_inurba_marseille","lat":43.25931,"lon":5.40913,"is_reserved":false,"is_disabled":false,"rental_uris":{"android":"levelo://app?vid=a2bd818b-5c72-4d97-adbe-ad40a0a97fbb","ios":"levelo://app?vid=a2bd818b-5c72-4d97-adbe-ad40a0a97fbb"},"vehicle_type_id":"4","last_reported":1738595350,"current_range_meters":22400,"station_id":"ce4bhm92rcd13ifvqglg","pricing_plan_id":"cebpf4jnsgd1na2vs0mg"},{"bike_id":"b8a10bf8-9efc-40f9-befa-1c1b083e6e8f","system_id":"levelo_inurba_marseille","lat":43.30211,"lon":5.37351,"is_reserved":false,"is_disabled":false,"rental_uris":{"android":"levelo://app?vid=b8a10bf8-9efc-40f9-befa-1c1b083e6e8f","ios":"levelo://app?vid=b8a10bf8-9efc-40f9-befa-1c1b083e6e8f"},"vehicle_type_id":"4","last_reported":1738595350,"current_range_meters":38400,"station_id":"ce4bgs92rcd13ifvqcc0","pricing_plan_id":"cebpf4jnsgd1na2vs0mg"},{"bike_id":"4922d910-738e-4c32-b977-abc56876919c","system_id":"levelo_inurba_marseille","lat":43.32484,"lon":5.36561,"is_reserved":false,"is_disabled":false,"rental_uris":{"android":"levelo://app?vid=4922d910-738e-4c32-b977-abc56876919c","ios":"levelo://app?vid=4922d910-738e-4c32-b977-abc56876919c"},"vehicle_type_id":"4","last_reported":1738595350,"current_range_meters":38800,"station_id":"ce4bhs12rcd13ifvqhvg","pricing_plan_id":"cebpf4jnsgd1na2vs0mg"},{"bike_id":"88f6ec14-1047-428a-bfc8-ed7564b679d3","system_id":"levelo_inurba_marseille","lat":43.24407,"lon":5.37042,"is_reserved":false,"is_disabled":false,"rental_uris":{"android":"levelo://app?vid=88f6ec14-1047-428a-bfc8-ed7564b679d3","ios":"levelo://app?vid=88f6ec14-1047-428a-bfc8-ed7564b679d3"},"vehicle_type_id":"4","last_reported":1738595350,"current_range_meters":8000,"station_id":"ce4bhhh2rcd13ifvqfk0","pricing_plan_id":"cebpf4jnsgd1na2vs0mg"},{"bike_id":"e7cb33b5-fc99-401e-9cab-585b8229aeb7","system_id":"levelo_inurba_marseille","lat":43.29567,"lon":5.3752,"is_reserved":false,"is_disabled":false,"rental_uris":{"android":"levelo://app?vid=e7cb33b5-fc99-401e-9cab-585b8229aeb7","ios":"levelo://app?vid=e7cb33b5-fc99-401e-9cab-585b8229aeb7"},"vehicle_type_id":"4","last_reported":1738595350,"current_range_meters":38000,"station_id":"ce4bgh92rcd13ifvqb50","pricing_plan_id":"cebpf4jnsgd1na2vs0mg"},{"bike_id":"b238d109-7573-4ab1-97c7-ebb4220ae2eb","system_id":"levelo_inurba_marseille","lat":43.3372,"lon":5.39185,"is_reserved":false,"is_disabled":false,"rental_uris":{"android":"levelo://app?vid=b238d109-7573-4ab1-97c7-ebb4220ae2eb","ios":"levelo://app?vid=b238d109-7573-4ab1-97c7-ebb4220ae2eb"},"vehicle_type_id":"4","last_reported":1738595350,"current_range_meters":38800,"station_id":"ce4bhr92rcd13ifvqhsg","pricing_plan_id":"cebpf4jnsgd1na2vs0mg"},{"bike_id":"fad26299-4859-48d9-af16-461be31a4018","system_id":"levelo_inurba_marseille","lat":43.23201,"lon":5.40002,"is_reserved":false,"is_disabled":true,"rental_uris":{"android":"levelo://app?vid=fad26299-4859-48d9-af16-461be31a4018","ios":"levelo://app?vid=fad26299-4859-48d9-af16-461be31a4018"},"vehicle_type_id":"4","last_reported":1738595350,"current_range_meters":1200,"station_id":"ce4bhn12rcd13ifvqgqg","pricing_plan_id":"cebpf4jnsgd1na2vs0mg"},{"bike_id":"caef7f00-c7e8-4cc3-8d69-44a4d338da3f","system_id":"levelo_inurba_marseille","lat":43.30797,"lon":5.37652,"is_reserved":false,"is_disabled":false,"rental_uris":{"android":"levelo://app?vid=caef7f00-c7e8-4cc3-8d69-44a4d338da3f","ios":"levelo://app?vid=caef7f00-c7e8-4cc3-8d69-44a4d338da3f"},"vehicle_type_id":"4","last_reported":1738595350,"current_range_meters":27200,"station_id":"ce4bgv92rcd13ifvqcq0","pricing_plan_id":"cebpf4jnsgd1na2vs0mg"},{"bike_id":"330b3d2d-d2cc-48ed-812f-2962ec3cf786","system_id":"levelo_inurba_marseille","lat":43.26563,"lon":5.38999,"is_reserved":false,"is_disabled":false,"rental_uris":{"android":"levelo://app?vid=330b3d2d-d2cc-48ed-812f-2962ec3cf786","ios":"levelo://app?vid=330b3d2d-d2cc-48ed-812f-2962ec3cf786"},"vehicle_type_id":"4","last_reported":1738595350,"current_range_meters":29600,"station_id":"ce4bhe12rcd13ifvqf30","pricing_plan_id":"cebpf4jnsgd1na2vs0mg"},{"bike_id":"a0925823-1ade-4887-a06a-053989c0e128","system_id":"levelo_inurba_marseille","lat":43.28847,"lon":5.39317,"is_reserved":false,"is_disabled":false,"rental_uris":{"android":"levelo://app?vid=a0925823-1ade-4887-a06a-053989c0e128","ios":"levelo://app?vid=a0925823-1ade-4887-a06a-053989c0e128"},"vehicle_type_id":"4","last_reported":1738595350,"current_range_meters":21600,"station_id":"ce4bh2p2rcd13ifvqdi0","pricing_plan_id":"cebpf4jnsgd1na2vs0mg"},{"bike_id":"9ec59380-90e5-444c-baac-28597272e290","system_id":"levelo_inurba_marseille","lat":43.31082,"lon":5.38364,"is_reserved":false,"is_disabled":false,"rental_uris":{"android":"levelo://app?vid=9ec59380-90e5-444c-baac-28597272e290","ios":"levelo://app?vid=9ec59380-90e5-444c-baac-28597272e290"},"vehicle_type_id":"4","last_reported":1738595350,"current_range_meters":16800,"station_id":"ce4bgv92rcd13ifvqcr0","pricing_plan_id":"cebpf4jnsgd1na2vs0mg"},{"bike_id":"a1cecde7-649f-4649-b593-274521c6fb10","system_id":"levelo_inurba_marseille","lat":43.32487,"lon":5.36546,"is_reserved":false,"is_disabled":false,"rental_uris":{"android":"levelo://app?vid=a1cecde7-649f-4649-b593-274521c6fb10","ios":"levelo://app?vid=a1cecde7-649f-4649-b593-274521c6fb10"},"vehicle_type_id":"4","last_reported":1738595350,"current_range_meters":38800,"station_id":"ce4bhs12rcd13ifvqhvg","pricing_plan_id":"cebpf4jnsgd1na2vs0mg"},{"bike_id":"9e179f7c-df00-4db2-a460-b62e9444ffe5","system_id":"levelo_inurba_marseille","lat":43.31177,"lon":5.38715,"is_reserved":false,"is_disabled":false,"rental_uris":{"android":"levelo://app?vid=9e179f7c-df00-4db2-a460-b62e9444ffe5","ios":"levelo://app?vid=9e179f7c-df00-4db2-a460-b62e9444ffe5"},"vehicle_type_id":"4","last_reported":1738595350,"current_range_meters":16000,"station_id":"ce4bgv12rcd13ifvqcp0","pricing_plan_id":"cebpf4jnsgd1na2vs0mg"},{"bike_id":"79500cc6-8b4c-4098-9e85-6d2049d71809","system_id":"levelo_inurba_marseille","lat":43.28261,"lon":5.35068,"is_reserved":false,"is_disabled":false,"rental_uris":{"android":"levelo://app?vid=79500cc6-8b4c-4098-9e85-6d2049d71809","ios":"levelo://app?vid=79500cc6-8b4c-4098-9e85-6d2049d71809"},"vehicle_type_id":"4","last_reported":1738595350,"current_range_meters":29600,"station_id":"ce4bhbp2rcd13ifvqerg","pricing_plan_id":"cebpf4jnsgd1na2vs0mg"},{"bike_id":"649532be-fa76-4383-be23-503598f86cf3","system_id":"levelo_inurba_marseille","lat":43.24999,"lon":5.38928,"is_reserved":false,"is_disabled":false,"rental_uris":{"android":"levelo://app?vid=649532be-fa76-4383-be23-503598f86cf3","ios":"levelo://app?vid=649532be-fa76-4383-be23-503598f86cf3"},"vehicle_type_id":"4","last_reported":1738595350,"current_range_meters":28000,"station_id":"ce4bhgp2rcd13ifvqfd0","pricing_plan_id":"cebpf4jnsgd1na2vs0mg"},{"bike_id":"30e962a5-ed17-4781-966d-335d338660e0","system_id":"levelo_inurba_marseille","lat":43.32359,"lon":5.38895,"is_reserved":false,"is_disabled":false,"rental_uris":{"android":"levelo://app?vid=30e962a5-ed17-4781-966d-335d338660e0","ios":"levelo://app?vid=30e962a5-ed17-4781-966d-335d338660e0"},"vehicle_type_id":"4","last_reported":1738595350,"current_range_meters":16800,"station_id":"ce4bhqp2rcd13ifvqhog","pricing_plan_id":"cebpf4jnsgd1na2vs0mg"},{"bike_id":"6af2e62d-43d6-4aac-9eb7-e68cd42a7381","system_id":"levelo_inurba_marseille","lat":43.29595,"lon":5.37726,"is_reserved":false,"is_disabled":false,"rental_uris":{"android":"levelo://app?vid=6af2e62d-43d6-4aac-9eb7-e68cd42a7381","ios":"levelo://app?vid=6af2e62d-43d6-4aac-9eb7-e68cd42a7381"},"vehicle_type_id":"4","last_reported":1738595350,"current_range_meters":29600,"station_id":"ce4bgi92rcd13ifvqb90","pricing_plan_id":"cebpf4jnsgd1na2vs0mg"},{"bike_id":"6abca868-3d1e-41e6-88a6-d0d8d66d3f1a","system_id":"levelo_inurba_marseille","lat":43.32112,"lon":5.36783,"is_reserved":false,"is_disabled":false,"rental_uris":{"android":"levelo://app?vid=6abca868-3d1e-41e6-88a6-d0d8d66d3f1a","ios":"levelo://app?vid=6abca868-3d1e-41e6-88a6-d0d8d66d3f1a"},"vehicle_type_id":"4","last_reported":1738595350,"current_range_meters":38800,"station_id":"ce4bhrh2rcd13ifvqhug","pricing_plan_id":"cebpf4jnsgd1na2vs0mg"},{"bike_id":"d08ca28b-23df-4eba-b7b5-7910c4aa69d2","system_id":"levelo_inurba_marseille","lat":43.32475,"lon":5.36548,"is_reserved":false,"is_disabled":false,"rental_uris":{"android":"levelo://app?vid=d08ca28b-23df-4eba-b7b5-7910c4aa69d2","ios":"levelo://app?vid=d08ca28b-23df-4eba-b7b5-7910c4aa69d2"},"vehicle_type_id":"4","last_reported":1738595350,"current_range_meters":38000,"station_id":"ce4bhs12rcd13ifvqhvg","pricing_plan_id":"cebpf4jnsgd1na2vs0mg"},{"bike_id":"186b79f2-088e-4a88-9248-dc68a7d18187","system_id":"levelo_inurba_marseille","lat":43.31165,"lon":5.38717,"is_reserved":false,"is_disabled":false,"rental_uris":{"android":"levelo://app?vid=186b79f2-088e-4a88-9248-dc68a7d18187","ios":"levelo://app?vid=186b79f2-088e-4a88-9248-dc68a7d18187"},"vehicle_type_id":"4","last_reported":1738595350,"current_range_meters":28800,"station_id":"ce4bgv12rcd13ifvqcp0","pricing_plan_id":"cebpf4jnsgd1na2vs0mg"},{"bike_id":"1c7887d7-53b6-479f-9008-7c390cec24a6","system_id":"levelo_inurba_marseille","lat":43.23964,"lon":5.36631,"is_reserved":false,"is_disabled":false,"rental_uris":{"android":"levelo://app?vid=1c7887d7-53b6-479f-9008-7c390cec24a6","ios":"levelo://app?vid=1c7887d7-53b6-479f-9008-7c390cec24a6"},"vehicle_type_id":"4","last_reported":1738595350,"current_range_meters":10800,"station_id":"ce4bhi12rcd13ifvqfp0","pricing_plan_id":"cebpf4jnsgd1na2vs0mg"},{"bike_id":"0743b2ad-1d8d-4c13-8b00-57c9d01b1228","system_id":"levelo_inurba_marseille","lat":43.24161,"lon":5.36404,"is_reserved":false,"is_disabled":false,"rental_uris":{"android":"levelo://app?vid=0743b2ad-1d8d-4c13-8b00-57c9d01b1228","ios":"levelo://app?vid=0743b2ad-1d8d-4c13-8b00-57c9d01b1228"},"vehicle_type_id":"4","last_reported":1738595350,"current_range_meters":25200,"station_id":"cpo36qri1sfpv3e86is0","pricing_plan_id":"cebpf4jnsgd1na2vs0mg"},{"bike_id":"2cbd5193-ddde-4715-a2bf-e1cb8bb201c9","system_id":"levelo_inurba_marseille","lat":43.2849,"lon":5.38432,"is_reserved":false,"is_disabled":true,"rental_uris":{"android":"levelo://app?vid=2cbd5193-ddde-4715-a2bf-e1cb8bb201c9","ios":"levelo://app?vid=2cbd5193-ddde-4715-a2bf-e1cb8bb201c9"},"vehicle_type_id":"4","last_reported":1738595350,"current_range_meters":0,"station_id":"ce4bh512rcd13ifvqe3g","pricing_plan_id":"cebpf4jnsgd1na2vs0mg"},{"bike_id":"0570fa00-dcc1-45f2-92dd-a890f5ad8110","system_id":"levelo_inurba_marseille","lat":43.29038,"lon":5.35905,"is_reserved":false,"is_disabled":false,"rental_uris":{"android":"levelo://app?vid=0570fa00-dcc1-45f2-92dd-a890f5ad8110","ios":"levelo://app?vid=0570fa00-dcc1-45f2-92dd-a890f5ad8110"},"vehicle_type_id":"4","last_reported":1738595350,"current_range_meters":24400,"station_id":"ce4bha92rcd13ifvqeg0","pricing_plan_id":"cebpf4jnsgd1na2vs0mg"},{"bike_id":"4a18fa25-a72b-4cad-ab40-77dc9d93d71e","system_id":"levelo_inurba_marseille","lat":43.28419,"lon":5.37499,"is_reserved":false,"is_disabled":true,"rental_uris":{"android":"levelo://app?vid=4a18fa25-a72b-4cad-ab40-77dc9d93d71e","ios":"levelo://app?vid=4a18fa25-a72b-4cad-ab40-77dc9d93d71e"},"vehicle_type_id":"4","last_reported":1738595350,"current_range_meters":0,"station_id":"ce4bh412rcd13ifvqds0","pricing_plan_id":"cebpf4jnsgd1na2vs0mg"},{"bike_id":"c8ce9c77-f6d8-4dc2-9652-98722edd5858","system_id":"levelo_inurba_marseille","lat":43.29602,"lon":5.38094,"is_reserved":false,"is_disabled":false,"rental_uris":{"android":"levelo://app?vid=c8ce9c77-f6d8-4dc2-9652-98722edd5858","ios":"levelo://app?vid=c8ce9c77-f6d8-4dc2-9652-98722edd5858"},"vehicle_type_id":"4","last_reported":1738595350,"current_range_meters":35600,"station_id":"ce4bgl12rcd13ifvqbo0","pricing_plan_id":"cebpf4jnsgd1na2vs0mg"},{"bike_id":"f53daaf2-db92-4e8f-ab64-c45d7ed200e0","system_id":"levelo_inurba_marseille","lat":43.29606,"lon":5.37723,"is_reserved":false,"is_disabled":false,"rental_uris":{"android":"levelo://app?vid=f53daaf2-db92-4e8f-ab64-c45d7ed200e0","ios":"levelo://app?vid=f53daaf2-db92-4e8f-ab64-c45d7ed200e0"},"vehicle_type_id":"4","last_reported":1738595350,"current_range_meters":26000,"station_id":"ce4bgi92rcd13ifvqb90","pricing_plan_id":"cebpf4jnsgd1na2vs0mg"},{"bike_id":"2400e173-e992-4c8a-9c65-360a6aa3568c","system_id":"levelo_inurba_marseille","lat":43.23971,"lon":5.36637,"is_reserved":false,"is_disabled":false,"rental_uris":{"android":"levelo://app?vid=2400e173-e992-4c8a-9c65-360a6aa3568c","ios":"levelo://app?vid=2400e173-e992-4c8a-9c65-360a6aa3568c"},"vehicle_type_id":"4","last_reported":1738595350,"current_range_meters":37600,"station_id":"ce4bhi12rcd13ifvqfp0","pricing_plan_id":"cebpf4jnsgd1na2vs0mg"},{"bike_id":"22d707dd-ca3a-4614-ab8c-015135301e32","system_id":"levelo_inurba_marseille","lat":43.28272,"lon":5.35057,"is_reserved":false,"is_disabled":false,"rental_uris":{"android":"levelo://app?vid=22d707dd-ca3a-4614-ab8c-015135301e32","ios":"levelo://app?vid=22d707dd-ca3a-4614-ab8c-015135301e32"},"vehicle_type_id":"4","last_reported":1738595350,"current_range_meters":36800,"station_id":"ce4bhbp2rcd13ifvqerg","pricing_plan_id":"cebpf4jnsgd1na2vs0mg"},{"bike_id":"f2d990fd-b3a0-4ca6-a15f-d6811cc1c116","system_id":"levelo_inurba_marseille","lat":43.30882,"lon":5.39651,"is_reserved":false,"is_disabled":false,"rental_uris":{"android":"levelo://app?vid=f2d990fd-b3a0-4ca6-a15f-d6811cc1c116","ios":"levelo://app?vid=f2d990fd-b3a0-4ca6-a15f-d6811cc1c116"},"vehicle_type_id":"4","last_reported":1738595350,"current_range_meters":35600,"station_id":"ce4bh012rcd13ifvqcv0","pricing_plan_id":"cebpf4jnsgd1na2vs0mg"},{"bike_id":"ae3d7a79-2943-4481-a89e-f4c36dd5f40d","system_id":"levelo_inurba_marseille","lat":43.2416,"lon":5.36397,"is_reserved":false,"is_disabled":false,"rental_uris":{"android":"levelo://app?vid=ae3d7a79-2943-4481-a89e-f4c36dd5f40d","ios":"levelo://app?vid=ae3d7a79-2943-4481-a89e-f4c36dd5f40d"},"vehicle_type_id":"4","last_reported":1738595350,"current_range_meters":6000,"station_id":"cpo36qri1sfpv3e86is0","pricing_plan_id":"cebpf4jnsgd1na2vs0mg"},{"bike_id":"895b886d-f041-450f-bbc7-c95d89abf42f","system_id":"levelo_inurba_marseille","lat":43.31107,"lon":5.38009,"is_reserved":false,"is_disabled":false,"rental_uris":{"android":"levelo://app?vid=895b886d-f041-450f-bbc7-c95d89abf42f","ios":"levelo://app?vid=895b886d-f041-450f-bbc7-c95d89abf42f"},"vehicle_type_id":"4","last_reported":1738595350,"current_range_meters":30000,"station_id":"","pricing_plan_id":"cebpf4jnsgd1na2vs0mg"},{"bike_id":"a3d4d1e3-96cf-4a14-ab6e-dbf743afc1f1","system_id":"levelo_inurba_marseille","lat":43.2925,"lon":5.40913,"is_reserved":false,"is_disabled":false,"rental_uris":{"android":"levelo://app?vid=a3d4d1e3-96cf-4a14-ab6e-dbf743afc1f1","ios":"levelo://app?vid=a3d4d1e3-96cf-4a14-ab6e-dbf743afc1f1"},"vehicle_type_id":"4","last_reported":1738595350,"current_range_meters":37600,"station_id":"ce4bh192rcd13ifvqdc0","pricing_plan_id":"cebpf4jnsgd1na2vs0mg"},{"bike_id":"99630b4f-d397-4cd1-b643-a51d074b76bb","system_id":"levelo_inurba_marseille","lat":43.28454,"lon":5.35893,"is_reserved":false,"is_disabled":false,"rental_uris":{"android":"levelo://app?vid=99630b4f-d397-4cd1-b643-a51d074b76bb","ios":"levelo://app?vid=99630b4f-d397-4cd1-b643-a51d074b76bb"},"vehicle_type_id":"4","last_reported":1738595350,"current_range_meters":38800,"station_id":"ce4bhah2rcd13ifvqei0","pricing_plan_id":"cebpf4jnsgd1na2vs0mg"},{"bike_id":"dfca75c2-55e3-4e13-8b26-4b6ce664ebef","system_id":"levelo_inurba_marseille","lat":43.2843,"lon":5.34993,"is_reserved":false,"is_disabled":false,"rental_uris":{"android":"levelo://app?vid=dfca75c2-55e3-4e13-8b26-4b6ce664ebef","ios":"levelo://app?vid=dfca75c2-55e3-4e13-8b26-4b6ce664ebef"},"vehicle_type_id":"4","last_reported":1738595350,"current_range_meters":9200,"station_id":"ce4bhbh2rcd13ifvqepg","pricing_plan_id":"cebpf4jnsgd1na2vs0mg"},{"bike_id":"115e302a-af5d-408a-980b-094c657f62a3","system_id":"levelo_inurba_marseille","lat":43.27571,"lon":5.38423,"is_reserved":false,"is_disabled":false,"rental_uris":{"android":"levelo://app?vid=115e302a-af5d-408a-980b-094c657f62a3","ios":"levelo://app?vid=115e302a-af5d-408a-980b-094c657f62a3"},"vehicle_type_id":"4","last_reported":1738595350,"current_range_meters":10000,"station_id":"ce4bhh92rcd13ifvqfi0","pricing_plan_id":"cebpf4jnsgd1na2vs0mg"},{"bike_id":"339024e8-3d81-4c07-84dd-594593317646","system_id":"levelo_inurba_marseille","lat":43.30527,"lon":5.367,"is_reserved":false,"is_disabled":false,"rental_uris":{"android":"levelo://app?vid=339024e8-3d81-4c07-84dd-594593317646","ios":"levelo://app?vid=339024e8-3d81-4c07-84dd-594593317646"},"vehicle_type_id":"4","last_reported":1738595350,"current_range_meters":18000,"station_id":"ce4bgrp2rcd13ifvqc9g","pricing_plan_id":"cebpf4jnsgd1na2vs0mg"},{"bike_id":"e6127bb5-8e01-4cb6-bf8e-df8c005b553d","system_id":"levelo_inurba_marseille","lat":43.29528,"lon":5.38543,"is_reserved":false,"is_disabled":false,"rental_uris":{"android":"levelo://app?vid=e6127bb5-8e01-4cb6-bf8e-df8c005b553d","ios":"levelo://app?vid=e6127bb5-8e01-4cb6-bf8e-df8c005b553d"},"vehicle_type_id":"4","last_reported":1738595350,"current_range_meters":12800,"station_id":"ce4bgih2rcd13ifvqba0","pricing_plan_id":"cebpf4jnsgd1na2vs0mg"},{"bike_id":"4e790c06-2a94-477c-a2da-9a0330388cc5","system_id":"levelo_inurba_marseille","lat":43.26209,"lon":5.37443,"is_reserved":false,"is_disabled":false,"rental_uris":{"android":"levelo://app?vid=4e790c06-2a94-477c-a2da-9a0330388cc5","ios":"levelo://app?vid=4e790c06-2a94-477c-a2da-9a0330388cc5"},"vehicle_type_id":"4","last_reported":1738595350,"current_range_meters":20400,"station_id":"ce4bhgp2rcd13ifvqfc0","pricing_plan_id":"cebpf4jnsgd1na2vs0mg"},{"bike_id":"df721def-598a-4e24-a89a-4771bf19c6fb","system_id":"levelo_inurba_marseille","lat":43.278155,"lon":5.40711,"is_reserved":false,"is_disabled":false,"rental_uris":{"android":"levelo://app?vid=df721def-598a-4e24-a89a-4771bf19c6fb","ios":"levelo://app?vid=df721def-598a-4e24-a89a-4771bf19c6fb"},"vehicle_type_id":"4","last_reported":1738595350,"current_range_meters":39200,"station_id":"ce4bhnh2rcd13ifvqgtg","pricing_plan_id":"cebpf4jnsgd1na2vs0mg"},{"bike_id":"432bc086-190c-49bd-9f0f-b7d592e08498","system_id":"levelo_inurba_marseille","lat":43.23183,"lon":5.4368,"is_reserved":false,"is_disabled":false,"rental_uris":{"android":"levelo://app?vid=432bc086-190c-49bd-9f0f-b7d592e08498","ios":"levelo://app?vid=432bc086-190c-49bd-9f0f-b7d592e08498"},"vehicle_type_id":"4","last_reported":1738595350,"current_range_meters":18800,"station_id":"ce4bhmp2rcd13ifvqgog","pricing_plan_id":"cebpf4jnsgd1na2vs0mg"},{"bike_id":"905522ef-d4d4-4a33-8994-defbf52775ca","system_id":"levelo_inurba_marseille","lat":43.26233,"lon":5.40446,"is_reserved":false,"is_disabled":true,"rental_uris":{"android":"levelo://app?vid=905522ef-d4d4-4a33-8994-defbf52775ca","ios":"levelo://app?vid=905522ef-d4d4-4a33-8994-defbf52775ca"},"vehicle_type_id":"4","last_reported":1738595350,"current_range_meters":0,"station_id":"ce4bhmh2rcd13ifvqgmg","pricing_plan_id":"cebpf4jnsgd1na2vs0mg"},{"bike_id":"7b6e801d-8ee5-49b8-8748-754082a406f9","system_id":"levelo_inurba_marseille","lat":43.28485,"lon":5.38413,"is_reserved":false,"is_disabled":false,"rental_uris":{"android":"levelo://app?vid=7b6e801d-8ee5-49b8-8748-754082a406f9","ios":"levelo://app?vid=7b6e801d-8ee5-49b8-8748-754082a406f9"},"vehicle_type_id":"4","last_reported":1738595350,"current_range_meters":32400,"station_id":"ce4bh512rcd13ifvqe3g","pricing_plan_id":"cebpf4jnsgd1na2vs0mg"},{"bike_id":"d9c614f7-8968-45e8-82a0-4ae06e41b32a","system_id":"levelo_inurba_marseille","lat":43.29224,"lon":5.36051,"is_reserved":false,"is_disabled":false,"rental_uris":{"android":"levelo://app?vid=d9c614f7-8968-45e8-82a0-4ae06e41b32a","ios":"levelo://app?vid=d9c614f7-8968-45e8-82a0-4ae06e41b32a"},"vehicle_type_id":"4","last_reported":1738595350,"current_range_meters":13600,"station_id":"ce4bhbh2rcd13ifvqeqg","pricing_plan_id":"cebpf4jnsgd1na2vs0mg"},{"bike_id":"3034d64e-f78e-468c-b4d6-2520a053438f","system_id":"levelo_inurba_marseille","lat":43.23189,"lon":5.39998,"is_reserved":false,"is_disabled":true,"rental_uris":{"android":"levelo://app?vid=3034d64e-f78e-468c-b4d6-2520a053438f","ios":"levelo://app?vid=3034d64e-f78e-468c-b4d6-2520a053438f"},"vehicle_type_id":"4","last_reported":1738595350,"current_range_meters":16400,"station_id":"ce4bhn12rcd13ifvqgqg","pricing_plan_id":"cebpf4jnsgd1na2vs0mg"},{"bike_id":"dad2cb9d-0670-4a16-9712-8f5a70cbc2c7","system_id":"levelo_inurba_marseille","lat":43.29004,"lon":5.35614,"is_reserved":false,"is_disabled":false,"rental_uris":{"android":"levelo://app?vid=dad2cb9d-0670-4a16-9712-8f5a70cbc2c7","ios":"levelo://app?vid=dad2cb9d-0670-4a16-9712-8f5a70cbc2c7"},"vehicle_type_id":"4","last_reported":1738595350,"current_range_meters":39200,"station_id":"ce4bhb92rcd13ifvqen0","pricing_plan_id":"cebpf4jnsgd1na2vs0mg"},{"bike_id":"406b5341-0439-4733-8673-8065df26801c","system_id":"levelo_inurba_marseille","lat":43.309433,"lon":5.390377,"is_reserved":false,"is_disabled":false,"rental_uris":{"android":"levelo://app?vid=406b5341-0439-4733-8673-8065df26801c","ios":"levelo://app?vid=406b5341-0439-4733-8673-8065df26801c"},"vehicle_type_id":"4","last_reported":1738595350,"current_range_meters":4000,"station_id":"ce4bgup2rcd13ifvqco0","pricing_plan_id":"cebpf4jnsgd1na2vs0mg"},{"bike_id":"9e768907-2758-4663-849c-1bfedc158f31","system_id":"levelo_inurba_marseille","lat":43.279114,"lon":5.395864,"is_reserved":false,"is_disabled":true,"rental_uris":{"android":"levelo://app?vid=9e768907-2758-4663-849c-1bfedc158f31","ios":"levelo://app?vid=9e768907-2758-4663-849c-1bfedc158f31"},"vehicle_type_id":"4","last_reported":1738595350,"current_range_meters":0,"station_id":"ce4bhf92rcd13ifvqf40","pricing_plan_id":"cebpf4jnsgd1na2vs0mg"},{"bike_id":"aa9462c4-d8ab-474f-9e59-bd021459ce10","system_id":"levelo_inurba_marseille","lat":43.26064,"lon":5.39397,"is_reserved":false,"is_disabled":false,"rental_uris":{"android":"levelo://app?vid=aa9462c4-d8ab-474f-9e59-bd021459ce10","ios":"levelo://app?vid=aa9462c4-d8ab-474f-9e59-bd021459ce10"},"vehicle_type_id":"4","last_reported":1738595350,"current_range_meters":38800,"station_id":"ce4bhh92rcd13ifvqfj0","pricing_plan_id":"cebpf4jnsgd1na2vs0mg"},{"bike_id":"d7ece394-ff35-4e79-8cc3-dfe9bd6ff65c","system_id":"levelo_inurba_marseille","lat":43.30532,"lon":5.36514,"is_reserved":false,"is_disabled":false,"rental_uris":{"android":"levelo://app?vid=d7ece394-ff35-4e79-8cc3-dfe9bd6ff65c","ios":"levelo://app?vid=d7ece394-ff35-4e79-8cc3-dfe9bd6ff65c"},"vehicle_type_id":"4","last_reported":1738595350,"current_range_meters":38000,"station_id":"ce4bgs12rcd13ifvqcag","pricing_plan_id":"cebpf4jnsgd1na2vs0mg"},{"bike_id":"942ee348-f601-4816-a32c-40a8d55d3f6b","system_id":"levelo_inurba_marseille","lat":43.337444,"lon":5.374475,"is_reserved":false,"is_disabled":true,"rental_uris":{"android":"levelo://app?vid=942ee348-f601-4816-a32c-40a8d55d3f6b","ios":"levelo://app?vid=942ee348-f601-4816-a32c-40a8d55d3f6b"},"vehicle_type_id":"4","last_reported":1738595350,"current_range_meters":0,"station_id":"","pricing_plan_id":"cebpf4jnsgd1na2vs0mg"},{"bike_id":"a7dc0848-081a-4438-bce6-7e161a91f066","system_id":"levelo_inurba_marseille","lat":43.28158,"lon":5.42638,"is_reserved":false,"is_disabled":true,"rental_uris":{"android":"levelo://app?vid=a7dc0848-081a-4438-bce6-7e161a91f066","ios":"levelo://app?vid=a7dc0848-081a-4438-bce6-7e161a91f066"},"vehicle_type_id":"4","last_reported":1738595350,"current_range_meters":0,"station_id":"ce4bhnh2rcd13ifvqgug","pricing_plan_id":"cebpf4jnsgd1na2vs0mg"},{"bike_id":"a7d3b724-e07d-4e52-8cab-21bbc0e96cf8","system_id":"levelo_inurba_marseille","lat":43.26217,"lon":5.3744,"is_reserved":false,"is_disabled":false,"rental_uris":{"android":"levelo://app?vid=a7d3b724-e07d-4e52-8cab-21bbc0e96cf8","ios":"levelo://app?vid=a7d3b724-e07d-4e52-8cab-21bbc0e96cf8"},"vehicle_type_id":"4","last_reported":1738595350,"current_range_meters":23200,"station_id":"ce4bhgp2rcd13ifvqfc0","pricing_plan_id":"cebpf4jnsgd1na2vs0mg"},{"bike_id":"f509805c-cf62-4952-8cc2-f1abfdf78735","system_id":"levelo_inurba_marseille","lat":43.29273,"lon":5.36835,"is_reserved":false,"is_disabled":false,"rental_uris":{"android":"levelo://app?vid=f509805c-cf62-4952-8cc2-f1abfdf78735","ios":"levelo://app?vid=f509805c-cf62-4952-8cc2-f1abfdf78735"},"vehicle_type_id":"4","last_reported":1738595350,"current_range_meters":33600,"station_id":"ce4bhbp2rcd13ifvqesg","pricing_plan_id":"cebpf4jnsgd1na2vs0mg"},{"bike_id":"f0b53076-d51d-4c78-be73-c20056d1b4ad","system_id":"levelo_inurba_marseille","lat":43.29971,"lon":5.385,"is_reserved":false,"is_disabled":true,"rental_uris":{"android":"levelo://app?vid=f0b53076-d51d-4c78-be73-c20056d1b4ad","ios":"levelo://app?vid=f0b53076-d51d-4c78-be73-c20056d1b4ad"},"vehicle_type_id":"4","last_reported":1738595350,"current_range_meters":38400,"station_id":"ce4bgj92rcd13ifvqbd0","pricing_plan_id":"cebpf4jnsgd1na2vs0mg"},{"bike_id":"9819be76-2d4b-4fb5-a60b-698c25adabe5","system_id":"levelo_inurba_marseille","lat":43.2621,"lon":5.37443,"is_reserved":false,"is_disabled":false,"rental_uris":{"android":"levelo://app?vid=9819be76-2d4b-4fb5-a60b-698c25adabe5","ios":"levelo://app?vid=9819be76-2d4b-4fb5-a60b-698c25adabe5"},"vehicle_type_id":"4","last_reported":1738595350,"current_range_meters":32400,"station_id":"ce4bhgp2rcd13ifvqfc0","pricing_plan_id":"cebpf4jnsgd1na2vs0mg"},{"bike_id":"c8bd1d84-2291-473f-ab82-361f165fe1db","system_id":"levelo_inurba_marseille","lat":43.2417,"lon":5.36409,"is_reserved":false,"is_disabled":false,"rental_uris":{"android":"levelo://app?vid=c8bd1d84-2291-473f-ab82-361f165fe1db","ios":"levelo://app?vid=c8bd1d84-2291-473f-ab82-361f165fe1db"},"vehicle_type_id":"4","last_reported":1738595350,"current_range_meters":25200,"station_id":"cpo36qri1sfpv3e86is0","pricing_plan_id":"cebpf4jnsgd1na2vs0mg"},{"bike_id":"87e2ffd2-9b11-47e0-98e2-0de5260bd635","system_id":"levelo_inurba_marseille","lat":43.29554,"lon":5.42264,"is_reserved":false,"is_disabled":false,"rental_uris":{"android":"levelo://app?vid=87e2ffd2-9b11-47e0-98e2-0de5260bd635","ios":"levelo://app?vid=87e2ffd2-9b11-47e0-98e2-0de5260bd635"},"vehicle_type_id":"4","last_reported":1738595350,"current_range_meters":27200,"station_id":"ce4bhph2rcd13ifvqhdg","pricing_plan_id":"cebpf4jnsgd1na2vs0mg"},{"bike_id":"6579ecca-7e4f-4da2-81b7-61ff3877f0cc","system_id":"levelo_inurba_marseille","lat":43.29877,"lon":5.39729,"is_reserved":false,"is_disabled":false,"rental_uris":{"android":"levelo://app?vid=6579ecca-7e4f-4da2-81b7-61ff3877f0cc","ios":"levelo://app?vid=6579ecca-7e4f-4da2-81b7-61ff3877f0cc"},"vehicle_type_id":"4","last_reported":1738595350,"current_range_meters":6000,"station_id":"ce4bh0h2rcd13ifvqd50","pricing_plan_id":"cebpf4jnsgd1na2vs0mg"},{"bike_id":"bb846df9-2969-480a-aed6-edbcf9c326fb","system_id":"levelo_inurba_marseille","lat":43.248195,"lon":5.374513,"is_reserved":false,"is_disabled":false,"rental_uris":{"android":"levelo://app?vid=bb846df9-2969-480a-aed6-edbcf9c326fb","ios":"levelo://app?vid=bb846df9-2969-480a-aed6-edbcf9c326fb"},"vehicle_type_id":"4","last_reported":1738595350,"current_range_meters":28800,"station_id":"ce4bhgh2rcd13ifvqfb0","pricing_plan_id":"cebpf4jnsgd1na2vs0mg"},{"bike_id":"48ebfd2e-3b3a-4da2-a76d-11ff63396ffb","system_id":"levelo_inurba_marseille","lat":43.27992,"lon":5.40007,"is_reserved":false,"is_disabled":true,"rental_uris":{"android":"levelo://app?vid=48ebfd2e-3b3a-4da2-a76d-11ff63396ffb","ios":"levelo://app?vid=48ebfd2e-3b3a-4da2-a76d-11ff63396ffb"},"vehicle_type_id":"4","last_reported":1738595350,"current_range_meters":20800,"station_id":"ce4bho92rcd13ifvqh4g","pricing_plan_id":"cebpf4jnsgd1na2vs0mg"},{"bike_id":"85e0a930-26fd-4edc-a536-795827c6b8db","system_id":"levelo_inurba_marseille","lat":43.28705,"lon":5.374,"is_reserved":false,"is_disabled":false,"rental_uris":{"android":"levelo://app?vid=85e0a930-26fd-4edc-a536-795827c6b8db","ios":"levelo://app?vid=85e0a930-26fd-4edc-a536-795827c6b8db"},"vehicle_type_id":"4","last_reported":1738595350,"current_range_meters":18000,"station_id":"ce4bh3p2rcd13ifvqdq0","pricing_plan_id":"cebpf4jnsgd1na2vs0mg"},{"bike_id":"cd07e062-2af1-406e-bcb9-5f1ec4730937","system_id":"levelo_inurba_marseille","lat":43.23065,"lon":5.35493,"is_reserved":false,"is_disabled":false,"rental_uris":{"android":"levelo://app?vid=cd07e062-2af1-406e-bcb9-5f1ec4730937","ios":"levelo://app?vid=cd07e062-2af1-406e-bcb9-5f1ec4730937"},"vehicle_type_id":"4","last_reported":1738595350,"current_range_meters":12800,"station_id":"cpo3342slgdg3j2ifvpg","pricing_plan_id":"cebpf4jnsgd1na2vs0mg"},{"bike_id":"ef522ec1-733b-4526-883e-365a20f2baa8","system_id":"levelo_inurba_marseille","lat":43.307981,"lon":5.368037,"is_reserved":false,"is_disabled":false,"rental_uris":{"android":"levelo://app?vid=ef522ec1-733b-4526-883e-365a20f2baa8","ios":"levelo://app?vid=ef522ec1-733b-4526-883e-365a20f2baa8"},"vehicle_type_id":"4","last_reported":1738595350,"current_range_meters":38800,"station_id":"ce4bgrp2rcd13ifvqc9g","pricing_plan_id":"cebpf4jnsgd1na2vs0mg"},{"bike_id":"6153e716-74d1-4ec8-8480-f5be62fa3825","system_id":"levelo_inurba_marseille","lat":43.24804,"lon":5.37452,"is_reserved":false,"is_disabled":false,"rental_uris":{"android":"levelo://app?vid=6153e716-74d1-4ec8-8480-f5be62fa3825","ios":"levelo://app?vid=6153e716-74d1-4ec8-8480-f5be62fa3825"},"vehicle_type_id":"4","last_reported":1738595350,"current_range_meters":11200,"station_id":"ce4bhgh2rcd13ifvqfb0","pricing_plan_id":"cebpf4jnsgd1na2vs0mg"},{"bike_id":"f11d87ca-17b8-4901-acf7-3bf5fe41d9d8","system_id":"levelo_inurba_marseille","lat":43.31483,"lon":5.37307,"is_reserved":false,"is_disabled":false,"rental_uris":{"android":"levelo://app?vid=f11d87ca-17b8-4901-acf7-3bf5fe41d9d8","ios":"levelo://app?vid=f11d87ca-17b8-4901-acf7-3bf5fe41d9d8"},"vehicle_type_id":"4","last_reported":1738595350,"current_range_meters":25200,"station_id":"ce4bgt12rcd13ifvqcd0","pricing_plan_id":"cebpf4jnsgd1na2vs0mg"},{"bike_id":"3a239874-df71-4d25-afe3-91bb04834ab8","system_id":"levelo_inurba_marseille","lat":43.31368,"lon":5.38486,"is_reserved":false,"is_disabled":false,"rental_uris":{"android":"levelo://app?vid=3a239874-df71-4d25-afe3-91bb04834ab8","ios":"levelo://app?vid=3a239874-df71-4d25-afe3-91bb04834ab8"},"vehicle_type_id":"4","last_reported":1738595350,"current_range_meters":38400,"station_id":"ce4bgt92rcd13ifvqcf0","pricing_plan_id":"cebpf4jnsgd1na2vs0mg"},{"bike_id":"714d86b4-ba47-44a7-a2ce-2322c09a7dc5","system_id":"levelo_inurba_marseille","lat":43.29621,"lon":5.37713,"is_reserved":false,"is_disabled":false,"rental_uris":{"android":"levelo://app?vid=714d86b4-ba47-44a7-a2ce-2322c09a7dc5","ios":"levelo://app?vid=714d86b4-ba47-44a7-a2ce-2322c09a7dc5"},"vehicle_type_id":"4","last_reported":1738595350,"current_range_meters":38400,"station_id":"ce4bgi92rcd13ifvqb90","pricing_plan_id":"cebpf4jnsgd1na2vs0mg"},{"bike_id":"4b8f445e-d4a3-436e-af35-fee03661f846","system_id":"levelo_inurba_marseille","lat":43.3141,"lon":5.36662,"is_reserved":false,"is_disabled":false,"rental_uris":{"android":"levelo://app?vid=4b8f445e-d4a3-436e-af35-fee03661f846","ios":"levelo://app?vid=4b8f445e-d4a3-436e-af35-fee03661f846"},"vehicle_type_id":"4","last_reported":1738595350,"current_range_meters":38800,"station_id":"","pricing_plan_id":"cebpf4jnsgd1na2vs0mg"},{"bike_id":"6680bef6-29dc-411f-98bd-c0592fd24b70","system_id":"levelo_inurba_marseille","lat":43.27068,"lon":5.40261,"is_reserved":false,"is_disabled":false,"rental_uris":{"android":"levelo://app?vid=6680bef6-29dc-411f-98bd-c0592fd24b70","ios":"levelo://app?vid=6680bef6-29dc-411f-98bd-c0592fd24b70"},"vehicle_type_id":"4","last_reported":1738595350,"current_range_meters":24400,"station_id":"ce4bhk92rcd13ifvqgc0","pricing_plan_id":"cebpf4jnsgd1na2vs0mg"},{"bike_id":"d99a1562-2d27-43a9-b8ae-c675dfd1d656","system_id":"levelo_inurba_marseille","lat":43.28722,"lon":5.37933,"is_reserved":false,"is_disabled":false,"rental_uris":{"android":"levelo://app?vid=d99a1562-2d27-43a9-b8ae-c675dfd1d656","ios":"levelo://app?vid=d99a1562-2d27-43a9-b8ae-c675dfd1d656"},"vehicle_type_id":"4","last_reported":1738595350,"current_range_meters":39200,"station_id":"ce4bh9p2rcd13ifvqec0","pricing_plan_id":"cebpf4jnsgd1na2vs0mg"},{"bike_id":"f696a601-4431-4af1-983a-724e955b51e9","system_id":"levelo_inurba_marseille","lat":43.28459,"lon":5.35885,"is_reserved":false,"is_disabled":false,"rental_uris":{"android":"levelo://app?vid=f696a601-4431-4af1-983a-724e955b51e9","ios":"levelo://app?vid=f696a601-4431-4af1-983a-724e955b51e9"},"vehicle_type_id":"4","last_reported":1738595350,"current_range_meters":38800,"station_id":"ce4bhah2rcd13ifvqei0","pricing_plan_id":"cebpf4jnsgd1na2vs0mg"},{"bike_id":"710d575f-a84c-401c-a910-f04b3610e224","system_id":"levelo_inurba_marseille","lat":43.30132,"lon":5.37418,"is_reserved":false,"is_disabled":false,"rental_uris":{"android":"levelo://app?vid=710d575f-a84c-401c-a910-f04b3610e224","ios":"levelo://app?vid=710d575f-a84c-401c-a910-f04b3610e224"},"vehicle_type_id":"4","last_reported":1738595350,"current_range_meters":38800,"station_id":"ce4bgs92rcd13ifvqcc0","pricing_plan_id":"cebpf4jnsgd1na2vs0mg"},{"bike_id":"43a9c87f-dfb5-4fe3-8af7-818febe181b4","system_id":"levelo_inurba_marseille","lat":43.25431,"lon":5.38049,"is_reserved":false,"is_disabled":false,"rental_uris":{"android":"levelo://app?vid=43a9c87f-dfb5-4fe3-8af7-818febe181b4","ios":"levelo://app?vid=43a9c87f-dfb5-4fe3-8af7-818febe181b4"},"vehicle_type_id":"4","last_reported":1738595350,"current_range_meters":8000,"station_id":"","pricing_plan_id":"cebpf4jnsgd1na2vs0mg"},{"bike_id":"3eeff02b-8268-4022-b26d-26bab769f3f5","system_id":"levelo_inurba_marseille","lat":43.284163,"lon":5.375046,"is_reserved":false,"is_disabled":false,"rental_uris":{"android":"levelo://app?vid=3eeff02b-8268-4022-b26d-26bab769f3f5","ios":"levelo://app?vid=3eeff02b-8268-4022-b26d-26bab769f3f5"},"vehicle_type_id":"4","last_reported":1738595350,"current_range_meters":24800,"station_id":"ce4bh412rcd13ifvqds0","pricing_plan_id":"cebpf4jnsgd1na2vs0mg"},{"bike_id":"987389a2-714b-4702-bea8-dab01f59e0c6","system_id":"levelo_inurba_marseille","lat":43.31382,"lon":5.36679,"is_reserved":false,"is_disabled":false,"rental_uris":{"android":"levelo://app?vid=987389a2-714b-4702-bea8-dab01f59e0c6","ios":"levelo://app?vid=987389a2-714b-4702-bea8-dab01f59e0c6"},"vehicle_type_id":"4","last_reported":1738595350,"current_range_meters":34800,"station_id":"","pricing_plan_id":"cebpf4jnsgd1na2vs0mg"},{"bike_id":"92365738-cd4b-42be-83ff-cf65b204137c","system_id":"levelo_inurba_marseille","lat":43.29575,"lon":5.36731,"is_reserved":false,"is_disabled":false,"rental_uris":{"android":"levelo://app?vid=92365738-cd4b-42be-83ff-cf65b204137c","ios":"levelo://app?vid=92365738-cd4b-42be-83ff-cf65b204137c"},"vehicle_type_id":"4","last_reported":1738595350,"current_range_meters":38800,"station_id":"ce4bgph2rcd13ifvqc2g","pricing_plan_id":"cebpf4jnsgd1na2vs0mg"},{"bike_id":"7fe2c604-b9c2-4f78-a41d-6dc34fa974b1","system_id":"levelo_inurba_marseille","lat":43.31704,"lon":5.43709,"is_reserved":false,"is_disabled":false,"rental_uris":{"android":"levelo://app?vid=7fe2c604-b9c2-4f78-a41d-6dc34fa974b1","ios":"levelo://app?vid=7fe2c604-b9c2-4f78-a41d-6dc34fa974b1"},"vehicle_type_id":"4","last_reported":1738595350,"current_range_meters":39200,"station_id":"ce4bhp92rcd13ifvqhcg","pricing_plan_id":"cebpf4jnsgd1na2vs0mg"},{"bike_id":"c3066916-eed2-4635-b496-6709235f4164","system_id":"levelo_inurba_marseille","lat":43.249943,"lon":5.38941,"is_reserved":false,"is_disabled":false,"rental_uris":{"android":"levelo://app?vid=c3066916-eed2-4635-b496-6709235f4164","ios":"levelo://app?vid=c3066916-eed2-4635-b496-6709235f4164"},"vehicle_type_id":"4","last_reported":1738595350,"current_range_meters":18000,"station_id":"ce4bhgp2rcd13ifvqfd0","pricing_plan_id":"cebpf4jnsgd1na2vs0mg"},{"bike_id":"d38b612b-02a3-4d3f-9695-e930f3bec12a","system_id":"levelo_inurba_marseille","lat":43.30782,"lon":5.37653,"is_reserved":false,"is_disabled":false,"rental_uris":{"android":"levelo://app?vid=d38b612b-02a3-4d3f-9695-e930f3bec12a","ios":"levelo://app?vid=d38b612b-02a3-4d3f-9695-e930f3bec12a"},"vehicle_type_id":"4","last_reported":1738595350,"current_range_meters":36800,"station_id":"ce4bgv92rcd13ifvqcq0","pricing_plan_id":"cebpf4jnsgd1na2vs0mg"},{"bike_id":"61759ee7-82b2-46ba-891d-0153beab16c2","system_id":"levelo_inurba_marseille","lat":43.26502,"lon":5.39553,"is_reserved":false,"is_disabled":false,"rental_uris":{"android":"levelo://app?vid=61759ee7-82b2-46ba-891d-0153beab16c2","ios":"levelo://app?vid=61759ee7-82b2-46ba-891d-0153beab16c2"},"vehicle_type_id":"4","last_reported":1738595350,"current_range_meters":38800,"station_id":"ce4bhi12rcd13ifvqfq0","pricing_plan_id":"cebpf4jnsgd1na2vs0mg"},{"bike_id":"fa48af50-f7f8-463b-8073-011bea7848cf","system_id":"levelo_inurba_marseille","lat":43.2696,"lon":5.40231,"is_reserved":false,"is_disabled":false,"rental_uris":{"android":"levelo://app?vid=fa48af50-f7f8-463b-8073-011bea7848cf","ios":"levelo://app?vid=fa48af50-f7f8-463b-8073-011bea7848cf"},"vehicle_type_id":"4","last_reported":1738595350,"current_range_meters":36400,"station_id":"cjm6bp8fraef2m0cb0m0","pricing_plan_id":"cebpf4jnsgd1na2vs0mg"},{"bike_id":"c7918658-f93b-4781-8bba-d82c76e81b65","system_id":"levelo_inurba_marseille","lat":43.29619,"lon":5.37165,"is_reserved":false,"is_disabled":false,"rental_uris":{"android":"levelo://app?vid=c7918658-f93b-4781-8bba-d82c76e81b65","ios":"levelo://app?vid=c7918658-f93b-4781-8bba-d82c76e81b65"},"vehicle_type_id":"4","last_reported":1738595350,"current_range_meters":38800,"station_id":"ce4bgnh2rcd13ifvqc0g","pricing_plan_id":"cebpf4jnsgd1na2vs0mg"},{"bike_id":"6fba6306-7fcc-4d8b-b263-f6006118c0d1","system_id":"levelo_inurba_marseille","lat":43.308842,"lon":5.396415,"is_reserved":false,"is_disabled":false,"rental_uris":{"android":"levelo://app?vid=6fba6306-7fcc-4d8b-b263-f6006118c0d1","ios":"levelo://app?vid=6fba6306-7fcc-4d8b-b263-f6006118c0d1"},"vehicle_type_id":"4","last_reported":1738595350,"current_range_meters":35600,"station_id":"ce4bh012rcd13ifvqcv0","pricing_plan_id":"cebpf4jnsgd1na2vs0mg"},{"bike_id":"7bbd1ca9-5cb4-4750-a3f0-60560373cbff","system_id":"levelo_inurba_marseille","lat":43.25473,"lon":5.37632,"is_reserved":false,"is_disabled":false,"rental_uris":{"android":"levelo://app?vid=7bbd1ca9-5cb4-4750-a3f0-60560373cbff","ios":"levelo://app?vid=7bbd1ca9-5cb4-4750-a3f0-60560373cbff"},"vehicle_type_id":"4","last_reported":1738595350,"current_range_meters":38800,"station_id":"ce4bhh12rcd13ifvqff0","pricing_plan_id":"cebpf4jnsgd1na2vs0mg"},{"bike_id":"b9825535-2a4d-4612-85d2-4b2d1acaab74","system_id":"levelo_inurba_marseille","lat":43.26065,"lon":5.39394,"is_reserved":false,"is_disabled":false,"rental_uris":{"android":"levelo://app?vid=b9825535-2a4d-4612-85d2-4b2d1acaab74","ios":"levelo://app?vid=b9825535-2a4d-4612-85d2-4b2d1acaab74"},"vehicle_type_id":"4","last_reported":1738595350,"current_range_meters":24800,"station_id":"ce4bhh92rcd13ifvqfj0","pricing_plan_id":"cebpf4jnsgd1na2vs0mg"},{"bike_id":"577383b2-bf58-4b25-8224-bf0cdd1be01d","system_id":"levelo_inurba_marseille","lat":43.24173,"lon":5.39724,"is_reserved":false,"is_disabled":false,"rental_uris":{"android":"levelo://app?vid=577383b2-bf58-4b25-8224-bf0cdd1be01d","ios":"levelo://app?vid=577383b2-bf58-4b25-8224-bf0cdd1be01d"},"vehicle_type_id":"4","last_reported":1738595350,"current_range_meters":24800,"station_id":"ce4bhn12rcd13ifvqgpg","pricing_plan_id":"cebpf4jnsgd1na2vs0mg"},{"bike_id":"6bb18b6b-35db-4080-8375-2a2e83c6fc4b","system_id":"levelo_inurba_marseille","lat":43.23158,"lon":5.43711,"is_reserved":false,"is_disabled":true,"rental_uris":{"android":"levelo://app?vid=6bb18b6b-35db-4080-8375-2a2e83c6fc4b","ios":"levelo://app?vid=6bb18b6b-35db-4080-8375-2a2e83c6fc4b"},"vehicle_type_id":"4","last_reported":1738595350,"current_range_meters":38800,"station_id":"ce4bhmp2rcd13ifvqgog","pricing_plan_id":"cebpf4jnsgd1na2vs0mg"},{"bike_id":"8ad4605d-82bc-4f5f-9c6c-38167eee61d3","system_id":"levelo_inurba_marseille","lat":43.27376,"lon":5.36255,"is_reserved":false,"is_disabled":false,"rental_uris":{"android":"levelo://app?vid=8ad4605d-82bc-4f5f-9c6c-38167eee61d3","ios":"levelo://app?vid=8ad4605d-82bc-4f5f-9c6c-38167eee61d3"},"vehicle_type_id":"4","last_reported":1738595350,"current_range_meters":4000,"station_id":"ce4bhbh2rcd13ifvqeo0","pricing_plan_id":"cebpf4jnsgd1na2vs0mg"},{"bike_id":"16d2c7b1-d8b9-4b3c-a6a9-f5add58b3e7a","system_id":"levelo_inurba_marseille","lat":43.24082,"lon":5.37742,"is_reserved":false,"is_disabled":false,"rental_uris":{"android":"levelo://app?vid=16d2c7b1-d8b9-4b3c-a6a9-f5add58b3e7a","ios":"levelo://app?vid=16d2c7b1-d8b9-4b3c-a6a9-f5add58b3e7a"},"vehicle_type_id":"4","last_reported":1738595350,"current_range_meters":25200,"station_id":"ce4bhnp2rcd13ifvqgvg","pricing_plan_id":"cebpf4jnsgd1na2vs0mg"},{"bike_id":"2fb85062-1158-465e-828e-3e87ffb49924","system_id":"levelo_inurba_marseille","lat":43.27616,"lon":5.36108,"is_reserved":false,"is_disabled":false,"rental_uris":{"android":"levelo://app?vid=2fb85062-1158-465e-828e-3e87ffb49924","ios":"levelo://app?vid=2fb85062-1158-465e-828e-3e87ffb49924"},"vehicle_type_id":"4","last_reported":1738595350,"current_range_meters":34800,"station_id":"ce4bgj92rcd13ifvqbe0","pricing_plan_id":"cebpf4jnsgd1na2vs0mg"},{"bike_id":"73da363e-32af-49e1-a6b2-5b1de4da8c50","system_id":"levelo_inurba_marseille","lat":43.29268,"lon":5.36852,"is_reserved":false,"is_disabled":false,"rental_uris":{"android":"levelo://app?vid=73da363e-32af-49e1-a6b2-5b1de4da8c50","ios":"levelo://app?vid=73da363e-32af-49e1-a6b2-5b1de4da8c50"},"vehicle_type_id":"4","last_reported":1738595350,"current_range_meters":30000,"station_id":"ce4bhbp2rcd13ifvqesg","pricing_plan_id":"cebpf4jnsgd1na2vs0mg"},{"bike_id":"27a1618b-ec0c-4b1b-9df1-d6544781bbc9","system_id":"levelo_inurba_marseille","lat":43.255769,"lon":5.382339,"is_reserved":false,"is_disabled":false,"rental_uris":{"android":"levelo://app?vid=27a1618b-ec0c-4b1b-9df1-d6544781bbc9","ios":"levelo://app?vid=27a1618b-ec0c-4b1b-9df1-d6544781bbc9"},"vehicle_type_id":"4","last_reported":1738595350,"current_range_meters":11200,"station_id":"ce4bhih2rcd13ifvqfs0","pricing_plan_id":"cebpf4jnsgd1na2vs0mg"},{"bike_id":"989425df-892a-498f-9d30-77907952d2cd","system_id":"levelo_inurba_marseille","lat":43.31352,"lon":5.36738,"is_reserved":false,"is_disabled":false,"rental_uris":{"android":"levelo://app?vid=989425df-892a-498f-9d30-77907952d2cd","ios":"levelo://app?vid=989425df-892a-498f-9d30-77907952d2cd"},"vehicle_type_id":"4","last_reported":1738595350,"current_range_meters":38800,"station_id":"ce4bgr92rcd13ifvqc6g","pricing_plan_id":"cebpf4jnsgd1na2vs0mg"},{"bike_id":"6fa29cff-d8fa-4fb1-b5d9-4a419f3f6115","system_id":"levelo_inurba_marseille","lat":43.25943,"lon":5.40898,"is_reserved":false,"is_disabled":false,"rental_uris":{"android":"levelo://app?vid=6fa29cff-d8fa-4fb1-b5d9-4a419f3f6115","ios":"levelo://app?vid=6fa29cff-d8fa-4fb1-b5d9-4a419f3f6115"},"vehicle_type_id":"4","last_reported":1738595350,"current_range_meters":14000,"station_id":"ce4bhm92rcd13ifvqglg","pricing_plan_id":"cebpf4jnsgd1na2vs0mg"},{"bike_id":"550beb06-ad43-4e20-8237-d1f1fd0649c1","system_id":"levelo_inurba_marseille","lat":43.2621,"lon":5.37443,"is_reserved":false,"is_disabled":false,"rental_uris":{"android":"levelo://app?vid=550beb06-ad43-4e20-8237-d1f1fd0649c1","ios":"levelo://app?vid=550beb06-ad43-4e20-8237-d1f1fd0649c1"},"vehicle_type_id":"4","last_reported":1738595350,"current_range_meters":11600,"station_id":"ce4bhgp2rcd13ifvqfc0","pricing_plan_id":"cebpf4jnsgd1na2vs0mg"},{"bike_id":"8654b126-eecc-48d2-96fd-5d032bef9699","system_id":"levelo_inurba_marseille","lat":43.29937,"lon":5.36519,"is_reserved":false,"is_disabled":false,"rental_uris":{"android":"levelo://app?vid=8654b126-eecc-48d2-96fd-5d032bef9699","ios":"levelo://app?vid=8654b126-eecc-48d2-96fd-5d032bef9699"},"vehicle_type_id":"4","last_reported":1738595350,"current_range_meters":30800,"station_id":"ce4bgm92rcd13ifvqbr0","pricing_plan_id":"cebpf4jnsgd1na2vs0mg"},{"bike_id":"669ff81d-8505-49cf-b92a-ade797f8e174","system_id":"levelo_inurba_marseille","lat":43.2785,"lon":5.40666,"is_reserved":false,"is_disabled":false,"rental_uris":{"android":"levelo://app?vid=669ff81d-8505-49cf-b92a-ade797f8e174","ios":"levelo://app?vid=669ff81d-8505-49cf-b92a-ade797f8e174"},"vehicle_type_id":"4","last_reported":1738595350,"current_range_meters":12000,"station_id":"ce4bhnh2rcd13ifvqgtg","pricing_plan_id":"cebpf4jnsgd1na2vs0mg"},{"bike_id":"15f007c3-dc1c-405e-8612-2aee6f444c6e","system_id":"levelo_inurba_marseille","lat":43.29368,"lon":5.37835,"is_reserved":false,"is_disabled":false,"rental_uris":{"android":"levelo://app?vid=15f007c3-dc1c-405e-8612-2aee6f444c6e","ios":"levelo://app?vid=15f007c3-dc1c-405e-8612-2aee6f444c6e"},"vehicle_type_id":"4","last_reported":1738595350,"current_range_meters":39200,"station_id":"ce4bgjh2rcd13ifvqbf0","pricing_plan_id":"cebpf4jnsgd1na2vs0mg"},{"bike_id":"90b5e833-8c09-43ef-88a0-6d69bcaad38b","system_id":"levelo_inurba_marseille","lat":43.28869,"lon":5.35819,"is_reserved":false,"is_disabled":false,"rental_uris":{"android":"levelo://app?vid=90b5e833-8c09-43ef-88a0-6d69bcaad38b","ios":"levelo://app?vid=90b5e833-8c09-43ef-88a0-6d69bcaad38b"},"vehicle_type_id":"4","last_reported":1738595350,"current_range_meters":17200,"station_id":"ce4bhb12rcd13ifvqem0","pricing_plan_id":"cebpf4jnsgd1na2vs0mg"},{"bike_id":"eb9c859e-ef39-446e-afa7-9063d5540a2c","system_id":"levelo_inurba_marseille","lat":43.3291,"lon":5.3669,"is_reserved":false,"is_disabled":false,"rental_uris":{"android":"levelo://app?vid=eb9c859e-ef39-446e-afa7-9063d5540a2c","ios":"levelo://app?vid=eb9c859e-ef39-446e-afa7-9063d5540a2c"},"vehicle_type_id":"4","last_reported":1738595350,"current_range_meters":32400,"station_id":"","pricing_plan_id":"cebpf4jnsgd1na2vs0mg"},{"bike_id":"9c42114e-ea61-4c3d-98b3-5089f1e0e4ce","system_id":"levelo_inurba_marseille","lat":43.29259,"lon":5.409,"is_reserved":false,"is_disabled":false,"rental_uris":{"android":"levelo://app?vid=9c42114e-ea61-4c3d-98b3-5089f1e0e4ce","ios":"levelo://app?vid=9c42114e-ea61-4c3d-98b3-5089f1e0e4ce"},"vehicle_type_id":"4","last_reported":1738595350,"current_range_meters":19600,"station_id":"ce4bh192rcd13ifvqdc0","pricing_plan_id":"cebpf4jnsgd1na2vs0mg"},{"bike_id":"3c12d71f-fdf6-47c7-8762-9a25ac4bcc24","system_id":"levelo_inurba_marseille","lat":43.26211,"lon":5.37913,"is_reserved":false,"is_disabled":false,"rental_uris":{"android":"levelo://app?vid=3c12d71f-fdf6-47c7-8762-9a25ac4bcc24","ios":"levelo://app?vid=3c12d71f-fdf6-47c7-8762-9a25ac4bcc24"},"vehicle_type_id":"4","last_reported":1738595350,"current_range_meters":24800,"station_id":"ce4bhjp2rcd13ifvqg90","pricing_plan_id":"cebpf4jnsgd1na2vs0mg"},{"bike_id":"fcc175fc-59c9-416b-af8f-404367f6177b","system_id":"levelo_inurba_marseille","lat":43.29008,"lon":5.35608,"is_reserved":false,"is_disabled":false,"rental_uris":{"android":"levelo://app?vid=fcc175fc-59c9-416b-af8f-404367f6177b","ios":"levelo://app?vid=fcc175fc-59c9-416b-af8f-404367f6177b"},"vehicle_type_id":"4","last_reported":1738595350,"current_range_meters":37600,"station_id":"ce4bhb92rcd13ifvqen0","pricing_plan_id":"cebpf4jnsgd1na2vs0mg"},{"bike_id":"5688ac17-5443-4dac-8fe6-c32fce7d33ec","system_id":"levelo_inurba_marseille","lat":43.2738,"lon":5.36261,"is_reserved":false,"is_disabled":false,"rental_uris":{"android":"levelo://app?vid=5688ac17-5443-4dac-8fe6-c32fce7d33ec","ios":"levelo://app?vid=5688ac17-5443-4dac-8fe6-c32fce7d33ec"},"vehicle_type_id":"4","last_reported":1738595350,"current_range_meters":7200,"station_id":"ce4bhbh2rcd13ifvqeo0","pricing_plan_id":"cebpf4jnsgd1na2vs0mg"},{"bike_id":"bd8fce10-db60-4637-88ad-07a5a938f039","system_id":"levelo_inurba_marseille","lat":43.28601,"lon":5.37066,"is_reserved":false,"is_disabled":true,"rental_uris":{"android":"levelo://app?vid=bd8fce10-db60-4637-88ad-07a5a938f039","ios":"levelo://app?vid=bd8fce10-db60-4637-88ad-07a5a938f039"},"vehicle_type_id":"4","last_reported":1738595350,"current_range_meters":38800,"station_id":"ce4bht12rcd13ifvqi60","pricing_plan_id":"cebpf4jnsgd1na2vs0mg"},{"bike_id":"aca7f856-95b0-4e97-8a0a-cf9d567272bd","system_id":"levelo_inurba_marseille","lat":43.23061,"lon":5.35488,"is_reserved":false,"is_disabled":false,"rental_uris":{"android":"levelo://app?vid=aca7f856-95b0-4e97-8a0a-cf9d567272bd","ios":"levelo://app?vid=aca7f856-95b0-4e97-8a0a-cf9d567272bd"},"vehicle_type_id":"4","last_reported":1738595350,"current_range_meters":36800,"station_id":"cpo3342slgdg3j2ifvpg","pricing_plan_id":"cebpf4jnsgd1na2vs0mg"},{"bike_id":"d5fdd631-4613-47d3-957c-71490edf7eff","system_id":"levelo_inurba_marseille","lat":43.29578,"lon":5.36747,"is_reserved":false,"is_disabled":false,"rental_uris":{"android":"levelo://app?vid=d5fdd631-4613-47d3-957c-71490edf7eff","ios":"levelo://app?vid=d5fdd631-4613-47d3-957c-71490edf7eff"},"vehicle_type_id":"4","last_reported":1738595350,"current_range_meters":15200,"station_id":"ce4bgph2rcd13ifvqc2g","pricing_plan_id":"cebpf4jnsgd1na2vs0mg"},{"bike_id":"9d9e6714-036c-4151-8a5d-515ad00cd54b","system_id":"levelo_inurba_marseille","lat":43.2319,"lon":5.35553,"is_reserved":false,"is_disabled":false,"rental_uris":{"android":"levelo://app?vid=9d9e6714-036c-4151-8a5d-515ad00cd54b","ios":"levelo://app?vid=9d9e6714-036c-4151-8a5d-515ad00cd54b"},"vehicle_type_id":"4","last_reported":1738595350,"current_range_meters":22000,"station_id":"ce4bhu92rcd13ifvqi70","pricing_plan_id":"cebpf4jnsgd1na2vs0mg"},{"bike_id":"a0a9ff7c-65bc-459c-b1ae-c94d1bfe3e15","system_id":"levelo_inurba_marseille","lat":43.32477,"lon":5.3654,"is_reserved":false,"is_disabled":false,"rental_uris":{"android":"levelo://app?vid=a0a9ff7c-65bc-459c-b1ae-c94d1bfe3e15","ios":"levelo://app?vid=a0a9ff7c-65bc-459c-b1ae-c94d1bfe3e15"},"vehicle_type_id":"4","last_reported":1738595350,"current_range_meters":39200,"station_id":"ce4bhs12rcd13ifvqhvg","pricing_plan_id":"cebpf4jnsgd1na2vs0mg"},{"bike_id":"6f47217d-29d2-49bc-b01f-b8375fd47483","system_id":"levelo_inurba_marseille","lat":43.32366,"lon":5.38885,"is_reserved":false,"is_disabled":false,"rental_uris":{"android":"levelo://app?vid=6f47217d-29d2-49bc-b01f-b8375fd47483","ios":"levelo://app?vid=6f47217d-29d2-49bc-b01f-b8375fd47483"},"vehicle_type_id":"4","last_reported":1738595350,"current_range_meters":13600,"station_id":"ce4bhqp2rcd13ifvqhog","pricing_plan_id":"cebpf4jnsgd1na2vs0mg"},{"bike_id":"56e9681b-2d37-4b2c-957b-46ae6a15a367","system_id":"levelo_inurba_marseille","lat":43.29713,"lon":5.36616,"is_reserved":false,"is_disabled":false,"rental_uris":{"android":"levelo://app?vid=56e9681b-2d37-4b2c-957b-46ae6a15a367","ios":"levelo://app?vid=56e9681b-2d37-4b2c-957b-46ae6a15a367"},"vehicle_type_id":"4","last_reported":1738595350,"current_range_meters":33600,"station_id":"ce4bgn12rcd13ifvqbt0","pricing_plan_id":"cebpf4jnsgd1na2vs0mg"},{"bike_id":"a209e19f-6e3c-4e0a-a118-17b8acd62dc6","system_id":"levelo_inurba_marseille","lat":43.30129,"lon":5.39865,"is_reserved":false,"is_disabled":false,"rental_uris":{"android":"levelo://app?vid=a209e19f-6e3c-4e0a-a118-17b8acd62dc6","ios":"levelo://app?vid=a209e19f-6e3c-4e0a-a118-17b8acd62dc6"},"vehicle_type_id":"4","last_reported":1738595350,"current_range_meters":38000,"station_id":"ce4bh0h2rcd13ifvqd40","pricing_plan_id":"cebpf4jnsgd1na2vs0mg"},{"bike_id":"d1f73a6e-4a72-4ba1-ace0-3d4a39f9f484","system_id":"levelo_inurba_marseille","lat":43.30368,"lon":5.41896,"is_reserved":false,"is_disabled":true,"rental_uris":{"android":"levelo://app?vid=d1f73a6e-4a72-4ba1-ace0-3d4a39f9f484","ios":"levelo://app?vid=d1f73a6e-4a72-4ba1-ace0-3d4a39f9f484"},"vehicle_type_id":"4","last_reported":1738595350,"current_range_meters":37600,"station_id":"ce4bhop2rcd13ifvqh7g","pricing_plan_id":"cebpf4jnsgd1na2vs0mg"},{"bike_id":"f8245ac1-055c-4956-9505-c34c84a2fb02","system_id":"levelo_inurba_marseille","lat":43.29631,"lon":5.37176,"is_reserved":false,"is_disabled":false,"rental_uris":{"android":"levelo://app?vid=f8245ac1-055c-4956-9505-c34c84a2fb02","ios":"levelo://app?vid=f8245ac1-055c-4956-9505-c34c84a2fb02"},"vehicle_type_id":"4","last_reported":1738595350,"current_range_meters":33600,"station_id":"ce4bgnh2rcd13ifvqc0g","pricing_plan_id":"cebpf4jnsgd1na2vs0mg"},{"bike_id":"00314e7a-c629-4ec9-aa80-4153e2561a78","system_id":"levelo_inurba_marseille","lat":43.28411,"lon":5.37516,"is_reserved":false,"is_disabled":true,"rental_uris":{"android":"levelo://app?vid=00314e7a-c629-4ec9-aa80-4153e2561a78","ios":"levelo://app?vid=00314e7a-c629-4ec9-aa80-4153e2561a78"},"vehicle_type_id":"4","last_reported":1738595350,"current_range_meters":0,"station_id":"ce4bh412rcd13ifvqds0","pricing_plan_id":"cebpf4jnsgd1na2vs0mg"},{"bike_id":"7b39ed00-86df-4303-bda1-bfc0fee1e7e2","system_id":"levelo_inurba_marseille","lat":43.32448,"lon":5.45539,"is_reserved":false,"is_disabled":false,"rental_uris":{"android":"levelo://app?vid=7b39ed00-86df-4303-bda1-bfc0fee1e7e2","ios":"levelo://app?vid=7b39ed00-86df-4303-bda1-bfc0fee1e7e2"},"vehicle_type_id":"4","last_reported":1738595350,"current_range_meters":28000,"station_id":"","pricing_plan_id":"cebpf4jnsgd1na2vs0mg"},{"bike_id":"9807923f-ce8f-4aaf-a7c8-3fb77360323b","system_id":"levelo_inurba_marseille","lat":43.29281,"lon":5.36838,"is_reserved":false,"is_disabled":false,"rental_uris":{"android":"levelo://app?vid=9807923f-ce8f-4aaf-a7c8-3fb77360323b","ios":"levelo://app?vid=9807923f-ce8f-4aaf-a7c8-3fb77360323b"},"vehicle_type_id":"4","last_reported":1738595350,"current_range_meters":16400,"station_id":"ce4bhbp2rcd13ifvqesg","pricing_plan_id":"cebpf4jnsgd1na2vs0mg"},{"bike_id":"27965b13-db93-44ae-be4a-77a8d97c3b7e","system_id":"levelo_inurba_marseille","lat":43.26935,"lon":5.40258,"is_reserved":false,"is_disabled":false,"rental_uris":{"android":"levelo://app?vid=27965b13-db93-44ae-be4a-77a8d97c3b7e","ios":"levelo://app?vid=27965b13-db93-44ae-be4a-77a8d97c3b7e"},"vehicle_type_id":"4","last_reported":1738595350,"current_range_meters":39200,"station_id":"cjm6bp8fraef2m0cb0m0","pricing_plan_id":"cebpf4jnsgd1na2vs0mg"},{"bike_id":"bcd659f7-e6d4-4c28-b3f4-bf71fa0d3aee","system_id":"levelo_inurba_marseille","lat":43.31165,"lon":5.38721,"is_reserved":false,"is_disabled":false,"rental_uris":{"android":"levelo://app?vid=bcd659f7-e6d4-4c28-b3f4-bf71fa0d3aee","ios":"levelo://app?vid=bcd659f7-e6d4-4c28-b3f4-bf71fa0d3aee"},"vehicle_type_id":"4","last_reported":1738595350,"current_range_meters":36800,"station_id":"ce4bgv12rcd13ifvqcp0","pricing_plan_id":"cebpf4jnsgd1na2vs0mg"},{"bike_id":"7b373034-c327-4866-807c-9559e12d56e9","system_id":"levelo_inurba_marseille","lat":43.27211,"lon":5.39194,"is_reserved":false,"is_disabled":false,"rental_uris":{"android":"levelo://app?vid=7b373034-c327-4866-807c-9559e12d56e9","ios":"levelo://app?vid=7b373034-c327-4866-807c-9559e12d56e9"},"vehicle_type_id":"4","last_reported":1738595350,"current_range_meters":31200,"station_id":"ce4bhhp2rcd13ifvqfm0","pricing_plan_id":"cebpf4jnsgd1na2vs0mg"},{"bike_id":"f49df228-4d82-4103-ac22-de125f5bb7aa","system_id":"levelo_inurba_marseille","lat":43.27679,"lon":5.38879,"is_reserved":false,"is_disabled":false,"rental_uris":{"android":"levelo://app?vid=f49df228-4d82-4103-ac22-de125f5bb7aa","ios":"levelo://app?vid=f49df228-4d82-4103-ac22-de125f5bb7aa"},"vehicle_type_id":"4","last_reported":1738595350,"current_range_meters":22400,"station_id":"ce4bhi12rcd13ifvqfo0","pricing_plan_id":"cebpf4jnsgd1na2vs0mg"},{"bike_id":"c7efea0b-41ab-47c4-93f0-43a53000a63b","system_id":"levelo_inurba_marseille","lat":43.23067,"lon":5.3549,"is_reserved":false,"is_disabled":false,"rental_uris":{"android":"levelo://app?vid=c7efea0b-41ab-47c4-93f0-43a53000a63b","ios":"levelo://app?vid=c7efea0b-41ab-47c4-93f0-43a53000a63b"},"vehicle_type_id":"4","last_reported":1738595350,"current_range_meters":38000,"station_id":"cpo3342slgdg3j2ifvpg","pricing_plan_id":"cebpf4jnsgd1na2vs0mg"},{"bike_id":"aee0879e-191d-4f69-84fd-3330a33c9bae","system_id":"levelo_inurba_marseille","lat":43.30937,"lon":5.4014,"is_reserved":false,"is_disabled":false,"rental_uris":{"android":"levelo://app?vid=aee0879e-191d-4f69-84fd-3330a33c9bae","ios":"levelo://app?vid=aee0879e-191d-4f69-84fd-3330a33c9bae"},"vehicle_type_id":"4","last_reported":1738595350,"current_range_meters":29600,"station_id":"ce4bgvp2rcd13ifvqct0","pricing_plan_id":"cebpf4jnsgd1na2vs0mg"},{"bike_id":"324c2be5-1d25-4100-9086-8cdc99db60dc","system_id":"levelo_inurba_marseille","lat":43.25949,"lon":5.40911,"is_reserved":false,"is_disabled":true,"rental_uris":{"android":"levelo://app?vid=324c2be5-1d25-4100-9086-8cdc99db60dc","ios":"levelo://app?vid=324c2be5-1d25-4100-9086-8cdc99db60dc"},"vehicle_type_id":"4","last_reported":1738595350,"current_range_meters":1200,"station_id":"ce4bhm92rcd13ifvqglg","pricing_plan_id":"cebpf4jnsgd1na2vs0mg"},{"bike_id":"4a42dd29-029c-4dc5-a661-08b756992b1c","system_id":"levelo_inurba_marseille","lat":43.27678,"lon":5.3889,"is_reserved":false,"is_disabled":false,"rental_uris":{"android":"levelo://app?vid=4a42dd29-029c-4dc5-a661-08b756992b1c","ios":"levelo://app?vid=4a42dd29-029c-4dc5-a661-08b756992b1c"},"vehicle_type_id":"4","last_reported":1738595350,"current_range_meters":38800,"station_id":"ce4bhi12rcd13ifvqfo0","pricing_plan_id":"cebpf4jnsgd1na2vs0mg"},{"bike_id":"91f417b4-a310-423b-9c41-a2510c63469e","system_id":"levelo_inurba_marseille","lat":43.29789,"lon":5.380965,"is_reserved":false,"is_disabled":false,"rental_uris":{"android":"levelo://app?vid=91f417b4-a310-423b-9c41-a2510c63469e","ios":"levelo://app?vid=91f417b4-a310-423b-9c41-a2510c63469e"},"vehicle_type_id":"4","last_reported":1738595350,"current_range_meters":28400,"station_id":"ce4bgip2rcd13ifvqbb0","pricing_plan_id":"cebpf4jnsgd1na2vs0mg"},{"bike_id":"9eb82df1-6790-4750-bff4-ecc86d0c179d","system_id":"levelo_inurba_marseille","lat":43.29524,"lon":5.37508,"is_reserved":false,"is_disabled":true,"rental_uris":{"android":"levelo://app?vid=9eb82df1-6790-4750-bff4-ecc86d0c179d","ios":"levelo://app?vid=9eb82df1-6790-4750-bff4-ecc86d0c179d"},"vehicle_type_id":"4","last_reported":1738595350,"current_range_meters":0,"station_id":"ce4bgkp2rcd13ifvqbmg","pricing_plan_id":"cebpf4jnsgd1na2vs0mg"},{"bike_id":"439c2536-2abe-4087-b8ca-646055d51509","system_id":"levelo_inurba_marseille","lat":43.27054,"lon":5.40266,"is_reserved":false,"is_disabled":false,"rental_uris":{"android":"levelo://app?vid=439c2536-2abe-4087-b8ca-646055d51509","ios":"levelo://app?vid=439c2536-2abe-4087-b8ca-646055d51509"},"vehicle_type_id":"4","last_reported":1738595350,"current_range_meters":25600,"station_id":"ce4bhk92rcd13ifvqgc0","pricing_plan_id":"cebpf4jnsgd1na2vs0mg"},{"bike_id":"79b29b72-9a27-44fb-b66b-cf0538e9a6d8","system_id":"levelo_inurba_marseille","lat":43.25574,"lon":5.3824,"is_reserved":false,"is_disabled":false,"rental_uris":{"android":"levelo://app?vid=79b29b72-9a27-44fb-b66b-cf0538e9a6d8","ios":"levelo://app?vid=79b29b72-9a27-44fb-b66b-cf0538e9a6d8"},"vehicle_type_id":"4","last_reported":1738595350,"current_range_meters":16400,"station_id":"ce4bhih2rcd13ifvqfs0","pricing_plan_id":"cebpf4jnsgd1na2vs0mg"},{"bike_id":"443e7f8e-595e-480d-b126-9647aa71d0ef","system_id":"levelo_inurba_marseille","lat":43.3142,"lon":5.36642,"is_reserved":false,"is_disabled":false,"rental_uris":{"android":"levelo://app?vid=443e7f8e-595e-480d-b126-9647aa71d0ef","ios":"levelo://app?vid=443e7f8e-595e-480d-b126-9647aa71d0ef"},"vehicle_type_id":"4","last_reported":1738595350,"current_range_meters":38400,"station_id":"","pricing_plan_id":"cebpf4jnsgd1na2vs0mg"},{"bike_id":"7ffee52d-1691-494e-b85e-98738ae06dee","system_id":"levelo_inurba_marseille","lat":43.30789,"lon":5.37644,"is_reserved":false,"is_disabled":false,"rental_uris":{"android":"levelo://app?vid=7ffee52d-1691-494e-b85e-98738ae06dee","ios":"levelo://app?vid=7ffee52d-1691-494e-b85e-98738ae06dee"},"vehicle_type_id":"4","last_reported":1738595350,"current_range_meters":36800,"station_id":"ce4bgv92rcd13ifvqcq0","pricing_plan_id":"cebpf4jnsgd1na2vs0mg"},{"bike_id":"6a1faf97-d70f-4d4b-9839-7384547f05f7","system_id":"levelo_inurba_marseille","lat":43.27322,"lon":5.39079,"is_reserved":false,"is_disabled":false,"rental_uris":{"android":"levelo://app?vid=6a1faf97-d70f-4d4b-9839-7384547f05f7","ios":"levelo://app?vid=6a1faf97-d70f-4d4b-9839-7384547f05f7"},"vehicle_type_id":"4","last_reported":1738595350,"current_range_meters":34800,"station_id":"ce4bhgp2rcd13ifvqfe0","pricing_plan_id":"cebpf4jnsgd1na2vs0mg"},{"bike_id":"f401b5cd-ff4a-427b-873b-200db4b23c22","system_id":"levelo_inurba_marseille","lat":43.28984,"lon":5.35602,"is_reserved":false,"is_disabled":false,"rental_uris":{"android":"levelo://app?vid=f401b5cd-ff4a-427b-873b-200db4b23c22","ios":"levelo://app?vid=f401b5cd-ff4a-427b-873b-200db4b23c22"},"vehicle_type_id":"4","last_reported":1738595350,"current_range_meters":32000,"station_id":"ce4bhb92rcd13ifvqen0","pricing_plan_id":"cebpf4jnsgd1na2vs0mg"},