{"last_updated":1733181026,"ttl":60,"version":"2.2","data":{"bikes":[{"bike_id":"89c317dc-b498-4092-ab46-a64988b6ed0e","system_id":"levelo_inurba_marseille","lat":43.32292,"lon":5.38268,"is_reserved":false,"is_disabled":false,"rental_uris":{"android":"levelo://app?vid=89c317dc-b498-4092-ab46-a64988b6ed0e","ios":"levelo://app?vid=89c317dc-b498-4092-ab46-a64988b6ed0e"},"vehicle_type_id":"4","last_reported":1733181026,"current_range_meters":38000,"station_id":"ce4bhr12rcd13ifvqhqg","pricing_plan_id":"cebpf4jnsgd1na2vs0mg"},{"bike_id":"c6fcab72-3b24-4c75-b975-ad816d9a147b","system_id":"levelo_inurba_marseille","lat":43.24071,"lon":5.37759,"is_reserved":false,"is_disabled":true,"rental_uris":{"android":"levelo://app?vid=c6fcab72-3b24-4c75-b975-ad816d9a147b","ios":"levelo://app?vid=c6fcab72-3b24-4c75-b975-ad816d9a147b"},"vehicle_type_id":"4","last_reported":1733181026,"current_range_meters":0,"station_id":"ce4bhnp2rcd13ifvqgvg","pricing_plan_id":"cebpf4jnsgd1na2vs0mg"},{"bike_id":"9eaaf179-a1ef-46b8-8750-2b6c70564627","system_id":"levelo_inurba_marseille","lat":43.28699,"lon":5.39986,"is_reserved":false,"is_disabled":false,"rental_uris":{"android":"levelo://app?vid=9eaaf179-a1ef-46b8-8750-2b6c70564627","ios":"levelo://app?vid=9eaaf179-a1ef-46b8-8750-2b6c70564627"},"vehicle_type_id":"4","last_reported":1733181026,"current_range_meters":38800,"station_id":"ce4bho92rcd13ifvqh3g","pricing_plan_id":"cebpf4jnsgd1na2vs0mg"},{"bike_id":"7ebd64b2-3b0f-4222-ad9d-20406989239b","system_id":"levelo_inurba_marseille","lat":43.30152,"lon":5.38102,"is_reserved":false,"is_disabled":true,"rental_uris":{"android":"levelo://app?vid=7ebd64b2-3b0f-4222-ad9d-20406989239b","ios":"levelo://app?vid=7ebd64b2-3b0f-4222-ad9d-20406989239b"},"vehicle_type_id":"4","last_reported":1733181026,"current_range_meters":0,"station_id":"ce4bgjp2rcd13ifvqbh0","pricing_plan_id":"cebpf4jnsgd1na2vs0mg"},{"bike_id":"df479c2c-35ac-44ad-b9d6-81c89ed769ce","system_id":"levelo_inurba_marseille","lat":43.29686,"lon":5.37065,"is_reserved":false,"is_disabled":true,"rental_uris":{"android":"levelo://app?vid=df479c2c-35ac-44ad-b9d6-81c89ed769ce","ios":"levelo://app?vid=df479c2c-35ac-44ad-b9d6-81c89ed769ce"},"vehicle_type_id":"4","last_reported":1733181026,"current_range_meters":0,"station_id":"","pricing_plan_id":"cebpf4jnsgd1na2vs0mg"},{"bike_id":"8e029eaf-e104-4c5d-858d-6cd39de73d09","system_id":"levelo_inurba_marseille","lat":43.24196,"lon":5.36384,"is_reserved":false,"is_disabled":false,"rental_uris":{"android":"levelo://app?vid=8e029eaf-e104-4c5d-858d-6cd39de73d09","ios":"levelo://app?vid=8e029eaf-e104-4c5d-858d-6cd39de73d09"},"vehicle_type_id":"4","last_reported":1733181026,"current_range_meters":19200,"station_id":"cpo36qri1sfpv3e86is0","pricing_plan_id":"cebpf4jnsgd1na2vs0mg"},{"bike_id":"bd8cd1c7-abef-42cd-bb74-c23362a9f370","system_id":"levelo_inurba_marseille","lat":43.29415,"lon":5.38613,"is_reserved":false,"is_disabled":true,"rental_uris":{"android":"levelo://app?vid=bd8cd1c7-abef-42cd-bb74-c23362a9f370","ios":"levelo://app?vid=bd8cd1c7-abef-42cd-bb74-c23362a9f370"},"vehicle_type_id":"4","last_reported":1733181026,"current_range_meters":20000,"station_id":"ce4bh2h2rcd13ifvqdh0","pricing_plan_id":"cebpf4jnsgd1na2vs0mg"},{"bike_id":"881e22df-04d6-47fa-bbe5-cc6ba5b32e12","system_id":"levelo_inurba_marseille","lat":43.29274,"lon":5.36845,"is_reserved":false,"is_disabled":false,"rental_uris":{"android":"levelo://app?vid=881e22df-04d6-47fa-bbe5-cc6ba5b32e12","ios":"levelo://app?vid=881e22df-04d6-47fa-bbe5-cc6ba5b32e12"},"vehicle_type_id":"4","last_reported":1733181026,"current_range_meters":38800,"station_id":"ce4bhbp2rcd13ifvqesg","pricing_plan_id":"cebpf4jnsgd1na2vs0mg"},{"bike_id":"63d35490-df19-4913-ab6c-5eb6d7b81cb1","system_id":"levelo_inurba_marseille","lat":43.31323,"lon":5.39693,"is_reserved":false,"is_disabled":false,"rental_uris":{"android":"levelo://app?vid=63d35490-df19-4913-ab6c-5eb6d7b81cb1","ios":"levelo://app?vid=63d35490-df19-4913-ab6c-5eb6d7b81cb1"},"vehicle_type_id":"4","last_reported":1733181026,"current_range_meters":28800,"station_id":"ce4bgvp2rcd13ifvqcu0","pricing_plan_id":"cebpf4jnsgd1na2vs0mg"},{"bike_id":"12652c73-7b25-4805-92ca-4c9bb1159096","system_id":"levelo_inurba_marseille","lat":43.27616,"lon":5.36131,"is_reserved":false,"is_disabled":true,"rental_uris":{"android":"levelo://app?vid=12652c73-7b25-4805-92ca-4c9bb1159096","ios":"levelo://app?vid=12652c73-7b25-4805-92ca-4c9bb1159096"},"vehicle_type_id":"4","last_reported":1733181026,"current_range_meters":38400,"station_id":"ce4bgj92rcd13ifvqbe0","pricing_plan_id":"cebpf4jnsgd1na2vs0mg"},{"bike_id":"28ffdac5-d6d4-419f-901d-72f266afeec4","system_id":"levelo_inurba_marseille","lat":43.31531,"lon":5.38032,"is_reserved":false,"is_disabled":false,"rental_uris":{"android":"levelo://app?vid=28ffdac5-d6d4-419f-901d-72f266afeec4","ios":"levelo://app?vid=28ffdac5-d6d4-419f-901d-72f266afeec4"},"vehicle_type_id":"4","last_reported":1733181026,"current_range_meters":38800,"station_id":"ce4bhsp2rcd13ifvqi50","pricing_plan_id":"cebpf4jnsgd1na2vs0mg"},{"bike_id":"9dfb3ae0-2ee3-42e6-bc73-2b1ac76e82bc","system_id":"levelo_inurba_marseille","lat":43.30463,"lon":5.37895,"is_reserved":false,"is_disabled":true,"rental_uris":{"android":"levelo://app?vid=9dfb3ae0-2ee3-42e6-bc73-2b1ac76e82bc","ios":"levelo://app?vid=9dfb3ae0-2ee3-42e6-bc73-2b1ac76e82bc"},"vehicle_type_id":"4","last_reported":1733181026,"current_range_meters":0,"station_id":"ce4bgup2rcd13ifvqcn0","pricing_plan_id":"cebpf4jnsgd1na2vs0mg"},{"bike_id":"89df1b41-e076-4ea5-afdf-b7d5c3fe1a38","system_id":"levelo_inurba_marseille","lat":43.29795,"lon":5.40403,"is_reserved":false,"is_disabled":false,"rental_uris":{"android":"levelo://app?vid=89df1b41-e076-4ea5-afdf-b7d5c3fe1a38","ios":"levelo://app?vid=89df1b41-e076-4ea5-afdf-b7d5c3fe1a38"},"vehicle_type_id":"4","last_reported":1733181026,"current_range_meters":38800,"station_id":"ce4bh112rcd13ifvqd90","pricing_plan_id":"cebpf4jnsgd1na2vs0mg"},{"bike_id":"95100176-7ead-4230-932c-4b0bbddddb86","system_id":"levelo_inurba_marseille","lat":43.32483,"lon":5.36567,"is_reserved":false,"is_disabled":false,"rental_uris":{"android":"levelo://app?vid=95100176-7ead-4230-932c-4b0bbddddb86","ios":"levelo://app?vid=95100176-7ead-4230-932c-4b0bbddddb86"},"vehicle_type_id":"4","last_reported":1733181026,"current_range_meters":7200,"station_id":"ce4bhs12rcd13ifvqhvg","pricing_plan_id":"cebpf4jnsgd1na2vs0mg"},{"bike_id":"b81226b0-d7dc-4213-8de7-ddec7d23b0a8","system_id":"levelo_inurba_marseille","lat":43.28428,"lon":5.39183,"is_reserved":false,"is_disabled":false,"rental_uris":{"android":"levelo://app?vid=b81226b0-d7dc-4213-8de7-ddec7d23b0a8","ios":"levelo://app?vid=b81226b0-d7dc-4213-8de7-ddec7d23b0a8"},"vehicle_type_id":"4","last_reported":1733181026,"current_range_meters":38800,"station_id":"ce4bhoh2rcd13ifvqh5g","pricing_plan_id":"cebpf4jnsgd1na2vs0mg"},{"bike_id":"08c2e1b1-d91f-491a-a16d-0ec11fecf599","system_id":"levelo_inurba_marseille","lat":43.24376,"lon":5.37083,"is_reserved":false,"is_disabled":false,"rental_uris":{"android":"levelo://app?vid=08c2e1b1-d91f-491a-a16d-0ec11fecf599","ios":"levelo://app?vid=08c2e1b1-d91f-491a-a16d-0ec11fecf599"},"vehicle_type_id":"4","last_reported":1733181026,"current_range_meters":39200,"station_id":"ce4bhhh2rcd13ifvqfk0","pricing_plan_id":"cebpf4jnsgd1na2vs0mg"},{"bike_id":"8bd642b2-0279-44c7-9ee2-fc3b57332c83","system_id":"levelo_inurba_marseille","lat":43.27455,"lon":5.40073,"is_reserved":false,"is_disabled":true,"rental_uris":{"android":"levelo://app?vid=8bd642b2-0279-44c7-9ee2-fc3b57332c83","ios":"levelo://app?vid=8bd642b2-0279-44c7-9ee2-fc3b57332c83"},"vehicle_type_id":"4","last_reported":1733181026,"current_range_meters":0,"station_id":"","pricing_plan_id":"cebpf4jnsgd1na2vs0mg"},{"bike_id":"83437d36-78d2-42fa-99fb-a4a968b35ce8","system_id":"levelo_inurba_marseille","lat":43.2815,"lon":5.42656,"is_reserved":false,"is_disabled":false,"rental_uris":{"android":"levelo://app?vid=83437d36-78d2-42fa-99fb-a4a968b35ce8","ios":"levelo://app?vid=83437d36-78d2-42fa-99fb-a4a968b35ce8"},"vehicle_type_id":"4","last_reported":1733181026,"current_range_meters":38800,"station_id":"ce4bhnh2rcd13ifvqgug","pricing_plan_id":"cebpf4jnsgd1na2vs0mg"},{"bike_id":"3b63d59d-dad2-4548-b637-e84c40b840ed","system_id":"levelo_inurba_marseille","lat":43.28457,"lon":5.35896,"is_reserved":false,"is_disabled":false,"rental_uris":{"android":"levelo://app?vid=3b63d59d-dad2-4548-b637-e84c40b840ed","ios":"levelo://app?vid=3b63d59d-dad2-4548-b637-e84c40b840ed"},"vehicle_type_id":"4","last_reported":1733181026,"current_range_meters":28000,"station_id":"ce4bhah2rcd13ifvqei0","pricing_plan_id":"cebpf4jnsgd1na2vs0mg"},{"bike_id":"e88a7aa7-57ea-4322-887d-f93f9e21eccd","system_id":"levelo_inurba_marseille","lat":43.31326,"lon":5.39694,"is_reserved":false,"is_disabled":false,"rental_uris":{"android":"levelo://app?vid=e88a7aa7-57ea-4322-887d-f93f9e21eccd","ios":"levelo://app?vid=e88a7aa7-57ea-4322-887d-f93f9e21eccd"},"vehicle_type_id":"4","last_reported":1733181026,"current_range_meters":38800,"station_id":"ce4bgvp2rcd13ifvqcu0","pricing_plan_id":"cebpf4jnsgd1na2vs0mg"},{"bike_id":"c347fdc8-f848-4a1b-898c-58f3ee61813b","system_id":"levelo_inurba_marseille","lat":43.31329,"lon":5.39695,"is_reserved":false,"is_disabled":false,"rental_uris":{"android":"levelo://app?vid=c347fdc8-f848-4a1b-898c-58f3ee61813b","ios":"levelo://app?vid=c347fdc8-f848-4a1b-898c-58f3ee61813b"},"vehicle_type_id":"4","last_reported":1733181026,"current_range_meters":26000,"station_id":"ce4bgvp2rcd13ifvqcu0","pricing_plan_id":"cebpf4jnsgd1na2vs0mg"},{"bike_id":"d89aab9b-0a28-4695-8865-b2d120af73f8","system_id":"levelo_inurba_marseille","lat":43.29271,"lon":5.4011,"is_reserved":false,"is_disabled":false,"rental_uris":{"android":"levelo://app?vid=d89aab9b-0a28-4695-8865-b2d120af73f8","ios":"levelo://app?vid=d89aab9b-0a28-4695-8865-b2d120af73f8"},"vehicle_type_id":"4","last_reported":1733181026,"current_range_meters":18000,"station_id":"ce4bh312rcd13ifvqdk0","pricing_plan_id":"cebpf4jnsgd1na2vs0mg"},{"bike_id":"c0bec7ea-31af-49de-8a97-a7d6bf5d8bb8","system_id":"levelo_inurba_marseille","lat":43.29046,"lon":5.35905,"is_reserved":false,"is_disabled":true,"rental_uris":{"android":"levelo://app?vid=c0bec7ea-31af-49de-8a97-a7d6bf5d8bb8","ios":"levelo://app?vid=c0bec7ea-31af-49de-8a97-a7d6bf5d8bb8"},"vehicle_type_id":"4","last_reported":1733181026,"current_range_meters":38800,"station_id":"ce4bha92rcd13ifvqeg0","pricing_plan_id":"cebpf4jnsgd1na2vs0mg"},{"bike_id":"f9752e82-4438-4882-a3c3-c7c0578a03f9","system_id":"levelo_inurba_marseille","lat":43.28032,"lon":5.36946,"is_reserved":false,"is_disabled":false,"rental_uris":{"android":"levelo://app?vid=f9752e82-4438-4882-a3c3-c7c0578a03f9","ios":"levelo://app?vid=f9752e82-4438-4882-a3c3-c7c0578a03f9"},"vehicle_type_id":"4","last_reported":1733181026,"current_range_meters":4800,"station_id":"ce4bha12rcd13ifvqef0","pricing_plan_id":"cebpf4jnsgd1na2vs0mg"},{"bike_id":"d587e82d-3537-4948-9f3b-2f2478230937","system_id":"levelo_inurba_marseille","lat":43.31543,"lon":5.38033,"is_reserved":false,"is_disabled":false,"rental_uris":{"android":"levelo://app?vid=d587e82d-3537-4948-9f3b-2f2478230937","ios":"levelo://app?vid=d587e82d-3537-4948-9f3b-2f2478230937"},"vehicle_type_id":"4","last_reported":1733181026,"current_range_meters":39200,"station_id":"ce4bhsp2rcd13ifvqi50","pricing_plan_id":"cebpf4jnsgd1na2vs0mg"},{"bike_id":"475b0e62-d2b9-43a0-a896-2541e3d26116","system_id":"levelo_inurba_marseille","lat":43.24641,"lon":5.3889,"is_reserved":false,"is_disabled":true,"rental_uris":{"android":"levelo://app?vid=475b0e62-d2b9-43a0-a896-2541e3d26116","ios":"levelo://app?vid=475b0e62-d2b9-43a0-a896-2541e3d26116"},"vehicle_type_id":"4","last_reported":1733181026,"current_range_meters":0,"station_id":"ce4bhg12rcd13ifvqf60","pricing_plan_id":"cebpf4jnsgd1na2vs0mg"},{"bike_id":"58ff5ef4-5e8b-42b4-baea-f7cffbb7644c","system_id":"levelo_inurba_marseille","lat":43.2799,"lon":5.41658,"is_reserved":false,"is_disabled":false,"rental_uris":{"android":"levelo://app?vid=58ff5ef4-5e8b-42b4-baea-f7cffbb7644c","ios":"levelo://app?vid=58ff5ef4-5e8b-42b4-baea-f7cffbb7644c"},"vehicle_type_id":"4","last_reported":1733181026,"current_range_meters":35200,"station_id":"ce4bho12rcd13ifvqh1g","pricing_plan_id":"cebpf4jnsgd1na2vs0mg"},{"bike_id":"b3f478ac-3b05-4edf-bdbf-76399090f8e9","system_id":"levelo_inurba_marseille","lat":43.30001,"lon":5.3764,"is_reserved":false,"is_disabled":true,"rental_uris":{"android":"levelo://app?vid=b3f478ac-3b05-4edf-bdbf-76399090f8e9","ios":"levelo://app?vid=b3f478ac-3b05-4edf-bdbf-76399090f8e9"},"vehicle_type_id":"4","last_reported":1733181026,"current_range_meters":0,"station_id":"","pricing_plan_id":"cebpf4jnsgd1na2vs0mg"},{"bike_id":"c3587c28-5435-41c6-a9b7-aa468e6b19aa","system_id":"levelo_inurba_marseille","lat":43.29746,"lon":5.37916,"is_reserved":false,"is_disabled":true,"rental_uris":{"android":"levelo://app?vid=c3587c28-5435-41c6-a9b7-aa468e6b19aa","ios":"levelo://app?vid=c3587c28-5435-41c6-a9b7-aa468e6b19aa"},"vehicle_type_id":"4","last_reported":1733181026,"current_range_meters":0,"station_id":"","pricing_plan_id":"cebpf4jnsgd1na2vs0mg"},{"bike_id":"8e818d24-162f-48bc-81b1-e290a0aa5eb9","system_id":"levelo_inurba_marseille","lat":43.29441,"lon":5.39755,"is_reserved":false,"is_disabled":false,"rental_uris":{"android":"levelo://app?vid=8e818d24-162f-48bc-81b1-e290a0aa5eb9","ios":"levelo://app?vid=8e818d24-162f-48bc-81b1-e290a0aa5eb9"},"vehicle_type_id":"4","last_reported":1733181026,"current_range_meters":38400,"station_id":"ce4bh3h2rcd13ifvqdo0","pricing_plan_id":"cebpf4jnsgd1na2vs0mg"},{"bike_id":"81616d7d-bea3-414a-bdfe-df04b7bb765c","system_id":"levelo_inurba_marseille","lat":43.31357,"lon":5.38492,"is_reserved":false,"is_disabled":false,"rental_uris":{"android":"levelo://app?vid=81616d7d-bea3-414a-bdfe-df04b7bb765c","ios":"levelo://app?vid=81616d7d-bea3-414a-bdfe-df04b7bb765c"},"vehicle_type_id":"4","last_reported":1733181026,"current_range_meters":16000,"station_id":"ce4bgt92rcd13ifvqcf0","pricing_plan_id":"cebpf4jnsgd1na2vs0mg"},{"bike_id":"e8d9fcd3-6c4c-4c2e-a87e-41c5e4dfa6d0","system_id":"levelo_inurba_marseille","lat":43.25438,"lon":5.38158,"is_reserved":false,"is_disabled":true,"rental_uris":{"android":"levelo://app?vid=e8d9fcd3-6c4c-4c2e-a87e-41c5e4dfa6d0","ios":"levelo://app?vid=e8d9fcd3-6c4c-4c2e-a87e-41c5e4dfa6d0"},"vehicle_type_id":"4","last_reported":1733181026,"current_range_meters":0,"station_id":"","pricing_plan_id":"cebpf4jnsgd1na2vs0mg"},{"bike_id":"101e72cb-5bc1-49ec-be2d-1e8628e565f6","system_id":"levelo_inurba_marseille","lat":43.31502,"lon":5.37297,"is_reserved":false,"is_disabled":true,"rental_uris":{"android":"levelo://app?vid=101e72cb-5bc1-49ec-be2d-1e8628e565f6","ios":"levelo://app?vid=101e72cb-5bc1-49ec-be2d-1e8628e565f6"},"vehicle_type_id":"4","last_reported":1733181026,"current_range_meters":36000,"station_id":"ce4bgt12rcd13ifvqcd0","pricing_plan_id":"cebpf4jnsgd1na2vs0mg"},{"bike_id":"4673f8d8-8295-437d-8f1d-a884bed9d1e4","system_id":"levelo_inurba_marseille","lat":43.2315,"lon":5.4372,"is_reserved":false,"is_disabled":false,"rental_uris":{"android":"levelo://app?vid=4673f8d8-8295-437d-8f1d-a884bed9d1e4","ios":"levelo://app?vid=4673f8d8-8295-437d-8f1d-a884bed9d1e4"},"vehicle_type_id":"4","last_reported":1733181026,"current_range_meters":33600,"station_id":"ce4bhmp2rcd13ifvqgog","pricing_plan_id":"cebpf4jnsgd1na2vs0mg"},{"bike_id":"0a081414-1571-4fba-8c83-fe3438cc1403","system_id":"levelo_inurba_marseille","lat":43.29858,"lon":5.39749,"is_reserved":false,"is_disabled":false,"rental_uris":{"android":"levelo://app?vid=0a081414-1571-4fba-8c83-fe3438cc1403","ios":"levelo://app?vid=0a081414-1571-4fba-8c83-fe3438cc1403"},"vehicle_type_id":"4","last_reported":1733181026,"current_range_meters":30800,"station_id":"ce4bh0h2rcd13ifvqd50","pricing_plan_id":"cebpf4jnsgd1na2vs0mg"},{"bike_id":"52f78895-69de-4d71-a918-9f14f12e62d4","system_id":"levelo_inurba_marseille","lat":43.32348,"lon":5.40613,"is_reserved":false,"is_disabled":false,"rental_uris":{"android":"levelo://app?vid=52f78895-69de-4d71-a918-9f14f12e62d4","ios":"levelo://app?vid=52f78895-69de-4d71-a918-9f14f12e62d4"},"vehicle_type_id":"4","last_reported":1733181026,"current_range_meters":16800,"station_id":"ce4bhq92rcd13ifvqhjg","pricing_plan_id":"cebpf4jnsgd1na2vs0mg"},{"bike_id":"c01f5b32-14ab-4858-a38f-8664e35972dd","system_id":"levelo_inurba_marseille","lat":43.27901,"lon":5.38015,"is_reserved":false,"is_disabled":false,"rental_uris":{"android":"levelo://app?vid=c01f5b32-14ab-4858-a38f-8664e35972dd","ios":"levelo://app?vid=c01f5b32-14ab-4858-a38f-8664e35972dd"},"vehicle_type_id":"4","last_reported":1733181026,"current_range_meters":38800,"station_id":"ce4bhf92rcd13ifvqf50","pricing_plan_id":"cebpf4jnsgd1na2vs0mg"},{"bike_id":"100075c1-9334-4215-8cb0-ec78affbcfad","system_id":"levelo_inurba_marseille","lat":43.29013,"lon":5.37879,"is_reserved":false,"is_disabled":false,"rental_uris":{"android":"levelo://app?vid=100075c1-9334-4215-8cb0-ec78affbcfad","ios":"levelo://app?vid=100075c1-9334-4215-8cb0-ec78affbcfad"},"vehicle_type_id":"4","last_reported":1733181026,"current_range_meters":7200,"station_id":"ce4bhah2rcd13ifvqej0","pricing_plan_id":"cebpf4jnsgd1na2vs0mg"},{"bike_id":"b0408ab4-b715-49f1-bcb0-f87296f6c546","system_id":"levelo_inurba_marseille","lat":43.30323,"lon":5.40441,"is_reserved":false,"is_disabled":false,"rental_uris":{"android":"levelo://app?vid=b0408ab4-b715-49f1-bcb0-f87296f6c546","ios":"levelo://app?vid=b0408ab4-b715-49f1-bcb0-f87296f6c546"},"vehicle_type_id":"4","last_reported":1733181026,"current_range_meters":37600,"station_id":"ce4bh012rcd13ifvqd10","pricing_plan_id":"cebpf4jnsgd1na2vs0mg"},{"bike_id":"052a1e58-88fa-43c4-a493-9df8526488c7","system_id":"levelo_inurba_marseille","lat":43.29197,"lon":5.39317,"is_reserved":false,"is_disabled":true,"rental_uris":{"android":"levelo://app?vid=052a1e58-88fa-43c4-a493-9df8526488c7","ios":"levelo://app?vid=052a1e58-88fa-43c4-a493-9df8526488c7"},"vehicle_type_id":"4","last_reported":1733181026,"current_range_meters":10000,"station_id":"ce4bh192rcd13ifvqdd0","pricing_plan_id":"cebpf4jnsgd1na2vs0mg"},{"bike_id":"34ed7b16-e707-4c30-bb65-0c88ea055863","system_id":"levelo_inurba_marseille","lat":43.30806,"lon":5.43522,"is_reserved":false,"is_disabled":true,"rental_uris":{"android":"levelo://app?vid=34ed7b16-e707-4c30-bb65-0c88ea055863","ios":"levelo://app?vid=34ed7b16-e707-4c30-bb65-0c88ea055863"},"vehicle_type_id":"4","last_reported":1733181026,"current_range_meters":12400,"station_id":"ce4bhph2rcd13ifvqheg","pricing_plan_id":"cebpf4jnsgd1na2vs0mg"},{"bike_id":"670cdfe7-bbc3-4db4-98e2-42b2e481d6ed","system_id":"levelo_inurba_marseille","lat":43.28845,"lon":5.35852,"is_reserved":false,"is_disabled":false,"rental_uris":{"android":"levelo://app?vid=670cdfe7-bbc3-4db4-98e2-42b2e481d6ed","ios":"levelo://app?vid=670cdfe7-bbc3-4db4-98e2-42b2e481d6ed"},"vehicle_type_id":"4","last_reported":1733181026,"current_range_meters":28800,"station_id":"ce4bhb12rcd13ifvqem0","pricing_plan_id":"cebpf4jnsgd1na2vs0mg"},{"bike_id":"7f9f3d2e-2c33-4e9f-af7d-e28e797af1e6","system_id":"levelo_inurba_marseille","lat":43.28153,"lon":5.4264,"is_reserved":false,"is_disabled":false,"rental_uris":{"android":"levelo://app?vid=7f9f3d2e-2c33-4e9f-af7d-e28e797af1e6","ios":"levelo://app?vid=7f9f3d2e-2c33-4e9f-af7d-e28e797af1e6"},"vehicle_type_id":"4","last_reported":1733181026,"current_range_meters":12000,"station_id":"ce4bhnh2rcd13ifvqgug","pricing_plan_id":"cebpf4jnsgd1na2vs0mg"},{"bike_id":"66be51ea-e4b0-4ae8-91ab-649c9fc82df9","system_id":"levelo_inurba_marseille","lat":43.28149,"lon":5.42641,"is_reserved":false,"is_disabled":false,"rental_uris":{"android":"levelo://app?vid=66be51ea-e4b0-4ae8-91ab-649c9fc82df9","ios":"levelo://app?vid=66be51ea-e4b0-4ae8-91ab-649c9fc82df9"},"vehicle_type_id":"4","last_reported":1733181026,"current_range_meters":16800,"station_id":"ce4bhnh2rcd13ifvqgug","pricing_plan_id":"cebpf4jnsgd1na2vs0mg"},{"bike_id":"049117d3-45b4-40a9-9b16-54c194d80ad6","system_id":"levelo_inurba_marseille","lat":43.31725,"lon":5.37769,"is_reserved":false,"is_disabled":false,"rental_uris":{"android":"levelo://app?vid=049117d3-45b4-40a9-9b16-54c194d80ad6","ios":"levelo://app?vid=049117d3-45b4-40a9-9b16-54c194d80ad6"},"vehicle_type_id":"4","last_reported":1733181026,"current_range_meters":14400,"station_id":"ce4bgth2rcd13ifvqch0","pricing_plan_id":"cebpf4jnsgd1na2vs0mg"},{"bike_id":"476d3321-c3c7-48fc-9fc2-d082344699e4","system_id":"levelo_inurba_marseille","lat":43.25866,"lon":5.39899,"is_reserved":false,"is_disabled":false,"rental_uris":{"android":"levelo://app?vid=476d3321-c3c7-48fc-9fc2-d082344699e4","ios":"levelo://app?vid=476d3321-c3c7-48fc-9fc2-d082344699e4"},"vehicle_type_id":"4","last_reported":1733181026,"current_range_meters":5600,"station_id":"ce4bhl92rcd13ifvqghg","pricing_plan_id":"cebpf4jnsgd1na2vs0mg"},{"bike_id":"16bea42d-3248-41fd-8b51-39fb3d7ec2c4","system_id":"levelo_inurba_marseille","lat":43.26482,"lon":5.38532,"is_reserved":false,"is_disabled":true,"rental_uris":{"android":"levelo://app?vid=16bea42d-3248-41fd-8b51-39fb3d7ec2c4","ios":"levelo://app?vid=16bea42d-3248-41fd-8b51-39fb3d7ec2c4"},"vehicle_type_id":"4","last_reported":1733181026,"current_range_meters":0,"station_id":"","pricing_plan_id":"cebpf4jnsgd1na2vs0mg"},{"bike_id":"21d0c3c4-d980-4f5f-b80b-ac5ea02d4220","system_id":"levelo_inurba_marseille","lat":43.24068,"lon":5.37764,"is_reserved":false,"is_disabled":false,"rental_uris":{"android":"levelo://app?vid=21d0c3c4-d980-4f5f-b80b-ac5ea02d4220","ios":"levelo://app?vid=21d0c3c4-d980-4f5f-b80b-ac5ea02d4220"},"vehicle_type_id":"4","last_reported":1733181026,"current_range_meters":38000,"station_id":"ce4bhnp2rcd13ifvqgvg","pricing_plan_id":"cebpf4jnsgd1na2vs0mg"},{"bike_id":"963ff4d9-00da-46d0-81c1-0379db216364","system_id":"levelo_inurba_marseille","lat":43.31325,"lon":5.38476,"is_reserved":false,"is_disabled":false,"rental_uris":{"android":"levelo://app?vid=963ff4d9-00da-46d0-81c1-0379db216364","ios":"levelo://app?vid=963ff4d9-00da-46d0-81c1-0379db216364"},"vehicle_type_id":"4","last_reported":1733181026,"current_range_meters":20800,"station_id":"ce4bgt92rcd13ifvqcf0","pricing_plan_id":"cebpf4jnsgd1na2vs0mg"},{"bike_id":"29e34376-1403-4ab2-9991-c557af49d547","system_id":"levelo_inurba_marseille","lat":43.337444,"lon":5.374475,"is_reserved":false,"is_disabled":false,"rental_uris":{"android":"levelo://app?vid=29e34376-1403-4ab2-9991-c557af49d547","ios":"levelo://app?vid=29e34376-1403-4ab2-9991-c557af49d547"},"vehicle_type_id":"4","last_reported":1733181026,"current_range_meters":38000,"station_id":"","pricing_plan_id":"cebpf4jnsgd1na2vs0mg"},{"bike_id":"2b54ddc5-0583-4fc9-accb-0a4c7f0b096a","system_id":"levelo_inurba_marseille","lat":43.26684,"lon":5.38274,"is_reserved":false,"is_disabled":true,"rental_uris":{"android":"levelo://app?vid=2b54ddc5-0583-4fc9-accb-0a4c7f0b096a","ios":"levelo://app?vid=2b54ddc5-0583-4fc9-accb-0a4c7f0b096a"},"vehicle_type_id":"4","last_reported":1733181026,"current_range_meters":28400,"station_id":"ce4bhg92rcd13ifvqf90","pricing_plan_id":"cebpf4jnsgd1na2vs0mg"},{"bike_id":"eaa73896-04a8-4ef6-a4c7-4d4e56920b82","system_id":"levelo_inurba_marseille","lat":43.29292,"lon":5.37442,"is_reserved":false,"is_disabled":true,"rental_uris":{"android":"levelo://app?vid=eaa73896-04a8-4ef6-a4c7-4d4e56920b82","ios":"levelo://app?vid=eaa73896-04a8-4ef6-a4c7-4d4e56920b82"},"vehicle_type_id":"4","last_reported":1733181026,"current_range_meters":0,"station_id":"ce4bgi12rcd13ifvqb70","pricing_plan_id":"cebpf4jnsgd1na2vs0mg"},{"bike_id":"00d0550a-0b97-4c21-aadc-04edc01a3042","system_id":"levelo_inurba_marseille","lat":43.30952,"lon":5.39048,"is_reserved":false,"is_disabled":false,"rental_uris":{"android":"levelo://app?vid=00d0550a-0b97-4c21-aadc-04edc01a3042","ios":"levelo://app?vid=00d0550a-0b97-4c21-aadc-04edc01a3042"},"vehicle_type_id":"4","last_reported":1733181026,"current_range_meters":22000,"station_id":"ce4bgup2rcd13ifvqco0","pricing_plan_id":"cebpf4jnsgd1na2vs0mg"},{"bike_id":"3418be4f-03ce-4b15-8c72-c86fb14e06a8","system_id":"levelo_inurba_marseille","lat":43.28463,"lon":5.35882,"is_reserved":false,"is_disabled":false,"rental_uris":{"android":"levelo://app?vid=3418be4f-03ce-4b15-8c72-c86fb14e06a8","ios":"levelo://app?vid=3418be4f-03ce-4b15-8c72-c86fb14e06a8"},"vehicle_type_id":"4","last_reported":1733181026,"current_range_meters":38000,"station_id":"ce4bhah2rcd13ifvqei0","pricing_plan_id":"cebpf4jnsgd1na2vs0mg"},{"bike_id":"f6cc9804-8427-412d-b1e6-763226da6ed7","system_id":"levelo_inurba_marseille","lat":43.31275,"lon":5.40173,"is_reserved":false,"is_disabled":false,"rental_uris":{"android":"levelo://app?vid=f6cc9804-8427-412d-b1e6-763226da6ed7","ios":"levelo://app?vid=f6cc9804-8427-412d-b1e6-763226da6ed7"},"vehicle_type_id":"4","last_reported":1733181026,"current_range_meters":16000,"station_id":"ce4bh092rcd13ifvqd30","pricing_plan_id":"cebpf4jnsgd1na2vs0mg"},{"bike_id":"e3d7b72e-1a45-4d8f-9779-430bf24de830","system_id":"levelo_inurba_marseille","lat":43.30804,"lon":5.38162,"is_reserved":false,"is_disabled":false,"rental_uris":{"android":"levelo://app?vid=e3d7b72e-1a45-4d8f-9779-430bf24de830","ios":"levelo://app?vid=e3d7b72e-1a45-4d8f-9779-430bf24de830"},"vehicle_type_id":"4","last_reported":1733181026,"current_range_meters":38800,"station_id":"ce4bgt12rcd13ifvqce0","pricing_plan_id":"cebpf4jnsgd1na2vs0mg"},{"bike_id":"749cb1cb-4d4c-4e48-bab8-f0f8d049f6fc","system_id":"levelo_inurba_marseille","lat":43.26686,"lon":5.38269,"is_reserved":false,"is_disabled":true,"rental_uris":{"android":"levelo://app?vid=749cb1cb-4d4c-4e48-bab8-f0f8d049f6fc","ios":"levelo://app?vid=749cb1cb-4d4c-4e48-bab8-f0f8d049f6fc"},"vehicle_type_id":"4","last_reported":1733181026,"current_range_meters":9200,"station_id":"ce4bhg92rcd13ifvqf90","pricing_plan_id":"cebpf4jnsgd1na2vs0mg"},{"bike_id":"f54353c2-2a23-46c1-99bd-9475127a043e","system_id":"levelo_inurba_marseille","lat":43.24667,"lon":5.3815,"is_reserved":false,"is_disabled":false,"rental_uris":{"android":"levelo://app?vid=f54353c2-2a23-46c1-99bd-9475127a043e","ios":"levelo://app?vid=f54353c2-2a23-46c1-99bd-9475127a043e"},"vehicle_type_id":"4","last_reported":1733181026,"current_range_meters":20400,"station_id":"ce4bhih2rcd13ifvqfr0","pricing_plan_id":"cebpf4jnsgd1na2vs0mg"},{"bike_id":"f65b9a47-a3ed-45f7-8be7-82e4291371f0","system_id":"levelo_inurba_marseille","lat":43.29619,"lon":5.40596,"is_reserved":false,"is_disabled":false,"rental_uris":{"android":"levelo://app?vid=f65b9a47-a3ed-45f7-8be7-82e4291371f0","ios":"levelo://app?vid=f65b9a47-a3ed-45f7-8be7-82e4291371f0"},"vehicle_type_id":"4","last_reported":1733181026,"current_range_meters":38800,"station_id":"ce4bh0h2rcd13ifvqd60","pricing_plan_id":"cebpf4jnsgd1na2vs0mg"},{"bike_id":"2514f08a-f8a6-44a7-bc47-6d9c21633cd0","system_id":"levelo_inurba_marseille","lat":43.29191,"lon":5.39322,"is_reserved":false,"is_disabled":true,"rental_uris":{"android":"levelo://app?vid=2514f08a-f8a6-44a7-bc47-6d9c21633cd0","ios":"levelo://app?vid=2514f08a-f8a6-44a7-bc47-6d9c21633cd0"},"vehicle_type_id":"4","last_reported":1733181026,"current_range_meters":4800,"station_id":"ce4bh192rcd13ifvqdd0","pricing_plan_id":"cebpf4jnsgd1na2vs0mg"},{"bike_id":"fdb79724-3174-49c2-b15d-24e783687630","system_id":"levelo_inurba_marseille","lat":43.28656,"lon":5.36353,"is_reserved":false,"is_disabled":false,"rental_uris":{"android":"levelo://app?vid=fdb79724-3174-49c2-b15d-24e783687630","ios":"levelo://app?vid=fdb79724-3174-49c2-b15d-24e783687630"},"vehicle_type_id":"4","last_reported":1733181026,"current_range_meters":16400,"station_id":"ce4bhah2rcd13ifvqej0","pricing_plan_id":"cebpf4jnsgd1na2vs0mg"},{"bike_id":"8c0f16ea-c24b-4bfc-935e-1d7895e3bb99","system_id":"levelo_inurba_marseille","lat":43.25862,"lon":5.399,"is_reserved":false,"is_disabled":false,"rental_uris":{"android":"levelo://app?vid=8c0f16ea-c24b-4bfc-935e-1d7895e3bb99","ios":"levelo://app?vid=8c0f16ea-c24b-4bfc-935e-1d7895e3bb99"},"vehicle_type_id":"4","last_reported":1733181026,"current_range_meters":34800,"station_id":"ce4bhl92rcd13ifvqghg","pricing_plan_id":"cebpf4jnsgd1na2vs0mg"},{"bike_id":"a6c4c69b-dd6b-4249-ac15-e26d57c8e7f0","system_id":"levelo_inurba_marseille","lat":43.31065,"lon":5.38348,"is_reserved":false,"is_disabled":false,"rental_uris":{"android":"levelo://app?vid=a6c4c69b-dd6b-4249-ac15-e26d57c8e7f0","ios":"levelo://app?vid=a6c4c69b-dd6b-4249-ac15-e26d57c8e7f0"},"vehicle_type_id":"4","last_reported":1733181026,"current_range_meters":37600,"station_id":"ce4bgv92rcd13ifvqcr0","pricing_plan_id":"cebpf4jnsgd1na2vs0mg"},{"bike_id":"7932e894-60e4-4259-ad2b-e25a6bbb7ae7","system_id":"levelo_inurba_marseille","lat":43.28406,"lon":5.3752,"is_reserved":false,"is_disabled":true,"rental_uris":{"android":"levelo://app?vid=7932e894-60e4-4259-ad2b-e25a6bbb7ae7","ios":"levelo://app?vid=7932e894-60e4-4259-ad2b-e25a6bbb7ae7"},"vehicle_type_id":"4","last_reported":1733181026,"current_range_meters":26800,"station_id":"ce4bh412rcd13ifvqds0","pricing_plan_id":"cebpf4jnsgd1na2vs0mg"},{"bike_id":"770a059e-4419-4c03-a96a-0b79db0f097c","system_id":"levelo_inurba_marseille","lat":43.29521,"lon":5.37503,"is_reserved":false,"is_disabled":true,"rental_uris":{"android":"levelo://app?vid=770a059e-4419-4c03-a96a-0b79db0f097c","ios":"levelo://app?vid=770a059e-4419-4c03-a96a-0b79db0f097c"},"vehicle_type_id":"4","last_reported":1733181026,"current_range_meters":29600,"station_id":"ce4bgkp2rcd13ifvqbmg","pricing_plan_id":"cebpf4jnsgd1na2vs0mg"},{"bike_id":"560d7c7a-afe7-40ab-8881-10b4001d79ee","system_id":"levelo_inurba_marseille","lat":43.30794,"lon":5.37635,"is_reserved":false,"is_disabled":false,"rental_uris":{"android":"levelo://app?vid=560d7c7a-afe7-40ab-8881-10b4001d79ee","ios":"levelo://app?vid=560d7c7a-afe7-40ab-8881-10b4001d79ee"},"vehicle_type_id":"4","last_reported":1733181026,"current_range_meters":18000,"station_id":"ce4bgv92rcd13ifvqcq0","pricing_plan_id":"cebpf4jnsgd1na2vs0mg"},{"bike_id":"62c1fea9-dc8c-47b6-a0ea-b4a658e3a569","system_id":"levelo_inurba_marseille","lat":43.29898,"lon":5.39742,"is_reserved":false,"is_disabled":false,"rental_uris":{"android":"levelo://app?vid=62c1fea9-dc8c-47b6-a0ea-b4a658e3a569","ios":"levelo://app?vid=62c1fea9-dc8c-47b6-a0ea-b4a658e3a569"},"vehicle_type_id":"4","last_reported":1733181026,"current_range_meters":24800,"station_id":"ce4bh0h2rcd13ifvqd50","pricing_plan_id":"cebpf4jnsgd1na2vs0mg"},{"bike_id":"a35c7100-9024-4fb4-b667-f663717a8474","system_id":"levelo_inurba_marseille","lat":43.31114,"lon":5.37765,"is_reserved":false,"is_disabled":false,"rental_uris":{"android":"levelo://app?vid=a35c7100-9024-4fb4-b667-f663717a8474","ios":"levelo://app?vid=a35c7100-9024-4fb4-b667-f663717a8474"},"vehicle_type_id":"4","last_reported":1733181026,"current_range_meters":8400,"station_id":"ce4bgt92rcd13ifvqcg0","pricing_plan_id":"cebpf4jnsgd1na2vs0mg"},{"bike_id":"3bd41135-4eec-479e-9e8e-319f2054cf2f","system_id":"levelo_inurba_marseille","lat":43.31169,"lon":5.38713,"is_reserved":false,"is_disabled":false,"rental_uris":{"android":"levelo://app?vid=3bd41135-4eec-479e-9e8e-319f2054cf2f","ios":"levelo://app?vid=3bd41135-4eec-479e-9e8e-319f2054cf2f"},"vehicle_type_id":"4","last_reported":1733181026,"current_range_meters":24800,"station_id":"ce4bgv12rcd13ifvqcp0","pricing_plan_id":"cebpf4jnsgd1na2vs0mg"},{"bike_id":"763a15e5-5c0c-4db3-84a6-87cc9fff8ea4","system_id":"levelo_inurba_marseille","lat":43.279808,"lon":5.442304,"is_reserved":false,"is_disabled":false,"rental_uris":{"android":"levelo://app?vid=763a15e5-5c0c-4db3-84a6-87cc9fff8ea4","ios":"levelo://app?vid=763a15e5-5c0c-4db3-84a6-87cc9fff8ea4"},"vehicle_type_id":"4","last_reported":1733181026,"current_range_meters":21600,"station_id":"","pricing_plan_id":"cebpf4jnsgd1na2vs0mg"},{"bike_id":"3e53771c-9217-4317-9458-2c4ea68274bc","system_id":"levelo_inurba_marseille","lat":43.28706,"lon":5.39986,"is_reserved":false,"is_disabled":false,"rental_uris":{"android":"levelo://app?vid=3e53771c-9217-4317-9458-2c4ea68274bc","ios":"levelo://app?vid=3e53771c-9217-4317-9458-2c4ea68274bc"},"vehicle_type_id":"4","last_reported":1733181026,"current_range_meters":30400,"station_id":"ce4bho92rcd13ifvqh3g","pricing_plan_id":"cebpf4jnsgd1na2vs0mg"},{"bike_id":"0b7a5d71-bb71-4b7d-8b42-0ebfc1a18067","system_id":"levelo_inurba_marseille","lat":43.26933,"lon":5.38928,"is_reserved":false,"is_disabled":true,"rental_uris":{"android":"levelo://app?vid=0b7a5d71-bb71-4b7d-8b42-0ebfc1a18067","ios":"levelo://app?vid=0b7a5d71-bb71-4b7d-8b42-0ebfc1a18067"},"vehicle_type_id":"4","last_reported":1733181026,"current_range_meters":0,"station_id":"ce4bhhh2rcd13ifvqfl0","pricing_plan_id":"cebpf4jnsgd1na2vs0mg"},{"bike_id":"2855b41e-ffe6-45bb-92c0-b56b30fc022f","system_id":"levelo_inurba_marseille","lat":43.28455,"lon":5.35885,"is_reserved":false,"is_disabled":false,"rental_uris":{"android":"levelo://app?vid=2855b41e-ffe6-45bb-92c0-b56b30fc022f","ios":"levelo://app?vid=2855b41e-ffe6-45bb-92c0-b56b30fc022f"},"vehicle_type_id":"4","last_reported":1733181026,"current_range_meters":9600,"station_id":"ce4bhah2rcd13ifvqei0","pricing_plan_id":"cebpf4jnsgd1na2vs0mg"},{"bike_id":"453cf60e-1511-411a-96c0-aac394a3f132","system_id":"levelo_inurba_marseille","lat":43.31081,"lon":5.42428,"is_reserved":false,"is_disabled":false,"rental_uris":{"android":"levelo://app?vid=453cf60e-1511-411a-96c0-aac394a3f132","ios":"levelo://app?vid=453cf60e-1511-411a-96c0-aac394a3f132"},"vehicle_type_id":"4","last_reported":1733181026,"current_range_meters":39200,"station_id":"ce4bhp92rcd13ifvqhag","pricing_plan_id":"cebpf4jnsgd1na2vs0mg"},{"bike_id":"80253fe6-749c-48ad-be5c-a2c184e63c2b","system_id":"levelo_inurba_marseille","lat":43.31759,"lon":5.39018,"is_reserved":false,"is_disabled":false,"rental_uris":{"android":"levelo://app?vid=80253fe6-749c-48ad-be5c-a2c184e63c2b","ios":"levelo://app?vid=80253fe6-749c-48ad-be5c-a2c184e63c2b"},"vehicle_type_id":"4","last_reported":1733181026,"current_range_meters":38800,"station_id":"ce4bhqp2rcd13ifvqhng","pricing_plan_id":"cebpf4jnsgd1na2vs0mg"},{"bike_id":"24fdc168-ebb3-455e-9a84-fc7b79cc9f1c","system_id":"levelo_inurba_marseille","lat":43.29275,"lon":5.36853,"is_reserved":false,"is_disabled":true,"rental_uris":{"android":"levelo://app?vid=24fdc168-ebb3-455e-9a84-fc7b79cc9f1c","ios":"levelo://app?vid=24fdc168-ebb3-455e-9a84-fc7b79cc9f1c"},"vehicle_type_id":"4","last_reported":1733181026,"current_range_meters":25200,"station_id":"","pricing_plan_id":"cebpf4jnsgd1na2vs0mg"},{"bike_id":"9f34f0b1-5073-48c2-a6ec-45ea7811ab83","system_id":"levelo_inurba_marseille","lat":43.27941,"lon":5.41041,"is_reserved":false,"is_disabled":false,"rental_uris":{"android":"levelo://app?vid=9f34f0b1-5073-48c2-a6ec-45ea7811ab83","ios":"levelo://app?vid=9f34f0b1-5073-48c2-a6ec-45ea7811ab83"},"vehicle_type_id":"4","last_reported":1733181026,"current_range_meters":34000,"station_id":"ce4bhnp2rcd13ifvqh0g","pricing_plan_id":"cebpf4jnsgd1na2vs0mg"},{"bike_id":"56dea079-e1b1-4409-9a8d-109d8e40def4","system_id":"levelo_inurba_marseille","lat":43.31483,"lon":5.37307,"is_reserved":false,"is_disabled":false,"rental_uris":{"android":"levelo://app?vid=56dea079-e1b1-4409-9a8d-109d8e40def4","ios":"levelo://app?vid=56dea079-e1b1-4409-9a8d-109d8e40def4"},"vehicle_type_id":"4","last_reported":1733181026,"current_range_meters":38400,"station_id":"ce4bgt12rcd13ifvqcd0","pricing_plan_id":"cebpf4jnsgd1na2vs0mg"},{"bike_id":"1b29b174-eb5f-4f11-82c8-e1fea928625a","system_id":"levelo_inurba_marseille","lat":43.26937,"lon":5.40255,"is_reserved":false,"is_disabled":false,"rental_uris":{"android":"levelo://app?vid=1b29b174-eb5f-4f11-82c8-e1fea928625a","ios":"levelo://app?vid=1b29b174-eb5f-4f11-82c8-e1fea928625a"},"vehicle_type_id":"4","last_reported":1733181026,"current_range_meters":37600,"station_id":"cjm6bp8fraef2m0cb0m0","pricing_plan_id":"cebpf4jnsgd1na2vs0mg"},{"bike_id":"95f60bf8-91e0-4861-ba40-220672d1a64a","system_id":"levelo_inurba_marseille","lat":43.31326,"lon":5.37464,"is_reserved":false,"is_disabled":false,"rental_uris":{"android":"levelo://app?vid=95f60bf8-91e0-4861-ba40-220672d1a64a","ios":"levelo://app?vid=95f60bf8-91e0-4861-ba40-220672d1a64a"},"vehicle_type_id":"4","last_reported":1733181026,"current_range_meters":11600,"station_id":"","pricing_plan_id":"cebpf4jnsgd1na2vs0mg"},{"bike_id":"cdfe6590-4984-4014-86c8-6dd70747c27a","system_id":"levelo_inurba_marseille","lat":43.29737,"lon":5.37434,"is_reserved":false,"is_disabled":true,"rental_uris":{"android":"levelo://app?vid=cdfe6590-4984-4014-86c8-6dd70747c27a","ios":"levelo://app?vid=cdfe6590-4984-4014-86c8-6dd70747c27a"},"vehicle_type_id":"4","last_reported":1733181026,"current_range_meters":0,"station_id":"","pricing_plan_id":"cebpf4jnsgd1na2vs0mg"},{"bike_id":"05cecbbc-d928-48d6-bb9e-6db3f5e00983","system_id":"levelo_inurba_marseille","lat":43.23192,"lon":5.35546,"is_reserved":false,"is_disabled":false,"rental_uris":{"android":"levelo://app?vid=05cecbbc-d928-48d6-bb9e-6db3f5e00983","ios":"levelo://app?vid=05cecbbc-d928-48d6-bb9e-6db3f5e00983"},"vehicle_type_id":"4","last_reported":1733181026,"current_range_meters":37600,"station_id":"ce4bhu92rcd13ifvqi70","pricing_plan_id":"cebpf4jnsgd1na2vs0mg"},{"bike_id":"ec37755f-b4bd-46a4-a7ec-da33d8ff9ada","system_id":"levelo_inurba_marseille","lat":43.31363,"lon":5.38491,"is_reserved":false,"is_disabled":false,"rental_uris":{"android":"levelo://app?vid=ec37755f-b4bd-46a4-a7ec-da33d8ff9ada","ios":"levelo://app?vid=ec37755f-b4bd-46a4-a7ec-da33d8ff9ada"},"vehicle_type_id":"4","last_reported":1733181026,"current_range_meters":22800,"station_id":"ce4bgt92rcd13ifvqcf0","pricing_plan_id":"cebpf4jnsgd1na2vs0mg"},{"bike_id":"2d223975-18c1-4337-9b66-de44fe6788f3","system_id":"levelo_inurba_marseille","lat":43.30782,"lon":5.37657,"is_reserved":false,"is_disabled":false,"rental_uris":{"android":"levelo://app?vid=2d223975-18c1-4337-9b66-de44fe6788f3","ios":"levelo://app?vid=2d223975-18c1-4337-9b66-de44fe6788f3"},"vehicle_type_id":"4","last_reported":1733181026,"current_range_meters":38800,"station_id":"ce4bgv92rcd13ifvqcq0","pricing_plan_id":"cebpf4jnsgd1na2vs0mg"},{"bike_id":"36142e23-8ff6-4096-ad19-b039c8156b69","system_id":"levelo_inurba_marseille","lat":43.28656,"lon":5.36354,"is_reserved":false,"is_disabled":true,"rental_uris":{"android":"levelo://app?vid=36142e23-8ff6-4096-ad19-b039c8156b69","ios":"levelo://app?vid=36142e23-8ff6-4096-ad19-b039c8156b69"},"vehicle_type_id":"4","last_reported":1733181026,"current_range_meters":35200,"station_id":"ce4bhah2rcd13ifvqej0","pricing_plan_id":"cebpf4jnsgd1na2vs0mg"},{"bike_id":"3e762295-e52d-483f-8654-ca00b8495b74","system_id":"levelo_inurba_marseille","lat":43.27439,"lon":5.40717,"is_reserved":false,"is_disabled":false,"rental_uris":{"android":"levelo://app?vid=3e762295-e52d-483f-8654-ca00b8495b74","ios":"levelo://app?vid=3e762295-e52d-483f-8654-ca00b8495b74"},"vehicle_type_id":"4","last_reported":1733181026,"current_range_meters":10800,"station_id":"","pricing_plan_id":"cebpf4jnsgd1na2vs0mg"},{"bike_id":"e0449ad3-6fa0-4664-b0f3-6ea1dced967e","system_id":"levelo_inurba_marseille","lat":43.28151,"lon":5.42637,"is_reserved":false,"is_disabled":true,"rental_uris":{"android":"levelo://app?vid=e0449ad3-6fa0-4664-b0f3-6ea1dced967e","ios":"levelo://app?vid=e0449ad3-6fa0-4664-b0f3-6ea1dced967e"},"vehicle_type_id":"4","last_reported":1733181026,"current_range_meters":23200,"station_id":"ce4bhnh2rcd13ifvqgug","pricing_plan_id":"cebpf4jnsgd1na2vs0mg"},{"bike_id":"4756d8fc-93e4-4468-8478-3398b4aedf51","system_id":"levelo_inurba_marseille","lat":43.29564,"lon":5.37524,"is_reserved":false,"is_disabled":false,"rental_uris":{"android":"levelo://app?vid=4756d8fc-93e4-4468-8478-3398b4aedf51","ios":"levelo://app?vid=4756d8fc-93e4-4468-8478-3398b4aedf51"},"vehicle_type_id":"4","last_reported":1733181026,"current_range_meters":24400,"station_id":"ce4bgh92rcd13ifvqb50","pricing_plan_id":"cebpf4jnsgd1na2vs0mg"},{"bike_id":"4c3fb316-febe-4764-b0a1-d58fd67e3e9a","system_id":"levelo_inurba_marseille","lat":43.28191,"lon":5.38308,"is_reserved":false,"is_disabled":true,"rental_uris":{"android":"levelo://app?vid=4c3fb316-febe-4764-b0a1-d58fd67e3e9a","ios":"levelo://app?vid=4c3fb316-febe-4764-b0a1-d58fd67e3e9a"},"vehicle_type_id":"4","last_reported":1733181026,"current_range_meters":28800,"station_id":"","pricing_plan_id":"cebpf4jnsgd1na2vs0mg"},{"bike_id":"987a5ab4-d60c-480c-94b6-7cab38975402","system_id":"levelo_inurba_marseille","lat":43.29748,"lon":5.37971,"is_reserved":false,"is_disabled":true,"rental_uris":{"android":"levelo://app?vid=987a5ab4-d60c-480c-94b6-7cab38975402","ios":"levelo://app?vid=987a5ab4-d60c-480c-94b6-7cab38975402"},"vehicle_type_id":"4","last_reported":1733181026,"current_range_meters":0,"station_id":"","pricing_plan_id":"cebpf4jnsgd1na2vs0mg"},{"bike_id":"c971ede0-41c7-461a-bc29-ae50a8251821","system_id":"levelo_inurba_marseille","lat":43.32287,"lon":5.38263,"is_reserved":false,"is_disabled":false,"rental_uris":{"android":"levelo://app?vid=c971ede0-41c7-461a-bc29-ae50a8251821","ios":"levelo://app?vid=c971ede0-41c7-461a-bc29-ae50a8251821"},"vehicle_type_id":"4","last_reported":1733181026,"current_range_meters":16800,"station_id":"ce4bhr12rcd13ifvqhqg","pricing_plan_id":"cebpf4jnsgd1na2vs0mg"},{"bike_id":"2c4596ad-0ad9-4016-b92b-0093349de2b4","system_id":"levelo_inurba_marseille","lat":43.30721,"lon":5.38242,"is_reserved":false,"is_disabled":true,"rental_uris":{"android":"levelo://app?vid=2c4596ad-0ad9-4016-b92b-0093349de2b4","ios":"levelo://app?vid=2c4596ad-0ad9-4016-b92b-0093349de2b4"},"vehicle_type_id":"4","last_reported":1733181026,"current_range_meters":0,"station_id":"","pricing_plan_id":"cebpf4jnsgd1na2vs0mg"},{"bike_id":"23ec87ba-60e8-4352-960d-5521c155b048","system_id":"levelo_inurba_marseille","lat":43.29173,"lon":5.37153,"is_reserved":false,"is_disabled":false,"rental_uris":{"android":"levelo://app?vid=23ec87ba-60e8-4352-960d-5521c155b048","ios":"levelo://app?vid=23ec87ba-60e8-4352-960d-5521c155b048"},"vehicle_type_id":"4","last_reported":1733181026,"current_range_meters":38000,"station_id":"ce4bha92rcd13ifvqeh0","pricing_plan_id":"cebpf4jnsgd1na2vs0mg"},{"bike_id":"1f28300c-d8be-4d08-b5ea-d3aadf1e301d","system_id":"levelo_inurba_marseille","lat":43.26287,"lon":5.42111,"is_reserved":false,"is_disabled":false,"rental_uris":{"android":"levelo://app?vid=1f28300c-d8be-4d08-b5ea-d3aadf1e301d","ios":"levelo://app?vid=1f28300c-d8be-4d08-b5ea-d3aadf1e301d"},"vehicle_type_id":"4","last_reported":1733181026,"current_range_meters":22000,"station_id":"","pricing_plan_id":"cebpf4jnsgd1na2vs0mg"},{"bike_id":"b7ab8c01-033f-4395-8276-23c850ad3d02","system_id":"levelo_inurba_marseille","lat":43.30336,"lon":5.3658,"is_reserved":false,"is_disabled":true,"rental_uris":{"android":"levelo://app?vid=b7ab8c01-033f-4395-8276-23c850ad3d02","ios":"levelo://app?vid=b7ab8c01-033f-4395-8276-23c850ad3d02"},"vehicle_type_id":"4","last_reported":1733181026,"current_range_meters":0,"station_id":"","pricing_plan_id":"cebpf4jnsgd1na2vs0mg"},{"bike_id":"bb178f49-ce4c-4646-a04c-4fd6d1f584c1","system_id":"levelo_inurba_marseille","lat":43.28366,"lon":5.38642,"is_reserved":false,"is_disabled":false,"rental_uris":{"android":"levelo://app?vid=bb178f49-ce4c-4646-a04c-4fd6d1f584c1","ios":"levelo://app?vid=bb178f49-ce4c-4646-a04c-4fd6d1f584c1"},"vehicle_type_id":"4","last_reported":1733181026,"current_range_meters":38400,"station_id":"ce4bh492rcd13ifvqdvg","pricing_plan_id":"cebpf4jnsgd1na2vs0mg"},{"bike_id":"f8fea99a-4e52-4b17-93f0-008530739965","system_id":"levelo_inurba_marseille","lat":43.26058,"lon":5.39398,"is_reserved":false,"is_disabled":false,"rental_uris":{"android":"levelo://app?vid=f8fea99a-4e52-4b17-93f0-008530739965","ios":"levelo://app?vid=f8fea99a-4e52-4b17-93f0-008530739965"},"vehicle_type_id":"4","last_reported":1733181026,"current_range_meters":10000,"station_id":"ce4bhh92rcd13ifvqfj0","pricing_plan_id":"cebpf4jnsgd1na2vs0mg"},{"bike_id":"4c1f4d35-89df-4abc-bb7d-02cc1be67725","system_id":"levelo_inurba_marseille","lat":43.23189,"lon":5.39988,"is_reserved":false,"is_disabled":false,"rental_uris":{"android":"levelo://app?vid=4c1f4d35-89df-4abc-bb7d-02cc1be67725","ios":"levelo://app?vid=4c1f4d35-89df-4abc-bb7d-02cc1be67725"},"vehicle_type_id":"4","last_reported":1733181026,"current_range_meters":38800,"station_id":"ce4bhn12rcd13ifvqgqg","pricing_plan_id":"cebpf4jnsgd1na2vs0mg"},{"bike_id":"a31d5e4b-a624-468c-b065-3a9db13ea214","system_id":"levelo_inurba_marseille","lat":43.29004,"lon":5.35614,"is_reserved":false,"is_disabled":false,"rental_uris":{"android":"levelo://app?vid=a31d5e4b-a624-468c-b065-3a9db13ea214","ios":"levelo://app?vid=a31d5e4b-a624-468c-b065-3a9db13ea214"},"vehicle_type_id":"4","last_reported":1733181026,"current_range_meters":38000,"station_id":"ce4bhb92rcd13ifvqen0","pricing_plan_id":"cebpf4jnsgd1na2vs0mg"},{"bike_id":"6b2b901e-5d96-4afc-b9a5-a7594ae72748","system_id":"levelo_inurba_marseille","lat":43.27273,"lon":5.39201,"is_reserved":false,"is_disabled":true,"rental_uris":{"android":"levelo://app?vid=6b2b901e-5d96-4afc-b9a5-a7594ae72748","ios":"levelo://app?vid=6b2b901e-5d96-4afc-b9a5-a7594ae72748"},"vehicle_type_id":"4","last_reported":1733181026,"current_range_meters":0,"station_id":"","pricing_plan_id":"cebpf4jnsgd1na2vs0mg"},{"bike_id":"01eb3f89-19b4-4e38-b855-92af98924b5e","system_id":"levelo_inurba_marseille","lat":43.28735,"lon":5.39971,"is_reserved":false,"is_disabled":false,"rental_uris":{"android":"levelo://app?vid=01eb3f89-19b4-4e38-b855-92af98924b5e","ios":"levelo://app?vid=01eb3f89-19b4-4e38-b855-92af98924b5e"},"vehicle_type_id":"4","last_reported":1733181026,"current_range_meters":30400,"station_id":"ce4bho92rcd13ifvqh3g","pricing_plan_id":"cebpf4jnsgd1na2vs0mg"},{"bike_id":"d468cb55-b9b8-4783-9263-d005a0c5e0e3","system_id":"levelo_inurba_marseille","lat":43.28851,"lon":5.35849,"is_reserved":false,"is_disabled":false,"rental_uris":{"android":"levelo://app?vid=d468cb55-b9b8-4783-9263-d005a0c5e0e3","ios":"levelo://app?vid=d468cb55-b9b8-4783-9263-d005a0c5e0e3"},"vehicle_type_id":"4","last_reported":1733181026,"current_range_meters":22400,"station_id":"ce4bhb12rcd13ifvqem0","pricing_plan_id":"cebpf4jnsgd1na2vs0mg"},{"bike_id":"52dc60e8-593a-4919-9fa2-6ff28a9f8e54","system_id":"levelo_inurba_marseille","lat":43.3078,"lon":5.37656,"is_reserved":false,"is_disabled":false,"rental_uris":{"android":"levelo://app?vid=52dc60e8-593a-4919-9fa2-6ff28a9f8e54","ios":"levelo://app?vid=52dc60e8-593a-4919-9fa2-6ff28a9f8e54"},"vehicle_type_id":"4","last_reported":1733181026,"current_range_meters":32800,"station_id":"ce4bgv92rcd13ifvqcq0","pricing_plan_id":"cebpf4jnsgd1na2vs0mg"},{"bike_id":"6cc6805f-c0ca-4585-bdf1-b5a0339762b0","system_id":"levelo_inurba_marseille","lat":43.29014,"lon":5.42802,"is_reserved":false,"is_disabled":false,"rental_uris":{"android":"levelo://app?vid=6cc6805f-c0ca-4585-bdf1-b5a0339762b0","ios":"levelo://app?vid=6cc6805f-c0ca-4585-bdf1-b5a0339762b0"},"vehicle_type_id":"4","last_reported":1733181026,"current_range_meters":6800,"station_id":"","pricing_plan_id":"cebpf4jnsgd1na2vs0mg"},{"bike_id":"bf2dddfd-fcac-4ab9-9900-0783b7dfc160","system_id":"levelo_inurba_marseille","lat":43.28614,"lon":5.35102,"is_reserved":false,"is_disabled":false,"rental_uris":{"android":"levelo://app?vid=bf2dddfd-fcac-4ab9-9900-0783b7dfc160","ios":"levelo://app?vid=bf2dddfd-fcac-4ab9-9900-0783b7dfc160"},"vehicle_type_id":"4","last_reported":1733181026,"current_range_meters":17200,"station_id":"ce4bhch2rcd13ifvqeug","pricing_plan_id":"cebpf4jnsgd1na2vs0mg"},{"bike_id":"1e21ee7c-ab02-4877-817e-5d83de000297","system_id":"levelo_inurba_marseille","lat":43.30906,"lon":5.36855,"is_reserved":false,"is_disabled":true,"rental_uris":{"android":"levelo://app?vid=1e21ee7c-ab02-4877-817e-5d83de000297","ios":"levelo://app?vid=1e21ee7c-ab02-4877-817e-5d83de000297"},"vehicle_type_id":"4","last_reported":1733181026,"current_range_meters":38800,"station_id":"ce4bgn92rcd13ifvqbvg","pricing_plan_id":"cebpf4jnsgd1na2vs0mg"},{"bike_id":"8d1c8b92-79bb-4181-b0d2-5e94db1a14d0","system_id":"levelo_inurba_marseille","lat":43.30005,"lon":5.38275,"is_reserved":false,"is_disabled":true,"rental_uris":{"android":"levelo://app?vid=8d1c8b92-79bb-4181-b0d2-5e94db1a14d0","ios":"levelo://app?vid=8d1c8b92-79bb-4181-b0d2-5e94db1a14d0"},"vehicle_type_id":"4","last_reported":1733181026,"current_range_meters":0,"station_id":"","pricing_plan_id":"cebpf4jnsgd1na2vs0mg"},{"bike_id":"b393e343-ccc2-4e09-a3d5-b33fb6d87dbf","system_id":"levelo_inurba_marseille","lat":43.30141,"lon":5.3878,"is_reserved":false,"is_disabled":true,"rental_uris":{"android":"levelo://app?vid=b393e343-ccc2-4e09-a3d5-b33fb6d87dbf","ios":"levelo://app?vid=b393e343-ccc2-4e09-a3d5-b33fb6d87dbf"},"vehicle_type_id":"4","last_reported":1733181026,"current_range_meters":31200,"station_id":"ce4bghh2rcd13ifvqb60","pricing_plan_id":"cebpf4jnsgd1na2vs0mg"},{"bike_id":"ad09f950-afd5-4140-abf4-b95980cf37a5","system_id":"levelo_inurba_marseille","lat":43.27902,"lon":5.38015,"is_reserved":false,"is_disabled":false,"rental_uris":{"android":"levelo://app?vid=ad09f950-afd5-4140-abf4-b95980cf37a5","ios":"levelo://app?vid=ad09f950-afd5-4140-abf4-b95980cf37a5"},"vehicle_type_id":"4","last_reported":1733181026,"current_range_meters":38800,"station_id":"ce4bhf92rcd13ifvqf50","pricing_plan_id":"cebpf4jnsgd1na2vs0mg"},{"bike_id":"cb779a90-acde-491b-82c8-ba1914cf6cff","system_id":"levelo_inurba_marseille","lat":43.31359,"lon":5.38493,"is_reserved":false,"is_disabled":false,"rental_uris":{"android":"levelo://app?vid=cb779a90-acde-491b-82c8-ba1914cf6cff","ios":"levelo://app?vid=cb779a90-acde-491b-82c8-ba1914cf6cff"},"vehicle_type_id":"4","last_reported":1733181026,"current_range_meters":27600,"station_id":"ce4bgt92rcd13ifvqcf0","pricing_plan_id":"cebpf4jnsgd1na2vs0mg"},{"bike_id":"66af6c49-242f-463e-a9fa-e038221766e6","system_id":"levelo_inurba_marseille","lat":43.29553,"lon":5.42293,"is_reserved":false,"is_disabled":false,"rental_uris":{"android":"levelo://app?vid=66af6c49-242f-463e-a9fa-e038221766e6","ios":"levelo://app?vid=66af6c49-242f-463e-a9fa-e038221766e6"},"vehicle_type_id":"4","last_reported":1733181026,"current_range_meters":39200,"station_id":"ce4bhph2rcd13ifvqhdg","pricing_plan_id":"cebpf4jnsgd1na2vs0mg"},{"bike_id":"137d4891-e5e1-4cf6-a564-8f0b03ffad3a","system_id":"levelo_inurba_marseille","lat":43.27074,"lon":5.42275,"is_reserved":false,"is_disabled":false,"rental_uris":{"android":"levelo://app?vid=137d4891-e5e1-4cf6-a564-8f0b03ffad3a","ios":"levelo://app?vid=137d4891-e5e1-4cf6-a564-8f0b03ffad3a"},"vehicle_type_id":"4","last_reported":1733181026,"current_range_meters":22800,"station_id":"ce4bhk92rcd13ifvqgb0","pricing_plan_id":"cebpf4jnsgd1na2vs0mg"},{"bike_id":"a617e044-2beb-44d6-a1b9-0d089a160289","system_id":"levelo_inurba_marseille","lat":43.29843,"lon":5.3627,"is_reserved":false,"is_disabled":true,"rental_uris":{"android":"levelo://app?vid=a617e044-2beb-44d6-a1b9-0d089a160289","ios":"levelo://app?vid=a617e044-2beb-44d6-a1b9-0d089a160289"},"vehicle_type_id":"4","last_reported":1733181026,"current_range_meters":37600,"station_id":"ce4bgpp2rcd13ifvqc3g","pricing_plan_id":"cebpf4jnsgd1na2vs0mg"},{"bike_id":"d39cc680-1e4e-4656-be5e-2e76a870957f","system_id":"levelo_inurba_marseille","lat":43.27897,"lon":5.38007,"is_reserved":false,"is_disabled":false,"rental_uris":{"android":"levelo://app?vid=d39cc680-1e4e-4656-be5e-2e76a870957f","ios":"levelo://app?vid=d39cc680-1e4e-4656-be5e-2e76a870957f"},"vehicle_type_id":"4","last_reported":1733181026,"current_range_meters":35200,"station_id":"ce4bhf92rcd13ifvqf50","pricing_plan_id":"cebpf4jnsgd1na2vs0mg"},{"bike_id":"45891de7-8812-4ec2-a7c4-56ca81dd5332","system_id":"levelo_inurba_marseille","lat":43.23062,"lon":5.3549,"is_reserved":false,"is_disabled":false,"rental_uris":{"android":"levelo://app?vid=45891de7-8812-4ec2-a7c4-56ca81dd5332","ios":"levelo://app?vid=45891de7-8812-4ec2-a7c4-56ca81dd5332"},"vehicle_type_id":"4","last_reported":1733181026,"current_range_meters":27200,"station_id":"cpo3342slgdg3j2ifvpg","pricing_plan_id":"cebpf4jnsgd1na2vs0mg"},{"bike_id":"a79d3deb-4fb8-4e3e-8555-dfa46134ae86","system_id":"levelo_inurba_marseille","lat":43.280297,"lon":5.369478,"is_reserved":false,"is_disabled":false,"rental_uris":{"android":"levelo://app?vid=a79d3deb-4fb8-4e3e-8555-dfa46134ae86","ios":"levelo://app?vid=a79d3deb-4fb8-4e3e-8555-dfa46134ae86"},"vehicle_type_id":"4","last_reported":1733181026,"current_range_meters":38400,"station_id":"ce4bha12rcd13ifvqef0","pricing_plan_id":"cebpf4jnsgd1na2vs0mg"},{"bike_id":"b4e778b4-c647-4bdc-a0b7-36717499c9fd","system_id":"levelo_inurba_marseille","lat":43.29553,"lon":5.42287,"is_reserved":false,"is_disabled":false,"rental_uris":{"android":"levelo://app?vid=b4e778b4-c647-4bdc-a0b7-36717499c9fd","ios":"levelo://app?vid=b4e778b4-c647-4bdc-a0b7-36717499c9fd"},"vehicle_type_id":"4","last_reported":1733181026,"current_range_meters":16800,"station_id":"ce4bhph2rcd13ifvqhdg","pricing_plan_id":"cebpf4jnsgd1na2vs0mg"},{"bike_id":"8da4feef-1a3b-4a00-a2cc-f5f49fa81912","system_id":"levelo_inurba_marseille","lat":43.3042,"lon":5.39763,"is_reserved":false,"is_disabled":false,"rental_uris":{"android":"levelo://app?vid=8da4feef-1a3b-4a00-a2cc-f5f49fa81912","ios":"levelo://app?vid=8da4feef-1a3b-4a00-a2cc-f5f49fa81912"},"vehicle_type_id":"4","last_reported":1733181026,"current_range_meters":39200,"station_id":"ce4bh092rcd13ifvqd20","pricing_plan_id":"cebpf4jnsgd1na2vs0mg"},{"bike_id":"502a96ab-17c2-4054-85b0-d3158c661de7","system_id":"levelo_inurba_marseille","lat":43.29199,"lon":5.39319,"is_reserved":false,"is_disabled":true,"rental_uris":{"android":"levelo://app?vid=502a96ab-17c2-4054-85b0-d3158c661de7","ios":"levelo://app?vid=502a96ab-17c2-4054-85b0-d3158c661de7"},"vehicle_type_id":"4","last_reported":1733181026,"current_range_meters":16800,"station_id":"ce4bh192rcd13ifvqdd0","pricing_plan_id":"cebpf4jnsgd1na2vs0mg"},{"bike_id":"f78a695f-1e51-496d-a80d-f5757164d6e4","system_id":"levelo_inurba_marseille","lat":43.26675,"lon":5.3826,"is_reserved":false,"is_disabled":true,"rental_uris":{"android":"levelo://app?vid=f78a695f-1e51-496d-a80d-f5757164d6e4","ios":"levelo://app?vid=f78a695f-1e51-496d-a80d-f5757164d6e4"},"vehicle_type_id":"4","last_reported":1733181026,"current_range_meters":38800,"station_id":"ce4bhg92rcd13ifvqf90","pricing_plan_id":"cebpf4jnsgd1na2vs0mg"},{"bike_id":"bf7228a5-2b2e-4b97-85ea-62d84a335011","system_id":"levelo_inurba_marseille","lat":43.31887,"lon":5.40731,"is_reserved":false,"is_disabled":false,"rental_uris":{"android":"levelo://app?vid=bf7228a5-2b2e-4b97-85ea-62d84a335011","ios":"levelo://app?vid=bf7228a5-2b2e-4b97-85ea-62d84a335011"},"vehicle_type_id":"4","last_reported":1733181026,"current_range_meters":38800,"station_id":"ce4bhq12rcd13ifvqhig","pricing_plan_id":"cebpf4jnsgd1na2vs0mg"},{"bike_id":"09b582e1-300d-4d8f-9edf-ec66cdadf7a4","system_id":"levelo_inurba_marseille","lat":43.29284,"lon":5.4012,"is_reserved":false,"is_disabled":false,"rental_uris":{"android":"levelo://app?vid=09b582e1-300d-4d8f-9edf-ec66cdadf7a4","ios":"levelo://app?vid=09b582e1-300d-4d8f-9edf-ec66cdadf7a4"},"vehicle_type_id":"4","last_reported":1733181026,"current_range_meters":22000,"station_id":"ce4bh312rcd13ifvqdk0","pricing_plan_id":"cebpf4jnsgd1na2vs0mg"},{"bike_id":"30f453f9-56e7-4c8c-b66c-1731358ac021","system_id":"levelo_inurba_marseille","lat":43.31333,"lon":5.3968,"is_reserved":false,"is_disabled":false,"rental_uris":{"android":"levelo://app?vid=30f453f9-56e7-4c8c-b66c-1731358ac021","ios":"levelo://app?vid=30f453f9-56e7-4c8c-b66c-1731358ac021"},"vehicle_type_id":"4","last_reported":1733181026,"current_range_meters":9200,"station_id":"ce4bgvp2rcd13ifvqcu0","pricing_plan_id":"cebpf4jnsgd1na2vs0mg"},{"bike_id":"be81a75d-b53e-4c92-b01d-7f0146a8cf69","system_id":"levelo_inurba_marseille","lat":43.28692,"lon":5.37395,"is_reserved":false,"is_disabled":false,"rental_uris":{"android":"levelo://app?vid=be81a75d-b53e-4c92-b01d-7f0146a8cf69","ios":"levelo://app?vid=be81a75d-b53e-4c92-b01d-7f0146a8cf69"},"vehicle_type_id":"4","last_reported":1733181026,"current_range_meters":34000,"station_id":"ce4bh3p2rcd13ifvqdq0","pricing_plan_id":"cebpf4jnsgd1na2vs0mg"},{"bike_id":"74c76619-c714-481a-8022-d9fb55aa228e","system_id":"levelo_inurba_marseille","lat":43.25114,"lon":5.40318,"is_reserved":false,"is_disabled":false,"rental_uris":{"android":"levelo://app?vid=74c76619-c714-481a-8022-d9fb55aa228e","ios":"levelo://app?vid=74c76619-c714-481a-8022-d9fb55aa228e"},"vehicle_type_id":"4","last_reported":1733181026,"current_range_meters":38000,"station_id":"ce4bhlh2rcd13ifvqgig","pricing_plan_id":"cebpf4jnsgd1na2vs0mg"},{"bike_id":"65c78c58-8c0d-434a-bdb2-7571d40e1b57","system_id":"levelo_inurba_marseille","lat":43.31277,"lon":5.40163,"is_reserved":false,"is_disabled":false,"rental_uris":{"android":"levelo://app?vid=65c78c58-8c0d-434a-bdb2-7571d40e1b57","ios":"levelo://app?vid=65c78c58-8c0d-434a-bdb2-7571d40e1b57"},"vehicle_type_id":"4","last_reported":1733181026,"current_range_meters":38400,"station_id":"ce4bh092rcd13ifvqd30","pricing_plan_id":"cebpf4jnsgd1na2vs0mg"},{"bike_id":"548311ed-3865-44d8-8efd-814327e0f126","system_id":"levelo_inurba_marseille","lat":43.28699,"lon":5.37388,"is_reserved":false,"is_disabled":false,"rental_uris":{"android":"levelo://app?vid=548311ed-3865-44d8-8efd-814327e0f126","ios":"levelo://app?vid=548311ed-3865-44d8-8efd-814327e0f126"},"vehicle_type_id":"4","last_reported":1733181026,"current_range_meters":38000,"station_id":"ce4bh3p2rcd13ifvqdq0","pricing_plan_id":"cebpf4jnsgd1na2vs0mg"},{"bike_id":"738f9773-8f40-49da-abb3-8ec8cc729567","system_id":"levelo_inurba_marseille","lat":43.31731,"lon":5.42414,"is_reserved":false,"is_disabled":false,"rental_uris":{"android":"levelo://app?vid=738f9773-8f40-49da-abb3-8ec8cc729567","ios":"levelo://app?vid=738f9773-8f40-49da-abb3-8ec8cc729567"},"vehicle_type_id":"4","last_reported":1733181026,"current_range_meters":38800,"station_id":"ce4bhp92rcd13ifvqhbg","pricing_plan_id":"cebpf4jnsgd1na2vs0mg"},{"bike_id":"fdd60b63-eff3-4d39-90e4-741a6608f6f2","system_id":"levelo_inurba_marseille","lat":43.28434,"lon":5.39194,"is_reserved":false,"is_disabled":false,"rental_uris":{"android":"levelo://app?vid=fdd60b63-eff3-4d39-90e4-741a6608f6f2","ios":"levelo://app?vid=fdd60b63-eff3-4d39-90e4-741a6608f6f2"},"vehicle_type_id":"4","last_reported":1733181026,"current_range_meters":38800,"station_id":"ce4bhoh2rcd13ifvqh5g","pricing_plan_id":"cebpf4jnsgd1na2vs0mg"},{"bike_id":"1ad1c1c4-5d06-4d0c-af90-58e0b45a7218","system_id":"levelo_inurba_marseille","lat":43.2792,"lon":5.39571,"is_reserved":false,"is_disabled":false,"rental_uris":{"android":"levelo://app?vid=1ad1c1c4-5d06-4d0c-af90-58e0b45a7218","ios":"levelo://app?vid=1ad1c1c4-5d06-4d0c-af90-58e0b45a7218"},"vehicle_type_id":"4","last_reported":1733181026,"current_range_meters":38400,"station_id":"ce4bhf92rcd13ifvqf40","pricing_plan_id":"cebpf4jnsgd1na2vs0mg"},{"bike_id":"9c77a68d-2e99-44e9-b903-950fb6644d35","system_id":"levelo_inurba_marseille","lat":43.2527,"lon":5.39459,"is_reserved":false,"is_disabled":true,"rental_uris":{"android":"levelo://app?vid=9c77a68d-2e99-44e9-b903-950fb6644d35","ios":"levelo://app?vid=9c77a68d-2e99-44e9-b903-950fb6644d35"},"vehicle_type_id":"4","last_reported":1733181026,"current_range_meters":0,"station_id":"","pricing_plan_id":"cebpf4jnsgd1na2vs0mg"},{"bike_id":"518691a5-448b-4ddf-b764-1a35b42e3659","system_id":"levelo_inurba_marseille","lat":43.25861,"lon":5.39899,"is_reserved":false,"is_disabled":false,"rental_uris":{"android":"levelo://app?vid=518691a5-448b-4ddf-b764-1a35b42e3659","ios":"levelo://app?vid=518691a5-448b-4ddf-b764-1a35b42e3659"},"vehicle_type_id":"4","last_reported":1733181026,"current_range_meters":38800,"station_id":"ce4bhl92rcd13ifvqghg","pricing_plan_id":"cebpf4jnsgd1na2vs0mg"},{"bike_id":"5052d3db-d271-4640-ae7c-d19eb6a98732","system_id":"levelo_inurba_marseille","lat":43.25117,"lon":5.40322,"is_reserved":false,"is_disabled":false,"rental_uris":{"android":"levelo://app?vid=5052d3db-d271-4640-ae7c-d19eb6a98732","ios":"levelo://app?vid=5052d3db-d271-4640-ae7c-d19eb6a98732"},"vehicle_type_id":"4","last_reported":1733181026,"current_range_meters":25200,"station_id":"ce4bhlh2rcd13ifvqgig","pricing_plan_id":"cebpf4jnsgd1na2vs0mg"},{"bike_id":"d343be82-d45b-4580-9267-ab2a574eac02","system_id":"levelo_inurba_marseille","lat":43.30795,"lon":5.43528,"is_reserved":false,"is_disabled":true,"rental_uris":{"android":"levelo://app?vid=d343be82-d45b-4580-9267-ab2a574eac02","ios":"levelo://app?vid=d343be82-d45b-4580-9267-ab2a574eac02"},"vehicle_type_id":"4","last_reported":1733181026,"current_range_meters":0,"station_id":"ce4bhph2rcd13ifvqheg","pricing_plan_id":"cebpf4jnsgd1na2vs0mg"},{"bike_id":"e6de016e-da35-4053-a20f-078cc01c1fee","system_id":"levelo_inurba_marseille","lat":43.29161,"lon":5.37156,"is_reserved":false,"is_disabled":false,"rental_uris":{"android":"levelo://app?vid=e6de016e-da35-4053-a20f-078cc01c1fee","ios":"levelo://app?vid=e6de016e-da35-4053-a20f-078cc01c1fee"},"vehicle_type_id":"4","last_reported":1733181026,"current_range_meters":38800,"station_id":"ce4bha92rcd13ifvqeh0","pricing_plan_id":"cebpf4jnsgd1na2vs0mg"},{"bike_id":"b506175b-e3b3-4ff6-94de-89fbcaee662e","system_id":"levelo_inurba_marseille","lat":43.30848,"lon":5.38176,"is_reserved":false,"is_disabled":false,"rental_uris":{"android":"levelo://app?vid=b506175b-e3b3-4ff6-94de-89fbcaee662e","ios":"levelo://app?vid=b506175b-e3b3-4ff6-94de-89fbcaee662e"},"vehicle_type_id":"4","last_reported":1733181026,"current_range_meters":18000,"station_id":"","pricing_plan_id":"cebpf4jnsgd1na2vs0mg"},{"bike_id":"4ea402f6-45b0-4846-84f5-29270e62c818","system_id":"levelo_inurba_marseille","lat":43.30837,"lon":5.37401,"is_reserved":false,"is_disabled":true,"rental_uris":{"android":"levelo://app?vid=4ea402f6-45b0-4846-84f5-29270e62c818","ios":"levelo://app?vid=4ea402f6-45b0-4846-84f5-29270e62c818"},"vehicle_type_id":"4","last_reported":1733181026,"current_range_meters":0,"station_id":"","pricing_plan_id":"cebpf4jnsgd1na2vs0mg"},{"bike_id":"83985555-c848-4b28-808f-8a7e7cf8519e","system_id":"levelo_inurba_marseille","lat":43.28118,"lon":5.4417,"is_reserved":false,"is_disabled":true,"rental_uris":{"android":"levelo://app?vid=83985555-c848-4b28-808f-8a7e7cf8519e","ios":"levelo://app?vid=83985555-c848-4b28-808f-8a7e7cf8519e"},"vehicle_type_id":"4","last_reported":1733181026,"current_range_meters":0,"station_id":"","pricing_plan_id":"cebpf4jnsgd1na2vs0mg"},{"bike_id":"017e7581-14b8-49d4-b72f-aadd6e39f65d","system_id":"levelo_inurba_marseille","lat":43.28101,"lon":5.37841,"is_reserved":false,"is_disabled":false,"rental_uris":{"android":"levelo://app?vid=017e7581-14b8-49d4-b72f-aadd6e39f65d","ios":"levelo://app?vid=017e7581-14b8-49d4-b72f-aadd6e39f65d"},"vehicle_type_id":"4","last_reported":1733181026,"current_range_meters":28000,"station_id":"ce4bha12rcd13ifvqee0","pricing_plan_id":"cebpf4jnsgd1na2vs0mg"},{"bike_id":"ace33aa3-f784-4e20-9f12-4be6458c46f0","system_id":"levelo_inurba_marseille","lat":43.30529,"lon":5.36727,"is_reserved":false,"is_disabled":false,"rental_uris":{"android":"levelo://app?vid=ace33aa3-f784-4e20-9f12-4be6458c46f0","ios":"levelo://app?vid=ace33aa3-f784-4e20-9f12-4be6458c46f0"},"vehicle_type_id":"4","last_reported":1733181026,"current_range_meters":38400,"station_id":"ce4bgrp2rcd13ifvqc9g","pricing_plan_id":"cebpf4jnsgd1na2vs0mg"},{"bike_id":"4f5e55ea-1124-4dd0-8efa-8ecf5c9aca9e","system_id":"levelo_inurba_marseille","lat":43.32275,"lon":5.38267,"is_reserved":false,"is_disabled":false,"rental_uris":{"android":"levelo://app?vid=4f5e55ea-1124-4dd0-8efa-8ecf5c9aca9e","ios":"levelo://app?vid=4f5e55ea-1124-4dd0-8efa-8ecf5c9aca9e"},"vehicle_type_id":"4","last_reported":1733181026,"current_range_meters":39200,"station_id":"ce4bhr12rcd13ifvqhqg","pricing_plan_id":"cebpf4jnsgd1na2vs0mg"},{"bike_id":"a35cd35e-5802-44a2-b8a5-9c9fd89de4da","system_id":"levelo_inurba_marseille","lat":43.29712,"lon":5.36612,"is_reserved":false,"is_disabled":false,"rental_uris":{"android":"levelo://app?vid=a35cd35e-5802-44a2-b8a5-9c9fd89de4da","ios":"levelo://app?vid=a35cd35e-5802-44a2-b8a5-9c9fd89de4da"},"vehicle_type_id":"4","last_reported":1733181026,"current_range_meters":30000,"station_id":"ce4bgn12rcd13ifvqbt0","pricing_plan_id":"cebpf4jnsgd1na2vs0mg"},{"bike_id":"941eeae1-8936-4a86-b31a-ea87d84b2048","system_id":"levelo_inurba_marseille","lat":43.28046,"lon":5.35642,"is_reserved":false,"is_disabled":false,"rental_uris":{"android":"levelo://app?vid=941eeae1-8936-4a86-b31a-ea87d84b2048","ios":"levelo://app?vid=941eeae1-8936-4a86-b31a-ea87d84b2048"},"vehicle_type_id":"4","last_reported":1733181026,"current_range_meters":9200,"station_id":"","pricing_plan_id":"cebpf4jnsgd1na2vs0mg"},{"bike_id":"fbf196aa-b1d3-4543-a4a3-ba949cee7fd8","system_id":"levelo_inurba_marseille","lat":43.27176,"lon":5.40994,"is_reserved":false,"is_disabled":false,"rental_uris":{"android":"levelo://app?vid=fbf196aa-b1d3-4543-a4a3-ba949cee7fd8","ios":"levelo://app?vid=fbf196aa-b1d3-4543-a4a3-ba949cee7fd8"},"vehicle_type_id":"4","last_reported":1733181026,"current_range_meters":38400,"station_id":"ce4bhl12rcd13ifvqgf0","pricing_plan_id":"cebpf4jnsgd1na2vs0mg"},{"bike_id":"baa937de-6740-48b4-ab26-0a395f36138d","system_id":"levelo_inurba_marseille","lat":43.28939,"lon":5.39632,"is_reserved":false,"is_disabled":false,"rental_uris":{"android":"levelo://app?vid=baa937de-6740-48b4-ab26-0a395f36138d","ios":"levelo://app?vid=baa937de-6740-48b4-ab26-0a395f36138d"},"vehicle_type_id":"4","last_reported":1733181026,"current_range_meters":27200,"station_id":"ce4bh3h2rcd13ifvqdn0","pricing_plan_id":"cebpf4jnsgd1na2vs0mg"},{"bike_id":"1176e033-efc4-474e-af61-8d3a0d5f5ccf","system_id":"levelo_inurba_marseille","lat":43.25886,"lon":5.39954,"is_reserved":false,"is_disabled":true,"rental_uris":{"android":"levelo://app?vid=1176e033-efc4-474e-af61-8d3a0d5f5ccf","ios":"levelo://app?vid=1176e033-efc4-474e-af61-8d3a0d5f5ccf"},"vehicle_type_id":"4","last_reported":1733181026,"current_range_meters":0,"station_id":"","pricing_plan_id":"cebpf4jnsgd1na2vs0mg"},{"bike_id":"355f9b9d-f767-4c7c-b2c2-99f45fb7404f","system_id":"levelo_inurba_marseille","lat":43.30789,"lon":5.37652,"is_reserved":false,"is_disabled":false,"rental_uris":{"android":"levelo://app?vid=355f9b9d-f767-4c7c-b2c2-99f45fb7404f","ios":"levelo://app?vid=355f9b9d-f767-4c7c-b2c2-99f45fb7404f"},"vehicle_type_id":"4","last_reported":1733181026,"current_range_meters":35600,"station_id":"ce4bgv92rcd13ifvqcq0","pricing_plan_id":"cebpf4jnsgd1na2vs0mg"},{"bike_id":"ea5e065b-8917-47e0-94dc-d2fd62722a29","system_id":"levelo_inurba_marseille","lat":43.29079,"lon":5.37185,"is_reserved":false,"is_disabled":false,"rental_uris":{"android":"levelo://app?vid=ea5e065b-8917-47e0-94dc-d2fd62722a29","ios":"levelo://app?vid=ea5e065b-8917-47e0-94dc-d2fd62722a29"},"vehicle_type_id":"4","last_reported":1733181026,"current_range_meters":32800,"station_id":"ce4bh5p2rcd13ifvqe4g","pricing_plan_id":"cebpf4jnsgd1na2vs0mg"},{"bike_id":"166baf5a-387f-4beb-a5fd-7c748004d880","system_id":"levelo_inurba_marseille","lat":43.31273,"lon":5.40175,"is_reserved":false,"is_disabled":false,"rental_uris":{"android":"levelo://app?vid=166baf5a-387f-4beb-a5fd-7c748004d880","ios":"levelo://app?vid=166baf5a-387f-4beb-a5fd-7c748004d880"},"vehicle_type_id":"4","last_reported":1733181026,"current_range_meters":33200,"station_id":"ce4bh092rcd13ifvqd30","pricing_plan_id":"cebpf4jnsgd1na2vs0mg"},{"bike_id":"d968385f-de2b-44eb-96a8-54efc707caa9","system_id":"levelo_inurba_marseille","lat":43.23188,"lon":5.35537,"is_reserved":false,"is_disabled":false,"rental_uris":{"android":"levelo://app?vid=d968385f-de2b-44eb-96a8-54efc707caa9","ios":"levelo://app?vid=d968385f-de2b-44eb-96a8-54efc707caa9"},"vehicle_type_id":"4","last_reported":1733181026,"current_range_meters":38800,"station_id":"ce4bhu92rcd13ifvqi70","pricing_plan_id":"cebpf4jnsgd1na2vs0mg"},{"bike_id":"243700ad-7f5b-4b2b-8723-32c35913040d","system_id":"levelo_inurba_marseille","lat":43.27216,"lon":5.39177,"is_reserved":false,"is_disabled":false,"rental_uris":{"android":"levelo://app?vid=243700ad-7f5b-4b2b-8723-32c35913040d","ios":"levelo://app?vid=243700ad-7f5b-4b2b-8723-32c35913040d"},"vehicle_type_id":"4","last_reported":1733181026,"current_range_meters":14400,"station_id":"ce4bhhp2rcd13ifvqfm0","pricing_plan_id":"cebpf4jnsgd1na2vs0mg"},{"bike_id":"e218f52a-3c8a-490a-99d9-5af7196625b0","system_id":"levelo_inurba_marseille","lat":43.23191,"lon":5.35549,"is_reserved":false,"is_disabled":false,"rental_uris":{"android":"levelo://app?vid=e218f52a-3c8a-490a-99d9-5af7196625b0","ios":"levelo://app?vid=e218f52a-3c8a-490a-99d9-5af7196625b0"},"vehicle_type_id":"4","last_reported":1733181026,"current_range_meters":37600,"station_id":"ce4bhu92rcd13ifvqi70","pricing_plan_id":"cebpf4jnsgd1na2vs0mg"},{"bike_id":"307ca336-3f57-4d5b-849b-5b9df48faeaf","system_id":"levelo_inurba_marseille","lat":43.300288,"lon":5.388865,"is_reserved":false,"is_disabled":true,"rental_uris":{"android":"levelo://app?vid=307ca336-3f57-4d5b-849b-5b9df48faeaf","ios":"levelo://app?vid=307ca336-3f57-4d5b-849b-5b9df48faeaf"},"vehicle_type_id":"4","last_reported":1733181026,"current_range_meters":0,"station_id":"","pricing_plan_id":"cebpf4jnsgd1na2vs0mg"},{"bike_id":"506c09f4-6c9b-4fb3-996c-4c7f86dd75a8","system_id":"levelo_inurba_marseille","lat":43.24555,"lon":5.37354,"is_reserved":false,"is_disabled":true,"rental_uris":{"android":"levelo://app?vid=506c09f4-6c9b-4fb3-996c-4c7f86dd75a8","ios":"levelo://app?vid=506c09f4-6c9b-4fb3-996c-4c7f86dd75a8"},"vehicle_type_id":"4","last_reported":1733181026,"current_range_meters":0,"station_id":"","pricing_plan_id":"cebpf4jnsgd1na2vs0mg"},{"bike_id":"9211c3d1-be1f-4677-9a82-b98349c83108","system_id":"levelo_inurba_marseille","lat":43.29451,"lon":5.3976,"is_reserved":false,"is_disabled":true,"rental_uris":{"android":"levelo://app?vid=9211c3d1-be1f-4677-9a82-b98349c83108","ios":"levelo://app?vid=9211c3d1-be1f-4677-9a82-b98349c83108"},"vehicle_type_id":"4","last_reported":1733181026,"current_range_meters":9600,"station_id":"ce4bh3h2rcd13ifvqdo0","pricing_plan_id":"cebpf4jnsgd1na2vs0mg"},{"bike_id":"109ceab6-1b2a-4f12-b390-5e5e505dd7d3","system_id":"levelo_inurba_marseille","lat":43.2957,"lon":5.39979,"is_reserved":false,"is_disabled":true,"rental_uris":{"android":"levelo://app?vid=109ceab6-1b2a-4f12-b390-5e5e505dd7d3","ios":"levelo://app?vid=109ceab6-1b2a-4f12-b390-5e5e505dd7d3"},"vehicle_type_id":"4","last_reported":1733181026,"current_range_meters":36000,"station_id":"ce4bh312rcd13ifvqdj0","pricing_plan_id":"cebpf4jnsgd1na2vs0mg"},{"bike_id":"9202c63e-372c-4469-a5c1-8e35757d1940","system_id":"levelo_inurba_marseille","lat":43.30053,"lon":5.38832,"is_reserved":false,"is_disabled":true,"rental_uris":{"android":"levelo://app?vid=9202c63e-372c-4469-a5c1-8e35757d1940","ios":"levelo://app?vid=9202c63e-372c-4469-a5c1-8e35757d1940"},"vehicle_type_id":"4","last_reported":1733181026,"current_range_meters":0,"station_id":"","pricing_plan_id":"cebpf4jnsgd1na2vs0mg"},{"bike_id":"21154978-cf0b-47c5-b889-a66fbf90a756","system_id":"levelo_inurba_marseille","lat":43.28689,"lon":5.38714,"is_reserved":false,"is_disabled":false,"rental_uris":{"android":"levelo://app?vid=21154978-cf0b-47c5-b889-a66fbf90a756","ios":"levelo://app?vid=21154978-cf0b-47c5-b889-a66fbf90a756"},"vehicle_type_id":"4","last_reported":1733181026,"current_range_meters":36000,"station_id":"ce4bh112rcd13ifvqd90","pricing_plan_id":"cebpf4jnsgd1na2vs0mg"},{"bike_id":"7ce87540-068e-40a8-8b73-bc4713996526","system_id":"levelo_inurba_marseille","lat":43.30277,"lon":5.377,"is_reserved":false,"is_disabled":true,"rental_uris":{"android":"levelo://app?vid=7ce87540-068e-40a8-8b73-bc4713996526","ios":"levelo://app?vid=7ce87540-068e-40a8-8b73-bc4713996526"},"vehicle_type_id":"4","last_reported":1733181026,"current_range_meters":0,"station_id":"ce4bguh2rcd13ifvqcj0","pricing_plan_id":"cebpf4jnsgd1na2vs0mg"},{"bike_id":"80bf9c9c-5325-46b1-aa3f-02ab70b13a7f","system_id":"levelo_inurba_marseille","lat":43.30657,"lon":5.40068,"is_reserved":false,"is_disabled":false,"rental_uris":{"android":"levelo://app?vid=80bf9c9c-5325-46b1-aa3f-02ab70b13a7f","ios":"levelo://app?vid=80bf9c9c-5325-46b1-aa3f-02ab70b13a7f"},"vehicle_type_id":"4","last_reported":1733181026,"current_range_meters":39200,"station_id":"ce4bh112rcd13ifvqda0","pricing_plan_id":"cebpf4jnsgd1na2vs0mg"},{"bike_id":"b2b8940f-a068-4cbd-8456-6500e6aa4f29","system_id":"levelo_inurba_marseille","lat":43.27812,"lon":5.40716,"is_reserved":false,"is_disabled":false,"rental_uris":{"android":"levelo://app?vid=b2b8940f-a068-4cbd-8456-6500e6aa4f29","ios":"levelo://app?vid=b2b8940f-a068-4cbd-8456-6500e6aa4f29"},"vehicle_type_id":"4","last_reported":1733181026,"current_range_meters":12000,"station_id":"ce4bhnh2rcd13ifvqgtg","pricing_plan_id":"cebpf4jnsgd1na2vs0mg"},{"bike_id":"692691a9-bd4a-4c62-91e1-a89a2833f61b","system_id":"levelo_inurba_marseille","lat":43.26786,"lon":5.40323,"is_reserved":false,"is_disabled":false,"rental_uris":{"android":"levelo://app?vid=692691a9-bd4a-4c62-91e1-a89a2833f61b","ios":"levelo://app?vid=692691a9-bd4a-4c62-91e1-a89a2833f61b"},"vehicle_type_id":"4","last_reported":1733181026,"current_range_meters":38800,"station_id":"ce501612rcd8frsf0b60","pricing_plan_id":"cebpf4jnsgd1na2vs0mg"},{"bike_id":"455f4354-5d43-4475-8c22-1a490114890e","system_id":"levelo_inurba_marseille","lat":43.31367,"lon":5.38497,"is_reserved":false,"is_disabled":false,"rental_uris":{"android":"levelo://app?vid=455f4354-5d43-4475-8c22-1a490114890e","ios":"levelo://app?vid=455f4354-5d43-4475-8c22-1a490114890e"},"vehicle_type_id":"4","last_reported":1733181026,"current_range_meters":36800,"station_id":"ce4bgt92rcd13ifvqcf0","pricing_plan_id":"cebpf4jnsgd1na2vs0mg"},{"bike_id":"2c19c3e8-460a-4d17-b478-253be31e21ce","system_id":"levelo_inurba_marseille","lat":43.30089,"lon":5.39082,"is_reserved":false,"is_disabled":false,"rental_uris":{"android":"levelo://app?vid=2c19c3e8-460a-4d17-b478-253be31e21ce","ios":"levelo://app?vid=2c19c3e8-460a-4d17-b478-253be31e21ce"},"vehicle_type_id":"4","last_reported":1733181026,"current_range_meters":36800,"station_id":"ce4bh192rcd13ifvqdb0","pricing_plan_id":"cebpf4jnsgd1na2vs0mg"},{"bike_id":"8cbb1876-809e-4922-953b-40d493b437d4","system_id":"levelo_inurba_marseille","lat":43.3234,"lon":5.40618,"is_reserved":false,"is_disabled":false,"rental_uris":{"android":"levelo://app?vid=8cbb1876-809e-4922-953b-40d493b437d4","ios":"levelo://app?vid=8cbb1876-809e-4922-953b-40d493b437d4"},"vehicle_type_id":"4","last_reported":1733181026,"current_range_meters":26800,"station_id":"ce4bhq92rcd13ifvqhjg","pricing_plan_id":"cebpf4jnsgd1na2vs0mg"},{"bike_id":"8bb552ff-a487-4ffd-9577-2165b4b63016","system_id":"levelo_inurba_marseille","lat":43.24806,"lon":5.37457,"is_reserved":false,"is_disabled":false,"rental_uris":{"android":"levelo://app?vid=8bb552ff-a487-4ffd-9577-2165b4b63016","ios":"levelo://app?vid=8bb552ff-a487-4ffd-9577-2165b4b63016"},"vehicle_type_id":"4","last_reported":1733181026,"current_range_meters":27200,"station_id":"ce4bhgh2rcd13ifvqfb0","pricing_plan_id":"cebpf4jnsgd1na2vs0mg"},{"bike_id":"ac81b5c5-8995-4076-b9ef-94b2899717fe","system_id":"levelo_inurba_marseille","lat":43.30787,"lon":5.38171,"is_reserved":false,"is_disabled":false,"rental_uris":{"android":"levelo://app?vid=ac81b5c5-8995-4076-b9ef-94b2899717fe","ios":"levelo://app?vid=ac81b5c5-8995-4076-b9ef-94b2899717fe"},"vehicle_type_id":"4","last_reported":1733181026,"current_range_meters":38000,"station_id":"ce4bgt12rcd13ifvqce0","pricing_plan_id":"cebpf4jnsgd1na2vs0mg"},{"bike_id":"16ebf7b5-f5c0-4627-80b2-c506facfa757","system_id":"levelo_inurba_marseille","lat":43.27808,"lon":5.40715,"is_reserved":false,"is_disabled":false,"rental_uris":{"android":"levelo://app?vid=16ebf7b5-f5c0-4627-80b2-c506facfa757","ios":"levelo://app?vid=16ebf7b5-f5c0-4627-80b2-c506facfa757"},"vehicle_type_id":"4","last_reported":1733181026,"current_range_meters":34800,"station_id":"ce4bhnh2rcd13ifvqgtg","pricing_plan_id":"cebpf4jnsgd1na2vs0mg"},{"bike_id":"719e509a-25e4-4b1b-9830-f708d85d7593","system_id":"levelo_inurba_marseille","lat":43.29569,"lon":5.37512,"is_reserved":false,"is_disabled":true,"rental_uris":{"android":"levelo://app?vid=719e509a-25e4-4b1b-9830-f708d85d7593","ios":"levelo://app?vid=719e509a-25e4-4b1b-9830-f708d85d7593"},"vehicle_type_id":"4","last_reported":1733181026,"current_range_meters":0,"station_id":"ce4bgh92rcd13ifvqb50","pricing_plan_id":"cebpf4jnsgd1na2vs0mg"},{"bike_id":"967a5ca3-ac25-4cc8-8c1f-1f1ef1d5ca9c","system_id":"levelo_inurba_marseille","lat":43.23194,"lon":5.35552,"is_reserved":false,"is_disabled":false,"rental_uris":{"android":"levelo://app?vid=967a5ca3-ac25-4cc8-8c1f-1f1ef1d5ca9c","ios":"levelo://app?vid=967a5ca3-ac25-4cc8-8c1f-1f1ef1d5ca9c"},"vehicle_type_id":"4","last_reported":1733181026,"current_range_meters":35200,"station_id":"ce4bhu92rcd13ifvqi70","pricing_plan_id":"cebpf4jnsgd1na2vs0mg"},{"bike_id":"1448ae72-a1c5-4505-81d2-7441fbddd9bd","system_id":"levelo_inurba_marseille","lat":43.28663,"lon":5.36349,"is_reserved":false,"is_disabled":false,"rental_uris":{"android":"levelo://app?vid=1448ae72-a1c5-4505-81d2-7441fbddd9bd","ios":"levelo://app?vid=1448ae72-a1c5-4505-81d2-7441fbddd9bd"},"vehicle_type_id":"4","last_reported":1733181026,"current_range_meters":24000,"station_id":"ce4bhah2rcd13ifvqej0","pricing_plan_id":"cebpf4jnsgd1na2vs0mg"},{"bike_id":"ab084de3-2d85-48ae-98ab-325746bfd6df","system_id":"levelo_inurba_marseille","lat":43.27812,"lon":5.40712,"is_reserved":false,"is_disabled":false,"rental_uris":{"android":"levelo://app?vid=ab084de3-2d85-48ae-98ab-325746bfd6df","ios":"levelo://app?vid=ab084de3-2d85-48ae-98ab-325746bfd6df"},"vehicle_type_id":"4","last_reported":1733181026,"current_range_meters":38400,"station_id":"ce4bhnh2rcd13ifvqgtg","pricing_plan_id":"cebpf4jnsgd1na2vs0mg"},{"bike_id":"30b6b84f-2823-4e05-9290-54e3cd970159","system_id":"levelo_inurba_marseille","lat":43.33023,"lon":5.39044,"is_reserved":false,"is_disabled":false,"rental_uris":{"android":"levelo://app?vid=30b6b84f-2823-4e05-9290-54e3cd970159","ios":"levelo://app?vid=30b6b84f-2823-4e05-9290-54e3cd970159"},"vehicle_type_id":"4","last_reported":1733181026,"current_range_meters":31200,"station_id":"ce4bhr92rcd13ifvqhrg","pricing_plan_id":"cebpf4jnsgd1na2vs0mg"},{"bike_id":"5d7c9e24-fecf-49f1-afd0-481a24a26cee","system_id":"levelo_inurba_marseille","lat":43.24071,"lon":5.3776,"is_reserved":false,"is_disabled":false,"rental_uris":{"android":"levelo://app?vid=5d7c9e24-fecf-49f1-afd0-481a24a26cee","ios":"levelo://app?vid=5d7c9e24-fecf-49f1-afd0-481a24a26cee"},"vehicle_type_id":"4","last_reported":1733181026,"current_range_meters":38800,"station_id":"ce4bhnp2rcd13ifvqgvg","pricing_plan_id":"cebpf4jnsgd1na2vs0mg"},{"bike_id":"2cf65095-36e5-4949-abae-c54c2895d97b","system_id":"levelo_inurba_marseille","lat":43.32595,"lon":5.41374,"is_reserved":false,"is_disabled":true,"rental_uris":{"android":"levelo://app?vid=2cf65095-36e5-4949-abae-c54c2895d97b","ios":"levelo://app?vid=2cf65095-36e5-4949-abae-c54c2895d97b"},"vehicle_type_id":"4","last_reported":1733181026,"current_range_meters":0,"station_id":"","pricing_plan_id":"cebpf4jnsgd1na2vs0mg"},{"bike_id":"bf625bbb-369c-45fb-b116-b24bbb453368","system_id":"levelo_inurba_marseille","lat":43.31486,"lon":5.37306,"is_reserved":false,"is_disabled":false,"rental_uris":{"android":"levelo://app?vid=bf625bbb-369c-45fb-b116-b24bbb453368","ios":"levelo://app?vid=bf625bbb-369c-45fb-b116-b24bbb453368"},"vehicle_type_id":"4","last_reported":1733181026,"current_range_meters":32000,"station_id":"ce4bgt12rcd13ifvqcd0","pricing_plan_id":"cebpf4jnsgd1na2vs0mg"},{"bike_id":"956185b4-5c6a-4d26-b536-6a16b131edf5","system_id":"levelo_inurba_marseille","lat":43.27944,"lon":5.41047,"is_reserved":false,"is_disabled":false,"rental_uris":{"android":"levelo://app?vid=956185b4-5c6a-4d26-b536-6a16b131edf5","ios":"levelo://app?vid=956185b4-5c6a-4d26-b536-6a16b131edf5"},"vehicle_type_id":"4","last_reported":1733181026,"current_range_meters":37600,"station_id":"ce4bhnp2rcd13ifvqh0g","pricing_plan_id":"cebpf4jnsgd1na2vs0mg"},{"bike_id":"1765576d-ad21-4bb0-85a8-4c7cde4f5294","system_id":"levelo_inurba_marseille","lat":43.29622,"lon":5.3715,"is_reserved":false,"is_disabled":true,"rental_uris":{"android":"levelo://app?vid=1765576d-ad21-4bb0-85a8-4c7cde4f5294","ios":"levelo://app?vid=1765576d-ad21-4bb0-85a8-4c7cde4f5294"},"vehicle_type_id":"4","last_reported":1733181026,"current_range_meters":8400,"station_id":"ce4bgnh2rcd13ifvqc0g","pricing_plan_id":"cebpf4jnsgd1na2vs0mg"},{"bike_id":"1db0cf7c-0f72-4bee-848d-93c3005fb599","system_id":"levelo_inurba_marseille","lat":43.314843,"lon":5.373,"is_reserved":false,"is_disabled":false,"rental_uris":{"android":"levelo://app?vid=1db0cf7c-0f72-4bee-848d-93c3005fb599","ios":"levelo://app?vid=1db0cf7c-0f72-4bee-848d-93c3005fb599"},"vehicle_type_id":"4","last_reported":1733181026,"current_range_meters":30000,"station_id":"ce4bgt12rcd13ifvqcd0","pricing_plan_id":"cebpf4jnsgd1na2vs0mg"},{"bike_id":"d29603f6-6aab-4fc7-8684-640e327832b0","system_id":"levelo_inurba_marseille","lat":43.28617,"lon":5.35108,"is_reserved":false,"is_disabled":false,"rental_uris":{"android":"levelo://app?vid=d29603f6-6aab-4fc7-8684-640e327832b0","ios":"levelo://app?vid=d29603f6-6aab-4fc7-8684-640e327832b0"},"vehicle_type_id":"4","last_reported":1733181026,"current_range_meters":38400,"station_id":"ce4bhch2rcd13ifvqeug","pricing_plan_id":"cebpf4jnsgd1na2vs0mg"},{"bike_id":"9c7c18bc-8ef7-44fc-b828-b60eafae16bb","system_id":"levelo_inurba_marseille","lat":43.30431,"lon":5.39763,"is_reserved":false,"is_disabled":false,"rental_uris":{"android":"levelo://app?vid=9c7c18bc-8ef7-44fc-b828-b60eafae16bb","ios":"levelo://app?vid=9c7c18bc-8ef7-44fc-b828-b60eafae16bb"},"vehicle_type_id":"4","last_reported":1733181026,"current_range_meters":30800,"station_id":"ce4bh092rcd13ifvqd20","pricing_plan_id":"cebpf4jnsgd1na2vs0mg"},{"bike_id":"65d23b83-ead9-450f-a3aa-fba7fed37848","system_id":"levelo_inurba_marseille","lat":43.28458,"lon":5.35888,"is_reserved":false,"is_disabled":false,"rental_uris":{"android":"levelo://app?vid=65d23b83-ead9-450f-a3aa-fba7fed37848","ios":"levelo://app?vid=65d23b83-ead9-450f-a3aa-fba7fed37848"},"vehicle_type_id":"4","last_reported":1733181026,"current_range_meters":38800,"station_id":"ce4bhah2rcd13ifvqei0","pricing_plan_id":"cebpf4jnsgd1na2vs0mg"},{"bike_id":"11c1b4cd-dd70-44d6-b0ac-ecaf169e6ab8","system_id":"levelo_inurba_marseille","lat":43.30603,"lon":5.37222,"is_reserved":false,"is_disabled":false,"rental_uris":{"android":"levelo://app?vid=11c1b4cd-dd70-44d6-b0ac-ecaf169e6ab8","ios":"levelo://app?vid=11c1b4cd-dd70-44d6-b0ac-ecaf169e6ab8"},"vehicle_type_id":"4","last_reported":1733181026,"current_range_meters":25600,"station_id":"ce4bgqh2rcd13ifvqc4g","pricing_plan_id":"cebpf4jnsgd1na2vs0mg"},{"bike_id":"cce4929b-ec72-4a27-8354-4062904b82be","system_id":"levelo_inurba_marseille","lat":43.26943,"lon":5.3864,"is_reserved":false,"is_disabled":true,"rental_uris":{"android":"levelo://app?vid=cce4929b-ec72-4a27-8354-4062904b82be","ios":"levelo://app?vid=cce4929b-ec72-4a27-8354-4062904b82be"},"vehicle_type_id":"4","last_reported":1733181026,"current_range_meters":20400,"station_id":"ce4bhh92rcd13ifvqfh0","pricing_plan_id":"cebpf4jnsgd1na2vs0mg"},{"bike_id":"6bd6c9dc-2438-4ba6-aaea-adaf4730c93d","system_id":"levelo_inurba_marseille","lat":43.3007,"lon":5.39071,"is_reserved":false,"is_disabled":false,"rental_uris":{"android":"levelo://app?vid=6bd6c9dc-2438-4ba6-aaea-adaf4730c93d","ios":"levelo://app?vid=6bd6c9dc-2438-4ba6-aaea-adaf4730c93d"},"vehicle_type_id":"4","last_reported":1733181026,"current_range_meters":36000,"station_id":"ce4bh192rcd13ifvqdb0","pricing_plan_id":"cebpf4jnsgd1na2vs0mg"},{"bike_id":"d4582494-a1fb-4de6-bf90-d3e071b6d96d","system_id":"levelo_inurba_marseille","lat":43.31129,"lon":5.37763,"is_reserved":false,"is_disabled":false,"rental_uris":{"android":"levelo://app?vid=d4582494-a1fb-4de6-bf90-d3e071b6d96d","ios":"levelo://app?vid=d4582494-a1fb-4de6-bf90-d3e071b6d96d"},"vehicle_type_id":"4","last_reported":1733181026,"current_range_meters":29600,"station_id":"ce4bgt92rcd13ifvqcg0","pricing_plan_id":"cebpf4jnsgd1na2vs0mg"},{"bike_id":"cc2cbb5e-fbbb-408a-8a99-f35460997d65","system_id":"levelo_inurba_marseille","lat":43.29501,"lon":5.39374,"is_reserved":false,"is_disabled":false,"rental_uris":{"android":"levelo://app?vid=cc2cbb5e-fbbb-408a-8a99-f35460997d65","ios":"levelo://app?vid=cc2cbb5e-fbbb-408a-8a99-f35460997d65"},"vehicle_type_id":"4","last_reported":1733181026,"current_range_meters":27600,"station_id":"ce4bh292rcd13ifvqdf0","pricing_plan_id":"cebpf4jnsgd1na2vs0mg"},{"bike_id":"fbea491b-7a53-4808-8ebe-d322f1f74651","system_id":"levelo_inurba_marseille","lat":43.27371,"lon":5.36256,"is_reserved":false,"is_disabled":false,"rental_uris":{"android":"levelo://app?vid=fbea491b-7a53-4808-8ebe-d322f1f74651","ios":"levelo://app?vid=fbea491b-7a53-4808-8ebe-d322f1f74651"},"vehicle_type_id":"4","last_reported":1733181026,"current_range_meters":38800,"station_id":"ce4bhbh2rcd13ifvqeo0","pricing_plan_id":"cebpf4jnsgd1na2vs0mg"},{"bike_id":"ce7dd36e-7854-4ef2-96f6-1e4edaba1aec","system_id":"levelo_inurba_marseille","lat":43.26685,"lon":5.38272,"is_reserved":false,"is_disabled":true,"rental_uris":{"android":"levelo://app?vid=ce7dd36e-7854-4ef2-96f6-1e4edaba1aec","ios":"levelo://app?vid=ce7dd36e-7854-4ef2-96f6-1e4edaba1aec"},"vehicle_type_id":"4","last_reported":1733181026,"current_range_meters":31200,"station_id":"ce4bhg92rcd13ifvqf90","pricing_plan_id":"cebpf4jnsgd1na2vs0mg"},{"bike_id":"fc52ae5e-bc8e-45f9-8066-def505fe6bd9","system_id":"levelo_inurba_marseille","lat":43.28564,"lon":5.39488,"is_reserved":false,"is_disabled":false,"rental_uris":{"android":"levelo://app?vid=fc52ae5e-bc8e-45f9-8066-def505fe6bd9","ios":"levelo://app?vid=fc52ae5e-bc8e-45f9-8066-def505fe6bd9"},"vehicle_type_id":"4","last_reported":1733181026,"current_range_meters":24400,"station_id":"ce4bh292rcd13ifvqdg0","pricing_plan_id":"cebpf4jnsgd1na2vs0mg"},{"bike_id":"27e1e5fe-58ba-445f-94e4-4755258552d2","system_id":"levelo_inurba_marseille","lat":43.31226,"lon":5.37972,"is_reserved":false,"is_disabled":false,"rental_uris":{"android":"levelo://app?vid=27e1e5fe-58ba-445f-94e4-4755258552d2","ios":"levelo://app?vid=27e1e5fe-58ba-445f-94e4-4755258552d2"},"vehicle_type_id":"4","last_reported":1733181026,"current_range_meters":18800,"station_id":"","pricing_plan_id":"cebpf4jnsgd1na2vs0mg"},{"bike_id":"a6fcf14f-e057-40f5-8c35-9e32f79140fc","system_id":"levelo_inurba_marseille","lat":43.23181,"lon":5.39982,"is_reserved":false,"is_disabled":false,"rental_uris":{"android":"levelo://app?vid=a6fcf14f-e057-40f5-8c35-9e32f79140fc","ios":"levelo://app?vid=a6fcf14f-e057-40f5-8c35-9e32f79140fc"},"vehicle_type_id":"4","last_reported":1733181026,"current_range_meters":29600,"station_id":"ce4bhn12rcd13ifvqgqg","pricing_plan_id":"cebpf4jnsgd1na2vs0mg"},{"bike_id":"4fa918c2-c181-4c0d-909d-82057e8eae1e","system_id":"levelo_inurba_marseille","lat":43.29793,"lon":5.39345,"is_reserved":false,"is_disabled":false,"rental_uris":{"android":"levelo://app?vid=4fa918c2-c181-4c0d-909d-82057e8eae1e","ios":"levelo://app?vid=4fa918c2-c181-4c0d-909d-82057e8eae1e"},"vehicle_type_id":"4","last_reported":1733181026,"current_range_meters":37600,"station_id":"chh1huq6cuj3fo74tm60","pricing_plan_id":"cebpf4jnsgd1na2vs0mg"},{"bike_id":"49331257-d9f5-49b8-ad0c-d07acedd15e7","system_id":"levelo_inurba_marseille","lat":43.28941,"lon":5.39628,"is_reserved":false,"is_disabled":false,"rental_uris":{"android":"levelo://app?vid=49331257-d9f5-49b8-ad0c-d07acedd15e7","ios":"levelo://app?vid=49331257-d9f5-49b8-ad0c-d07acedd15e7"},"vehicle_type_id":"4","last_reported":1733181026,"current_range_meters":25200,"station_id":"ce4bh3h2rcd13ifvqdn0","pricing_plan_id":"cebpf4jnsgd1na2vs0mg"},{"bike_id":"79c8ea6d-5102-4a1e-b941-afdabc095945","system_id":"levelo_inurba_marseille","lat":43.29065,"lon":5.38346,"is_reserved":false,"is_disabled":true,"rental_uris":{"android":"levelo://app?vid=79c8ea6d-5102-4a1e-b941-afdabc095945","ios":"levelo://app?vid=79c8ea6d-5102-4a1e-b941-afdabc095945"},"vehicle_type_id":"4","last_reported":1733181026,"current_range_meters":27600,"station_id":"","pricing_plan_id":"cebpf4jnsgd1na2vs0mg"},{"bike_id":"e0e50906-2252-4ca8-8e78-ebf51be5036f","system_id":"levelo_inurba_marseille","lat":43.33603,"lon":5.41034,"is_reserved":false,"is_disabled":false,"rental_uris":{"android":"levelo://app?vid=e0e50906-2252-4ca8-8e78-ebf51be5036f","ios":"levelo://app?vid=e0e50906-2252-4ca8-8e78-ebf51be5036f"},"vehicle_type_id":"4","last_reported":1733181026,"current_range_meters":20400,"station_id":"ce4bhqh2rcd13ifvqhmg","pricing_plan_id":"cebpf4jnsgd1na2vs0mg"},{"bike_id":"61d13d77-7074-466f-8de9-c7b3086a62e4","system_id":"levelo_inurba_marseille","lat":43.2951,"lon":5.3941,"is_reserved":false,"is_disabled":false,"rental_uris":{"android":"levelo://app?vid=61d13d77-7074-466f-8de9-c7b3086a62e4","ios":"levelo://app?vid=61d13d77-7074-466f-8de9-c7b3086a62e4"},"vehicle_type_id":"4","last_reported":1733181026,"current_range_meters":34000,"station_id":"ce4bh292rcd13ifvqdf0","pricing_plan_id":"cebpf4jnsgd1na2vs0mg"},{"bike_id":"cb7d935f-a2dc-4e69-b66f-6c43d4826ea1","system_id":"levelo_inurba_marseille","lat":43.28709,"lon":5.39989,"is_reserved":false,"is_disabled":false,"rental_uris":{"android":"levelo://app?vid=cb7d935f-a2dc-4e69-b66f-6c43d4826ea1","ios":"levelo://app?vid=cb7d935f-a2dc-4e69-b66f-6c43d4826ea1"},"vehicle_type_id":"4","last_reported":1733181026,"current_range_meters":23200,"station_id":"ce4bho92rcd13ifvqh3g","pricing_plan_id":"cebpf4jnsgd1na2vs0mg"},{"bike_id":"defb2e66-a1a2-47b0-ab69-2600758b4bc7","system_id":"levelo_inurba_marseille","lat":43.25594,"lon":5.38235,"is_reserved":false,"is_disabled":false,"rental_uris":{"android":"levelo://app?vid=defb2e66-a1a2-47b0-ab69-2600758b4bc7","ios":"levelo://app?vid=defb2e66-a1a2-47b0-ab69-2600758b4bc7"},"vehicle_type_id":"4","last_reported":1733181026,"current_range_meters":39200,"station_id":"ce4bhih2rcd13ifvqfs0","pricing_plan_id":"cebpf4jnsgd1na2vs0mg"},{"bike_id":"072d616d-73ce-43a5-a0c5-7f5366897302","system_id":"levelo_inurba_marseille","lat":43.29789,"lon":5.38128,"is_reserved":false,"is_disabled":true,"rental_uris":{"android":"levelo://app?vid=072d616d-73ce-43a5-a0c5-7f5366897302","ios":"levelo://app?vid=072d616d-73ce-43a5-a0c5-7f5366897302"},"vehicle_type_id":"4","last_reported":1733181026,"current_range_meters":37600,"station_id":"ce4bgip2rcd13ifvqbb0","pricing_plan_id":"cebpf4jnsgd1na2vs0mg"},{"bike_id":"1ed03f8d-8b0d-4afe-8048-b7683bf58c6a","system_id":"levelo_inurba_marseille","lat":43.28461,"lon":5.35897,"is_reserved":false,"is_disabled":false,"rental_uris":{"android":"levelo://app?vid=1ed03f8d-8b0d-4afe-8048-b7683bf58c6a","ios":"levelo://app?vid=1ed03f8d-8b0d-4afe-8048-b7683bf58c6a"},"vehicle_type_id":"4","last_reported":1733181026,"current_range_meters":27600,"station_id":"ce4bhah2rcd13ifvqei0","pricing_plan_id":"cebpf4jnsgd1na2vs0mg"},{"bike_id":"d0201ca8-2509-490a-b01f-0b38c1a965c9","system_id":"levelo_inurba_marseille","lat":43.28658,"lon":5.3636,"is_reserved":false,"is_disabled":false,"rental_uris":{"android":"levelo://app?vid=d0201ca8-2509-490a-b01f-0b38c1a965c9","ios":"levelo://app?vid=d0201ca8-2509-490a-b01f-0b38c1a965c9"},"vehicle_type_id":"4","last_reported":1733181026,"current_range_meters":38800,"station_id":"ce4bhah2rcd13ifvqej0","pricing_plan_id":"cebpf4jnsgd1na2vs0mg"},{"bike_id":"34b8a852-801d-48f2-b601-a0c9b61d54c6","system_id":"levelo_inurba_marseille","lat":43.28279,"lon":5.35087,"is_reserved":false,"is_disabled":false,"rental_uris":{"android":"levelo://app?vid=34b8a852-801d-48f2-b601-a0c9b61d54c6","ios":"levelo://app?vid=34b8a852-801d-48f2-b601-a0c9b61d54c6"},"vehicle_type_id":"4","last_reported":1733181026,"current_range_meters":38800,"station_id":"ce4bhbp2rcd13ifvqerg","pricing_plan_id":"cebpf4jnsgd1na2vs0mg"},{"bike_id":"58745024-055b-4c1b-b90f-3161671a49a0","system_id":"levelo_inurba_marseille","lat":43.25722,"lon":5.41109,"is_reserved":false,"is_disabled":false,"rental_uris":{"android":"levelo://app?vid=58745024-055b-4c1b-b90f-3161671a49a0","ios":"levelo://app?vid=58745024-055b-4c1b-b90f-3161671a49a0"},"vehicle_type_id":"4","last_reported":1733181026,"current_range_meters":39200,"station_id":"ce4bhkp2rcd13ifvqgd0","pricing_plan_id":"cebpf4jnsgd1na2vs0mg"},{"bike_id":"a24d42c0-2f2c-419a-8324-a882ddfb22d4","system_id":"levelo_inurba_marseille","lat":43.28078,"lon":5.39658,"is_reserved":false,"is_disabled":false,"rental_uris":{"android":"levelo://app?vid=a24d42c0-2f2c-419a-8324-a882ddfb22d4","ios":"levelo://app?vid=a24d42c0-2f2c-419a-8324-a882ddfb22d4"},"vehicle_type_id":"4","last_reported":1733181026,"current_range_meters":9600,"station_id":"ce4bho12rcd13ifvqh2g","pricing_plan_id":"cebpf4jnsgd1na2vs0mg"},{"bike_id":"1b53d7e8-979b-4fe5-9c90-24285d292a74","system_id":"levelo_inurba_marseille","lat":43.30456,"lon":5.37901,"is_reserved":false,"is_disabled":false,"rental_uris":{"android":"levelo://app?vid=1b53d7e8-979b-4fe5-9c90-24285d292a74","ios":"levelo://app?vid=1b53d7e8-979b-4fe5-9c90-24285d292a74"},"vehicle_type_id":"4","last_reported":1733181026,"current_range_meters":36800,"station_id":"ce4bgup2rcd13ifvqcn0","pricing_plan_id":"cebpf4jnsgd1na2vs0mg"},{"bike_id":"a4b9e425-64b8-4ce2-a5ab-5fcc5d1230a4","system_id":"levelo_inurba_marseille","lat":43.32106,"lon":5.36775,"is_reserved":false,"is_disabled":false,"rental_uris":{"android":"levelo://app?vid=a4b9e425-64b8-4ce2-a5ab-5fcc5d1230a4","ios":"levelo://app?vid=a4b9e425-64b8-4ce2-a5ab-5fcc5d1230a4"},"vehicle_type_id":"4","last_reported":1733181026,"current_range_meters":14400,"station_id":"ce4bhrh2rcd13ifvqhug","pricing_plan_id":"cebpf4jnsgd1na2vs0mg"},{"bike_id":"2bcee0a3-6161-4327-a343-7c8d8d06983b","system_id":"levelo_inurba_marseille","lat":43.2866,"lon":5.36362,"is_reserved":false,"is_disabled":false,"rental_uris":{"android":"levelo://app?vid=2bcee0a3-6161-4327-a343-7c8d8d06983b","ios":"levelo://app?vid=2bcee0a3-6161-4327-a343-7c8d8d06983b"},"vehicle_type_id":"4","last_reported":1733181026,"current_range_meters":38800,"station_id":"ce4bhah2rcd13ifvqej0","pricing_plan_id":"cebpf4jnsgd1na2vs0mg"},{"bike_id":"44b58192-051d-42f1-9f2f-2b997dac0a9a","system_id":"levelo_inurba_marseille","lat":43.26212,"lon":5.37437,"is_reserved":false,"is_disabled":false,"rental_uris":{"android":"levelo://app?vid=44b58192-051d-42f1-9f2f-2b997dac0a9a","ios":"levelo://app?vid=44b58192-051d-42f1-9f2f-2b997dac0a9a"},"vehicle_type_id":"4","last_reported":1733181026,"current_range_meters":15200,"station_id":"ce4bhgp2rcd13ifvqfc0","pricing_plan_id":"cebpf4jnsgd1na2vs0mg"},{"bike_id":"890d25d8-68a9-419f-aace-8ce9c2515dbb","system_id":"levelo_inurba_marseille","lat":43.28707,"lon":5.39986,"is_reserved":false,"is_disabled":false,"rental_uris":{"android":"levelo://app?vid=890d25d8-68a9-419f-aace-8ce9c2515dbb","ios":"levelo://app?vid=890d25d8-68a9-419f-aace-8ce9c2515dbb"},"vehicle_type_id":"4","last_reported":1733181026,"current_range_meters":22400,"station_id":"ce4bho92rcd13ifvqh3g","pricing_plan_id":"cebpf4jnsgd1na2vs0mg"},{"bike_id":"31d8c651-ed90-4517-a23d-a56303361a21","system_id":"levelo_inurba_marseille","lat":43.2396,"lon":5.36625,"is_reserved":false,"is_disabled":false,"rental_uris":{"android":"levelo://app?vid=31d8c651-ed90-4517-a23d-a56303361a21","ios":"levelo://app?vid=31d8c651-ed90-4517-a23d-a56303361a21"},"vehicle_type_id":"4","last_reported":1733181026,"current_range_meters":10000,"station_id":"ce4bhi12rcd13ifvqfp0","pricing_plan_id":"cebpf4jnsgd1na2vs0mg"},{"bike_id":"216616ff-f59a-4303-9300-a50b08bc08b0","system_id":"levelo_inurba_marseille","lat":43.30294,"lon":5.39214,"is_reserved":false,"is_disabled":true,"rental_uris":{"android":"levelo://app?vid=216616ff-f59a-4303-9300-a50b08bc08b0","ios":"levelo://app?vid=216616ff-f59a-4303-9300-a50b08bc08b0"},"vehicle_type_id":"4","last_reported":1733181026,"current_range_meters":6000,"station_id":"ce4bgkh2rcd13ifvqbk0","pricing_plan_id":"cebpf4jnsgd1na2vs0mg"},{"bike_id":"cf411c2a-cc80-4aeb-9c99-a3d88fef5d8f","system_id":"levelo_inurba_marseille","lat":43.296,"lon":5.3769,"is_reserved":false,"is_disabled":true,"rental_uris":{"android":"levelo://app?vid=cf411c2a-cc80-4aeb-9c99-a3d88fef5d8f","ios":"levelo://app?vid=cf411c2a-cc80-4aeb-9c99-a3d88fef5d8f"},"vehicle_type_id":"4","last_reported":1733181026,"current_range_meters":11600,"station_id":"ce4bgi92rcd13ifvqb90","pricing_plan_id":"cebpf4jnsgd1na2vs0mg"},{"bike_id":"d44b0368-00be-4d57-a135-fbc6d4303bca","system_id":"levelo_inurba_marseille","lat":43.2668,"lon":5.38267,"is_reserved":false,"is_disabled":true,"rental_uris":{"android":"levelo://app?vid=d44b0368-00be-4d57-a135-fbc6d4303bca","ios":"levelo://app?vid=d44b0368-00be-4d57-a135-fbc6d4303bca"},"vehicle_type_id":"4","last_reported":1733181026,"current_range_meters":10000,"station_id":"ce4bhg92rcd13ifvqf90","pricing_plan_id":"cebpf4jnsgd1na2vs0mg"},{"bike_id":"b6d6b07e-4688-45f1-857e-88e0c9f71088","system_id":"levelo_inurba_marseille","lat":43.29575,"lon":5.37503,"is_reserved":false,"is_disabled":true,"rental_uris":{"android":"levelo://app?vid=b6d6b07e-4688-45f1-857e-88e0c9f71088","ios":"levelo://app?vid=b6d6b07e-4688-45f1-857e-88e0c9f71088"},"vehicle_type_id":"4","last_reported":1733181026,"current_range_meters":36400,"station_id":"ce4bgh92rcd13ifvqb50","pricing_plan_id":"cebpf4jnsgd1na2vs0mg"},{"bike_id":"38763041-8d1c-4382-adad-9a4a3cd40ae8","system_id":"levelo_inurba_marseille","lat":43.29701,"lon":5.36586,"is_reserved":false,"is_disabled":false,"rental_uris":{"android":"levelo://app?vid=38763041-8d1c-4382-adad-9a4a3cd40ae8","ios":"levelo://app?vid=38763041-8d1c-4382-adad-9a4a3cd40ae8"},"vehicle_type_id":"4","last_reported":1733181026,"current_range_meters":18000,"station_id":"ce4bgn12rcd13ifvqbt0","pricing_plan_id":"cebpf4jnsgd1na2vs0mg"},{"bike_id":"e9e7398b-e7d9-4b3e-96c1-8b827c7b537e","system_id":"levelo_inurba_marseille","lat":43.306657,"lon":5.381751,"is_reserved":false,"is_disabled":false,"rental_uris":{"android":"levelo://app?vid=e9e7398b-e7d9-4b3e-96c1-8b827c7b537e","ios":"levelo://app?vid=e9e7398b-e7d9-4b3e-96c1-8b827c7b537e"},"vehicle_type_id":"4","last_reported":1733181026,"current_range_meters":28800,"station_id":"","pricing_plan_id":"cebpf4jnsgd1na2vs0mg"},{"bike_id":"9725ee5d-bd47-447d-bc60-8d3609137de3","system_id":"levelo_inurba_marseille","lat":43.29555,"lon":5.39974,"is_reserved":false,"is_disabled":true,"rental_uris":{"android":"levelo://app?vid=9725ee5d-bd47-447d-bc60-8d3609137de3","ios":"levelo://app?vid=9725ee5d-bd47-447d-bc60-8d3609137de3"},"vehicle_type_id":"4","last_reported":1733181026,"current_range_meters":38400,"station_id":"ce4bh312rcd13ifvqdj0","pricing_plan_id":"cebpf4jnsgd1na2vs0mg"},{"bike_id":"13b522c6-2451-4718-982c-f9ce1342f93f","system_id":"levelo_inurba_marseille","lat":43.28453,"lon":5.35891,"is_reserved":false,"is_disabled":false,"rental_uris":{"android":"levelo://app?vid=13b522c6-2451-4718-982c-f9ce1342f93f","ios":"levelo://app?vid=13b522c6-2451-4718-982c-f9ce1342f93f"},"vehicle_type_id":"4","last_reported":1733181026,"current_range_meters":26800,"station_id":"ce4bhah2rcd13ifvqei0","pricing_plan_id":"cebpf4jnsgd1na2vs0mg"},{"bike_id":"9f6372a6-065a-4e4e-a232-8f126a87f16a","system_id":"levelo_inurba_marseille","lat":43.27926,"lon":5.39578,"is_reserved":false,"is_disabled":false,"rental_uris":{"android":"levelo://app?vid=9f6372a6-065a-4e4e-a232-8f126a87f16a","ios":"levelo://app?vid=9f6372a6-065a-4e4e-a232-8f126a87f16a"},"vehicle_type_id":"4","last_reported":1733181026,"current_range_meters":38000,"station_id":"ce4bhf92rcd13ifvqf40","pricing_plan_id":"cebpf4jnsgd1na2vs0mg"},