{"last_updated":1726654196,"ttl":30,"version":"2.2","data":{"bikes":[{"bike_id":"4e0e2d01-1c74-48b5-b001-b1ebd41b3ea4","system_id":"levelo_inurba_marseille","lat":43.337444,"lon":5.374475,"is_reserved":false,"is_disabled":false,"rental_uris":{"android":"levelo://app?vid=4e0e2d01-1c74-48b5-b001-b1ebd41b3ea4","ios":"levelo://app?vid=4e0e2d01-1c74-48b5-b001-b1ebd41b3ea4"},"vehicle_type_id":"4","last_reported":1726654196,"current_range_meters":28800,"station_id":"ce4bgj92rcd13ifvqbd0","pricing_plan_id":"cebpf4jnsgd1na2vs0mg"},{"bike_id":"322e1fc7-477e-479f-b0df-9ee6bb7c3f34","system_id":"levelo_inurba_marseille","lat":43.32544,"lon":5.41458,"is_reserved":false,"is_disabled":false,"rental_uris":{"android":"levelo://app?vid=322e1fc7-477e-479f-b0df-9ee6bb7c3f34","ios":"levelo://app?vid=322e1fc7-477e-479f-b0df-9ee6bb7c3f34"},"vehicle_type_id":"4","last_reported":1726654196,"current_range_meters":38800,"station_id":"ce4bhq12rcd13ifvqhhg","pricing_plan_id":"cebpf4jnsgd1na2vs0mg"},{"bike_id":"d8a7bbae-3d0e-457c-8e82-e6128d956f4d","system_id":"levelo_inurba_marseille","lat":43.2748,"lon":5.42465,"is_reserved":false,"is_disabled":false,"rental_uris":{"android":"levelo://app?vid=d8a7bbae-3d0e-457c-8e82-e6128d956f4d","ios":"levelo://app?vid=d8a7bbae-3d0e-457c-8e82-e6128d956f4d"},"vehicle_type_id":"4","last_reported":1726654196,"current_range_meters":38800,"station_id":"ce4bhn92rcd13ifvqgrg","pricing_plan_id":"cebpf4jnsgd1na2vs0mg"},{"bike_id":"43cce253-6b09-442e-81be-6c8d6d8cdaa7","system_id":"levelo_inurba_marseille","lat":43.2781,"lon":5.40721,"is_reserved":false,"is_disabled":false,"rental_uris":{"android":"levelo://app?vid=43cce253-6b09-442e-81be-6c8d6d8cdaa7","ios":"levelo://app?vid=43cce253-6b09-442e-81be-6c8d6d8cdaa7"},"vehicle_type_id":"4","last_reported":1726654196,"current_range_meters":18800,"station_id":"ce4bhnh2rcd13ifvqgtg","pricing_plan_id":"cebpf4jnsgd1na2vs0mg"},{"bike_id":"005b4cb7-40ef-46da-b28a-c870673d83f3","system_id":"levelo_inurba_marseille","lat":43.26949,"lon":5.38622,"is_reserved":false,"is_disabled":false,"rental_uris":{"android":"levelo://app?vid=005b4cb7-40ef-46da-b28a-c870673d83f3","ios":"levelo://app?vid=005b4cb7-40ef-46da-b28a-c870673d83f3"},"vehicle_type_id":"4","last_reported":1726654196,"current_range_meters":32400,"station_id":"ce4bhh92rcd13ifvqfh0","pricing_plan_id":"cebpf4jnsgd1na2vs0mg"},{"bike_id":"bb23fdb0-280d-4e2c-8275-32901ca2015e","system_id":"levelo_inurba_marseille","lat":43.273132,"lon":5.39071,"is_reserved":false,"is_disabled":false,"rental_uris":{"android":"levelo://app?vid=bb23fdb0-280d-4e2c-8275-32901ca2015e","ios":"levelo://app?vid=bb23fdb0-280d-4e2c-8275-32901ca2015e"},"vehicle_type_id":"4","last_reported":1726654196,"current_range_meters":18000,"station_id":"ce4bhgp2rcd13ifvqfe0","pricing_plan_id":"cebpf4jnsgd1na2vs0mg"},{"bike_id":"faf458fe-7be6-4c54-a850-b961043d5b27","system_id":"levelo_inurba_marseille","lat":43.32474,"lon":5.36569,"is_reserved":false,"is_disabled":false,"rental_uris":{"android":"levelo://app?vid=faf458fe-7be6-4c54-a850-b961043d5b27","ios":"levelo://app?vid=faf458fe-7be6-4c54-a850-b961043d5b27"},"vehicle_type_id":"4","last_reported":1726654196,"current_range_meters":22400,"station_id":"ce4bhs12rcd13ifvqhvg","pricing_plan_id":"cebpf4jnsgd1na2vs0mg"},{"bike_id":"43176770-eaee-4996-86c7-d408161e4ce6","system_id":"levelo_inurba_marseille","lat":43.29896,"lon":5.43665,"is_reserved":false,"is_disabled":false,"rental_uris":{"android":"levelo://app?vid=43176770-eaee-4996-86c7-d408161e4ce6","ios":"levelo://app?vid=43176770-eaee-4996-86c7-d408161e4ce6"},"vehicle_type_id":"4","last_reported":1726654196,"current_range_meters":38000,"station_id":"ce4bhpp2rcd13ifvqhfg","pricing_plan_id":"cebpf4jnsgd1na2vs0mg"},{"bike_id":"c6f98477-8ad8-4010-bfe8-cf1a5b807f62","system_id":"levelo_inurba_marseille","lat":43.24805,"lon":5.37458,"is_reserved":false,"is_disabled":false,"rental_uris":{"android":"levelo://app?vid=c6f98477-8ad8-4010-bfe8-cf1a5b807f62","ios":"levelo://app?vid=c6f98477-8ad8-4010-bfe8-cf1a5b807f62"},"vehicle_type_id":"4","last_reported":1726654196,"current_range_meters":22400,"station_id":"ce4bhgh2rcd13ifvqfb0","pricing_plan_id":"cebpf4jnsgd1na2vs0mg"},{"bike_id":"edbd79b0-53cf-4549-b49d-7de299c43db3","system_id":"levelo_inurba_marseille","lat":43.25001,"lon":5.38923,"is_reserved":false,"is_disabled":false,"rental_uris":{"android":"levelo://app?vid=edbd79b0-53cf-4549-b49d-7de299c43db3","ios":"levelo://app?vid=edbd79b0-53cf-4549-b49d-7de299c43db3"},"vehicle_type_id":"4","last_reported":1726654196,"current_range_meters":30800,"station_id":"ce4bhgp2rcd13ifvqfd0","pricing_plan_id":"cebpf4jnsgd1na2vs0mg"},{"bike_id":"4c0a51fd-1f5e-4bc9-a290-179e8152f0f4","system_id":"levelo_inurba_marseille","lat":43.30932,"lon":5.4014,"is_reserved":false,"is_disabled":false,"rental_uris":{"android":"levelo://app?vid=4c0a51fd-1f5e-4bc9-a290-179e8152f0f4","ios":"levelo://app?vid=4c0a51fd-1f5e-4bc9-a290-179e8152f0f4"},"vehicle_type_id":"4","last_reported":1726654196,"current_range_meters":33600,"station_id":"ce4bgvp2rcd13ifvqct0","pricing_plan_id":"cebpf4jnsgd1na2vs0mg"},{"bike_id":"b187d284-5dc6-4b2f-97cd-3b738292a4da","system_id":"levelo_inurba_marseille","lat":43.33742,"lon":5.37445,"is_reserved":false,"is_disabled":false,"rental_uris":{"android":"levelo://app?vid=b187d284-5dc6-4b2f-97cd-3b738292a4da","ios":"levelo://app?vid=b187d284-5dc6-4b2f-97cd-3b738292a4da"},"vehicle_type_id":"4","last_reported":1726654196,"current_range_meters":36400,"station_id":"","pricing_plan_id":"cebpf4jnsgd1na2vs0mg"},{"bike_id":"a6862d6c-bcdb-4c5e-854a-506954e7f8c0","system_id":"levelo_inurba_marseille","lat":43.25937,"lon":5.40905,"is_reserved":false,"is_disabled":false,"rental_uris":{"android":"levelo://app?vid=a6862d6c-bcdb-4c5e-854a-506954e7f8c0","ios":"levelo://app?vid=a6862d6c-bcdb-4c5e-854a-506954e7f8c0"},"vehicle_type_id":"4","last_reported":1726654196,"current_range_meters":8800,"station_id":"ce4bhm92rcd13ifvqglg","pricing_plan_id":"cebpf4jnsgd1na2vs0mg"},{"bike_id":"bac01d2d-1b8e-4f07-8927-f95d8e8f51b6","system_id":"levelo_inurba_marseille","lat":43.304264,"lon":5.388993,"is_reserved":false,"is_disabled":false,"rental_uris":{"android":"levelo://app?vid=bac01d2d-1b8e-4f07-8927-f95d8e8f51b6","ios":"levelo://app?vid=bac01d2d-1b8e-4f07-8927-f95d8e8f51b6"},"vehicle_type_id":"4","last_reported":1726654196,"current_range_meters":27600,"station_id":"ce4bgk12rcd13ifvqbi0","pricing_plan_id":"cebpf4jnsgd1na2vs0mg"},{"bike_id":"b592e2f2-3b3c-4b97-abca-4d0c4bf54e79","system_id":"levelo_inurba_marseille","lat":43.29939,"lon":5.40376,"is_reserved":false,"is_disabled":false,"rental_uris":{"android":"levelo://app?vid=b592e2f2-3b3c-4b97-abca-4d0c4bf54e79","ios":"levelo://app?vid=b592e2f2-3b3c-4b97-abca-4d0c4bf54e79"},"vehicle_type_id":"4","last_reported":1726654196,"current_range_meters":34000,"station_id":"","pricing_plan_id":"cebpf4jnsgd1na2vs0mg"},{"bike_id":"e6eab921-d7dd-4888-afed-cf650e023de2","system_id":"levelo_inurba_marseille","lat":43.29001,"lon":5.35615,"is_reserved":false,"is_disabled":false,"rental_uris":{"android":"levelo://app?vid=e6eab921-d7dd-4888-afed-cf650e023de2","ios":"levelo://app?vid=e6eab921-d7dd-4888-afed-cf650e023de2"},"vehicle_type_id":"4","last_reported":1726654196,"current_range_meters":11200,"station_id":"ce4bhb92rcd13ifvqen0","pricing_plan_id":"cebpf4jnsgd1na2vs0mg"},{"bike_id":"9f9f90d1-3da1-44c2-8148-cfa812174d72","system_id":"levelo_inurba_marseille","lat":43.29713,"lon":5.37674,"is_reserved":false,"is_disabled":false,"rental_uris":{"android":"levelo://app?vid=9f9f90d1-3da1-44c2-8148-cfa812174d72","ios":"levelo://app?vid=9f9f90d1-3da1-44c2-8148-cfa812174d72"},"vehicle_type_id":"4","last_reported":1726654196,"current_range_meters":38800,"station_id":"ce4bgkh2rcd13ifvqbl0","pricing_plan_id":"cebpf4jnsgd1na2vs0mg"},{"bike_id":"22a13925-299d-4c75-acb9-b8a234e50f22","system_id":"levelo_inurba_marseille","lat":43.29187,"lon":5.35795,"is_reserved":false,"is_disabled":false,"rental_uris":{"android":"levelo://app?vid=22a13925-299d-4c75-acb9-b8a234e50f22","ios":"levelo://app?vid=22a13925-299d-4c75-acb9-b8a234e50f22"},"vehicle_type_id":"4","last_reported":1726654196,"current_range_meters":39200,"station_id":"ce4bhb12rcd13ifvqel0","pricing_plan_id":"cebpf4jnsgd1na2vs0mg"},{"bike_id":"5309d39c-1795-43e9-bfff-4830328841b6","system_id":"levelo_inurba_marseille","lat":43.23151,"lon":5.43719,"is_reserved":false,"is_disabled":false,"rental_uris":{"android":"levelo://app?vid=5309d39c-1795-43e9-bfff-4830328841b6","ios":"levelo://app?vid=5309d39c-1795-43e9-bfff-4830328841b6"},"vehicle_type_id":"4","last_reported":1726654196,"current_range_meters":27200,"station_id":"ce4bhmp2rcd13ifvqgog","pricing_plan_id":"cebpf4jnsgd1na2vs0mg"},{"bike_id":"9321ee4e-d05d-4d6d-b6e4-d898cfa9ebfb","system_id":"levelo_inurba_marseille","lat":43.30153,"lon":5.3808,"is_reserved":false,"is_disabled":false,"rental_uris":{"android":"levelo://app?vid=9321ee4e-d05d-4d6d-b6e4-d898cfa9ebfb","ios":"levelo://app?vid=9321ee4e-d05d-4d6d-b6e4-d898cfa9ebfb"},"vehicle_type_id":"4","last_reported":1726654196,"current_range_meters":27600,"station_id":"ce4bgjp2rcd13ifvqbh0","pricing_plan_id":"cebpf4jnsgd1na2vs0mg"},{"bike_id":"44b8e75a-a99d-445b-bacf-4fe0020a7f4b","system_id":"levelo_inurba_marseille","lat":43.240761,"lon":5.377589,"is_reserved":false,"is_disabled":false,"rental_uris":{"android":"levelo://app?vid=44b8e75a-a99d-445b-bacf-4fe0020a7f4b","ios":"levelo://app?vid=44b8e75a-a99d-445b-bacf-4fe0020a7f4b"},"vehicle_type_id":"4","last_reported":1726654196,"current_range_meters":19600,"station_id":"ce4bhi12rcd13ifvqfp0","pricing_plan_id":"cebpf4jnsgd1na2vs0mg"},{"bike_id":"2388bc32-2b09-4f01-a087-4e55ecda5a0b","system_id":"levelo_inurba_marseille","lat":43.29864,"lon":5.38908,"is_reserved":false,"is_disabled":false,"rental_uris":{"android":"levelo://app?vid=2388bc32-2b09-4f01-a087-4e55ecda5a0b","ios":"levelo://app?vid=2388bc32-2b09-4f01-a087-4e55ecda5a0b"},"vehicle_type_id":"4","last_reported":1726654196,"current_range_meters":38000,"station_id":"ce4bh392rcd13ifvqdl0","pricing_plan_id":"cebpf4jnsgd1na2vs0mg"},{"bike_id":"55e7cab1-40f4-4aec-83a6-53ea70ac1ff6","system_id":"levelo_inurba_marseille","lat":43.26206,"lon":5.37442,"is_reserved":false,"is_disabled":false,"rental_uris":{"android":"levelo://app?vid=55e7cab1-40f4-4aec-83a6-53ea70ac1ff6","ios":"levelo://app?vid=55e7cab1-40f4-4aec-83a6-53ea70ac1ff6"},"vehicle_type_id":"4","last_reported":1726654196,"current_range_meters":36400,"station_id":"ce4bhgp2rcd13ifvqfc0","pricing_plan_id":"cebpf4jnsgd1na2vs0mg"},{"bike_id":"103a716b-dbc7-4e49-a7f2-16e378e92b85","system_id":"levelo_inurba_marseille","lat":43.22927,"lon":5.35373,"is_reserved":false,"is_disabled":false,"rental_uris":{"android":"levelo://app?vid=103a716b-dbc7-4e49-a7f2-16e378e92b85","ios":"levelo://app?vid=103a716b-dbc7-4e49-a7f2-16e378e92b85"},"vehicle_type_id":"4","last_reported":1726654196,"current_range_meters":25600,"station_id":"cpo3532slgdg3j2ikp40","pricing_plan_id":"cebpf4jnsgd1na2vs0mg"},{"bike_id":"7d435737-d089-47d4-87ff-2c9b69fec00e","system_id":"levelo_inurba_marseille","lat":43.29862,"lon":5.39729,"is_reserved":false,"is_disabled":false,"rental_uris":{"android":"levelo://app?vid=7d435737-d089-47d4-87ff-2c9b69fec00e","ios":"levelo://app?vid=7d435737-d089-47d4-87ff-2c9b69fec00e"},"vehicle_type_id":"4","last_reported":1726654196,"current_range_meters":19200,"station_id":"ce4bh0h2rcd13ifvqd50","pricing_plan_id":"cebpf4jnsgd1na2vs0mg"},{"bike_id":"783a1b99-984b-4d53-bbc0-3fa3cdfdfb9d","system_id":"levelo_inurba_marseille","lat":43.29303,"lon":5.37448,"is_reserved":false,"is_disabled":false,"rental_uris":{"android":"levelo://app?vid=783a1b99-984b-4d53-bbc0-3fa3cdfdfb9d","ios":"levelo://app?vid=783a1b99-984b-4d53-bbc0-3fa3cdfdfb9d"},"vehicle_type_id":"4","last_reported":1726654196,"current_range_meters":30000,"station_id":"ce4bgi12rcd13ifvqb70","pricing_plan_id":"cebpf4jnsgd1na2vs0mg"},{"bike_id":"b988df85-af70-4374-8fbf-10e18393b77b","system_id":"levelo_inurba_marseille","lat":43.30299,"lon":5.36883,"is_reserved":false,"is_disabled":false,"rental_uris":{"android":"levelo://app?vid=b988df85-af70-4374-8fbf-10e18393b77b","ios":"levelo://app?vid=b988df85-af70-4374-8fbf-10e18393b77b"},"vehicle_type_id":"4","last_reported":1726654196,"current_range_meters":38000,"station_id":"ce4bgqh2rcd13ifvqc5g","pricing_plan_id":"cebpf4jnsgd1na2vs0mg"},{"bike_id":"1e913817-e6b5-494e-a3e9-b8b6ea55243c","system_id":"levelo_inurba_marseille","lat":43.32486,"lon":5.36567,"is_reserved":false,"is_disabled":false,"rental_uris":{"android":"levelo://app?vid=1e913817-e6b5-494e-a3e9-b8b6ea55243c","ios":"levelo://app?vid=1e913817-e6b5-494e-a3e9-b8b6ea55243c"},"vehicle_type_id":"4","last_reported":1726654196,"current_range_meters":34800,"station_id":"ce4bhs12rcd13ifvqhvg","pricing_plan_id":"cebpf4jnsgd1na2vs0mg"},{"bike_id":"2ead656c-8850-4401-b04f-8b4ba65c4285","system_id":"levelo_inurba_marseille","lat":43.23175,"lon":5.39982,"is_reserved":false,"is_disabled":false,"rental_uris":{"android":"levelo://app?vid=2ead656c-8850-4401-b04f-8b4ba65c4285","ios":"levelo://app?vid=2ead656c-8850-4401-b04f-8b4ba65c4285"},"vehicle_type_id":"4","last_reported":1726654196,"current_range_meters":16000,"station_id":"ce4bhn12rcd13ifvqgqg","pricing_plan_id":"cebpf4jnsgd1na2vs0mg"},{"bike_id":"d9b62648-6378-4dbb-9f13-09848203a4fd","system_id":"levelo_inurba_marseille","lat":43.2668,"lon":5.38266,"is_reserved":false,"is_disabled":false,"rental_uris":{"android":"levelo://app?vid=d9b62648-6378-4dbb-9f13-09848203a4fd","ios":"levelo://app?vid=d9b62648-6378-4dbb-9f13-09848203a4fd"},"vehicle_type_id":"4","last_reported":1726654196,"current_range_meters":39200,"station_id":"ce4bhg92rcd13ifvqf90","pricing_plan_id":"cebpf4jnsgd1na2vs0mg"},{"bike_id":"9d28a848-109e-42f1-a592-d9c79384e0ef","system_id":"levelo_inurba_marseille","lat":43.30635,"lon":5.40081,"is_reserved":false,"is_disabled":false,"rental_uris":{"android":"levelo://app?vid=9d28a848-109e-42f1-a592-d9c79384e0ef","ios":"levelo://app?vid=9d28a848-109e-42f1-a592-d9c79384e0ef"},"vehicle_type_id":"4","last_reported":1726654196,"current_range_meters":39200,"station_id":"ce4bh112rcd13ifvqda0","pricing_plan_id":"cebpf4jnsgd1na2vs0mg"},{"bike_id":"6d68ddb3-826e-4203-a60f-36835131aa5f","system_id":"levelo_inurba_marseille","lat":43.29842,"lon":5.36266,"is_reserved":false,"is_disabled":false,"rental_uris":{"android":"levelo://app?vid=6d68ddb3-826e-4203-a60f-36835131aa5f","ios":"levelo://app?vid=6d68ddb3-826e-4203-a60f-36835131aa5f"},"vehicle_type_id":"4","last_reported":1726654196,"current_range_meters":24800,"station_id":"ce4bgpp2rcd13ifvqc3g","pricing_plan_id":"cebpf4jnsgd1na2vs0mg"},{"bike_id":"2a5808e5-1612-4dc1-a62b-b9c71459256c","system_id":"levelo_inurba_marseille","lat":43.34082,"lon":5.3911,"is_reserved":false,"is_disabled":false,"rental_uris":{"android":"levelo://app?vid=2a5808e5-1612-4dc1-a62b-b9c71459256c","ios":"levelo://app?vid=2a5808e5-1612-4dc1-a62b-b9c71459256c"},"vehicle_type_id":"4","last_reported":1726654196,"current_range_meters":5600,"station_id":"","pricing_plan_id":"cebpf4jnsgd1na2vs0mg"},{"bike_id":"cdf82ab7-5b21-42a8-b62b-7c9153e0b3ec","system_id":"levelo_inurba_marseille","lat":43.27495,"lon":5.4245,"is_reserved":false,"is_disabled":false,"rental_uris":{"android":"levelo://app?vid=cdf82ab7-5b21-42a8-b62b-7c9153e0b3ec","ios":"levelo://app?vid=cdf82ab7-5b21-42a8-b62b-7c9153e0b3ec"},"vehicle_type_id":"4","last_reported":1726654196,"current_range_meters":29600,"station_id":"ce4bhn92rcd13ifvqgrg","pricing_plan_id":"cebpf4jnsgd1na2vs0mg"},{"bike_id":"65eaf48d-8e15-4c50-a81a-08d7b23a7362","system_id":"levelo_inurba_marseille","lat":43.31079,"lon":5.42433,"is_reserved":false,"is_disabled":false,"rental_uris":{"android":"levelo://app?vid=65eaf48d-8e15-4c50-a81a-08d7b23a7362","ios":"levelo://app?vid=65eaf48d-8e15-4c50-a81a-08d7b23a7362"},"vehicle_type_id":"4","last_reported":1726654196,"current_range_meters":39200,"station_id":"ce4bhp92rcd13ifvqhag","pricing_plan_id":"cebpf4jnsgd1na2vs0mg"},{"bike_id":"b4450704-51e1-4ff8-a772-08322cc70eb7","system_id":"levelo_inurba_marseille","lat":43.23189,"lon":5.3556,"is_reserved":false,"is_disabled":false,"rental_uris":{"android":"levelo://app?vid=b4450704-51e1-4ff8-a772-08322cc70eb7","ios":"levelo://app?vid=b4450704-51e1-4ff8-a772-08322cc70eb7"},"vehicle_type_id":"4","last_reported":1726654196,"current_range_meters":36000,"station_id":"ce4bhu92rcd13ifvqi70","pricing_plan_id":"cebpf4jnsgd1na2vs0mg"},{"bike_id":"d596687b-29a5-4452-9c10-ec28b7aa9742","system_id":"levelo_inurba_marseille","lat":43.29576,"lon":5.36738,"is_reserved":false,"is_disabled":false,"rental_uris":{"android":"levelo://app?vid=d596687b-29a5-4452-9c10-ec28b7aa9742","ios":"levelo://app?vid=d596687b-29a5-4452-9c10-ec28b7aa9742"},"vehicle_type_id":"4","last_reported":1726654196,"current_range_meters":18800,"station_id":"ce4bgph2rcd13ifvqc2g","pricing_plan_id":"cebpf4jnsgd1na2vs0mg"},{"bike_id":"1e9f2167-5db4-498f-a1d0-2af35f9c5737","system_id":"levelo_inurba_marseille","lat":43.24174,"lon":5.39725,"is_reserved":false,"is_disabled":false,"rental_uris":{"android":"levelo://app?vid=1e9f2167-5db4-498f-a1d0-2af35f9c5737","ios":"levelo://app?vid=1e9f2167-5db4-498f-a1d0-2af35f9c5737"},"vehicle_type_id":"4","last_reported":1726654196,"current_range_meters":14000,"station_id":"ce4bhn12rcd13ifvqgpg","pricing_plan_id":"cebpf4jnsgd1na2vs0mg"},{"bike_id":"006ce482-40fa-4909-8827-6ef5afd423e7","system_id":"levelo_inurba_marseille","lat":43.29854,"lon":5.39747,"is_reserved":false,"is_disabled":false,"rental_uris":{"android":"levelo://app?vid=006ce482-40fa-4909-8827-6ef5afd423e7","ios":"levelo://app?vid=006ce482-40fa-4909-8827-6ef5afd423e7"},"vehicle_type_id":"4","last_reported":1726654196,"current_range_meters":30000,"station_id":"ce4bh0h2rcd13ifvqd50","pricing_plan_id":"cebpf4jnsgd1na2vs0mg"},{"bike_id":"997cb8ff-7e70-44b8-8b10-0781e0343a19","system_id":"levelo_inurba_marseille","lat":43.29002,"lon":5.35615,"is_reserved":false,"is_disabled":false,"rental_uris":{"android":"levelo://app?vid=997cb8ff-7e70-44b8-8b10-0781e0343a19","ios":"levelo://app?vid=997cb8ff-7e70-44b8-8b10-0781e0343a19"},"vehicle_type_id":"4","last_reported":1726654196,"current_range_meters":40000,"station_id":"ce4bhb92rcd13ifvqen0","pricing_plan_id":"cebpf4jnsgd1na2vs0mg"},{"bike_id":"f884c139-5e70-4b5c-839d-930bc641f4ea","system_id":"levelo_inurba_marseille","lat":43.24995,"lon":5.38923,"is_reserved":false,"is_disabled":false,"rental_uris":{"android":"levelo://app?vid=f884c139-5e70-4b5c-839d-930bc641f4ea","ios":"levelo://app?vid=f884c139-5e70-4b5c-839d-930bc641f4ea"},"vehicle_type_id":"4","last_reported":1726654196,"current_range_meters":39200,"station_id":"ce4bhgp2rcd13ifvqfd0","pricing_plan_id":"cebpf4jnsgd1na2vs0mg"},{"bike_id":"cd0f42ce-36e1-451d-a8d6-83165da26714","system_id":"levelo_inurba_marseille","lat":43.29863,"lon":5.39748,"is_reserved":false,"is_disabled":false,"rental_uris":{"android":"levelo://app?vid=cd0f42ce-36e1-451d-a8d6-83165da26714","ios":"levelo://app?vid=cd0f42ce-36e1-451d-a8d6-83165da26714"},"vehicle_type_id":"4","last_reported":1726654196,"current_range_meters":24800,"station_id":"ce4bh0h2rcd13ifvqd50","pricing_plan_id":"cebpf4jnsgd1na2vs0mg"},{"bike_id":"c2667222-5d26-4d9c-a938-761c480fe584","system_id":"levelo_inurba_marseille","lat":43.33026,"lon":5.39036,"is_reserved":false,"is_disabled":false,"rental_uris":{"android":"levelo://app?vid=c2667222-5d26-4d9c-a938-761c480fe584","ios":"levelo://app?vid=c2667222-5d26-4d9c-a938-761c480fe584"},"vehicle_type_id":"4","last_reported":1726654196,"current_range_meters":11200,"station_id":"ce4bhr92rcd13ifvqhrg","pricing_plan_id":"cebpf4jnsgd1na2vs0mg"},{"bike_id":"d2648441-8611-4e86-b6a3-95e5dd6d09df","system_id":"levelo_inurba_marseille","lat":43.24648,"lon":5.38892,"is_reserved":false,"is_disabled":false,"rental_uris":{"android":"levelo://app?vid=d2648441-8611-4e86-b6a3-95e5dd6d09df","ios":"levelo://app?vid=d2648441-8611-4e86-b6a3-95e5dd6d09df"},"vehicle_type_id":"4","last_reported":1726654196,"current_range_meters":39200,"station_id":"ce4bhg12rcd13ifvqf60","pricing_plan_id":"cebpf4jnsgd1na2vs0mg"},{"bike_id":"442c5059-0433-4ca9-94c3-1cf6dbafc57d","system_id":"levelo_inurba_marseille","lat":43.30147,"lon":5.38084,"is_reserved":false,"is_disabled":false,"rental_uris":{"android":"levelo://app?vid=442c5059-0433-4ca9-94c3-1cf6dbafc57d","ios":"levelo://app?vid=442c5059-0433-4ca9-94c3-1cf6dbafc57d"},"vehicle_type_id":"4","last_reported":1726654196,"current_range_meters":33200,"station_id":"ce4bgjp2rcd13ifvqbh0","pricing_plan_id":"cebpf4jnsgd1na2vs0mg"},{"bike_id":"ec3f636a-f5ea-4ad3-b5fb-a36413f34fbf","system_id":"levelo_inurba_marseille","lat":43.27486,"lon":5.42455,"is_reserved":false,"is_disabled":false,"rental_uris":{"android":"levelo://app?vid=ec3f636a-f5ea-4ad3-b5fb-a36413f34fbf","ios":"levelo://app?vid=ec3f636a-f5ea-4ad3-b5fb-a36413f34fbf"},"vehicle_type_id":"4","last_reported":1726654196,"current_range_meters":16000,"station_id":"ce4bhn92rcd13ifvqgrg","pricing_plan_id":"cebpf4jnsgd1na2vs0mg"},{"bike_id":"091c6bdc-542c-4ec3-a185-7db76c8de25a","system_id":"levelo_inurba_marseille","lat":43.231781,"lon":5.399885,"is_reserved":false,"is_disabled":false,"rental_uris":{"android":"levelo://app?vid=091c6bdc-542c-4ec3-a185-7db76c8de25a","ios":"levelo://app?vid=091c6bdc-542c-4ec3-a185-7db76c8de25a"},"vehicle_type_id":"4","last_reported":1726654196,"current_range_meters":31200,"station_id":"ce4bhn12rcd13ifvqgqg","pricing_plan_id":"cebpf4jnsgd1na2vs0mg"},{"bike_id":"19589ba5-4ec4-4f07-bb6e-2bdc4a985826","system_id":"levelo_inurba_marseille","lat":43.29155,"lon":5.37153,"is_reserved":false,"is_disabled":false,"rental_uris":{"android":"levelo://app?vid=19589ba5-4ec4-4f07-bb6e-2bdc4a985826","ios":"levelo://app?vid=19589ba5-4ec4-4f07-bb6e-2bdc4a985826"},"vehicle_type_id":"4","last_reported":1726654196,"current_range_meters":40000,"station_id":"ce4bha92rcd13ifvqeh0","pricing_plan_id":"cebpf4jnsgd1na2vs0mg"},{"bike_id":"b80dd0cb-ff97-42cc-9c36-84d3c377c223","system_id":"levelo_inurba_marseille","lat":43.3054,"lon":5.36547,"is_reserved":false,"is_disabled":false,"rental_uris":{"android":"levelo://app?vid=b80dd0cb-ff97-42cc-9c36-84d3c377c223","ios":"levelo://app?vid=b80dd0cb-ff97-42cc-9c36-84d3c377c223"},"vehicle_type_id":"4","last_reported":1726654196,"current_range_meters":9200,"station_id":"ce4bgs12rcd13ifvqcag","pricing_plan_id":"cebpf4jnsgd1na2vs0mg"},{"bike_id":"74cf48ce-0c7c-49e2-81d6-547ab0656005","system_id":"levelo_inurba_marseille","lat":43.23151,"lon":5.43709,"is_reserved":false,"is_disabled":false,"rental_uris":{"android":"levelo://app?vid=74cf48ce-0c7c-49e2-81d6-547ab0656005","ios":"levelo://app?vid=74cf48ce-0c7c-49e2-81d6-547ab0656005"},"vehicle_type_id":"4","last_reported":1726654196,"current_range_meters":4800,"station_id":"ce4bhmp2rcd13ifvqgog","pricing_plan_id":"cebpf4jnsgd1na2vs0mg"},{"bike_id":"5e22b78d-a19f-4c84-859e-5ca877c7909a","system_id":"levelo_inurba_marseille","lat":43.24176,"lon":5.39716,"is_reserved":false,"is_disabled":false,"rental_uris":{"android":"levelo://app?vid=5e22b78d-a19f-4c84-859e-5ca877c7909a","ios":"levelo://app?vid=5e22b78d-a19f-4c84-859e-5ca877c7909a"},"vehicle_type_id":"4","last_reported":1726654196,"current_range_meters":19600,"station_id":"ce4bhn12rcd13ifvqgpg","pricing_plan_id":"cebpf4jnsgd1na2vs0mg"},{"bike_id":"d52a4dcf-8657-4900-bbac-49ef64766ac6","system_id":"levelo_inurba_marseille","lat":43.306902,"lon":5.36607,"is_reserved":false,"is_disabled":false,"rental_uris":{"android":"levelo://app?vid=d52a4dcf-8657-4900-bbac-49ef64766ac6","ios":"levelo://app?vid=d52a4dcf-8657-4900-bbac-49ef64766ac6"},"vehicle_type_id":"4","last_reported":1726654196,"current_range_meters":11600,"station_id":"ce4bgs12rcd13ifvqcag","pricing_plan_id":"cebpf4jnsgd1na2vs0mg"},{"bike_id":"85accb8b-04bf-4b10-bd64-d66dfa393f45","system_id":"levelo_inurba_marseille","lat":43.26556,"lon":5.37284,"is_reserved":false,"is_disabled":false,"rental_uris":{"android":"levelo://app?vid=85accb8b-04bf-4b10-bd64-d66dfa393f45","ios":"levelo://app?vid=85accb8b-04bf-4b10-bd64-d66dfa393f45"},"vehicle_type_id":"4","last_reported":1726654196,"current_range_meters":21600,"station_id":"ce4bhg12rcd13ifvqf70","pricing_plan_id":"cebpf4jnsgd1na2vs0mg"},{"bike_id":"68403b74-01fe-498c-8422-2a90ce77d48e","system_id":"levelo_inurba_marseille","lat":43.29647,"lon":5.37154,"is_reserved":false,"is_disabled":false,"rental_uris":{"android":"levelo://app?vid=68403b74-01fe-498c-8422-2a90ce77d48e","ios":"levelo://app?vid=68403b74-01fe-498c-8422-2a90ce77d48e"},"vehicle_type_id":"4","last_reported":1726654196,"current_range_meters":24400,"station_id":"ce4bgnh2rcd13ifvqc0g","pricing_plan_id":"cebpf4jnsgd1na2vs0mg"},{"bike_id":"808c7029-a1ec-41e4-8bf2-805809b0bfc7","system_id":"levelo_inurba_marseille","lat":43.29579,"lon":5.36734,"is_reserved":false,"is_disabled":false,"rental_uris":{"android":"levelo://app?vid=808c7029-a1ec-41e4-8bf2-805809b0bfc7","ios":"levelo://app?vid=808c7029-a1ec-41e4-8bf2-805809b0bfc7"},"vehicle_type_id":"4","last_reported":1726654196,"current_range_meters":39200,"station_id":"ce4bgph2rcd13ifvqc2g","pricing_plan_id":"cebpf4jnsgd1na2vs0mg"},{"bike_id":"66127129-8160-4ecf-b52d-2134894b1647","system_id":"levelo_inurba_marseille","lat":43.28608,"lon":5.37059,"is_reserved":false,"is_disabled":false,"rental_uris":{"android":"levelo://app?vid=66127129-8160-4ecf-b52d-2134894b1647","ios":"levelo://app?vid=66127129-8160-4ecf-b52d-2134894b1647"},"vehicle_type_id":"4","last_reported":1726654196,"current_range_meters":38000,"station_id":"ce4bht12rcd13ifvqi60","pricing_plan_id":"cebpf4jnsgd1na2vs0mg"},{"bike_id":"d36aa5c6-02cb-4d4b-b5f7-ebc31affb453","system_id":"levelo_inurba_marseille","lat":43.29717,"lon":5.37676,"is_reserved":false,"is_disabled":false,"rental_uris":{"android":"levelo://app?vid=d36aa5c6-02cb-4d4b-b5f7-ebc31affb453","ios":"levelo://app?vid=d36aa5c6-02cb-4d4b-b5f7-ebc31affb453"},"vehicle_type_id":"4","last_reported":1726654196,"current_range_meters":38800,"station_id":"ce4bgj92rcd13ifvqbd0","pricing_plan_id":"cebpf4jnsgd1na2vs0mg"},{"bike_id":"55b5a4cc-060d-4660-b59a-73a2200a56fb","system_id":"levelo_inurba_marseille","lat":43.2315,"lon":5.43722,"is_reserved":false,"is_disabled":false,"rental_uris":{"android":"levelo://app?vid=55b5a4cc-060d-4660-b59a-73a2200a56fb","ios":"levelo://app?vid=55b5a4cc-060d-4660-b59a-73a2200a56fb"},"vehicle_type_id":"4","last_reported":1726654196,"current_range_meters":17600,"station_id":"ce4bhmp2rcd13ifvqgog","pricing_plan_id":"cebpf4jnsgd1na2vs0mg"},{"bike_id":"8ea6a708-68b1-4611-bdb7-f70a6168e26e","system_id":"levelo_inurba_marseille","lat":43.30308,"lon":5.36869,"is_reserved":false,"is_disabled":false,"rental_uris":{"android":"levelo://app?vid=8ea6a708-68b1-4611-bdb7-f70a6168e26e","ios":"levelo://app?vid=8ea6a708-68b1-4611-bdb7-f70a6168e26e"},"vehicle_type_id":"4","last_reported":1726654196,"current_range_meters":27200,"station_id":"ce4bgqh2rcd13ifvqc5g","pricing_plan_id":"cebpf4jnsgd1na2vs0mg"},{"bike_id":"5d560c02-7700-470a-a3c4-a225763dc554","system_id":"levelo_inurba_marseille","lat":43.30539,"lon":5.36716,"is_reserved":false,"is_disabled":false,"rental_uris":{"android":"levelo://app?vid=5d560c02-7700-470a-a3c4-a225763dc554","ios":"levelo://app?vid=5d560c02-7700-470a-a3c4-a225763dc554"},"vehicle_type_id":"4","last_reported":1726654196,"current_range_meters":40000,"station_id":"ce4bgrp2rcd13ifvqc9g","pricing_plan_id":"cebpf4jnsgd1na2vs0mg"},{"bike_id":"465d066b-0e3e-4b5e-832f-ed1109f6383d","system_id":"levelo_inurba_marseille","lat":43.33016,"lon":5.39025,"is_reserved":false,"is_disabled":false,"rental_uris":{"android":"levelo://app?vid=465d066b-0e3e-4b5e-832f-ed1109f6383d","ios":"levelo://app?vid=465d066b-0e3e-4b5e-832f-ed1109f6383d"},"vehicle_type_id":"4","last_reported":1726654196,"current_range_meters":8400,"station_id":"ce4bhr92rcd13ifvqhrg","pricing_plan_id":"cebpf4jnsgd1na2vs0mg"},{"bike_id":"c7f93bf2-2b30-4c5c-aa72-447b3f4a28ea","system_id":"levelo_inurba_marseille","lat":43.29895,"lon":5.4366,"is_reserved":false,"is_disabled":false,"rental_uris":{"android":"levelo://app?vid=c7f93bf2-2b30-4c5c-aa72-447b3f4a28ea","ios":"levelo://app?vid=c7f93bf2-2b30-4c5c-aa72-447b3f4a28ea"},"vehicle_type_id":"4","last_reported":1726654196,"current_range_meters":4800,"station_id":"ce4bhpp2rcd13ifvqhfg","pricing_plan_id":"cebpf4jnsgd1na2vs0mg"},{"bike_id":"14f021dd-819a-4b56-8320-959e7607ac2f","system_id":"levelo_inurba_marseille","lat":43.2481,"lon":5.37461,"is_reserved":false,"is_disabled":false,"rental_uris":{"android":"levelo://app?vid=14f021dd-819a-4b56-8320-959e7607ac2f","ios":"levelo://app?vid=14f021dd-819a-4b56-8320-959e7607ac2f"},"vehicle_type_id":"4","last_reported":1726654196,"current_range_meters":32000,"station_id":"ce4bhgh2rcd13ifvqfb0","pricing_plan_id":"cebpf4jnsgd1na2vs0mg"},{"bike_id":"ed69e130-7cee-4db1-9e10-0d56961305c9","system_id":"levelo_inurba_marseille","lat":43.24169,"lon":5.36399,"is_reserved":false,"is_disabled":false,"rental_uris":{"android":"levelo://app?vid=ed69e130-7cee-4db1-9e10-0d56961305c9","ios":"levelo://app?vid=ed69e130-7cee-4db1-9e10-0d56961305c9"},"vehicle_type_id":"4","last_reported":1726654196,"current_range_meters":26800,"station_id":"cpo36qri1sfpv3e86is0","pricing_plan_id":"cebpf4jnsgd1na2vs0mg"},{"bike_id":"9868a70c-7278-4f52-9e1f-1ff70cfe14db","system_id":"levelo_inurba_marseille","lat":43.28354,"lon":5.38634,"is_reserved":false,"is_disabled":false,"rental_uris":{"android":"levelo://app?vid=9868a70c-7278-4f52-9e1f-1ff70cfe14db","ios":"levelo://app?vid=9868a70c-7278-4f52-9e1f-1ff70cfe14db"},"vehicle_type_id":"4","last_reported":1726654196,"current_range_meters":14400,"station_id":"ce4bh492rcd13ifvqdvg","pricing_plan_id":"cebpf4jnsgd1na2vs0mg"},{"bike_id":"d33d16c9-f2bf-41b4-b3dc-22b0407c2359","system_id":"levelo_inurba_marseille","lat":43.27485,"lon":5.42455,"is_reserved":false,"is_disabled":false,"rental_uris":{"android":"levelo://app?vid=d33d16c9-f2bf-41b4-b3dc-22b0407c2359","ios":"levelo://app?vid=d33d16c9-f2bf-41b4-b3dc-22b0407c2359"},"vehicle_type_id":"4","last_reported":1726654196,"current_range_meters":25600,"station_id":"ce4bhn92rcd13ifvqgrg","pricing_plan_id":"cebpf4jnsgd1na2vs0mg"},{"bike_id":"63013e01-6392-44a9-b405-39bece6d2d4d","system_id":"levelo_inurba_marseille","lat":43.31083,"lon":5.42431,"is_reserved":false,"is_disabled":false,"rental_uris":{"android":"levelo://app?vid=63013e01-6392-44a9-b405-39bece6d2d4d","ios":"levelo://app?vid=63013e01-6392-44a9-b405-39bece6d2d4d"},"vehicle_type_id":"4","last_reported":1726654196,"current_range_meters":30000,"station_id":"ce4bhp92rcd13ifvqhag","pricing_plan_id":"cebpf4jnsgd1na2vs0mg"},{"bike_id":"1b5a3615-4988-4982-8b62-9226ed5a66a6","system_id":"levelo_inurba_marseille","lat":43.31348,"lon":5.38283,"is_reserved":false,"is_disabled":false,"rental_uris":{"android":"levelo://app?vid=1b5a3615-4988-4982-8b62-9226ed5a66a6","ios":"levelo://app?vid=1b5a3615-4988-4982-8b62-9226ed5a66a6"},"vehicle_type_id":"4","last_reported":1726654196,"current_range_meters":3200,"station_id":"","pricing_plan_id":"cebpf4jnsgd1na2vs0mg"},{"bike_id":"80d1eb54-6334-4c2f-a160-7e4b5cb79537","system_id":"levelo_inurba_marseille","lat":43.29958,"lon":5.41338,"is_reserved":false,"is_disabled":false,"rental_uris":{"android":"levelo://app?vid=80d1eb54-6334-4c2f-a160-7e4b5cb79537","ios":"levelo://app?vid=80d1eb54-6334-4c2f-a160-7e4b5cb79537"},"vehicle_type_id":"4","last_reported":1726654196,"current_range_meters":36000,"station_id":"ce4bhp12rcd13ifvqh9g","pricing_plan_id":"cebpf4jnsgd1na2vs0mg"},{"bike_id":"62b9b305-d462-4a42-b213-c9ac0a381b1d","system_id":"levelo_inurba_marseille","lat":43.2742,"lon":5.39424,"is_reserved":false,"is_disabled":false,"rental_uris":{"android":"levelo://app?vid=62b9b305-d462-4a42-b213-c9ac0a381b1d","ios":"levelo://app?vid=62b9b305-d462-4a42-b213-c9ac0a381b1d"},"vehicle_type_id":"4","last_reported":1726654196,"current_range_meters":4400,"station_id":"ce4bhdp2rcd13ifvqf20","pricing_plan_id":"cebpf4jnsgd1na2vs0mg"},{"bike_id":"b88d8bac-711e-49d2-9eee-8f0f2fcec434","system_id":"levelo_inurba_marseille","lat":43.33027,"lon":5.39034,"is_reserved":false,"is_disabled":false,"rental_uris":{"android":"levelo://app?vid=b88d8bac-711e-49d2-9eee-8f0f2fcec434","ios":"levelo://app?vid=b88d8bac-711e-49d2-9eee-8f0f2fcec434"},"vehicle_type_id":"4","last_reported":1726654196,"current_range_meters":25600,"station_id":"ce4bhr92rcd13ifvqhrg","pricing_plan_id":"cebpf4jnsgd1na2vs0mg"},{"bike_id":"51c8f926-dd42-4188-8ae9-9d5cbb2f7e71","system_id":"levelo_inurba_marseille","lat":43.24179,"lon":5.39728,"is_reserved":false,"is_disabled":false,"rental_uris":{"android":"levelo://app?vid=51c8f926-dd42-4188-8ae9-9d5cbb2f7e71","ios":"levelo://app?vid=51c8f926-dd42-4188-8ae9-9d5cbb2f7e71"},"vehicle_type_id":"4","last_reported":1726654196,"current_range_meters":20400,"station_id":"ce4bhn12rcd13ifvqgpg","pricing_plan_id":"cebpf4jnsgd1na2vs0mg"},{"bike_id":"d29f50cf-a565-48b9-b502-f74324cfe4c0","system_id":"levelo_inurba_marseille","lat":43.24543,"lon":5.39531,"is_reserved":false,"is_disabled":false,"rental_uris":{"android":"levelo://app?vid=d29f50cf-a565-48b9-b502-f74324cfe4c0","ios":"levelo://app?vid=d29f50cf-a565-48b9-b502-f74324cfe4c0"},"vehicle_type_id":"4","last_reported":1726654196,"current_range_meters":26000,"station_id":"ce4bhlp2rcd13ifvqgjg","pricing_plan_id":"cebpf4jnsgd1na2vs0mg"},{"bike_id":"2e2254f6-d3ed-4277-af5f-ee204e464f40","system_id":"levelo_inurba_marseille","lat":43.29943,"lon":5.41324,"is_reserved":false,"is_disabled":false,"rental_uris":{"android":"levelo://app?vid=2e2254f6-d3ed-4277-af5f-ee204e464f40","ios":"levelo://app?vid=2e2254f6-d3ed-4277-af5f-ee204e464f40"},"vehicle_type_id":"4","last_reported":1726654196,"current_range_meters":36000,"station_id":"ce4bhp12rcd13ifvqh9g","pricing_plan_id":"cebpf4jnsgd1na2vs0mg"},{"bike_id":"8fb87ab6-aead-4858-bee6-adab0057accf","system_id":"levelo_inurba_marseille","lat":43.30793,"lon":5.38795,"is_reserved":false,"is_disabled":false,"rental_uris":{"android":"levelo://app?vid=8fb87ab6-aead-4858-bee6-adab0057accf","ios":"levelo://app?vid=8fb87ab6-aead-4858-bee6-adab0057accf"},"vehicle_type_id":"4","last_reported":1726654196,"current_range_meters":20000,"station_id":"","pricing_plan_id":"cebpf4jnsgd1na2vs0mg"},{"bike_id":"fec5e1d4-a494-4b7c-a879-ec895a3d4d47","system_id":"levelo_inurba_marseille","lat":43.29899,"lon":5.4367,"is_reserved":false,"is_disabled":false,"rental_uris":{"android":"levelo://app?vid=fec5e1d4-a494-4b7c-a879-ec895a3d4d47","ios":"levelo://app?vid=fec5e1d4-a494-4b7c-a879-ec895a3d4d47"},"vehicle_type_id":"4","last_reported":1726654196,"current_range_meters":10800,"station_id":"ce4bhpp2rcd13ifvqhfg","pricing_plan_id":"cebpf4jnsgd1na2vs0mg"},{"bike_id":"f2cc5877-7adb-4f4a-9f11-20ee9f72e78a","system_id":"levelo_inurba_marseille","lat":43.26939,"lon":5.3863,"is_reserved":false,"is_disabled":false,"rental_uris":{"android":"levelo://app?vid=f2cc5877-7adb-4f4a-9f11-20ee9f72e78a","ios":"levelo://app?vid=f2cc5877-7adb-4f4a-9f11-20ee9f72e78a"},"vehicle_type_id":"4","last_reported":1726654196,"current_range_meters":12800,"station_id":"ce4bhh92rcd13ifvqfh0","pricing_plan_id":"cebpf4jnsgd1na2vs0mg"},{"bike_id":"8cb592d9-f82f-4171-894f-8d7ffa6525e5","system_id":"levelo_inurba_marseille","lat":43.23187,"lon":5.35547,"is_reserved":false,"is_disabled":false,"rental_uris":{"android":"levelo://app?vid=8cb592d9-f82f-4171-894f-8d7ffa6525e5","ios":"levelo://app?vid=8cb592d9-f82f-4171-894f-8d7ffa6525e5"},"vehicle_type_id":"4","last_reported":1726654196,"current_range_meters":14400,"station_id":"ce4bhu92rcd13ifvqi70","pricing_plan_id":"cebpf4jnsgd1na2vs0mg"},{"bike_id":"79cad5b6-9cb0-4262-b39c-374cdf1c25d1","system_id":"levelo_inurba_marseille","lat":43.32476,"lon":5.36561,"is_reserved":false,"is_disabled":false,"rental_uris":{"android":"levelo://app?vid=79cad5b6-9cb0-4262-b39c-374cdf1c25d1","ios":"levelo://app?vid=79cad5b6-9cb0-4262-b39c-374cdf1c25d1"},"vehicle_type_id":"4","last_reported":1726654196,"current_range_meters":38800,"station_id":"ce4bhs12rcd13ifvqhvg","pricing_plan_id":"cebpf4jnsgd1na2vs0mg"},{"bike_id":"beb649bf-3eec-4dfb-8a0d-d0955fc90fb0","system_id":"levelo_inurba_marseille","lat":43.30143,"lon":5.37414,"is_reserved":false,"is_disabled":false,"rental_uris":{"android":"levelo://app?vid=beb649bf-3eec-4dfb-8a0d-d0955fc90fb0","ios":"levelo://app?vid=beb649bf-3eec-4dfb-8a0d-d0955fc90fb0"},"vehicle_type_id":"4","last_reported":1726654196,"current_range_meters":37600,"station_id":"ce4bgs92rcd13ifvqcc0","pricing_plan_id":"cebpf4jnsgd1na2vs0mg"},{"bike_id":"eed01a6a-3c08-4376-8016-dbd644c0e8ff","system_id":"levelo_inurba_marseille","lat":43.31216,"lon":5.36859,"is_reserved":false,"is_disabled":false,"rental_uris":{"android":"levelo://app?vid=eed01a6a-3c08-4376-8016-dbd644c0e8ff","ios":"levelo://app?vid=eed01a6a-3c08-4376-8016-dbd644c0e8ff"},"vehicle_type_id":"4","last_reported":1726654196,"current_range_meters":20000,"station_id":"ce4bgl92rcd13ifvqbq0","pricing_plan_id":"cebpf4jnsgd1na2vs0mg"},{"bike_id":"0caf0b63-60bb-4994-89f8-3e8519b95de5","system_id":"levelo_inurba_marseille","lat":43.3027,"lon":5.37709,"is_reserved":false,"is_disabled":false,"rental_uris":{"android":"levelo://app?vid=0caf0b63-60bb-4994-89f8-3e8519b95de5","ios":"levelo://app?vid=0caf0b63-60bb-4994-89f8-3e8519b95de5"},"vehicle_type_id":"4","last_reported":1726654196,"current_range_meters":30000,"station_id":"ce4bguh2rcd13ifvqcj0","pricing_plan_id":"cebpf4jnsgd1na2vs0mg"},{"bike_id":"c3bcca86-6294-4639-9d07-9722d40f464e","system_id":"levelo_inurba_marseille","lat":43.29899,"lon":5.43669,"is_reserved":false,"is_disabled":false,"rental_uris":{"android":"levelo://app?vid=c3bcca86-6294-4639-9d07-9722d40f464e","ios":"levelo://app?vid=c3bcca86-6294-4639-9d07-9722d40f464e"},"vehicle_type_id":"4","last_reported":1726654196,"current_range_meters":24400,"station_id":"ce4bhpp2rcd13ifvqhfg","pricing_plan_id":"cebpf4jnsgd1na2vs0mg"},{"bike_id":"fa77e604-95b4-476d-a30f-499c3aaf710d","system_id":"levelo_inurba_marseille","lat":43.33728,"lon":5.39177,"is_reserved":false,"is_disabled":false,"rental_uris":{"android":"levelo://app?vid=fa77e604-95b4-476d-a30f-499c3aaf710d","ios":"levelo://app?vid=fa77e604-95b4-476d-a30f-499c3aaf710d"},"vehicle_type_id":"4","last_reported":1726654196,"current_range_meters":4400,"station_id":"ce4bhr92rcd13ifvqhsg","pricing_plan_id":"cebpf4jnsgd1na2vs0mg"},{"bike_id":"fa5da692-ab2b-4584-95fd-e1b9dbb52255","system_id":"levelo_inurba_marseille","lat":43.29291,"lon":5.3746,"is_reserved":false,"is_disabled":false,"rental_uris":{"android":"levelo://app?vid=fa5da692-ab2b-4584-95fd-e1b9dbb52255","ios":"levelo://app?vid=fa5da692-ab2b-4584-95fd-e1b9dbb52255"},"vehicle_type_id":"4","last_reported":1726654196,"current_range_meters":13600,"station_id":"ce4bgi12rcd13ifvqb70","pricing_plan_id":"cebpf4jnsgd1na2vs0mg"},{"bike_id":"8e3c84db-879d-4669-8d43-f74eed3d4c1b","system_id":"levelo_inurba_marseille","lat":43.27372,"lon":5.36258,"is_reserved":false,"is_disabled":false,"rental_uris":{"android":"levelo://app?vid=8e3c84db-879d-4669-8d43-f74eed3d4c1b","ios":"levelo://app?vid=8e3c84db-879d-4669-8d43-f74eed3d4c1b"},"vehicle_type_id":"4","last_reported":1726654196,"current_range_meters":39200,"station_id":"ce4bhbh2rcd13ifvqeo0","pricing_plan_id":"cebpf4jnsgd1na2vs0mg"},{"bike_id":"00e75aa4-679c-42d6-be48-906ec2eca445","system_id":"levelo_inurba_marseille","lat":43.30535,"lon":5.3655,"is_reserved":false,"is_disabled":false,"rental_uris":{"android":"levelo://app?vid=00e75aa4-679c-42d6-be48-906ec2eca445","ios":"levelo://app?vid=00e75aa4-679c-42d6-be48-906ec2eca445"},"vehicle_type_id":"4","last_reported":1726654196,"current_range_meters":32400,"station_id":"ce4bgs12rcd13ifvqcag","pricing_plan_id":"cebpf4jnsgd1na2vs0mg"},{"bike_id":"b5cc06aa-fd0a-4f16-9512-cc0ee529c93f","system_id":"levelo_inurba_marseille","lat":43.23145,"lon":5.43714,"is_reserved":false,"is_disabled":false,"rental_uris":{"android":"levelo://app?vid=b5cc06aa-fd0a-4f16-9512-cc0ee529c93f","ios":"levelo://app?vid=b5cc06aa-fd0a-4f16-9512-cc0ee529c93f"},"vehicle_type_id":"4","last_reported":1726654196,"current_range_meters":25600,"station_id":"ce4bhmp2rcd13ifvqgog","pricing_plan_id":"cebpf4jnsgd1na2vs0mg"},{"bike_id":"b1db6496-7d7b-4acc-a88c-e5406d38e100","system_id":"levelo_inurba_marseille","lat":43.2319,"lon":5.3555,"is_reserved":false,"is_disabled":false,"rental_uris":{"android":"levelo://app?vid=b1db6496-7d7b-4acc-a88c-e5406d38e100","ios":"levelo://app?vid=b1db6496-7d7b-4acc-a88c-e5406d38e100"},"vehicle_type_id":"4","last_reported":1726654196,"current_range_meters":23200,"station_id":"ce4bhu92rcd13ifvqi70","pricing_plan_id":"cebpf4jnsgd1na2vs0mg"},{"bike_id":"e2f7730b-250e-4f0e-bbb2-91393697569a","system_id":"levelo_inurba_marseille","lat":43.24079,"lon":5.37753,"is_reserved":false,"is_disabled":false,"rental_uris":{"android":"levelo://app?vid=e2f7730b-250e-4f0e-bbb2-91393697569a","ios":"levelo://app?vid=e2f7730b-250e-4f0e-bbb2-91393697569a"},"vehicle_type_id":"4","last_reported":1726654196,"current_range_meters":28000,"station_id":"ce4bhnp2rcd13ifvqgvg","pricing_plan_id":"cebpf4jnsgd1na2vs0mg"},{"bike_id":"14e9527e-f89e-4f54-89ab-2a7154c3c673","system_id":"levelo_inurba_marseille","lat":43.283508,"lon":5.381074,"is_reserved":false,"is_disabled":false,"rental_uris":{"android":"levelo://app?vid=14e9527e-f89e-4f54-89ab-2a7154c3c673","ios":"levelo://app?vid=14e9527e-f89e-4f54-89ab-2a7154c3c673"},"vehicle_type_id":"4","last_reported":1726654196,"current_range_meters":36400,"station_id":"ce4bhjp2rcd13ifvqg90","pricing_plan_id":"cebpf4jnsgd1na2vs0mg"},{"bike_id":"d0d8fbfa-4de4-42a7-9832-5e25d5f2fdfb","system_id":"levelo_inurba_marseille","lat":43.30534,"lon":5.3654,"is_reserved":false,"is_disabled":false,"rental_uris":{"android":"levelo://app?vid=d0d8fbfa-4de4-42a7-9832-5e25d5f2fdfb","ios":"levelo://app?vid=d0d8fbfa-4de4-42a7-9832-5e25d5f2fdfb"},"vehicle_type_id":"4","last_reported":1726654196,"current_range_meters":36800,"station_id":"ce4bgs12rcd13ifvqcag","pricing_plan_id":"cebpf4jnsgd1na2vs0mg"},{"bike_id":"6d2c6d26-e70c-44f3-96e7-0994538f7f94","system_id":"levelo_inurba_marseille","lat":43.30774,"lon":5.37648,"is_reserved":false,"is_disabled":false,"rental_uris":{"android":"levelo://app?vid=6d2c6d26-e70c-44f3-96e7-0994538f7f94","ios":"levelo://app?vid=6d2c6d26-e70c-44f3-96e7-0994538f7f94"},"vehicle_type_id":"4","last_reported":1726654196,"current_range_meters":25200,"station_id":"ce4bgv92rcd13ifvqcq0","pricing_plan_id":"cebpf4jnsgd1na2vs0mg"},{"bike_id":"a14d54e9-e77f-4b0a-976d-f618ad10ea71","system_id":"levelo_inurba_marseille","lat":43.24386,"lon":5.37055,"is_reserved":false,"is_disabled":false,"rental_uris":{"android":"levelo://app?vid=a14d54e9-e77f-4b0a-976d-f618ad10ea71","ios":"levelo://app?vid=a14d54e9-e77f-4b0a-976d-f618ad10ea71"},"vehicle_type_id":"4","last_reported":1726654196,"current_range_meters":35600,"station_id":"ce4bhhh2rcd13ifvqfk0","pricing_plan_id":"cebpf4jnsgd1na2vs0mg"},{"bike_id":"7a1aefa5-3f47-4fb6-b298-3120a02f47d7","system_id":"levelo_inurba_marseille","lat":43.32471,"lon":5.36561,"is_reserved":false,"is_disabled":false,"rental_uris":{"android":"levelo://app?vid=7a1aefa5-3f47-4fb6-b298-3120a02f47d7","ios":"levelo://app?vid=7a1aefa5-3f47-4fb6-b298-3120a02f47d7"},"vehicle_type_id":"4","last_reported":1726654196,"current_range_meters":36800,"station_id":"ce4bhs12rcd13ifvqhvg","pricing_plan_id":"cebpf4jnsgd1na2vs0mg"},{"bike_id":"db553283-41fe-4112-95e7-36513c32f692","system_id":"levelo_inurba_marseille","lat":43.25581,"lon":5.38221,"is_reserved":false,"is_disabled":false,"rental_uris":{"android":"levelo://app?vid=db553283-41fe-4112-95e7-36513c32f692","ios":"levelo://app?vid=db553283-41fe-4112-95e7-36513c32f692"},"vehicle_type_id":"4","last_reported":1726654196,"current_range_meters":24400,"station_id":"ce4bhih2rcd13ifvqfs0","pricing_plan_id":"cebpf4jnsgd1na2vs0mg"},{"bike_id":"36b1fd1e-311b-44f8-9ca4-725c77e6c40b","system_id":"levelo_inurba_marseille","lat":43.24999,"lon":5.3892,"is_reserved":false,"is_disabled":false,"rental_uris":{"android":"levelo://app?vid=36b1fd1e-311b-44f8-9ca4-725c77e6c40b","ios":"levelo://app?vid=36b1fd1e-311b-44f8-9ca4-725c77e6c40b"},"vehicle_type_id":"4","last_reported":1726654196,"current_range_meters":37600,"station_id":"ce4bhgp2rcd13ifvqfd0","pricing_plan_id":"cebpf4jnsgd1na2vs0mg"},{"bike_id":"0a547e42-a4f9-4599-a19e-c20d90f5daf8","system_id":"levelo_inurba_marseille","lat":43.27833,"lon":5.3921,"is_reserved":false,"is_disabled":false,"rental_uris":{"android":"levelo://app?vid=0a547e42-a4f9-4599-a19e-c20d90f5daf8","ios":"levelo://app?vid=0a547e42-a4f9-4599-a19e-c20d90f5daf8"},"vehicle_type_id":"4","last_reported":1726654196,"current_range_meters":36000,"station_id":"ce4bhjp2rcd13ifvqga0","pricing_plan_id":"cebpf4jnsgd1na2vs0mg"},{"bike_id":"b645ac77-0d58-4fa9-8ad3-947af8bdb1d9","system_id":"levelo_inurba_marseille","lat":43.29898,"lon":5.43668,"is_reserved":false,"is_disabled":false,"rental_uris":{"android":"levelo://app?vid=b645ac77-0d58-4fa9-8ad3-947af8bdb1d9","ios":"levelo://app?vid=b645ac77-0d58-4fa9-8ad3-947af8bdb1d9"},"vehicle_type_id":"4","last_reported":1726654196,"current_range_meters":20000,"station_id":"ce4bhpp2rcd13ifvqhfg","pricing_plan_id":"cebpf4jnsgd1na2vs0mg"},{"bike_id":"2e36b618-c711-4758-a319-d0f0d0f1f3c3","system_id":"levelo_inurba_marseille","lat":43.29617,"lon":5.37164,"is_reserved":false,"is_disabled":false,"rental_uris":{"android":"levelo://app?vid=2e36b618-c711-4758-a319-d0f0d0f1f3c3","ios":"levelo://app?vid=2e36b618-c711-4758-a319-d0f0d0f1f3c3"},"vehicle_type_id":"4","last_reported":1726654196,"current_range_meters":16800,"station_id":"ce4bgnh2rcd13ifvqc0g","pricing_plan_id":"cebpf4jnsgd1na2vs0mg"},{"bike_id":"fd12b719-a57b-4a1e-bd0f-25aeda1efb80","system_id":"levelo_inurba_marseille","lat":43.296972,"lon":5.366265,"is_reserved":false,"is_disabled":false,"rental_uris":{"android":"levelo://app?vid=fd12b719-a57b-4a1e-bd0f-25aeda1efb80","ios":"levelo://app?vid=fd12b719-a57b-4a1e-bd0f-25aeda1efb80"},"vehicle_type_id":"4","last_reported":1726654196,"current_range_meters":8000,"station_id":"ce4bgn12rcd13ifvqbt0","pricing_plan_id":"cebpf4jnsgd1na2vs0mg"},{"bike_id":"c70646b5-0ed7-4f41-b696-bc25c65851c4","system_id":"levelo_inurba_marseille","lat":43.25933,"lon":5.40913,"is_reserved":false,"is_disabled":false,"rental_uris":{"android":"levelo://app?vid=c70646b5-0ed7-4f41-b696-bc25c65851c4","ios":"levelo://app?vid=c70646b5-0ed7-4f41-b696-bc25c65851c4"},"vehicle_type_id":"4","last_reported":1726654196,"current_range_meters":8000,"station_id":"ce4bhm92rcd13ifvqglg","pricing_plan_id":"cebpf4jnsgd1na2vs0mg"},{"bike_id":"e18293e4-22dd-4d60-8e76-9d96d28ad802","system_id":"levelo_inurba_marseille","lat":43.29711,"lon":5.37688,"is_reserved":false,"is_disabled":false,"rental_uris":{"android":"levelo://app?vid=e18293e4-22dd-4d60-8e76-9d96d28ad802","ios":"levelo://app?vid=e18293e4-22dd-4d60-8e76-9d96d28ad802"},"vehicle_type_id":"4","last_reported":1726654196,"current_range_meters":38800,"station_id":"ce4bgkh2rcd13ifvqbl0","pricing_plan_id":"cebpf4jnsgd1na2vs0mg"},{"bike_id":"2821bd5e-f2cc-464c-a98c-3e36c986cc0e","system_id":"levelo_inurba_marseille","lat":43.25926,"lon":5.40907,"is_reserved":false,"is_disabled":false,"rental_uris":{"android":"levelo://app?vid=2821bd5e-f2cc-464c-a98c-3e36c986cc0e","ios":"levelo://app?vid=2821bd5e-f2cc-464c-a98c-3e36c986cc0e"},"vehicle_type_id":"4","last_reported":1726654196,"current_range_meters":36400,"station_id":"ce4bhm92rcd13ifvqglg","pricing_plan_id":"cebpf4jnsgd1na2vs0mg"},{"bike_id":"5f609e75-538a-4052-99a8-64384211de23","system_id":"levelo_inurba_marseille","lat":43.29572,"lon":5.375,"is_reserved":false,"is_disabled":false,"rental_uris":{"android":"levelo://app?vid=5f609e75-538a-4052-99a8-64384211de23","ios":"levelo://app?vid=5f609e75-538a-4052-99a8-64384211de23"},"vehicle_type_id":"4","last_reported":1726654196,"current_range_meters":36800,"station_id":"ce4bgh92rcd13ifvqb50","pricing_plan_id":"cebpf4jnsgd1na2vs0mg"},{"bike_id":"8ceb5aea-b40e-4dad-98b0-1dcabb72c74a","system_id":"levelo_inurba_marseille","lat":43.32285,"lon":5.38281,"is_reserved":false,"is_disabled":false,"rental_uris":{"android":"levelo://app?vid=8ceb5aea-b40e-4dad-98b0-1dcabb72c74a","ios":"levelo://app?vid=8ceb5aea-b40e-4dad-98b0-1dcabb72c74a"},"vehicle_type_id":"4","last_reported":1726654196,"current_range_meters":26000,"station_id":"ce4bhr12rcd13ifvqhqg","pricing_plan_id":"cebpf4jnsgd1na2vs0mg"},{"bike_id":"b25232db-c485-4e9c-a2f6-4acc0677bc78","system_id":"levelo_inurba_marseille","lat":43.2315,"lon":5.43717,"is_reserved":false,"is_disabled":false,"rental_uris":{"android":"levelo://app?vid=b25232db-c485-4e9c-a2f6-4acc0677bc78","ios":"levelo://app?vid=b25232db-c485-4e9c-a2f6-4acc0677bc78"},"vehicle_type_id":"4","last_reported":1726654196,"current_range_meters":6000,"station_id":"ce4bhmp2rcd13ifvqgog","pricing_plan_id":"cebpf4jnsgd1na2vs0mg"},{"bike_id":"677498c9-746b-4650-9a8e-2c7479635944","system_id":"levelo_inurba_marseille","lat":43.33016,"lon":5.39042,"is_reserved":false,"is_disabled":false,"rental_uris":{"android":"levelo://app?vid=677498c9-746b-4650-9a8e-2c7479635944","ios":"levelo://app?vid=677498c9-746b-4650-9a8e-2c7479635944"},"vehicle_type_id":"4","last_reported":1726654196,"current_range_meters":16000,"station_id":"ce4bhr92rcd13ifvqhrg","pricing_plan_id":"cebpf4jnsgd1na2vs0mg"},{"bike_id":"c11ac0ec-9aa5-4b4b-90a8-9e0bd5fa291e","system_id":"levelo_inurba_marseille","lat":43.286079,"lon":5.370649,"is_reserved":false,"is_disabled":false,"rental_uris":{"android":"levelo://app?vid=c11ac0ec-9aa5-4b4b-90a8-9e0bd5fa291e","ios":"levelo://app?vid=c11ac0ec-9aa5-4b4b-90a8-9e0bd5fa291e"},"vehicle_type_id":"4","last_reported":1726654196,"current_range_meters":35600,"station_id":"ce4bht12rcd13ifvqi60","pricing_plan_id":"cebpf4jnsgd1na2vs0mg"},{"bike_id":"d7123240-86e5-46c1-82c5-c193f57c558b","system_id":"levelo_inurba_marseille","lat":43.29982,"lon":5.37178,"is_reserved":false,"is_disabled":false,"rental_uris":{"android":"levelo://app?vid=d7123240-86e5-46c1-82c5-c193f57c558b","ios":"levelo://app?vid=d7123240-86e5-46c1-82c5-c193f57c558b"},"vehicle_type_id":"4","last_reported":1726654196,"current_range_meters":20800,"station_id":"ce4bgr92rcd13ifvqc7g","pricing_plan_id":"cebpf4jnsgd1na2vs0mg"},{"bike_id":"cf7bde9d-3eb6-4813-ae33-27f729437f81","system_id":"levelo_inurba_marseille","lat":43.2668,"lon":5.38264,"is_reserved":false,"is_disabled":false,"rental_uris":{"android":"levelo://app?vid=cf7bde9d-3eb6-4813-ae33-27f729437f81","ios":"levelo://app?vid=cf7bde9d-3eb6-4813-ae33-27f729437f81"},"vehicle_type_id":"4","last_reported":1726654196,"current_range_meters":2000,"station_id":"ce4bhg92rcd13ifvqf90","pricing_plan_id":"cebpf4jnsgd1na2vs0mg"},{"bike_id":"d3e2fc0a-cfe2-444f-a281-651544d99ad8","system_id":"levelo_inurba_marseille","lat":43.30945,"lon":5.39038,"is_reserved":false,"is_disabled":false,"rental_uris":{"android":"levelo://app?vid=d3e2fc0a-cfe2-444f-a281-651544d99ad8","ios":"levelo://app?vid=d3e2fc0a-cfe2-444f-a281-651544d99ad8"},"vehicle_type_id":"4","last_reported":1726654196,"current_range_meters":22800,"station_id":"ce4bgup2rcd13ifvqco0","pricing_plan_id":"cebpf4jnsgd1na2vs0mg"},{"bike_id":"1ac66024-28ac-41bb-a4c8-3b7a64682c8f","system_id":"levelo_inurba_marseille","lat":43.24082,"lon":5.37739,"is_reserved":false,"is_disabled":false,"rental_uris":{"android":"levelo://app?vid=1ac66024-28ac-41bb-a4c8-3b7a64682c8f","ios":"levelo://app?vid=1ac66024-28ac-41bb-a4c8-3b7a64682c8f"},"vehicle_type_id":"4","last_reported":1726654196,"current_range_meters":32000,"station_id":"ce4bhnp2rcd13ifvqgvg","pricing_plan_id":"cebpf4jnsgd1na2vs0mg"},{"bike_id":"edcb7831-5f93-4381-9cdb-bf2cddba3298","system_id":"levelo_inurba_marseille","lat":43.26682,"lon":5.38264,"is_reserved":false,"is_disabled":false,"rental_uris":{"android":"levelo://app?vid=edcb7831-5f93-4381-9cdb-bf2cddba3298","ios":"levelo://app?vid=edcb7831-5f93-4381-9cdb-bf2cddba3298"},"vehicle_type_id":"4","last_reported":1726654196,"current_range_meters":33200,"station_id":"ce4bhg92rcd13ifvqf90","pricing_plan_id":"cebpf4jnsgd1na2vs0mg"},{"bike_id":"b1e472c1-1ec8-474f-aae8-324fa2583c39","system_id":"levelo_inurba_marseille","lat":43.337444,"lon":5.374475,"is_reserved":false,"is_disabled":false,"rental_uris":{"android":"levelo://app?vid=b1e472c1-1ec8-474f-aae8-324fa2583c39","ios":"levelo://app?vid=b1e472c1-1ec8-474f-aae8-324fa2583c39"},"vehicle_type_id":"4","last_reported":1726654196,"current_range_meters":38800,"station_id":"ce4bgj92rcd13ifvqbd0","pricing_plan_id":"cebpf4jnsgd1na2vs0mg"},{"bike_id":"039abe42-d53e-48b2-910f-be7e05ba47a1","system_id":"levelo_inurba_marseille","lat":43.29843,"lon":5.36275,"is_reserved":false,"is_disabled":false,"rental_uris":{"android":"levelo://app?vid=039abe42-d53e-48b2-910f-be7e05ba47a1","ios":"levelo://app?vid=039abe42-d53e-48b2-910f-be7e05ba47a1"},"vehicle_type_id":"4","last_reported":1726654196,"current_range_meters":30800,"station_id":"ce4bgpp2rcd13ifvqc3g","pricing_plan_id":"cebpf4jnsgd1na2vs0mg"},{"bike_id":"8e674dd5-f423-411b-8a2f-212afc397ac7","system_id":"levelo_inurba_marseille","lat":43.30128,"lon":5.3987,"is_reserved":false,"is_disabled":false,"rental_uris":{"android":"levelo://app?vid=8e674dd5-f423-411b-8a2f-212afc397ac7","ios":"levelo://app?vid=8e674dd5-f423-411b-8a2f-212afc397ac7"},"vehicle_type_id":"4","last_reported":1726654196,"current_range_meters":39200,"station_id":"ce4bh0h2rcd13ifvqd40","pricing_plan_id":"cebpf4jnsgd1na2vs0mg"},{"bike_id":"6f27454f-1a17-4172-8e9a-1ba0a27c7d1d","system_id":"levelo_inurba_marseille","lat":43.305908,"lon":5.393607,"is_reserved":false,"is_disabled":false,"rental_uris":{"android":"levelo://app?vid=6f27454f-1a17-4172-8e9a-1ba0a27c7d1d","ios":"levelo://app?vid=6f27454f-1a17-4172-8e9a-1ba0a27c7d1d"},"vehicle_type_id":"4","last_reported":1726654196,"current_range_meters":10800,"station_id":"ce4bgs92rcd13ifvqcc0","pricing_plan_id":"cebpf4jnsgd1na2vs0mg"},{"bike_id":"d6490ad0-1952-4e83-9e62-de12574dc642","system_id":"levelo_inurba_marseille","lat":43.24385,"lon":5.37056,"is_reserved":false,"is_disabled":false,"rental_uris":{"android":"levelo://app?vid=d6490ad0-1952-4e83-9e62-de12574dc642","ios":"levelo://app?vid=d6490ad0-1952-4e83-9e62-de12574dc642"},"vehicle_type_id":"4","last_reported":1726654196,"current_range_meters":36800,"station_id":"ce4bhhh2rcd13ifvqfk0","pricing_plan_id":"cebpf4jnsgd1na2vs0mg"},{"bike_id":"af15b34b-0a1b-4f05-9975-d29c112ecf5a","system_id":"levelo_inurba_marseille","lat":43.26549,"lon":5.37287,"is_reserved":false,"is_disabled":false,"rental_uris":{"android":"levelo://app?vid=af15b34b-0a1b-4f05-9975-d29c112ecf5a","ios":"levelo://app?vid=af15b34b-0a1b-4f05-9975-d29c112ecf5a"},"vehicle_type_id":"4","last_reported":1726654196,"current_range_meters":33200,"station_id":"ce4bhg12rcd13ifvqf70","pricing_plan_id":"cebpf4jnsgd1na2vs0mg"},{"bike_id":"99684f50-b398-427b-a4e9-7ca0a0382c79","system_id":"levelo_inurba_marseille","lat":43.23185,"lon":5.35542,"is_reserved":false,"is_disabled":false,"rental_uris":{"android":"levelo://app?vid=99684f50-b398-427b-a4e9-7ca0a0382c79","ios":"levelo://app?vid=99684f50-b398-427b-a4e9-7ca0a0382c79"},"vehicle_type_id":"4","last_reported":1726654196,"current_range_meters":40000,"station_id":"ce4bhu92rcd13ifvqi70","pricing_plan_id":"cebpf4jnsgd1na2vs0mg"},{"bike_id":"d782c430-b2c7-45ce-aaaf-78dc9a80ca97","system_id":"levelo_inurba_marseille","lat":43.33028,"lon":5.39045,"is_reserved":false,"is_disabled":false,"rental_uris":{"android":"levelo://app?vid=d782c430-b2c7-45ce-aaaf-78dc9a80ca97","ios":"levelo://app?vid=d782c430-b2c7-45ce-aaaf-78dc9a80ca97"},"vehicle_type_id":"4","last_reported":1726654196,"current_range_meters":25200,"station_id":"ce4bhr92rcd13ifvqhrg","pricing_plan_id":"cebpf4jnsgd1na2vs0mg"},{"bike_id":"c4faec35-7580-4da0-9121-0c9580611ed4","system_id":"levelo_inurba_marseille","lat":43.3234,"lon":5.4062,"is_reserved":false,"is_disabled":false,"rental_uris":{"android":"levelo://app?vid=c4faec35-7580-4da0-9121-0c9580611ed4","ios":"levelo://app?vid=c4faec35-7580-4da0-9121-0c9580611ed4"},"vehicle_type_id":"4","last_reported":1726654196,"current_range_meters":32800,"station_id":"ce4bhq92rcd13ifvqhjg","pricing_plan_id":"cebpf4jnsgd1na2vs0mg"},{"bike_id":"f16f1c4e-93c6-4335-8869-c403b3869f47","system_id":"levelo_inurba_marseille","lat":43.2952,"lon":5.38543,"is_reserved":false,"is_disabled":false,"rental_uris":{"android":"levelo://app?vid=f16f1c4e-93c6-4335-8869-c403b3869f47","ios":"levelo://app?vid=f16f1c4e-93c6-4335-8869-c403b3869f47"},"vehicle_type_id":"4","last_reported":1726654196,"current_range_meters":13600,"station_id":"ce4bgih2rcd13ifvqba0","pricing_plan_id":"cebpf4jnsgd1na2vs0mg"},{"bike_id":"2b714e73-49f8-4f26-bb6d-7d72ce23aabc","system_id":"levelo_inurba_marseille","lat":43.23052,"lon":5.3549,"is_reserved":false,"is_disabled":false,"rental_uris":{"android":"levelo://app?vid=2b714e73-49f8-4f26-bb6d-7d72ce23aabc","ios":"levelo://app?vid=2b714e73-49f8-4f26-bb6d-7d72ce23aabc"},"vehicle_type_id":"4","last_reported":1726654196,"current_range_meters":8400,"station_id":"cpo3342slgdg3j2ifvpg","pricing_plan_id":"cebpf4jnsgd1na2vs0mg"},{"bike_id":"08517893-63cf-43d9-88aa-3c89b83ce921","system_id":"levelo_inurba_marseille","lat":43.32475,"lon":5.36557,"is_reserved":false,"is_disabled":false,"rental_uris":{"android":"levelo://app?vid=08517893-63cf-43d9-88aa-3c89b83ce921","ios":"levelo://app?vid=08517893-63cf-43d9-88aa-3c89b83ce921"},"vehicle_type_id":"4","last_reported":1726654196,"current_range_meters":39200,"station_id":"ce4bhs12rcd13ifvqhvg","pricing_plan_id":"cebpf4jnsgd1na2vs0mg"},{"bike_id":"762690b6-6a6a-4c90-a14d-8f99d3446e9e","system_id":"levelo_inurba_marseille","lat":43.33742,"lon":5.37456,"is_reserved":false,"is_disabled":false,"rental_uris":{"android":"levelo://app?vid=762690b6-6a6a-4c90-a14d-8f99d3446e9e","ios":"levelo://app?vid=762690b6-6a6a-4c90-a14d-8f99d3446e9e"},"vehicle_type_id":"4","last_reported":1726654196,"current_range_meters":28800,"station_id":"","pricing_plan_id":"cebpf4jnsgd1na2vs0mg"},{"bike_id":"8cd53c67-998a-490c-9eaf-e78736c4c6c2","system_id":"levelo_inurba_marseille","lat":43.30307,"lon":5.36892,"is_reserved":false,"is_disabled":false,"rental_uris":{"android":"levelo://app?vid=8cd53c67-998a-490c-9eaf-e78736c4c6c2","ios":"levelo://app?vid=8cd53c67-998a-490c-9eaf-e78736c4c6c2"},"vehicle_type_id":"4","last_reported":1726654196,"current_range_meters":36400,"station_id":"ce4bgqh2rcd13ifvqc5g","pricing_plan_id":"cebpf4jnsgd1na2vs0mg"},{"bike_id":"2350ae49-d1df-4fb8-8ac7-d9c3e982a6d3","system_id":"levelo_inurba_marseille","lat":43.32037,"lon":5.41547,"is_reserved":false,"is_disabled":false,"rental_uris":{"android":"levelo://app?vid=2350ae49-d1df-4fb8-8ac7-d9c3e982a6d3","ios":"levelo://app?vid=2350ae49-d1df-4fb8-8ac7-d9c3e982a6d3"},"vehicle_type_id":"4","last_reported":1726654196,"current_range_meters":3600,"station_id":"ce4bhq92rcd13ifvqhkg","pricing_plan_id":"cebpf4jnsgd1na2vs0mg"},{"bike_id":"4c76a4f7-b79c-46a6-b1ed-faaf50182b55","system_id":"levelo_inurba_marseille","lat":43.24548,"lon":5.39524,"is_reserved":false,"is_disabled":false,"rental_uris":{"android":"levelo://app?vid=4c76a4f7-b79c-46a6-b1ed-faaf50182b55","ios":"levelo://app?vid=4c76a4f7-b79c-46a6-b1ed-faaf50182b55"},"vehicle_type_id":"4","last_reported":1726654196,"current_range_meters":2800,"station_id":"ce4bhlp2rcd13ifvqgjg","pricing_plan_id":"cebpf4jnsgd1na2vs0mg"},{"bike_id":"76d439c6-f9f7-40ab-a273-41f85ec9da3c","system_id":"levelo_inurba_marseille","lat":43.27986,"lon":5.41661,"is_reserved":false,"is_disabled":false,"rental_uris":{"android":"levelo://app?vid=76d439c6-f9f7-40ab-a273-41f85ec9da3c","ios":"levelo://app?vid=76d439c6-f9f7-40ab-a273-41f85ec9da3c"},"vehicle_type_id":"4","last_reported":1726654196,"current_range_meters":23200,"station_id":"ce4bho12rcd13ifvqh1g","pricing_plan_id":"cebpf4jnsgd1na2vs0mg"},{"bike_id":"e8befb56-1303-484d-9ed5-cb1654ca2bd2","system_id":"levelo_inurba_marseille","lat":43.23957,"lon":5.36644,"is_reserved":false,"is_disabled":false,"rental_uris":{"android":"levelo://app?vid=e8befb56-1303-484d-9ed5-cb1654ca2bd2","ios":"levelo://app?vid=e8befb56-1303-484d-9ed5-cb1654ca2bd2"},"vehicle_type_id":"4","last_reported":1726654196,"current_range_meters":36800,"station_id":"ce4bhi12rcd13ifvqfp0","pricing_plan_id":"cebpf4jnsgd1na2vs0mg"},{"bike_id":"b29ae848-88e6-467d-bf50-a5fe6b94f93b","system_id":"levelo_inurba_marseille","lat":43.30344,"lon":5.41873,"is_reserved":false,"is_disabled":false,"rental_uris":{"android":"levelo://app?vid=b29ae848-88e6-467d-bf50-a5fe6b94f93b","ios":"levelo://app?vid=b29ae848-88e6-467d-bf50-a5fe6b94f93b"},"vehicle_type_id":"4","last_reported":1726654196,"current_range_meters":10800,"station_id":"ce4bhop2rcd13ifvqh7g","pricing_plan_id":"cebpf4jnsgd1na2vs0mg"},{"bike_id":"2126b14a-118e-4fcd-aaa5-b3ca795f479a","system_id":"levelo_inurba_marseille","lat":43.298381,"lon":5.362721,"is_reserved":false,"is_disabled":false,"rental_uris":{"android":"levelo://app?vid=2126b14a-118e-4fcd-aaa5-b3ca795f479a","ios":"levelo://app?vid=2126b14a-118e-4fcd-aaa5-b3ca795f479a"},"vehicle_type_id":"4","last_reported":1726654196,"current_range_meters":33200,"station_id":"ce4bgpp2rcd13ifvqc3g","pricing_plan_id":"cebpf4jnsgd1na2vs0mg"},{"bike_id":"21084f93-3279-4437-98bc-21d82c8332a5","system_id":"levelo_inurba_marseille","lat":43.30906,"lon":5.3686,"is_reserved":false,"is_disabled":false,"rental_uris":{"android":"levelo://app?vid=21084f93-3279-4437-98bc-21d82c8332a5","ios":"levelo://app?vid=21084f93-3279-4437-98bc-21d82c8332a5"},"vehicle_type_id":"4","last_reported":1726654196,"current_range_meters":24400,"station_id":"ce4bgn92rcd13ifvqbvg","pricing_plan_id":"cebpf4jnsgd1na2vs0mg"},{"bike_id":"a9d9630e-a595-41e9-950f-f6608c658242","system_id":"levelo_inurba_marseille","lat":43.2606,"lon":5.39396,"is_reserved":false,"is_disabled":false,"rental_uris":{"android":"levelo://app?vid=a9d9630e-a595-41e9-950f-f6608c658242","ios":"levelo://app?vid=a9d9630e-a595-41e9-950f-f6608c658242"},"vehicle_type_id":"4","last_reported":1726654196,"current_range_meters":26000,"station_id":"ce4bhh92rcd13ifvqfj0","pricing_plan_id":"cebpf4jnsgd1na2vs0mg"},{"bike_id":"f24b6059-7435-48b0-826f-a615cb14199f","system_id":"levelo_inurba_marseille","lat":43.26552,"lon":5.37284,"is_reserved":false,"is_disabled":false,"rental_uris":{"android":"levelo://app?vid=f24b6059-7435-48b0-826f-a615cb14199f","ios":"levelo://app?vid=f24b6059-7435-48b0-826f-a615cb14199f"},"vehicle_type_id":"4","last_reported":1726654196,"current_range_meters":30800,"station_id":"ce4bhg12rcd13ifvqf70","pricing_plan_id":"cebpf4jnsgd1na2vs0mg"},{"bike_id":"60c45909-9556-40ee-9139-5c00d3ae76de","system_id":"levelo_inurba_marseille","lat":43.28406,"lon":5.37504,"is_reserved":false,"is_disabled":false,"rental_uris":{"android":"levelo://app?vid=60c45909-9556-40ee-9139-5c00d3ae76de","ios":"levelo://app?vid=60c45909-9556-40ee-9139-5c00d3ae76de"},"vehicle_type_id":"4","last_reported":1726654196,"current_range_meters":9600,"station_id":"ce4bh412rcd13ifvqds0","pricing_plan_id":"cebpf4jnsgd1na2vs0mg"},{"bike_id":"4bc47ebe-cbc2-46e0-a585-925d2b106ec0","system_id":"levelo_inurba_marseille","lat":43.30149,"lon":5.38086,"is_reserved":false,"is_disabled":false,"rental_uris":{"android":"levelo://app?vid=4bc47ebe-cbc2-46e0-a585-925d2b106ec0","ios":"levelo://app?vid=4bc47ebe-cbc2-46e0-a585-925d2b106ec0"},"vehicle_type_id":"4","last_reported":1726654196,"current_range_meters":22000,"station_id":"ce4bgjp2rcd13ifvqbh0","pricing_plan_id":"cebpf4jnsgd1na2vs0mg"},{"bike_id":"4d3df7f4-1258-4f9a-a03c-d9a8d0c0bca8","system_id":"levelo_inurba_marseille","lat":43.2964,"lon":5.37154,"is_reserved":false,"is_disabled":false,"rental_uris":{"android":"levelo://app?vid=4d3df7f4-1258-4f9a-a03c-d9a8d0c0bca8","ios":"levelo://app?vid=4d3df7f4-1258-4f9a-a03c-d9a8d0c0bca8"},"vehicle_type_id":"4","last_reported":1726654196,"current_range_meters":38000,"station_id":"ce4bgnh2rcd13ifvqc0g","pricing_plan_id":"cebpf4jnsgd1na2vs0mg"},{"bike_id":"6dd17a2f-59bb-4453-859d-2c09ab795824","system_id":"levelo_inurba_marseille","lat":43.33021,"lon":5.39039,"is_reserved":false,"is_disabled":false,"rental_uris":{"android":"levelo://app?vid=6dd17a2f-59bb-4453-859d-2c09ab795824","ios":"levelo://app?vid=6dd17a2f-59bb-4453-859d-2c09ab795824"},"vehicle_type_id":"4","last_reported":1726654196,"current_range_meters":25600,"station_id":"ce4bhr92rcd13ifvqhrg","pricing_plan_id":"cebpf4jnsgd1na2vs0mg"},{"bike_id":"73184b1d-285a-4f53-96a6-7ea774530612","system_id":"levelo_inurba_marseille","lat":43.29413,"lon":5.38623,"is_reserved":false,"is_disabled":false,"rental_uris":{"android":"levelo://app?vid=73184b1d-285a-4f53-96a6-7ea774530612","ios":"levelo://app?vid=73184b1d-285a-4f53-96a6-7ea774530612"},"vehicle_type_id":"4","last_reported":1726654196,"current_range_meters":35200,"station_id":"ce4bh2h2rcd13ifvqdh0","pricing_plan_id":"cebpf4jnsgd1na2vs0mg"},{"bike_id":"8a0555e1-dab0-42ef-ab12-476ede51977e","system_id":"levelo_inurba_marseille","lat":43.30143,"lon":5.39867,"is_reserved":false,"is_disabled":false,"rental_uris":{"android":"levelo://app?vid=8a0555e1-dab0-42ef-ab12-476ede51977e","ios":"levelo://app?vid=8a0555e1-dab0-42ef-ab12-476ede51977e"},"vehicle_type_id":"4","last_reported":1726654196,"current_range_meters":39200,"station_id":"ce4bh0h2rcd13ifvqd40","pricing_plan_id":"cebpf4jnsgd1na2vs0mg"},{"bike_id":"59ea0c2a-aeac-4f57-949a-993e07839929","system_id":"levelo_inurba_marseille","lat":43.33771,"lon":5.3745,"is_reserved":false,"is_disabled":false,"rental_uris":{"android":"levelo://app?vid=59ea0c2a-aeac-4f57-949a-993e07839929","ios":"levelo://app?vid=59ea0c2a-aeac-4f57-949a-993e07839929"},"vehicle_type_id":"4","last_reported":1726654196,"current_range_meters":37600,"station_id":"","pricing_plan_id":"cebpf4jnsgd1na2vs0mg"},{"bike_id":"333c7ce2-2d18-462f-9262-1bd6f056d7eb","system_id":"levelo_inurba_marseille","lat":43.30546,"lon":5.36534,"is_reserved":false,"is_disabled":false,"rental_uris":{"android":"levelo://app?vid=333c7ce2-2d18-462f-9262-1bd6f056d7eb","ios":"levelo://app?vid=333c7ce2-2d18-462f-9262-1bd6f056d7eb"},"vehicle_type_id":"4","last_reported":1726654196,"current_range_meters":39200,"station_id":"ce4bgs12rcd13ifvqcag","pricing_plan_id":"cebpf4jnsgd1na2vs0mg"},{"bike_id":"35977f31-cfb3-425f-987d-b6042a4e6aae","system_id":"levelo_inurba_marseille","lat":43.25934,"lon":5.40907,"is_reserved":false,"is_disabled":false,"rental_uris":{"android":"levelo://app?vid=35977f31-cfb3-425f-987d-b6042a4e6aae","ios":"levelo://app?vid=35977f31-cfb3-425f-987d-b6042a4e6aae"},"vehicle_type_id":"4","last_reported":1726654196,"current_range_meters":27200,"station_id":"ce4bhm92rcd13ifvqglg","pricing_plan_id":"cebpf4jnsgd1na2vs0mg"},{"bike_id":"c9b40bea-211c-4e0b-bedf-7eceab955071","system_id":"levelo_inurba_marseille","lat":43.26486,"lon":5.39545,"is_reserved":false,"is_disabled":false,"rental_uris":{"android":"levelo://app?vid=c9b40bea-211c-4e0b-bedf-7eceab955071","ios":"levelo://app?vid=c9b40bea-211c-4e0b-bedf-7eceab955071"},"vehicle_type_id":"4","last_reported":1726654196,"current_range_meters":13600,"station_id":"ce4bhi12rcd13ifvqfq0","pricing_plan_id":"cebpf4jnsgd1na2vs0mg"},{"bike_id":"c5483938-683f-4dd8-a9d6-ebf3c734472a","system_id":"levelo_inurba_marseille","lat":43.26676,"lon":5.38266,"is_reserved":false,"is_disabled":false,"rental_uris":{"android":"levelo://app?vid=c5483938-683f-4dd8-a9d6-ebf3c734472a","ios":"levelo://app?vid=c5483938-683f-4dd8-a9d6-ebf3c734472a"},"vehicle_type_id":"4","last_reported":1726654196,"current_range_meters":36000,"station_id":"ce4bhg92rcd13ifvqf90","pricing_plan_id":"cebpf4jnsgd1na2vs0mg"},{"bike_id":"748afd21-8bb0-48ce-b864-a510c044d975","system_id":"levelo_inurba_marseille","lat":43.29001,"lon":5.3561,"is_reserved":false,"is_disabled":false,"rental_uris":{"android":"levelo://app?vid=748afd21-8bb0-48ce-b864-a510c044d975","ios":"levelo://app?vid=748afd21-8bb0-48ce-b864-a510c044d975"},"vehicle_type_id":"4","last_reported":1726654196,"current_range_meters":16400,"station_id":"ce4bhb92rcd13ifvqen0","pricing_plan_id":"cebpf4jnsgd1na2vs0mg"},{"bike_id":"551007eb-0d19-4212-aaad-40cf20c93b6d","system_id":"levelo_inurba_marseille","lat":43.3054,"lon":5.36547,"is_reserved":false,"is_disabled":false,"rental_uris":{"android":"levelo://app?vid=551007eb-0d19-4212-aaad-40cf20c93b6d","ios":"levelo://app?vid=551007eb-0d19-4212-aaad-40cf20c93b6d"},"vehicle_type_id":"4","last_reported":1726654196,"current_range_meters":40000,"station_id":"ce4bgs12rcd13ifvqcag","pricing_plan_id":"cebpf4jnsgd1na2vs0mg"},{"bike_id":"bb3739d6-0f22-4178-ba62-88ae77d9f7ad","system_id":"levelo_inurba_marseille","lat":43.27964,"lon":5.38693,"is_reserved":false,"is_disabled":false,"rental_uris":{"android":"levelo://app?vid=bb3739d6-0f22-4178-ba62-88ae77d9f7ad","ios":"levelo://app?vid=bb3739d6-0f22-4178-ba62-88ae77d9f7ad"},"vehicle_type_id":"4","last_reported":1726654196,"current_range_meters":8400,"station_id":"ce4bhg12rcd13ifvqf80","pricing_plan_id":"cebpf4jnsgd1na2vs0mg"},{"bike_id":"5eea3ce9-5bef-4500-b89a-370f6c95f267","system_id":"levelo_inurba_marseille","lat":43.29873,"lon":5.39737,"is_reserved":false,"is_disabled":false,"rental_uris":{"android":"levelo://app?vid=5eea3ce9-5bef-4500-b89a-370f6c95f267","ios":"levelo://app?vid=5eea3ce9-5bef-4500-b89a-370f6c95f267"},"vehicle_type_id":"4","last_reported":1726654196,"current_range_meters":26800,"station_id":"ce4bh0h2rcd13ifvqd50","pricing_plan_id":"cebpf4jnsgd1na2vs0mg"},{"bike_id":"4273f25e-f303-4f8b-81f5-fb0ba80b1362","system_id":"levelo_inurba_marseille","lat":43.29629,"lon":5.40599,"is_reserved":false,"is_disabled":false,"rental_uris":{"android":"levelo://app?vid=4273f25e-f303-4f8b-81f5-fb0ba80b1362","ios":"levelo://app?vid=4273f25e-f303-4f8b-81f5-fb0ba80b1362"},"vehicle_type_id":"4","last_reported":1726654196,"current_range_meters":32000,"station_id":"ce4bh0h2rcd13ifvqd60","pricing_plan_id":"cebpf4jnsgd1na2vs0mg"},{"bike_id":"b60fdd62-02a2-4187-8a87-3fd289343c2d","system_id":"levelo_inurba_marseille","lat":43.3017,"lon":5.374,"is_reserved":false,"is_disabled":false,"rental_uris":{"android":"levelo://app?vid=b60fdd62-02a2-4187-8a87-3fd289343c2d","ios":"levelo://app?vid=b60fdd62-02a2-4187-8a87-3fd289343c2d"},"vehicle_type_id":"4","last_reported":1726654196,"current_range_meters":24000,"station_id":"ce4bgs92rcd13ifvqcc0","pricing_plan_id":"cebpf4jnsgd1na2vs0mg"},{"bike_id":"8c0d530c-80a9-463b-b552-7c7a8c8ab48a","system_id":"levelo_inurba_marseille","lat":43.23141,"lon":5.43714,"is_reserved":false,"is_disabled":false,"rental_uris":{"android":"levelo://app?vid=8c0d530c-80a9-463b-b552-7c7a8c8ab48a","ios":"levelo://app?vid=8c0d530c-80a9-463b-b552-7c7a8c8ab48a"},"vehicle_type_id":"4","last_reported":1726654196,"current_range_meters":8800,"station_id":"ce4bhmp2rcd13ifvqgog","pricing_plan_id":"cebpf4jnsgd1na2vs0mg"},{"bike_id":"85f35905-070a-4a43-b69b-19cfcf5195a8","system_id":"levelo_inurba_marseille","lat":43.29554,"lon":5.42273,"is_reserved":false,"is_disabled":false,"rental_uris":{"android":"levelo://app?vid=85f35905-070a-4a43-b69b-19cfcf5195a8","ios":"levelo://app?vid=85f35905-070a-4a43-b69b-19cfcf5195a8"},"vehicle_type_id":"4","last_reported":1726654196,"current_range_meters":38800,"station_id":"ce4bhph2rcd13ifvqhdg","pricing_plan_id":"cebpf4jnsgd1na2vs0mg"},{"bike_id":"23469155-55fd-46ff-8f21-8bd8dbaaa278","system_id":"levelo_inurba_marseille","lat":43.29872,"lon":5.39736,"is_reserved":false,"is_disabled":false,"rental_uris":{"android":"levelo://app?vid=23469155-55fd-46ff-8f21-8bd8dbaaa278","ios":"levelo://app?vid=23469155-55fd-46ff-8f21-8bd8dbaaa278"},"vehicle_type_id":"4","last_reported":1726654196,"current_range_meters":21600,"station_id":"ce4bh0h2rcd13ifvqd50","pricing_plan_id":"cebpf4jnsgd1na2vs0mg"},{"bike_id":"9c7340ee-7d9b-4a50-8b88-dd479bd9d490","system_id":"levelo_inurba_marseille","lat":43.26551,"lon":5.37284,"is_reserved":false,"is_disabled":false,"rental_uris":{"android":"levelo://app?vid=9c7340ee-7d9b-4a50-8b88-dd479bd9d490","ios":"levelo://app?vid=9c7340ee-7d9b-4a50-8b88-dd479bd9d490"},"vehicle_type_id":"4","last_reported":1726654196,"current_range_meters":30400,"station_id":"ce4bhg12rcd13ifvqf70","pricing_plan_id":"cebpf4jnsgd1na2vs0mg"},{"bike_id":"5ad76090-8691-48ec-9040-016e70c34f7b","system_id":"levelo_inurba_marseille","lat":43.28031,"lon":5.36937,"is_reserved":false,"is_disabled":false,"rental_uris":{"android":"levelo://app?vid=5ad76090-8691-48ec-9040-016e70c34f7b","ios":"levelo://app?vid=5ad76090-8691-48ec-9040-016e70c34f7b"},"vehicle_type_id":"4","last_reported":1726654196,"current_range_meters":28000,"station_id":"ce4bha12rcd13ifvqef0","pricing_plan_id":"cebpf4jnsgd1na2vs0mg"},{"bike_id":"0aae4a21-f9b6-4ad4-8433-3a58684465d5","system_id":"levelo_inurba_marseille","lat":43.26059,"lon":5.39392,"is_reserved":false,"is_disabled":false,"rental_uris":{"android":"levelo://app?vid=0aae4a21-f9b6-4ad4-8433-3a58684465d5","ios":"levelo://app?vid=0aae4a21-f9b6-4ad4-8433-3a58684465d5"},"vehicle_type_id":"4","last_reported":1726654196,"current_range_meters":39200,"station_id":"ce4bhh92rcd13ifvqfj0","pricing_plan_id":"cebpf4jnsgd1na2vs0mg"},{"bike_id":"58014cc6-4f39-4119-a8a0-cdc0e2507820","system_id":"levelo_inurba_marseille","lat":43.323061,"lon":5.382553,"is_reserved":false,"is_disabled":false,"rental_uris":{"android":"levelo://app?vid=58014cc6-4f39-4119-a8a0-cdc0e2507820","ios":"levelo://app?vid=58014cc6-4f39-4119-a8a0-cdc0e2507820"},"vehicle_type_id":"4","last_reported":1726654196,"current_range_meters":25600,"station_id":"ce4bhr12rcd13ifvqhqg","pricing_plan_id":"cebpf4jnsgd1na2vs0mg"},{"bike_id":"7231c74c-5278-429f-90a8-a50ab6504eee","system_id":"levelo_inurba_marseille","lat":43.32476,"lon":5.36569,"is_reserved":false,"is_disabled":false,"rental_uris":{"android":"levelo://app?vid=7231c74c-5278-429f-90a8-a50ab6504eee","ios":"levelo://app?vid=7231c74c-5278-429f-90a8-a50ab6504eee"},"vehicle_type_id":"4","last_reported":1726654196,"current_range_meters":28800,"station_id":"ce4bhs12rcd13ifvqhvg","pricing_plan_id":"cebpf4jnsgd1na2vs0mg"},{"bike_id":"680be1dc-3a23-4c18-ae00-e69e8dd741b2","system_id":"levelo_inurba_marseille","lat":43.29303,"lon":5.3718,"is_reserved":false,"is_disabled":false,"rental_uris":{"android":"levelo://app?vid=680be1dc-3a23-4c18-ae00-e69e8dd741b2","ios":"levelo://app?vid=680be1dc-3a23-4c18-ae00-e69e8dd741b2"},"vehicle_type_id":"4","last_reported":1726654196,"current_range_meters":31200,"station_id":"ce4bgh92rcd13ifvqb40","pricing_plan_id":"cebpf4jnsgd1na2vs0mg"},{"bike_id":"ab24a954-34a3-48ed-808a-51904da89fe4","system_id":"levelo_inurba_marseille","lat":43.28082,"lon":5.39659,"is_reserved":false,"is_disabled":false,"rental_uris":{"android":"levelo://app?vid=ab24a954-34a3-48ed-808a-51904da89fe4","ios":"levelo://app?vid=ab24a954-34a3-48ed-808a-51904da89fe4"},"vehicle_type_id":"4","last_reported":1726654196,"current_range_meters":34000,"station_id":"ce4bho12rcd13ifvqh2g","pricing_plan_id":"cebpf4jnsgd1na2vs0mg"},{"bike_id":"9de036c4-decb-465b-a775-32e663a8924f","system_id":"levelo_inurba_marseille","lat":43.33021,"lon":5.39026,"is_reserved":false,"is_disabled":false,"rental_uris":{"android":"levelo://app?vid=9de036c4-decb-465b-a775-32e663a8924f","ios":"levelo://app?vid=9de036c4-decb-465b-a775-32e663a8924f"},"vehicle_type_id":"4","last_reported":1726654196,"current_range_meters":35200,"station_id":"ce4bhr92rcd13ifvqhrg","pricing_plan_id":"cebpf4jnsgd1na2vs0mg"},{"bike_id":"31f20b22-db63-4fa0-92a3-4c0cec0811c9","system_id":"levelo_inurba_marseille","lat":43.29698,"lon":5.3769,"is_reserved":false,"is_disabled":false,"rental_uris":{"android":"levelo://app?vid=31f20b22-db63-4fa0-92a3-4c0cec0811c9","ios":"levelo://app?vid=31f20b22-db63-4fa0-92a3-4c0cec0811c9"},"vehicle_type_id":"4","last_reported":1726654196,"current_range_meters":39200,"station_id":"ce4bgkh2rcd13ifvqbl0","pricing_plan_id":"cebpf4jnsgd1na2vs0mg"},{"bike_id":"ba18b907-3678-4cbf-b957-7c6dc3cf3b56","system_id":"levelo_inurba_marseille","lat":43.27489,"lon":5.42452,"is_reserved":false,"is_disabled":false,"rental_uris":{"android":"levelo://app?vid=ba18b907-3678-4cbf-b957-7c6dc3cf3b56","ios":"levelo://app?vid=ba18b907-3678-4cbf-b957-7c6dc3cf3b56"},"vehicle_type_id":"4","last_reported":1726654196,"current_range_meters":3200,"station_id":"ce4bhn92rcd13ifvqgrg","pricing_plan_id":"cebpf4jnsgd1na2vs0mg"},{"bike_id":"c21a0fc5-d351-4b04-a94c-1a7ffba83227","system_id":"levelo_inurba_marseille","lat":43.301334,"lon":5.398491,"is_reserved":false,"is_disabled":false,"rental_uris":{"android":"levelo://app?vid=c21a0fc5-d351-4b04-a94c-1a7ffba83227","ios":"levelo://app?vid=c21a0fc5-d351-4b04-a94c-1a7ffba83227"},"vehicle_type_id":"4","last_reported":1726654196,"current_range_meters":38800,"station_id":"ce4bh0h2rcd13ifvqd40","pricing_plan_id":"cebpf4jnsgd1na2vs0mg"},{"bike_id":"66337583-2aa6-49a0-bf82-27fb6f27972c","system_id":"levelo_inurba_marseille","lat":43.299441,"lon":5.372247,"is_reserved":false,"is_disabled":false,"rental_uris":{"android":"levelo://app?vid=66337583-2aa6-49a0-bf82-27fb6f27972c","ios":"levelo://app?vid=66337583-2aa6-49a0-bf82-27fb6f27972c"},"vehicle_type_id":"4","last_reported":1726654196,"current_range_meters":27200,"station_id":"ce4bgr92rcd13ifvqc7g","pricing_plan_id":"cebpf4jnsgd1na2vs0mg"},{"bike_id":"50bd2113-6c6f-4cd7-89cd-3f0eedf56c16","system_id":"levelo_inurba_marseille","lat":43.27671,"lon":5.38873,"is_reserved":false,"is_disabled":false,"rental_uris":{"android":"levelo://app?vid=50bd2113-6c6f-4cd7-89cd-3f0eedf56c16","ios":"levelo://app?vid=50bd2113-6c6f-4cd7-89cd-3f0eedf56c16"},"vehicle_type_id":"4","last_reported":1726654196,"current_range_meters":6800,"station_id":"ce4bhi12rcd13ifvqfo0","pricing_plan_id":"cebpf4jnsgd1na2vs0mg"},{"bike_id":"cbaf03bf-0340-4293-a424-18d0ef0b595f","system_id":"levelo_inurba_marseille","lat":43.29895,"lon":5.43654,"is_reserved":false,"is_disabled":false,"rental_uris":{"android":"levelo://app?vid=cbaf03bf-0340-4293-a424-18d0ef0b595f","ios":"levelo://app?vid=cbaf03bf-0340-4293-a424-18d0ef0b595f"},"vehicle_type_id":"4","last_reported":1726654196,"current_range_meters":16800,"station_id":"ce4bhpp2rcd13ifvqhfg","pricing_plan_id":"cebpf4jnsgd1na2vs0mg"},{"bike_id":"4a418309-f677-48c8-891d-32b3b9c23345","system_id":"levelo_inurba_marseille","lat":43.231903,"lon":5.399848,"is_reserved":false,"is_disabled":false,"rental_uris":{"android":"levelo://app?vid=4a418309-f677-48c8-891d-32b3b9c23345","ios":"levelo://app?vid=4a418309-f677-48c8-891d-32b3b9c23345"},"vehicle_type_id":"4","last_reported":1726654196,"current_range_meters":38000,"station_id":"ce4bhn12rcd13ifvqgqg","pricing_plan_id":"cebpf4jnsgd1na2vs0mg"},{"bike_id":"7b658259-df67-42c8-a0c3-d096cc6551d8","system_id":"levelo_inurba_marseille","lat":43.30546,"lon":5.36546,"is_reserved":false,"is_disabled":false,"rental_uris":{"android":"levelo://app?vid=7b658259-df67-42c8-a0c3-d096cc6551d8","ios":"levelo://app?vid=7b658259-df67-42c8-a0c3-d096cc6551d8"},"vehicle_type_id":"4","last_reported":1726654196,"current_range_meters":28800,"station_id":"ce4bgs12rcd13ifvqcag","pricing_plan_id":"cebpf4jnsgd1na2vs0mg"},{"bike_id":"bbc79cb4-4676-417f-b577-5eb7912639d9","system_id":"levelo_inurba_marseille","lat":43.3136,"lon":5.36707,"is_reserved":false,"is_disabled":false,"rental_uris":{"android":"levelo://app?vid=bbc79cb4-4676-417f-b577-5eb7912639d9","ios":"levelo://app?vid=bbc79cb4-4676-417f-b577-5eb7912639d9"},"vehicle_type_id":"4","last_reported":1726654196,"current_range_meters":30400,"station_id":"ce4bgr92rcd13ifvqc6g","pricing_plan_id":"cebpf4jnsgd1na2vs0mg"},{"bike_id":"3b54b536-3434-4cdc-ae54-eced2fe64229","system_id":"levelo_inurba_marseille","lat":43.28494,"lon":5.38539,"is_reserved":false,"is_disabled":false,"rental_uris":{"android":"levelo://app?vid=3b54b536-3434-4cdc-ae54-eced2fe64229","ios":"levelo://app?vid=3b54b536-3434-4cdc-ae54-eced2fe64229"},"vehicle_type_id":"4","last_reported":1726654196,"current_range_meters":6000,"station_id":"ce4bh8p2rcd13ifvqeb0","pricing_plan_id":"cebpf4jnsgd1na2vs0mg"},{"bike_id":"29fb8db0-bc72-45e8-9718-014b21f653e2","system_id":"levelo_inurba_marseille","lat":43.30534,"lon":5.36546,"is_reserved":false,"is_disabled":false,"rental_uris":{"android":"levelo://app?vid=29fb8db0-bc72-45e8-9718-014b21f653e2","ios":"levelo://app?vid=29fb8db0-bc72-45e8-9718-014b21f653e2"},"vehicle_type_id":"4","last_reported":1726654196,"current_range_meters":37600,"station_id":"ce4bgs12rcd13ifvqcag","pricing_plan_id":"cebpf4jnsgd1na2vs0mg"},{"bike_id":"a28e2668-aa90-4c07-9a87-9b12806dcc1d","system_id":"levelo_inurba_marseille","lat":43.30912,"lon":5.36857,"is_reserved":false,"is_disabled":false,"rental_uris":{"android":"levelo://app?vid=a28e2668-aa90-4c07-9a87-9b12806dcc1d","ios":"levelo://app?vid=a28e2668-aa90-4c07-9a87-9b12806dcc1d"},"vehicle_type_id":"4","last_reported":1726654196,"current_range_meters":33600,"station_id":"ce4bgn92rcd13ifvqbvg","pricing_plan_id":"cebpf4jnsgd1na2vs0mg"},{"bike_id":"82b54b4a-eb3e-4981-8831-a339b435a1ba","system_id":"levelo_inurba_marseille","lat":43.28856,"lon":5.35843,"is_reserved":false,"is_disabled":false,"rental_uris":{"android":"levelo://app?vid=82b54b4a-eb3e-4981-8831-a339b435a1ba","ios":"levelo://app?vid=82b54b4a-eb3e-4981-8831-a339b435a1ba"},"vehicle_type_id":"4","last_reported":1726654196,"current_range_meters":39200,"station_id":"ce4bhb12rcd13ifvqem0","pricing_plan_id":"cebpf4jnsgd1na2vs0mg"},{"bike_id":"b6a1faf6-4459-4086-924d-f0fe7db22b61","system_id":"levelo_inurba_marseille","lat":43.29006,"lon":5.35607,"is_reserved":false,"is_disabled":false,"rental_uris":{"android":"levelo://app?vid=b6a1faf6-4459-4086-924d-f0fe7db22b61","ios":"levelo://app?vid=b6a1faf6-4459-4086-924d-f0fe7db22b61"},"vehicle_type_id":"4","last_reported":1726654196,"current_range_meters":34000,"station_id":"ce4bhb92rcd13ifvqen0","pricing_plan_id":"cebpf4jnsgd1na2vs0mg"},{"bike_id":"67b4d187-419a-4e8a-b221-d2465bf036ec","system_id":"levelo_inurba_marseille","lat":43.31165,"lon":5.38714,"is_reserved":false,"is_disabled":false,"rental_uris":{"android":"levelo://app?vid=67b4d187-419a-4e8a-b221-d2465bf036ec","ios":"levelo://app?vid=67b4d187-419a-4e8a-b221-d2465bf036ec"},"vehicle_type_id":"4","last_reported":1726654196,"current_range_meters":38000,"station_id":"ce4bgv12rcd13ifvqcp0","pricing_plan_id":"cebpf4jnsgd1na2vs0mg"},{"bike_id":"a225e308-9f3b-4239-997c-85b47c044156","system_id":"levelo_inurba_marseille","lat":43.25926,"lon":5.40909,"is_reserved":false,"is_disabled":false,"rental_uris":{"android":"levelo://app?vid=a225e308-9f3b-4239-997c-85b47c044156","ios":"levelo://app?vid=a225e308-9f3b-4239-997c-85b47c044156"},"vehicle_type_id":"4","last_reported":1726654196,"current_range_meters":30000,"station_id":"ce4bhm92rcd13ifvqglg","pricing_plan_id":"cebpf4jnsgd1na2vs0mg"},{"bike_id":"fe7db46e-8970-4b8c-a594-69ea2b5c25ff","system_id":"levelo_inurba_marseille","lat":43.29864,"lon":5.39737,"is_reserved":false,"is_disabled":false,"rental_uris":{"android":"levelo://app?vid=fe7db46e-8970-4b8c-a594-69ea2b5c25ff","ios":"levelo://app?vid=fe7db46e-8970-4b8c-a594-69ea2b5c25ff"},"vehicle_type_id":"4","last_reported":1726654196,"current_range_meters":40000,"station_id":"ce4bh0h2rcd13ifvqd50","pricing_plan_id":"cebpf4jnsgd1na2vs0mg"},{"bike_id":"7d598340-5a81-41ac-be9b-cdf83a161ce2","system_id":"levelo_inurba_marseille","lat":43.29615,"lon":5.37158,"is_reserved":false,"is_disabled":false,"rental_uris":{"android":"levelo://app?vid=7d598340-5a81-41ac-be9b-cdf83a161ce2","ios":"levelo://app?vid=7d598340-5a81-41ac-be9b-cdf83a161ce2"},"vehicle_type_id":"4","last_reported":1726654196,"current_range_meters":10800,"station_id":"ce4bgnh2rcd13ifvqc0g","pricing_plan_id":"cebpf4jnsgd1na2vs0mg"},{"bike_id":"c82d7f3c-afe2-4dff-9dcb-16ae1a7b7ae3","system_id":"levelo_inurba_marseille","lat":43.32285,"lon":5.38271,"is_reserved":false,"is_disabled":false,"rental_uris":{"android":"levelo://app?vid=c82d7f3c-afe2-4dff-9dcb-16ae1a7b7ae3","ios":"levelo://app?vid=c82d7f3c-afe2-4dff-9dcb-16ae1a7b7ae3"},"vehicle_type_id":"4","last_reported":1726654196,"current_range_meters":6800,"station_id":"ce4bhr12rcd13ifvqhqg","pricing_plan_id":"cebpf4jnsgd1na2vs0mg"},{"bike_id":"e1607eb9-ca47-4127-a279-48a629c37fa3","system_id":"levelo_inurba_marseille","lat":43.31495,"lon":5.373095,"is_reserved":false,"is_disabled":false,"rental_uris":{"android":"levelo://app?vid=e1607eb9-ca47-4127-a279-48a629c37fa3","ios":"levelo://app?vid=e1607eb9-ca47-4127-a279-48a629c37fa3"},"vehicle_type_id":"4","last_reported":1726654196,"current_range_meters":8400,"station_id":"ce4bgrp2rcd13ifvqc9g","pricing_plan_id":"cebpf4jnsgd1na2vs0mg"},{"bike_id":"328d45f9-980e-4811-97c0-47d761861509","system_id":"levelo_inurba_marseille","lat":43.29847,"lon":5.37836,"is_reserved":false,"is_disabled":false,"rental_uris":{"android":"levelo://app?vid=328d45f9-980e-4811-97c0-47d761861509","ios":"levelo://app?vid=328d45f9-980e-4811-97c0-47d761861509"},"vehicle_type_id":"4","last_reported":1726654196,"current_range_meters":11600,"station_id":"ce4bgkh2rcd13ifvqbl0","pricing_plan_id":"cebpf4jnsgd1na2vs0mg"},{"bike_id":"58c940d4-c7df-4e13-9d2d-d568a1ce69d5","system_id":"levelo_inurba_marseille","lat":43.24179,"lon":5.39733,"is_reserved":false,"is_disabled":false,"rental_uris":{"android":"levelo://app?vid=58c940d4-c7df-4e13-9d2d-d568a1ce69d5","ios":"levelo://app?vid=58c940d4-c7df-4e13-9d2d-d568a1ce69d5"},"vehicle_type_id":"4","last_reported":1726654196,"current_range_meters":26800,"station_id":"ce4bhn12rcd13ifvqgpg","pricing_plan_id":"cebpf4jnsgd1na2vs0mg"},{"bike_id":"02c36cc7-37e2-467d-8a7a-fdef23128706","system_id":"levelo_inurba_marseille","lat":43.24079,"lon":5.3774,"is_reserved":false,"is_disabled":false,"rental_uris":{"android":"levelo://app?vid=02c36cc7-37e2-467d-8a7a-fdef23128706","ios":"levelo://app?vid=02c36cc7-37e2-467d-8a7a-fdef23128706"},"vehicle_type_id":"4","last_reported":1726654196,"current_range_meters":38000,"station_id":"ce4bhnp2rcd13ifvqgvg","pricing_plan_id":"cebpf4jnsgd1na2vs0mg"},{"bike_id":"b453ec34-11a5-4a6e-b91d-7bd98a08a577","system_id":"levelo_inurba_marseille","lat":43.2953,"lon":5.375,"is_reserved":false,"is_disabled":false,"rental_uris":{"android":"levelo://app?vid=b453ec34-11a5-4a6e-b91d-7bd98a08a577","ios":"levelo://app?vid=b453ec34-11a5-4a6e-b91d-7bd98a08a577"},"vehicle_type_id":"4","last_reported":1726654196,"current_range_meters":40000,"station_id":"ce4bgkp2rcd13ifvqbmg","pricing_plan_id":"cebpf4jnsgd1na2vs0mg"},{"bike_id":"bc5f922a-1338-4c4b-a826-a731ec3a7dad","system_id":"levelo_inurba_marseille","lat":43.26195,"lon":5.37445,"is_reserved":false,"is_disabled":false,"rental_uris":{"android":"levelo://app?vid=bc5f922a-1338-4c4b-a826-a731ec3a7dad","ios":"levelo://app?vid=bc5f922a-1338-4c4b-a826-a731ec3a7dad"},"vehicle_type_id":"4","last_reported":1726654196,"current_range_meters":28400,"station_id":"ce4bhgp2rcd13ifvqfc0","pricing_plan_id":"cebpf4jnsgd1na2vs0mg"},{"bike_id":"11bedb75-4f1b-45b8-96b0-4fd2f3ba6897","system_id":"levelo_inurba_marseille","lat":43.30134,"lon":5.37405,"is_reserved":false,"is_disabled":false,"rental_uris":{"android":"levelo://app?vid=11bedb75-4f1b-45b8-96b0-4fd2f3ba6897","ios":"levelo://app?vid=11bedb75-4f1b-45b8-96b0-4fd2f3ba6897"},"vehicle_type_id":"4","last_reported":1726654196,"current_range_meters":9200,"station_id":"ce4bgs92rcd13ifvqcc0","pricing_plan_id":"cebpf4jnsgd1na2vs0mg"},{"bike_id":"fa690805-233a-4a70-a9f3-33f1b67cdb1f","system_id":"levelo_inurba_marseille","lat":43.32289,"lon":5.38266,"is_reserved":false,"is_disabled":false,"rental_uris":{"android":"levelo://app?vid=fa690805-233a-4a70-a9f3-33f1b67cdb1f","ios":"levelo://app?vid=fa690805-233a-4a70-a9f3-33f1b67cdb1f"},"vehicle_type_id":"4","last_reported":1726654196,"current_range_meters":28400,"station_id":"ce4bhr12rcd13ifvqhqg","pricing_plan_id":"cebpf4jnsgd1na2vs0mg"},{"bike_id":"d4dee6ce-09ee-4472-9917-4640f642bb72","system_id":"levelo_inurba_marseille","lat":43.2293,"lon":5.35379,"is_reserved":false,"is_disabled":false,"rental_uris":{"android":"levelo://app?vid=d4dee6ce-09ee-4472-9917-4640f642bb72","ios":"levelo://app?vid=d4dee6ce-09ee-4472-9917-4640f642bb72"},"vehicle_type_id":"4","last_reported":1726654196,"current_range_meters":29600,"station_id":"cpo3532slgdg3j2ikp40","pricing_plan_id":"cebpf4jnsgd1na2vs0mg"},{"bike_id":"8b608b96-fedf-4511-8d4b-09bad2606e1a","system_id":"levelo_inurba_marseille","lat":43.2772,"lon":5.41129,"is_reserved":false,"is_disabled":false,"rental_uris":{"android":"levelo://app?vid=8b608b96-fedf-4511-8d4b-09bad2606e1a","ios":"levelo://app?vid=8b608b96-fedf-4511-8d4b-09bad2606e1a"},"vehicle_type_id":"4","last_reported":1726654196,"current_range_meters":6000,"station_id":"","pricing_plan_id":"cebpf4jnsgd1na2vs0mg"},{"bike_id":"74fcf1e7-64a1-42f8-bcec-bf0af491e527","system_id":"levelo_inurba_marseille","lat":43.31713,"lon":5.43705,"is_reserved":false,"is_disabled":false,"rental_uris":{"android":"levelo://app?vid=74fcf1e7-64a1-42f8-bcec-bf0af491e527","ios":"levelo://app?vid=74fcf1e7-64a1-42f8-bcec-bf0af491e527"},"vehicle_type_id":"4","last_reported":1726654196,"current_range_meters":40000,"station_id":"ce4bhp92rcd13ifvqhcg","pricing_plan_id":"cebpf4jnsgd1na2vs0mg"},{"bike_id":"1568d2cb-32bc-49ce-8e47-763403fa167e","system_id":"levelo_inurba_marseille","lat":43.31348,"lon":5.36702,"is_reserved":false,"is_disabled":false,"rental_uris":{"android":"levelo://app?vid=1568d2cb-32bc-49ce-8e47-763403fa167e","ios":"levelo://app?vid=1568d2cb-32bc-49ce-8e47-763403fa167e"},"vehicle_type_id":"4","last_reported":1726654196,"current_range_meters":31200,"station_id":"ce4bgr92rcd13ifvqc6g","pricing_plan_id":"cebpf4jnsgd1na2vs0mg"},{"bike_id":"7a2df432-d0e6-4d10-a221-467b4e851dc8","system_id":"levelo_inurba_marseille","lat":43.304291,"lon":5.388919,"is_reserved":false,"is_disabled":false,"rental_uris":{"android":"levelo://app?vid=7a2df432-d0e6-4d10-a221-467b4e851dc8","ios":"levelo://app?vid=7a2df432-d0e6-4d10-a221-467b4e851dc8"},"vehicle_type_id":"4","last_reported":1726654196,"current_range_meters":19600,"station_id":"ce4bgkh2rcd13ifvqbl0","pricing_plan_id":"cebpf4jnsgd1na2vs0mg"},{"bike_id":"053264eb-67b9-4147-bfba-4ec735197e4f","system_id":"levelo_inurba_marseille","lat":43.25581,"lon":5.38227,"is_reserved":false,"is_disabled":false,"rental_uris":{"android":"levelo://app?vid=053264eb-67b9-4147-bfba-4ec735197e4f","ios":"levelo://app?vid=053264eb-67b9-4147-bfba-4ec735197e4f"},"vehicle_type_id":"4","last_reported":1726654196,"current_range_meters":39200,"station_id":"ce4bhih2rcd13ifvqfs0","pricing_plan_id":"cebpf4jnsgd1na2vs0mg"},{"bike_id":"8a389216-1ae0-4d41-ab93-8df59075302a","system_id":"levelo_inurba_marseille","lat":43.27409,"lon":5.4245,"is_reserved":false,"is_disabled":false,"rental_uris":{"android":"levelo://app?vid=8a389216-1ae0-4d41-ab93-8df59075302a","ios":"levelo://app?vid=8a389216-1ae0-4d41-ab93-8df59075302a"},"vehicle_type_id":"4","last_reported":1726654196,"current_range_meters":32000,"station_id":"","pricing_plan_id":"cebpf4jnsgd1na2vs0mg"},{"bike_id":"dd6cd99b-d166-48dc-87a4-3a7e704d417a","system_id":"levelo_inurba_marseille","lat":43.301575,"lon":5.379742,"is_reserved":false,"is_disabled":false,"rental_uris":{"android":"levelo://app?vid=dd6cd99b-d166-48dc-87a4-3a7e704d417a","ios":"levelo://app?vid=dd6cd99b-d166-48dc-87a4-3a7e704d417a"},"vehicle_type_id":"4","last_reported":1726654196,"current_range_meters":16400,"station_id":"","pricing_plan_id":"cebpf4jnsgd1na2vs0mg"},{"bike_id":"54c9ec83-eaf0-4bb3-8e19-e7f33f4b62d1","system_id":"levelo_inurba_marseille","lat":43.28372,"lon":5.35742,"is_reserved":false,"is_disabled":false,"rental_uris":{"android":"levelo://app?vid=54c9ec83-eaf0-4bb3-8e19-e7f33f4b62d1","ios":"levelo://app?vid=54c9ec83-eaf0-4bb3-8e19-e7f33f4b62d1"},"vehicle_type_id":"4","last_reported":1726654196,"current_range_meters":12000,"station_id":"","pricing_plan_id":"cebpf4jnsgd1na2vs0mg"},{"bike_id":"2ae9adc7-73a4-4996-94a1-bd75ddcf6673","system_id":"levelo_inurba_marseille","lat":43.30905,"lon":5.36856,"is_reserved":false,"is_disabled":false,"rental_uris":{"android":"levelo://app?vid=2ae9adc7-73a4-4996-94a1-bd75ddcf6673","ios":"levelo://app?vid=2ae9adc7-73a4-4996-94a1-bd75ddcf6673"},"vehicle_type_id":"4","last_reported":1726654196,"current_range_meters":34800,"station_id":"ce4bgn92rcd13ifvqbvg","pricing_plan_id":"cebpf4jnsgd1na2vs0mg"},{"bike_id":"0f7561aa-0fa9-417e-b432-a5c4a0588518","system_id":"levelo_inurba_marseille","lat":43.22934,"lon":5.353816,"is_reserved":false,"is_disabled":false,"rental_uris":{"android":"levelo://app?vid=0f7561aa-0fa9-417e-b432-a5c4a0588518","ios":"levelo://app?vid=0f7561aa-0fa9-417e-b432-a5c4a0588518"},"vehicle_type_id":"4","last_reported":1726654196,"current_range_meters":36800,"station_id":"cpo3532slgdg3j2ikp40","pricing_plan_id":"cebpf4jnsgd1na2vs0mg"},{"bike_id":"8d545e38-8d8b-4b3e-b0a8-34bdd937492e","system_id":"levelo_inurba_marseille","lat":43.25931,"lon":5.40903,"is_reserved":false,"is_disabled":false,"rental_uris":{"android":"levelo://app?vid=8d545e38-8d8b-4b3e-b0a8-34bdd937492e","ios":"levelo://app?vid=8d545e38-8d8b-4b3e-b0a8-34bdd937492e"},"vehicle_type_id":"4","last_reported":1726654196,"current_range_meters":8000,"station_id":"ce4bhm92rcd13ifvqglg","pricing_plan_id":"cebpf4jnsgd1na2vs0mg"},{"bike_id":"23c085d1-3aba-4577-bbed-5bb8f2fcc18a","system_id":"levelo_inurba_marseille","lat":43.30908,"lon":5.36855,"is_reserved":false,"is_disabled":false,"rental_uris":{"android":"levelo://app?vid=23c085d1-3aba-4577-bbed-5bb8f2fcc18a","ios":"levelo://app?vid=23c085d1-3aba-4577-bbed-5bb8f2fcc18a"},"vehicle_type_id":"4","last_reported":1726654196,"current_range_meters":39200,"station_id":"ce4bgn92rcd13ifvqbvg","pricing_plan_id":"cebpf4jnsgd1na2vs0mg"},{"bike_id":"8f01edf6-f082-4c16-ae5f-8a767834b157","system_id":"levelo_inurba_marseille","lat":43.2748,"lon":5.42462,"is_reserved":false,"is_disabled":false,"rental_uris":{"android":"levelo://app?vid=8f01edf6-f082-4c16-ae5f-8a767834b157","ios":"levelo://app?vid=8f01edf6-f082-4c16-ae5f-8a767834b157"},"vehicle_type_id":"4","last_reported":1726654196,"current_range_meters":23200,"station_id":"ce4bhn92rcd13ifvqgrg","pricing_plan_id":"cebpf4jnsgd1na2vs0mg"},{"bike_id":"e83497f6-f995-4b32-a4a1-bfb962097d04","system_id":"levelo_inurba_marseille","lat":43.337444,"lon":5.374475,"is_reserved":false,"is_disabled":false,"rental_uris":{"android":"levelo://app?vid=e83497f6-f995-4b32-a4a1-bfb962097d04","ios":"levelo://app?vid=e83497f6-f995-4b32-a4a1-bfb962097d04"},"vehicle_type_id":"4","last_reported":1726654196,"current_range_meters":38000,"station_id":"ce4bgj92rcd13ifvqbd0","pricing_plan_id":"cebpf4jnsgd1na2vs0mg"},{"bike_id":"e337e095-5fa1-4d79-86a2-aa9de700ba6d","system_id":"levelo_inurba_marseille","lat":43.30351,"lon":5.41875,"is_reserved":false,"is_disabled":false,"rental_uris":{"android":"levelo://app?vid=e337e095-5fa1-4d79-86a2-aa9de700ba6d","ios":"levelo://app?vid=e337e095-5fa1-4d79-86a2-aa9de700ba6d"},"vehicle_type_id":"4","last_reported":1726654196,"current_range_meters":36400,"station_id":"ce4bhop2rcd13ifvqh7g","pricing_plan_id":"cebpf4jnsgd1na2vs0mg"},{"bike_id":"c50f92f6-961f-4637-8679-f1adec4f4b37","system_id":"levelo_inurba_marseille","lat":43.29615,"lon":5.37161,"is_reserved":false,"is_disabled":false,"rental_uris":{"android":"levelo://app?vid=c50f92f6-961f-4637-8679-f1adec4f4b37","ios":"levelo://app?vid=c50f92f6-961f-4637-8679-f1adec4f4b37"},"vehicle_type_id":"4","last_reported":1726654196,"current_range_meters":38800,"station_id":"ce4bgnh2rcd13ifvqc0g","pricing_plan_id":"cebpf4jnsgd1na2vs0mg"},{"bike_id":"498a9975-f93a-42dc-9b2f-06fb60860407","system_id":"levelo_inurba_marseille","lat":43.23149,"lon":5.43727,"is_reserved":false,"is_disabled":false,"rental_uris":{"android":"levelo://app?vid=498a9975-f93a-42dc-9b2f-06fb60860407","ios":"levelo://app?vid=498a9975-f93a-42dc-9b2f-06fb60860407"},"vehicle_type_id":"4","last_reported":1726654196,"current_range_meters":25200,"station_id":"ce4bhmp2rcd13ifvqgog","pricing_plan_id":"cebpf4jnsgd1na2vs0mg"},{"bike_id":"ad01d428-f901-4c98-bbe4-108fa2ef2f53","system_id":"levelo_inurba_marseille","lat":43.26678,"lon":5.38271,"is_reserved":false,"is_disabled":false,"rental_uris":{"android":"levelo://app?vid=ad01d428-f901-4c98-bbe4-108fa2ef2f53","ios":"levelo://app?vid=ad01d428-f901-4c98-bbe4-108fa2ef2f53"},"vehicle_type_id":"4","last_reported":1726654196,"current_range_meters":20400,"station_id":"ce4bhg92rcd13ifvqf90","pricing_plan_id":"cebpf4jnsgd1na2vs0mg"},{"bike_id":"15b391f8-82a1-45ba-80c4-3a85015bd649","system_id":"levelo_inurba_marseille","lat":43.32476,"lon":5.36565,"is_reserved":false,"is_disabled":false,"rental_uris":{"android":"levelo://app?vid=15b391f8-82a1-45ba-80c4-3a85015bd649","ios":"levelo://app?vid=15b391f8-82a1-45ba-80c4-3a85015bd649"},"vehicle_type_id":"4","last_reported":1726654196,"current_range_meters":36400,"station_id":"ce4bhs12rcd13ifvqhvg","pricing_plan_id":"cebpf4jnsgd1na2vs0mg"},{"bike_id":"034ab4e0-709f-4277-bccb-b02a93c9fb01","system_id":"levelo_inurba_marseille","lat":43.27808,"lon":5.4071,"is_reserved":false,"is_disabled":false,"rental_uris":{"android":"levelo://app?vid=034ab4e0-709f-4277-bccb-b02a93c9fb01","ios":"levelo://app?vid=034ab4e0-709f-4277-bccb-b02a93c9fb01"},"vehicle_type_id":"4","last_reported":1726654196,"current_range_meters":28000,"station_id":"ce4bhnh2rcd13ifvqgtg","pricing_plan_id":"cebpf4jnsgd1na2vs0mg"},{"bike_id":"7bb3d27d-6090-4033-82d0-86fa4b2ffe9a","system_id":"levelo_inurba_marseille","lat":43.29842,"lon":5.3626,"is_reserved":false,"is_disabled":false,"rental_uris":{"android":"levelo://app?vid=7bb3d27d-6090-4033-82d0-86fa4b2ffe9a","ios":"levelo://app?vid=7bb3d27d-6090-4033-82d0-86fa4b2ffe9a"},"vehicle_type_id":"4","last_reported":1726654196,"current_range_meters":38800,"station_id":"ce4bgpp2rcd13ifvqc3g","pricing_plan_id":"cebpf4jnsgd1na2vs0mg"},{"bike_id":"d5209e8b-ca6d-498a-bc7c-f877b43f8f18","system_id":"levelo_inurba_marseille","lat":43.31177,"lon":5.38718,"is_reserved":false,"is_disabled":false,"rental_uris":{"android":"levelo://app?vid=d5209e8b-ca6d-498a-bc7c-f877b43f8f18","ios":"levelo://app?vid=d5209e8b-ca6d-498a-bc7c-f877b43f8f18"},"vehicle_type_id":"4","last_reported":1726654196,"current_range_meters":24800,"station_id":"ce4bgv12rcd13ifvqcp0","pricing_plan_id":"cebpf4jnsgd1na2vs0mg"},{"bike_id":"ffa1ad2c-29b4-4843-b75c-0ee5f517dd33","system_id":"levelo_inurba_marseille","lat":43.27497,"lon":5.4245,"is_reserved":false,"is_disabled":false,"rental_uris":{"android":"levelo://app?vid=ffa1ad2c-29b4-4843-b75c-0ee5f517dd33","ios":"levelo://app?vid=ffa1ad2c-29b4-4843-b75c-0ee5f517dd33"},"vehicle_type_id":"4","last_reported":1726654196,"current_range_meters":12000,"station_id":"ce4bhn92rcd13ifvqgrg","pricing_plan_id":"cebpf4jnsgd1na2vs0mg"},{"bike_id":"1fcbd01a-427d-43a5-9535-912c25efa134","system_id":"levelo_inurba_marseille","lat":43.23191,"lon":5.35547,"is_reserved":false,"is_disabled":false,"rental_uris":{"android":"levelo://app?vid=1fcbd01a-427d-43a5-9535-912c25efa134","ios":"levelo://app?vid=1fcbd01a-427d-43a5-9535-912c25efa134"},"vehicle_type_id":"4","last_reported":1726654196,"current_range_meters":38000,"station_id":"ce4bhu92rcd13ifvqi70","pricing_plan_id":"cebpf4jnsgd1na2vs0mg"},{"bike_id":"38fe9352-6de4-4cfc-9cd2-3b888e14bfba","system_id":"levelo_inurba_marseille","lat":43.24176,"lon":5.39733,"is_reserved":false,"is_disabled":false,"rental_uris":{"android":"levelo://app?vid=38fe9352-6de4-4cfc-9cd2-3b888e14bfba","ios":"levelo://app?vid=38fe9352-6de4-4cfc-9cd2-3b888e14bfba"},"vehicle_type_id":"4","last_reported":1726654196,"current_range_meters":37600,"station_id":"ce4bhn12rcd13ifvqgpg","pricing_plan_id":"cebpf4jnsgd1na2vs0mg"},{"bike_id":"27109f1d-8ca1-4ba1-8193-7ca41a45028e","system_id":"levelo_inurba_marseille","lat":43.26685,"lon":5.38277,"is_reserved":false,"is_disabled":false,"rental_uris":{"android":"levelo://app?vid=27109f1d-8ca1-4ba1-8193-7ca41a45028e","ios":"levelo://app?vid=27109f1d-8ca1-4ba1-8193-7ca41a45028e"},"vehicle_type_id":"4","last_reported":1726654196,"current_range_meters":30400,"station_id":"ce4bhg92rcd13ifvqf90","pricing_plan_id":"cebpf4jnsgd1na2vs0mg"},