{"last_updated":1743008927,"ttl":60,"version":"2.2","data":{"bikes":[{"bike_id":"4fd30644-bd19-4f51-96cd-133fd2b1c3c7","system_id":"levelo_inurba_marseille","lat":43.28616,"lon":5.35091,"is_reserved":false,"is_disabled":false,"rental_uris":{"android":"levelo://app?vid=4fd30644-bd19-4f51-96cd-133fd2b1c3c7","ios":"levelo://app?vid=4fd30644-bd19-4f51-96cd-133fd2b1c3c7"},"vehicle_type_id":"4","last_reported":1743008928,"current_range_meters":2800,"station_id":"ce4bhch2rcd13ifvqeug","pricing_plan_id":"cebpf4jnsgd1na2vs0mg"},{"bike_id":"576716e7-ed7b-40fa-80fd-1103645ec3e0","system_id":"levelo_inurba_marseille","lat":43.28158,"lon":5.42641,"is_reserved":false,"is_disabled":false,"rental_uris":{"android":"levelo://app?vid=576716e7-ed7b-40fa-80fd-1103645ec3e0","ios":"levelo://app?vid=576716e7-ed7b-40fa-80fd-1103645ec3e0"},"vehicle_type_id":"4","last_reported":1743008928,"current_range_meters":2800,"station_id":"ce4bhnh2rcd13ifvqgug","pricing_plan_id":"cebpf4jnsgd1na2vs0mg"},{"bike_id":"feede440-6eca-4713-931a-e8829fa57859","system_id":"levelo_inurba_marseille","lat":43.27212,"lon":5.39185,"is_reserved":false,"is_disabled":false,"rental_uris":{"android":"levelo://app?vid=feede440-6eca-4713-931a-e8829fa57859","ios":"levelo://app?vid=feede440-6eca-4713-931a-e8829fa57859"},"vehicle_type_id":"4","last_reported":1743008928,"current_range_meters":2800,"station_id":"ce4bhhp2rcd13ifvqfm0","pricing_plan_id":"cebpf4jnsgd1na2vs0mg"},{"bike_id":"bab9d22a-0cff-405a-b6e7-e98639fd34a5","system_id":"levelo_inurba_marseille","lat":43.2989,"lon":5.43669,"is_reserved":false,"is_disabled":false,"rental_uris":{"android":"levelo://app?vid=bab9d22a-0cff-405a-b6e7-e98639fd34a5","ios":"levelo://app?vid=bab9d22a-0cff-405a-b6e7-e98639fd34a5"},"vehicle_type_id":"4","last_reported":1743008928,"current_range_meters":2800,"station_id":"ce4bhpp2rcd13ifvqhfg","pricing_plan_id":"cebpf4jnsgd1na2vs0mg"},{"bike_id":"a5fb06d1-c469-4515-9522-548b956fd2b3","system_id":"levelo_inurba_marseille","lat":43.31761,"lon":5.39013,"is_reserved":false,"is_disabled":false,"rental_uris":{"android":"levelo://app?vid=a5fb06d1-c469-4515-9522-548b956fd2b3","ios":"levelo://app?vid=a5fb06d1-c469-4515-9522-548b956fd2b3"},"vehicle_type_id":"4","last_reported":1743008928,"current_range_meters":2800,"station_id":"ce4bhqp2rcd13ifvqhng","pricing_plan_id":"cebpf4jnsgd1na2vs0mg"},{"bike_id":"54e24d56-0d2e-49c0-95c5-3621c031387f","system_id":"levelo_inurba_marseille","lat":43.29033,"lon":5.37571,"is_reserved":false,"is_disabled":false,"rental_uris":{"android":"levelo://app?vid=54e24d56-0d2e-49c0-95c5-3621c031387f","ios":"levelo://app?vid=54e24d56-0d2e-49c0-95c5-3621c031387f"},"vehicle_type_id":"4","last_reported":1743008928,"current_range_meters":2800,"station_id":"ce4bh692rcd13ifvqe90","pricing_plan_id":"cebpf4jnsgd1na2vs0mg"},{"bike_id":"65a95b21-e610-4a84-a2fd-806d1a52c8d1","system_id":"levelo_inurba_marseille","lat":43.29889,"lon":5.38899,"is_reserved":false,"is_disabled":false,"rental_uris":{"android":"levelo://app?vid=65a95b21-e610-4a84-a2fd-806d1a52c8d1","ios":"levelo://app?vid=65a95b21-e610-4a84-a2fd-806d1a52c8d1"},"vehicle_type_id":"4","last_reported":1743008928,"current_range_meters":2800,"station_id":"ce4bh392rcd13ifvqdl0","pricing_plan_id":"cebpf4jnsgd1na2vs0mg"},{"bike_id":"816e909f-1370-4c3a-81d4-9f036f6e0d37","system_id":"levelo_inurba_marseille","lat":43.292633,"lon":5.384335,"is_reserved":false,"is_disabled":false,"rental_uris":{"android":"levelo://app?vid=816e909f-1370-4c3a-81d4-9f036f6e0d37","ios":"levelo://app?vid=816e909f-1370-4c3a-81d4-9f036f6e0d37"},"vehicle_type_id":"4","last_reported":1743008928,"current_range_meters":2800,"station_id":"ce4bh692rcd13ifvqea0","pricing_plan_id":"cebpf4jnsgd1na2vs0mg"},{"bike_id":"e1e75890-5965-4394-8cf6-48590fd2c2ac","system_id":"levelo_inurba_marseille","lat":43.297891,"lon":5.381057,"is_reserved":false,"is_disabled":false,"rental_uris":{"android":"levelo://app?vid=e1e75890-5965-4394-8cf6-48590fd2c2ac","ios":"levelo://app?vid=e1e75890-5965-4394-8cf6-48590fd2c2ac"},"vehicle_type_id":"4","last_reported":1743008928,"current_range_meters":2800,"station_id":"ce4bgip2rcd13ifvqbb0","pricing_plan_id":"cebpf4jnsgd1na2vs0mg"},{"bike_id":"02c642d0-bab7-4205-b1fb-4419adeb4af1","system_id":"levelo_inurba_marseille","lat":43.29042,"lon":5.356,"is_reserved":false,"is_disabled":true,"rental_uris":{"android":"levelo://app?vid=02c642d0-bab7-4205-b1fb-4419adeb4af1","ios":"levelo://app?vid=02c642d0-bab7-4205-b1fb-4419adeb4af1"},"vehicle_type_id":"4","last_reported":1743008928,"current_range_meters":2800,"station_id":"","pricing_plan_id":"cebpf4jnsgd1na2vs0mg"},{"bike_id":"43ba1045-0b77-4d22-82ce-ec9cf357a0e8","system_id":"levelo_inurba_marseille","lat":43.26209,"lon":5.37441,"is_reserved":false,"is_disabled":false,"rental_uris":{"android":"levelo://app?vid=43ba1045-0b77-4d22-82ce-ec9cf357a0e8","ios":"levelo://app?vid=43ba1045-0b77-4d22-82ce-ec9cf357a0e8"},"vehicle_type_id":"4","last_reported":1743008928,"current_range_meters":2800,"station_id":"ce4bhgp2rcd13ifvqfc0","pricing_plan_id":"cebpf4jnsgd1na2vs0mg"},{"bike_id":"5db653e0-cd2e-41ba-9335-12db0bbefbed","system_id":"levelo_inurba_marseille","lat":43.2872,"lon":5.3792,"is_reserved":false,"is_disabled":false,"rental_uris":{"android":"levelo://app?vid=5db653e0-cd2e-41ba-9335-12db0bbefbed","ios":"levelo://app?vid=5db653e0-cd2e-41ba-9335-12db0bbefbed"},"vehicle_type_id":"4","last_reported":1743008928,"current_range_meters":2800,"station_id":"ce4bh9p2rcd13ifvqec0","pricing_plan_id":"cebpf4jnsgd1na2vs0mg"},{"bike_id":"ccd657dd-34cc-4d86-b636-8bef73a6c6a1","system_id":"levelo_inurba_marseille","lat":43.32111,"lon":5.36775,"is_reserved":false,"is_disabled":false,"rental_uris":{"android":"levelo://app?vid=ccd657dd-34cc-4d86-b636-8bef73a6c6a1","ios":"levelo://app?vid=ccd657dd-34cc-4d86-b636-8bef73a6c6a1"},"vehicle_type_id":"4","last_reported":1743008928,"current_range_meters":2800,"station_id":"ce4bhrh2rcd13ifvqhug","pricing_plan_id":"cebpf4jnsgd1na2vs0mg"},{"bike_id":"49a77b57-0e61-4a5d-bd8d-3f7e3a8cf2fb","system_id":"levelo_inurba_marseille","lat":43.27437,"lon":5.39443,"is_reserved":false,"is_disabled":true,"rental_uris":{"android":"levelo://app?vid=49a77b57-0e61-4a5d-bd8d-3f7e3a8cf2fb","ios":"levelo://app?vid=49a77b57-0e61-4a5d-bd8d-3f7e3a8cf2fb"},"vehicle_type_id":"4","last_reported":1743008928,"current_range_meters":3200,"station_id":"ce4bhdp2rcd13ifvqf20","pricing_plan_id":"cebpf4jnsgd1na2vs0mg"},{"bike_id":"ab592644-c88a-4029-8965-0195354adcb8","system_id":"levelo_inurba_marseille","lat":43.28706,"lon":5.39989,"is_reserved":false,"is_disabled":false,"rental_uris":{"android":"levelo://app?vid=ab592644-c88a-4029-8965-0195354adcb8","ios":"levelo://app?vid=ab592644-c88a-4029-8965-0195354adcb8"},"vehicle_type_id":"4","last_reported":1743008928,"current_range_meters":3200,"station_id":"ce4bho92rcd13ifvqh3g","pricing_plan_id":"cebpf4jnsgd1na2vs0mg"},{"bike_id":"fd7a2af8-9457-4025-b973-dfee612c3338","system_id":"levelo_inurba_marseille","lat":43.30407,"lon":5.39756,"is_reserved":false,"is_disabled":true,"rental_uris":{"android":"levelo://app?vid=fd7a2af8-9457-4025-b973-dfee612c3338","ios":"levelo://app?vid=fd7a2af8-9457-4025-b973-dfee612c3338"},"vehicle_type_id":"4","last_reported":1743008928,"current_range_meters":3200,"station_id":"ce4bh092rcd13ifvqd20","pricing_plan_id":"cebpf4jnsgd1na2vs0mg"},{"bike_id":"f65cead7-f581-4ca3-9e1c-ac0b9a06fdad","system_id":"levelo_inurba_marseille","lat":43.29533,"lon":5.39039,"is_reserved":false,"is_disabled":false,"rental_uris":{"android":"levelo://app?vid=f65cead7-f581-4ca3-9e1c-ac0b9a06fdad","ios":"levelo://app?vid=f65cead7-f581-4ca3-9e1c-ac0b9a06fdad"},"vehicle_type_id":"4","last_reported":1743008928,"current_range_meters":3200,"station_id":"ce4bh3p2rcd13ifvqdp0","pricing_plan_id":"cebpf4jnsgd1na2vs0mg"},{"bike_id":"6ad3e5e1-e378-47d7-b5bc-eca2fbdea0fa","system_id":"levelo_inurba_marseille","lat":43.27219,"lon":5.39181,"is_reserved":false,"is_disabled":false,"rental_uris":{"android":"levelo://app?vid=6ad3e5e1-e378-47d7-b5bc-eca2fbdea0fa","ios":"levelo://app?vid=6ad3e5e1-e378-47d7-b5bc-eca2fbdea0fa"},"vehicle_type_id":"4","last_reported":1743008928,"current_range_meters":3200,"station_id":"ce4bhhp2rcd13ifvqfm0","pricing_plan_id":"cebpf4jnsgd1na2vs0mg"},{"bike_id":"e3991444-bd39-49e5-adee-bba2c0a7fed1","system_id":"levelo_inurba_marseille","lat":43.24552,"lon":5.39521,"is_reserved":false,"is_disabled":false,"rental_uris":{"android":"levelo://app?vid=e3991444-bd39-49e5-adee-bba2c0a7fed1","ios":"levelo://app?vid=e3991444-bd39-49e5-adee-bba2c0a7fed1"},"vehicle_type_id":"4","last_reported":1743008928,"current_range_meters":3200,"station_id":"ce4bhlp2rcd13ifvqgjg","pricing_plan_id":"cebpf4jnsgd1na2vs0mg"},{"bike_id":"bc6194a4-ccd4-4a4e-a115-61af68469352","system_id":"levelo_inurba_marseille","lat":43.315176,"lon":5.380398,"is_reserved":false,"is_disabled":false,"rental_uris":{"android":"levelo://app?vid=bc6194a4-ccd4-4a4e-a115-61af68469352","ios":"levelo://app?vid=bc6194a4-ccd4-4a4e-a115-61af68469352"},"vehicle_type_id":"4","last_reported":1743008928,"current_range_meters":3200,"station_id":"ce4bhsp2rcd13ifvqi50","pricing_plan_id":"cebpf4jnsgd1na2vs0mg"},{"bike_id":"48fb31a8-b84c-4381-8d46-377e59e64c65","system_id":"levelo_inurba_marseille","lat":43.31357,"lon":5.37942,"is_reserved":false,"is_disabled":true,"rental_uris":{"android":"levelo://app?vid=48fb31a8-b84c-4381-8d46-377e59e64c65","ios":"levelo://app?vid=48fb31a8-b84c-4381-8d46-377e59e64c65"},"vehicle_type_id":"4","last_reported":1743008928,"current_range_meters":3200,"station_id":"","pricing_plan_id":"cebpf4jnsgd1na2vs0mg"},{"bike_id":"1eb94b89-4374-4cd5-94d2-f167d9037af7","system_id":"levelo_inurba_marseille","lat":43.287,"lon":5.39989,"is_reserved":false,"is_disabled":false,"rental_uris":{"android":"levelo://app?vid=1eb94b89-4374-4cd5-94d2-f167d9037af7","ios":"levelo://app?vid=1eb94b89-4374-4cd5-94d2-f167d9037af7"},"vehicle_type_id":"4","last_reported":1743008928,"current_range_meters":3600,"station_id":"ce4bho92rcd13ifvqh3g","pricing_plan_id":"cebpf4jnsgd1na2vs0mg"},{"bike_id":"b26c20ef-4fac-4da6-98f1-fff6345b255c","system_id":"levelo_inurba_marseille","lat":43.289407,"lon":5.378438,"is_reserved":false,"is_disabled":false,"rental_uris":{"android":"levelo://app?vid=b26c20ef-4fac-4da6-98f1-fff6345b255c","ios":"levelo://app?vid=b26c20ef-4fac-4da6-98f1-fff6345b255c"},"vehicle_type_id":"4","last_reported":1743008928,"current_range_meters":3600,"station_id":"ce4bhh92rcd13ifvqfj0","pricing_plan_id":"cebpf4jnsgd1na2vs0mg"},{"bike_id":"77a8506a-5ec0-4d47-8ed3-bfacaefb94bb","system_id":"levelo_inurba_marseille","lat":43.28404,"lon":5.37515,"is_reserved":false,"is_disabled":false,"rental_uris":{"android":"levelo://app?vid=77a8506a-5ec0-4d47-8ed3-bfacaefb94bb","ios":"levelo://app?vid=77a8506a-5ec0-4d47-8ed3-bfacaefb94bb"},"vehicle_type_id":"4","last_reported":1743008928,"current_range_meters":3600,"station_id":"ce4bh412rcd13ifvqds0","pricing_plan_id":"cebpf4jnsgd1na2vs0mg"},{"bike_id":"30ef55de-a114-4433-9298-ac228bf67140","system_id":"levelo_inurba_marseille","lat":43.30953,"lon":5.39027,"is_reserved":false,"is_disabled":false,"rental_uris":{"android":"levelo://app?vid=30ef55de-a114-4433-9298-ac228bf67140","ios":"levelo://app?vid=30ef55de-a114-4433-9298-ac228bf67140"},"vehicle_type_id":"4","last_reported":1743008928,"current_range_meters":3600,"station_id":"ce4bgup2rcd13ifvqco0","pricing_plan_id":"cebpf4jnsgd1na2vs0mg"},{"bike_id":"38dd599c-5d39-44d0-a9eb-9b52fc60cf31","system_id":"levelo_inurba_marseille","lat":43.26665,"lon":5.38266,"is_reserved":false,"is_disabled":false,"rental_uris":{"android":"levelo://app?vid=38dd599c-5d39-44d0-a9eb-9b52fc60cf31","ios":"levelo://app?vid=38dd599c-5d39-44d0-a9eb-9b52fc60cf31"},"vehicle_type_id":"4","last_reported":1743008928,"current_range_meters":3600,"station_id":"ce4bhg92rcd13ifvqf90","pricing_plan_id":"cebpf4jnsgd1na2vs0mg"},{"bike_id":"bbe91cb9-e8c5-48f9-a09f-820d5164df78","system_id":"levelo_inurba_marseille","lat":43.31168,"lon":5.3871,"is_reserved":false,"is_disabled":false,"rental_uris":{"android":"levelo://app?vid=bbe91cb9-e8c5-48f9-a09f-820d5164df78","ios":"levelo://app?vid=bbe91cb9-e8c5-48f9-a09f-820d5164df78"},"vehicle_type_id":"4","last_reported":1743008928,"current_range_meters":3600,"station_id":"ce4bgv12rcd13ifvqcp0","pricing_plan_id":"cebpf4jnsgd1na2vs0mg"},{"bike_id":"3b55eded-84a5-416e-9806-aefdbe64b81a","system_id":"levelo_inurba_marseille","lat":43.30897,"lon":5.3721,"is_reserved":false,"is_disabled":false,"rental_uris":{"android":"levelo://app?vid=3b55eded-84a5-416e-9806-aefdbe64b81a","ios":"levelo://app?vid=3b55eded-84a5-416e-9806-aefdbe64b81a"},"vehicle_type_id":"4","last_reported":1743008928,"current_range_meters":3600,"station_id":"ce4bguh2rcd13ifvqckg","pricing_plan_id":"cebpf4jnsgd1na2vs0mg"},{"bike_id":"cd20d16a-032a-4ea7-a430-255e9d8a59c5","system_id":"levelo_inurba_marseille","lat":43.28024,"lon":5.41119,"is_reserved":false,"is_disabled":false,"rental_uris":{"android":"levelo://app?vid=cd20d16a-032a-4ea7-a430-255e9d8a59c5","ios":"levelo://app?vid=cd20d16a-032a-4ea7-a430-255e9d8a59c5"},"vehicle_type_id":"4","last_reported":1743008928,"current_range_meters":3600,"station_id":"","pricing_plan_id":"cebpf4jnsgd1na2vs0mg"},{"bike_id":"3caf9297-9162-427d-b86d-54632f9b80d9","system_id":"levelo_inurba_marseille","lat":43.27807,"lon":5.40708,"is_reserved":false,"is_disabled":false,"rental_uris":{"android":"levelo://app?vid=3caf9297-9162-427d-b86d-54632f9b80d9","ios":"levelo://app?vid=3caf9297-9162-427d-b86d-54632f9b80d9"},"vehicle_type_id":"4","last_reported":1743008928,"current_range_meters":3600,"station_id":"ce4bhnh2rcd13ifvqgtg","pricing_plan_id":"cebpf4jnsgd1na2vs0mg"},{"bike_id":"ed5f039d-d1ea-47bb-b61c-14df46ebf048","system_id":"levelo_inurba_marseille","lat":43.29006,"lon":5.35614,"is_reserved":false,"is_disabled":false,"rental_uris":{"android":"levelo://app?vid=ed5f039d-d1ea-47bb-b61c-14df46ebf048","ios":"levelo://app?vid=ed5f039d-d1ea-47bb-b61c-14df46ebf048"},"vehicle_type_id":"4","last_reported":1743008928,"current_range_meters":4000,"station_id":"ce4bhb92rcd13ifvqen0","pricing_plan_id":"cebpf4jnsgd1na2vs0mg"},{"bike_id":"e3162120-725a-4663-8148-e797ab7d76d4","system_id":"levelo_inurba_marseille","lat":43.30397,"lon":5.36994,"is_reserved":false,"is_disabled":false,"rental_uris":{"android":"levelo://app?vid=e3162120-725a-4663-8148-e797ab7d76d4","ios":"levelo://app?vid=e3162120-725a-4663-8148-e797ab7d76d4"},"vehicle_type_id":"4","last_reported":1743008928,"current_range_meters":4000,"station_id":"","pricing_plan_id":"cebpf4jnsgd1na2vs0mg"},{"bike_id":"0c9cada4-2764-4013-a528-15089818cb84","system_id":"levelo_inurba_marseille","lat":43.27776,"lon":5.4117,"is_reserved":false,"is_disabled":false,"rental_uris":{"android":"levelo://app?vid=0c9cada4-2764-4013-a528-15089818cb84","ios":"levelo://app?vid=0c9cada4-2764-4013-a528-15089818cb84"},"vehicle_type_id":"4","last_reported":1743008928,"current_range_meters":4000,"station_id":"","pricing_plan_id":"cebpf4jnsgd1na2vs0mg"},{"bike_id":"682e17ed-d1d4-4b0f-9503-11f71648c49c","system_id":"levelo_inurba_marseille","lat":43.27809,"lon":5.40715,"is_reserved":false,"is_disabled":false,"rental_uris":{"android":"levelo://app?vid=682e17ed-d1d4-4b0f-9503-11f71648c49c","ios":"levelo://app?vid=682e17ed-d1d4-4b0f-9503-11f71648c49c"},"vehicle_type_id":"4","last_reported":1743008928,"current_range_meters":4000,"station_id":"ce4bhnh2rcd13ifvqgtg","pricing_plan_id":"cebpf4jnsgd1na2vs0mg"},{"bike_id":"85f740ce-b25c-4f01-a4d0-1cb1211ec32c","system_id":"levelo_inurba_marseille","lat":43.271819,"lon":5.40995,"is_reserved":false,"is_disabled":false,"rental_uris":{"android":"levelo://app?vid=85f740ce-b25c-4f01-a4d0-1cb1211ec32c","ios":"levelo://app?vid=85f740ce-b25c-4f01-a4d0-1cb1211ec32c"},"vehicle_type_id":"4","last_reported":1743008928,"current_range_meters":4000,"station_id":"ce4bhl12rcd13ifvqgf0","pricing_plan_id":"cebpf4jnsgd1na2vs0mg"},{"bike_id":"a48effe7-a145-4b42-bfb0-d77647ed5a96","system_id":"levelo_inurba_marseille","lat":43.269458,"lon":5.402522,"is_reserved":false,"is_disabled":false,"rental_uris":{"android":"levelo://app?vid=a48effe7-a145-4b42-bfb0-d77647ed5a96","ios":"levelo://app?vid=a48effe7-a145-4b42-bfb0-d77647ed5a96"},"vehicle_type_id":"4","last_reported":1743008928,"current_range_meters":4000,"station_id":"cjm6bp8fraef2m0cb0m0","pricing_plan_id":"cebpf4jnsgd1na2vs0mg"},{"bike_id":"573087b6-76af-4403-a986-3833782f0927","system_id":"levelo_inurba_marseille","lat":43.23187,"lon":5.39988,"is_reserved":false,"is_disabled":false,"rental_uris":{"android":"levelo://app?vid=573087b6-76af-4403-a986-3833782f0927","ios":"levelo://app?vid=573087b6-76af-4403-a986-3833782f0927"},"vehicle_type_id":"4","last_reported":1743008928,"current_range_meters":4000,"station_id":"ce4bhn12rcd13ifvqgqg","pricing_plan_id":"cebpf4jnsgd1na2vs0mg"},{"bike_id":"ac16162e-9eb6-40a2-ae8b-a763f64ec361","system_id":"levelo_inurba_marseille","lat":43.29,"lon":5.35632,"is_reserved":false,"is_disabled":true,"rental_uris":{"android":"levelo://app?vid=ac16162e-9eb6-40a2-ae8b-a763f64ec361","ios":"levelo://app?vid=ac16162e-9eb6-40a2-ae8b-a763f64ec361"},"vehicle_type_id":"4","last_reported":1743008928,"current_range_meters":4400,"station_id":"ce4bhb92rcd13ifvqen0","pricing_plan_id":"cebpf4jnsgd1na2vs0mg"},{"bike_id":"d9513bf5-f255-462a-a7d5-c6e6b011af31","system_id":"levelo_inurba_marseille","lat":43.27809,"lon":5.40717,"is_reserved":false,"is_disabled":false,"rental_uris":{"android":"levelo://app?vid=d9513bf5-f255-462a-a7d5-c6e6b011af31","ios":"levelo://app?vid=d9513bf5-f255-462a-a7d5-c6e6b011af31"},"vehicle_type_id":"4","last_reported":1743008928,"current_range_meters":4400,"station_id":"ce4bhnh2rcd13ifvqgtg","pricing_plan_id":"cebpf4jnsgd1na2vs0mg"},{"bike_id":"e88119b7-a718-4321-b2dc-884b54d91595","system_id":"levelo_inurba_marseille","lat":43.307875,"lon":5.37654,"is_reserved":false,"is_disabled":false,"rental_uris":{"android":"levelo://app?vid=e88119b7-a718-4321-b2dc-884b54d91595","ios":"levelo://app?vid=e88119b7-a718-4321-b2dc-884b54d91595"},"vehicle_type_id":"4","last_reported":1743008928,"current_range_meters":4400,"station_id":"ce4bgv92rcd13ifvqcq0","pricing_plan_id":"cebpf4jnsgd1na2vs0mg"},{"bike_id":"bdc8ffb1-f27f-4da7-b971-179a0606c625","system_id":"levelo_inurba_marseille","lat":43.29446,"lon":5.39751,"is_reserved":false,"is_disabled":false,"rental_uris":{"android":"levelo://app?vid=bdc8ffb1-f27f-4da7-b971-179a0606c625","ios":"levelo://app?vid=bdc8ffb1-f27f-4da7-b971-179a0606c625"},"vehicle_type_id":"4","last_reported":1743008928,"current_range_meters":4400,"station_id":"ce4bh3h2rcd13ifvqdo0","pricing_plan_id":"cebpf4jnsgd1na2vs0mg"},{"bike_id":"80394f37-56ea-4c56-892c-e385fb41ddce","system_id":"levelo_inurba_marseille","lat":43.290113,"lon":5.356063,"is_reserved":false,"is_disabled":false,"rental_uris":{"android":"levelo://app?vid=80394f37-56ea-4c56-892c-e385fb41ddce","ios":"levelo://app?vid=80394f37-56ea-4c56-892c-e385fb41ddce"},"vehicle_type_id":"4","last_reported":1743008928,"current_range_meters":4800,"station_id":"ce4bhb92rcd13ifvqen0","pricing_plan_id":"cebpf4jnsgd1na2vs0mg"},{"bike_id":"2a99ecb7-4bf0-4c00-89bb-11ff019b8a6d","system_id":"levelo_inurba_marseille","lat":43.22936,"lon":5.35386,"is_reserved":false,"is_disabled":false,"rental_uris":{"android":"levelo://app?vid=2a99ecb7-4bf0-4c00-89bb-11ff019b8a6d","ios":"levelo://app?vid=2a99ecb7-4bf0-4c00-89bb-11ff019b8a6d"},"vehicle_type_id":"4","last_reported":1743008928,"current_range_meters":4800,"station_id":"cpo3532slgdg3j2ikp40","pricing_plan_id":"cebpf4jnsgd1na2vs0mg"},{"bike_id":"cd779bce-8596-4960-b927-7e16ccb4ca8d","system_id":"levelo_inurba_marseille","lat":43.267456,"lon":5.383668,"is_reserved":false,"is_disabled":false,"rental_uris":{"android":"levelo://app?vid=cd779bce-8596-4960-b927-7e16ccb4ca8d","ios":"levelo://app?vid=cd779bce-8596-4960-b927-7e16ccb4ca8d"},"vehicle_type_id":"4","last_reported":1743008928,"current_range_meters":2000,"station_id":"ce4bhg92rcd13ifvqf90","pricing_plan_id":"cebpf4jnsgd1na2vs0mg"},{"bike_id":"03908684-304c-46cb-8098-7d26df555d11","system_id":"levelo_inurba_marseille","lat":43.29264,"lon":5.39855,"is_reserved":false,"is_disabled":false,"rental_uris":{"android":"levelo://app?vid=03908684-304c-46cb-8098-7d26df555d11","ios":"levelo://app?vid=03908684-304c-46cb-8098-7d26df555d11"},"vehicle_type_id":"4","last_reported":1743008928,"current_range_meters":4800,"station_id":"","pricing_plan_id":"cebpf4jnsgd1na2vs0mg"},{"bike_id":"3fb36472-5397-4e3a-b1ea-69366c8226ba","system_id":"levelo_inurba_marseille","lat":43.29262,"lon":5.40902,"is_reserved":false,"is_disabled":false,"rental_uris":{"android":"levelo://app?vid=3fb36472-5397-4e3a-b1ea-69366c8226ba","ios":"levelo://app?vid=3fb36472-5397-4e3a-b1ea-69366c8226ba"},"vehicle_type_id":"4","last_reported":1743008928,"current_range_meters":4800,"station_id":"ce4bh192rcd13ifvqdc0","pricing_plan_id":"cebpf4jnsgd1na2vs0mg"},{"bike_id":"faccecca-89c8-4b70-b16a-65711edcc11a","system_id":"levelo_inurba_marseille","lat":43.28453,"lon":5.35883,"is_reserved":false,"is_disabled":false,"rental_uris":{"android":"levelo://app?vid=faccecca-89c8-4b70-b16a-65711edcc11a","ios":"levelo://app?vid=faccecca-89c8-4b70-b16a-65711edcc11a"},"vehicle_type_id":"4","last_reported":1743008928,"current_range_meters":4800,"station_id":"ce4bhah2rcd13ifvqei0","pricing_plan_id":"cebpf4jnsgd1na2vs0mg"},{"bike_id":"3697544e-9815-4444-8ef7-748a7ec8eaf5","system_id":"levelo_inurba_marseille","lat":43.30908,"lon":5.36851,"is_reserved":false,"is_disabled":false,"rental_uris":{"android":"levelo://app?vid=3697544e-9815-4444-8ef7-748a7ec8eaf5","ios":"levelo://app?vid=3697544e-9815-4444-8ef7-748a7ec8eaf5"},"vehicle_type_id":"4","last_reported":1743008928,"current_range_meters":5600,"station_id":"ce4bgn92rcd13ifvqbvg","pricing_plan_id":"cebpf4jnsgd1na2vs0mg"},{"bike_id":"bba09ebc-17c9-42f0-a817-37a850a7fbe1","system_id":"levelo_inurba_marseille","lat":43.294834,"lon":5.374374,"is_reserved":false,"is_disabled":false,"rental_uris":{"android":"levelo://app?vid=bba09ebc-17c9-42f0-a817-37a850a7fbe1","ios":"levelo://app?vid=bba09ebc-17c9-42f0-a817-37a850a7fbe1"},"vehicle_type_id":"4","last_reported":1743008928,"current_range_meters":5600,"station_id":"ce4bgph2rcd13ifvqc2g","pricing_plan_id":"cebpf4jnsgd1na2vs0mg"},{"bike_id":"ae64d049-3c54-4b63-a552-b1e07d06f548","system_id":"levelo_inurba_marseille","lat":43.25752,"lon":5.41126,"is_reserved":false,"is_disabled":false,"rental_uris":{"android":"levelo://app?vid=ae64d049-3c54-4b63-a552-b1e07d06f548","ios":"levelo://app?vid=ae64d049-3c54-4b63-a552-b1e07d06f548"},"vehicle_type_id":"4","last_reported":1743008928,"current_range_meters":5600,"station_id":"ce4bho12rcd13ifvqh1g","pricing_plan_id":"cebpf4jnsgd1na2vs0mg"},{"bike_id":"7e40f94e-24eb-48fc-9df5-b31f99aa14a7","system_id":"levelo_inurba_marseille","lat":43.30263,"lon":5.40078,"is_reserved":false,"is_disabled":false,"rental_uris":{"android":"levelo://app?vid=7e40f94e-24eb-48fc-9df5-b31f99aa14a7","ios":"levelo://app?vid=7e40f94e-24eb-48fc-9df5-b31f99aa14a7"},"vehicle_type_id":"4","last_reported":1743008928,"current_range_meters":5600,"station_id":"ce4bgvh2rcd13ifvqcs0","pricing_plan_id":"cebpf4jnsgd1na2vs0mg"},{"bike_id":"198168b9-8996-4b3a-8e87-34937e00f2cf","system_id":"levelo_inurba_marseille","lat":43.261963,"lon":5.374487,"is_reserved":false,"is_disabled":false,"rental_uris":{"android":"levelo://app?vid=198168b9-8996-4b3a-8e87-34937e00f2cf","ios":"levelo://app?vid=198168b9-8996-4b3a-8e87-34937e00f2cf"},"vehicle_type_id":"4","last_reported":1743008928,"current_range_meters":5600,"station_id":"ce4bgvh2rcd13ifvqcs0","pricing_plan_id":"cebpf4jnsgd1na2vs0mg"},{"bike_id":"e48eaab7-5294-4e19-8e7e-1aa4cfe213ab","system_id":"levelo_inurba_marseille","lat":43.3091,"lon":5.3685,"is_reserved":false,"is_disabled":false,"rental_uris":{"android":"levelo://app?vid=e48eaab7-5294-4e19-8e7e-1aa4cfe213ab","ios":"levelo://app?vid=e48eaab7-5294-4e19-8e7e-1aa4cfe213ab"},"vehicle_type_id":"4","last_reported":1743008928,"current_range_meters":5600,"station_id":"ce4bgn92rcd13ifvqbvg","pricing_plan_id":"cebpf4jnsgd1na2vs0mg"},{"bike_id":"f5122207-504c-4a39-ab0a-44cf4ce37754","system_id":"levelo_inurba_marseille","lat":43.28951,"lon":5.36405,"is_reserved":false,"is_disabled":false,"rental_uris":{"android":"levelo://app?vid=f5122207-504c-4a39-ab0a-44cf4ce37754","ios":"levelo://app?vid=f5122207-504c-4a39-ab0a-44cf4ce37754"},"vehicle_type_id":"4","last_reported":1743008928,"current_range_meters":5600,"station_id":"ce4bhc92rcd13ifvqetg","pricing_plan_id":"cebpf4jnsgd1na2vs0mg"},{"bike_id":"03290a46-7dae-491b-b44b-afd77a31f814","system_id":"levelo_inurba_marseille","lat":43.31218,"lon":5.368533,"is_reserved":false,"is_disabled":false,"rental_uris":{"android":"levelo://app?vid=03290a46-7dae-491b-b44b-afd77a31f814","ios":"levelo://app?vid=03290a46-7dae-491b-b44b-afd77a31f814"},"vehicle_type_id":"4","last_reported":1743008928,"current_range_meters":6000,"station_id":"ce4bhhh2rcd13ifvqfl0","pricing_plan_id":"cebpf4jnsgd1na2vs0mg"},{"bike_id":"deea841d-5ec3-4f6e-9e66-023ede13d4cb","system_id":"levelo_inurba_marseille","lat":43.29907,"lon":5.39754,"is_reserved":false,"is_disabled":false,"rental_uris":{"android":"levelo://app?vid=deea841d-5ec3-4f6e-9e66-023ede13d4cb","ios":"levelo://app?vid=deea841d-5ec3-4f6e-9e66-023ede13d4cb"},"vehicle_type_id":"4","last_reported":1743008928,"current_range_meters":6000,"station_id":"","pricing_plan_id":"cebpf4jnsgd1na2vs0mg"},{"bike_id":"2f3e2a92-1301-4a27-8eaa-7b0ea525530e","system_id":"levelo_inurba_marseille","lat":43.31707,"lon":5.43657,"is_reserved":false,"is_disabled":false,"rental_uris":{"android":"levelo://app?vid=2f3e2a92-1301-4a27-8eaa-7b0ea525530e","ios":"levelo://app?vid=2f3e2a92-1301-4a27-8eaa-7b0ea525530e"},"vehicle_type_id":"4","last_reported":1743008928,"current_range_meters":6000,"station_id":"ce4bhp92rcd13ifvqhcg","pricing_plan_id":"cebpf4jnsgd1na2vs0mg"},{"bike_id":"c987315b-c2f4-4cef-9907-a198f1f04f5a","system_id":"levelo_inurba_marseille","lat":43.28002,"lon":5.40013,"is_reserved":false,"is_disabled":false,"rental_uris":{"android":"levelo://app?vid=c987315b-c2f4-4cef-9907-a198f1f04f5a","ios":"levelo://app?vid=c987315b-c2f4-4cef-9907-a198f1f04f5a"},"vehicle_type_id":"4","last_reported":1743008928,"current_range_meters":6000,"station_id":"ce4bho92rcd13ifvqh4g","pricing_plan_id":"cebpf4jnsgd1na2vs0mg"},{"bike_id":"27b255d2-331a-4e6e-bdf8-a60b64ad146b","system_id":"levelo_inurba_marseille","lat":43.295321,"lon":5.385833,"is_reserved":false,"is_disabled":false,"rental_uris":{"android":"levelo://app?vid=27b255d2-331a-4e6e-bdf8-a60b64ad146b","ios":"levelo://app?vid=27b255d2-331a-4e6e-bdf8-a60b64ad146b"},"vehicle_type_id":"4","last_reported":1743008928,"current_range_meters":6000,"station_id":"ce4bgih2rcd13ifvqba0","pricing_plan_id":"cebpf4jnsgd1na2vs0mg"},{"bike_id":"296c349d-5096-4029-9a77-bfbaf8adf4e4","system_id":"levelo_inurba_marseille","lat":43.26685,"lon":5.3827,"is_reserved":false,"is_disabled":false,"rental_uris":{"android":"levelo://app?vid=296c349d-5096-4029-9a77-bfbaf8adf4e4","ios":"levelo://app?vid=296c349d-5096-4029-9a77-bfbaf8adf4e4"},"vehicle_type_id":"4","last_reported":1743008928,"current_range_meters":6000,"station_id":"ce4bhg92rcd13ifvqf90","pricing_plan_id":"cebpf4jnsgd1na2vs0mg"},{"bike_id":"12a249dc-05fd-4430-badb-be9c23f4ecf4","system_id":"levelo_inurba_marseille","lat":43.26567,"lon":5.39042,"is_reserved":false,"is_disabled":false,"rental_uris":{"android":"levelo://app?vid=12a249dc-05fd-4430-badb-be9c23f4ecf4","ios":"levelo://app?vid=12a249dc-05fd-4430-badb-be9c23f4ecf4"},"vehicle_type_id":"4","last_reported":1743008928,"current_range_meters":6000,"station_id":"ce4bhe12rcd13ifvqf30","pricing_plan_id":"cebpf4jnsgd1na2vs0mg"},{"bike_id":"7d944d2b-bdbb-4dfe-b8d5-68d8eb03245d","system_id":"levelo_inurba_marseille","lat":43.24666,"lon":5.38915,"is_reserved":false,"is_disabled":false,"rental_uris":{"android":"levelo://app?vid=7d944d2b-bdbb-4dfe-b8d5-68d8eb03245d","ios":"levelo://app?vid=7d944d2b-bdbb-4dfe-b8d5-68d8eb03245d"},"vehicle_type_id":"4","last_reported":1743008928,"current_range_meters":6000,"station_id":"ce4bhg12rcd13ifvqf60","pricing_plan_id":"cebpf4jnsgd1na2vs0mg"},{"bike_id":"3acfe373-976f-46e2-8bce-b454397f8476","system_id":"levelo_inurba_marseille","lat":43.29355,"lon":5.42827,"is_reserved":false,"is_disabled":false,"rental_uris":{"android":"levelo://app?vid=3acfe373-976f-46e2-8bce-b454397f8476","ios":"levelo://app?vid=3acfe373-976f-46e2-8bce-b454397f8476"},"vehicle_type_id":"4","last_reported":1743008928,"current_range_meters":6000,"station_id":"","pricing_plan_id":"cebpf4jnsgd1na2vs0mg"},{"bike_id":"6f9c182c-f6fa-4e9a-be98-1f2d81804796","system_id":"levelo_inurba_marseille","lat":43.28682,"lon":5.38679,"is_reserved":false,"is_disabled":false,"rental_uris":{"android":"levelo://app?vid=6f9c182c-f6fa-4e9a-be98-1f2d81804796","ios":"levelo://app?vid=6f9c182c-f6fa-4e9a-be98-1f2d81804796"},"vehicle_type_id":"4","last_reported":1743008928,"current_range_meters":6000,"station_id":"ce4bh492rcd13ifvqdug","pricing_plan_id":"cebpf4jnsgd1na2vs0mg"},{"bike_id":"4a879ec6-8d7c-41eb-8d9f-befa97b15715","system_id":"levelo_inurba_marseille","lat":43.27999,"lon":5.40014,"is_reserved":false,"is_disabled":false,"rental_uris":{"android":"levelo://app?vid=4a879ec6-8d7c-41eb-8d9f-befa97b15715","ios":"levelo://app?vid=4a879ec6-8d7c-41eb-8d9f-befa97b15715"},"vehicle_type_id":"4","last_reported":1743008928,"current_range_meters":6400,"station_id":"ce4bho92rcd13ifvqh4g","pricing_plan_id":"cebpf4jnsgd1na2vs0mg"},{"bike_id":"d65ceec0-cc01-4b0e-ae9f-491b19bb22c3","system_id":"levelo_inurba_marseille","lat":43.28351,"lon":5.38096,"is_reserved":false,"is_disabled":false,"rental_uris":{"android":"levelo://app?vid=d65ceec0-cc01-4b0e-ae9f-491b19bb22c3","ios":"levelo://app?vid=d65ceec0-cc01-4b0e-ae9f-491b19bb22c3"},"vehicle_type_id":"4","last_reported":1743008928,"current_range_meters":6400,"station_id":"ce4bh412rcd13ifvqdr0","pricing_plan_id":"cebpf4jnsgd1na2vs0mg"},{"bike_id":"5475e2f7-6ae6-43c2-8a19-61edd2e081b7","system_id":"levelo_inurba_marseille","lat":43.27369,"lon":5.3625,"is_reserved":false,"is_disabled":false,"rental_uris":{"android":"levelo://app?vid=5475e2f7-6ae6-43c2-8a19-61edd2e081b7","ios":"levelo://app?vid=5475e2f7-6ae6-43c2-8a19-61edd2e081b7"},"vehicle_type_id":"4","last_reported":1743008928,"current_range_meters":6400,"station_id":"ce4bhbh2rcd13ifvqeo0","pricing_plan_id":"cebpf4jnsgd1na2vs0mg"},{"bike_id":"2a81ab01-651a-458c-a36b-dc32b0c11f9d","system_id":"levelo_inurba_marseille","lat":43.28618,"lon":5.3518,"is_reserved":false,"is_disabled":false,"rental_uris":{"android":"levelo://app?vid=2a81ab01-651a-458c-a36b-dc32b0c11f9d","ios":"levelo://app?vid=2a81ab01-651a-458c-a36b-dc32b0c11f9d"},"vehicle_type_id":"4","last_reported":1743008928,"current_range_meters":6400,"station_id":"","pricing_plan_id":"cebpf4jnsgd1na2vs0mg"},{"bike_id":"ba514c16-180b-4665-976e-3f1f27c9c0d0","system_id":"levelo_inurba_marseille","lat":43.27811,"lon":5.40724,"is_reserved":false,"is_disabled":false,"rental_uris":{"android":"levelo://app?vid=ba514c16-180b-4665-976e-3f1f27c9c0d0","ios":"levelo://app?vid=ba514c16-180b-4665-976e-3f1f27c9c0d0"},"vehicle_type_id":"4","last_reported":1743008928,"current_range_meters":6400,"station_id":"ce4bhnh2rcd13ifvqgtg","pricing_plan_id":"cebpf4jnsgd1na2vs0mg"},{"bike_id":"d3699fa9-99ec-482d-9fb9-24b17876f318","system_id":"levelo_inurba_marseille","lat":43.28702,"lon":5.39989,"is_reserved":false,"is_disabled":false,"rental_uris":{"android":"levelo://app?vid=d3699fa9-99ec-482d-9fb9-24b17876f318","ios":"levelo://app?vid=d3699fa9-99ec-482d-9fb9-24b17876f318"},"vehicle_type_id":"4","last_reported":1743008928,"current_range_meters":6400,"station_id":"ce4bho92rcd13ifvqh3g","pricing_plan_id":"cebpf4jnsgd1na2vs0mg"},{"bike_id":"3789873a-1dd9-4f31-847a-52f0d7019a2f","system_id":"levelo_inurba_marseille","lat":43.23967,"lon":5.3664,"is_reserved":false,"is_disabled":false,"rental_uris":{"android":"levelo://app?vid=3789873a-1dd9-4f31-847a-52f0d7019a2f","ios":"levelo://app?vid=3789873a-1dd9-4f31-847a-52f0d7019a2f"},"vehicle_type_id":"4","last_reported":1743008928,"current_range_meters":6400,"station_id":"ce4bhi12rcd13ifvqfp0","pricing_plan_id":"cebpf4jnsgd1na2vs0mg"},{"bike_id":"724ed8e8-2918-4d83-96a9-866364fdcf75","system_id":"levelo_inurba_marseille","lat":43.2738,"lon":5.36268,"is_reserved":false,"is_disabled":false,"rental_uris":{"android":"levelo://app?vid=724ed8e8-2918-4d83-96a9-866364fdcf75","ios":"levelo://app?vid=724ed8e8-2918-4d83-96a9-866364fdcf75"},"vehicle_type_id":"4","last_reported":1743008928,"current_range_meters":6400,"station_id":"ce4bhbh2rcd13ifvqeo0","pricing_plan_id":"cebpf4jnsgd1na2vs0mg"},{"bike_id":"b7cf4039-25b2-4d40-ade0-dec68f470779","system_id":"levelo_inurba_marseille","lat":43.31125,"lon":5.37764,"is_reserved":false,"is_disabled":false,"rental_uris":{"android":"levelo://app?vid=b7cf4039-25b2-4d40-ade0-dec68f470779","ios":"levelo://app?vid=b7cf4039-25b2-4d40-ade0-dec68f470779"},"vehicle_type_id":"4","last_reported":1743008928,"current_range_meters":6400,"station_id":"ce4bgt92rcd13ifvqcg0","pricing_plan_id":"cebpf4jnsgd1na2vs0mg"},{"bike_id":"c1371e1c-15ac-467f-85d7-19cc74212743","system_id":"levelo_inurba_marseille","lat":43.30587,"lon":5.39344,"is_reserved":false,"is_disabled":false,"rental_uris":{"android":"levelo://app?vid=c1371e1c-15ac-467f-85d7-19cc74212743","ios":"levelo://app?vid=c1371e1c-15ac-467f-85d7-19cc74212743"},"vehicle_type_id":"4","last_reported":1743008928,"current_range_meters":6400,"station_id":"ce4bh0p2rcd13ifvqd80","pricing_plan_id":"cebpf4jnsgd1na2vs0mg"},{"bike_id":"43bf8e26-3498-47c8-8f2e-540c864f2417","system_id":"levelo_inurba_marseille","lat":43.298035,"lon":5.380997,"is_reserved":false,"is_disabled":false,"rental_uris":{"android":"levelo://app?vid=43bf8e26-3498-47c8-8f2e-540c864f2417","ios":"levelo://app?vid=43bf8e26-3498-47c8-8f2e-540c864f2417"},"vehicle_type_id":"4","last_reported":1743008928,"current_range_meters":6400,"station_id":"ce4bgip2rcd13ifvqbb0","pricing_plan_id":"cebpf4jnsgd1na2vs0mg"},{"bike_id":"77823725-c761-49bc-902c-64c32b686ae7","system_id":"levelo_inurba_marseille","lat":43.23067,"lon":5.35501,"is_reserved":false,"is_disabled":false,"rental_uris":{"android":"levelo://app?vid=77823725-c761-49bc-902c-64c32b686ae7","ios":"levelo://app?vid=77823725-c761-49bc-902c-64c32b686ae7"},"vehicle_type_id":"4","last_reported":1743008928,"current_range_meters":6400,"station_id":"cpo3342slgdg3j2ifvpg","pricing_plan_id":"cebpf4jnsgd1na2vs0mg"},{"bike_id":"7e628bd8-f74d-4310-8492-8512d6f315fe","system_id":"levelo_inurba_marseille","lat":43.23194,"lon":5.40005,"is_reserved":false,"is_disabled":false,"rental_uris":{"android":"levelo://app?vid=7e628bd8-f74d-4310-8492-8512d6f315fe","ios":"levelo://app?vid=7e628bd8-f74d-4310-8492-8512d6f315fe"},"vehicle_type_id":"4","last_reported":1743008928,"current_range_meters":6400,"station_id":"ce4bhn12rcd13ifvqgqg","pricing_plan_id":"cebpf4jnsgd1na2vs0mg"},{"bike_id":"6633349b-54ae-41b8-88d5-61ec5d012302","system_id":"levelo_inurba_marseille","lat":43.32086,"lon":5.36814,"is_reserved":false,"is_disabled":false,"rental_uris":{"android":"levelo://app?vid=6633349b-54ae-41b8-88d5-61ec5d012302","ios":"levelo://app?vid=6633349b-54ae-41b8-88d5-61ec5d012302"},"vehicle_type_id":"4","last_reported":1743008928,"current_range_meters":6800,"station_id":"ce4bhrh2rcd13ifvqhug","pricing_plan_id":"cebpf4jnsgd1na2vs0mg"},{"bike_id":"94506505-2fcc-41e6-9625-b8826d1b4d3e","system_id":"levelo_inurba_marseille","lat":43.278204,"lon":5.407221,"is_reserved":false,"is_disabled":false,"rental_uris":{"android":"levelo://app?vid=94506505-2fcc-41e6-9625-b8826d1b4d3e","ios":"levelo://app?vid=94506505-2fcc-41e6-9625-b8826d1b4d3e"},"vehicle_type_id":"4","last_reported":1743008928,"current_range_meters":6800,"station_id":"ce4bhnh2rcd13ifvqgtg","pricing_plan_id":"cebpf4jnsgd1na2vs0mg"},{"bike_id":"3e8bad5b-5860-4969-9190-4dc16bc05d6a","system_id":"levelo_inurba_marseille","lat":43.2761,"lon":5.36139,"is_reserved":false,"is_disabled":false,"rental_uris":{"android":"levelo://app?vid=3e8bad5b-5860-4969-9190-4dc16bc05d6a","ios":"levelo://app?vid=3e8bad5b-5860-4969-9190-4dc16bc05d6a"},"vehicle_type_id":"4","last_reported":1743008928,"current_range_meters":6800,"station_id":"ce4bgj92rcd13ifvqbe0","pricing_plan_id":"cebpf4jnsgd1na2vs0mg"},{"bike_id":"796089d2-5a8d-42c9-a5f2-65e7b9dfbb89","system_id":"levelo_inurba_marseille","lat":43.262127,"lon":5.37446,"is_reserved":false,"is_disabled":false,"rental_uris":{"android":"levelo://app?vid=796089d2-5a8d-42c9-a5f2-65e7b9dfbb89","ios":"levelo://app?vid=796089d2-5a8d-42c9-a5f2-65e7b9dfbb89"},"vehicle_type_id":"4","last_reported":1743008928,"current_range_meters":6800,"station_id":"ce4bhgp2rcd13ifvqfc0","pricing_plan_id":"cebpf4jnsgd1na2vs0mg"},{"bike_id":"e157512c-8da5-4b6e-9c01-be7b95c5d97c","system_id":"levelo_inurba_marseille","lat":43.26793,"lon":5.40268,"is_reserved":false,"is_disabled":false,"rental_uris":{"android":"levelo://app?vid=e157512c-8da5-4b6e-9c01-be7b95c5d97c","ios":"levelo://app?vid=e157512c-8da5-4b6e-9c01-be7b95c5d97c"},"vehicle_type_id":"4","last_reported":1743008928,"current_range_meters":6800,"station_id":"ce501612rcd8frsf0b60","pricing_plan_id":"cebpf4jnsgd1na2vs0mg"},{"bike_id":"dc5d0d5b-0aa5-44ef-9046-b7d92a5ad9e5","system_id":"levelo_inurba_marseille","lat":43.31316,"lon":5.39685,"is_reserved":false,"is_disabled":false,"rental_uris":{"android":"levelo://app?vid=dc5d0d5b-0aa5-44ef-9046-b7d92a5ad9e5","ios":"levelo://app?vid=dc5d0d5b-0aa5-44ef-9046-b7d92a5ad9e5"},"vehicle_type_id":"4","last_reported":1743008928,"current_range_meters":6800,"station_id":"ce4bgvp2rcd13ifvqcu0","pricing_plan_id":"cebpf4jnsgd1na2vs0mg"},{"bike_id":"d5804ad3-33e7-454e-b7d4-322b214049f7","system_id":"levelo_inurba_marseille","lat":43.24664,"lon":5.38169,"is_reserved":false,"is_disabled":false,"rental_uris":{"android":"levelo://app?vid=d5804ad3-33e7-454e-b7d4-322b214049f7","ios":"levelo://app?vid=d5804ad3-33e7-454e-b7d4-322b214049f7"},"vehicle_type_id":"4","last_reported":1743008928,"current_range_meters":6800,"station_id":"ce4bhih2rcd13ifvqfr0","pricing_plan_id":"cebpf4jnsgd1na2vs0mg"},{"bike_id":"204c91d6-abd7-4e09-8e69-dd9dbd19e778","system_id":"levelo_inurba_marseille","lat":43.29424,"lon":5.38612,"is_reserved":false,"is_disabled":false,"rental_uris":{"android":"levelo://app?vid=204c91d6-abd7-4e09-8e69-dd9dbd19e778","ios":"levelo://app?vid=204c91d6-abd7-4e09-8e69-dd9dbd19e778"},"vehicle_type_id":"4","last_reported":1743008928,"current_range_meters":6800,"station_id":"ce4bh2h2rcd13ifvqdh0","pricing_plan_id":"cebpf4jnsgd1na2vs0mg"},{"bike_id":"7e5f0bef-5d9c-41aa-bcd7-1999186414f7","system_id":"levelo_inurba_marseille","lat":43.27903,"lon":5.38035,"is_reserved":false,"is_disabled":false,"rental_uris":{"android":"levelo://app?vid=7e5f0bef-5d9c-41aa-bcd7-1999186414f7","ios":"levelo://app?vid=7e5f0bef-5d9c-41aa-bcd7-1999186414f7"},"vehicle_type_id":"4","last_reported":1743008928,"current_range_meters":6800,"station_id":"ce4bhf92rcd13ifvqf50","pricing_plan_id":"cebpf4jnsgd1na2vs0mg"},{"bike_id":"ad403d1f-fa02-4ffe-89c2-e8ddec6474e6","system_id":"levelo_inurba_marseille","lat":43.30305,"lon":5.39225,"is_reserved":false,"is_disabled":false,"rental_uris":{"android":"levelo://app?vid=ad403d1f-fa02-4ffe-89c2-e8ddec6474e6","ios":"levelo://app?vid=ad403d1f-fa02-4ffe-89c2-e8ddec6474e6"},"vehicle_type_id":"4","last_reported":1743008928,"current_range_meters":6800,"station_id":"ce4bgkh2rcd13ifvqbk0","pricing_plan_id":"cebpf4jnsgd1na2vs0mg"},{"bike_id":"88f7d0ff-3d03-4b78-aa2f-800b44eb906d","system_id":"levelo_inurba_marseille","lat":43.29627,"lon":5.40606,"is_reserved":false,"is_disabled":false,"rental_uris":{"android":"levelo://app?vid=88f7d0ff-3d03-4b78-aa2f-800b44eb906d","ios":"levelo://app?vid=88f7d0ff-3d03-4b78-aa2f-800b44eb906d"},"vehicle_type_id":"4","last_reported":1743008928,"current_range_meters":6800,"station_id":"ce4bh0h2rcd13ifvqd60","pricing_plan_id":"cebpf4jnsgd1na2vs0mg"},{"bike_id":"1deecb50-2c19-4759-996f-504db272d305","system_id":"levelo_inurba_marseille","lat":43.28626,"lon":5.35126,"is_reserved":false,"is_disabled":false,"rental_uris":{"android":"levelo://app?vid=1deecb50-2c19-4759-996f-504db272d305","ios":"levelo://app?vid=1deecb50-2c19-4759-996f-504db272d305"},"vehicle_type_id":"4","last_reported":1743008928,"current_range_meters":6800,"station_id":"ce4bhch2rcd13ifvqeug","pricing_plan_id":"cebpf4jnsgd1na2vs0mg"},{"bike_id":"943fc302-a8d4-4272-a9d3-9ba339e4f4f2","system_id":"levelo_inurba_marseille","lat":43.306427,"lon":5.401007,"is_reserved":false,"is_disabled":false,"rental_uris":{"android":"levelo://app?vid=943fc302-a8d4-4272-a9d3-9ba339e4f4f2","ios":"levelo://app?vid=943fc302-a8d4-4272-a9d3-9ba339e4f4f2"},"vehicle_type_id":"4","last_reported":1743008928,"current_range_meters":7200,"station_id":"ce4bh112rcd13ifvqda0","pricing_plan_id":"cebpf4jnsgd1na2vs0mg"},{"bike_id":"d795a363-91c8-4ca6-8bea-0ae8b49d6dcf","system_id":"levelo_inurba_marseille","lat":43.28476,"lon":5.38426,"is_reserved":false,"is_disabled":false,"rental_uris":{"android":"levelo://app?vid=d795a363-91c8-4ca6-8bea-0ae8b49d6dcf","ios":"levelo://app?vid=d795a363-91c8-4ca6-8bea-0ae8b49d6dcf"},"vehicle_type_id":"4","last_reported":1743008928,"current_range_meters":7200,"station_id":"ce4bh512rcd13ifvqe3g","pricing_plan_id":"cebpf4jnsgd1na2vs0mg"},{"bike_id":"8b3e8861-5e47-4372-9412-5d19a5813d95","system_id":"levelo_inurba_marseille","lat":43.312765,"lon":5.401665,"is_reserved":false,"is_disabled":false,"rental_uris":{"android":"levelo://app?vid=8b3e8861-5e47-4372-9412-5d19a5813d95","ios":"levelo://app?vid=8b3e8861-5e47-4372-9412-5d19a5813d95"},"vehicle_type_id":"4","last_reported":1743008928,"current_range_meters":7200,"station_id":"ce4bh092rcd13ifvqd30","pricing_plan_id":"cebpf4jnsgd1na2vs0mg"},{"bike_id":"1cc22df2-fffe-4fde-9634-268475adf9c2","system_id":"levelo_inurba_marseille","lat":43.27359,"lon":5.3622,"is_reserved":false,"is_disabled":false,"rental_uris":{"android":"levelo://app?vid=1cc22df2-fffe-4fde-9634-268475adf9c2","ios":"levelo://app?vid=1cc22df2-fffe-4fde-9634-268475adf9c2"},"vehicle_type_id":"4","last_reported":1743008928,"current_range_meters":7200,"station_id":"ce4bhbh2rcd13ifvqeo0","pricing_plan_id":"cebpf4jnsgd1na2vs0mg"},{"bike_id":"e9b85cc8-26bd-44ab-91d4-3c1aa5f2a727","system_id":"levelo_inurba_marseille","lat":43.27508,"lon":5.42444,"is_reserved":false,"is_disabled":false,"rental_uris":{"android":"levelo://app?vid=e9b85cc8-26bd-44ab-91d4-3c1aa5f2a727","ios":"levelo://app?vid=e9b85cc8-26bd-44ab-91d4-3c1aa5f2a727"},"vehicle_type_id":"4","last_reported":1743008928,"current_range_meters":7200,"station_id":"ce4bhn92rcd13ifvqgrg","pricing_plan_id":"cebpf4jnsgd1na2vs0mg"},{"bike_id":"3381e89a-fe21-4694-8627-03294d24c0e3","system_id":"levelo_inurba_marseille","lat":43.26191,"lon":5.37446,"is_reserved":false,"is_disabled":false,"rental_uris":{"android":"levelo://app?vid=3381e89a-fe21-4694-8627-03294d24c0e3","ios":"levelo://app?vid=3381e89a-fe21-4694-8627-03294d24c0e3"},"vehicle_type_id":"4","last_reported":1743008928,"current_range_meters":7200,"station_id":"ce4bhgp2rcd13ifvqfc0","pricing_plan_id":"cebpf4jnsgd1na2vs0mg"},{"bike_id":"2cd38659-3007-4a70-a3c0-4dbdf8d620d5","system_id":"levelo_inurba_marseille","lat":43.31493,"lon":5.37289,"is_reserved":false,"is_disabled":true,"rental_uris":{"android":"levelo://app?vid=2cd38659-3007-4a70-a3c0-4dbdf8d620d5","ios":"levelo://app?vid=2cd38659-3007-4a70-a3c0-4dbdf8d620d5"},"vehicle_type_id":"4","last_reported":1743008928,"current_range_meters":7200,"station_id":"ce4bgt12rcd13ifvqcd0","pricing_plan_id":"cebpf4jnsgd1na2vs0mg"},{"bike_id":"d2d4a013-da47-429f-9400-c6da6763f452","system_id":"levelo_inurba_marseille","lat":43.278113,"lon":5.407217,"is_reserved":false,"is_disabled":false,"rental_uris":{"android":"levelo://app?vid=d2d4a013-da47-429f-9400-c6da6763f452","ios":"levelo://app?vid=d2d4a013-da47-429f-9400-c6da6763f452"},"vehicle_type_id":"4","last_reported":1743008928,"current_range_meters":7200,"station_id":"ce4bhnh2rcd13ifvqgtg","pricing_plan_id":"cebpf4jnsgd1na2vs0mg"},{"bike_id":"e2e018e8-38d2-46dd-94cc-9dc0b9dec222","system_id":"levelo_inurba_marseille","lat":43.29055,"lon":5.39862,"is_reserved":false,"is_disabled":false,"rental_uris":{"android":"levelo://app?vid=e2e018e8-38d2-46dd-94cc-9dc0b9dec222","ios":"levelo://app?vid=e2e018e8-38d2-46dd-94cc-9dc0b9dec222"},"vehicle_type_id":"4","last_reported":1743008928,"current_range_meters":8000,"station_id":"ce4bh392rcd13ifvqdm0","pricing_plan_id":"cebpf4jnsgd1na2vs0mg"},{"bike_id":"1cb2e6d2-12ad-4aa8-ac31-2e07713d77f5","system_id":"levelo_inurba_marseille","lat":43.2895,"lon":5.36644,"is_reserved":false,"is_disabled":false,"rental_uris":{"android":"levelo://app?vid=1cb2e6d2-12ad-4aa8-ac31-2e07713d77f5","ios":"levelo://app?vid=1cb2e6d2-12ad-4aa8-ac31-2e07713d77f5"},"vehicle_type_id":"4","last_reported":1743008928,"current_range_meters":8000,"station_id":"ce4bhap2rcd13ifvqek0","pricing_plan_id":"cebpf4jnsgd1na2vs0mg"},{"bike_id":"98c7ca61-6b4e-4129-ad44-4943fd2074d6","system_id":"levelo_inurba_marseille","lat":43.22922,"lon":5.35408,"is_reserved":false,"is_disabled":false,"rental_uris":{"android":"levelo://app?vid=98c7ca61-6b4e-4129-ad44-4943fd2074d6","ios":"levelo://app?vid=98c7ca61-6b4e-4129-ad44-4943fd2074d6"},"vehicle_type_id":"4","last_reported":1743008928,"current_range_meters":8000,"station_id":"cpo3532slgdg3j2ikp40","pricing_plan_id":"cebpf4jnsgd1na2vs0mg"},{"bike_id":"0a7eedfa-4ce8-40e1-90e6-ba2bebc8e91d","system_id":"levelo_inurba_marseille","lat":43.300136,"lon":5.388732,"is_reserved":false,"is_disabled":false,"rental_uris":{"android":"levelo://app?vid=0a7eedfa-4ce8-40e1-90e6-ba2bebc8e91d","ios":"levelo://app?vid=0a7eedfa-4ce8-40e1-90e6-ba2bebc8e91d"},"vehicle_type_id":"4","last_reported":1743008928,"current_range_meters":8000,"station_id":"ce4bgj92rcd13ifvqbd0","pricing_plan_id":"cebpf4jnsgd1na2vs0mg"},{"bike_id":"067247e0-a27c-4e52-9052-c6b9eea5c7f4","system_id":"levelo_inurba_marseille","lat":43.31409,"lon":5.37432,"is_reserved":false,"is_disabled":false,"rental_uris":{"android":"levelo://app?vid=067247e0-a27c-4e52-9052-c6b9eea5c7f4","ios":"levelo://app?vid=067247e0-a27c-4e52-9052-c6b9eea5c7f4"},"vehicle_type_id":"4","last_reported":1743008928,"current_range_meters":8000,"station_id":"","pricing_plan_id":"cebpf4jnsgd1na2vs0mg"},{"bike_id":"681ec03c-5fcc-472b-a4f7-a3ac540e8e2a","system_id":"levelo_inurba_marseille","lat":43.30812,"lon":5.37082,"is_reserved":false,"is_disabled":false,"rental_uris":{"android":"levelo://app?vid=681ec03c-5fcc-472b-a4f7-a3ac540e8e2a","ios":"levelo://app?vid=681ec03c-5fcc-472b-a4f7-a3ac540e8e2a"},"vehicle_type_id":"4","last_reported":1743008928,"current_range_meters":8000,"station_id":"","pricing_plan_id":"cebpf4jnsgd1na2vs0mg"},{"bike_id":"34f9114a-5fea-45cc-ac77-851e0e916817","system_id":"levelo_inurba_marseille","lat":43.28417,"lon":5.34993,"is_reserved":false,"is_disabled":false,"rental_uris":{"android":"levelo://app?vid=34f9114a-5fea-45cc-ac77-851e0e916817","ios":"levelo://app?vid=34f9114a-5fea-45cc-ac77-851e0e916817"},"vehicle_type_id":"4","last_reported":1743008928,"current_range_meters":8000,"station_id":"ce4bhbh2rcd13ifvqepg","pricing_plan_id":"cebpf4jnsgd1na2vs0mg"},{"bike_id":"820b7c7f-4a79-4430-afd5-3aa83a26b75f","system_id":"levelo_inurba_marseille","lat":43.28926,"lon":5.38394,"is_reserved":false,"is_disabled":false,"rental_uris":{"android":"levelo://app?vid=820b7c7f-4a79-4430-afd5-3aa83a26b75f","ios":"levelo://app?vid=820b7c7f-4a79-4430-afd5-3aa83a26b75f"},"vehicle_type_id":"4","last_reported":1743008928,"current_range_meters":8000,"station_id":"ce4bh612rcd13ifvqe6g","pricing_plan_id":"cebpf4jnsgd1na2vs0mg"},{"bike_id":"ecfbe1b6-91a4-4967-b2f4-1915901f3187","system_id":"levelo_inurba_marseille","lat":43.31757,"lon":5.39019,"is_reserved":false,"is_disabled":false,"rental_uris":{"android":"levelo://app?vid=ecfbe1b6-91a4-4967-b2f4-1915901f3187","ios":"levelo://app?vid=ecfbe1b6-91a4-4967-b2f4-1915901f3187"},"vehicle_type_id":"4","last_reported":1743008928,"current_range_meters":8400,"station_id":"ce4bhqp2rcd13ifvqhng","pricing_plan_id":"cebpf4jnsgd1na2vs0mg"},{"bike_id":"c689988c-1607-407c-8d2b-fd84833f358d","system_id":"levelo_inurba_marseille","lat":43.255,"lon":5.37647,"is_reserved":false,"is_disabled":false,"rental_uris":{"android":"levelo://app?vid=c689988c-1607-407c-8d2b-fd84833f358d","ios":"levelo://app?vid=c689988c-1607-407c-8d2b-fd84833f358d"},"vehicle_type_id":"4","last_reported":1743008928,"current_range_meters":8400,"station_id":"ce4bhh12rcd13ifvqff0","pricing_plan_id":"cebpf4jnsgd1na2vs0mg"},{"bike_id":"9e414f59-5d13-4847-984b-695d5e36104b","system_id":"levelo_inurba_marseille","lat":43.27884,"lon":5.41239,"is_reserved":false,"is_disabled":false,"rental_uris":{"android":"levelo://app?vid=9e414f59-5d13-4847-984b-695d5e36104b","ios":"levelo://app?vid=9e414f59-5d13-4847-984b-695d5e36104b"},"vehicle_type_id":"4","last_reported":1743008928,"current_range_meters":8400,"station_id":"","pricing_plan_id":"cebpf4jnsgd1na2vs0mg"},{"bike_id":"4d6d8a3e-5cdb-4d7b-bbad-abcfee7897a7","system_id":"levelo_inurba_marseille","lat":43.28026,"lon":5.36949,"is_reserved":false,"is_disabled":false,"rental_uris":{"android":"levelo://app?vid=4d6d8a3e-5cdb-4d7b-bbad-abcfee7897a7","ios":"levelo://app?vid=4d6d8a3e-5cdb-4d7b-bbad-abcfee7897a7"},"vehicle_type_id":"4","last_reported":1743008928,"current_range_meters":8400,"station_id":"ce4bha12rcd13ifvqef0","pricing_plan_id":"cebpf4jnsgd1na2vs0mg"},{"bike_id":"36c1ca57-38fc-4715-a7b3-708182aeacb6","system_id":"levelo_inurba_marseille","lat":43.27382,"lon":5.36267,"is_reserved":false,"is_disabled":false,"rental_uris":{"android":"levelo://app?vid=36c1ca57-38fc-4715-a7b3-708182aeacb6","ios":"levelo://app?vid=36c1ca57-38fc-4715-a7b3-708182aeacb6"},"vehicle_type_id":"4","last_reported":1743008928,"current_range_meters":8400,"station_id":"ce4bhbh2rcd13ifvqeo0","pricing_plan_id":"cebpf4jnsgd1na2vs0mg"},{"bike_id":"8cfe9f36-a31a-45e0-b6fe-7130e1d4e76e","system_id":"levelo_inurba_marseille","lat":43.30802,"lon":5.38155,"is_reserved":false,"is_disabled":false,"rental_uris":{"android":"levelo://app?vid=8cfe9f36-a31a-45e0-b6fe-7130e1d4e76e","ios":"levelo://app?vid=8cfe9f36-a31a-45e0-b6fe-7130e1d4e76e"},"vehicle_type_id":"4","last_reported":1743008928,"current_range_meters":8400,"station_id":"ce4bgt12rcd13ifvqce0","pricing_plan_id":"cebpf4jnsgd1na2vs0mg"},{"bike_id":"b3a4b966-1c75-49ac-9c7d-d08734d38e29","system_id":"levelo_inurba_marseille","lat":43.30532,"lon":5.36549,"is_reserved":false,"is_disabled":false,"rental_uris":{"android":"levelo://app?vid=b3a4b966-1c75-49ac-9c7d-d08734d38e29","ios":"levelo://app?vid=b3a4b966-1c75-49ac-9c7d-d08734d38e29"},"vehicle_type_id":"4","last_reported":1743008928,"current_range_meters":8400,"station_id":"ce4bgs12rcd13ifvqcag","pricing_plan_id":"cebpf4jnsgd1na2vs0mg"},{"bike_id":"cef25874-9e37-497a-9860-a560440e3a99","system_id":"levelo_inurba_marseille","lat":43.29426,"lon":5.3865,"is_reserved":false,"is_disabled":false,"rental_uris":{"android":"levelo://app?vid=cef25874-9e37-497a-9860-a560440e3a99","ios":"levelo://app?vid=cef25874-9e37-497a-9860-a560440e3a99"},"vehicle_type_id":"4","last_reported":1743008928,"current_range_meters":8400,"station_id":"ce4bh2h2rcd13ifvqdh0","pricing_plan_id":"cebpf4jnsgd1na2vs0mg"},{"bike_id":"d259f335-2160-4f44-bcf4-a1f1cd707bd4","system_id":"levelo_inurba_marseille","lat":43.29534,"lon":5.39034,"is_reserved":false,"is_disabled":false,"rental_uris":{"android":"levelo://app?vid=d259f335-2160-4f44-bcf4-a1f1cd707bd4","ios":"levelo://app?vid=d259f335-2160-4f44-bcf4-a1f1cd707bd4"},"vehicle_type_id":"4","last_reported":1743008928,"current_range_meters":8400,"station_id":"ce4bh3p2rcd13ifvqdp0","pricing_plan_id":"cebpf4jnsgd1na2vs0mg"},{"bike_id":"ee28380f-2566-499f-8ab8-5a75cb1ed72f","system_id":"levelo_inurba_marseille","lat":43.288329,"lon":5.393258,"is_reserved":false,"is_disabled":true,"rental_uris":{"android":"levelo://app?vid=ee28380f-2566-499f-8ab8-5a75cb1ed72f","ios":"levelo://app?vid=ee28380f-2566-499f-8ab8-5a75cb1ed72f"},"vehicle_type_id":"4","last_reported":1743008928,"current_range_meters":8400,"station_id":"","pricing_plan_id":"cebpf4jnsgd1na2vs0mg"},{"bike_id":"494edb5c-8886-472a-b4b2-0033adc0ccbd","system_id":"levelo_inurba_marseille","lat":43.2319,"lon":5.39976,"is_reserved":false,"is_disabled":false,"rental_uris":{"android":"levelo://app?vid=494edb5c-8886-472a-b4b2-0033adc0ccbd","ios":"levelo://app?vid=494edb5c-8886-472a-b4b2-0033adc0ccbd"},"vehicle_type_id":"4","last_reported":1743008928,"current_range_meters":8400,"station_id":"ce4bhn12rcd13ifvqgqg","pricing_plan_id":"cebpf4jnsgd1na2vs0mg"},{"bike_id":"1961f53f-a881-4883-88e2-904c2510a711","system_id":"levelo_inurba_marseille","lat":43.22934,"lon":5.35377,"is_reserved":false,"is_disabled":false,"rental_uris":{"android":"levelo://app?vid=1961f53f-a881-4883-88e2-904c2510a711","ios":"levelo://app?vid=1961f53f-a881-4883-88e2-904c2510a711"},"vehicle_type_id":"4","last_reported":1743008928,"current_range_meters":8400,"station_id":"cpo3532slgdg3j2ikp40","pricing_plan_id":"cebpf4jnsgd1na2vs0mg"},{"bike_id":"589f1146-20bc-4a88-9ab7-60ee275b3000","system_id":"levelo_inurba_marseille","lat":43.29709,"lon":5.38021,"is_reserved":false,"is_disabled":false,"rental_uris":{"android":"levelo://app?vid=589f1146-20bc-4a88-9ab7-60ee275b3000","ios":"levelo://app?vid=589f1146-20bc-4a88-9ab7-60ee275b3000"},"vehicle_type_id":"4","last_reported":1743008928,"current_range_meters":8800,"station_id":"","pricing_plan_id":"cebpf4jnsgd1na2vs0mg"},{"bike_id":"d9e07257-d95a-4aa4-8db0-2bd4f04be618","system_id":"levelo_inurba_marseille","lat":43.30377,"lon":5.42483,"is_reserved":false,"is_disabled":false,"rental_uris":{"android":"levelo://app?vid=d9e07257-d95a-4aa4-8db0-2bd4f04be618","ios":"levelo://app?vid=d9e07257-d95a-4aa4-8db0-2bd4f04be618"},"vehicle_type_id":"4","last_reported":1743008928,"current_range_meters":8800,"station_id":"ce4bhoh2rcd13ifvqh6g","pricing_plan_id":"cebpf4jnsgd1na2vs0mg"},{"bike_id":"fb942ad4-37a4-41e4-a2ca-331eb73c8eb6","system_id":"levelo_inurba_marseille","lat":43.27996,"lon":5.40021,"is_reserved":false,"is_disabled":false,"rental_uris":{"android":"levelo://app?vid=fb942ad4-37a4-41e4-a2ca-331eb73c8eb6","ios":"levelo://app?vid=fb942ad4-37a4-41e4-a2ca-331eb73c8eb6"},"vehicle_type_id":"4","last_reported":1743008928,"current_range_meters":8800,"station_id":"ce4bho92rcd13ifvqh4g","pricing_plan_id":"cebpf4jnsgd1na2vs0mg"},{"bike_id":"f1b4f7cc-c571-4cc0-a73d-34a81981f050","system_id":"levelo_inurba_marseille","lat":43.26941,"lon":5.4026,"is_reserved":false,"is_disabled":false,"rental_uris":{"android":"levelo://app?vid=f1b4f7cc-c571-4cc0-a73d-34a81981f050","ios":"levelo://app?vid=f1b4f7cc-c571-4cc0-a73d-34a81981f050"},"vehicle_type_id":"4","last_reported":1743008928,"current_range_meters":8800,"station_id":"cjm6bp8fraef2m0cb0m0","pricing_plan_id":"cebpf4jnsgd1na2vs0mg"},{"bike_id":"eb84a3b6-744b-4254-b1dc-0ba902c44830","system_id":"levelo_inurba_marseille","lat":43.32656,"lon":5.41,"is_reserved":false,"is_disabled":false,"rental_uris":{"android":"levelo://app?vid=eb84a3b6-744b-4254-b1dc-0ba902c44830","ios":"levelo://app?vid=eb84a3b6-744b-4254-b1dc-0ba902c44830"},"vehicle_type_id":"4","last_reported":1743008928,"current_range_meters":8800,"station_id":"ce4bhpp2rcd13ifvqhgg","pricing_plan_id":"cebpf4jnsgd1na2vs0mg"},{"bike_id":"3a56f475-5bc5-4e41-a622-493e9d0a7d55","system_id":"levelo_inurba_marseille","lat":43.26945,"lon":5.40262,"is_reserved":false,"is_disabled":false,"rental_uris":{"android":"levelo://app?vid=3a56f475-5bc5-4e41-a622-493e9d0a7d55","ios":"levelo://app?vid=3a56f475-5bc5-4e41-a622-493e9d0a7d55"},"vehicle_type_id":"4","last_reported":1743008928,"current_range_meters":8800,"station_id":"cjm6bp8fraef2m0cb0m0","pricing_plan_id":"cebpf4jnsgd1na2vs0mg"},{"bike_id":"7754785c-bb9f-461f-a265-2d241a46c3d2","system_id":"levelo_inurba_marseille","lat":43.2846,"lon":5.35892,"is_reserved":false,"is_disabled":false,"rental_uris":{"android":"levelo://app?vid=7754785c-bb9f-461f-a265-2d241a46c3d2","ios":"levelo://app?vid=7754785c-bb9f-461f-a265-2d241a46c3d2"},"vehicle_type_id":"4","last_reported":1743008928,"current_range_meters":8800,"station_id":"ce4bhah2rcd13ifvqei0","pricing_plan_id":"cebpf4jnsgd1na2vs0mg"},{"bike_id":"f331f4a0-921f-47e2-bc64-3b6ed88b17e3","system_id":"levelo_inurba_marseille","lat":43.27178,"lon":5.40999,"is_reserved":false,"is_disabled":false,"rental_uris":{"android":"levelo://app?vid=f331f4a0-921f-47e2-bc64-3b6ed88b17e3","ios":"levelo://app?vid=f331f4a0-921f-47e2-bc64-3b6ed88b17e3"},"vehicle_type_id":"4","last_reported":1743008928,"current_range_meters":8800,"station_id":"ce4bhl12rcd13ifvqgf0","pricing_plan_id":"cebpf4jnsgd1na2vs0mg"},{"bike_id":"f5eba3ce-1f07-4e08-918f-dc60901b422b","system_id":"levelo_inurba_marseille","lat":43.27612,"lon":5.36121,"is_reserved":false,"is_disabled":false,"rental_uris":{"android":"levelo://app?vid=f5eba3ce-1f07-4e08-918f-dc60901b422b","ios":"levelo://app?vid=f5eba3ce-1f07-4e08-918f-dc60901b422b"},"vehicle_type_id":"4","last_reported":1743008928,"current_range_meters":8800,"station_id":"ce4bgj92rcd13ifvqbe0","pricing_plan_id":"cebpf4jnsgd1na2vs0mg"},{"bike_id":"4ec68715-d568-4b62-9bfb-b8a2c5bc1918","system_id":"levelo_inurba_marseille","lat":43.29268,"lon":5.38446,"is_reserved":false,"is_disabled":false,"rental_uris":{"android":"levelo://app?vid=4ec68715-d568-4b62-9bfb-b8a2c5bc1918","ios":"levelo://app?vid=4ec68715-d568-4b62-9bfb-b8a2c5bc1918"},"vehicle_type_id":"4","last_reported":1743008928,"current_range_meters":8800,"station_id":"ce4bh692rcd13ifvqea0","pricing_plan_id":"cebpf4jnsgd1na2vs0mg"},{"bike_id":"7ec5b485-525a-4840-a7df-83b61901d667","system_id":"levelo_inurba_marseille","lat":43.281088,"lon":5.395996,"is_reserved":false,"is_disabled":false,"rental_uris":{"android":"levelo://app?vid=7ec5b485-525a-4840-a7df-83b61901d667","ios":"levelo://app?vid=7ec5b485-525a-4840-a7df-83b61901d667"},"vehicle_type_id":"4","last_reported":1743008928,"current_range_meters":9200,"station_id":"ce4bho12rcd13ifvqh2g","pricing_plan_id":"cebpf4jnsgd1na2vs0mg"},{"bike_id":"74f57765-0dfe-49f4-afab-5dbdb03bdebd","system_id":"levelo_inurba_marseille","lat":43.292619,"lon":5.384332,"is_reserved":false,"is_disabled":false,"rental_uris":{"android":"levelo://app?vid=74f57765-0dfe-49f4-afab-5dbdb03bdebd","ios":"levelo://app?vid=74f57765-0dfe-49f4-afab-5dbdb03bdebd"},"vehicle_type_id":"4","last_reported":1743008928,"current_range_meters":8000,"station_id":"ce4bh692rcd13ifvqea0","pricing_plan_id":"cebpf4jnsgd1na2vs0mg"},{"bike_id":"c80aa782-5a1c-49dc-82a9-5a6684179a01","system_id":"levelo_inurba_marseille","lat":43.28112,"lon":5.37839,"is_reserved":false,"is_disabled":false,"rental_uris":{"android":"levelo://app?vid=c80aa782-5a1c-49dc-82a9-5a6684179a01","ios":"levelo://app?vid=c80aa782-5a1c-49dc-82a9-5a6684179a01"},"vehicle_type_id":"4","last_reported":1743008928,"current_range_meters":9200,"station_id":"ce4bha12rcd13ifvqee0","pricing_plan_id":"cebpf4jnsgd1na2vs0mg"},{"bike_id":"5c7926ad-72ca-4528-9139-4ba41474a441","system_id":"levelo_inurba_marseille","lat":43.29195,"lon":5.35805,"is_reserved":false,"is_disabled":false,"rental_uris":{"android":"levelo://app?vid=5c7926ad-72ca-4528-9139-4ba41474a441","ios":"levelo://app?vid=5c7926ad-72ca-4528-9139-4ba41474a441"},"vehicle_type_id":"4","last_reported":1743008928,"current_range_meters":9200,"station_id":"ce4bhb12rcd13ifvqel0","pricing_plan_id":"cebpf4jnsgd1na2vs0mg"},{"bike_id":"8a9602e7-e6f2-4dac-845f-cea224e49dd5","system_id":"levelo_inurba_marseille","lat":43.23072,"lon":5.35513,"is_reserved":false,"is_disabled":false,"rental_uris":{"android":"levelo://app?vid=8a9602e7-e6f2-4dac-845f-cea224e49dd5","ios":"levelo://app?vid=8a9602e7-e6f2-4dac-845f-cea224e49dd5"},"vehicle_type_id":"4","last_reported":1743008928,"current_range_meters":9200,"station_id":"cpo3342slgdg3j2ifvpg","pricing_plan_id":"cebpf4jnsgd1na2vs0mg"},{"bike_id":"01cbffb0-3fb0-4769-96f8-4c2dd20b8277","system_id":"levelo_inurba_marseille","lat":43.28523,"lon":5.40555,"is_reserved":false,"is_disabled":false,"rental_uris":{"android":"levelo://app?vid=01cbffb0-3fb0-4769-96f8-4c2dd20b8277","ios":"levelo://app?vid=01cbffb0-3fb0-4769-96f8-4c2dd20b8277"},"vehicle_type_id":"4","last_reported":1743008928,"current_range_meters":9200,"station_id":"","pricing_plan_id":"cebpf4jnsgd1na2vs0mg"},{"bike_id":"0b597a58-5ef7-45ce-8d75-b956f795a574","system_id":"levelo_inurba_marseille","lat":43.298798,"lon":5.389108,"is_reserved":false,"is_disabled":false,"rental_uris":{"android":"levelo://app?vid=0b597a58-5ef7-45ce-8d75-b956f795a574","ios":"levelo://app?vid=0b597a58-5ef7-45ce-8d75-b956f795a574"},"vehicle_type_id":"4","last_reported":1743008928,"current_range_meters":9200,"station_id":"ce4bh392rcd13ifvqdl0","pricing_plan_id":"cebpf4jnsgd1na2vs0mg"},{"bike_id":"974f5876-effd-44d0-911c-76ea7a107a8c","system_id":"levelo_inurba_marseille","lat":43.33366,"lon":5.35984,"is_reserved":false,"is_disabled":false,"rental_uris":{"android":"levelo://app?vid=974f5876-effd-44d0-911c-76ea7a107a8c","ios":"levelo://app?vid=974f5876-effd-44d0-911c-76ea7a107a8c"},"vehicle_type_id":"4","last_reported":1743008928,"current_range_meters":9200,"station_id":"","pricing_plan_id":"cebpf4jnsgd1na2vs0mg"},{"bike_id":"ffb12bae-c444-4fc2-901c-d6080e4f2761","system_id":"levelo_inurba_marseille","lat":43.2895,"lon":5.36637,"is_reserved":false,"is_disabled":false,"rental_uris":{"android":"levelo://app?vid=ffb12bae-c444-4fc2-901c-d6080e4f2761","ios":"levelo://app?vid=ffb12bae-c444-4fc2-901c-d6080e4f2761"},"vehicle_type_id":"4","last_reported":1743008928,"current_range_meters":9200,"station_id":"ce4bhap2rcd13ifvqek0","pricing_plan_id":"cebpf4jnsgd1na2vs0mg"},{"bike_id":"efbcaaa6-b11f-400a-9240-cc4b1a3b098a","system_id":"levelo_inurba_marseille","lat":43.30595,"lon":5.39366,"is_reserved":false,"is_disabled":true,"rental_uris":{"android":"levelo://app?vid=efbcaaa6-b11f-400a-9240-cc4b1a3b098a","ios":"levelo://app?vid=efbcaaa6-b11f-400a-9240-cc4b1a3b098a"},"vehicle_type_id":"4","last_reported":1743008928,"current_range_meters":9200,"station_id":"ce4bh0p2rcd13ifvqd80","pricing_plan_id":"cebpf4jnsgd1na2vs0mg"},{"bike_id":"8de7059d-00de-4eed-a842-00ac61b0e1a8","system_id":"levelo_inurba_marseille","lat":43.29596,"lon":5.380878,"is_reserved":false,"is_disabled":true,"rental_uris":{"android":"levelo://app?vid=8de7059d-00de-4eed-a842-00ac61b0e1a8","ios":"levelo://app?vid=8de7059d-00de-4eed-a842-00ac61b0e1a8"},"vehicle_type_id":"4","last_reported":1743008928,"current_range_meters":9600,"station_id":"ce4bgl12rcd13ifvqbo0","pricing_plan_id":"cebpf4jnsgd1na2vs0mg"},{"bike_id":"bc430baf-aa85-45be-ab3d-b4b4ed5a430f","system_id":"levelo_inurba_marseille","lat":43.295347,"lon":5.393473,"is_reserved":false,"is_disabled":false,"rental_uris":{"android":"levelo://app?vid=bc430baf-aa85-45be-ab3d-b4b4ed5a430f","ios":"levelo://app?vid=bc430baf-aa85-45be-ab3d-b4b4ed5a430f"},"vehicle_type_id":"4","last_reported":1743008928,"current_range_meters":9200,"station_id":"chh1huq6cuj3fo74tm60","pricing_plan_id":"cebpf4jnsgd1na2vs0mg"},{"bike_id":"17d0200f-dc74-4d5f-86ef-d2f9ea6535cd","system_id":"levelo_inurba_marseille","lat":43.28939,"lon":5.36639,"is_reserved":false,"is_disabled":false,"rental_uris":{"android":"levelo://app?vid=17d0200f-dc74-4d5f-86ef-d2f9ea6535cd","ios":"levelo://app?vid=17d0200f-dc74-4d5f-86ef-d2f9ea6535cd"},"vehicle_type_id":"4","last_reported":1743008928,"current_range_meters":9600,"station_id":"ce4bhap2rcd13ifvqek0","pricing_plan_id":"cebpf4jnsgd1na2vs0mg"},{"bike_id":"8e1b69fe-38a9-404e-9145-427fd10d244c","system_id":"levelo_inurba_marseille","lat":43.28438,"lon":5.35001,"is_reserved":false,"is_disabled":false,"rental_uris":{"android":"levelo://app?vid=8e1b69fe-38a9-404e-9145-427fd10d244c","ios":"levelo://app?vid=8e1b69fe-38a9-404e-9145-427fd10d244c"},"vehicle_type_id":"4","last_reported":1743008928,"current_range_meters":9600,"station_id":"ce4bhbh2rcd13ifvqepg","pricing_plan_id":"cebpf4jnsgd1na2vs0mg"},{"bike_id":"84a7a785-5392-42bc-8088-fb903bcc7f5c","system_id":"levelo_inurba_marseille","lat":43.23067,"lon":5.355,"is_reserved":false,"is_disabled":false,"rental_uris":{"android":"levelo://app?vid=84a7a785-5392-42bc-8088-fb903bcc7f5c","ios":"levelo://app?vid=84a7a785-5392-42bc-8088-fb903bcc7f5c"},"vehicle_type_id":"4","last_reported":1743008928,"current_range_meters":9600,"station_id":"cpo3342slgdg3j2ifvpg","pricing_plan_id":"cebpf4jnsgd1na2vs0mg"},{"bike_id":"610d5ae4-bb8c-4001-8de8-d0f1dd0344d0","system_id":"levelo_inurba_marseille","lat":43.23965,"lon":5.36629,"is_reserved":false,"is_disabled":false,"rental_uris":{"android":"levelo://app?vid=610d5ae4-bb8c-4001-8de8-d0f1dd0344d0","ios":"levelo://app?vid=610d5ae4-bb8c-4001-8de8-d0f1dd0344d0"},"vehicle_type_id":"4","last_reported":1743008928,"current_range_meters":9600,"station_id":"ce4bhi12rcd13ifvqfp0","pricing_plan_id":"cebpf4jnsgd1na2vs0mg"},{"bike_id":"0bf42c0a-21ee-4b19-9580-faf82b01e354","system_id":"levelo_inurba_marseille","lat":43.30536,"lon":5.36536,"is_reserved":false,"is_disabled":false,"rental_uris":{"android":"levelo://app?vid=0bf42c0a-21ee-4b19-9580-faf82b01e354","ios":"levelo://app?vid=0bf42c0a-21ee-4b19-9580-faf82b01e354"},"vehicle_type_id":"4","last_reported":1743008928,"current_range_meters":9600,"station_id":"ce4bgs12rcd13ifvqcag","pricing_plan_id":"cebpf4jnsgd1na2vs0mg"},{"bike_id":"3113e899-9f91-49de-90fe-fbd7a5add133","system_id":"levelo_inurba_marseille","lat":43.284227,"lon":5.350103,"is_reserved":false,"is_disabled":false,"rental_uris":{"android":"levelo://app?vid=3113e899-9f91-49de-90fe-fbd7a5add133","ios":"levelo://app?vid=3113e899-9f91-49de-90fe-fbd7a5add133"},"vehicle_type_id":"4","last_reported":1743008928,"current_range_meters":9600,"station_id":"ce4bhbh2rcd13ifvqepg","pricing_plan_id":"cebpf4jnsgd1na2vs0mg"},{"bike_id":"8f17f0fe-aeec-4ec3-b91b-1487134faba4","system_id":"levelo_inurba_marseille","lat":43.27917,"lon":5.39586,"is_reserved":false,"is_disabled":false,"rental_uris":{"android":"levelo://app?vid=8f17f0fe-aeec-4ec3-b91b-1487134faba4","ios":"levelo://app?vid=8f17f0fe-aeec-4ec3-b91b-1487134faba4"},"vehicle_type_id":"4","last_reported":1743008928,"current_range_meters":9600,"station_id":"ce4bhf92rcd13ifvqf40","pricing_plan_id":"cebpf4jnsgd1na2vs0mg"},{"bike_id":"9f8fa4e9-303f-44e7-aaed-625df19f016c","system_id":"levelo_inurba_marseille","lat":43.25724,"lon":5.4111,"is_reserved":false,"is_disabled":false,"rental_uris":{"android":"levelo://app?vid=9f8fa4e9-303f-44e7-aaed-625df19f016c","ios":"levelo://app?vid=9f8fa4e9-303f-44e7-aaed-625df19f016c"},"vehicle_type_id":"4","last_reported":1743008928,"current_range_meters":9600,"station_id":"ce4bhkp2rcd13ifvqgd0","pricing_plan_id":"cebpf4jnsgd1na2vs0mg"},{"bike_id":"6de54720-98d6-46f6-b60e-c39a4aae6e98","system_id":"levelo_inurba_marseille","lat":43.27897,"lon":5.38014,"is_reserved":false,"is_disabled":false,"rental_uris":{"android":"levelo://app?vid=6de54720-98d6-46f6-b60e-c39a4aae6e98","ios":"levelo://app?vid=6de54720-98d6-46f6-b60e-c39a4aae6e98"},"vehicle_type_id":"4","last_reported":1743008928,"current_range_meters":9600,"station_id":"ce4bhf92rcd13ifvqf50","pricing_plan_id":"cebpf4jnsgd1na2vs0mg"},{"bike_id":"fcd93adf-be69-41f6-941c-210a2fd40480","system_id":"levelo_inurba_marseille","lat":43.2815,"lon":5.42646,"is_reserved":false,"is_disabled":false,"rental_uris":{"android":"levelo://app?vid=fcd93adf-be69-41f6-941c-210a2fd40480","ios":"levelo://app?vid=fcd93adf-be69-41f6-941c-210a2fd40480"},"vehicle_type_id":"4","last_reported":1743008928,"current_range_meters":9600,"station_id":"ce4bhnh2rcd13ifvqgug","pricing_plan_id":"cebpf4jnsgd1na2vs0mg"},{"bike_id":"f68f786d-710c-4e7f-b177-81fd35d15003","system_id":"levelo_inurba_marseille","lat":43.26936,"lon":5.38921,"is_reserved":false,"is_disabled":false,"rental_uris":{"android":"levelo://app?vid=f68f786d-710c-4e7f-b177-81fd35d15003","ios":"levelo://app?vid=f68f786d-710c-4e7f-b177-81fd35d15003"},"vehicle_type_id":"4","last_reported":1743008928,"current_range_meters":9600,"station_id":"ce4bhhh2rcd13ifvqfl0","pricing_plan_id":"cebpf4jnsgd1na2vs0mg"},{"bike_id":"b418d168-f2ad-4db0-9a6f-e88743ba94c8","system_id":"levelo_inurba_marseille","lat":43.29269,"lon":5.37624,"is_reserved":false,"is_disabled":true,"rental_uris":{"android":"levelo://app?vid=b418d168-f2ad-4db0-9a6f-e88743ba94c8","ios":"levelo://app?vid=b418d168-f2ad-4db0-9a6f-e88743ba94c8"},"vehicle_type_id":"4","last_reported":1743008928,"current_range_meters":10000,"station_id":"ce4bgi12rcd13ifvqb80","pricing_plan_id":"cebpf4jnsgd1na2vs0mg"},{"bike_id":"ffaf6716-09fd-4ee2-be14-fe7fd975c6bd","system_id":"levelo_inurba_marseille","lat":43.2735,"lon":5.36222,"is_reserved":false,"is_disabled":false,"rental_uris":{"android":"levelo://app?vid=ffaf6716-09fd-4ee2-be14-fe7fd975c6bd","ios":"levelo://app?vid=ffaf6716-09fd-4ee2-be14-fe7fd975c6bd"},"vehicle_type_id":"4","last_reported":1743008928,"current_range_meters":10000,"station_id":"ce4bhbh2rcd13ifvqeo0","pricing_plan_id":"cebpf4jnsgd1na2vs0mg"},{"bike_id":"ad3a09d6-8194-4bae-a5b1-51b443e279f8","system_id":"levelo_inurba_marseille","lat":43.22933,"lon":5.35397,"is_reserved":false,"is_disabled":false,"rental_uris":{"android":"levelo://app?vid=ad3a09d6-8194-4bae-a5b1-51b443e279f8","ios":"levelo://app?vid=ad3a09d6-8194-4bae-a5b1-51b443e279f8"},"vehicle_type_id":"4","last_reported":1743008928,"current_range_meters":10000,"station_id":"cpo3532slgdg3j2ikp40","pricing_plan_id":"cebpf4jnsgd1na2vs0mg"},{"bike_id":"03ea0b2f-e4ad-4034-be98-444144529827","system_id":"levelo_inurba_marseille","lat":43.29254,"lon":5.40898,"is_reserved":false,"is_disabled":false,"rental_uris":{"android":"levelo://app?vid=03ea0b2f-e4ad-4034-be98-444144529827","ios":"levelo://app?vid=03ea0b2f-e4ad-4034-be98-444144529827"},"vehicle_type_id":"4","last_reported":1743008928,"current_range_meters":10000,"station_id":"ce4bh192rcd13ifvqdc0","pricing_plan_id":"cebpf4jnsgd1na2vs0mg"},{"bike_id":"812c3324-aa6a-46c2-8e57-c87ce16bdad8","system_id":"levelo_inurba_marseille","lat":43.28676,"lon":5.38659,"is_reserved":false,"is_disabled":false,"rental_uris":{"android":"levelo://app?vid=812c3324-aa6a-46c2-8e57-c87ce16bdad8","ios":"levelo://app?vid=812c3324-aa6a-46c2-8e57-c87ce16bdad8"},"vehicle_type_id":"4","last_reported":1743008928,"current_range_meters":10000,"station_id":"ce4bh492rcd13ifvqdug","pricing_plan_id":"cebpf4jnsgd1na2vs0mg"},{"bike_id":"9c76087c-6bee-4072-a007-0a66c3f82b43","system_id":"levelo_inurba_marseille","lat":43.262268,"lon":5.375099,"is_reserved":false,"is_disabled":false,"rental_uris":{"android":"levelo://app?vid=9c76087c-6bee-4072-a007-0a66c3f82b43","ios":"levelo://app?vid=9c76087c-6bee-4072-a007-0a66c3f82b43"},"vehicle_type_id":"4","last_reported":1743008928,"current_range_meters":10000,"station_id":"ce4bh292rcd13ifvqdg0","pricing_plan_id":"cebpf4jnsgd1na2vs0mg"},{"bike_id":"585c19d1-9fab-41e3-a4b5-c312cbd30ffe","system_id":"levelo_inurba_marseille","lat":43.28003,"lon":5.40025,"is_reserved":false,"is_disabled":false,"rental_uris":{"android":"levelo://app?vid=585c19d1-9fab-41e3-a4b5-c312cbd30ffe","ios":"levelo://app?vid=585c19d1-9fab-41e3-a4b5-c312cbd30ffe"},"vehicle_type_id":"4","last_reported":1743008928,"current_range_meters":10000,"station_id":"ce4bho92rcd13ifvqh4g","pricing_plan_id":"cebpf4jnsgd1na2vs0mg"},{"bike_id":"e126e5db-8bce-4aaf-9956-3bc7c371bd61","system_id":"levelo_inurba_marseille","lat":43.24812,"lon":5.37448,"is_reserved":false,"is_disabled":false,"rental_uris":{"android":"levelo://app?vid=e126e5db-8bce-4aaf-9956-3bc7c371bd61","ios":"levelo://app?vid=e126e5db-8bce-4aaf-9956-3bc7c371bd61"},"vehicle_type_id":"4","last_reported":1743008928,"current_range_meters":10000,"station_id":"ce4bhgh2rcd13ifvqfb0","pricing_plan_id":"cebpf4jnsgd1na2vs0mg"},{"bike_id":"a3581d99-7175-4d7f-ae46-7197148d1b7a","system_id":"levelo_inurba_marseille","lat":43.28419,"lon":5.35001,"is_reserved":false,"is_disabled":false,"rental_uris":{"android":"levelo://app?vid=a3581d99-7175-4d7f-ae46-7197148d1b7a","ios":"levelo://app?vid=a3581d99-7175-4d7f-ae46-7197148d1b7a"},"vehicle_type_id":"4","last_reported":1743008928,"current_range_meters":10000,"station_id":"ce4bhbh2rcd13ifvqepg","pricing_plan_id":"cebpf4jnsgd1na2vs0mg"},{"bike_id":"41a3dd54-69c8-4a8c-8cb4-82f3648e8acc","system_id":"levelo_inurba_marseille","lat":43.2736,"lon":5.36245,"is_reserved":false,"is_disabled":false,"rental_uris":{"android":"levelo://app?vid=41a3dd54-69c8-4a8c-8cb4-82f3648e8acc","ios":"levelo://app?vid=41a3dd54-69c8-4a8c-8cb4-82f3648e8acc"},"vehicle_type_id":"4","last_reported":1743008928,"current_range_meters":10000,"station_id":"ce4bhbh2rcd13ifvqeo0","pricing_plan_id":"cebpf4jnsgd1na2vs0mg"},{"bike_id":"260084e9-d21e-4d6d-a4df-55be6e29ea29","system_id":"levelo_inurba_marseille","lat":43.30188,"lon":5.36615,"is_reserved":false,"is_disabled":false,"rental_uris":{"android":"levelo://app?vid=260084e9-d21e-4d6d-a4df-55be6e29ea29","ios":"levelo://app?vid=260084e9-d21e-4d6d-a4df-55be6e29ea29"},"vehicle_type_id":"4","last_reported":1743008928,"current_range_meters":10000,"station_id":"ce4bgrh2rcd13ifvqc8g","pricing_plan_id":"cebpf4jnsgd1na2vs0mg"},{"bike_id":"2d264146-25ee-4c88-81b5-dfad415ba4a2","system_id":"levelo_inurba_marseille","lat":43.29363,"lon":5.37827,"is_reserved":false,"is_disabled":false,"rental_uris":{"android":"levelo://app?vid=2d264146-25ee-4c88-81b5-dfad415ba4a2","ios":"levelo://app?vid=2d264146-25ee-4c88-81b5-dfad415ba4a2"},"vehicle_type_id":"4","last_reported":1743008928,"current_range_meters":10000,"station_id":"ce4bgjh2rcd13ifvqbf0","pricing_plan_id":"cebpf4jnsgd1na2vs0mg"},{"bike_id":"4eff1f5f-12d0-4c2b-b947-ce484273f06c","system_id":"levelo_inurba_marseille","lat":43.30592,"lon":5.39358,"is_reserved":false,"is_disabled":false,"rental_uris":{"android":"levelo://app?vid=4eff1f5f-12d0-4c2b-b947-ce484273f06c","ios":"levelo://app?vid=4eff1f5f-12d0-4c2b-b947-ce484273f06c"},"vehicle_type_id":"4","last_reported":1743008928,"current_range_meters":10800,"station_id":"ce4bh0p2rcd13ifvqd80","pricing_plan_id":"cebpf4jnsgd1na2vs0mg"},{"bike_id":"80b45bc9-a742-4eb7-a5d3-edfd7a910804","system_id":"levelo_inurba_marseille","lat":43.2408,"lon":5.37758,"is_reserved":false,"is_disabled":false,"rental_uris":{"android":"levelo://app?vid=80b45bc9-a742-4eb7-a5d3-edfd7a910804","ios":"levelo://app?vid=80b45bc9-a742-4eb7-a5d3-edfd7a910804"},"vehicle_type_id":"4","last_reported":1743008928,"current_range_meters":10000,"station_id":"ce4bhnp2rcd13ifvqgvg","pricing_plan_id":"cebpf4jnsgd1na2vs0mg"},{"bike_id":"1356e10b-fa4a-4cb5-8288-92ad3ef86732","system_id":"levelo_inurba_marseille","lat":43.30333,"lon":5.40428,"is_reserved":false,"is_disabled":false,"rental_uris":{"android":"levelo://app?vid=1356e10b-fa4a-4cb5-8288-92ad3ef86732","ios":"levelo://app?vid=1356e10b-fa4a-4cb5-8288-92ad3ef86732"},"vehicle_type_id":"4","last_reported":1743008928,"current_range_meters":10800,"station_id":"ce4bh012rcd13ifvqd10","pricing_plan_id":"cebpf4jnsgd1na2vs0mg"},{"bike_id":"818cfe2a-3205-453a-a960-4ebf1f298656","system_id":"levelo_inurba_marseille","lat":43.26692,"lon":5.38278,"is_reserved":false,"is_disabled":true,"rental_uris":{"android":"levelo://app?vid=818cfe2a-3205-453a-a960-4ebf1f298656","ios":"levelo://app?vid=818cfe2a-3205-453a-a960-4ebf1f298656"},"vehicle_type_id":"4","last_reported":1743008928,"current_range_meters":10800,"station_id":"ce4bhg92rcd13ifvqf90","pricing_plan_id":"cebpf4jnsgd1na2vs0mg"},{"bike_id":"8776e27b-0f90-41ea-ba59-3697a608b87b","system_id":"levelo_inurba_marseille","lat":43.2926,"lon":5.38452,"is_reserved":false,"is_disabled":false,"rental_uris":{"android":"levelo://app?vid=8776e27b-0f90-41ea-ba59-3697a608b87b","ios":"levelo://app?vid=8776e27b-0f90-41ea-ba59-3697a608b87b"},"vehicle_type_id":"4","last_reported":1743008928,"current_range_meters":10800,"station_id":"ce4bh692rcd13ifvqea0","pricing_plan_id":"cebpf4jnsgd1na2vs0mg"},{"bike_id":"611bcb83-4531-452e-b1e6-a6c596819b7d","system_id":"levelo_inurba_marseille","lat":43.28725,"lon":5.36081,"is_reserved":false,"is_disabled":false,"rental_uris":{"android":"levelo://app?vid=611bcb83-4531-452e-b1e6-a6c596819b7d","ios":"levelo://app?vid=611bcb83-4531-452e-b1e6-a6c596819b7d"},"vehicle_type_id":"4","last_reported":1743008928,"current_range_meters":10800,"station_id":"cki0cbj6b192h4jlfktg","pricing_plan_id":"cebpf4jnsgd1na2vs0mg"},{"bike_id":"a5be5b62-03c6-419c-8567-cd414cb60e76","system_id":"levelo_inurba_marseille","lat":43.29703,"lon":5.36612,"is_reserved":false,"is_disabled":false,"rental_uris":{"android":"levelo://app?vid=a5be5b62-03c6-419c-8567-cd414cb60e76","ios":"levelo://app?vid=a5be5b62-03c6-419c-8567-cd414cb60e76"},"vehicle_type_id":"4","last_reported":1743008928,"current_range_meters":10800,"station_id":"ce4bgn12rcd13ifvqbt0","pricing_plan_id":"cebpf4jnsgd1na2vs0mg"},{"bike_id":"ccdfac36-22da-4f2d-bd50-7bf147cc0fff","system_id":"levelo_inurba_marseille","lat":43.29894,"lon":5.43667,"is_reserved":false,"is_disabled":false,"rental_uris":{"android":"levelo://app?vid=ccdfac36-22da-4f2d-bd50-7bf147cc0fff","ios":"levelo://app?vid=ccdfac36-22da-4f2d-bd50-7bf147cc0fff"},"vehicle_type_id":"4","last_reported":1743008928,"current_range_meters":11200,"station_id":"ce4bhpp2rcd13ifvqhfg","pricing_plan_id":"cebpf4jnsgd1na2vs0mg"},{"bike_id":"8af2b38a-7832-46be-bcc1-ff562ff24883","system_id":"levelo_inurba_marseille","lat":43.27903,"lon":5.38008,"is_reserved":false,"is_disabled":false,"rental_uris":{"android":"levelo://app?vid=8af2b38a-7832-46be-bcc1-ff562ff24883","ios":"levelo://app?vid=8af2b38a-7832-46be-bcc1-ff562ff24883"},"vehicle_type_id":"4","last_reported":1743008928,"current_range_meters":11200,"station_id":"ce4bhf92rcd13ifvqf50","pricing_plan_id":"cebpf4jnsgd1na2vs0mg"},{"bike_id":"e17857c2-7264-4a36-b5a5-17499dddd5e5","system_id":"levelo_inurba_marseille","lat":43.27054,"lon":5.40262,"is_reserved":false,"is_disabled":false,"rental_uris":{"android":"levelo://app?vid=e17857c2-7264-4a36-b5a5-17499dddd5e5","ios":"levelo://app?vid=e17857c2-7264-4a36-b5a5-17499dddd5e5"},"vehicle_type_id":"4","last_reported":1743008928,"current_range_meters":11200,"station_id":"ce4bhk92rcd13ifvqgc0","pricing_plan_id":"cebpf4jnsgd1na2vs0mg"},{"bike_id":"d45a2f6c-957b-46cd-bd89-ee8e58d1536e","system_id":"levelo_inurba_marseille","lat":43.277253,"lon":5.407807,"is_reserved":false,"is_disabled":false,"rental_uris":{"android":"levelo://app?vid=d45a2f6c-957b-46cd-bd89-ee8e58d1536e","ios":"levelo://app?vid=d45a2f6c-957b-46cd-bd89-ee8e58d1536e"},"vehicle_type_id":"4","last_reported":1743008928,"current_range_meters":11200,"station_id":"","pricing_plan_id":"cebpf4jnsgd1na2vs0mg"},{"bike_id":"281c3d19-5751-4de6-a3b5-6d958e0617ba","system_id":"levelo_inurba_marseille","lat":43.3054,"lon":5.36718,"is_reserved":false,"is_disabled":false,"rental_uris":{"android":"levelo://app?vid=281c3d19-5751-4de6-a3b5-6d958e0617ba","ios":"levelo://app?vid=281c3d19-5751-4de6-a3b5-6d958e0617ba"},"vehicle_type_id":"4","last_reported":1743008928,"current_range_meters":11200,"station_id":"ce4bgrp2rcd13ifvqc9g","pricing_plan_id":"cebpf4jnsgd1na2vs0mg"},{"bike_id":"d4d52cd6-8435-4a9e-9781-97d3c6217ee5","system_id":"levelo_inurba_marseille","lat":43.29383,"lon":5.37865,"is_reserved":false,"is_disabled":false,"rental_uris":{"android":"levelo://app?vid=d4d52cd6-8435-4a9e-9781-97d3c6217ee5","ios":"levelo://app?vid=d4d52cd6-8435-4a9e-9781-97d3c6217ee5"},"vehicle_type_id":"4","last_reported":1743008928,"current_range_meters":11200,"station_id":"ce4bgjh2rcd13ifvqbf0","pricing_plan_id":"cebpf4jnsgd1na2vs0mg"},{"bike_id":"cfc81fb5-00ae-4d3d-a9f8-21a1678f91c6","system_id":"levelo_inurba_marseille","lat":43.30004,"lon":5.385126,"is_reserved":false,"is_disabled":false,"rental_uris":{"android":"levelo://app?vid=cfc81fb5-00ae-4d3d-a9f8-21a1678f91c6","ios":"levelo://app?vid=cfc81fb5-00ae-4d3d-a9f8-21a1678f91c6"},"vehicle_type_id":"4","last_reported":1743008928,"current_range_meters":11200,"station_id":"ce4bgt12rcd13ifvqce0","pricing_plan_id":"cebpf4jnsgd1na2vs0mg"},{"bike_id":"be8a4c12-59fb-40c8-b582-1cb7b8e1f4db","system_id":"levelo_inurba_marseille","lat":43.2694,"lon":5.38917,"is_reserved":false,"is_disabled":false,"rental_uris":{"android":"levelo://app?vid=be8a4c12-59fb-40c8-b582-1cb7b8e1f4db","ios":"levelo://app?vid=be8a4c12-59fb-40c8-b582-1cb7b8e1f4db"},"vehicle_type_id":"4","last_reported":1743008928,"current_range_meters":11200,"station_id":"ce4bhhh2rcd13ifvqfl0","pricing_plan_id":"cebpf4jnsgd1na2vs0mg"},{"bike_id":"2623a753-dcde-4ffa-9bf1-3275e6037e7a","system_id":"levelo_inurba_marseille","lat":43.32483,"lon":5.36584,"is_reserved":false,"is_disabled":false,"rental_uris":{"android":"levelo://app?vid=2623a753-dcde-4ffa-9bf1-3275e6037e7a","ios":"levelo://app?vid=2623a753-dcde-4ffa-9bf1-3275e6037e7a"},"vehicle_type_id":"4","last_reported":1743008928,"current_range_meters":11200,"station_id":"ce4bhs12rcd13ifvqhvg","pricing_plan_id":"cebpf4jnsgd1na2vs0mg"},{"bike_id":"ac8afb6c-1afc-4db8-ba76-89597528c164","system_id":"levelo_inurba_marseille","lat":43.27068,"lon":5.4228,"is_reserved":false,"is_disabled":false,"rental_uris":{"android":"levelo://app?vid=ac8afb6c-1afc-4db8-ba76-89597528c164","ios":"levelo://app?vid=ac8afb6c-1afc-4db8-ba76-89597528c164"},"vehicle_type_id":"4","last_reported":1743008928,"current_range_meters":11200,"station_id":"ce4bhk92rcd13ifvqgb0","pricing_plan_id":"cebpf4jnsgd1na2vs0mg"},{"bike_id":"b94d8627-a724-4475-bcc5-433f4432d8b2","system_id":"levelo_inurba_marseille","lat":43.29622,"lon":5.3771,"is_reserved":false,"is_disabled":false,"rental_uris":{"android":"levelo://app?vid=b94d8627-a724-4475-bcc5-433f4432d8b2","ios":"levelo://app?vid=b94d8627-a724-4475-bcc5-433f4432d8b2"},"vehicle_type_id":"4","last_reported":1743008928,"current_range_meters":11200,"station_id":"ce4bgi92rcd13ifvqb90","pricing_plan_id":"cebpf4jnsgd1na2vs0mg"},{"bike_id":"15d7f783-2896-4a60-bc36-75f183263caf","system_id":"levelo_inurba_marseille","lat":43.29535,"lon":5.39029,"is_reserved":false,"is_disabled":false,"rental_uris":{"android":"levelo://app?vid=15d7f783-2896-4a60-bc36-75f183263caf","ios":"levelo://app?vid=15d7f783-2896-4a60-bc36-75f183263caf"},"vehicle_type_id":"4","last_reported":1743008928,"current_range_meters":11600,"station_id":"ce4bh3p2rcd13ifvqdp0","pricing_plan_id":"cebpf4jnsgd1na2vs0mg"},{"bike_id":"c200861a-db82-4f91-a103-a920947147ab","system_id":"levelo_inurba_marseille","lat":43.256013,"lon":5.41182,"is_reserved":false,"is_disabled":false,"rental_uris":{"android":"levelo://app?vid=c200861a-db82-4f91-a103-a920947147ab","ios":"levelo://app?vid=c200861a-db82-4f91-a103-a920947147ab"},"vehicle_type_id":"4","last_reported":1743008928,"current_range_meters":11600,"station_id":"","pricing_plan_id":"cebpf4jnsgd1na2vs0mg"},{"bike_id":"83f2e329-655f-435f-940d-89aa41d97446","system_id":"levelo_inurba_marseille","lat":43.255463,"lon":5.38606,"is_reserved":false,"is_disabled":false,"rental_uris":{"android":"levelo://app?vid=83f2e329-655f-435f-940d-89aa41d97446","ios":"levelo://app?vid=83f2e329-655f-435f-940d-89aa41d97446"},"vehicle_type_id":"4","last_reported":1743008928,"current_range_meters":11600,"station_id":"ce4bhgp2rcd13ifvqfd0","pricing_plan_id":"cebpf4jnsgd1na2vs0mg"},{"bike_id":"2e75698a-95cb-4f77-94d6-ba29819eb411","system_id":"levelo_inurba_marseille","lat":43.29436,"lon":5.39763,"is_reserved":false,"is_disabled":false,"rental_uris":{"android":"levelo://app?vid=2e75698a-95cb-4f77-94d6-ba29819eb411","ios":"levelo://app?vid=2e75698a-95cb-4f77-94d6-ba29819eb411"},"vehicle_type_id":"4","last_reported":1743008928,"current_range_meters":11600,"station_id":"ce4bh3h2rcd13ifvqdo0","pricing_plan_id":"cebpf4jnsgd1na2vs0mg"},{"bike_id":"a31f5c16-a9d5-471d-a573-96996c4831b0","system_id":"levelo_inurba_marseille","lat":43.29255,"lon":5.3762,"is_reserved":false,"is_disabled":false,"rental_uris":{"android":"levelo://app?vid=a31f5c16-a9d5-471d-a573-96996c4831b0","ios":"levelo://app?vid=a31f5c16-a9d5-471d-a573-96996c4831b0"},"vehicle_type_id":"4","last_reported":1743008928,"current_range_meters":11600,"station_id":"ce4bgi12rcd13ifvqb80","pricing_plan_id":"cebpf4jnsgd1na2vs0mg"},{"bike_id":"45c1372f-e21b-43ec-821e-1bd022cd3bd4","system_id":"levelo_inurba_marseille","lat":43.3037,"lon":5.42497,"is_reserved":false,"is_disabled":false,"rental_uris":{"android":"levelo://app?vid=45c1372f-e21b-43ec-821e-1bd022cd3bd4","ios":"levelo://app?vid=45c1372f-e21b-43ec-821e-1bd022cd3bd4"},"vehicle_type_id":"4","last_reported":1743008928,"current_range_meters":11600,"station_id":"ce4bhoh2rcd13ifvqh6g","pricing_plan_id":"cebpf4jnsgd1na2vs0mg"},{"bike_id":"feb02021-c91c-4994-8c83-a0f717e424da","system_id":"levelo_inurba_marseille","lat":43.2502,"lon":5.38937,"is_reserved":false,"is_disabled":false,"rental_uris":{"android":"levelo://app?vid=feb02021-c91c-4994-8c83-a0f717e424da","ios":"levelo://app?vid=feb02021-c91c-4994-8c83-a0f717e424da"},"vehicle_type_id":"4","last_reported":1743008928,"current_range_meters":11600,"station_id":"ce4bhgp2rcd13ifvqfd0","pricing_plan_id":"cebpf4jnsgd1na2vs0mg"},{"bike_id":"e8b415e1-838f-45ab-81c2-7ee4b17363b4","system_id":"levelo_inurba_marseille","lat":43.26943,"lon":5.40248,"is_reserved":false,"is_disabled":false,"rental_uris":{"android":"levelo://app?vid=e8b415e1-838f-45ab-81c2-7ee4b17363b4","ios":"levelo://app?vid=e8b415e1-838f-45ab-81c2-7ee4b17363b4"},"vehicle_type_id":"4","last_reported":1743008928,"current_range_meters":11600,"station_id":"cjm6bp8fraef2m0cb0m0","pricing_plan_id":"cebpf4jnsgd1na2vs0mg"},{"bike_id":"5f18c038-0d3d-41e5-b03a-cf1226490d1b","system_id":"levelo_inurba_marseille","lat":43.29419,"lon":5.38618,"is_reserved":false,"is_disabled":false,"rental_uris":{"android":"levelo://app?vid=5f18c038-0d3d-41e5-b03a-cf1226490d1b","ios":"levelo://app?vid=5f18c038-0d3d-41e5-b03a-cf1226490d1b"},"vehicle_type_id":"4","last_reported":1743008928,"current_range_meters":11600,"station_id":"ce4bh2h2rcd13ifvqdh0","pricing_plan_id":"cebpf4jnsgd1na2vs0mg"},{"bike_id":"da02046a-e8be-4732-a814-bea47c0457a4","system_id":"levelo_inurba_marseille","lat":43.31072,"lon":5.38362,"is_reserved":false,"is_disabled":true,"rental_uris":{"android":"levelo://app?vid=da02046a-e8be-4732-a814-bea47c0457a4","ios":"levelo://app?vid=da02046a-e8be-4732-a814-bea47c0457a4"},"vehicle_type_id":"4","last_reported":1743008928,"current_range_meters":11600,"station_id":"ce4bgv92rcd13ifvqcr0","pricing_plan_id":"cebpf4jnsgd1na2vs0mg"},{"bike_id":"9fd9c5ce-9ccc-45df-b124-fcbfd36331c0","system_id":"levelo_inurba_marseille","lat":43.25721,"lon":5.41115,"is_reserved":false,"is_disabled":false,"rental_uris":{"android":"levelo://app?vid=9fd9c5ce-9ccc-45df-b124-fcbfd36331c0","ios":"levelo://app?vid=9fd9c5ce-9ccc-45df-b124-fcbfd36331c0"},"vehicle_type_id":"4","last_reported":1743008928,"current_range_meters":12000,"station_id":"ce4bhkp2rcd13ifvqgd0","pricing_plan_id":"cebpf4jnsgd1na2vs0mg"},{"bike_id":"95b147b1-d35d-4b6f-9ae1-7e131facc191","system_id":"levelo_inurba_marseille","lat":43.28117,"lon":5.37863,"is_reserved":false,"is_disabled":false,"rental_uris":{"android":"levelo://app?vid=95b147b1-d35d-4b6f-9ae1-7e131facc191","ios":"levelo://app?vid=95b147b1-d35d-4b6f-9ae1-7e131facc191"},"vehicle_type_id":"4","last_reported":1743008928,"current_range_meters":12000,"station_id":"ce4bha12rcd13ifvqee0","pricing_plan_id":"cebpf4jnsgd1na2vs0mg"},{"bike_id":"466e2e46-838c-4f9d-b2cf-0f4bacfcd6ac","system_id":"levelo_inurba_marseille","lat":43.28446,"lon":5.35023,"is_reserved":false,"is_disabled":false,"rental_uris":{"android":"levelo://app?vid=466e2e46-838c-4f9d-b2cf-0f4bacfcd6ac","ios":"levelo://app?vid=466e2e46-838c-4f9d-b2cf-0f4bacfcd6ac"},"vehicle_type_id":"4","last_reported":1743008928,"current_range_meters":12000,"station_id":"","pricing_plan_id":"cebpf4jnsgd1na2vs0mg"},{"bike_id":"85d0fa0c-b5b9-41cd-ba43-951901672dab","system_id":"levelo_inurba_marseille","lat":43.25602,"lon":5.39,"is_reserved":false,"is_disabled":false,"rental_uris":{"android":"levelo://app?vid=85d0fa0c-b5b9-41cd-ba43-951901672dab","ios":"levelo://app?vid=85d0fa0c-b5b9-41cd-ba43-951901672dab"},"vehicle_type_id":"4","last_reported":1743008928,"current_range_meters":12000,"station_id":"","pricing_plan_id":"cebpf4jnsgd1na2vs0mg"},{"bike_id":"726afa54-88cd-4c8f-9341-5c790985640b","system_id":"levelo_inurba_marseille","lat":43.27821,"lon":5.40717,"is_reserved":false,"is_disabled":false,"rental_uris":{"android":"levelo://app?vid=726afa54-88cd-4c8f-9341-5c790985640b","ios":"levelo://app?vid=726afa54-88cd-4c8f-9341-5c790985640b"},"vehicle_type_id":"4","last_reported":1743008928,"current_range_meters":12000,"station_id":"ce4bhnh2rcd13ifvqgtg","pricing_plan_id":"cebpf4jnsgd1na2vs0mg"},{"bike_id":"787ee71c-c51f-4c95-9b89-13daf71d2719","system_id":"levelo_inurba_marseille","lat":43.28575,"lon":5.39508,"is_reserved":false,"is_disabled":false,"rental_uris":{"android":"levelo://app?vid=787ee71c-c51f-4c95-9b89-13daf71d2719","ios":"levelo://app?vid=787ee71c-c51f-4c95-9b89-13daf71d2719"},"vehicle_type_id":"4","last_reported":1743008928,"current_range_meters":12000,"station_id":"ce4bh292rcd13ifvqdg0","pricing_plan_id":"cebpf4jnsgd1na2vs0mg"},{"bike_id":"42c44b1b-46b7-4c55-a3c2-9af930fd6f2f","system_id":"levelo_inurba_marseille","lat":43.29907,"lon":5.43724,"is_reserved":false,"is_disabled":false,"rental_uris":{"android":"levelo://app?vid=42c44b1b-46b7-4c55-a3c2-9af930fd6f2f","ios":"levelo://app?vid=42c44b1b-46b7-4c55-a3c2-9af930fd6f2f"},"vehicle_type_id":"4","last_reported":1743008928,"current_range_meters":12400,"station_id":"","pricing_plan_id":"cebpf4jnsgd1na2vs0mg"},{"bike_id":"a40da187-15da-4678-89d5-4b5373afad29","system_id":"levelo_inurba_marseille","lat":43.286713,"lon":5.386603,"is_reserved":false,"is_disabled":false,"rental_uris":{"android":"levelo://app?vid=a40da187-15da-4678-89d5-4b5373afad29","ios":"levelo://app?vid=a40da187-15da-4678-89d5-4b5373afad29"},"vehicle_type_id":"4","last_reported":1743008928,"current_range_meters":12400,"station_id":"ce4bh492rcd13ifvqdug","pricing_plan_id":"cebpf4jnsgd1na2vs0mg"},{"bike_id":"0efa9a85-a950-471a-88a8-073f5726d25d","system_id":"levelo_inurba_marseille","lat":43.29252,"lon":5.38435,"is_reserved":false,"is_disabled":true,"rental_uris":{"android":"levelo://app?vid=0efa9a85-a950-471a-88a8-073f5726d25d","ios":"levelo://app?vid=0efa9a85-a950-471a-88a8-073f5726d25d"},"vehicle_type_id":"4","last_reported":1743008928,"current_range_meters":12400,"station_id":"ce4bh692rcd13ifvqea0","pricing_plan_id":"cebpf4jnsgd1na2vs0mg"},{"bike_id":"788118f2-f3c2-4ad8-9c5e-6c7283133730","system_id":"levelo_inurba_marseille","lat":43.28618,"lon":5.35107,"is_reserved":false,"is_disabled":false,"rental_uris":{"android":"levelo://app?vid=788118f2-f3c2-4ad8-9c5e-6c7283133730","ios":"levelo://app?vid=788118f2-f3c2-4ad8-9c5e-6c7283133730"},"vehicle_type_id":"4","last_reported":1743008928,"current_range_meters":12400,"station_id":"ce4bhch2rcd13ifvqeug","pricing_plan_id":"cebpf4jnsgd1na2vs0mg"},{"bike_id":"f0553958-fcfa-4dab-814f-03d240c25b5c","system_id":"levelo_inurba_marseille","lat":43.25083,"lon":5.39534,"is_reserved":false,"is_disabled":false,"rental_uris":{"android":"levelo://app?vid=f0553958-fcfa-4dab-814f-03d240c25b5c","ios":"levelo://app?vid=f0553958-fcfa-4dab-814f-03d240c25b5c"},"vehicle_type_id":"4","last_reported":1743008928,"current_range_meters":12400,"station_id":"ce4bhm12rcd13ifvqgkg","pricing_plan_id":"cebpf4jnsgd1na2vs0mg"},{"bike_id":"5b226dd2-0182-403c-ba33-e6680e305e9f","system_id":"levelo_inurba_marseille","lat":43.243869,"lon":5.37058,"is_reserved":false,"is_disabled":false,"rental_uris":{"android":"levelo://app?vid=5b226dd2-0182-403c-ba33-e6680e305e9f","ios":"levelo://app?vid=5b226dd2-0182-403c-ba33-e6680e305e9f"},"vehicle_type_id":"4","last_reported":1743008928,"current_range_meters":12000,"station_id":"ce4bhhh2rcd13ifvqfk0","pricing_plan_id":"cebpf4jnsgd1na2vs0mg"},{"bike_id":"d9696525-94df-4b77-bfb9-1866480d9a66","system_id":"levelo_inurba_marseille","lat":43.28702,"lon":5.39998,"is_reserved":false,"is_disabled":false,"rental_uris":{"android":"levelo://app?vid=d9696525-94df-4b77-bfb9-1866480d9a66","ios":"levelo://app?vid=d9696525-94df-4b77-bfb9-1866480d9a66"},"vehicle_type_id":"4","last_reported":1743008928,"current_range_meters":12400,"station_id":"ce4bho92rcd13ifvqh3g","pricing_plan_id":"cebpf4jnsgd1na2vs0mg"},{"bike_id":"d98ee94e-80f0-42af-b59e-814ee87bab2e","system_id":"levelo_inurba_marseille","lat":43.30355,"lon":5.41873,"is_reserved":false,"is_disabled":false,"rental_uris":{"android":"levelo://app?vid=d98ee94e-80f0-42af-b59e-814ee87bab2e","ios":"levelo://app?vid=d98ee94e-80f0-42af-b59e-814ee87bab2e"},"vehicle_type_id":"4","last_reported":1743008928,"current_range_meters":12000,"station_id":"ce4bhop2rcd13ifvqh7g","pricing_plan_id":"cebpf4jnsgd1na2vs0mg"},{"bike_id":"46bc7627-5963-437b-83ed-b3f9497370e8","system_id":"levelo_inurba_marseille","lat":43.29907,"lon":5.43654,"is_reserved":false,"is_disabled":false,"rental_uris":{"android":"levelo://app?vid=46bc7627-5963-437b-83ed-b3f9497370e8","ios":"levelo://app?vid=46bc7627-5963-437b-83ed-b3f9497370e8"},"vehicle_type_id":"4","last_reported":1743008928,"current_range_meters":12400,"station_id":"ce4bhpp2rcd13ifvqhfg","pricing_plan_id":"cebpf4jnsgd1na2vs0mg"},{"bike_id":"e2cb0ae7-3532-4c3c-acef-52ab6bda0635","system_id":"levelo_inurba_marseille","lat":43.23194,"lon":5.35544,"is_reserved":false,"is_disabled":false,"rental_uris":{"android":"levelo://app?vid=e2cb0ae7-3532-4c3c-acef-52ab6bda0635","ios":"levelo://app?vid=e2cb0ae7-3532-4c3c-acef-52ab6bda0635"},"vehicle_type_id":"4","last_reported":1743008928,"current_range_meters":12400,"station_id":"ce4bhu92rcd13ifvqi70","pricing_plan_id":"cebpf4jnsgd1na2vs0mg"},{"bike_id":"0f29c835-0de2-4587-820f-2ac76d3d4889","system_id":"levelo_inurba_marseille","lat":43.29418,"lon":5.38625,"is_reserved":false,"is_disabled":false,"rental_uris":{"android":"levelo://app?vid=0f29c835-0de2-4587-820f-2ac76d3d4889","ios":"levelo://app?vid=0f29c835-0de2-4587-820f-2ac76d3d4889"},"vehicle_type_id":"4","last_reported":1743008928,"current_range_meters":12400,"station_id":"ce4bh2h2rcd13ifvqdh0","pricing_plan_id":"cebpf4jnsgd1na2vs0mg"},{"bike_id":"72bf7f52-2b72-42e9-881d-41d1fbd98f64","system_id":"levelo_inurba_marseille","lat":43.28924,"lon":5.38384,"is_reserved":false,"is_disabled":false,"rental_uris":{"android":"levelo://app?vid=72bf7f52-2b72-42e9-881d-41d1fbd98f64","ios":"levelo://app?vid=72bf7f52-2b72-42e9-881d-41d1fbd98f64"},"vehicle_type_id":"4","last_reported":1743008928,"current_range_meters":12800,"station_id":"ce4bh612rcd13ifvqe6g","pricing_plan_id":"cebpf4jnsgd1na2vs0mg"},{"bike_id":"02ed2fc5-87ff-43c8-b485-d12955b63f9a","system_id":"levelo_inurba_marseille","lat":43.292578,"lon":5.384414,"is_reserved":false,"is_disabled":false,"rental_uris":{"android":"levelo://app?vid=02ed2fc5-87ff-43c8-b485-d12955b63f9a","ios":"levelo://app?vid=02ed2fc5-87ff-43c8-b485-d12955b63f9a"},"vehicle_type_id":"4","last_reported":1743008928,"current_range_meters":12800,"station_id":"","pricing_plan_id":"cebpf4jnsgd1na2vs0mg"},{"bike_id":"16cc8397-ae3f-4aaa-81ca-93c35c11fe10","system_id":"levelo_inurba_marseille","lat":43.26939,"lon":5.38915,"is_reserved":false,"is_disabled":false,"rental_uris":{"android":"levelo://app?vid=16cc8397-ae3f-4aaa-81ca-93c35c11fe10","ios":"levelo://app?vid=16cc8397-ae3f-4aaa-81ca-93c35c11fe10"},"vehicle_type_id":"4","last_reported":1743008928,"current_range_meters":12800,"station_id":"ce4bhhh2rcd13ifvqfl0","pricing_plan_id":"cebpf4jnsgd1na2vs0mg"},{"bike_id":"ce6fb305-2ce9-42a2-a222-e7a3d9e1b14e","system_id":"levelo_inurba_marseille","lat":43.33028,"lon":5.39054,"is_reserved":false,"is_disabled":false,"rental_uris":{"android":"levelo://app?vid=ce6fb305-2ce9-42a2-a222-e7a3d9e1b14e","ios":"levelo://app?vid=ce6fb305-2ce9-42a2-a222-e7a3d9e1b14e"},"vehicle_type_id":"4","last_reported":1743008928,"current_range_meters":12800,"station_id":"ce4bhr92rcd13ifvqhrg","pricing_plan_id":"cebpf4jnsgd1na2vs0mg"},{"bike_id":"f24fec9a-e334-444d-b628-f61223752d19","system_id":"levelo_inurba_marseille","lat":43.24992,"lon":5.38934,"is_reserved":false,"is_disabled":false,"rental_uris":{"android":"levelo://app?vid=f24fec9a-e334-444d-b628-f61223752d19","ios":"levelo://app?vid=f24fec9a-e334-444d-b628-f61223752d19"},"vehicle_type_id":"4","last_reported":1743008928,"current_range_meters":12800,"station_id":"ce4bhgp2rcd13ifvqfd0","pricing_plan_id":"cebpf4jnsgd1na2vs0mg"},{"bike_id":"6783837e-bf36-4eb9-8e3f-230d05782a6d","system_id":"levelo_inurba_marseille","lat":43.2467,"lon":5.3816,"is_reserved":false,"is_disabled":false,"rental_uris":{"android":"levelo://app?vid=6783837e-bf36-4eb9-8e3f-230d05782a6d","ios":"levelo://app?vid=6783837e-bf36-4eb9-8e3f-230d05782a6d"},"vehicle_type_id":"4","last_reported":1743008928,"current_range_meters":12800,"station_id":"ce4bhih2rcd13ifvqfr0","pricing_plan_id":"cebpf4jnsgd1na2vs0mg"},{"bike_id":"2f69c259-678f-4dc6-9847-fd43204ee42a","system_id":"levelo_inurba_marseille","lat":43.25115,"lon":5.39517,"is_reserved":false,"is_disabled":false,"rental_uris":{"android":"levelo://app?vid=2f69c259-678f-4dc6-9847-fd43204ee42a","ios":"levelo://app?vid=2f69c259-678f-4dc6-9847-fd43204ee42a"},"vehicle_type_id":"4","last_reported":1743008928,"current_range_meters":12800,"station_id":"ce4bhm12rcd13ifvqgkg","pricing_plan_id":"cebpf4jnsgd1na2vs0mg"},{"bike_id":"d72b2321-ec34-48cf-868e-8c5e65afe96e","system_id":"levelo_inurba_marseille","lat":43.279168,"lon":5.395795,"is_reserved":false,"is_disabled":false,"rental_uris":{"android":"levelo://app?vid=d72b2321-ec34-48cf-868e-8c5e65afe96e","ios":"levelo://app?vid=d72b2321-ec34-48cf-868e-8c5e65afe96e"},"vehicle_type_id":"4","last_reported":1743008928,"current_range_meters":13600,"station_id":"ce4bhf92rcd13ifvqf40","pricing_plan_id":"cebpf4jnsgd1na2vs0mg"},{"bike_id":"d22eb261-e0f2-482f-b572-53d1a4ab5e5c","system_id":"levelo_inurba_marseille","lat":43.27378,"lon":5.36262,"is_reserved":false,"is_disabled":false,"rental_uris":{"android":"levelo://app?vid=d22eb261-e0f2-482f-b572-53d1a4ab5e5c","ios":"levelo://app?vid=d22eb261-e0f2-482f-b572-53d1a4ab5e5c"},"vehicle_type_id":"4","last_reported":1743008928,"current_range_meters":13600,"station_id":"ce4bhbh2rcd13ifvqeo0","pricing_plan_id":"cebpf4jnsgd1na2vs0mg"},{"bike_id":"6e208957-05d3-430b-8247-5e3338f51f57","system_id":"levelo_inurba_marseille","lat":43.299048,"lon":5.381292,"is_reserved":false,"is_disabled":true,"rental_uris":{"android":"levelo://app?vid=6e208957-05d3-430b-8247-5e3338f51f57","ios":"levelo://app?vid=6e208957-05d3-430b-8247-5e3338f51f57"},"vehicle_type_id":"4","last_reported":1743008928,"current_range_meters":13600,"station_id":"ce4bgj12rcd13ifvqbc0","pricing_plan_id":"cebpf4jnsgd1na2vs0mg"},{"bike_id":"bcfabe6b-c324-4ca5-8e5a-d975882db885","system_id":"levelo_inurba_marseille","lat":43.30152,"lon":5.38088,"is_reserved":false,"is_disabled":false,"rental_uris":{"android":"levelo://app?vid=bcfabe6b-c324-4ca5-8e5a-d975882db885","ios":"levelo://app?vid=bcfabe6b-c324-4ca5-8e5a-d975882db885"},"vehicle_type_id":"4","last_reported":1743008928,"current_range_meters":13600,"station_id":"ce4bgjp2rcd13ifvqbh0","pricing_plan_id":"cebpf4jnsgd1na2vs0mg"},{"bike_id":"88d6965b-35b9-4a77-bbe7-48f3936aa54f","system_id":"levelo_inurba_marseille","lat":43.27175,"lon":5.40997,"is_reserved":false,"is_disabled":false,"rental_uris":{"android":"levelo://app?vid=88d6965b-35b9-4a77-bbe7-48f3936aa54f","ios":"levelo://app?vid=88d6965b-35b9-4a77-bbe7-48f3936aa54f"},"vehicle_type_id":"4","last_reported":1743008928,"current_range_meters":13600,"station_id":"ce4bhl12rcd13ifvqgf0","pricing_plan_id":"cebpf4jnsgd1na2vs0mg"},{"bike_id":"da8b9ca3-d487-4cb5-8557-a6fc318fa3dc","system_id":"levelo_inurba_marseille","lat":43.28266,"lon":5.35067,"is_reserved":false,"is_disabled":false,"rental_uris":{"android":"levelo://app?vid=da8b9ca3-d487-4cb5-8557-a6fc318fa3dc","ios":"levelo://app?vid=da8b9ca3-d487-4cb5-8557-a6fc318fa3dc"},