{"last_updated":1779222169,"ttl":60,"version":"2.2","data":{"bikes":[{"bike_id":"7d641315-6110-49cb-a9dd-d637ff032de1","system_id":"levelo_inurba_marseille","lat":43.337444,"lon":5.374475,"is_reserved":false,"is_disabled":false,"rental_uris":{"android":"levelo://app?vid=7d641315-6110-49cb-a9dd-d637ff032de1","ios":"levelo://app?vid=7d641315-6110-49cb-a9dd-d637ff032de1"},"vehicle_type_id":"4","last_reported":1779222170,"current_range_meters":0,"station_id":"","pricing_plan_id":"cebpf4jnsgd1na2vs0mg"},{"bike_id":"f953e7df-9a8f-4f8e-8e56-6a5db7d34d82","system_id":"levelo_inurba_marseille","lat":43.269189,"lon":5.380411,"is_reserved":false,"is_disabled":false,"rental_uris":{"android":"levelo://app?vid=f953e7df-9a8f-4f8e-8e56-6a5db7d34d82","ios":"levelo://app?vid=f953e7df-9a8f-4f8e-8e56-6a5db7d34d82"},"vehicle_type_id":"4","last_reported":1779222170,"current_range_meters":2800,"station_id":"","pricing_plan_id":"cebpf4jnsgd1na2vs0mg"},{"bike_id":"40998730-2a01-4f39-b3e3-97857ff3b944","system_id":"levelo_inurba_marseille","lat":43.24082,"lon":5.37751,"is_reserved":false,"is_disabled":false,"rental_uris":{"android":"levelo://app?vid=40998730-2a01-4f39-b3e3-97857ff3b944","ios":"levelo://app?vid=40998730-2a01-4f39-b3e3-97857ff3b944"},"vehicle_type_id":"4","last_reported":1779222170,"current_range_meters":2800,"station_id":"ce4bhnp2rcd13ifvqgvg","pricing_plan_id":"cebpf4jnsgd1na2vs0mg"},{"bike_id":"30029d9e-e180-49cf-8c41-2527c38fbe83","system_id":"levelo_inurba_marseille","lat":43.28347,"lon":5.3809,"is_reserved":false,"is_disabled":false,"rental_uris":{"android":"levelo://app?vid=30029d9e-e180-49cf-8c41-2527c38fbe83","ios":"levelo://app?vid=30029d9e-e180-49cf-8c41-2527c38fbe83"},"vehicle_type_id":"4","last_reported":1779222170,"current_range_meters":2800,"station_id":"ce4bh412rcd13ifvqdr0","pricing_plan_id":"cebpf4jnsgd1na2vs0mg"},{"bike_id":"d330ebaf-89a2-4938-8fb2-a03c97594a54","system_id":"levelo_inurba_marseille","lat":43.28987,"lon":5.3761,"is_reserved":false,"is_disabled":false,"rental_uris":{"android":"levelo://app?vid=d330ebaf-89a2-4938-8fb2-a03c97594a54","ios":"levelo://app?vid=d330ebaf-89a2-4938-8fb2-a03c97594a54"},"vehicle_type_id":"4","last_reported":1779222170,"current_range_meters":2800,"station_id":"","pricing_plan_id":"cebpf4jnsgd1na2vs0mg"},{"bike_id":"a00e0437-70b7-4b6b-b0dc-60d8ee1820e2","system_id":"levelo_inurba_marseille","lat":43.27076,"lon":5.4227,"is_reserved":false,"is_disabled":false,"rental_uris":{"android":"levelo://app?vid=a00e0437-70b7-4b6b-b0dc-60d8ee1820e2","ios":"levelo://app?vid=a00e0437-70b7-4b6b-b0dc-60d8ee1820e2"},"vehicle_type_id":"4","last_reported":1779222170,"current_range_meters":2800,"station_id":"ce4bhk92rcd13ifvqgb0","pricing_plan_id":"cebpf4jnsgd1na2vs0mg"},{"bike_id":"27aa0bcf-d471-4efe-84b6-7f166eb5a7d7","system_id":"levelo_inurba_marseille","lat":43.28634,"lon":5.37054,"is_reserved":false,"is_disabled":false,"rental_uris":{"android":"levelo://app?vid=27aa0bcf-d471-4efe-84b6-7f166eb5a7d7","ios":"levelo://app?vid=27aa0bcf-d471-4efe-84b6-7f166eb5a7d7"},"vehicle_type_id":"4","last_reported":1779222170,"current_range_meters":2800,"station_id":"ce4bht12rcd13ifvqi60","pricing_plan_id":"cebpf4jnsgd1na2vs0mg"},{"bike_id":"1e72f32e-7740-4660-bb32-05924a878068","system_id":"levelo_inurba_marseille","lat":43.27365,"lon":5.36221,"is_reserved":false,"is_disabled":true,"rental_uris":{"android":"levelo://app?vid=1e72f32e-7740-4660-bb32-05924a878068","ios":"levelo://app?vid=1e72f32e-7740-4660-bb32-05924a878068"},"vehicle_type_id":"4","last_reported":1779222170,"current_range_meters":2800,"station_id":"ce4bhbh2rcd13ifvqeo0","pricing_plan_id":"cebpf4jnsgd1na2vs0mg"},{"bike_id":"7618b6c2-4d0d-4f2d-b90d-acc0cd3282c2","system_id":"levelo_inurba_marseille","lat":43.30885,"lon":5.39651,"is_reserved":false,"is_disabled":false,"rental_uris":{"android":"levelo://app?vid=7618b6c2-4d0d-4f2d-b90d-acc0cd3282c2","ios":"levelo://app?vid=7618b6c2-4d0d-4f2d-b90d-acc0cd3282c2"},"vehicle_type_id":"4","last_reported":1779222170,"current_range_meters":2800,"station_id":"ce4bh012rcd13ifvqcv0","pricing_plan_id":"cebpf4jnsgd1na2vs0mg"},{"bike_id":"7f792168-18c2-4d57-a00b-9a646f8a2ee9","system_id":"levelo_inurba_marseille","lat":43.292,"lon":5.39314,"is_reserved":false,"is_disabled":false,"rental_uris":{"android":"levelo://app?vid=7f792168-18c2-4d57-a00b-9a646f8a2ee9","ios":"levelo://app?vid=7f792168-18c2-4d57-a00b-9a646f8a2ee9"},"vehicle_type_id":"4","last_reported":1779222170,"current_range_meters":2800,"station_id":"ce4bh192rcd13ifvqdd0","pricing_plan_id":"cebpf4jnsgd1na2vs0mg"},{"bike_id":"3624082f-091b-4668-9e12-e6f3281b9450","system_id":"levelo_inurba_marseille","lat":43.24659,"lon":5.3815,"is_reserved":false,"is_disabled":false,"rental_uris":{"android":"levelo://app?vid=3624082f-091b-4668-9e12-e6f3281b9450","ios":"levelo://app?vid=3624082f-091b-4668-9e12-e6f3281b9450"},"vehicle_type_id":"4","last_reported":1779222170,"current_range_meters":2800,"station_id":"ce4bhih2rcd13ifvqfr0","pricing_plan_id":"cebpf4jnsgd1na2vs0mg"},{"bike_id":"6a321ae2-0e7c-4283-8dc8-a4687550fab4","system_id":"levelo_inurba_marseille","lat":43.29166,"lon":5.37155,"is_reserved":false,"is_disabled":false,"rental_uris":{"android":"levelo://app?vid=6a321ae2-0e7c-4283-8dc8-a4687550fab4","ios":"levelo://app?vid=6a321ae2-0e7c-4283-8dc8-a4687550fab4"},"vehicle_type_id":"4","last_reported":1779222170,"current_range_meters":2800,"station_id":"ce4bha92rcd13ifvqeh0","pricing_plan_id":"cebpf4jnsgd1na2vs0mg"},{"bike_id":"a08f186b-3ad1-4091-8ee4-cf8adfc19997","system_id":"levelo_inurba_marseille","lat":43.28668,"lon":5.36337,"is_reserved":false,"is_disabled":false,"rental_uris":{"android":"levelo://app?vid=a08f186b-3ad1-4091-8ee4-cf8adfc19997","ios":"levelo://app?vid=a08f186b-3ad1-4091-8ee4-cf8adfc19997"},"vehicle_type_id":"4","last_reported":1779222170,"current_range_meters":2800,"station_id":"ce4bhah2rcd13ifvqej0","pricing_plan_id":"cebpf4jnsgd1na2vs0mg"},{"bike_id":"c69cc668-d253-4b48-96ea-554d1b5bfdd4","system_id":"levelo_inurba_marseille","lat":43.30419,"lon":5.38869,"is_reserved":false,"is_disabled":false,"rental_uris":{"android":"levelo://app?vid=c69cc668-d253-4b48-96ea-554d1b5bfdd4","ios":"levelo://app?vid=c69cc668-d253-4b48-96ea-554d1b5bfdd4"},"vehicle_type_id":"4","last_reported":1779222170,"current_range_meters":2800,"station_id":"ce4bgk12rcd13ifvqbi0","pricing_plan_id":"cebpf4jnsgd1na2vs0mg"},{"bike_id":"25dcf87f-4bfa-40b2-bdea-5f3e2b6a0879","system_id":"levelo_inurba_marseille","lat":43.25016,"lon":5.38919,"is_reserved":false,"is_disabled":false,"rental_uris":{"android":"levelo://app?vid=25dcf87f-4bfa-40b2-bdea-5f3e2b6a0879","ios":"levelo://app?vid=25dcf87f-4bfa-40b2-bdea-5f3e2b6a0879"},"vehicle_type_id":"4","last_reported":1779222170,"current_range_meters":2800,"station_id":"ce4bhgp2rcd13ifvqfd0","pricing_plan_id":"cebpf4jnsgd1na2vs0mg"},{"bike_id":"e2183c1a-0d60-460b-8cd5-f6e06e4afac3","system_id":"levelo_inurba_marseille","lat":43.23378,"lon":5.4124,"is_reserved":false,"is_disabled":false,"rental_uris":{"android":"levelo://app?vid=e2183c1a-0d60-460b-8cd5-f6e06e4afac3","ios":"levelo://app?vid=e2183c1a-0d60-460b-8cd5-f6e06e4afac3"},"vehicle_type_id":"4","last_reported":1779222170,"current_range_meters":2800,"station_id":"st_d75pvndhf9lc73cqq3eg","pricing_plan_id":"cebpf4jnsgd1na2vs0mg"},{"bike_id":"5a1c8a28-d79f-4b07-a4d8-bce75ba2c426","system_id":"levelo_inurba_marseille","lat":43.25854,"lon":5.3991,"is_reserved":false,"is_disabled":true,"rental_uris":{"android":"levelo://app?vid=5a1c8a28-d79f-4b07-a4d8-bce75ba2c426","ios":"levelo://app?vid=5a1c8a28-d79f-4b07-a4d8-bce75ba2c426"},"vehicle_type_id":"4","last_reported":1779222170,"current_range_meters":3200,"station_id":"ce4bhl92rcd13ifvqghg","pricing_plan_id":"cebpf4jnsgd1na2vs0mg"},{"bike_id":"a6777b27-5702-4a2f-bd66-34fa9bb817ee","system_id":"levelo_inurba_marseille","lat":43.21771,"lon":5.34592,"is_reserved":false,"is_disabled":false,"rental_uris":{"android":"levelo://app?vid=a6777b27-5702-4a2f-bd66-34fa9bb817ee","ios":"levelo://app?vid=a6777b27-5702-4a2f-bd66-34fa9bb817ee"},"vehicle_type_id":"4","last_reported":1779222170,"current_range_meters":3200,"station_id":"st_cvj6r9ubvosntc0bgbag","pricing_plan_id":"cebpf4jnsgd1na2vs0mg"},{"bike_id":"54064f72-d96d-4bfa-acf7-e435112aa044","system_id":"levelo_inurba_marseille","lat":43.25344,"lon":5.42161,"is_reserved":false,"is_disabled":false,"rental_uris":{"android":"levelo://app?vid=54064f72-d96d-4bfa-acf7-e435112aa044","ios":"levelo://app?vid=54064f72-d96d-4bfa-acf7-e435112aa044"},"vehicle_type_id":"4","last_reported":1779222170,"current_range_meters":3200,"station_id":"st_d2m65c5bi1j21697t3ng","pricing_plan_id":"cebpf4jnsgd1na2vs0mg"},{"bike_id":"08b1f029-fee0-4df9-bf47-eb03b1f3a90a","system_id":"levelo_inurba_marseille","lat":43.29503,"lon":5.377881,"is_reserved":false,"is_disabled":false,"rental_uris":{"android":"levelo://app?vid=08b1f029-fee0-4df9-bf47-eb03b1f3a90a","ios":"levelo://app?vid=08b1f029-fee0-4df9-bf47-eb03b1f3a90a"},"vehicle_type_id":"4","last_reported":1779222170,"current_range_meters":3200,"station_id":"ce4bgl12rcd13ifvqbo0","pricing_plan_id":"cebpf4jnsgd1na2vs0mg"},{"bike_id":"a3836e64-4f7b-4c33-96d7-d5f596145e8f","system_id":"levelo_inurba_marseille","lat":43.317586,"lon":5.390142,"is_reserved":false,"is_disabled":false,"rental_uris":{"android":"levelo://app?vid=a3836e64-4f7b-4c33-96d7-d5f596145e8f","ios":"levelo://app?vid=a3836e64-4f7b-4c33-96d7-d5f596145e8f"},"vehicle_type_id":"4","last_reported":1779222170,"current_range_meters":3200,"station_id":"ce4bhqp2rcd13ifvqhng","pricing_plan_id":"cebpf4jnsgd1na2vs0mg"},{"bike_id":"09ea10e2-43a5-428f-afcc-00b3ec7ae464","system_id":"levelo_inurba_marseille","lat":43.309143,"lon":5.372809,"is_reserved":false,"is_disabled":true,"rental_uris":{"android":"levelo://app?vid=09ea10e2-43a5-428f-afcc-00b3ec7ae464","ios":"levelo://app?vid=09ea10e2-43a5-428f-afcc-00b3ec7ae464"},"vehicle_type_id":"4","last_reported":1779222170,"current_range_meters":3200,"station_id":"ce4bguh2rcd13ifvqckg","pricing_plan_id":"cebpf4jnsgd1na2vs0mg"},{"bike_id":"7807c6e6-8d56-4edf-a6e7-d1280082b62b","system_id":"levelo_inurba_marseille","lat":43.29715,"lon":5.36575,"is_reserved":false,"is_disabled":false,"rental_uris":{"android":"levelo://app?vid=7807c6e6-8d56-4edf-a6e7-d1280082b62b","ios":"levelo://app?vid=7807c6e6-8d56-4edf-a6e7-d1280082b62b"},"vehicle_type_id":"4","last_reported":1779222170,"current_range_meters":3200,"station_id":"ce4bgn12rcd13ifvqbt0","pricing_plan_id":"cebpf4jnsgd1na2vs0mg"},{"bike_id":"b15eb14b-6a17-44d3-8667-dac393ddd1b3","system_id":"levelo_inurba_marseille","lat":43.27918,"lon":5.38017,"is_reserved":false,"is_disabled":false,"rental_uris":{"android":"levelo://app?vid=b15eb14b-6a17-44d3-8667-dac393ddd1b3","ios":"levelo://app?vid=b15eb14b-6a17-44d3-8667-dac393ddd1b3"},"vehicle_type_id":"4","last_reported":1779222170,"current_range_meters":3200,"station_id":"ce4bhf92rcd13ifvqf50","pricing_plan_id":"cebpf4jnsgd1na2vs0mg"},{"bike_id":"d3b2d5b0-9489-45a0-a1e7-d09885c13ae5","system_id":"levelo_inurba_marseille","lat":43.30163,"lon":5.38783,"is_reserved":false,"is_disabled":false,"rental_uris":{"android":"levelo://app?vid=d3b2d5b0-9489-45a0-a1e7-d09885c13ae5","ios":"levelo://app?vid=d3b2d5b0-9489-45a0-a1e7-d09885c13ae5"},"vehicle_type_id":"4","last_reported":1779222170,"current_range_meters":3200,"station_id":"ce4bghh2rcd13ifvqb60","pricing_plan_id":"cebpf4jnsgd1na2vs0mg"},{"bike_id":"954819f3-f9d1-41fd-89e4-efcd9204d8ff","system_id":"levelo_inurba_marseille","lat":43.31033,"lon":5.37171,"is_reserved":false,"is_disabled":false,"rental_uris":{"android":"levelo://app?vid=954819f3-f9d1-41fd-89e4-efcd9204d8ff","ios":"levelo://app?vid=954819f3-f9d1-41fd-89e4-efcd9204d8ff"},"vehicle_type_id":"4","last_reported":1779222170,"current_range_meters":3200,"station_id":"st_d4kl2rp97mjs73e7tdfg","pricing_plan_id":"cebpf4jnsgd1na2vs0mg"},{"bike_id":"b3e47a10-789b-4113-b169-face25d448d0","system_id":"levelo_inurba_marseille","lat":43.2871,"lon":5.46664,"is_reserved":false,"is_disabled":false,"rental_uris":{"android":"levelo://app?vid=b3e47a10-789b-4113-b169-face25d448d0","ios":"levelo://app?vid=b3e47a10-789b-4113-b169-face25d448d0"},"vehicle_type_id":"4","last_reported":1779222170,"current_range_meters":3200,"station_id":"st_d6tc3vkotcvc738tfjhg","pricing_plan_id":"cebpf4jnsgd1na2vs0mg"},{"bike_id":"41e629c1-c7d8-465b-8427-bf4636d3d6a8","system_id":"levelo_inurba_marseille","lat":43.295344,"lon":5.392,"is_reserved":false,"is_disabled":false,"rental_uris":{"android":"levelo://app?vid=41e629c1-c7d8-465b-8427-bf4636d3d6a8","ios":"levelo://app?vid=41e629c1-c7d8-465b-8427-bf4636d3d6a8"},"vehicle_type_id":"4","last_reported":1779222170,"current_range_meters":3200,"station_id":"ce4bh3p2rcd13ifvqdp0","pricing_plan_id":"cebpf4jnsgd1na2vs0mg"},{"bike_id":"67298b0d-96b3-4d14-87eb-fc9a2dd8b027","system_id":"levelo_inurba_marseille","lat":43.25123,"lon":5.40309,"is_reserved":false,"is_disabled":true,"rental_uris":{"android":"levelo://app?vid=67298b0d-96b3-4d14-87eb-fc9a2dd8b027","ios":"levelo://app?vid=67298b0d-96b3-4d14-87eb-fc9a2dd8b027"},"vehicle_type_id":"4","last_reported":1779222170,"current_range_meters":3200,"station_id":"ce4bhkp2rcd13ifvqgd0","pricing_plan_id":"cebpf4jnsgd1na2vs0mg"},{"bike_id":"e573ccad-7e51-42db-be9c-d11800e07cad","system_id":"levelo_inurba_marseille","lat":43.2315,"lon":5.43714,"is_reserved":false,"is_disabled":true,"rental_uris":{"android":"levelo://app?vid=e573ccad-7e51-42db-be9c-d11800e07cad","ios":"levelo://app?vid=e573ccad-7e51-42db-be9c-d11800e07cad"},"vehicle_type_id":"4","last_reported":1779222170,"current_range_meters":3200,"station_id":"ce4bhmp2rcd13ifvqgog","pricing_plan_id":"cebpf4jnsgd1na2vs0mg"},{"bike_id":"73e70ff1-5ffc-450e-86a9-03a3bfb425de","system_id":"levelo_inurba_marseille","lat":43.24556,"lon":5.39516,"is_reserved":false,"is_disabled":false,"rental_uris":{"android":"levelo://app?vid=73e70ff1-5ffc-450e-86a9-03a3bfb425de","ios":"levelo://app?vid=73e70ff1-5ffc-450e-86a9-03a3bfb425de"},"vehicle_type_id":"4","last_reported":1779222170,"current_range_meters":3200,"station_id":"ce4bhlp2rcd13ifvqgjg","pricing_plan_id":"cebpf4jnsgd1na2vs0mg"},{"bike_id":"7411be32-d8cb-4974-af25-ec6004deeb71","system_id":"levelo_inurba_marseille","lat":43.30965,"lon":5.40168,"is_reserved":false,"is_disabled":false,"rental_uris":{"android":"levelo://app?vid=7411be32-d8cb-4974-af25-ec6004deeb71","ios":"levelo://app?vid=7411be32-d8cb-4974-af25-ec6004deeb71"},"vehicle_type_id":"4","last_reported":1779222170,"current_range_meters":3600,"station_id":"ce4bgvp2rcd13ifvqct0","pricing_plan_id":"cebpf4jnsgd1na2vs0mg"},{"bike_id":"b6ddb926-c35e-451f-ae57-2d262b732323","system_id":"levelo_inurba_marseille","lat":43.29734,"lon":5.41344,"is_reserved":false,"is_disabled":false,"rental_uris":{"android":"levelo://app?vid=b6ddb926-c35e-451f-ae57-2d262b732323","ios":"levelo://app?vid=b6ddb926-c35e-451f-ae57-2d262b732323"},"vehicle_type_id":"4","last_reported":1779222170,"current_range_meters":3600,"station_id":"","pricing_plan_id":"cebpf4jnsgd1na2vs0mg"},{"bike_id":"1f8259a9-7e55-4812-b53f-6d999496a759","system_id":"levelo_inurba_marseille","lat":43.28714,"lon":5.46686,"is_reserved":false,"is_disabled":false,"rental_uris":{"android":"levelo://app?vid=1f8259a9-7e55-4812-b53f-6d999496a759","ios":"levelo://app?vid=1f8259a9-7e55-4812-b53f-6d999496a759"},"vehicle_type_id":"4","last_reported":1779222170,"current_range_meters":3600,"station_id":"st_d6tc3vkotcvc738tfjhg","pricing_plan_id":"cebpf4jnsgd1na2vs0mg"},{"bike_id":"5eb11d83-2461-40c2-9484-0a35868d2011","system_id":"levelo_inurba_marseille","lat":43.29789,"lon":5.42755,"is_reserved":false,"is_disabled":true,"rental_uris":{"android":"levelo://app?vid=5eb11d83-2461-40c2-9484-0a35868d2011","ios":"levelo://app?vid=5eb11d83-2461-40c2-9484-0a35868d2011"},"vehicle_type_id":"4","last_reported":1779222170,"current_range_meters":3600,"station_id":"st_d3md5207bmas73dh9klg","pricing_plan_id":"cebpf4jnsgd1na2vs0mg"},{"bike_id":"35343ed6-0170-48a9-9f1e-04dd4e950048","system_id":"levelo_inurba_marseille","lat":43.31545,"lon":5.38045,"is_reserved":false,"is_disabled":false,"rental_uris":{"android":"levelo://app?vid=35343ed6-0170-48a9-9f1e-04dd4e950048","ios":"levelo://app?vid=35343ed6-0170-48a9-9f1e-04dd4e950048"},"vehicle_type_id":"4","last_reported":1779222170,"current_range_meters":3600,"station_id":"ce4bhsp2rcd13ifvqi50","pricing_plan_id":"cebpf4jnsgd1na2vs0mg"},{"bike_id":"3d91a0c6-2313-4d07-9e3d-0d954422674f","system_id":"levelo_inurba_marseille","lat":43.24677,"lon":5.38155,"is_reserved":false,"is_disabled":true,"rental_uris":{"android":"levelo://app?vid=3d91a0c6-2313-4d07-9e3d-0d954422674f","ios":"levelo://app?vid=3d91a0c6-2313-4d07-9e3d-0d954422674f"},"vehicle_type_id":"4","last_reported":1779222170,"current_range_meters":3600,"station_id":"ce4bhih2rcd13ifvqfr0","pricing_plan_id":"cebpf4jnsgd1na2vs0mg"},{"bike_id":"fd5a7798-4159-48c4-9954-88ed54cbb393","system_id":"levelo_inurba_marseille","lat":43.29529,"lon":5.38547,"is_reserved":false,"is_disabled":false,"rental_uris":{"android":"levelo://app?vid=fd5a7798-4159-48c4-9954-88ed54cbb393","ios":"levelo://app?vid=fd5a7798-4159-48c4-9954-88ed54cbb393"},"vehicle_type_id":"4","last_reported":1779222170,"current_range_meters":3600,"station_id":"ce4bgih2rcd13ifvqba0","pricing_plan_id":"cebpf4jnsgd1na2vs0mg"},{"bike_id":"c6a186e8-f63e-4c7a-a551-f4fad31ac54c","system_id":"levelo_inurba_marseille","lat":43.29528,"lon":5.39046,"is_reserved":false,"is_disabled":false,"rental_uris":{"android":"levelo://app?vid=c6a186e8-f63e-4c7a-a551-f4fad31ac54c","ios":"levelo://app?vid=c6a186e8-f63e-4c7a-a551-f4fad31ac54c"},"vehicle_type_id":"4","last_reported":1779222170,"current_range_meters":3600,"station_id":"ce4bh3p2rcd13ifvqdp0","pricing_plan_id":"cebpf4jnsgd1na2vs0mg"},{"bike_id":"cd66c22a-ad79-4141-a617-957c45914093","system_id":"levelo_inurba_marseille","lat":43.28076,"lon":5.39657,"is_reserved":false,"is_disabled":false,"rental_uris":{"android":"levelo://app?vid=cd66c22a-ad79-4141-a617-957c45914093","ios":"levelo://app?vid=cd66c22a-ad79-4141-a617-957c45914093"},"vehicle_type_id":"4","last_reported":1779222170,"current_range_meters":3600,"station_id":"ce4bho12rcd13ifvqh2g","pricing_plan_id":"cebpf4jnsgd1na2vs0mg"},{"bike_id":"76822842-6de5-44db-bee3-28d0eed2902b","system_id":"levelo_inurba_marseille","lat":43.22948,"lon":5.35362,"is_reserved":false,"is_disabled":false,"rental_uris":{"android":"levelo://app?vid=76822842-6de5-44db-bee3-28d0eed2902b","ios":"levelo://app?vid=76822842-6de5-44db-bee3-28d0eed2902b"},"vehicle_type_id":"4","last_reported":1779222170,"current_range_meters":3600,"station_id":"cpo3532slgdg3j2ikp40","pricing_plan_id":"cebpf4jnsgd1na2vs0mg"},{"bike_id":"c6cd3645-d37b-46c5-874c-e9e7c654f3e7","system_id":"levelo_inurba_marseille","lat":43.28001,"lon":5.39999,"is_reserved":false,"is_disabled":false,"rental_uris":{"android":"levelo://app?vid=c6cd3645-d37b-46c5-874c-e9e7c654f3e7","ios":"levelo://app?vid=c6cd3645-d37b-46c5-874c-e9e7c654f3e7"},"vehicle_type_id":"4","last_reported":1779222170,"current_range_meters":3600,"station_id":"ce4bho92rcd13ifvqh4g","pricing_plan_id":"cebpf4jnsgd1na2vs0mg"},{"bike_id":"fa6a70f9-ac87-4345-b3f9-c4628f5bb26d","system_id":"levelo_inurba_marseille","lat":43.26546,"lon":5.37305,"is_reserved":false,"is_disabled":false,"rental_uris":{"android":"levelo://app?vid=fa6a70f9-ac87-4345-b3f9-c4628f5bb26d","ios":"levelo://app?vid=fa6a70f9-ac87-4345-b3f9-c4628f5bb26d"},"vehicle_type_id":"4","last_reported":1779222170,"current_range_meters":4000,"station_id":"ce4bhg12rcd13ifvqf70","pricing_plan_id":"cebpf4jnsgd1na2vs0mg"},{"bike_id":"fc8dc413-6dd9-4264-94cd-af4261bcd84b","system_id":"levelo_inurba_marseille","lat":43.26485,"lon":5.39566,"is_reserved":false,"is_disabled":false,"rental_uris":{"android":"levelo://app?vid=fc8dc413-6dd9-4264-94cd-af4261bcd84b","ios":"levelo://app?vid=fc8dc413-6dd9-4264-94cd-af4261bcd84b"},"vehicle_type_id":"4","last_reported":1779222170,"current_range_meters":4000,"station_id":"ce4bhi12rcd13ifvqfq0","pricing_plan_id":"cebpf4jnsgd1na2vs0mg"},{"bike_id":"dc6a3cc4-05a4-4930-8a1c-f14e070005de","system_id":"levelo_inurba_marseille","lat":43.247083,"lon":5.383678,"is_reserved":false,"is_disabled":false,"rental_uris":{"android":"levelo://app?vid=dc6a3cc4-05a4-4930-8a1c-f14e070005de","ios":"levelo://app?vid=dc6a3cc4-05a4-4930-8a1c-f14e070005de"},"vehicle_type_id":"4","last_reported":1779222170,"current_range_meters":4000,"station_id":"ce4bhih2rcd13ifvqfr0","pricing_plan_id":"cebpf4jnsgd1na2vs0mg"},{"bike_id":"cd1dc5b4-310f-4c4a-bc55-2ffbc8ea9bb1","system_id":"levelo_inurba_marseille","lat":43.29071,"lon":5.37155,"is_reserved":false,"is_disabled":true,"rental_uris":{"android":"levelo://app?vid=cd1dc5b4-310f-4c4a-bc55-2ffbc8ea9bb1","ios":"levelo://app?vid=cd1dc5b4-310f-4c4a-bc55-2ffbc8ea9bb1"},"vehicle_type_id":"4","last_reported":1779222170,"current_range_meters":4000,"station_id":"ce4bh5p2rcd13ifvqe4g","pricing_plan_id":"cebpf4jnsgd1na2vs0mg"},{"bike_id":"db1f096f-48d5-4156-af82-1e0266a61e92","system_id":"levelo_inurba_marseille","lat":43.28096,"lon":5.37836,"is_reserved":false,"is_disabled":false,"rental_uris":{"android":"levelo://app?vid=db1f096f-48d5-4156-af82-1e0266a61e92","ios":"levelo://app?vid=db1f096f-48d5-4156-af82-1e0266a61e92"},"vehicle_type_id":"4","last_reported":1779222170,"current_range_meters":4000,"station_id":"ce4bha12rcd13ifvqee0","pricing_plan_id":"cebpf4jnsgd1na2vs0mg"},{"bike_id":"c8bb7c41-7fb7-454b-9233-36b54957c093","system_id":"levelo_inurba_marseille","lat":43.28222,"lon":5.35063,"is_reserved":false,"is_disabled":false,"rental_uris":{"android":"levelo://app?vid=c8bb7c41-7fb7-454b-9233-36b54957c093","ios":"levelo://app?vid=c8bb7c41-7fb7-454b-9233-36b54957c093"},"vehicle_type_id":"4","last_reported":1779222170,"current_range_meters":4000,"station_id":"","pricing_plan_id":"cebpf4jnsgd1na2vs0mg"},{"bike_id":"2c72ac28-dd47-4042-a275-75bcf46959f9","system_id":"levelo_inurba_marseille","lat":43.23973,"lon":5.36614,"is_reserved":false,"is_disabled":false,"rental_uris":{"android":"levelo://app?vid=2c72ac28-dd47-4042-a275-75bcf46959f9","ios":"levelo://app?vid=2c72ac28-dd47-4042-a275-75bcf46959f9"},"vehicle_type_id":"4","last_reported":1779222170,"current_range_meters":4000,"station_id":"ce4bhi12rcd13ifvqfp0","pricing_plan_id":"cebpf4jnsgd1na2vs0mg"},{"bike_id":"cda1ba5b-bdc7-45c0-83eb-354580aa2daf","system_id":"levelo_inurba_marseille","lat":43.2418,"lon":5.397172,"is_reserved":false,"is_disabled":false,"rental_uris":{"android":"levelo://app?vid=cda1ba5b-bdc7-45c0-83eb-354580aa2daf","ios":"levelo://app?vid=cda1ba5b-bdc7-45c0-83eb-354580aa2daf"},"vehicle_type_id":"4","last_reported":1779222170,"current_range_meters":4000,"station_id":"ce4bhn12rcd13ifvqgpg","pricing_plan_id":"cebpf4jnsgd1na2vs0mg"},{"bike_id":"f85eb9e8-4602-409a-b9c3-a9e16a543d87","system_id":"levelo_inurba_marseille","lat":43.29718,"lon":5.36611,"is_reserved":false,"is_disabled":false,"rental_uris":{"android":"levelo://app?vid=f85eb9e8-4602-409a-b9c3-a9e16a543d87","ios":"levelo://app?vid=f85eb9e8-4602-409a-b9c3-a9e16a543d87"},"vehicle_type_id":"4","last_reported":1779222170,"current_range_meters":4000,"station_id":"ce4bgn12rcd13ifvqbt0","pricing_plan_id":"cebpf4jnsgd1na2vs0mg"},{"bike_id":"38896523-db5c-425f-ab2a-9a9bba4ebe66","system_id":"levelo_inurba_marseille","lat":43.25097,"lon":5.39524,"is_reserved":false,"is_disabled":true,"rental_uris":{"android":"levelo://app?vid=38896523-db5c-425f-ab2a-9a9bba4ebe66","ios":"levelo://app?vid=38896523-db5c-425f-ab2a-9a9bba4ebe66"},"vehicle_type_id":"4","last_reported":1779222170,"current_range_meters":4000,"station_id":"ce4bhm12rcd13ifvqgkg","pricing_plan_id":"cebpf4jnsgd1na2vs0mg"},{"bike_id":"3710d828-9aad-4a9d-bc87-53d3eca907ad","system_id":"levelo_inurba_marseille","lat":43.292983,"lon":5.376033,"is_reserved":false,"is_disabled":false,"rental_uris":{"android":"levelo://app?vid=3710d828-9aad-4a9d-bc87-53d3eca907ad","ios":"levelo://app?vid=3710d828-9aad-4a9d-bc87-53d3eca907ad"},"vehicle_type_id":"4","last_reported":1779222170,"current_range_meters":4400,"station_id":"ce4bgi12rcd13ifvqb70","pricing_plan_id":"cebpf4jnsgd1na2vs0mg"},{"bike_id":"2f7d3379-f329-4c51-813c-fe7903369b27","system_id":"levelo_inurba_marseille","lat":43.297057,"lon":5.366073,"is_reserved":false,"is_disabled":false,"rental_uris":{"android":"levelo://app?vid=2f7d3379-f329-4c51-813c-fe7903369b27","ios":"levelo://app?vid=2f7d3379-f329-4c51-813c-fe7903369b27"},"vehicle_type_id":"4","last_reported":1779222170,"current_range_meters":4400,"station_id":"ce4bgn12rcd13ifvqbt0","pricing_plan_id":"cebpf4jnsgd1na2vs0mg"},{"bike_id":"859ff56d-18cc-492b-8658-56eb50f4e061","system_id":"levelo_inurba_marseille","lat":43.23895,"lon":5.37453,"is_reserved":false,"is_disabled":true,"rental_uris":{"android":"levelo://app?vid=859ff56d-18cc-492b-8658-56eb50f4e061","ios":"levelo://app?vid=859ff56d-18cc-492b-8658-56eb50f4e061"},"vehicle_type_id":"4","last_reported":1779222170,"current_range_meters":4400,"station_id":"st_d6sm7csbq4hs73f8fpjg","pricing_plan_id":"cebpf4jnsgd1na2vs0mg"},{"bike_id":"0e0d5418-4a56-4251-8866-025e6b539885","system_id":"levelo_inurba_marseille","lat":43.28862,"lon":5.42516,"is_reserved":false,"is_disabled":false,"rental_uris":{"android":"levelo://app?vid=0e0d5418-4a56-4251-8866-025e6b539885","ios":"levelo://app?vid=0e0d5418-4a56-4251-8866-025e6b539885"},"vehicle_type_id":"4","last_reported":1779222170,"current_range_meters":4400,"station_id":"st_d3b462108ojc7389ooeg","pricing_plan_id":"cebpf4jnsgd1na2vs0mg"},{"bike_id":"9e05d185-92f0-46ca-ade1-636f1e66596c","system_id":"levelo_inurba_marseille","lat":43.2922,"lon":5.39329,"is_reserved":false,"is_disabled":false,"rental_uris":{"android":"levelo://app?vid=9e05d185-92f0-46ca-ade1-636f1e66596c","ios":"levelo://app?vid=9e05d185-92f0-46ca-ade1-636f1e66596c"},"vehicle_type_id":"4","last_reported":1779222170,"current_range_meters":4400,"station_id":"ce4bh192rcd13ifvqdd0","pricing_plan_id":"cebpf4jnsgd1na2vs0mg"},{"bike_id":"8d9285c2-2b4c-4446-93e9-9aa598ed5463","system_id":"levelo_inurba_marseille","lat":43.24166,"lon":5.36395,"is_reserved":false,"is_disabled":false,"rental_uris":{"android":"levelo://app?vid=8d9285c2-2b4c-4446-93e9-9aa598ed5463","ios":"levelo://app?vid=8d9285c2-2b4c-4446-93e9-9aa598ed5463"},"vehicle_type_id":"4","last_reported":1779222170,"current_range_meters":4400,"station_id":"cpo36qri1sfpv3e86is0","pricing_plan_id":"cebpf4jnsgd1na2vs0mg"},{"bike_id":"962ddc8d-f7e2-43dc-ba41-49af1dff1c34","system_id":"levelo_inurba_marseille","lat":43.29289,"lon":5.36836,"is_reserved":false,"is_disabled":false,"rental_uris":{"android":"levelo://app?vid=962ddc8d-f7e2-43dc-ba41-49af1dff1c34","ios":"levelo://app?vid=962ddc8d-f7e2-43dc-ba41-49af1dff1c34"},"vehicle_type_id":"4","last_reported":1779222170,"current_range_meters":4400,"station_id":"ce4bhbp2rcd13ifvqesg","pricing_plan_id":"cebpf4jnsgd1na2vs0mg"},{"bike_id":"a8ae5349-b91c-4463-a100-02257ab425d8","system_id":"levelo_inurba_marseille","lat":43.27208,"lon":5.38565,"is_reserved":false,"is_disabled":false,"rental_uris":{"android":"levelo://app?vid=a8ae5349-b91c-4463-a100-02257ab425d8","ios":"levelo://app?vid=a8ae5349-b91c-4463-a100-02257ab425d8"},"vehicle_type_id":"4","last_reported":1779222170,"current_range_meters":4400,"station_id":"","pricing_plan_id":"cebpf4jnsgd1na2vs0mg"},{"bike_id":"fb615aac-f425-4c63-b598-34d66631c597","system_id":"levelo_inurba_marseille","lat":43.24944,"lon":5.40479,"is_reserved":false,"is_disabled":false,"rental_uris":{"android":"levelo://app?vid=fb615aac-f425-4c63-b598-34d66631c597","ios":"levelo://app?vid=fb615aac-f425-4c63-b598-34d66631c597"},"vehicle_type_id":"4","last_reported":1779222170,"current_range_meters":4800,"station_id":"st_d2ngiaodas8pm72gd1h0","pricing_plan_id":"cebpf4jnsgd1na2vs0mg"},{"bike_id":"ca4f6bf2-59b9-4fb8-9cc3-7ba12b36fa60","system_id":"levelo_inurba_marseille","lat":43.29596,"lon":5.40568,"is_reserved":false,"is_disabled":false,"rental_uris":{"android":"levelo://app?vid=ca4f6bf2-59b9-4fb8-9cc3-7ba12b36fa60","ios":"levelo://app?vid=ca4f6bf2-59b9-4fb8-9cc3-7ba12b36fa60"},"vehicle_type_id":"4","last_reported":1779222170,"current_range_meters":4800,"station_id":"ce4bh0h2rcd13ifvqd60","pricing_plan_id":"cebpf4jnsgd1na2vs0mg"},{"bike_id":"c9513b4e-0f0e-49bc-bbff-f4414a2b16f9","system_id":"levelo_inurba_marseille","lat":43.27496,"lon":5.41628,"is_reserved":false,"is_disabled":false,"rental_uris":{"android":"levelo://app?vid=c9513b4e-0f0e-49bc-bbff-f4414a2b16f9","ios":"levelo://app?vid=c9513b4e-0f0e-49bc-bbff-f4414a2b16f9"},"vehicle_type_id":"4","last_reported":1779222170,"current_range_meters":4800,"station_id":"st_d6im8g6chgec73a5pndg","pricing_plan_id":"cebpf4jnsgd1na2vs0mg"},{"bike_id":"2331a6d4-8d41-4e0f-bed5-5cb9966b12eb","system_id":"levelo_inurba_marseille","lat":43.28612,"lon":5.39871,"is_reserved":false,"is_disabled":false,"rental_uris":{"android":"levelo://app?vid=2331a6d4-8d41-4e0f-bed5-5cb9966b12eb","ios":"levelo://app?vid=2331a6d4-8d41-4e0f-bed5-5cb9966b12eb"},"vehicle_type_id":"4","last_reported":1779222170,"current_range_meters":4800,"station_id":"st_d4a7ka997mjs738ck50g","pricing_plan_id":"cebpf4jnsgd1na2vs0mg"},{"bike_id":"b217fdec-614d-44f6-90ce-43401d4f3ee3","system_id":"levelo_inurba_marseille","lat":43.265442,"lon":5.372866,"is_reserved":false,"is_disabled":false,"rental_uris":{"android":"levelo://app?vid=b217fdec-614d-44f6-90ce-43401d4f3ee3","ios":"levelo://app?vid=b217fdec-614d-44f6-90ce-43401d4f3ee3"},"vehicle_type_id":"4","last_reported":1779222170,"current_range_meters":4800,"station_id":"ce4bhg12rcd13ifvqf70","pricing_plan_id":"cebpf4jnsgd1na2vs0mg"},{"bike_id":"9b2671e3-4cd5-4e88-bec1-86db3fe930a0","system_id":"levelo_inurba_marseille","lat":43.28838,"lon":5.35852,"is_reserved":false,"is_disabled":false,"rental_uris":{"android":"levelo://app?vid=9b2671e3-4cd5-4e88-bec1-86db3fe930a0","ios":"levelo://app?vid=9b2671e3-4cd5-4e88-bec1-86db3fe930a0"},"vehicle_type_id":"4","last_reported":1779222170,"current_range_meters":4800,"station_id":"ce4bhb12rcd13ifvqem0","pricing_plan_id":"cebpf4jnsgd1na2vs0mg"},{"bike_id":"dbe45ce8-7af4-46ce-b95d-11b15ee28e64","system_id":"levelo_inurba_marseille","lat":43.30937,"lon":5.40136,"is_reserved":false,"is_disabled":false,"rental_uris":{"android":"levelo://app?vid=dbe45ce8-7af4-46ce-b95d-11b15ee28e64","ios":"levelo://app?vid=dbe45ce8-7af4-46ce-b95d-11b15ee28e64"},"vehicle_type_id":"4","last_reported":1779222170,"current_range_meters":4800,"station_id":"ce4bgvp2rcd13ifvqct0","pricing_plan_id":"cebpf4jnsgd1na2vs0mg"},{"bike_id":"3def504d-de33-4514-b440-ecafa81cca57","system_id":"levelo_inurba_marseille","lat":43.30655,"lon":5.40079,"is_reserved":false,"is_disabled":false,"rental_uris":{"android":"levelo://app?vid=3def504d-de33-4514-b440-ecafa81cca57","ios":"levelo://app?vid=3def504d-de33-4514-b440-ecafa81cca57"},"vehicle_type_id":"4","last_reported":1779222170,"current_range_meters":4800,"station_id":"ce4bh112rcd13ifvqda0","pricing_plan_id":"cebpf4jnsgd1na2vs0mg"},{"bike_id":"7b93dc55-23e6-430d-ade0-0a7df3150c41","system_id":"levelo_inurba_marseille","lat":43.29986,"lon":5.38488,"is_reserved":false,"is_disabled":false,"rental_uris":{"android":"levelo://app?vid=7b93dc55-23e6-430d-ade0-0a7df3150c41","ios":"levelo://app?vid=7b93dc55-23e6-430d-ade0-0a7df3150c41"},"vehicle_type_id":"4","last_reported":1779222170,"current_range_meters":4800,"station_id":"ce4bgj92rcd13ifvqbd0","pricing_plan_id":"cebpf4jnsgd1na2vs0mg"},{"bike_id":"64ad6566-84f4-4864-b7e3-c0e70b01a873","system_id":"levelo_inurba_marseille","lat":43.31357,"lon":5.38474,"is_reserved":false,"is_disabled":false,"rental_uris":{"android":"levelo://app?vid=64ad6566-84f4-4864-b7e3-c0e70b01a873","ios":"levelo://app?vid=64ad6566-84f4-4864-b7e3-c0e70b01a873"},"vehicle_type_id":"4","last_reported":1779222170,"current_range_meters":4800,"station_id":"ce4bgt92rcd13ifvqcf0","pricing_plan_id":"cebpf4jnsgd1na2vs0mg"},{"bike_id":"c5e604a6-02f0-4d2d-87ec-edc4afaf3945","system_id":"levelo_inurba_marseille","lat":43.285736,"lon":5.395034,"is_reserved":false,"is_disabled":false,"rental_uris":{"android":"levelo://app?vid=c5e604a6-02f0-4d2d-87ec-edc4afaf3945","ios":"levelo://app?vid=c5e604a6-02f0-4d2d-87ec-edc4afaf3945"},"vehicle_type_id":"4","last_reported":1779222170,"current_range_meters":4800,"station_id":"ce4bh292rcd13ifvqdg0","pricing_plan_id":"cebpf4jnsgd1na2vs0mg"},{"bike_id":"bfe7eeb1-dab0-42a4-8185-06fbd275a449","system_id":"levelo_inurba_marseille","lat":43.25574,"lon":5.4208,"is_reserved":false,"is_disabled":false,"rental_uris":{"android":"levelo://app?vid=bfe7eeb1-dab0-42a4-8185-06fbd275a449","ios":"levelo://app?vid=bfe7eeb1-dab0-42a4-8185-06fbd275a449"},"vehicle_type_id":"4","last_reported":1779222170,"current_range_meters":4800,"station_id":"","pricing_plan_id":"cebpf4jnsgd1na2vs0mg"},{"bike_id":"3545a9aa-64db-43c4-885f-d7249df1c53f","system_id":"levelo_inurba_marseille","lat":43.29218,"lon":5.39325,"is_reserved":false,"is_disabled":false,"rental_uris":{"android":"levelo://app?vid=3545a9aa-64db-43c4-885f-d7249df1c53f","ios":"levelo://app?vid=3545a9aa-64db-43c4-885f-d7249df1c53f"},"vehicle_type_id":"4","last_reported":1779222170,"current_range_meters":4800,"station_id":"ce4bh192rcd13ifvqdd0","pricing_plan_id":"cebpf4jnsgd1na2vs0mg"},{"bike_id":"bc12875f-9dcb-4f14-8ec4-c5a179682ba7","system_id":"levelo_inurba_marseille","lat":43.27943,"lon":5.39562,"is_reserved":false,"is_disabled":false,"rental_uris":{"android":"levelo://app?vid=bc12875f-9dcb-4f14-8ec4-c5a179682ba7","ios":"levelo://app?vid=bc12875f-9dcb-4f14-8ec4-c5a179682ba7"},"vehicle_type_id":"4","last_reported":1779222170,"current_range_meters":5600,"station_id":"ce4bhf92rcd13ifvqf40","pricing_plan_id":"cebpf4jnsgd1na2vs0mg"},{"bike_id":"896cc048-96e9-4966-acec-26a71f53cc5b","system_id":"levelo_inurba_marseille","lat":43.30309,"lon":5.36887,"is_reserved":false,"is_disabled":false,"rental_uris":{"android":"levelo://app?vid=896cc048-96e9-4966-acec-26a71f53cc5b","ios":"levelo://app?vid=896cc048-96e9-4966-acec-26a71f53cc5b"},"vehicle_type_id":"4","last_reported":1779222170,"current_range_meters":5600,"station_id":"ce4bgqh2rcd13ifvqc5g","pricing_plan_id":"cebpf4jnsgd1na2vs0mg"},{"bike_id":"9d45a253-1d3a-41f8-95ed-2518452886d5","system_id":"levelo_inurba_marseille","lat":43.25518,"lon":5.37646,"is_reserved":false,"is_disabled":true,"rental_uris":{"android":"levelo://app?vid=9d45a253-1d3a-41f8-95ed-2518452886d5","ios":"levelo://app?vid=9d45a253-1d3a-41f8-95ed-2518452886d5"},"vehicle_type_id":"4","last_reported":1779222170,"current_range_meters":5600,"station_id":"ce4bhh12rcd13ifvqff0","pricing_plan_id":"cebpf4jnsgd1na2vs0mg"},{"bike_id":"300be1e4-4062-4458-88d8-4af498daecd5","system_id":"levelo_inurba_marseille","lat":43.24471,"lon":5.42532,"is_reserved":false,"is_disabled":false,"rental_uris":{"android":"levelo://app?vid=300be1e4-4062-4458-88d8-4af498daecd5","ios":"levelo://app?vid=300be1e4-4062-4458-88d8-4af498daecd5"},"vehicle_type_id":"4","last_reported":1779222170,"current_range_meters":5600,"station_id":"st_d4a3vfp97mjs738cd8kg","pricing_plan_id":"cebpf4jnsgd1na2vs0mg"},{"bike_id":"b2831627-3b1e-437d-9966-063b64acbf7d","system_id":"levelo_inurba_marseille","lat":43.23959,"lon":5.36595,"is_reserved":false,"is_disabled":false,"rental_uris":{"android":"levelo://app?vid=b2831627-3b1e-437d-9966-063b64acbf7d","ios":"levelo://app?vid=b2831627-3b1e-437d-9966-063b64acbf7d"},"vehicle_type_id":"4","last_reported":1779222170,"current_range_meters":5600,"station_id":"ce4bhi12rcd13ifvqfp0","pricing_plan_id":"cebpf4jnsgd1na2vs0mg"},{"bike_id":"33794a08-c5df-45d6-afd4-eac42eacad4b","system_id":"levelo_inurba_marseille","lat":43.29731,"lon":5.36606,"is_reserved":false,"is_disabled":false,"rental_uris":{"android":"levelo://app?vid=33794a08-c5df-45d6-afd4-eac42eacad4b","ios":"levelo://app?vid=33794a08-c5df-45d6-afd4-eac42eacad4b"},"vehicle_type_id":"4","last_reported":1779222170,"current_range_meters":5600,"station_id":"ce4bgn12rcd13ifvqbt0","pricing_plan_id":"cebpf4jnsgd1na2vs0mg"},{"bike_id":"ec17e644-1d7d-402e-b369-f62e304f81d9","system_id":"levelo_inurba_marseille","lat":43.28291,"lon":5.35062,"is_reserved":false,"is_disabled":false,"rental_uris":{"android":"levelo://app?vid=ec17e644-1d7d-402e-b369-f62e304f81d9","ios":"levelo://app?vid=ec17e644-1d7d-402e-b369-f62e304f81d9"},"vehicle_type_id":"4","last_reported":1779222170,"current_range_meters":5600,"station_id":"ce4bhbp2rcd13ifvqerg","pricing_plan_id":"cebpf4jnsgd1na2vs0mg"},{"bike_id":"329f5024-d91d-48e8-9ec3-d02f2eb3b55e","system_id":"levelo_inurba_marseille","lat":43.25499,"lon":5.37647,"is_reserved":false,"is_disabled":false,"rental_uris":{"android":"levelo://app?vid=329f5024-d91d-48e8-9ec3-d02f2eb3b55e","ios":"levelo://app?vid=329f5024-d91d-48e8-9ec3-d02f2eb3b55e"},"vehicle_type_id":"4","last_reported":1779222170,"current_range_meters":5600,"station_id":"ce4bhh12rcd13ifvqff0","pricing_plan_id":"cebpf4jnsgd1na2vs0mg"},{"bike_id":"92a48778-5aae-45c8-9818-f9e9df801c2b","system_id":"levelo_inurba_marseille","lat":43.33174,"lon":5.37668,"is_reserved":false,"is_disabled":false,"rental_uris":{"android":"levelo://app?vid=92a48778-5aae-45c8-9818-f9e9df801c2b","ios":"levelo://app?vid=92a48778-5aae-45c8-9818-f9e9df801c2b"},"vehicle_type_id":"4","last_reported":1779222170,"current_range_meters":5600,"station_id":"st_d46cu089ee8s73dldbu0","pricing_plan_id":"cebpf4jnsgd1na2vs0mg"},{"bike_id":"01a535c2-2aa8-486c-b4e8-7a7aace55e7e","system_id":"levelo_inurba_marseille","lat":43.217424,"lon":5.34602,"is_reserved":false,"is_disabled":true,"rental_uris":{"android":"levelo://app?vid=01a535c2-2aa8-486c-b4e8-7a7aace55e7e","ios":"levelo://app?vid=01a535c2-2aa8-486c-b4e8-7a7aace55e7e"},"vehicle_type_id":"4","last_reported":1779222170,"current_range_meters":5600,"station_id":"st_cvj6r9ubvosntc0bgbag","pricing_plan_id":"cebpf4jnsgd1na2vs0mg"},{"bike_id":"bca37711-a330-4916-a7b2-c4cfc5b6198b","system_id":"levelo_inurba_marseille","lat":43.30549,"lon":5.36542,"is_reserved":false,"is_disabled":false,"rental_uris":{"android":"levelo://app?vid=bca37711-a330-4916-a7b2-c4cfc5b6198b","ios":"levelo://app?vid=bca37711-a330-4916-a7b2-c4cfc5b6198b"},"vehicle_type_id":"4","last_reported":1779222170,"current_range_meters":5600,"station_id":"ce4bgs12rcd13ifvqcag","pricing_plan_id":"cebpf4jnsgd1na2vs0mg"},{"bike_id":"38034984-a9a6-4442-a1e1-41a2c3609882","system_id":"levelo_inurba_marseille","lat":43.237864,"lon":5.4145,"is_reserved":false,"is_disabled":false,"rental_uris":{"android":"levelo://app?vid=38034984-a9a6-4442-a1e1-41a2c3609882","ios":"levelo://app?vid=38034984-a9a6-4442-a1e1-41a2c3609882"},"vehicle_type_id":"4","last_reported":1779222170,"current_range_meters":5600,"station_id":"","pricing_plan_id":"cebpf4jnsgd1na2vs0mg"},{"bike_id":"ebc69129-4738-4d21-a97a-fba0f8ac80e0","system_id":"levelo_inurba_marseille","lat":43.2694,"lon":5.40256,"is_reserved":false,"is_disabled":false,"rental_uris":{"android":"levelo://app?vid=ebc69129-4738-4d21-a97a-fba0f8ac80e0","ios":"levelo://app?vid=ebc69129-4738-4d21-a97a-fba0f8ac80e0"},"vehicle_type_id":"4","last_reported":1779222170,"current_range_meters":5600,"station_id":"cjm6bp8fraef2m0cb0m0","pricing_plan_id":"cebpf4jnsgd1na2vs0mg"},{"bike_id":"1945c429-a6b3-4afe-8b4e-c989148ef8b4","system_id":"levelo_inurba_marseille","lat":43.28642,"lon":5.37801,"is_reserved":false,"is_disabled":false,"rental_uris":{"android":"levelo://app?vid=1945c429-a6b3-4afe-8b4e-c989148ef8b4","ios":"levelo://app?vid=1945c429-a6b3-4afe-8b4e-c989148ef8b4"},"vehicle_type_id":"4","last_reported":1779222170,"current_range_meters":5600,"station_id":"","pricing_plan_id":"cebpf4jnsgd1na2vs0mg"},{"bike_id":"17203e4f-f17d-450a-9934-9fa02aa52670","system_id":"levelo_inurba_marseille","lat":43.33605,"lon":5.41017,"is_reserved":false,"is_disabled":false,"rental_uris":{"android":"levelo://app?vid=17203e4f-f17d-450a-9934-9fa02aa52670","ios":"levelo://app?vid=17203e4f-f17d-450a-9934-9fa02aa52670"},"vehicle_type_id":"4","last_reported":1779222170,"current_range_meters":6000,"station_id":"ce4bhqh2rcd13ifvqhmg","pricing_plan_id":"cebpf4jnsgd1na2vs0mg"},{"bike_id":"604c8d35-0292-4781-b66d-7833a0f007ea","system_id":"levelo_inurba_marseille","lat":43.33551,"lon":5.37456,"is_reserved":false,"is_disabled":false,"rental_uris":{"android":"levelo://app?vid=604c8d35-0292-4781-b66d-7833a0f007ea","ios":"levelo://app?vid=604c8d35-0292-4781-b66d-7833a0f007ea"},"vehicle_type_id":"4","last_reported":1779222170,"current_range_meters":6000,"station_id":"st_d46tts09ee8s73dlu43g","pricing_plan_id":"cebpf4jnsgd1na2vs0mg"},{"bike_id":"4a8fff30-cbc5-491d-8d3e-d22b568d1485","system_id":"levelo_inurba_marseille","lat":43.26441,"lon":5.37412,"is_reserved":false,"is_disabled":false,"rental_uris":{"android":"levelo://app?vid=4a8fff30-cbc5-491d-8d3e-d22b568d1485","ios":"levelo://app?vid=4a8fff30-cbc5-491d-8d3e-d22b568d1485"},"vehicle_type_id":"4","last_reported":1779222170,"current_range_meters":6000,"station_id":"","pricing_plan_id":"cebpf4jnsgd1na2vs0mg"},{"bike_id":"8b089835-e8f9-4aee-ba86-0068499a6102","system_id":"levelo_inurba_marseille","lat":43.29542,"lon":5.39029,"is_reserved":false,"is_disabled":false,"rental_uris":{"android":"levelo://app?vid=8b089835-e8f9-4aee-ba86-0068499a6102","ios":"levelo://app?vid=8b089835-e8f9-4aee-ba86-0068499a6102"},"vehicle_type_id":"4","last_reported":1779222170,"current_range_meters":6000,"station_id":"ce4bh3p2rcd13ifvqdp0","pricing_plan_id":"cebpf4jnsgd1na2vs0mg"},{"bike_id":"a589afee-c55a-43a1-8dc9-b4e20ff4b3a0","system_id":"levelo_inurba_marseille","lat":43.25595,"lon":5.38197,"is_reserved":false,"is_disabled":false,"rental_uris":{"android":"levelo://app?vid=a589afee-c55a-43a1-8dc9-b4e20ff4b3a0","ios":"levelo://app?vid=a589afee-c55a-43a1-8dc9-b4e20ff4b3a0"},"vehicle_type_id":"4","last_reported":1779222170,"current_range_meters":6000,"station_id":"ce4bhih2rcd13ifvqfs0","pricing_plan_id":"cebpf4jnsgd1na2vs0mg"},{"bike_id":"7c260c7d-d9ed-4ca3-9e2d-27bf132a1d6d","system_id":"levelo_inurba_marseille","lat":43.301559,"lon":5.38132,"is_reserved":false,"is_disabled":false,"rental_uris":{"android":"levelo://app?vid=7c260c7d-d9ed-4ca3-9e2d-27bf132a1d6d","ios":"levelo://app?vid=7c260c7d-d9ed-4ca3-9e2d-27bf132a1d6d"},"vehicle_type_id":"4","last_reported":1779222170,"current_range_meters":6000,"station_id":"ce4bgjp2rcd13ifvqbh0","pricing_plan_id":"cebpf4jnsgd1na2vs0mg"},{"bike_id":"fa3ad1a2-dfe9-4b0b-bc12-298ebc9d8bde","system_id":"levelo_inurba_marseille","lat":43.29568,"lon":5.38517,"is_reserved":false,"is_disabled":false,"rental_uris":{"android":"levelo://app?vid=fa3ad1a2-dfe9-4b0b-bc12-298ebc9d8bde","ios":"levelo://app?vid=fa3ad1a2-dfe9-4b0b-bc12-298ebc9d8bde"},"vehicle_type_id":"4","last_reported":1779222170,"current_range_meters":6000,"station_id":"","pricing_plan_id":"cebpf4jnsgd1na2vs0mg"},{"bike_id":"69fb0f2e-8291-4305-b561-741ac11e259e","system_id":"levelo_inurba_marseille","lat":43.276186,"lon":5.361004,"is_reserved":false,"is_disabled":true,"rental_uris":{"android":"levelo://app?vid=69fb0f2e-8291-4305-b561-741ac11e259e","ios":"levelo://app?vid=69fb0f2e-8291-4305-b561-741ac11e259e"},"vehicle_type_id":"4","last_reported":1779222170,"current_range_meters":6000,"station_id":"ce4bgj92rcd13ifvqbe0","pricing_plan_id":"cebpf4jnsgd1na2vs0mg"},{"bike_id":"d1872067-461c-4717-a039-e86b93cad038","system_id":"levelo_inurba_marseille","lat":43.28444,"lon":5.39201,"is_reserved":false,"is_disabled":false,"rental_uris":{"android":"levelo://app?vid=d1872067-461c-4717-a039-e86b93cad038","ios":"levelo://app?vid=d1872067-461c-4717-a039-e86b93cad038"},"vehicle_type_id":"4","last_reported":1779222170,"current_range_meters":6000,"station_id":"ce4bhoh2rcd13ifvqh5g","pricing_plan_id":"cebpf4jnsgd1na2vs0mg"},{"bike_id":"89dcf81e-d685-4eb4-82aa-fe68a85d332a","system_id":"levelo_inurba_marseille","lat":43.32113,"lon":5.36766,"is_reserved":false,"is_disabled":false,"rental_uris":{"android":"levelo://app?vid=89dcf81e-d685-4eb4-82aa-fe68a85d332a","ios":"levelo://app?vid=89dcf81e-d685-4eb4-82aa-fe68a85d332a"},"vehicle_type_id":"4","last_reported":1779222170,"current_range_meters":6000,"station_id":"ce4bhrh2rcd13ifvqhug","pricing_plan_id":"cebpf4jnsgd1na2vs0mg"},{"bike_id":"a57b6d8c-426e-41f2-88fd-ed699a7b5fab","system_id":"levelo_inurba_marseille","lat":43.32111,"lon":5.36791,"is_reserved":false,"is_disabled":false,"rental_uris":{"android":"levelo://app?vid=a57b6d8c-426e-41f2-88fd-ed699a7b5fab","ios":"levelo://app?vid=a57b6d8c-426e-41f2-88fd-ed699a7b5fab"},"vehicle_type_id":"4","last_reported":1779222170,"current_range_meters":6000,"station_id":"ce4bhrh2rcd13ifvqhug","pricing_plan_id":"cebpf4jnsgd1na2vs0mg"},{"bike_id":"a38cb7d5-ac4f-4017-9fb4-cfff9737f93e","system_id":"levelo_inurba_marseille","lat":43.29885,"lon":5.38896,"is_reserved":false,"is_disabled":false,"rental_uris":{"android":"levelo://app?vid=a38cb7d5-ac4f-4017-9fb4-cfff9737f93e","ios":"levelo://app?vid=a38cb7d5-ac4f-4017-9fb4-cfff9737f93e"},"vehicle_type_id":"4","last_reported":1779222170,"current_range_meters":6000,"station_id":"ce4bh392rcd13ifvqdl0","pricing_plan_id":"cebpf4jnsgd1na2vs0mg"},{"bike_id":"418014b9-d267-4e4e-a99e-c2b352fc43ed","system_id":"levelo_inurba_marseille","lat":43.2793,"lon":5.41327,"is_reserved":false,"is_disabled":false,"rental_uris":{"android":"levelo://app?vid=418014b9-d267-4e4e-a99e-c2b352fc43ed","ios":"levelo://app?vid=418014b9-d267-4e4e-a99e-c2b352fc43ed"},"vehicle_type_id":"4","last_reported":1779222170,"current_range_meters":6000,"station_id":"","pricing_plan_id":"cebpf4jnsgd1na2vs0mg"},{"bike_id":"8fc18fbf-64a2-4b6e-bd54-336b8ce35ed5","system_id":"levelo_inurba_marseille","lat":43.290174,"lon":5.381251,"is_reserved":false,"is_disabled":false,"rental_uris":{"android":"levelo://app?vid=8fc18fbf-64a2-4b6e-bd54-336b8ce35ed5","ios":"levelo://app?vid=8fc18fbf-64a2-4b6e-bd54-336b8ce35ed5"},"vehicle_type_id":"4","last_reported":1779222170,"current_range_meters":6000,"station_id":"ce4bh4p2rcd13ifvqe1g","pricing_plan_id":"cebpf4jnsgd1na2vs0mg"},{"bike_id":"ee5fe437-24bf-482c-8cfc-fb6ec77b2c51","system_id":"levelo_inurba_marseille","lat":43.289296,"lon":5.36401,"is_reserved":false,"is_disabled":true,"rental_uris":{"android":"levelo://app?vid=ee5fe437-24bf-482c-8cfc-fb6ec77b2c51","ios":"levelo://app?vid=ee5fe437-24bf-482c-8cfc-fb6ec77b2c51"},"vehicle_type_id":"4","last_reported":1779222170,"current_range_meters":6000,"station_id":"ce4bhap2rcd13ifvqek0","pricing_plan_id":"cebpf4jnsgd1na2vs0mg"},{"bike_id":"be93d86b-1d32-4dab-aebd-70c3baa22be2","system_id":"levelo_inurba_marseille","lat":43.29559,"lon":5.38552,"is_reserved":false,"is_disabled":false,"rental_uris":{"android":"levelo://app?vid=be93d86b-1d32-4dab-aebd-70c3baa22be2","ios":"levelo://app?vid=be93d86b-1d32-4dab-aebd-70c3baa22be2"},"vehicle_type_id":"4","last_reported":1779222170,"current_range_meters":6000,"station_id":"ce4bgih2rcd13ifvqba0","pricing_plan_id":"cebpf4jnsgd1na2vs0mg"},{"bike_id":"3fa4241d-9cd4-4d2a-ae09-71eea79a1fa0","system_id":"levelo_inurba_marseille","lat":43.28452,"lon":5.35887,"is_reserved":false,"is_disabled":false,"rental_uris":{"android":"levelo://app?vid=3fa4241d-9cd4-4d2a-ae09-71eea79a1fa0","ios":"levelo://app?vid=3fa4241d-9cd4-4d2a-ae09-71eea79a1fa0"},"vehicle_type_id":"4","last_reported":1779222170,"current_range_meters":6000,"station_id":"ce4bhah2rcd13ifvqei0","pricing_plan_id":"cebpf4jnsgd1na2vs0mg"},{"bike_id":"25252199-7070-493e-b500-5c11eb0342a8","system_id":"levelo_inurba_marseille","lat":43.23151,"lon":5.43713,"is_reserved":false,"is_disabled":false,"rental_uris":{"android":"levelo://app?vid=25252199-7070-493e-b500-5c11eb0342a8","ios":"levelo://app?vid=25252199-7070-493e-b500-5c11eb0342a8"},"vehicle_type_id":"4","last_reported":1779222170,"current_range_meters":6000,"station_id":"ce4bhmp2rcd13ifvqgog","pricing_plan_id":"cebpf4jnsgd1na2vs0mg"},{"bike_id":"d5507518-cb58-4fc3-a22b-de5ad3c6e51d","system_id":"levelo_inurba_marseille","lat":43.29814,"lon":5.44059,"is_reserved":false,"is_disabled":false,"rental_uris":{"android":"levelo://app?vid=d5507518-cb58-4fc3-a22b-de5ad3c6e51d","ios":"levelo://app?vid=d5507518-cb58-4fc3-a22b-de5ad3c6e51d"},"vehicle_type_id":"4","last_reported":1779222170,"current_range_meters":6000,"station_id":"st_d3jp68qikq2c7381ktn0","pricing_plan_id":"cebpf4jnsgd1na2vs0mg"},{"bike_id":"cfbfdf60-d81e-4d76-86b0-d916d82fdeb8","system_id":"levelo_inurba_marseille","lat":43.21769,"lon":5.346,"is_reserved":false,"is_disabled":false,"rental_uris":{"android":"levelo://app?vid=cfbfdf60-d81e-4d76-86b0-d916d82fdeb8","ios":"levelo://app?vid=cfbfdf60-d81e-4d76-86b0-d916d82fdeb8"},"vehicle_type_id":"4","last_reported":1779222170,"current_range_meters":6000,"station_id":"st_cvj6r9ubvosntc0bgbag","pricing_plan_id":"cebpf4jnsgd1na2vs0mg"},{"bike_id":"bed30e45-52d3-4d59-a462-69ac09ce976c","system_id":"levelo_inurba_marseille","lat":43.28008,"lon":5.40017,"is_reserved":false,"is_disabled":false,"rental_uris":{"android":"levelo://app?vid=bed30e45-52d3-4d59-a462-69ac09ce976c","ios":"levelo://app?vid=bed30e45-52d3-4d59-a462-69ac09ce976c"},"vehicle_type_id":"4","last_reported":1779222170,"current_range_meters":6000,"station_id":"ce4bho92rcd13ifvqh4g","pricing_plan_id":"cebpf4jnsgd1na2vs0mg"},{"bike_id":"16136b1f-1261-4552-8bc0-de56f4287660","system_id":"levelo_inurba_marseille","lat":43.28449,"lon":5.39194,"is_reserved":false,"is_disabled":false,"rental_uris":{"android":"levelo://app?vid=16136b1f-1261-4552-8bc0-de56f4287660","ios":"levelo://app?vid=16136b1f-1261-4552-8bc0-de56f4287660"},"vehicle_type_id":"4","last_reported":1779222170,"current_range_meters":6000,"station_id":"ce4bhoh2rcd13ifvqh5g","pricing_plan_id":"cebpf4jnsgd1na2vs0mg"},{"bike_id":"d70f8af7-36a4-4ba4-9c62-f6f39d1bdcab","system_id":"levelo_inurba_marseille","lat":43.27812,"lon":5.40699,"is_reserved":false,"is_disabled":false,"rental_uris":{"android":"levelo://app?vid=d70f8af7-36a4-4ba4-9c62-f6f39d1bdcab","ios":"levelo://app?vid=d70f8af7-36a4-4ba4-9c62-f6f39d1bdcab"},"vehicle_type_id":"4","last_reported":1779222170,"current_range_meters":6000,"station_id":"ce4bhnh2rcd13ifvqgtg","pricing_plan_id":"cebpf4jnsgd1na2vs0mg"},{"bike_id":"8b5fe887-0d07-4a23-9fbd-a7025800ec01","system_id":"levelo_inurba_marseille","lat":43.273725,"lon":5.36265,"is_reserved":false,"is_disabled":true,"rental_uris":{"android":"levelo://app?vid=8b5fe887-0d07-4a23-9fbd-a7025800ec01","ios":"levelo://app?vid=8b5fe887-0d07-4a23-9fbd-a7025800ec01"},"vehicle_type_id":"4","last_reported":1779222170,"current_range_meters":6000,"station_id":"ce4bhbh2rcd13ifvqeo0","pricing_plan_id":"cebpf4jnsgd1na2vs0mg"},{"bike_id":"8f4befa1-b1bd-48b9-88e1-78cf74c9d7fa","system_id":"levelo_inurba_marseille","lat":43.27445,"lon":5.38284,"is_reserved":false,"is_disabled":false,"rental_uris":{"android":"levelo://app?vid=8f4befa1-b1bd-48b9-88e1-78cf74c9d7fa","ios":"levelo://app?vid=8f4befa1-b1bd-48b9-88e1-78cf74c9d7fa"},"vehicle_type_id":"4","last_reported":1779222170,"current_range_meters":6000,"station_id":"","pricing_plan_id":"cebpf4jnsgd1na2vs0mg"},{"bike_id":"836a39fe-84c6-4c08-8b7b-c701c4452eab","system_id":"levelo_inurba_marseille","lat":43.22537,"lon":5.34825,"is_reserved":false,"is_disabled":false,"rental_uris":{"android":"levelo://app?vid=836a39fe-84c6-4c08-8b7b-c701c4452eab","ios":"levelo://app?vid=836a39fe-84c6-4c08-8b7b-c701c4452eab"},"vehicle_type_id":"4","last_reported":1779222170,"current_range_meters":6000,"station_id":"st_cvj5dfep6f1abm77gieg","pricing_plan_id":"cebpf4jnsgd1na2vs0mg"},{"bike_id":"e961b1bd-248f-4be3-ad13-a8bc465c0051","system_id":"levelo_inurba_marseille","lat":43.28619,"lon":5.35098,"is_reserved":false,"is_disabled":false,"rental_uris":{"android":"levelo://app?vid=e961b1bd-248f-4be3-ad13-a8bc465c0051","ios":"levelo://app?vid=e961b1bd-248f-4be3-ad13-a8bc465c0051"},"vehicle_type_id":"4","last_reported":1779222170,"current_range_meters":6400,"station_id":"ce4bhch2rcd13ifvqeug","pricing_plan_id":"cebpf4jnsgd1na2vs0mg"},{"bike_id":"88e061d4-200e-450e-b7c2-b8c848567f43","system_id":"levelo_inurba_marseille","lat":43.24834,"lon":5.37443,"is_reserved":false,"is_disabled":false,"rental_uris":{"android":"levelo://app?vid=88e061d4-200e-450e-b7c2-b8c848567f43","ios":"levelo://app?vid=88e061d4-200e-450e-b7c2-b8c848567f43"},"vehicle_type_id":"4","last_reported":1779222170,"current_range_meters":6400,"station_id":"ce4bhgh2rcd13ifvqfb0","pricing_plan_id":"cebpf4jnsgd1na2vs0mg"},{"bike_id":"c1a86519-e68d-486b-bf7a-fcdd7d23e6e0","system_id":"levelo_inurba_marseille","lat":43.26063,"lon":5.39395,"is_reserved":false,"is_disabled":false,"rental_uris":{"android":"levelo://app?vid=c1a86519-e68d-486b-bf7a-fcdd7d23e6e0","ios":"levelo://app?vid=c1a86519-e68d-486b-bf7a-fcdd7d23e6e0"},"vehicle_type_id":"4","last_reported":1779222170,"current_range_meters":6400,"station_id":"ce4bhh92rcd13ifvqfj0","pricing_plan_id":"cebpf4jnsgd1na2vs0mg"},{"bike_id":"0fc8a8de-84b0-49eb-adab-8aa38f828302","system_id":"levelo_inurba_marseille","lat":43.33051,"lon":5.39027,"is_reserved":false,"is_disabled":false,"rental_uris":{"android":"levelo://app?vid=0fc8a8de-84b0-49eb-adab-8aa38f828302","ios":"levelo://app?vid=0fc8a8de-84b0-49eb-adab-8aa38f828302"},"vehicle_type_id":"4","last_reported":1779222170,"current_range_meters":6400,"station_id":"ce4bhr92rcd13ifvqhrg","pricing_plan_id":"cebpf4jnsgd1na2vs0mg"},{"bike_id":"33f1022a-86ed-42b2-a2fa-b6b00d8323f5","system_id":"levelo_inurba_marseille","lat":43.31123,"lon":5.37781,"is_reserved":false,"is_disabled":false,"rental_uris":{"android":"levelo://app?vid=33f1022a-86ed-42b2-a2fa-b6b00d8323f5","ios":"levelo://app?vid=33f1022a-86ed-42b2-a2fa-b6b00d8323f5"},"vehicle_type_id":"4","last_reported":1779222170,"current_range_meters":6400,"station_id":"ce4bgt92rcd13ifvqcg0","pricing_plan_id":"cebpf4jnsgd1na2vs0mg"},{"bike_id":"355ecd15-f99b-4bfe-bf00-8fde28ffd9d2","system_id":"levelo_inurba_marseille","lat":43.27979,"lon":5.4166,"is_reserved":false,"is_disabled":false,"rental_uris":{"android":"levelo://app?vid=355ecd15-f99b-4bfe-bf00-8fde28ffd9d2","ios":"levelo://app?vid=355ecd15-f99b-4bfe-bf00-8fde28ffd9d2"},"vehicle_type_id":"4","last_reported":1779222170,"current_range_meters":6400,"station_id":"ce4bho12rcd13ifvqh1g","pricing_plan_id":"cebpf4jnsgd1na2vs0mg"},{"bike_id":"0ab54c51-2cd5-429e-99a7-d9b354415bcb","system_id":"levelo_inurba_marseille","lat":43.31182,"lon":5.37883,"is_reserved":false,"is_disabled":false,"rental_uris":{"android":"levelo://app?vid=0ab54c51-2cd5-429e-99a7-d9b354415bcb","ios":"levelo://app?vid=0ab54c51-2cd5-429e-99a7-d9b354415bcb"},"vehicle_type_id":"4","last_reported":1779222170,"current_range_meters":6400,"station_id":"","pricing_plan_id":"cebpf4jnsgd1na2vs0mg"},{"bike_id":"2eacf160-3587-40ee-af18-727db42bdd3c","system_id":"levelo_inurba_marseille","lat":43.28711,"lon":5.37376,"is_reserved":false,"is_disabled":false,"rental_uris":{"android":"levelo://app?vid=2eacf160-3587-40ee-af18-727db42bdd3c","ios":"levelo://app?vid=2eacf160-3587-40ee-af18-727db42bdd3c"},"vehicle_type_id":"4","last_reported":1779222170,"current_range_meters":6400,"station_id":"ce4bh3p2rcd13ifvqdq0","pricing_plan_id":"cebpf4jnsgd1na2vs0mg"},{"bike_id":"b928719c-6881-4671-b1eb-7ff82a3a0e75","system_id":"levelo_inurba_marseille","lat":43.29716,"lon":5.3767,"is_reserved":false,"is_disabled":false,"rental_uris":{"android":"levelo://app?vid=b928719c-6881-4671-b1eb-7ff82a3a0e75","ios":"levelo://app?vid=b928719c-6881-4671-b1eb-7ff82a3a0e75"},"vehicle_type_id":"4","last_reported":1779222170,"current_range_meters":6400,"station_id":"ce4bgkh2rcd13ifvqbl0","pricing_plan_id":"cebpf4jnsgd1na2vs0mg"},{"bike_id":"5b9c7a4f-0589-46e7-bcb8-d92a7849ff92","system_id":"levelo_inurba_marseille","lat":43.29614,"lon":5.37501,"is_reserved":false,"is_disabled":false,"rental_uris":{"android":"levelo://app?vid=5b9c7a4f-0589-46e7-bcb8-d92a7849ff92","ios":"levelo://app?vid=5b9c7a4f-0589-46e7-bcb8-d92a7849ff92"},"vehicle_type_id":"4","last_reported":1779222170,"current_range_meters":6400,"station_id":"ce4bgh92rcd13ifvqb50","pricing_plan_id":"cebpf4jnsgd1na2vs0mg"},{"bike_id":"01330d36-0863-4660-98a2-b9b7fbccf6b4","system_id":"levelo_inurba_marseille","lat":43.28574,"lon":5.39478,"is_reserved":false,"is_disabled":false,"rental_uris":{"android":"levelo://app?vid=01330d36-0863-4660-98a2-b9b7fbccf6b4","ios":"levelo://app?vid=01330d36-0863-4660-98a2-b9b7fbccf6b4"},"vehicle_type_id":"4","last_reported":1779222170,"current_range_meters":6400,"station_id":"ce4bh292rcd13ifvqdg0","pricing_plan_id":"cebpf4jnsgd1na2vs0mg"},{"bike_id":"641625a9-15d1-4318-92bd-6c7525fc2c00","system_id":"levelo_inurba_marseille","lat":43.30942,"lon":5.40141,"is_reserved":false,"is_disabled":false,"rental_uris":{"android":"levelo://app?vid=641625a9-15d1-4318-92bd-6c7525fc2c00","ios":"levelo://app?vid=641625a9-15d1-4318-92bd-6c7525fc2c00"},"vehicle_type_id":"4","last_reported":1779222170,"current_range_meters":6400,"station_id":"ce4bgvp2rcd13ifvqct0","pricing_plan_id":"cebpf4jnsgd1na2vs0mg"},{"bike_id":"d18fd8b8-7a40-4078-9a1d-6a41c9dd13ed","system_id":"levelo_inurba_marseille","lat":43.25347,"lon":5.42162,"is_reserved":false,"is_disabled":false,"rental_uris":{"android":"levelo://app?vid=d18fd8b8-7a40-4078-9a1d-6a41c9dd13ed","ios":"levelo://app?vid=d18fd8b8-7a40-4078-9a1d-6a41c9dd13ed"},"vehicle_type_id":"4","last_reported":1779222170,"current_range_meters":6400,"station_id":"st_d2m65c5bi1j21697t3ng","pricing_plan_id":"cebpf4jnsgd1na2vs0mg"},{"bike_id":"4e35aaea-9776-43de-aaa3-a21f659e41b5","system_id":"levelo_inurba_marseille","lat":43.28374,"lon":5.38649,"is_reserved":false,"is_disabled":false,"rental_uris":{"android":"levelo://app?vid=4e35aaea-9776-43de-aaa3-a21f659e41b5","ios":"levelo://app?vid=4e35aaea-9776-43de-aaa3-a21f659e41b5"},"vehicle_type_id":"4","last_reported":1779222170,"current_range_meters":6400,"station_id":"ce4bh492rcd13ifvqdvg","pricing_plan_id":"cebpf4jnsgd1na2vs0mg"},{"bike_id":"408701cc-3f2d-4c32-b20d-587f50ccde82","system_id":"levelo_inurba_marseille","lat":43.305578,"lon":5.367156,"is_reserved":false,"is_disabled":false,"rental_uris":{"android":"levelo://app?vid=408701cc-3f2d-4c32-b20d-587f50ccde82","ios":"levelo://app?vid=408701cc-3f2d-4c32-b20d-587f50ccde82"},"vehicle_type_id":"4","last_reported":1779222170,"current_range_meters":6400,"station_id":"","pricing_plan_id":"cebpf4jnsgd1na2vs0mg"},{"bike_id":"f7051032-1110-4e43-9500-8874f9e4a0a1","system_id":"levelo_inurba_marseille","lat":43.283516,"lon":5.38114,"is_reserved":false,"is_disabled":false,"rental_uris":{"android":"levelo://app?vid=f7051032-1110-4e43-9500-8874f9e4a0a1","ios":"levelo://app?vid=f7051032-1110-4e43-9500-8874f9e4a0a1"},"vehicle_type_id":"4","last_reported":1779222170,"current_range_meters":6400,"station_id":"ce4bh412rcd13ifvqdr0","pricing_plan_id":"cebpf4jnsgd1na2vs0mg"},{"bike_id":"36cdc993-b8ba-47a2-a619-a1f39172f477","system_id":"levelo_inurba_marseille","lat":43.30333,"lon":5.40437,"is_reserved":false,"is_disabled":true,"rental_uris":{"android":"levelo://app?vid=36cdc993-b8ba-47a2-a619-a1f39172f477","ios":"levelo://app?vid=36cdc993-b8ba-47a2-a619-a1f39172f477"},"vehicle_type_id":"4","last_reported":1779222170,"current_range_meters":6400,"station_id":"ce4bh012rcd13ifvqd10","pricing_plan_id":"cebpf4jnsgd1na2vs0mg"},{"bike_id":"acf3ecf8-75b4-412c-8c92-c1c3f1c1dbe8","system_id":"levelo_inurba_marseille","lat":43.29559,"lon":5.39962,"is_reserved":false,"is_disabled":false,"rental_uris":{"android":"levelo://app?vid=acf3ecf8-75b4-412c-8c92-c1c3f1c1dbe8","ios":"levelo://app?vid=acf3ecf8-75b4-412c-8c92-c1c3f1c1dbe8"},"vehicle_type_id":"4","last_reported":1779222170,"current_range_meters":6400,"station_id":"ce4bh312rcd13ifvqdj0","pricing_plan_id":"cebpf4jnsgd1na2vs0mg"},{"bike_id":"e8703d1e-38d7-4a37-8b34-74e110535cc7","system_id":"levelo_inurba_marseille","lat":43.25072,"lon":5.39463,"is_reserved":false,"is_disabled":false,"rental_uris":{"android":"levelo://app?vid=e8703d1e-38d7-4a37-8b34-74e110535cc7","ios":"levelo://app?vid=e8703d1e-38d7-4a37-8b34-74e110535cc7"},"vehicle_type_id":"4","last_reported":1779222170,"current_range_meters":6800,"station_id":"","pricing_plan_id":"cebpf4jnsgd1na2vs0mg"},{"bike_id":"342cc1b3-f89e-4947-a5fe-91fbe283d8b0","system_id":"levelo_inurba_marseille","lat":43.30626,"lon":5.39317,"is_reserved":false,"is_disabled":false,"rental_uris":{"android":"levelo://app?vid=342cc1b3-f89e-4947-a5fe-91fbe283d8b0","ios":"levelo://app?vid=342cc1b3-f89e-4947-a5fe-91fbe283d8b0"},"vehicle_type_id":"4","last_reported":1779222170,"current_range_meters":6800,"station_id":"","pricing_plan_id":"cebpf4jnsgd1na2vs0mg"},{"bike_id":"21d4726e-c80e-46a7-940b-e88181da5cb0","system_id":"levelo_inurba_marseille","lat":43.255,"lon":5.37653,"is_reserved":false,"is_disabled":false,"rental_uris":{"android":"levelo://app?vid=21d4726e-c80e-46a7-940b-e88181da5cb0","ios":"levelo://app?vid=21d4726e-c80e-46a7-940b-e88181da5cb0"},"vehicle_type_id":"4","last_reported":1779222170,"current_range_meters":6800,"station_id":"ce4bhh12rcd13ifvqff0","pricing_plan_id":"cebpf4jnsgd1na2vs0mg"},{"bike_id":"c46a8f8e-5bde-4459-b72a-15f7581d746a","system_id":"levelo_inurba_marseille","lat":43.27371,"lon":5.36244,"is_reserved":false,"is_disabled":false,"rental_uris":{"android":"levelo://app?vid=c46a8f8e-5bde-4459-b72a-15f7581d746a","ios":"levelo://app?vid=c46a8f8e-5bde-4459-b72a-15f7581d746a"},"vehicle_type_id":"4","last_reported":1779222170,"current_range_meters":6800,"station_id":"ce4bhbh2rcd13ifvqeo0","pricing_plan_id":"cebpf4jnsgd1na2vs0mg"},{"bike_id":"d4c12456-e550-46e7-8200-56ca55a63bbb","system_id":"levelo_inurba_marseille","lat":43.30551,"lon":5.36557,"is_reserved":false,"is_disabled":false,"rental_uris":{"android":"levelo://app?vid=d4c12456-e550-46e7-8200-56ca55a63bbb","ios":"levelo://app?vid=d4c12456-e550-46e7-8200-56ca55a63bbb"},"vehicle_type_id":"4","last_reported":1779222170,"current_range_meters":6800,"station_id":"ce4bgs12rcd13ifvqcag","pricing_plan_id":"cebpf4jnsgd1na2vs0mg"},{"bike_id":"8aa4042b-067b-4783-a174-79e2496089f3","system_id":"levelo_inurba_marseille","lat":43.28615,"lon":5.35092,"is_reserved":false,"is_disabled":false,"rental_uris":{"android":"levelo://app?vid=8aa4042b-067b-4783-a174-79e2496089f3","ios":"levelo://app?vid=8aa4042b-067b-4783-a174-79e2496089f3"},"vehicle_type_id":"4","last_reported":1779222170,"current_range_meters":6800,"station_id":"ce4bhch2rcd13ifvqeug","pricing_plan_id":"cebpf4jnsgd1na2vs0mg"},{"bike_id":"11e513a4-955a-4b20-bced-fd3548036d72","system_id":"levelo_inurba_marseille","lat":43.28954,"lon":5.36402,"is_reserved":false,"is_disabled":false,"rental_uris":{"android":"levelo://app?vid=11e513a4-955a-4b20-bced-fd3548036d72","ios":"levelo://app?vid=11e513a4-955a-4b20-bced-fd3548036d72"},"vehicle_type_id":"4","last_reported":1779222170,"current_range_meters":6800,"station_id":"ce4bhc92rcd13ifvqetg","pricing_plan_id":"cebpf4jnsgd1na2vs0mg"},{"bike_id":"51dd4bf5-1713-4336-8e5a-c0bbefdadd5c","system_id":"levelo_inurba_marseille","lat":43.31053,"lon":5.37184,"is_reserved":false,"is_disabled":false,"rental_uris":{"android":"levelo://app?vid=51dd4bf5-1713-4336-8e5a-c0bbefdadd5c","ios":"levelo://app?vid=51dd4bf5-1713-4336-8e5a-c0bbefdadd5c"},"vehicle_type_id":"4","last_reported":1779222170,"current_range_meters":6800,"station_id":"st_d4kl2rp97mjs73e7tdfg","pricing_plan_id":"cebpf4jnsgd1na2vs0mg"},{"bike_id":"a8c1c2d5-b2c0-4d38-925b-e17fb3c6114c","system_id":"levelo_inurba_marseille","lat":43.29545,"lon":5.38557,"is_reserved":false,"is_disabled":false,"rental_uris":{"android":"levelo://app?vid=a8c1c2d5-b2c0-4d38-925b-e17fb3c6114c","ios":"levelo://app?vid=a8c1c2d5-b2c0-4d38-925b-e17fb3c6114c"},"vehicle_type_id":"4","last_reported":1779222170,"current_range_meters":6800,"station_id":"ce4bgih2rcd13ifvqba0","pricing_plan_id":"cebpf4jnsgd1na2vs0mg"},{"bike_id":"db8a4dd4-5383-4c0f-a06a-3d7a00c725c2","system_id":"levelo_inurba_marseille","lat":43.24949,"lon":5.4048,"is_reserved":false,"is_disabled":false,"rental_uris":{"android":"levelo://app?vid=db8a4dd4-5383-4c0f-a06a-3d7a00c725c2","ios":"levelo://app?vid=db8a4dd4-5383-4c0f-a06a-3d7a00c725c2"},"vehicle_type_id":"4","last_reported":1779222170,"current_range_meters":6800,"station_id":"st_d2ngiaodas8pm72gd1h0","pricing_plan_id":"cebpf4jnsgd1na2vs0mg"},{"bike_id":"c405fdb9-5427-4c67-bbf2-09449870971f","system_id":"levelo_inurba_marseille","lat":43.28475,"lon":5.38395,"is_reserved":false,"is_disabled":false,"rental_uris":{"android":"levelo://app?vid=c405fdb9-5427-4c67-bbf2-09449870971f","ios":"levelo://app?vid=c405fdb9-5427-4c67-bbf2-09449870971f"},"vehicle_type_id":"4","last_reported":1779222170,"current_range_meters":6800,"station_id":"ce4bh512rcd13ifvqe3g","pricing_plan_id":"cebpf4jnsgd1na2vs0mg"},{"bike_id":"cf7373d3-c364-48da-9656-3acb8ea466d7","system_id":"levelo_inurba_marseille","lat":43.28437,"lon":5.34977,"is_reserved":false,"is_disabled":false,"rental_uris":{"android":"levelo://app?vid=cf7373d3-c364-48da-9656-3acb8ea466d7","ios":"levelo://app?vid=cf7373d3-c364-48da-9656-3acb8ea466d7"},"vehicle_type_id":"4","last_reported":1779222170,"current_range_meters":6800,"station_id":"ce4bhbh2rcd13ifvqepg","pricing_plan_id":"cebpf4jnsgd1na2vs0mg"},{"bike_id":"9b9605df-a3c8-42d6-ac00-c5f48bd6b477","system_id":"levelo_inurba_marseille","lat":43.28448,"lon":5.35891,"is_reserved":false,"is_disabled":false,"rental_uris":{"android":"levelo://app?vid=9b9605df-a3c8-42d6-ac00-c5f48bd6b477","ios":"levelo://app?vid=9b9605df-a3c8-42d6-ac00-c5f48bd6b477"},"vehicle_type_id":"4","last_reported":1779222170,"current_range_meters":6800,"station_id":"ce4bhah2rcd13ifvqei0","pricing_plan_id":"cebpf4jnsgd1na2vs0mg"},{"bike_id":"985bcaba-3eb4-43ec-840f-0660941c4a09","system_id":"levelo_inurba_marseille","lat":43.28927,"lon":5.38388,"is_reserved":false,"is_disabled":false,"rental_uris":{"android":"levelo://app?vid=985bcaba-3eb4-43ec-840f-0660941c4a09","ios":"levelo://app?vid=985bcaba-3eb4-43ec-840f-0660941c4a09"},"vehicle_type_id":"4","last_reported":1779222170,"current_range_meters":6800,"station_id":"ce4bh612rcd13ifvqe6g","pricing_plan_id":"cebpf4jnsgd1na2vs0mg"},{"bike_id":"40cdbae6-714d-4f35-95a9-676040c67aef","system_id":"levelo_inurba_marseille","lat":43.24011,"lon":5.41297,"is_reserved":false,"is_disabled":false,"rental_uris":{"android":"levelo://app?vid=40cdbae6-714d-4f35-95a9-676040c67aef","ios":"levelo://app?vid=40cdbae6-714d-4f35-95a9-676040c67aef"},"vehicle_type_id":"4","last_reported":1779222170,"current_range_meters":6800,"station_id":"","pricing_plan_id":"cebpf4jnsgd1na2vs0mg"},{"bike_id":"fa4f1eab-a365-4fde-acb7-5d259dae308a","system_id":"levelo_inurba_marseille","lat":43.3064,"lon":5.40072,"is_reserved":false,"is_disabled":false,"rental_uris":{"android":"levelo://app?vid=fa4f1eab-a365-4fde-acb7-5d259dae308a","ios":"levelo://app?vid=fa4f1eab-a365-4fde-acb7-5d259dae308a"},"vehicle_type_id":"4","last_reported":1779222170,"current_range_meters":6800,"station_id":"ce4bh112rcd13ifvqda0","pricing_plan_id":"cebpf4jnsgd1na2vs0mg"},{"bike_id":"8b1748ef-90a3-4849-a9a0-b0bea9f759c9","system_id":"levelo_inurba_marseille","lat":43.26574,"lon":5.37322,"is_reserved":false,"is_disabled":false,"rental_uris":{"android":"levelo://app?vid=8b1748ef-90a3-4849-a9a0-b0bea9f759c9","ios":"levelo://app?vid=8b1748ef-90a3-4849-a9a0-b0bea9f759c9"},"vehicle_type_id":"4","last_reported":1779222170,"current_range_meters":6800,"station_id":"ce4bhg12rcd13ifvqf70","pricing_plan_id":"cebpf4jnsgd1na2vs0mg"},{"bike_id":"8999dbc3-c664-43d4-845c-5fe63828eabe","system_id":"levelo_inurba_marseille","lat":43.29041,"lon":5.38651,"is_reserved":false,"is_disabled":false,"rental_uris":{"android":"levelo://app?vid=8999dbc3-c664-43d4-845c-5fe63828eabe","ios":"levelo://app?vid=8999dbc3-c664-43d4-845c-5fe63828eabe"},"vehicle_type_id":"4","last_reported":1779222170,"current_range_meters":6800,"station_id":"ce4bh4p2rcd13ifvqe0g","pricing_plan_id":"cebpf4jnsgd1na2vs0mg"},{"bike_id":"7e3b5d32-269a-4b83-91d0-e109b5932b92","system_id":"levelo_inurba_marseille","lat":43.28932,"lon":5.36623,"is_reserved":false,"is_disabled":false,"rental_uris":{"android":"levelo://app?vid=7e3b5d32-269a-4b83-91d0-e109b5932b92","ios":"levelo://app?vid=7e3b5d32-269a-4b83-91d0-e109b5932b92"},"vehicle_type_id":"4","last_reported":1779222170,"current_range_meters":6800,"station_id":"ce4bhap2rcd13ifvqek0","pricing_plan_id":"cebpf4jnsgd1na2vs0mg"},{"bike_id":"135c7add-6606-4442-b287-76ca2dc1a53f","system_id":"levelo_inurba_marseille","lat":43.31118,"lon":5.37772,"is_reserved":false,"is_disabled":false,"rental_uris":{"android":"levelo://app?vid=135c7add-6606-4442-b287-76ca2dc1a53f","ios":"levelo://app?vid=135c7add-6606-4442-b287-76ca2dc1a53f"},"vehicle_type_id":"4","last_reported":1779222170,"current_range_meters":6800,"station_id":"ce4bgt92rcd13ifvqcg0","pricing_plan_id":"cebpf4jnsgd1na2vs0mg"},{"bike_id":"43cdbea8-df76-40e1-9a76-0694e77cf450","system_id":"levelo_inurba_marseille","lat":43.26217,"lon":5.37915,"is_reserved":false,"is_disabled":false,"rental_uris":{"android":"levelo://app?vid=43cdbea8-df76-40e1-9a76-0694e77cf450","ios":"levelo://app?vid=43cdbea8-df76-40e1-9a76-0694e77cf450"},"vehicle_type_id":"4","last_reported":1779222170,"current_range_meters":7200,"station_id":"ce4bhjp2rcd13ifvqg90","pricing_plan_id":"cebpf4jnsgd1na2vs0mg"},{"bike_id":"c4c56dca-3c1e-48c7-b5bd-d8adea2c4f5c","system_id":"levelo_inurba_marseille","lat":43.27048,"lon":5.42261,"is_reserved":false,"is_disabled":false,"rental_uris":{"android":"levelo://app?vid=c4c56dca-3c1e-48c7-b5bd-d8adea2c4f5c","ios":"levelo://app?vid=c4c56dca-3c1e-48c7-b5bd-d8adea2c4f5c"},"vehicle_type_id":"4","last_reported":1779222170,"current_range_meters":7200,"station_id":"ce4bhk92rcd13ifvqgb0","pricing_plan_id":"cebpf4jnsgd1na2vs0mg"},{"bike_id":"2353a033-3462-43c8-81b1-956634fa665d","system_id":"levelo_inurba_marseille","lat":43.29049,"lon":5.38633,"is_reserved":false,"is_disabled":false,"rental_uris":{"android":"levelo://app?vid=2353a033-3462-43c8-81b1-956634fa665d","ios":"levelo://app?vid=2353a033-3462-43c8-81b1-956634fa665d"},"vehicle_type_id":"4","last_reported":1779222170,"current_range_meters":7200,"station_id":"ce4bh4p2rcd13ifvqe0g","pricing_plan_id":"cebpf4jnsgd1na2vs0mg"},{"bike_id":"c611833a-c5d3-40bb-9a95-d1f0c53110a1","system_id":"levelo_inurba_marseille","lat":43.24142,"lon":5.39755,"is_reserved":false,"is_disabled":false,"rental_uris":{"android":"levelo://app?vid=c611833a-c5d3-40bb-9a95-d1f0c53110a1","ios":"levelo://app?vid=c611833a-c5d3-40bb-9a95-d1f0c53110a1"},"vehicle_type_id":"4","last_reported":1779222170,"current_range_meters":7200,"station_id":"ce4bhn12rcd13ifvqgpg","pricing_plan_id":"cebpf4jnsgd1na2vs0mg"},{"bike_id":"40e11415-186d-4a53-ac50-ac693db6945a","system_id":"levelo_inurba_marseille","lat":43.33552,"lon":5.37468,"is_reserved":false,"is_disabled":false,"rental_uris":{"android":"levelo://app?vid=40e11415-186d-4a53-ac50-ac693db6945a","ios":"levelo://app?vid=40e11415-186d-4a53-ac50-ac693db6945a"},"vehicle_type_id":"4","last_reported":1779222170,"current_range_meters":7200,"station_id":"st_d46tts09ee8s73dlu43g","pricing_plan_id":"cebpf4jnsgd1na2vs0mg"},{"bike_id":"7aafe62d-e4fb-4393-ad5f-adbff2c5aedd","system_id":"levelo_inurba_marseille","lat":43.29548,"lon":5.39028,"is_reserved":false,"is_disabled":false,"rental_uris":{"android":"levelo://app?vid=7aafe62d-e4fb-4393-ad5f-adbff2c5aedd","ios":"levelo://app?vid=7aafe62d-e4fb-4393-ad5f-adbff2c5aedd"},"vehicle_type_id":"4","last_reported":1779222170,"current_range_meters":7200,"station_id":"ce4bh3p2rcd13ifvqdp0","pricing_plan_id":"cebpf4jnsgd1na2vs0mg"},{"bike_id":"74481e95-e66c-437f-b7c4-2fdddf09b800","system_id":"levelo_inurba_marseille","lat":43.28988,"lon":5.37861,"is_reserved":false,"is_disabled":false,"rental_uris":{"android":"levelo://app?vid=74481e95-e66c-437f-b7c4-2fdddf09b800","ios":"levelo://app?vid=74481e95-e66c-437f-b7c4-2fdddf09b800"},"vehicle_type_id":"4","last_reported":1779222170,"current_range_meters":7200,"station_id":"ce4bh9p2rcd13ifvqed0","pricing_plan_id":"cebpf4jnsgd1na2vs0mg"},{"bike_id":"e76f7412-fb61-451a-9c19-a4fbc3ac67da","system_id":"levelo_inurba_marseille","lat":43.30136,"lon":5.38765,"is_reserved":false,"is_disabled":false,"rental_uris":{"android":"levelo://app?vid=e76f7412-fb61-451a-9c19-a4fbc3ac67da","ios":"levelo://app?vid=e76f7412-fb61-451a-9c19-a4fbc3ac67da"},"vehicle_type_id":"4","last_reported":1779222170,"current_range_meters":7200,"station_id":"ce4bghh2rcd13ifvqb60","pricing_plan_id":"cebpf4jnsgd1na2vs0mg"},{"bike_id":"66aa3998-c506-45a5-83d5-cd9a42760e10","system_id":"levelo_inurba_marseille","lat":43.31128,"lon":5.37762,"is_reserved":false,"is_disabled":false,"rental_uris":{"android":"levelo://app?vid=66aa3998-c506-45a5-83d5-cd9a42760e10","ios":"levelo://app?vid=66aa3998-c506-45a5-83d5-cd9a42760e10"},"vehicle_type_id":"4","last_reported":1779222170,"current_range_meters":7200,"station_id":"ce4bgt92rcd13ifvqcg0","pricing_plan_id":"cebpf4jnsgd1na2vs0mg"},{"bike_id":"3d7f97ad-4240-4968-8d64-807f45bc4642","system_id":"levelo_inurba_marseille","lat":43.24804,"lon":5.37448,"is_reserved":false,"is_disabled":false,"rental_uris":{"android":"levelo://app?vid=3d7f97ad-4240-4968-8d64-807f45bc4642","ios":"levelo://app?vid=3d7f97ad-4240-4968-8d64-807f45bc4642"},"vehicle_type_id":"4","last_reported":1779222170,"current_range_meters":7200,"station_id":"ce4bhgh2rcd13ifvqfb0","pricing_plan_id":"cebpf4jnsgd1na2vs0mg"},{"bike_id":"5316befc-b6bb-4df2-8c26-1fe76da62fde","system_id":"levelo_inurba_marseille","lat":43.25097,"lon":5.37934,"is_reserved":false,"is_disabled":false,"rental_uris":{"android":"levelo://app?vid=5316befc-b6bb-4df2-8c26-1fe76da62fde","ios":"levelo://app?vid=5316befc-b6bb-4df2-8c26-1fe76da62fde"},"vehicle_type_id":"4","last_reported":1779222170,"current_range_meters":7200,"station_id":"","pricing_plan_id":"cebpf4jnsgd1na2vs0mg"},{"bike_id":"e1edea3c-a9ec-4e1d-ae51-331278ede585","system_id":"levelo_inurba_marseille","lat":43.31046,"lon":5.39294,"is_reserved":false,"is_disabled":false,"rental_uris":{"android":"levelo://app?vid=e1edea3c-a9ec-4e1d-ae51-331278ede585","ios":"levelo://app?vid=e1edea3c-a9ec-4e1d-ae51-331278ede585"},"vehicle_type_id":"4","last_reported":1779222170,"current_range_meters":7200,"station_id":"","pricing_plan_id":"cebpf4jnsgd1na2vs0mg"},{"bike_id":"2ccd4620-8e48-4d02-a005-3b7a7e783702","system_id":"levelo_inurba_marseille","lat":43.265679,"lon":5.403249,"is_reserved":false,"is_disabled":false,"rental_uris":{"android":"levelo://app?vid=2ccd4620-8e48-4d02-a005-3b7a7e783702","ios":"levelo://app?vid=2ccd4620-8e48-4d02-a005-3b7a7e783702"},"vehicle_type_id":"4","last_reported":1779222170,"current_range_meters":7200,"station_id":"ce4bhmp2rcd13ifvqgng","pricing_plan_id":"cebpf4jnsgd1na2vs0mg"},{"bike_id":"530feafa-0cb9-496d-81d7-cf4a00045eb8","system_id":"levelo_inurba_marseille","lat":43.29632,"lon":5.40598,"is_reserved":false,"is_disabled":false,"rental_uris":{"android":"levelo://app?vid=530feafa-0cb9-496d-81d7-cf4a00045eb8","ios":"levelo://app?vid=530feafa-0cb9-496d-81d7-cf4a00045eb8"},"vehicle_type_id":"4","last_reported":1779222170,"current_range_meters":7200,"station_id":"ce4bh0h2rcd13ifvqd60","pricing_plan_id":"cebpf4jnsgd1na2vs0mg"},{"bike_id":"854da997-21ff-48c4-ae70-cc3a0937e1c9","system_id":"levelo_inurba_marseille","lat":43.3354,"lon":5.3747,"is_reserved":false,"is_disabled":false,"rental_uris":{"android":"levelo://app?vid=854da997-21ff-48c4-ae70-cc3a0937e1c9","ios":"levelo://app?vid=854da997-21ff-48c4-ae70-cc3a0937e1c9"},"vehicle_type_id":"4","last_reported":1779222170,"current_range_meters":7200,"station_id":"st_d46tts09ee8s73dlu43g","pricing_plan_id":"cebpf4jnsgd1na2vs0mg"},{"bike_id":"73732838-cd70-4f34-be2e-bbfd56fa68b6","system_id":"levelo_inurba_marseille","lat":43.26382,"lon":5.4105,"is_reserved":false,"is_disabled":false,"rental_uris":{"android":"levelo://app?vid=73732838-cd70-4f34-be2e-bbfd56fa68b6","ios":"levelo://app?vid=73732838-cd70-4f34-be2e-bbfd56fa68b6"},"vehicle_type_id":"4","last_reported":1779222170,"current_range_meters":7200,"station_id":"st_d4e5ca6na9uc73bfl5fg","pricing_plan_id":"cebpf4jnsgd1na2vs0mg"},{"bike_id":"fb45c346-63dd-47a0-9593-a7e553e2f3b9","system_id":"levelo_inurba_marseille","lat":43.305359,"lon":5.367284,"is_reserved":false,"is_disabled":false,"rental_uris":{"android":"levelo://app?vid=fb45c346-63dd-47a0-9593-a7e553e2f3b9","ios":"levelo://app?vid=fb45c346-63dd-47a0-9593-a7e553e2f3b9"},"vehicle_type_id":"4","last_reported":1779222170,"current_range_meters":7200,"station_id":"ce4bgjh2rcd13ifvqbf0","pricing_plan_id":"cebpf4jnsgd1na2vs0mg"},{"bike_id":"e35ca50a-e252-4fec-af7a-48a17bebc951","system_id":"levelo_inurba_marseille","lat":43.295856,"lon":5.375158,"is_reserved":false,"is_disabled":false,"rental_uris":{"android":"levelo://app?vid=e35ca50a-e252-4fec-af7a-48a17bebc951","ios":"levelo://app?vid=e35ca50a-e252-4fec-af7a-48a17bebc951"},"vehicle_type_id":"4","last_reported":1779222170,"current_range_meters":7200,"station_id":"ce4bgh92rcd13ifvqb50","pricing_plan_id":"cebpf4jnsgd1na2vs0mg"},{"bike_id":"c76ea632-de6c-4695-b0d0-00e073e315ff","system_id":"levelo_inurba_marseille","lat":43.26017,"lon":5.38747,"is_reserved":false,"is_disabled":false,"rental_uris":{"android":"levelo://app?vid=c76ea632-de6c-4695-b0d0-00e073e315ff","ios":"levelo://app?vid=c76ea632-de6c-4695-b0d0-00e073e315ff"},"vehicle_type_id":"4","last_reported":1779222170,"current_range_meters":7200,"station_id":"","pricing_plan_id":"cebpf4jnsgd1na2vs0mg"},{"bike_id":"280c29d5-4b86-420a-92f9-eeedac2a9a7a","system_id":"levelo_inurba_marseille","lat":43.304371,"lon":5.389067,"is_reserved":false,"is_disabled":false,"rental_uris":{"android":"levelo://app?vid=280c29d5-4b86-420a-92f9-eeedac2a9a7a","ios":"levelo://app?vid=280c29d5-4b86-420a-92f9-eeedac2a9a7a"},"vehicle_type_id":"4","last_reported":1779222170,"current_range_meters":8000,"station_id":"ce4bgk12rcd13ifvqbi0","pricing_plan_id":"cebpf4jnsgd1na2vs0mg"},{"bike_id":"6370e735-5db8-49f5-8a15-a14271b57f14","system_id":"levelo_inurba_marseille","lat":43.28424,"lon":5.34996,"is_reserved":false,"is_disabled":false,"rental_uris":{"android":"levelo://app?vid=6370e735-5db8-49f5-8a15-a14271b57f14","ios":"levelo://app?vid=6370e735-5db8-49f5-8a15-a14271b57f14"},"vehicle_type_id":"4","last_reported":1779222170,"current_range_meters":8000,"station_id":"ce4bhbh2rcd13ifvqepg","pricing_plan_id":"cebpf4jnsgd1na2vs0mg"},{"bike_id":"7c7fb249-fc8e-4d79-a1ce-dd5b0f183060","system_id":"levelo_inurba_marseille","lat":43.29825,"lon":5.44076,"is_reserved":false,"is_disabled":false,"rental_uris":{"android":"levelo://app?vid=7c7fb249-fc8e-4d79-a1ce-dd5b0f183060","ios":"levelo://app?vid=7c7fb249-fc8e-4d79-a1ce-dd5b0f183060"},"vehicle_type_id":"4","last_reported":1779222170,"current_range_meters":8000,"station_id":"st_d3jp68qikq2c7381ktn0","pricing_plan_id":"cebpf4jnsgd1na2vs0mg"},{"bike_id":"877aff4a-39d3-4bc9-9fb1-f03230c32990","system_id":"levelo_inurba_marseille","lat":43.32111,"lon":5.36769,"is_reserved":false,"is_disabled":false,"rental_uris":{"android":"levelo://app?vid=877aff4a-39d3-4bc9-9fb1-f03230c32990","ios":"levelo://app?vid=877aff4a-39d3-4bc9-9fb1-f03230c32990"},"vehicle_type_id":"4","last_reported":1779222170,"current_range_meters":8000,"station_id":"ce4bhrh2rcd13ifvqhug","pricing_plan_id":"cebpf4jnsgd1na2vs0mg"},{"bike_id":"2525cd06-f576-4d7e-aa84-7f2e4bc2778e","system_id":"levelo_inurba_marseille","lat":43.29631,"lon":5.4059,"is_reserved":false,"is_disabled":false,"rental_uris":{"android":"levelo://app?vid=2525cd06-f576-4d7e-aa84-7f2e4bc2778e","ios":"levelo://app?vid=2525cd06-f576-4d7e-aa84-7f2e4bc2778e"},"vehicle_type_id":"4","last_reported":1779222170,"current_range_meters":8000,"station_id":"ce4bh0h2rcd13ifvqd60","pricing_plan_id":"cebpf4jnsgd1na2vs0mg"},{"bike_id":"c4edc732-d527-4577-89ca-cb699e299957","system_id":"levelo_inurba_marseille","lat":43.2872,"lon":5.37399,"is_reserved":false,"is_disabled":false,"rental_uris":{"android":"levelo://app?vid=c4edc732-d527-4577-89ca-cb699e299957","ios":"levelo://app?vid=c4edc732-d527-4577-89ca-cb699e299957"},"vehicle_type_id":"4","last_reported":1779222170,"current_range_meters":8000,"station_id":"ce4bh3p2rcd13ifvqdq0","pricing_plan_id":"cebpf4jnsgd1na2vs0mg"},{"bike_id":"8d176ace-1a7d-48bf-b4ed-e6413fd72bba","system_id":"levelo_inurba_marseille","lat":43.311191,"lon":5.37768,"is_reserved":false,"is_disabled":false,"rental_uris":{"android":"levelo://app?vid=8d176ace-1a7d-48bf-b4ed-e6413fd72bba","ios":"levelo://app?vid=8d176ace-1a7d-48bf-b4ed-e6413fd72bba"},"vehicle_type_id":"4","last_reported":1779222170,"current_range_meters":8000,"station_id":"ce4bgt92rcd13ifvqcg0","pricing_plan_id":"cebpf4jnsgd1na2vs0mg"},{"bike_id":"3f42a6d9-721c-4045-81f8-56e377ee5c6e","system_id":"levelo_inurba_marseille","lat":43.26489,"lon":5.39547,"is_reserved":false,"is_disabled":true,"rental_uris":{"android":"levelo://app?vid=3f42a6d9-721c-4045-81f8-56e377ee5c6e","ios":"levelo://app?vid=3f42a6d9-721c-4045-81f8-56e377ee5c6e"},"vehicle_type_id":"4","last_reported":1779222170,"current_range_meters":8000,"station_id":"ce4bhi12rcd13ifvqfq0","pricing_plan_id":"cebpf4jnsgd1na2vs0mg"},{"bike_id":"84e2bdea-040c-4b02-8461-3f29ac4c3630","system_id":"levelo_inurba_marseille","lat":43.31681,"lon":5.40477,"is_reserved":false,"is_disabled":false,"rental_uris":{"android":"levelo://app?vid=84e2bdea-040c-4b02-8461-3f29ac4c3630","ios":"levelo://app?vid=84e2bdea-040c-4b02-8461-3f29ac4c3630"},"vehicle_type_id":"4","last_reported":1779222170,"current_range_meters":8000,"station_id":"ce4bh012rcd13ifvqd00","pricing_plan_id":"cebpf4jnsgd1na2vs0mg"},{"bike_id":"e78f22d2-b3b2-4fdd-82db-914b840aec11","system_id":"levelo_inurba_marseille","lat":43.28493,"lon":5.38566,"is_reserved":false,"is_disabled":false,"rental_uris":{"android":"levelo://app?vid=e78f22d2-b3b2-4fdd-82db-914b840aec11","ios":"levelo://app?vid=e78f22d2-b3b2-4fdd-82db-914b840aec11"},"vehicle_type_id":"4","last_reported":1779222170,"current_range_meters":8000,"station_id":"ce4bh8p2rcd13ifvqeb0","pricing_plan_id":"cebpf4jnsgd1na2vs0mg"},{"bike_id":"b3878761-b59b-4edf-93c4-e8103d518c8f","system_id":"levelo_inurba_marseille","lat":43.29872,"lon":5.39695,"is_reserved":false,"is_disabled":false,"rental_uris":{"android":"levelo://app?vid=b3878761-b59b-4edf-93c4-e8103d518c8f","ios":"levelo://app?vid=b3878761-b59b-4edf-93c4-e8103d518c8f"},"vehicle_type_id":"4","last_reported":1779222170,"current_range_meters":8000,"station_id":"ce4bh0h2rcd13ifvqd50","pricing_plan_id":"cebpf4jnsgd1na2vs0mg"},{"bike_id":"c4974bd9-5751-460d-adbf-9b24dcd04bf3","system_id":"levelo_inurba_marseille","lat":43.25328,"lon":5.42153,"is_reserved":false,"is_disabled":false,"rental_uris":{"android":"levelo://app?vid=c4974bd9-5751-460d-adbf-9b24dcd04bf3","ios":"levelo://app?vid=c4974bd9-5751-460d-adbf-9b24dcd04bf3"},"vehicle_type_id":"4","last_reported":1779222170,"current_range_meters":8000,"station_id":"st_d2m65c5bi1j21697t3ng","pricing_plan_id":"cebpf4jnsgd1na2vs0mg"},{"bike_id":"c9b15fbc-4add-4c3c-99e5-aaeaed51642c","system_id":"levelo_inurba_marseille","lat":43.30329,"lon":5.40434,"is_reserved":false,"is_disabled":false,"rental_uris":{"android":"levelo://app?vid=c9b15fbc-4add-4c3c-99e5-aaeaed51642c","ios":"levelo://app?vid=c9b15fbc-4add-4c3c-99e5-aaeaed51642c"},"vehicle_type_id":"4","last_reported":1779222170,"current_range_meters":8000,"station_id":"ce4bh012rcd13ifvqd10","pricing_plan_id":"cebpf4jnsgd1na2vs0mg"},{"bike_id":"6bf132c3-a863-479e-a809-2b1518d3564c","system_id":"levelo_inurba_marseille","lat":43.2953,"lon":5.3849,"is_reserved":false,"is_disabled":false,"rental_uris":{"android":"levelo://app?vid=6bf132c3-a863-479e-a809-2b1518d3564c","ios":"levelo://app?vid=6bf132c3-a863-479e-a809-2b1518d3564c"},"vehicle_type_id":"4","last_reported":1779222170,"current_range_meters":8000,"station_id":"","pricing_plan_id":"cebpf4jnsgd1na2vs0mg"},{"bike_id":"5a21a571-29b5-4804-874c-1f8a85e70e59","system_id":"levelo_inurba_marseille","lat":43.29032,"lon":5.3864,"is_reserved":false,"is_disabled":false,"rental_uris":{"android":"levelo://app?vid=5a21a571-29b5-4804-874c-1f8a85e70e59","ios":"levelo://app?vid=5a21a571-29b5-4804-874c-1f8a85e70e59"},"vehicle_type_id":"4","last_reported":1779222170,"current_range_meters":8000,"station_id":"ce4bh4p2rcd13ifvqe0g","pricing_plan_id":"cebpf4jnsgd1na2vs0mg"},{"bike_id":"5eb40e53-14fc-421e-9f2e-2de235d7f585","system_id":"levelo_inurba_marseille","lat":43.302624,"lon":5.400698,"is_reserved":false,"is_disabled":false,"rental_uris":{"android":"levelo://app?vid=5eb40e53-14fc-421e-9f2e-2de235d7f585","ios":"levelo://app?vid=5eb40e53-14fc-421e-9f2e-2de235d7f585"},"vehicle_type_id":"4","last_reported":1779222170,"current_range_meters":8000,"station_id":"ce4bgvh2rcd13ifvqcs0","pricing_plan_id":"cebpf4jnsgd1na2vs0mg"},{"bike_id":"8263f75d-9989-4529-81b0-a9d6ce3abc36","system_id":"levelo_inurba_marseille","lat":43.28668,"lon":5.36353,"is_reserved":false,"is_disabled":false,"rental_uris":{"android":"levelo://app?vid=8263f75d-9989-4529-81b0-a9d6ce3abc36","ios":"levelo://app?vid=8263f75d-9989-4529-81b0-a9d6ce3abc36"},"vehicle_type_id":"4","last_reported":1779222170,"current_range_meters":8000,"station_id":"ce4bhah2rcd13ifvqej0","pricing_plan_id":"cebpf4jnsgd1na2vs0mg"},{"bike_id":"b34c1946-cf91-4d87-af25-adc23e0c3c1e","system_id":"levelo_inurba_marseille","lat":43.27926,"lon":5.3801,"is_reserved":false,"is_disabled":false,"rental_uris":{"android":"levelo://app?vid=b34c1946-cf91-4d87-af25-adc23e0c3c1e","ios":"levelo://app?vid=b34c1946-cf91-4d87-af25-adc23e0c3c1e"},"vehicle_type_id":"4","last_reported":1779222170,"current_range_meters":8000,"station_id":"ce4bhf92rcd13ifvqf50","pricing_plan_id":"cebpf4jnsgd1na2vs0mg"},{"bike_id":"291bce7d-95a9-4f5c-a2d8-de5b55889c52","system_id":"levelo_inurba_marseille","lat":43.29241,"lon":5.37278,"is_reserved":false,"is_disabled":false,"rental_uris":{"android":"levelo://app?vid=291bce7d-95a9-4f5c-a2d8-de5b55889c52","ios":"levelo://app?vid=291bce7d-95a9-4f5c-a2d8-de5b55889c52"},"vehicle_type_id":"4","last_reported":1779222170,"current_range_meters":8000,"station_id":"","pricing_plan_id":"cebpf4jnsgd1na2vs0mg"},{"bike_id":"6475fa53-731a-40e0-a622-176f05ddd6ce","system_id":"levelo_inurba_marseille","lat":43.28944,"lon":5.36638,"is_reserved":false,"is_disabled":false,"rental_uris":{"android":"levelo://app?vid=6475fa53-731a-40e0-a622-176f05ddd6ce","ios":"levelo://app?vid=6475fa53-731a-40e0-a622-176f05ddd6ce"},"vehicle_type_id":"4","last_reported":1779222170,"current_range_meters":8000,"station_id":"ce4bhap2rcd13ifvqek0","pricing_plan_id":"cebpf4jnsgd1na2vs0mg"},{"bike_id":"5d9dc721-ee49-4b10-9633-491845b7a04b","system_id":"levelo_inurba_marseille","lat":43.26806,"lon":5.40261,"is_reserved":false,"is_disabled":false,"rental_uris":{"android":"levelo://app?vid=5d9dc721-ee49-4b10-9633-491845b7a04b","ios":"levelo://app?vid=5d9dc721-ee49-4b10-9633-491845b7a04b"},"vehicle_type_id":"4","last_reported":1779222170,"current_range_meters":8000,"station_id":"ce501612rcd8frsf0b60","pricing_plan_id":"cebpf4jnsgd1na2vs0mg"},{"bike_id":"7ba9edaa-a1bb-4a70-a5f2-b9b5d3ae022f","system_id":"levelo_inurba_marseille","lat":43.337444,"lon":5.374475,"is_reserved":false,"is_disabled":false,"rental_uris":{"android":"levelo://app?vid=7ba9edaa-a1bb-4a70-a5f2-b9b5d3ae022f","ios":"levelo://app?vid=7ba9edaa-a1bb-4a70-a5f2-b9b5d3ae022f"},"vehicle_type_id":"4","last_reported":1779222170,"current_range_meters":8000,"station_id":"","pricing_plan_id":"cebpf4jnsgd1na2vs0mg"},{"bike_id":"11dac49a-63ea-47b4-a217-88a1431807e3","system_id":"levelo_inurba_marseille","lat":43.28231,"lon":5.39053,"is_reserved":false,"is_disabled":false,"rental_uris":{"android":"levelo://app?vid=11dac49a-63ea-47b4-a217-88a1431807e3","ios":"levelo://app?vid=11dac49a-63ea-47b4-a217-88a1431807e3"},"vehicle_type_id":"4","last_reported":1779222170,"current_range_meters":8000,"station_id":"ce4bhn92rcd13ifvqgsg","pricing_plan_id":"cebpf4jnsgd1na2vs0mg"},{"bike_id":"e77548d3-528c-4a34-85e6-35ff5722dea1","system_id":"levelo_inurba_marseille","lat":43.29825,"lon":5.39724,"is_reserved":false,"is_disabled":false,"rental_uris":{"android":"levelo://app?vid=e77548d3-528c-4a34-85e6-35ff5722dea1","ios":"levelo://app?vid=e77548d3-528c-4a34-85e6-35ff5722dea1"},"vehicle_type_id":"4","last_reported":1779222170,"current_range_meters":8000,"station_id":"ce4bh0h2rcd13ifvqd50","pricing_plan_id":"cebpf4jnsgd1na2vs0mg"},{"bike_id":"c1a69e5e-9cab-459c-8b1a-391b422fd9b7","system_id":"levelo_inurba_marseille","lat":43.28679,"lon":5.3999,"is_reserved":false,"is_disabled":false,"rental_uris":{"android":"levelo://app?vid=c1a69e5e-9cab-459c-8b1a-391b422fd9b7","ios":"levelo://app?vid=c1a69e5e-9cab-459c-8b1a-391b422fd9b7"},"vehicle_type_id":"4","last_reported":1779222170,"current_range_meters":8000,"station_id":"ce4bho92rcd13ifvqh3g","pricing_plan_id":"cebpf4jnsgd1na2vs0mg"},{"bike_id":"2c4d3b3f-f643-446d-9abd-c8bf81e55ceb","system_id":"levelo_inurba_marseille","lat":43.28838,"lon":5.35852,"is_reserved":false,"is_disabled":false,"rental_uris":{"android":"levelo://app?vid=2c4d3b3f-f643-446d-9abd-c8bf81e55ceb","ios":"levelo://app?vid=2c4d3b3f-f643-446d-9abd-c8bf81e55ceb"},"vehicle_type_id":"4","last_reported":1779222170,"current_range_meters":8000,"station_id":"ce4bhb12rcd13ifvqem0","pricing_plan_id":"cebpf4jnsgd1na2vs0mg"},{"bike_id":"1c1414c1-3413-415f-adc1-dde38dab9b68","system_id":"levelo_inurba_marseille","lat":43.2998,"lon":5.39893,"is_reserved":false,"is_disabled":false,"rental_uris":{"android":"levelo://app?vid=1c1414c1-3413-415f-adc1-dde38dab9b68","ios":"levelo://app?vid=1c1414c1-3413-415f-adc1-dde38dab9b68"},"vehicle_type_id":"4","last_reported":1779222170,"current_range_meters":8000,"station_id":"","pricing_plan_id":"cebpf4jnsgd1na2vs0mg"},{"bike_id":"5a297e80-d2f0-4fb4-9886-093528a3567a","system_id":"levelo_inurba_marseille","lat":43.31475,"lon":5.37385,"is_reserved":false,"is_disabled":true,"rental_uris":{"android":"levelo://app?vid=5a297e80-d2f0-4fb4-9886-093528a3567a","ios":"levelo://app?vid=5a297e80-d2f0-4fb4-9886-093528a3567a"},"vehicle_type_id":"4","last_reported":1779222170,"current_range_meters":8400,"station_id":"","pricing_plan_id":"cebpf4jnsgd1na2vs0mg"},{"bike_id":"f7c0230e-ed97-4f98-b053-4847a49bfcd9","system_id":"levelo_inurba_marseille","lat":43.27505,"lon":5.42459,"is_reserved":false,"is_disabled":false,"rental_uris":{"android":"levelo://app?vid=f7c0230e-ed97-4f98-b053-4847a49bfcd9","ios":"levelo://app?vid=f7c0230e-ed97-4f98-b053-4847a49bfcd9"},"vehicle_type_id":"4","last_reported":1779222170,"current_range_meters":8400,"station_id":"ce4bhn92rcd13ifvqgrg","pricing_plan_id":"cebpf4jnsgd1na2vs0mg"},{"bike_id":"26593257-712f-4288-8b95-b25d3c17ba27","system_id":"levelo_inurba_marseille","lat":43.286011,"lon":5.351029,"is_reserved":false,"is_disabled":false,"rental_uris":{"android":"levelo://app?vid=26593257-712f-4288-8b95-b25d3c17ba27","ios":"levelo://app?vid=26593257-712f-4288-8b95-b25d3c17ba27"},"vehicle_type_id":"4","last_reported":1779222170,"current_range_meters":8400,"station_id":"ce4bhch2rcd13ifvqeug","pricing_plan_id":"cebpf4jnsgd1na2vs0mg"},{"bike_id":"1d8a0de7-dee9-4c46-b0dc-9cb1beff9b47","system_id":"levelo_inurba_marseille","lat":43.28435,"lon":5.3498,"is_reserved":false,"is_disabled":false,"rental_uris":{"android":"levelo://app?vid=1d8a0de7-dee9-4c46-b0dc-9cb1beff9b47","ios":"levelo://app?vid=1d8a0de7-dee9-4c46-b0dc-9cb1beff9b47"},"vehicle_type_id":"4","last_reported":1779222170,"current_range_meters":8400,"station_id":"ce4bhbh2rcd13ifvqepg","pricing_plan_id":"cebpf4jnsgd1na2vs0mg"},{"bike_id":"d2abe37c-883e-4b78-abe7-962a451ef821","system_id":"levelo_inurba_marseille","lat":43.28609,"lon":5.35098,"is_reserved":false,"is_disabled":false,"rental_uris":{"android":"levelo://app?vid=d2abe37c-883e-4b78-abe7-962a451ef821","ios":"levelo://app?vid=d2abe37c-883e-4b78-abe7-962a451ef821"},"vehicle_type_id":"4","last_reported":1779222170,"current_range_meters":8400,"station_id":"ce4bhch2rcd13ifvqeug","pricing_plan_id":"cebpf4jnsgd1na2vs0mg"},{"bike_id":"1e1ee755-b18c-40e7-84cb-fa377d57093e","system_id":"levelo_inurba_marseille","lat":43.30808,"lon":5.38149,"is_reserved":false,"is_disabled":false,"rental_uris":{"android":"levelo://app?vid=1e1ee755-b18c-40e7-84cb-fa377d57093e","ios":"levelo://app?vid=1e1ee755-b18c-40e7-84cb-fa377d57093e"},"vehicle_type_id":"4","last_reported":1779222170,"current_range_meters":8400,"station_id":"ce4bgt12rcd13ifvqce0","pricing_plan_id":"cebpf4jnsgd1na2vs0mg"},{"bike_id":"7bcabde5-50b3-49a1-bde7-ef4e983b7b93","system_id":"levelo_inurba_marseille","lat":43.23179,"lon":5.39987,"is_reserved":false,"is_disabled":false,"rental_uris":{"android":"levelo://app?vid=7bcabde5-50b3-49a1-bde7-ef4e983b7b93","ios":"levelo://app?vid=7bcabde5-50b3-49a1-bde7-ef4e983b7b93"},"vehicle_type_id":"4","last_reported":1779222170,"current_range_meters":8400,"station_id":"ce4bhn12rcd13ifvqgqg","pricing_plan_id":"cebpf4jnsgd1na2vs0mg"},{"bike_id":"d040165f-ba95-4cef-bde8-d89638241c42","system_id":"levelo_inurba_marseille","lat":43.28477,"lon":5.38404,"is_reserved":false,"is_disabled":false,"rental_uris":{"android":"levelo://app?vid=d040165f-ba95-4cef-bde8-d89638241c42","ios":"levelo://app?vid=d040165f-ba95-4cef-bde8-d89638241c42"},"vehicle_type_id":"4","last_reported":1779222170,"current_range_meters":8400,"station_id":"ce4bh512rcd13ifvqe3g","pricing_plan_id":"cebpf4jnsgd1na2vs0mg"},{"bike_id":"c9e5868e-e906-482f-a6be-fc6f71a95b72","system_id":"levelo_inurba_marseille","lat":43.297064,"lon":5.377008,"is_reserved":false,"is_disabled":false,"rental_uris":{"android":"levelo://app?vid=c9e5868e-e906-482f-a6be-fc6f71a95b72","ios":"levelo://app?vid=c9e5868e-e906-482f-a6be-fc6f71a95b72"},"vehicle_type_id":"4","last_reported":1779222170,"current_range_meters":8400,"station_id":"ce4bgkh2rcd13ifvqbl0","pricing_plan_id":"cebpf4jnsgd1na2vs0mg"},{"bike_id":"45b8503d-947b-4845-96c9-8eeb30606f6b","system_id":"levelo_inurba_marseille","lat":43.30889,"lon":5.39644,"is_reserved":false,"is_disabled":false,"rental_uris":{"android":"levelo://app?vid=45b8503d-947b-4845-96c9-8eeb30606f6b","ios":"levelo://app?vid=45b8503d-947b-4845-96c9-8eeb30606f6b"},"vehicle_type_id":"4","last_reported":1779222170,"current_range_meters":8400,"station_id":"ce4bh012rcd13ifvqcv0","pricing_plan_id":"cebpf4jnsgd1na2vs0mg"},{"bike_id":"94133b29-971d-48eb-9475-ae0b64fbd116","system_id":"levelo_inurba_marseille","lat":43.28241,"lon":5.38133,"is_reserved":false,"is_disabled":false,"rental_uris":{"android":"levelo://app?vid=94133b29-971d-48eb-9475-ae0b64fbd116","ios":"levelo://app?vid=94133b29-971d-48eb-9475-ae0b64fbd116"},"vehicle_type_id":"4","last_reported":1779222170,"current_range_meters":8400,"station_id":"","pricing_plan_id":"cebpf4jnsgd1na2vs0mg"},{"bike_id":"8f04cc56-57b9-4f2c-b5b7-05ffc9176567","system_id":"levelo_inurba_marseille","lat":43.29236,"lon":5.38371,"is_reserved":false,"is_disabled":false,"rental_uris":{"android":"levelo://app?vid=8f04cc56-57b9-4f2c-b5b7-05ffc9176567","ios":"levelo://app?vid=8f04cc56-57b9-4f2c-b5b7-05ffc9176567"},"vehicle_type_id":"4","last_reported":1779222170,"current_range_meters":8400,"station_id":"","pricing_plan_id":"cebpf4jnsgd1na2vs0mg"},{"bike_id":"7ce955ac-a7ea-468f-ae9c-81d1d0522443","system_id":"levelo_inurba_marseille","lat":43.31124,"lon":5.3777,"is_reserved":false,"is_disabled":false,"rental_uris":{"android":"levelo://app?vid=7ce955ac-a7ea-468f-ae9c-81d1d0522443","ios":"levelo://app?vid=7ce955ac-a7ea-468f-ae9c-81d1d0522443"},"vehicle_type_id":"4","last_reported":1779222170,"current_range_meters":8400,"station_id":"ce4bgt92rcd13ifvqcg0","pricing_plan_id":"cebpf4jnsgd1na2vs0mg"},{"bike_id":"66bd9a1a-269e-4106-a9a1-f7517d4d4b67","system_id":"levelo_inurba_marseille","lat":43.28354,"lon":5.38089,"is_reserved":false,"is_disabled":false,"rental_uris":{"android":"levelo://app?vid=66bd9a1a-269e-4106-a9a1-f7517d4d4b67","ios":"levelo://app?vid=66bd9a1a-269e-4106-a9a1-f7517d4d4b67"},"vehicle_type_id":"4","last_reported":1779222170,"current_range_meters":8400,"station_id":"ce4bh412rcd13ifvqdr0","pricing_plan_id":"cebpf4jnsgd1na2vs0mg"},{"bike_id":"d50a2fb9-bd9c-4d23-b812-814f4b76bd05","system_id":"levelo_inurba_marseille","lat":43.298764,"lon":5.389081,"is_reserved":false,"is_disabled":false,"rental_uris":{"android":"levelo://app?vid=d50a2fb9-bd9c-4d23-b812-814f4b76bd05","ios":"levelo://app?vid=d50a2fb9-bd9c-4d23-b812-814f4b76bd05"},"vehicle_type_id":"4","last_reported":1779222170,"current_range_meters":8400,"station_id":"ce4bh392rcd13ifvqdl0","pricing_plan_id":"cebpf4jnsgd1na2vs0mg"},{"bike_id":"cfa094bf-1d90-4482-a863-ca2178118e6f","system_id":"levelo_inurba_marseille","lat":43.29253,"lon":5.38425,"is_reserved":false,"is_disabled":false,"rental_uris":{"android":"levelo://app?vid=cfa094bf-1d90-4482-a863-ca2178118e6f","ios":"levelo://app?vid=cfa094bf-1d90-4482-a863-ca2178118e6f"},"vehicle_type_id":"4","last_reported":1779222170,"current_range_meters":8400,"station_id":"ce4bh692rcd13ifvqea0","pricing_plan_id":"cebpf4jnsgd1na2vs0mg"},{"bike_id":"8e0c3a71-88fb-4dca-a732-c4fb201abb3e","system_id":"levelo_inurba_marseille","lat":43.30601,"lon":5.3745,"is_reserved":false,"is_disabled":true,"rental_uris":{"android":"levelo://app?vid=8e0c3a71-88fb-4dca-a732-c4fb201abb3e","ios":"levelo://app?vid=8e0c3a71-88fb-4dca-a732-c4fb201abb3e"},"vehicle_type_id":"4","last_reported":1779222170,"current_range_meters":8400,"station_id":"","pricing_plan_id":"cebpf4jnsgd1na2vs0mg"},{"bike_id":"443d5a25-9bbf-4ba8-a20d-d3e8966b35c0","system_id":"levelo_inurba_marseille","lat":43.29034,"lon":5.38131,"is_reserved":false,"is_disabled":false,"rental_uris":{"android":"levelo://app?vid=443d5a25-9bbf-4ba8-a20d-d3e8966b35c0","ios":"levelo://app?vid=443d5a25-9bbf-4ba8-a20d-d3e8966b35c0"},"vehicle_type_id":"4","last_reported":1779222170,"current_range_meters":8400,"station_id":"ce4bh4p2rcd13ifvqe1g","pricing_plan_id":"cebpf4jnsgd1na2vs0mg"},{"bike_id":"1fbc1be8-a077-455f-a348-880a7a78d260","system_id":"levelo_inurba_marseille","lat":43.30427,"lon":5.39742,"is_reserved":false,"is_disabled":false,"rental_uris":{"android":"levelo://app?vid=1fbc1be8-a077-455f-a348-880a7a78d260","ios":"levelo://app?vid=1fbc1be8-a077-455f-a348-880a7a78d260"},"vehicle_type_id":"4","last_reported":1779222170,"current_range_meters":8400,"station_id":"ce4bh092rcd13ifvqd20","pricing_plan_id":"cebpf4jnsgd1na2vs0mg"},{"bike_id":"ab317f4a-6cee-445d-ac60-f0da4f5ea07a","system_id":"levelo_inurba_marseille","lat":43.27073,"lon":5.42286,"is_reserved":false,"is_disabled":false,"rental_uris":{"android":"levelo://app?vid=ab317f4a-6cee-445d-ac60-f0da4f5ea07a","ios":"levelo://app?vid=ab317f4a-6cee-445d-ac60-f0da4f5ea07a"},"vehicle_type_id":"4","last_reported":1779222170,"current_range_meters":8400,"station_id":"ce4bhk92rcd13ifvqgb0","pricing_plan_id":"cebpf4jnsgd1na2vs0mg"},{"bike_id":"eb0c18a4-9b88-4fe0-896a-c2f849d65e21","system_id":"levelo_inurba_marseille","lat":43.28841,"lon":5.39305,"is_reserved":false,"is_disabled":false,"rental_uris":{"android":"levelo://app?vid=eb0c18a4-9b88-4fe0-896a-c2f849d65e21","ios":"levelo://app?vid=eb0c18a4-9b88-4fe0-896a-c2f849d65e21"},"vehicle_type_id":"4","last_reported":1779222170,"current_range_meters":8400,"station_id":"ce4bh2p2rcd13ifvqdi0","pricing_plan_id":"cebpf4jnsgd1na2vs0mg"},{"bike_id":"46be8dd3-948b-467e-ad94-fd338307b9c7","system_id":"levelo_inurba_marseille","lat":43.29989,"lon":5.36731,"is_reserved":false,"is_disabled":false,"rental_uris":{"android":"levelo://app?vid=46be8dd3-948b-467e-ad94-fd338307b9c7","ios":"levelo://app?vid=46be8dd3-948b-467e-ad94-fd338307b9c7"},"vehicle_type_id":"4","last_reported":1779222170,"current_range_meters":8400,"station_id":"","pricing_plan_id":"cebpf4jnsgd1na2vs0mg"},{"bike_id":"bc3fe07f-ae95-42d2-91f0-d34745765c9e","system_id":"levelo_inurba_marseille","lat":43.24469,"lon":5.42531,"is_reserved":false,"is_disabled":false,"rental_uris":{"android":"levelo://app?vid=bc3fe07f-ae95-42d2-91f0-d34745765c9e","ios":"levelo://app?vid=bc3fe07f-ae95-42d2-91f0-d34745765c9e"},"vehicle_type_id":"4","last_reported":1779222170,"current_range_meters":8400,"station_id":"st_d4a3vfp97mjs738cd8kg","pricing_plan_id":"cebpf4jnsgd1na2vs0mg"},