{"last_updated":1685423199,"ttl":30,"version":"2.2","data":{"bikes":[{"bike_id":"8def1d03-e0f0-4546-a13d-0d93ecc5df11","system_id":"levelo_inurba_marseille","lat":43.313391,"lon":5.36706,"is_reserved":false,"is_disabled":false,"rental_uris":{"android":"levelo://app?vid=8def1d03-e0f0-4546-a13d-0d93ecc5df11","ios":"levelo://app?vid=8def1d03-e0f0-4546-a13d-0d93ecc5df11"},"vehicle_type_id":"4","last_reported":1685423199,"current_range_meters":31200,"station_id":"ce4bgr92rcd13ifvqc6g","pricing_plan_id":"free"},{"bike_id":"9b7f4c69-5eb0-4e03-983c-3058e9389662","system_id":"levelo_inurba_marseille","lat":43.313391,"lon":5.36706,"is_reserved":false,"is_disabled":false,"rental_uris":{"android":"levelo://app?vid=9b7f4c69-5eb0-4e03-983c-3058e9389662","ios":"levelo://app?vid=9b7f4c69-5eb0-4e03-983c-3058e9389662"},"vehicle_type_id":"4","last_reported":1685423199,"current_range_meters":29200,"station_id":"ce4bgr92rcd13ifvqc6g","pricing_plan_id":"free"},{"bike_id":"bec845d2-2d87-4937-aacc-788b846ce2cd","system_id":"levelo_inurba_marseille","lat":43.31341,"lon":5.367098,"is_reserved":false,"is_disabled":false,"rental_uris":{"android":"levelo://app?vid=bec845d2-2d87-4937-aacc-788b846ce2cd","ios":"levelo://app?vid=bec845d2-2d87-4937-aacc-788b846ce2cd"},"vehicle_type_id":"4","last_reported":1685423199,"current_range_meters":31600,"station_id":"ce4bgr92rcd13ifvqc6g","pricing_plan_id":"free"},{"bike_id":"e08eda01-b452-4e01-9b74-f7bdbd308eb5","system_id":"levelo_inurba_marseille","lat":43.31341,"lon":5.367098,"is_reserved":false,"is_disabled":false,"rental_uris":{"android":"levelo://app?vid=e08eda01-b452-4e01-9b74-f7bdbd308eb5","ios":"levelo://app?vid=e08eda01-b452-4e01-9b74-f7bdbd308eb5"},"vehicle_type_id":"4","last_reported":1685423199,"current_range_meters":31600,"station_id":"ce4bgr92rcd13ifvqc6g","pricing_plan_id":"free"},{"bike_id":"6a1b2239-b3ba-4402-9bf6-1b600d0c9e36","system_id":"levelo_inurba_marseille","lat":43.312239,"lon":5.368562,"is_reserved":false,"is_disabled":false,"rental_uris":{"android":"levelo://app?vid=6a1b2239-b3ba-4402-9bf6-1b600d0c9e36","ios":"levelo://app?vid=6a1b2239-b3ba-4402-9bf6-1b600d0c9e36"},"vehicle_type_id":"4","last_reported":1685423199,"current_range_meters":26400,"station_id":"ce4bgl92rcd13ifvqbq0","pricing_plan_id":"free"},{"bike_id":"cb92cb49-893c-4409-836f-df07497b5e60","system_id":"levelo_inurba_marseille","lat":43.312239,"lon":5.368562,"is_reserved":false,"is_disabled":false,"rental_uris":{"android":"levelo://app?vid=cb92cb49-893c-4409-836f-df07497b5e60","ios":"levelo://app?vid=cb92cb49-893c-4409-836f-df07497b5e60"},"vehicle_type_id":"4","last_reported":1685423199,"current_range_meters":29200,"station_id":"ce4bgl92rcd13ifvqbq0","pricing_plan_id":"free"},{"bike_id":"d43184f2-2bb9-4ae3-8dd1-fc2b681f5bcd","system_id":"levelo_inurba_marseille","lat":43.309076,"lon":5.368465,"is_reserved":false,"is_disabled":false,"rental_uris":{"android":"levelo://app?vid=d43184f2-2bb9-4ae3-8dd1-fc2b681f5bcd","ios":"levelo://app?vid=d43184f2-2bb9-4ae3-8dd1-fc2b681f5bcd"},"vehicle_type_id":"4","last_reported":1685423199,"current_range_meters":29200,"station_id":"ce4bgn92rcd13ifvqbvg","pricing_plan_id":"free"},{"bike_id":"c1137dfe-a0e4-461f-b3c1-133df0a81558","system_id":"levelo_inurba_marseille","lat":43.309076,"lon":5.368465,"is_reserved":false,"is_disabled":false,"rental_uris":{"android":"levelo://app?vid=c1137dfe-a0e4-461f-b3c1-133df0a81558","ios":"levelo://app?vid=c1137dfe-a0e4-461f-b3c1-133df0a81558"},"vehicle_type_id":"4","last_reported":1685423199,"current_range_meters":28800,"station_id":"ce4bgn92rcd13ifvqbvg","pricing_plan_id":"free"},{"bike_id":"c8e7caf2-3af1-4219-bf65-e7ce42a09e88","system_id":"levelo_inurba_marseille","lat":43.314811,"lon":5.373103,"is_reserved":false,"is_disabled":false,"rental_uris":{"android":"levelo://app?vid=c8e7caf2-3af1-4219-bf65-e7ce42a09e88","ios":"levelo://app?vid=c8e7caf2-3af1-4219-bf65-e7ce42a09e88"},"vehicle_type_id":"4","last_reported":1685423199,"current_range_meters":31600,"station_id":"ce4bgt12rcd13ifvqcd0","pricing_plan_id":"free"},{"bike_id":"780aa4bd-4a66-4168-b5ea-8a27ce684ee0","system_id":"levelo_inurba_marseille","lat":43.314811,"lon":5.373103,"is_reserved":false,"is_disabled":false,"rental_uris":{"android":"levelo://app?vid=780aa4bd-4a66-4168-b5ea-8a27ce684ee0","ios":"levelo://app?vid=780aa4bd-4a66-4168-b5ea-8a27ce684ee0"},"vehicle_type_id":"4","last_reported":1685423199,"current_range_meters":30000,"station_id":"ce4bgt12rcd13ifvqcd0","pricing_plan_id":"free"},{"bike_id":"5c121b33-ec28-4f78-a2fd-ad9028e51911","system_id":"levelo_inurba_marseille","lat":43.314811,"lon":5.373103,"is_reserved":false,"is_disabled":false,"rental_uris":{"android":"levelo://app?vid=5c121b33-ec28-4f78-a2fd-ad9028e51911","ios":"levelo://app?vid=5c121b33-ec28-4f78-a2fd-ad9028e51911"},"vehicle_type_id":"4","last_reported":1685423199,"current_range_meters":28800,"station_id":"ce4bgt12rcd13ifvqcd0","pricing_plan_id":"free"},{"bike_id":"d226e977-3f0b-4b0c-a0e0-157c44aec210","system_id":"levelo_inurba_marseille","lat":43.314811,"lon":5.373104,"is_reserved":false,"is_disabled":false,"rental_uris":{"android":"levelo://app?vid=d226e977-3f0b-4b0c-a0e0-157c44aec210","ios":"levelo://app?vid=d226e977-3f0b-4b0c-a0e0-157c44aec210"},"vehicle_type_id":"4","last_reported":1685423199,"current_range_meters":30800,"station_id":"ce4bgt12rcd13ifvqcd0","pricing_plan_id":"free"},{"bike_id":"181f9dd6-f330-4308-85f7-b6a64ef702cc","system_id":"levelo_inurba_marseille","lat":43.314811,"lon":5.373103,"is_reserved":false,"is_disabled":false,"rental_uris":{"android":"levelo://app?vid=181f9dd6-f330-4308-85f7-b6a64ef702cc","ios":"levelo://app?vid=181f9dd6-f330-4308-85f7-b6a64ef702cc"},"vehicle_type_id":"4","last_reported":1685423199,"current_range_meters":30800,"station_id":"ce4bgt12rcd13ifvqcd0","pricing_plan_id":"free"},{"bike_id":"12d77b0c-7f53-42b3-a2c1-d5e06baa34fa","system_id":"levelo_inurba_marseille","lat":43.314811,"lon":5.373103,"is_reserved":false,"is_disabled":false,"rental_uris":{"android":"levelo://app?vid=12d77b0c-7f53-42b3-a2c1-d5e06baa34fa","ios":"levelo://app?vid=12d77b0c-7f53-42b3-a2c1-d5e06baa34fa"},"vehicle_type_id":"4","last_reported":1685423199,"current_range_meters":31600,"station_id":"ce4bgt12rcd13ifvqcd0","pricing_plan_id":"free"},{"bike_id":"10842bb8-c6c6-4492-aef2-917290325283","system_id":"levelo_inurba_marseille","lat":43.314811,"lon":5.373104,"is_reserved":false,"is_disabled":false,"rental_uris":{"android":"levelo://app?vid=10842bb8-c6c6-4492-aef2-917290325283","ios":"levelo://app?vid=10842bb8-c6c6-4492-aef2-917290325283"},"vehicle_type_id":"4","last_reported":1685423199,"current_range_meters":28000,"station_id":"ce4bgt12rcd13ifvqcd0","pricing_plan_id":"free"},{"bike_id":"7c712486-c49b-47b6-a846-5fd9fe381ee3","system_id":"levelo_inurba_marseille","lat":43.308614,"lon":5.372098,"is_reserved":false,"is_disabled":false,"rental_uris":{"android":"levelo://app?vid=7c712486-c49b-47b6-a846-5fd9fe381ee3","ios":"levelo://app?vid=7c712486-c49b-47b6-a846-5fd9fe381ee3"},"vehicle_type_id":"4","last_reported":1685423199,"current_range_meters":23600,"station_id":"ce4bguh2rcd13ifvqckg","pricing_plan_id":"free"},{"bike_id":"1deeeaee-bb6e-48ba-8245-0132ced8db15","system_id":"levelo_inurba_marseille","lat":43.30534,"lon":5.36706,"is_reserved":false,"is_disabled":false,"rental_uris":{"android":"levelo://app?vid=1deeeaee-bb6e-48ba-8245-0132ced8db15","ios":"levelo://app?vid=1deeeaee-bb6e-48ba-8245-0132ced8db15"},"vehicle_type_id":"4","last_reported":1685423199,"current_range_meters":10400,"station_id":"ce4bgrp2rcd13ifvqc9g","pricing_plan_id":"free"},{"bike_id":"abf17633-bc2a-4e25-8b22-8c22264e9126","system_id":"levelo_inurba_marseille","lat":43.305706,"lon":5.365654,"is_reserved":false,"is_disabled":false,"rental_uris":{"android":"levelo://app?vid=abf17633-bc2a-4e25-8b22-8c22264e9126","ios":"levelo://app?vid=abf17633-bc2a-4e25-8b22-8c22264e9126"},"vehicle_type_id":"4","last_reported":1685423199,"current_range_meters":24800,"station_id":"ce4bgs12rcd13ifvqcag","pricing_plan_id":"free"},{"bike_id":"63d2131f-8a77-4ba6-a3ba-21102844d528","system_id":"levelo_inurba_marseille","lat":43.317075,"lon":5.377367,"is_reserved":false,"is_disabled":false,"rental_uris":{"android":"levelo://app?vid=63d2131f-8a77-4ba6-a3ba-21102844d528","ios":"levelo://app?vid=63d2131f-8a77-4ba6-a3ba-21102844d528"},"vehicle_type_id":"4","last_reported":1685423199,"current_range_meters":10800,"station_id":"ce4bgth2rcd13ifvqch0","pricing_plan_id":"free"},{"bike_id":"82c640b9-6106-4a65-8e2c-30cf6d7471a6","system_id":"levelo_inurba_marseille","lat":43.31288,"lon":5.37958,"is_reserved":false,"is_disabled":false,"rental_uris":{"android":"levelo://app?vid=82c640b9-6106-4a65-8e2c-30cf6d7471a6","ios":"levelo://app?vid=82c640b9-6106-4a65-8e2c-30cf6d7471a6"},"vehicle_type_id":"4","last_reported":1685423199,"current_range_meters":1200,"station_id":"","pricing_plan_id":"free"},{"bike_id":"4bf80224-91c0-48aa-b6f5-8d197eb09b33","system_id":"levelo_inurba_marseille","lat":43.303046,"lon":5.368981,"is_reserved":false,"is_disabled":false,"rental_uris":{"android":"levelo://app?vid=4bf80224-91c0-48aa-b6f5-8d197eb09b33","ios":"levelo://app?vid=4bf80224-91c0-48aa-b6f5-8d197eb09b33"},"vehicle_type_id":"4","last_reported":1685423199,"current_range_meters":24000,"station_id":"ce4bgqh2rcd13ifvqc5g","pricing_plan_id":"free"},{"bike_id":"bd237881-2a5b-4ec2-b642-187426783ef7","system_id":"levelo_inurba_marseille","lat":43.303046,"lon":5.368981,"is_reserved":false,"is_disabled":false,"rental_uris":{"android":"levelo://app?vid=bd237881-2a5b-4ec2-b642-187426783ef7","ios":"levelo://app?vid=bd237881-2a5b-4ec2-b642-187426783ef7"},"vehicle_type_id":"4","last_reported":1685423199,"current_range_meters":7600,"station_id":"ce4bgqh2rcd13ifvqc5g","pricing_plan_id":"free"},{"bike_id":"9b2f3088-ae68-4117-801f-b18495918fce","system_id":"levelo_inurba_marseille","lat":43.303046,"lon":5.368981,"is_reserved":false,"is_disabled":false,"rental_uris":{"android":"levelo://app?vid=9b2f3088-ae68-4117-801f-b18495918fce","ios":"levelo://app?vid=9b2f3088-ae68-4117-801f-b18495918fce"},"vehicle_type_id":"4","last_reported":1685423199,"current_range_meters":7200,"station_id":"ce4bgqh2rcd13ifvqc5g","pricing_plan_id":"free"},{"bike_id":"37a85ad5-7654-4f7c-91cb-95c4eda6da41","system_id":"levelo_inurba_marseille","lat":43.32266,"lon":5.36784,"is_reserved":false,"is_disabled":false,"rental_uris":{"android":"levelo://app?vid=37a85ad5-7654-4f7c-91cb-95c4eda6da41","ios":"levelo://app?vid=37a85ad5-7654-4f7c-91cb-95c4eda6da41"},"vehicle_type_id":"4","last_reported":1685423199,"current_range_meters":0,"station_id":"","pricing_plan_id":"free"},{"bike_id":"f69a3f8a-adab-435a-ad98-4302ca7a3c35","system_id":"levelo_inurba_marseille","lat":43.32273,"lon":5.36784,"is_reserved":false,"is_disabled":false,"rental_uris":{"android":"levelo://app?vid=f69a3f8a-adab-435a-ad98-4302ca7a3c35","ios":"levelo://app?vid=f69a3f8a-adab-435a-ad98-4302ca7a3c35"},"vehicle_type_id":"4","last_reported":1685423199,"current_range_meters":23200,"station_id":"","pricing_plan_id":"free"},{"bike_id":"818de21c-4d6b-47ca-8c3a-cfc1f7a89b0d","system_id":"levelo_inurba_marseille","lat":43.315293,"lon":5.380349,"is_reserved":false,"is_disabled":false,"rental_uris":{"android":"levelo://app?vid=818de21c-4d6b-47ca-8c3a-cfc1f7a89b0d","ios":"levelo://app?vid=818de21c-4d6b-47ca-8c3a-cfc1f7a89b0d"},"vehicle_type_id":"4","last_reported":1685423199,"current_range_meters":14000,"station_id":"ce4bhsp2rcd13ifvqi50","pricing_plan_id":"free"},{"bike_id":"0df700ef-95e9-4009-86fb-9e0105df5dea","system_id":"levelo_inurba_marseille","lat":43.31564,"lon":5.3806,"is_reserved":false,"is_disabled":false,"rental_uris":{"android":"levelo://app?vid=0df700ef-95e9-4009-86fb-9e0105df5dea","ios":"levelo://app?vid=0df700ef-95e9-4009-86fb-9e0105df5dea"},"vehicle_type_id":"4","last_reported":1685423199,"current_range_meters":14800,"station_id":"","pricing_plan_id":"free"},{"bike_id":"644a6d2f-c03c-4f6f-94d8-56f39feff25e","system_id":"levelo_inurba_marseille","lat":43.30189,"lon":5.36622,"is_reserved":false,"is_disabled":false,"rental_uris":{"android":"levelo://app?vid=644a6d2f-c03c-4f6f-94d8-56f39feff25e","ios":"levelo://app?vid=644a6d2f-c03c-4f6f-94d8-56f39feff25e"},"vehicle_type_id":"4","last_reported":1685423199,"current_range_meters":20400,"station_id":"ce4bgrh2rcd13ifvqc8g","pricing_plan_id":"free"},{"bike_id":"1111b733-5927-4e74-bb36-f239bf67bc8f","system_id":"levelo_inurba_marseille","lat":43.30187,"lon":5.36622,"is_reserved":false,"is_disabled":false,"rental_uris":{"android":"levelo://app?vid=1111b733-5927-4e74-bb36-f239bf67bc8f","ios":"levelo://app?vid=1111b733-5927-4e74-bb36-f239bf67bc8f"},"vehicle_type_id":"4","last_reported":1685423199,"current_range_meters":30800,"station_id":"ce4bgrh2rcd13ifvqc8g","pricing_plan_id":"free"},{"bike_id":"b00380b5-bef1-4c53-ab07-e0bd57a26a0b","system_id":"levelo_inurba_marseille","lat":43.301939,"lon":5.366286,"is_reserved":false,"is_disabled":false,"rental_uris":{"android":"levelo://app?vid=b00380b5-bef1-4c53-ab07-e0bd57a26a0b","ios":"levelo://app?vid=b00380b5-bef1-4c53-ab07-e0bd57a26a0b"},"vehicle_type_id":"4","last_reported":1685423199,"current_range_meters":28400,"station_id":"ce4bgrh2rcd13ifvqc8g","pricing_plan_id":"free"},{"bike_id":"ea3c0c4d-f025-4a1e-9022-c5534cbce1b2","system_id":"levelo_inurba_marseille","lat":43.304606,"lon":5.379026,"is_reserved":false,"is_disabled":false,"rental_uris":{"android":"levelo://app?vid=ea3c0c4d-f025-4a1e-9022-c5534cbce1b2","ios":"levelo://app?vid=ea3c0c4d-f025-4a1e-9022-c5534cbce1b2"},"vehicle_type_id":"4","last_reported":1685423199,"current_range_meters":32000,"station_id":"ce4bgup2rcd13ifvqcn0","pricing_plan_id":"free"},{"bike_id":"c5882b07-3dde-48da-ab71-f19a3994c455","system_id":"levelo_inurba_marseille","lat":43.304606,"lon":5.379026,"is_reserved":false,"is_disabled":false,"rental_uris":{"android":"levelo://app?vid=c5882b07-3dde-48da-ab71-f19a3994c455","ios":"levelo://app?vid=c5882b07-3dde-48da-ab71-f19a3994c455"},"vehicle_type_id":"4","last_reported":1685423199,"current_range_meters":31600,"station_id":"ce4bgup2rcd13ifvqcn0","pricing_plan_id":"free"},{"bike_id":"966e5f5f-5752-43aa-b3d2-9ff467692143","system_id":"levelo_inurba_marseille","lat":43.304606,"lon":5.379026,"is_reserved":false,"is_disabled":false,"rental_uris":{"android":"levelo://app?vid=966e5f5f-5752-43aa-b3d2-9ff467692143","ios":"levelo://app?vid=966e5f5f-5752-43aa-b3d2-9ff467692143"},"vehicle_type_id":"4","last_reported":1685423199,"current_range_meters":31200,"station_id":"ce4bgup2rcd13ifvqcn0","pricing_plan_id":"free"},{"bike_id":"865a3afd-f32b-4c0a-be46-fccdc2cb108a","system_id":"levelo_inurba_marseille","lat":43.304606,"lon":5.379026,"is_reserved":false,"is_disabled":false,"rental_uris":{"android":"levelo://app?vid=865a3afd-f32b-4c0a-be46-fccdc2cb108a","ios":"levelo://app?vid=865a3afd-f32b-4c0a-be46-fccdc2cb108a"},"vehicle_type_id":"4","last_reported":1685423199,"current_range_meters":20400,"station_id":"ce4bgup2rcd13ifvqcn0","pricing_plan_id":"free"},{"bike_id":"2580328b-4608-45b2-a2f1-dba6f9c5b878","system_id":"levelo_inurba_marseille","lat":43.304606,"lon":5.379026,"is_reserved":false,"is_disabled":false,"rental_uris":{"android":"levelo://app?vid=2580328b-4608-45b2-a2f1-dba6f9c5b878","ios":"levelo://app?vid=2580328b-4608-45b2-a2f1-dba6f9c5b878"},"vehicle_type_id":"4","last_reported":1685423199,"current_range_meters":29600,"station_id":"ce4bgup2rcd13ifvqcn0","pricing_plan_id":"free"},{"bike_id":"04f613cd-c7fb-41d6-9f2b-4a34babc4e15","system_id":"levelo_inurba_marseille","lat":43.304606,"lon":5.379026,"is_reserved":false,"is_disabled":false,"rental_uris":{"android":"levelo://app?vid=04f613cd-c7fb-41d6-9f2b-4a34babc4e15","ios":"levelo://app?vid=04f613cd-c7fb-41d6-9f2b-4a34babc4e15"},"vehicle_type_id":"4","last_reported":1685423199,"current_range_meters":26000,"station_id":"ce4bgup2rcd13ifvqcn0","pricing_plan_id":"free"},{"bike_id":"160feec9-be8f-4a58-808f-bf784521ac24","system_id":"levelo_inurba_marseille","lat":43.304606,"lon":5.379026,"is_reserved":false,"is_disabled":false,"rental_uris":{"android":"levelo://app?vid=160feec9-be8f-4a58-808f-bf784521ac24","ios":"levelo://app?vid=160feec9-be8f-4a58-808f-bf784521ac24"},"vehicle_type_id":"4","last_reported":1685423199,"current_range_meters":21200,"station_id":"ce4bgup2rcd13ifvqcn0","pricing_plan_id":"free"},{"bike_id":"3df5316f-d4fd-4aba-aeca-cf3b936d2794","system_id":"levelo_inurba_marseille","lat":43.304606,"lon":5.379026,"is_reserved":false,"is_disabled":false,"rental_uris":{"android":"levelo://app?vid=3df5316f-d4fd-4aba-aeca-cf3b936d2794","ios":"levelo://app?vid=3df5316f-d4fd-4aba-aeca-cf3b936d2794"},"vehicle_type_id":"4","last_reported":1685423199,"current_range_meters":12000,"station_id":"ce4bgup2rcd13ifvqcn0","pricing_plan_id":"free"},{"bike_id":"f51d97b2-21c7-43c2-ac5e-0076cd60722b","system_id":"levelo_inurba_marseille","lat":43.30456,"lon":5.37899,"is_reserved":false,"is_disabled":false,"rental_uris":{"android":"levelo://app?vid=f51d97b2-21c7-43c2-ac5e-0076cd60722b","ios":"levelo://app?vid=f51d97b2-21c7-43c2-ac5e-0076cd60722b"},"vehicle_type_id":"4","last_reported":1685423199,"current_range_meters":24000,"station_id":"ce4bgup2rcd13ifvqcn0","pricing_plan_id":"free"},{"bike_id":"cac532cc-da03-4248-925b-93344d047f07","system_id":"levelo_inurba_marseille","lat":43.304606,"lon":5.379026,"is_reserved":false,"is_disabled":false,"rental_uris":{"android":"levelo://app?vid=cac532cc-da03-4248-925b-93344d047f07","ios":"levelo://app?vid=cac532cc-da03-4248-925b-93344d047f07"},"vehicle_type_id":"4","last_reported":1685423199,"current_range_meters":30400,"station_id":"ce4bgup2rcd13ifvqcn0","pricing_plan_id":"free"},{"bike_id":"0f2e5769-95d8-4536-9da7-b87a6ec16c77","system_id":"levelo_inurba_marseille","lat":43.304606,"lon":5.379026,"is_reserved":false,"is_disabled":false,"rental_uris":{"android":"levelo://app?vid=0f2e5769-95d8-4536-9da7-b87a6ec16c77","ios":"levelo://app?vid=0f2e5769-95d8-4536-9da7-b87a6ec16c77"},"vehicle_type_id":"4","last_reported":1685423199,"current_range_meters":25200,"station_id":"ce4bgup2rcd13ifvqcn0","pricing_plan_id":"free"},{"bike_id":"9492895c-ca46-4e97-b409-94bbbe3d8f24","system_id":"levelo_inurba_marseille","lat":43.304606,"lon":5.379026,"is_reserved":false,"is_disabled":false,"rental_uris":{"android":"levelo://app?vid=9492895c-ca46-4e97-b409-94bbbe3d8f24","ios":"levelo://app?vid=9492895c-ca46-4e97-b409-94bbbe3d8f24"},"vehicle_type_id":"4","last_reported":1685423199,"current_range_meters":27600,"station_id":"ce4bgup2rcd13ifvqcn0","pricing_plan_id":"free"},{"bike_id":"0adf82d1-9af2-4fca-9207-b9f2903ce64a","system_id":"levelo_inurba_marseille","lat":43.304606,"lon":5.379026,"is_reserved":false,"is_disabled":false,"rental_uris":{"android":"levelo://app?vid=0adf82d1-9af2-4fca-9207-b9f2903ce64a","ios":"levelo://app?vid=0adf82d1-9af2-4fca-9207-b9f2903ce64a"},"vehicle_type_id":"4","last_reported":1685423199,"current_range_meters":21600,"station_id":"ce4bgup2rcd13ifvqcn0","pricing_plan_id":"free"},{"bike_id":"e3a387d8-6a58-4e2e-a88a-709cf80558df","system_id":"levelo_inurba_marseille","lat":43.304606,"lon":5.379026,"is_reserved":false,"is_disabled":false,"rental_uris":{"android":"levelo://app?vid=e3a387d8-6a58-4e2e-a88a-709cf80558df","ios":"levelo://app?vid=e3a387d8-6a58-4e2e-a88a-709cf80558df"},"vehicle_type_id":"4","last_reported":1685423199,"current_range_meters":27200,"station_id":"ce4bgup2rcd13ifvqcn0","pricing_plan_id":"free"},{"bike_id":"eedc3d90-00d2-46fd-b68c-9e274d95fd8e","system_id":"levelo_inurba_marseille","lat":43.304606,"lon":5.379026,"is_reserved":false,"is_disabled":false,"rental_uris":{"android":"levelo://app?vid=eedc3d90-00d2-46fd-b68c-9e274d95fd8e","ios":"levelo://app?vid=eedc3d90-00d2-46fd-b68c-9e274d95fd8e"},"vehicle_type_id":"4","last_reported":1685423199,"current_range_meters":28400,"station_id":"ce4bgup2rcd13ifvqcn0","pricing_plan_id":"free"},{"bike_id":"c9f729ed-6d03-4192-a8aa-27264666391b","system_id":"levelo_inurba_marseille","lat":43.304606,"lon":5.379026,"is_reserved":false,"is_disabled":false,"rental_uris":{"android":"levelo://app?vid=c9f729ed-6d03-4192-a8aa-27264666391b","ios":"levelo://app?vid=c9f729ed-6d03-4192-a8aa-27264666391b"},"vehicle_type_id":"4","last_reported":1685423199,"current_range_meters":26400,"station_id":"ce4bgup2rcd13ifvqcn0","pricing_plan_id":"free"},{"bike_id":"d6589b90-a299-44aa-8199-77343a240db8","system_id":"levelo_inurba_marseille","lat":43.304606,"lon":5.379026,"is_reserved":false,"is_disabled":false,"rental_uris":{"android":"levelo://app?vid=d6589b90-a299-44aa-8199-77343a240db8","ios":"levelo://app?vid=d6589b90-a299-44aa-8199-77343a240db8"},"vehicle_type_id":"4","last_reported":1685423199,"current_range_meters":27200,"station_id":"ce4bgup2rcd13ifvqcn0","pricing_plan_id":"free"},{"bike_id":"9f995856-b3ca-4f4b-88d3-9845a4163b62","system_id":"levelo_inurba_marseille","lat":43.304606,"lon":5.379026,"is_reserved":false,"is_disabled":false,"rental_uris":{"android":"levelo://app?vid=9f995856-b3ca-4f4b-88d3-9845a4163b62","ios":"levelo://app?vid=9f995856-b3ca-4f4b-88d3-9845a4163b62"},"vehicle_type_id":"4","last_reported":1685423199,"current_range_meters":25200,"station_id":"ce4bgup2rcd13ifvqcn0","pricing_plan_id":"free"},{"bike_id":"3763e8ed-fba9-4bab-a7e4-7b7dd3374312","system_id":"levelo_inurba_marseille","lat":43.304606,"lon":5.379026,"is_reserved":false,"is_disabled":false,"rental_uris":{"android":"levelo://app?vid=3763e8ed-fba9-4bab-a7e4-7b7dd3374312","ios":"levelo://app?vid=3763e8ed-fba9-4bab-a7e4-7b7dd3374312"},"vehicle_type_id":"4","last_reported":1685423199,"current_range_meters":31600,"station_id":"ce4bgup2rcd13ifvqcn0","pricing_plan_id":"free"},{"bike_id":"184a2174-ca87-476a-8620-9af9ad4cbd7e","system_id":"levelo_inurba_marseille","lat":43.304606,"lon":5.379026,"is_reserved":false,"is_disabled":false,"rental_uris":{"android":"levelo://app?vid=184a2174-ca87-476a-8620-9af9ad4cbd7e","ios":"levelo://app?vid=184a2174-ca87-476a-8620-9af9ad4cbd7e"},"vehicle_type_id":"4","last_reported":1685423199,"current_range_meters":21600,"station_id":"ce4bgup2rcd13ifvqcn0","pricing_plan_id":"free"},{"bike_id":"2b6f91cb-75c4-448a-8ab0-48786da7c457","system_id":"levelo_inurba_marseille","lat":43.304606,"lon":5.379026,"is_reserved":false,"is_disabled":false,"rental_uris":{"android":"levelo://app?vid=2b6f91cb-75c4-448a-8ab0-48786da7c457","ios":"levelo://app?vid=2b6f91cb-75c4-448a-8ab0-48786da7c457"},"vehicle_type_id":"4","last_reported":1685423199,"current_range_meters":0,"station_id":"ce4bgup2rcd13ifvqcn0","pricing_plan_id":"free"},{"bike_id":"2c2542f4-fd48-4c90-87fa-85c2914c8749","system_id":"levelo_inurba_marseille","lat":43.304606,"lon":5.379026,"is_reserved":false,"is_disabled":false,"rental_uris":{"android":"levelo://app?vid=2c2542f4-fd48-4c90-87fa-85c2914c8749","ios":"levelo://app?vid=2c2542f4-fd48-4c90-87fa-85c2914c8749"},"vehicle_type_id":"4","last_reported":1685423199,"current_range_meters":17600,"station_id":"ce4bgup2rcd13ifvqcn0","pricing_plan_id":"free"},{"bike_id":"0121f853-3bb5-4295-bf8e-3bd202351900","system_id":"levelo_inurba_marseille","lat":43.304606,"lon":5.379026,"is_reserved":false,"is_disabled":false,"rental_uris":{"android":"levelo://app?vid=0121f853-3bb5-4295-bf8e-3bd202351900","ios":"levelo://app?vid=0121f853-3bb5-4295-bf8e-3bd202351900"},"vehicle_type_id":"4","last_reported":1685423199,"current_range_meters":28400,"station_id":"ce4bgup2rcd13ifvqcn0","pricing_plan_id":"free"},{"bike_id":"d84c3dbf-b9ed-42f2-a678-ec2a10713f3e","system_id":"levelo_inurba_marseille","lat":43.304606,"lon":5.379026,"is_reserved":false,"is_disabled":false,"rental_uris":{"android":"levelo://app?vid=d84c3dbf-b9ed-42f2-a678-ec2a10713f3e","ios":"levelo://app?vid=d84c3dbf-b9ed-42f2-a678-ec2a10713f3e"},"vehicle_type_id":"4","last_reported":1685423199,"current_range_meters":31600,"station_id":"ce4bgup2rcd13ifvqcn0","pricing_plan_id":"free"},{"bike_id":"b8a61102-3a36-4c9c-bd62-11fc53679364","system_id":"levelo_inurba_marseille","lat":43.304606,"lon":5.379026,"is_reserved":false,"is_disabled":false,"rental_uris":{"android":"levelo://app?vid=b8a61102-3a36-4c9c-bd62-11fc53679364","ios":"levelo://app?vid=b8a61102-3a36-4c9c-bd62-11fc53679364"},"vehicle_type_id":"4","last_reported":1685423199,"current_range_meters":8400,"station_id":"ce4bgup2rcd13ifvqcn0","pricing_plan_id":"free"},{"bike_id":"d11da2d4-50ab-475d-a497-999f76f85bd5","system_id":"levelo_inurba_marseille","lat":43.31642,"lon":5.38346,"is_reserved":false,"is_disabled":false,"rental_uris":{"android":"levelo://app?vid=d11da2d4-50ab-475d-a497-999f76f85bd5","ios":"levelo://app?vid=d11da2d4-50ab-475d-a497-999f76f85bd5"},"vehicle_type_id":"4","last_reported":1685423199,"current_range_meters":19200,"station_id":"","pricing_plan_id":"free"},{"bike_id":"c400e462-a4de-4542-ac86-b99081db2f1e","system_id":"levelo_inurba_marseille","lat":43.31638,"lon":5.38355,"is_reserved":false,"is_disabled":false,"rental_uris":{"android":"levelo://app?vid=c400e462-a4de-4542-ac86-b99081db2f1e","ios":"levelo://app?vid=c400e462-a4de-4542-ac86-b99081db2f1e"},"vehicle_type_id":"4","last_reported":1685423199,"current_range_meters":6800,"station_id":"","pricing_plan_id":"free"},{"bike_id":"c41492b7-eec8-43e4-b836-cee2e133a0fd","system_id":"levelo_inurba_marseille","lat":43.319935,"lon":5.381699,"is_reserved":false,"is_disabled":false,"rental_uris":{"android":"levelo://app?vid=c41492b7-eec8-43e4-b836-cee2e133a0fd","ios":"levelo://app?vid=c41492b7-eec8-43e4-b836-cee2e133a0fd"},"vehicle_type_id":"4","last_reported":1685423199,"current_range_meters":23200,"station_id":"ce4bhr12rcd13ifvqhpg","pricing_plan_id":"free"},{"bike_id":"ac29a3e2-3de3-4ef9-a505-87d7fa405400","system_id":"levelo_inurba_marseille","lat":43.319935,"lon":5.381699,"is_reserved":false,"is_disabled":false,"rental_uris":{"android":"levelo://app?vid=ac29a3e2-3de3-4ef9-a505-87d7fa405400","ios":"levelo://app?vid=ac29a3e2-3de3-4ef9-a505-87d7fa405400"},"vehicle_type_id":"4","last_reported":1685423199,"current_range_meters":4800,"station_id":"ce4bhr12rcd13ifvqhpg","pricing_plan_id":"free"},{"bike_id":"2b79add7-fc91-4aff-9cc8-04f933dd2ada","system_id":"levelo_inurba_marseille","lat":43.313571,"lon":5.384829,"is_reserved":false,"is_disabled":false,"rental_uris":{"android":"levelo://app?vid=2b79add7-fc91-4aff-9cc8-04f933dd2ada","ios":"levelo://app?vid=2b79add7-fc91-4aff-9cc8-04f933dd2ada"},"vehicle_type_id":"4","last_reported":1685423199,"current_range_meters":29600,"station_id":"ce4bgt92rcd13ifvqcf0","pricing_plan_id":"free"},{"bike_id":"7c74ac4a-0a31-4a69-9cbf-1c1ee3eacc98","system_id":"levelo_inurba_marseille","lat":43.29931,"lon":5.36552,"is_reserved":false,"is_disabled":false,"rental_uris":{"android":"levelo://app?vid=7c74ac4a-0a31-4a69-9cbf-1c1ee3eacc98","ios":"levelo://app?vid=7c74ac4a-0a31-4a69-9cbf-1c1ee3eacc98"},"vehicle_type_id":"4","last_reported":1685423199,"current_range_meters":18800,"station_id":"ce4bgm92rcd13ifvqbr0","pricing_plan_id":"free"},{"bike_id":"100e372d-c41d-418d-8125-d395f50ee487","system_id":"levelo_inurba_marseille","lat":43.298433,"lon":5.362774,"is_reserved":false,"is_disabled":false,"rental_uris":{"android":"levelo://app?vid=100e372d-c41d-418d-8125-d395f50ee487","ios":"levelo://app?vid=100e372d-c41d-418d-8125-d395f50ee487"},"vehicle_type_id":"4","last_reported":1685423199,"current_range_meters":30000,"station_id":"ce4bgpp2rcd13ifvqc3g","pricing_plan_id":"free"},{"bike_id":"0b5c8faa-ad42-48c7-a8b4-f63882c57f4b","system_id":"levelo_inurba_marseille","lat":43.305364,"lon":5.384119,"is_reserved":false,"is_disabled":false,"rental_uris":{"android":"levelo://app?vid=0b5c8faa-ad42-48c7-a8b4-f63882c57f4b","ios":"levelo://app?vid=0b5c8faa-ad42-48c7-a8b4-f63882c57f4b"},"vehicle_type_id":"4","last_reported":1685423199,"current_range_meters":19200,"station_id":"ce4bgg92rcd13ifvqb30","pricing_plan_id":"free"},{"bike_id":"1676f26c-60e2-4890-8fde-f7c2f2a29c3a","system_id":"levelo_inurba_marseille","lat":43.305364,"lon":5.384119,"is_reserved":false,"is_disabled":false,"rental_uris":{"android":"levelo://app?vid=1676f26c-60e2-4890-8fde-f7c2f2a29c3a","ios":"levelo://app?vid=1676f26c-60e2-4890-8fde-f7c2f2a29c3a"},"vehicle_type_id":"4","last_reported":1685423199,"current_range_meters":31200,"station_id":"ce4bgg92rcd13ifvqb30","pricing_plan_id":"free"},{"bike_id":"1c8b00ef-c5ee-47f0-8102-cef72177a6c4","system_id":"levelo_inurba_marseille","lat":43.30545,"lon":5.38438,"is_reserved":false,"is_disabled":false,"rental_uris":{"android":"levelo://app?vid=1c8b00ef-c5ee-47f0-8102-cef72177a6c4","ios":"levelo://app?vid=1c8b00ef-c5ee-47f0-8102-cef72177a6c4"},"vehicle_type_id":"4","last_reported":1685423199,"current_range_meters":31200,"station_id":"ce4bgg92rcd13ifvqb30","pricing_plan_id":"free"},{"bike_id":"61784409-cab7-4b54-907f-173ab44f1b5c","system_id":"levelo_inurba_marseille","lat":43.305364,"lon":5.384119,"is_reserved":false,"is_disabled":false,"rental_uris":{"android":"levelo://app?vid=61784409-cab7-4b54-907f-173ab44f1b5c","ios":"levelo://app?vid=61784409-cab7-4b54-907f-173ab44f1b5c"},"vehicle_type_id":"4","last_reported":1685423199,"current_range_meters":31200,"station_id":"ce4bgg92rcd13ifvqb30","pricing_plan_id":"free"},{"bike_id":"3c2b22b1-05cc-4d62-aa6b-3c3dd6da8baa","system_id":"levelo_inurba_marseille","lat":43.311722,"lon":5.387247,"is_reserved":false,"is_disabled":false,"rental_uris":{"android":"levelo://app?vid=3c2b22b1-05cc-4d62-aa6b-3c3dd6da8baa","ios":"levelo://app?vid=3c2b22b1-05cc-4d62-aa6b-3c3dd6da8baa"},"vehicle_type_id":"4","last_reported":1685423199,"current_range_meters":29600,"station_id":"ce4bgv12rcd13ifvqcp0","pricing_plan_id":"free"},{"bike_id":"a9065ac6-2a4c-4f0f-a1dc-8c7ed901fb9b","system_id":"levelo_inurba_marseille","lat":43.31179,"lon":5.38717,"is_reserved":false,"is_disabled":false,"rental_uris":{"android":"levelo://app?vid=a9065ac6-2a4c-4f0f-a1dc-8c7ed901fb9b","ios":"levelo://app?vid=a9065ac6-2a4c-4f0f-a1dc-8c7ed901fb9b"},"vehicle_type_id":"4","last_reported":1685423199,"current_range_meters":19200,"station_id":"ce4bgv12rcd13ifvqcp0","pricing_plan_id":"free"},{"bike_id":"daad698c-4b02-4af3-9479-c769d4a006f9","system_id":"levelo_inurba_marseille","lat":43.31181,"lon":5.38718,"is_reserved":false,"is_disabled":false,"rental_uris":{"android":"levelo://app?vid=daad698c-4b02-4af3-9479-c769d4a006f9","ios":"levelo://app?vid=daad698c-4b02-4af3-9479-c769d4a006f9"},"vehicle_type_id":"4","last_reported":1685423199,"current_range_meters":22400,"station_id":"ce4bgv12rcd13ifvqcp0","pricing_plan_id":"free"},{"bike_id":"df3d6a81-7580-4937-8c41-ddda94ee5a95","system_id":"levelo_inurba_marseille","lat":43.311722,"lon":5.387247,"is_reserved":false,"is_disabled":false,"rental_uris":{"android":"levelo://app?vid=df3d6a81-7580-4937-8c41-ddda94ee5a95","ios":"levelo://app?vid=df3d6a81-7580-4937-8c41-ddda94ee5a95"},"vehicle_type_id":"4","last_reported":1685423199,"current_range_meters":27200,"station_id":"ce4bgv12rcd13ifvqcp0","pricing_plan_id":"free"},{"bike_id":"897c2d90-d543-43ff-b3a4-dceaea051031","system_id":"levelo_inurba_marseille","lat":43.297794,"lon":5.370888,"is_reserved":false,"is_disabled":false,"rental_uris":{"android":"levelo://app?vid=897c2d90-d543-43ff-b3a4-dceaea051031","ios":"levelo://app?vid=897c2d90-d543-43ff-b3a4-dceaea051031"},"vehicle_type_id":"4","last_reported":1685423199,"current_range_meters":24000,"station_id":"ce4bgop2rcd13ifvqc1g","pricing_plan_id":"free"},{"bike_id":"936f493c-af89-4fd4-ae09-87610ca96257","system_id":"levelo_inurba_marseille","lat":43.297794,"lon":5.370888,"is_reserved":false,"is_disabled":false,"rental_uris":{"android":"levelo://app?vid=936f493c-af89-4fd4-ae09-87610ca96257","ios":"levelo://app?vid=936f493c-af89-4fd4-ae09-87610ca96257"},"vehicle_type_id":"4","last_reported":1685423199,"current_range_meters":29200,"station_id":"ce4bgop2rcd13ifvqc1g","pricing_plan_id":"free"},{"bike_id":"27ad1239-aa99-4ee4-b4a5-e874a32b80d0","system_id":"levelo_inurba_marseille","lat":43.328371,"lon":5.366909,"is_reserved":false,"is_disabled":false,"rental_uris":{"android":"levelo://app?vid=27ad1239-aa99-4ee4-b4a5-e874a32b80d0","ios":"levelo://app?vid=27ad1239-aa99-4ee4-b4a5-e874a32b80d0"},"vehicle_type_id":"4","last_reported":1685423199,"current_range_meters":29600,"station_id":"ce4bhs92rcd13ifvqi0g","pricing_plan_id":"free"},{"bike_id":"327db4ca-0e48-41fa-a231-ded969cf6b8b","system_id":"levelo_inurba_marseille","lat":43.328371,"lon":5.366909,"is_reserved":false,"is_disabled":false,"rental_uris":{"android":"levelo://app?vid=327db4ca-0e48-41fa-a231-ded969cf6b8b","ios":"levelo://app?vid=327db4ca-0e48-41fa-a231-ded969cf6b8b"},"vehicle_type_id":"4","last_reported":1685423199,"current_range_meters":26000,"station_id":"ce4bhs92rcd13ifvqi0g","pricing_plan_id":"free"},{"bike_id":"b4a10882-5bd8-431d-9407-df26a94d9353","system_id":"levelo_inurba_marseille","lat":43.29713,"lon":5.36609,"is_reserved":false,"is_disabled":false,"rental_uris":{"android":"levelo://app?vid=b4a10882-5bd8-431d-9407-df26a94d9353","ios":"levelo://app?vid=b4a10882-5bd8-431d-9407-df26a94d9353"},"vehicle_type_id":"4","last_reported":1685423199,"current_range_meters":6000,"station_id":"","pricing_plan_id":"free"},{"bike_id":"bfcee4c7-8dc0-4f3e-a9f5-26101145ee75","system_id":"levelo_inurba_marseille","lat":43.29713,"lon":5.36606,"is_reserved":false,"is_disabled":false,"rental_uris":{"android":"levelo://app?vid=bfcee4c7-8dc0-4f3e-a9f5-26101145ee75","ios":"levelo://app?vid=bfcee4c7-8dc0-4f3e-a9f5-26101145ee75"},"vehicle_type_id":"4","last_reported":1685423199,"current_range_meters":3200,"station_id":"","pricing_plan_id":"free"},{"bike_id":"5fda6268-042e-46ec-ba1f-4f167e8e944a","system_id":"levelo_inurba_marseille","lat":43.2971,"lon":5.36611,"is_reserved":false,"is_disabled":false,"rental_uris":{"android":"levelo://app?vid=5fda6268-042e-46ec-ba1f-4f167e8e944a","ios":"levelo://app?vid=5fda6268-042e-46ec-ba1f-4f167e8e944a"},"vehicle_type_id":"4","last_reported":1685423199,"current_range_meters":13600,"station_id":"","pricing_plan_id":"free"},{"bike_id":"fe12bdb2-68cc-4400-a34a-8480e116a235","system_id":"levelo_inurba_marseille","lat":43.29793,"lon":5.37694,"is_reserved":false,"is_disabled":false,"rental_uris":{"android":"levelo://app?vid=fe12bdb2-68cc-4400-a34a-8480e116a235","ios":"levelo://app?vid=fe12bdb2-68cc-4400-a34a-8480e116a235"},"vehicle_type_id":"4","last_reported":1685423199,"current_range_meters":0,"station_id":"","pricing_plan_id":"free"},{"bike_id":"12efb2f3-261a-439f-ae85-27a4bbe31e28","system_id":"levelo_inurba_marseille","lat":43.299028,"lon":5.381509,"is_reserved":false,"is_disabled":false,"rental_uris":{"android":"levelo://app?vid=12efb2f3-261a-439f-ae85-27a4bbe31e28","ios":"levelo://app?vid=12efb2f3-261a-439f-ae85-27a4bbe31e28"},"vehicle_type_id":"4","last_reported":1685423199,"current_range_meters":30400,"station_id":"ce4bgj12rcd13ifvqbc0","pricing_plan_id":"free"},{"bike_id":"1d576154-6c23-42c8-b718-de992e15d29a","system_id":"levelo_inurba_marseille","lat":43.296921,"lon":5.376579,"is_reserved":false,"is_disabled":false,"rental_uris":{"android":"levelo://app?vid=1d576154-6c23-42c8-b718-de992e15d29a","ios":"levelo://app?vid=1d576154-6c23-42c8-b718-de992e15d29a"},"vehicle_type_id":"4","last_reported":1685423199,"current_range_meters":30000,"station_id":"ce4bgkh2rcd13ifvqbl0","pricing_plan_id":"free"},{"bike_id":"a823a05b-2c7b-4034-9a77-0adbd6a332a3","system_id":"levelo_inurba_marseille","lat":43.299028,"lon":5.381509,"is_reserved":false,"is_disabled":false,"rental_uris":{"android":"levelo://app?vid=a823a05b-2c7b-4034-9a77-0adbd6a332a3","ios":"levelo://app?vid=a823a05b-2c7b-4034-9a77-0adbd6a332a3"},"vehicle_type_id":"4","last_reported":1685423199,"current_range_meters":27200,"station_id":"ce4bgj12rcd13ifvqbc0","pricing_plan_id":"free"},{"bike_id":"0174183e-4771-421a-9d9d-5abe53f5a7b1","system_id":"levelo_inurba_marseille","lat":43.296921,"lon":5.376579,"is_reserved":false,"is_disabled":false,"rental_uris":{"android":"levelo://app?vid=0174183e-4771-421a-9d9d-5abe53f5a7b1","ios":"levelo://app?vid=0174183e-4771-421a-9d9d-5abe53f5a7b1"},"vehicle_type_id":"4","last_reported":1685423199,"current_range_meters":30000,"station_id":"ce4bgkh2rcd13ifvqbl0","pricing_plan_id":"free"},{"bike_id":"315920c6-7971-40ad-b598-9396589b9153","system_id":"levelo_inurba_marseille","lat":43.309589,"lon":5.390258,"is_reserved":false,"is_disabled":false,"rental_uris":{"android":"levelo://app?vid=315920c6-7971-40ad-b598-9396589b9153","ios":"levelo://app?vid=315920c6-7971-40ad-b598-9396589b9153"},"vehicle_type_id":"4","last_reported":1685423199,"current_range_meters":12400,"station_id":"ce4bgup2rcd13ifvqco0","pricing_plan_id":"free"},{"bike_id":"db9d0b8c-a66e-4144-a40d-f2a5f8a93f17","system_id":"levelo_inurba_marseille","lat":43.30004,"lon":5.3836,"is_reserved":false,"is_disabled":false,"rental_uris":{"android":"levelo://app?vid=db9d0b8c-a66e-4144-a40d-f2a5f8a93f17","ios":"levelo://app?vid=db9d0b8c-a66e-4144-a40d-f2a5f8a93f17"},"vehicle_type_id":"4","last_reported":1685423199,"current_range_meters":3600,"station_id":"","pricing_plan_id":"free"},{"bike_id":"9af2dd6a-b02e-4e53-89ab-a81472c23850","system_id":"levelo_inurba_marseille","lat":43.2957,"lon":5.37514,"is_reserved":false,"is_disabled":false,"rental_uris":{"android":"levelo://app?vid=9af2dd6a-b02e-4e53-89ab-a81472c23850","ios":"levelo://app?vid=9af2dd6a-b02e-4e53-89ab-a81472c23850"},"vehicle_type_id":"4","last_reported":1685423199,"current_range_meters":26800,"station_id":"ce4bgh92rcd13ifvqb50","pricing_plan_id":"free"},{"bike_id":"e44daec3-c9be-49fb-ac18-4009dd87b1ba","system_id":"levelo_inurba_marseille","lat":43.29566,"lon":5.37518,"is_reserved":false,"is_disabled":false,"rental_uris":{"android":"levelo://app?vid=e44daec3-c9be-49fb-ac18-4009dd87b1ba","ios":"levelo://app?vid=e44daec3-c9be-49fb-ac18-4009dd87b1ba"},"vehicle_type_id":"4","last_reported":1685423199,"current_range_meters":16400,"station_id":"ce4bgh92rcd13ifvqb50","pricing_plan_id":"free"},{"bike_id":"cc52b973-92c4-4ec5-ac31-d0e5c6c37dfa","system_id":"levelo_inurba_marseille","lat":43.298037,"lon":5.381066,"is_reserved":false,"is_disabled":false,"rental_uris":{"android":"levelo://app?vid=cc52b973-92c4-4ec5-ac31-d0e5c6c37dfa","ios":"levelo://app?vid=cc52b973-92c4-4ec5-ac31-d0e5c6c37dfa"},"vehicle_type_id":"4","last_reported":1685423199,"current_range_meters":0,"station_id":"ce4bgip2rcd13ifvqbb0","pricing_plan_id":"free"},{"bike_id":"1855c099-2322-4761-b455-09ab2041749b","system_id":"levelo_inurba_marseille","lat":43.298037,"lon":5.381066,"is_reserved":false,"is_disabled":false,"rental_uris":{"android":"levelo://app?vid=1855c099-2322-4761-b455-09ab2041749b","ios":"levelo://app?vid=1855c099-2322-4761-b455-09ab2041749b"},"vehicle_type_id":"4","last_reported":1685423199,"current_range_meters":21600,"station_id":"ce4bgip2rcd13ifvqbb0","pricing_plan_id":"free"},{"bike_id":"e0e2b74f-a577-4f25-9dc7-02f2823a0e77","system_id":"levelo_inurba_marseille","lat":43.29526,"lon":5.3751,"is_reserved":false,"is_disabled":false,"rental_uris":{"android":"levelo://app?vid=e0e2b74f-a577-4f25-9dc7-02f2823a0e77","ios":"levelo://app?vid=e0e2b74f-a577-4f25-9dc7-02f2823a0e77"},"vehicle_type_id":"4","last_reported":1685423199,"current_range_meters":30800,"station_id":"ce4bgkp2rcd13ifvqbmg","pricing_plan_id":"free"},{"bike_id":"b8c2ebf6-7c18-4b16-8437-f09ba8f7bc55","system_id":"levelo_inurba_marseille","lat":43.295279,"lon":5.375048,"is_reserved":false,"is_disabled":false,"rental_uris":{"android":"levelo://app?vid=b8c2ebf6-7c18-4b16-8437-f09ba8f7bc55","ios":"levelo://app?vid=b8c2ebf6-7c18-4b16-8437-f09ba8f7bc55"},"vehicle_type_id":"4","last_reported":1685423199,"current_range_meters":28400,"station_id":"ce4bgkp2rcd13ifvqbmg","pricing_plan_id":"free"},{"bike_id":"6345f779-7590-4ebf-81b7-14a3c3a95e37","system_id":"levelo_inurba_marseille","lat":43.32367,"lon":5.388836,"is_reserved":false,"is_disabled":false,"rental_uris":{"android":"levelo://app?vid=6345f779-7590-4ebf-81b7-14a3c3a95e37","ios":"levelo://app?vid=6345f779-7590-4ebf-81b7-14a3c3a95e37"},"vehicle_type_id":"4","last_reported":1685423199,"current_range_meters":2800,"station_id":"ce4bhqp2rcd13ifvqhog","pricing_plan_id":"free"},{"bike_id":"37477c75-57e7-4584-9359-11578fa535e4","system_id":"levelo_inurba_marseille","lat":43.32367,"lon":5.388836,"is_reserved":false,"is_disabled":false,"rental_uris":{"android":"levelo://app?vid=37477c75-57e7-4584-9359-11578fa535e4","ios":"levelo://app?vid=37477c75-57e7-4584-9359-11578fa535e4"},"vehicle_type_id":"4","last_reported":1685423199,"current_range_meters":26000,"station_id":"ce4bhqp2rcd13ifvqhog","pricing_plan_id":"free"},{"bike_id":"00c9b202-b5b6-4f69-8084-db1f9466ee79","system_id":"levelo_inurba_marseille","lat":43.32367,"lon":5.388836,"is_reserved":false,"is_disabled":false,"rental_uris":{"android":"levelo://app?vid=00c9b202-b5b6-4f69-8084-db1f9466ee79","ios":"levelo://app?vid=00c9b202-b5b6-4f69-8084-db1f9466ee79"},"vehicle_type_id":"4","last_reported":1685423199,"current_range_meters":22800,"station_id":"ce4bhqp2rcd13ifvqhog","pricing_plan_id":"free"},{"bike_id":"3361876b-5ac1-40cb-960f-347ce30a1e80","system_id":"levelo_inurba_marseille","lat":43.3236,"lon":5.38884,"is_reserved":false,"is_disabled":false,"rental_uris":{"android":"levelo://app?vid=3361876b-5ac1-40cb-960f-347ce30a1e80","ios":"levelo://app?vid=3361876b-5ac1-40cb-960f-347ce30a1e80"},"vehicle_type_id":"4","last_reported":1685423199,"current_range_meters":18800,"station_id":"ce4bhqp2rcd13ifvqhog","pricing_plan_id":"free"},{"bike_id":"1c37c083-39b8-4242-99c8-3430fc05b14b","system_id":"levelo_inurba_marseille","lat":43.32367,"lon":5.388836,"is_reserved":false,"is_disabled":false,"rental_uris":{"android":"levelo://app?vid=1c37c083-39b8-4242-99c8-3430fc05b14b","ios":"levelo://app?vid=1c37c083-39b8-4242-99c8-3430fc05b14b"},"vehicle_type_id":"4","last_reported":1685423199,"current_range_meters":19200,"station_id":"ce4bhqp2rcd13ifvqhog","pricing_plan_id":"free"},{"bike_id":"950f3a0b-8466-40bf-8f81-5f5cf1a96632","system_id":"levelo_inurba_marseille","lat":43.32367,"lon":5.388836,"is_reserved":false,"is_disabled":false,"rental_uris":{"android":"levelo://app?vid=950f3a0b-8466-40bf-8f81-5f5cf1a96632","ios":"levelo://app?vid=950f3a0b-8466-40bf-8f81-5f5cf1a96632"},"vehicle_type_id":"4","last_reported":1685423199,"current_range_meters":6000,"station_id":"ce4bhqp2rcd13ifvqhog","pricing_plan_id":"free"},{"bike_id":"d1ab7cdd-c6a3-4e43-a50c-3d50e564a673","system_id":"levelo_inurba_marseille","lat":43.32367,"lon":5.388836,"is_reserved":false,"is_disabled":false,"rental_uris":{"android":"levelo://app?vid=d1ab7cdd-c6a3-4e43-a50c-3d50e564a673","ios":"levelo://app?vid=d1ab7cdd-c6a3-4e43-a50c-3d50e564a673"},"vehicle_type_id":"4","last_reported":1685423199,"current_range_meters":12400,"station_id":"ce4bhqp2rcd13ifvqhog","pricing_plan_id":"free"},{"bike_id":"489d5aae-e056-4ed8-9fdf-fafd552f0c27","system_id":"levelo_inurba_marseille","lat":43.29366,"lon":5.37449,"is_reserved":false,"is_disabled":false,"rental_uris":{"android":"levelo://app?vid=489d5aae-e056-4ed8-9fdf-fafd552f0c27","ios":"levelo://app?vid=489d5aae-e056-4ed8-9fdf-fafd552f0c27"},"vehicle_type_id":"4","last_reported":1685423199,"current_range_meters":16800,"station_id":"","pricing_plan_id":"free"},{"bike_id":"10fc6c4f-c809-4615-8bb7-698a5347eac2","system_id":"levelo_inurba_marseille","lat":43.293249,"lon":5.371578,"is_reserved":false,"is_disabled":false,"rental_uris":{"android":"levelo://app?vid=10fc6c4f-c809-4615-8bb7-698a5347eac2","ios":"levelo://app?vid=10fc6c4f-c809-4615-8bb7-698a5347eac2"},"vehicle_type_id":"4","last_reported":1685423199,"current_range_meters":2000,"station_id":"ce4bgh92rcd13ifvqb40","pricing_plan_id":"free"},{"bike_id":"8c5d21df-f9e9-42fb-9fb5-9331fc93f125","system_id":"levelo_inurba_marseille","lat":43.2931,"lon":5.37178,"is_reserved":false,"is_disabled":false,"rental_uris":{"android":"levelo://app?vid=8c5d21df-f9e9-42fb-9fb5-9331fc93f125","ios":"levelo://app?vid=8c5d21df-f9e9-42fb-9fb5-9331fc93f125"},"vehicle_type_id":"4","last_reported":1685423199,"current_range_meters":29200,"station_id":"ce4bgh92rcd13ifvqb40","pricing_plan_id":"free"},{"bike_id":"71cef9a6-6d2d-4bda-904a-ff1b6153559a","system_id":"levelo_inurba_marseille","lat":43.293042,"lon":5.371518,"is_reserved":false,"is_disabled":false,"rental_uris":{"android":"levelo://app?vid=71cef9a6-6d2d-4bda-904a-ff1b6153559a","ios":"levelo://app?vid=71cef9a6-6d2d-4bda-904a-ff1b6153559a"},"vehicle_type_id":"4","last_reported":1685423199,"current_range_meters":25200,"station_id":"","pricing_plan_id":"free"},{"bike_id":"8d9380e2-251a-4be8-81d4-0367566e34d4","system_id":"levelo_inurba_marseille","lat":43.293249,"lon":5.371578,"is_reserved":false,"is_disabled":false,"rental_uris":{"android":"levelo://app?vid=8d9380e2-251a-4be8-81d4-0367566e34d4","ios":"levelo://app?vid=8d9380e2-251a-4be8-81d4-0367566e34d4"},"vehicle_type_id":"4","last_reported":1685423199,"current_range_meters":31600,"station_id":"ce4bgh92rcd13ifvqb40","pricing_plan_id":"free"},{"bike_id":"41ae1aef-d77e-4ee6-a123-95cbe9b6cf65","system_id":"levelo_inurba_marseille","lat":43.29305,"lon":5.3718,"is_reserved":false,"is_disabled":false,"rental_uris":{"android":"levelo://app?vid=41ae1aef-d77e-4ee6-a123-95cbe9b6cf65","ios":"levelo://app?vid=41ae1aef-d77e-4ee6-a123-95cbe9b6cf65"},"vehicle_type_id":"4","last_reported":1685423199,"current_range_meters":28800,"station_id":"","pricing_plan_id":"free"},{"bike_id":"0bfcad9d-7568-43c1-879c-c92e58cfe969","system_id":"levelo_inurba_marseille","lat":43.29305,"lon":5.37186,"is_reserved":false,"is_disabled":false,"rental_uris":{"android":"levelo://app?vid=0bfcad9d-7568-43c1-879c-c92e58cfe969","ios":"levelo://app?vid=0bfcad9d-7568-43c1-879c-c92e58cfe969"},"vehicle_type_id":"4","last_reported":1685423199,"current_range_meters":30800,"station_id":"","pricing_plan_id":"free"},{"bike_id":"df8af905-86c1-4587-913f-e0b9b9321406","system_id":"levelo_inurba_marseille","lat":43.29303,"lon":5.37177,"is_reserved":false,"is_disabled":false,"rental_uris":{"android":"levelo://app?vid=df8af905-86c1-4587-913f-e0b9b9321406","ios":"levelo://app?vid=df8af905-86c1-4587-913f-e0b9b9321406"},"vehicle_type_id":"4","last_reported":1685423199,"current_range_meters":31200,"station_id":"","pricing_plan_id":"free"},{"bike_id":"489081b3-0ef0-4348-8997-2455b6090433","system_id":"levelo_inurba_marseille","lat":43.29301,"lon":5.37186,"is_reserved":false,"is_disabled":false,"rental_uris":{"android":"levelo://app?vid=489081b3-0ef0-4348-8997-2455b6090433","ios":"levelo://app?vid=489081b3-0ef0-4348-8997-2455b6090433"},"vehicle_type_id":"4","last_reported":1685423199,"current_range_meters":31200,"station_id":"","pricing_plan_id":"free"},{"bike_id":"45ee4cd9-0b28-4061-8e21-f3f9bcacc643","system_id":"levelo_inurba_marseille","lat":43.293009,"lon":5.374584,"is_reserved":false,"is_disabled":false,"rental_uris":{"android":"levelo://app?vid=45ee4cd9-0b28-4061-8e21-f3f9bcacc643","ios":"levelo://app?vid=45ee4cd9-0b28-4061-8e21-f3f9bcacc643"},"vehicle_type_id":"4","last_reported":1685423199,"current_range_meters":30000,"station_id":"ce4bgi12rcd13ifvqb70","pricing_plan_id":"free"},{"bike_id":"0c5f8a05-3db5-4a1f-88d4-5612543f0bcb","system_id":"levelo_inurba_marseille","lat":43.293009,"lon":5.374584,"is_reserved":false,"is_disabled":false,"rental_uris":{"android":"levelo://app?vid=0c5f8a05-3db5-4a1f-88d4-5612543f0bcb","ios":"levelo://app?vid=0c5f8a05-3db5-4a1f-88d4-5612543f0bcb"},"vehicle_type_id":"4","last_reported":1685423199,"current_range_meters":28000,"station_id":"ce4bgi12rcd13ifvqb70","pricing_plan_id":"free"},{"bike_id":"6a118da3-6b85-46c3-bfbf-512f9227d9e7","system_id":"levelo_inurba_marseille","lat":43.293009,"lon":5.374584,"is_reserved":false,"is_disabled":false,"rental_uris":{"android":"levelo://app?vid=6a118da3-6b85-46c3-bfbf-512f9227d9e7","ios":"levelo://app?vid=6a118da3-6b85-46c3-bfbf-512f9227d9e7"},"vehicle_type_id":"4","last_reported":1685423199,"current_range_meters":31600,"station_id":"ce4bgi12rcd13ifvqb70","pricing_plan_id":"free"},{"bike_id":"bb7e8844-740f-4e89-8740-099e4eba1d1a","system_id":"levelo_inurba_marseille","lat":43.293009,"lon":5.374584,"is_reserved":false,"is_disabled":false,"rental_uris":{"android":"levelo://app?vid=bb7e8844-740f-4e89-8740-099e4eba1d1a","ios":"levelo://app?vid=bb7e8844-740f-4e89-8740-099e4eba1d1a"},"vehicle_type_id":"4","last_reported":1685423199,"current_range_meters":31600,"station_id":"ce4bgi12rcd13ifvqb70","pricing_plan_id":"free"},{"bike_id":"54d764ef-057c-40e6-ae69-f7680e8f282b","system_id":"levelo_inurba_marseille","lat":43.30602,"lon":5.39369,"is_reserved":false,"is_disabled":false,"rental_uris":{"android":"levelo://app?vid=54d764ef-057c-40e6-ae69-f7680e8f282b","ios":"levelo://app?vid=54d764ef-057c-40e6-ae69-f7680e8f282b"},"vehicle_type_id":"4","last_reported":1685423199,"current_range_meters":29600,"station_id":"ce4bh0p2rcd13ifvqd80","pricing_plan_id":"free"},{"bike_id":"4b0a2bfe-1136-4d28-9fd5-776bca5fa632","system_id":"levelo_inurba_marseille","lat":43.30299,"lon":5.39219,"is_reserved":false,"is_disabled":false,"rental_uris":{"android":"levelo://app?vid=4b0a2bfe-1136-4d28-9fd5-776bca5fa632","ios":"levelo://app?vid=4b0a2bfe-1136-4d28-9fd5-776bca5fa632"},"vehicle_type_id":"4","last_reported":1685423199,"current_range_meters":14800,"station_id":"ce4bgkh2rcd13ifvqbk0","pricing_plan_id":"free"},{"bike_id":"adc601d9-aeb4-46cc-8289-5049bdb9a73b","system_id":"levelo_inurba_marseille","lat":43.292311,"lon":5.360731,"is_reserved":false,"is_disabled":false,"rental_uris":{"android":"levelo://app?vid=adc601d9-aeb4-46cc-8289-5049bdb9a73b","ios":"levelo://app?vid=adc601d9-aeb4-46cc-8289-5049bdb9a73b"},"vehicle_type_id":"4","last_reported":1685423199,"current_range_meters":31200,"station_id":"ce4bhbh2rcd13ifvqeqg","pricing_plan_id":"free"},{"bike_id":"cab9e445-fc41-4fb9-bd88-1e0ce8644ad4","system_id":"levelo_inurba_marseille","lat":43.292311,"lon":5.360731,"is_reserved":false,"is_disabled":false,"rental_uris":{"android":"levelo://app?vid=cab9e445-fc41-4fb9-bd88-1e0ce8644ad4","ios":"levelo://app?vid=cab9e445-fc41-4fb9-bd88-1e0ce8644ad4"},"vehicle_type_id":"4","last_reported":1685423199,"current_range_meters":29200,"station_id":"ce4bhbh2rcd13ifvqeqg","pricing_plan_id":"free"},{"bike_id":"c836496f-ff3a-4e8f-b6ed-fb62f5d33ac2","system_id":"levelo_inurba_marseille","lat":43.292311,"lon":5.360731,"is_reserved":false,"is_disabled":false,"rental_uris":{"android":"levelo://app?vid=c836496f-ff3a-4e8f-b6ed-fb62f5d33ac2","ios":"levelo://app?vid=c836496f-ff3a-4e8f-b6ed-fb62f5d33ac2"},"vehicle_type_id":"4","last_reported":1685423199,"current_range_meters":28000,"station_id":"ce4bhbh2rcd13ifvqeqg","pricing_plan_id":"free"},{"bike_id":"8343d722-eea4-493b-9155-2298b71b0476","system_id":"levelo_inurba_marseille","lat":43.292311,"lon":5.360731,"is_reserved":false,"is_disabled":false,"rental_uris":{"android":"levelo://app?vid=8343d722-eea4-493b-9155-2298b71b0476","ios":"levelo://app?vid=8343d722-eea4-493b-9155-2298b71b0476"},"vehicle_type_id":"4","last_reported":1685423199,"current_range_meters":23600,"station_id":"ce4bhbh2rcd13ifvqeqg","pricing_plan_id":"free"},{"bike_id":"ed631d90-15e2-44f0-bb89-ff476dbe91e0","system_id":"levelo_inurba_marseille","lat":43.292311,"lon":5.360731,"is_reserved":false,"is_disabled":false,"rental_uris":{"android":"levelo://app?vid=ed631d90-15e2-44f0-bb89-ff476dbe91e0","ios":"levelo://app?vid=ed631d90-15e2-44f0-bb89-ff476dbe91e0"},"vehicle_type_id":"4","last_reported":1685423199,"current_range_meters":18400,"station_id":"ce4bhbh2rcd13ifvqeqg","pricing_plan_id":"free"},{"bike_id":"54d587e4-3188-4b0e-bda1-e7e34715e17f","system_id":"levelo_inurba_marseille","lat":43.292311,"lon":5.360731,"is_reserved":false,"is_disabled":false,"rental_uris":{"android":"levelo://app?vid=54d587e4-3188-4b0e-bda1-e7e34715e17f","ios":"levelo://app?vid=54d587e4-3188-4b0e-bda1-e7e34715e17f"},"vehicle_type_id":"4","last_reported":1685423199,"current_range_meters":31200,"station_id":"ce4bhbh2rcd13ifvqeqg","pricing_plan_id":"free"},{"bike_id":"20daacae-4b8a-4b9d-a7be-a6559dd903ee","system_id":"levelo_inurba_marseille","lat":43.2936,"lon":5.37835,"is_reserved":false,"is_disabled":false,"rental_uris":{"android":"levelo://app?vid=20daacae-4b8a-4b9d-a7be-a6559dd903ee","ios":"levelo://app?vid=20daacae-4b8a-4b9d-a7be-a6559dd903ee"},"vehicle_type_id":"4","last_reported":1685423199,"current_range_meters":25200,"station_id":"ce4bgjh2rcd13ifvqbf0","pricing_plan_id":"free"},{"bike_id":"4d771248-732a-4fff-ba36-67d8e5aa455a","system_id":"levelo_inurba_marseille","lat":43.291675,"lon":5.371583,"is_reserved":false,"is_disabled":false,"rental_uris":{"android":"levelo://app?vid=4d771248-732a-4fff-ba36-67d8e5aa455a","ios":"levelo://app?vid=4d771248-732a-4fff-ba36-67d8e5aa455a"},"vehicle_type_id":"4","last_reported":1685423199,"current_range_meters":27200,"station_id":"ce4bha92rcd13ifvqeh0","pricing_plan_id":"free"},{"bike_id":"ccd0c0fe-2d02-4771-9661-26d8d18e6aa4","system_id":"levelo_inurba_marseille","lat":43.30887,"lon":5.39633,"is_reserved":false,"is_disabled":false,"rental_uris":{"android":"levelo://app?vid=ccd0c0fe-2d02-4771-9661-26d8d18e6aa4","ios":"levelo://app?vid=ccd0c0fe-2d02-4771-9661-26d8d18e6aa4"},"vehicle_type_id":"4","last_reported":1685423199,"current_range_meters":31200,"station_id":"ce4bh012rcd13ifvqcv0","pricing_plan_id":"free"},{"bike_id":"1a6ccf3f-757f-4bf6-a55e-3ab3d615d803","system_id":"levelo_inurba_marseille","lat":43.291994,"lon":5.357886,"is_reserved":false,"is_disabled":false,"rental_uris":{"android":"levelo://app?vid=1a6ccf3f-757f-4bf6-a55e-3ab3d615d803","ios":"levelo://app?vid=1a6ccf3f-757f-4bf6-a55e-3ab3d615d803"},"vehicle_type_id":"4","last_reported":1685423199,"current_range_meters":19600,"station_id":"ce4bhb12rcd13ifvqel0","pricing_plan_id":"free"},{"bike_id":"165f433e-acc7-439e-82cb-42f8d50f38b5","system_id":"levelo_inurba_marseille","lat":43.29196,"lon":5.35798,"is_reserved":false,"is_disabled":false,"rental_uris":{"android":"levelo://app?vid=165f433e-acc7-439e-82cb-42f8d50f38b5","ios":"levelo://app?vid=165f433e-acc7-439e-82cb-42f8d50f38b5"},"vehicle_type_id":"4","last_reported":1685423199,"current_range_meters":27600,"station_id":"ce4bhb12rcd13ifvqel0","pricing_plan_id":"free"},{"bike_id":"1fa557e0-191e-407c-b22c-e24481acb7f6","system_id":"levelo_inurba_marseille","lat":43.29195,"lon":5.35802,"is_reserved":false,"is_disabled":false,"rental_uris":{"android":"levelo://app?vid=1fa557e0-191e-407c-b22c-e24481acb7f6","ios":"levelo://app?vid=1fa557e0-191e-407c-b22c-e24481acb7f6"},"vehicle_type_id":"4","last_reported":1685423199,"current_range_meters":28400,"station_id":"ce4bhb12rcd13ifvqel0","pricing_plan_id":"free"},{"bike_id":"83b297ac-0a4f-4d68-83ab-27f4c9276387","system_id":"levelo_inurba_marseille","lat":43.309038,"lon":5.396546,"is_reserved":false,"is_disabled":false,"rental_uris":{"android":"levelo://app?vid=83b297ac-0a4f-4d68-83ab-27f4c9276387","ios":"levelo://app?vid=83b297ac-0a4f-4d68-83ab-27f4c9276387"},"vehicle_type_id":"4","last_reported":1685423199,"current_range_meters":30800,"station_id":"ce4bh012rcd13ifvqcv0","pricing_plan_id":"free"},{"bike_id":"fb02c64a-0342-49a0-8869-f96219ce4c51","system_id":"levelo_inurba_marseille","lat":43.309038,"lon":5.396546,"is_reserved":false,"is_disabled":false,"rental_uris":{"android":"levelo://app?vid=fb02c64a-0342-49a0-8869-f96219ce4c51","ios":"levelo://app?vid=fb02c64a-0342-49a0-8869-f96219ce4c51"},"vehicle_type_id":"4","last_reported":1685423199,"current_range_meters":15200,"station_id":"ce4bh012rcd13ifvqcv0","pricing_plan_id":"free"},{"bike_id":"2a4760d2-1a38-4cf5-b1ba-1635729dc47a","system_id":"levelo_inurba_marseille","lat":43.309038,"lon":5.396546,"is_reserved":false,"is_disabled":false,"rental_uris":{"android":"levelo://app?vid=2a4760d2-1a38-4cf5-b1ba-1635729dc47a","ios":"levelo://app?vid=2a4760d2-1a38-4cf5-b1ba-1635729dc47a"},"vehicle_type_id":"4","last_reported":1685423199,"current_range_meters":28400,"station_id":"ce4bh012rcd13ifvqcv0","pricing_plan_id":"free"},{"bike_id":"1e5faa9c-5c13-41fa-b267-62294dde1cbd","system_id":"levelo_inurba_marseille","lat":43.29188,"lon":5.35804,"is_reserved":false,"is_disabled":false,"rental_uris":{"android":"levelo://app?vid=1e5faa9c-5c13-41fa-b267-62294dde1cbd","ios":"levelo://app?vid=1e5faa9c-5c13-41fa-b267-62294dde1cbd"},"vehicle_type_id":"4","last_reported":1685423199,"current_range_meters":29200,"station_id":"ce4bhb12rcd13ifvqel0","pricing_plan_id":"free"},{"bike_id":"87313bea-0c5e-47f5-a3c9-98a2270389a7","system_id":"levelo_inurba_marseille","lat":43.309038,"lon":5.396546,"is_reserved":false,"is_disabled":false,"rental_uris":{"android":"levelo://app?vid=87313bea-0c5e-47f5-a3c9-98a2270389a7","ios":"levelo://app?vid=87313bea-0c5e-47f5-a3c9-98a2270389a7"},"vehicle_type_id":"4","last_reported":1685423199,"current_range_meters":28800,"station_id":"ce4bh012rcd13ifvqcv0","pricing_plan_id":"free"},{"bike_id":"8649da42-9253-42c3-adef-ebe24c61f84f","system_id":"levelo_inurba_marseille","lat":43.309038,"lon":5.396546,"is_reserved":false,"is_disabled":false,"rental_uris":{"android":"levelo://app?vid=8649da42-9253-42c3-adef-ebe24c61f84f","ios":"levelo://app?vid=8649da42-9253-42c3-adef-ebe24c61f84f"},"vehicle_type_id":"4","last_reported":1685423199,"current_range_meters":31200,"station_id":"ce4bh012rcd13ifvqcv0","pricing_plan_id":"free"},{"bike_id":"994e599a-c589-4a35-916b-0b8b5018ff1b","system_id":"levelo_inurba_marseille","lat":43.29186,"lon":5.35792,"is_reserved":false,"is_disabled":false,"rental_uris":{"android":"levelo://app?vid=994e599a-c589-4a35-916b-0b8b5018ff1b","ios":"levelo://app?vid=994e599a-c589-4a35-916b-0b8b5018ff1b"},"vehicle_type_id":"4","last_reported":1685423199,"current_range_meters":30000,"station_id":"ce4bhb12rcd13ifvqel0","pricing_plan_id":"free"},{"bike_id":"111b5415-95a9-4206-a13d-effaf8788d28","system_id":"levelo_inurba_marseille","lat":43.309038,"lon":5.396546,"is_reserved":false,"is_disabled":false,"rental_uris":{"android":"levelo://app?vid=111b5415-95a9-4206-a13d-effaf8788d28","ios":"levelo://app?vid=111b5415-95a9-4206-a13d-effaf8788d28"},"vehicle_type_id":"4","last_reported":1685423199,"current_range_meters":15600,"station_id":"ce4bh012rcd13ifvqcv0","pricing_plan_id":"free"},{"bike_id":"d0b6e14f-45a2-42a4-9a9f-9f37c19a68c8","system_id":"levelo_inurba_marseille","lat":43.309038,"lon":5.396546,"is_reserved":false,"is_disabled":false,"rental_uris":{"android":"levelo://app?vid=d0b6e14f-45a2-42a4-9a9f-9f37c19a68c8","ios":"levelo://app?vid=d0b6e14f-45a2-42a4-9a9f-9f37c19a68c8"},"vehicle_type_id":"4","last_reported":1685423199,"current_range_meters":30400,"station_id":"ce4bh012rcd13ifvqcv0","pricing_plan_id":"free"},{"bike_id":"e039994a-6162-4aa7-824e-36afa056beb7","system_id":"levelo_inurba_marseille","lat":43.309038,"lon":5.396546,"is_reserved":false,"is_disabled":false,"rental_uris":{"android":"levelo://app?vid=e039994a-6162-4aa7-824e-36afa056beb7","ios":"levelo://app?vid=e039994a-6162-4aa7-824e-36afa056beb7"},"vehicle_type_id":"4","last_reported":1685423199,"current_range_meters":23600,"station_id":"ce4bh012rcd13ifvqcv0","pricing_plan_id":"free"},{"bike_id":"d84748ca-56de-4c39-8d97-8763d6af5c17","system_id":"levelo_inurba_marseille","lat":43.313291,"lon":5.396838,"is_reserved":false,"is_disabled":false,"rental_uris":{"android":"levelo://app?vid=d84748ca-56de-4c39-8d97-8763d6af5c17","ios":"levelo://app?vid=d84748ca-56de-4c39-8d97-8763d6af5c17"},"vehicle_type_id":"4","last_reported":1685423199,"current_range_meters":16800,"station_id":"ce4bgvp2rcd13ifvqcu0","pricing_plan_id":"free"},{"bike_id":"a87c48a7-d30a-44d5-b234-05d295ec1ac9","system_id":"levelo_inurba_marseille","lat":43.2918,"lon":5.35742,"is_reserved":false,"is_disabled":false,"rental_uris":{"android":"levelo://app?vid=a87c48a7-d30a-44d5-b234-05d295ec1ac9","ios":"levelo://app?vid=a87c48a7-d30a-44d5-b234-05d295ec1ac9"},"vehicle_type_id":"4","last_reported":1685423199,"current_range_meters":0,"station_id":"","pricing_plan_id":"free"},{"bike_id":"3b15fea5-6c6b-40e0-be0b-7a4d42eccb2d","system_id":"levelo_inurba_marseille","lat":43.290779,"lon":5.371482,"is_reserved":false,"is_disabled":false,"rental_uris":{"android":"levelo://app?vid=3b15fea5-6c6b-40e0-be0b-7a4d42eccb2d","ios":"levelo://app?vid=3b15fea5-6c6b-40e0-be0b-7a4d42eccb2d"},"vehicle_type_id":"4","last_reported":1685423199,"current_range_meters":0,"station_id":"ce4bh5p2rcd13ifvqe4g","pricing_plan_id":"free"},{"bike_id":"5da60523-3bbc-4e5a-a4fe-fc0af5c0d298","system_id":"levelo_inurba_marseille","lat":43.302008,"lon":5.394694,"is_reserved":false,"is_disabled":false,"rental_uris":{"android":"levelo://app?vid=5da60523-3bbc-4e5a-a4fe-fc0af5c0d298","ios":"levelo://app?vid=5da60523-3bbc-4e5a-a4fe-fc0af5c0d298"},"vehicle_type_id":"4","last_reported":1685423199,"current_range_meters":23200,"station_id":"ce4bh0p2rcd13ifvqd70","pricing_plan_id":"free"},{"bike_id":"89b8685c-a8d5-47be-b45f-139d3672a3b4","system_id":"levelo_inurba_marseille","lat":43.290631,"lon":5.359244,"is_reserved":false,"is_disabled":false,"rental_uris":{"android":"levelo://app?vid=89b8685c-a8d5-47be-b45f-139d3672a3b4","ios":"levelo://app?vid=89b8685c-a8d5-47be-b45f-139d3672a3b4"},"vehicle_type_id":"4","last_reported":1685423199,"current_range_meters":29200,"station_id":"ce4bha92rcd13ifvqeg0","pricing_plan_id":"free"},{"bike_id":"93f14390-771b-4a1e-9930-c47a9f862fec","system_id":"levelo_inurba_marseille","lat":43.29032,"lon":5.37555,"is_reserved":false,"is_disabled":false,"rental_uris":{"android":"levelo://app?vid=93f14390-771b-4a1e-9930-c47a9f862fec","ios":"levelo://app?vid=93f14390-771b-4a1e-9930-c47a9f862fec"},"vehicle_type_id":"4","last_reported":1685423199,"current_range_meters":25200,"station_id":"ce4bh692rcd13ifvqe90","pricing_plan_id":"free"},{"bike_id":"fa113e28-72b9-4e60-812f-3c4ad9b2c836","system_id":"levelo_inurba_marseille","lat":43.28945,"lon":5.36631,"is_reserved":false,"is_disabled":false,"rental_uris":{"android":"levelo://app?vid=fa113e28-72b9-4e60-812f-3c4ad9b2c836","ios":"levelo://app?vid=fa113e28-72b9-4e60-812f-3c4ad9b2c836"},"vehicle_type_id":"4","last_reported":1685423199,"current_range_meters":27600,"station_id":"","pricing_plan_id":"free"},{"bike_id":"ef32a84b-38ed-48bd-bb32-ea48733bbd15","system_id":"levelo_inurba_marseille","lat":43.290327,"lon":5.375711,"is_reserved":false,"is_disabled":false,"rental_uris":{"android":"levelo://app?vid=ef32a84b-38ed-48bd-bb32-ea48733bbd15","ios":"levelo://app?vid=ef32a84b-38ed-48bd-bb32-ea48733bbd15"},"vehicle_type_id":"4","last_reported":1685423199,"current_range_meters":26400,"station_id":"ce4bh692rcd13ifvqe90","pricing_plan_id":"free"},{"bike_id":"7602c8d3-1488-4d9b-8d10-e6a0bfb64a28","system_id":"levelo_inurba_marseille","lat":43.289184,"lon":5.366408,"is_reserved":false,"is_disabled":false,"rental_uris":{"android":"levelo://app?vid=7602c8d3-1488-4d9b-8d10-e6a0bfb64a28","ios":"levelo://app?vid=7602c8d3-1488-4d9b-8d10-e6a0bfb64a28"},"vehicle_type_id":"4","last_reported":1685423199,"current_range_meters":31600,"station_id":"ce4bhap2rcd13ifvqek0","pricing_plan_id":"free"},{"bike_id":"203a6040-f064-4a6a-a64f-c7c9d08e9dc2","system_id":"levelo_inurba_marseille","lat":43.29416,"lon":5.38639,"is_reserved":false,"is_disabled":false,"rental_uris":{"android":"levelo://app?vid=203a6040-f064-4a6a-a64f-c7c9d08e9dc2","ios":"levelo://app?vid=203a6040-f064-4a6a-a64f-c7c9d08e9dc2"},"vehicle_type_id":"4","last_reported":1685423199,"current_range_meters":0,"station_id":"ce4bh2h2rcd13ifvqdh0","pricing_plan_id":"free"},{"bike_id":"0c575fd2-9acd-4218-9aae-584ea34810ec","system_id":"levelo_inurba_marseille","lat":43.289184,"lon":5.366408,"is_reserved":false,"is_disabled":false,"rental_uris":{"android":"levelo://app?vid=0c575fd2-9acd-4218-9aae-584ea34810ec","ios":"levelo://app?vid=0c575fd2-9acd-4218-9aae-584ea34810ec"},"vehicle_type_id":"4","last_reported":1685423199,"current_range_meters":20400,"station_id":"ce4bhap2rcd13ifvqek0","pricing_plan_id":"free"},{"bike_id":"2a3ade7b-adfd-462c-80cb-ed18330e255e","system_id":"levelo_inurba_marseille","lat":43.28936,"lon":5.36636,"is_reserved":false,"is_disabled":false,"rental_uris":{"android":"levelo://app?vid=2a3ade7b-adfd-462c-80cb-ed18330e255e","ios":"levelo://app?vid=2a3ade7b-adfd-462c-80cb-ed18330e255e"},"vehicle_type_id":"4","last_reported":1685423199,"current_range_meters":18000,"station_id":"","pricing_plan_id":"free"},{"bike_id":"ea1501fb-a1d8-4129-8ed4-284f553c0b26","system_id":"levelo_inurba_marseille","lat":43.28936,"lon":5.36633,"is_reserved":false,"is_disabled":false,"rental_uris":{"android":"levelo://app?vid=ea1501fb-a1d8-4129-8ed4-284f553c0b26","ios":"levelo://app?vid=ea1501fb-a1d8-4129-8ed4-284f553c0b26"},"vehicle_type_id":"4","last_reported":1685423199,"current_range_meters":29600,"station_id":"ce4bhap2rcd13ifvqek0","pricing_plan_id":"free"},{"bike_id":"808310db-dd4c-41e3-9225-e07e2944801b","system_id":"levelo_inurba_marseille","lat":43.289184,"lon":5.366408,"is_reserved":false,"is_disabled":false,"rental_uris":{"android":"levelo://app?vid=808310db-dd4c-41e3-9225-e07e2944801b","ios":"levelo://app?vid=808310db-dd4c-41e3-9225-e07e2944801b"},"vehicle_type_id":"4","last_reported":1685423199,"current_range_meters":29200,"station_id":"ce4bhap2rcd13ifvqek0","pricing_plan_id":"free"},{"bike_id":"4065111e-1274-453f-932f-f63cdac7407f","system_id":"levelo_inurba_marseille","lat":43.289184,"lon":5.366408,"is_reserved":false,"is_disabled":false,"rental_uris":{"android":"levelo://app?vid=4065111e-1274-453f-932f-f63cdac7407f","ios":"levelo://app?vid=4065111e-1274-453f-932f-f63cdac7407f"},"vehicle_type_id":"4","last_reported":1685423199,"current_range_meters":15200,"station_id":"ce4bhap2rcd13ifvqek0","pricing_plan_id":"free"},{"bike_id":"898326af-abe5-414b-ac3b-0da439037674","system_id":"levelo_inurba_marseille","lat":43.289184,"lon":5.366408,"is_reserved":false,"is_disabled":false,"rental_uris":{"android":"levelo://app?vid=898326af-abe5-414b-ac3b-0da439037674","ios":"levelo://app?vid=898326af-abe5-414b-ac3b-0da439037674"},"vehicle_type_id":"4","last_reported":1685423199,"current_range_meters":10000,"station_id":"ce4bhap2rcd13ifvqek0","pricing_plan_id":"free"},{"bike_id":"9e766668-2ddf-4ba8-b9c8-516dd148841c","system_id":"levelo_inurba_marseille","lat":43.289184,"lon":5.366408,"is_reserved":false,"is_disabled":false,"rental_uris":{"android":"levelo://app?vid=9e766668-2ddf-4ba8-b9c8-516dd148841c","ios":"levelo://app?vid=9e766668-2ddf-4ba8-b9c8-516dd148841c"},"vehicle_type_id":"4","last_reported":1685423199,"current_range_meters":31600,"station_id":"ce4bhap2rcd13ifvqek0","pricing_plan_id":"free"},{"bike_id":"203e0b2b-6e0f-45b8-a44f-3966737fd618","system_id":"levelo_inurba_marseille","lat":43.304296,"lon":5.397513,"is_reserved":false,"is_disabled":false,"rental_uris":{"android":"levelo://app?vid=203e0b2b-6e0f-45b8-a44f-3966737fd618","ios":"levelo://app?vid=203e0b2b-6e0f-45b8-a44f-3966737fd618"},"vehicle_type_id":"4","last_reported":1685423199,"current_range_meters":8800,"station_id":"ce4bh092rcd13ifvqd20","pricing_plan_id":"free"},{"bike_id":"84d6c3a1-d04f-4508-91b8-b41c9f60e2b4","system_id":"levelo_inurba_marseille","lat":43.304274,"lon":5.397513,"is_reserved":false,"is_disabled":false,"rental_uris":{"android":"levelo://app?vid=84d6c3a1-d04f-4508-91b8-b41c9f60e2b4","ios":"levelo://app?vid=84d6c3a1-d04f-4508-91b8-b41c9f60e2b4"},"vehicle_type_id":"4","last_reported":1685423199,"current_range_meters":30400,"station_id":"ce4bh092rcd13ifvqd20","pricing_plan_id":"free"},{"bike_id":"6b832711-7041-46ec-8697-0ef0bb075b34","system_id":"levelo_inurba_marseille","lat":43.33039,"lon":5.38916,"is_reserved":false,"is_disabled":false,"rental_uris":{"android":"levelo://app?vid=6b832711-7041-46ec-8697-0ef0bb075b34","ios":"levelo://app?vid=6b832711-7041-46ec-8697-0ef0bb075b34"},"vehicle_type_id":"4","last_reported":1685423199,"current_range_meters":31200,"station_id":"ce4bhr92rcd13ifvqhrg","pricing_plan_id":"free"},{"bike_id":"eb2ddfe4-4895-492a-9ef3-9d8d5fc8230b","system_id":"levelo_inurba_marseille","lat":43.33043,"lon":5.38919,"is_reserved":false,"is_disabled":false,"rental_uris":{"android":"levelo://app?vid=eb2ddfe4-4895-492a-9ef3-9d8d5fc8230b","ios":"levelo://app?vid=eb2ddfe4-4895-492a-9ef3-9d8d5fc8230b"},"vehicle_type_id":"4","last_reported":1685423199,"current_range_meters":31200,"station_id":"ce4bhr92rcd13ifvqhrg","pricing_plan_id":"free"},{"bike_id":"b842072e-dec3-4abb-892b-63a0c64f8bd9","system_id":"levelo_inurba_marseille","lat":43.33043,"lon":5.38919,"is_reserved":false,"is_disabled":false,"rental_uris":{"android":"levelo://app?vid=b842072e-dec3-4abb-892b-63a0c64f8bd9","ios":"levelo://app?vid=b842072e-dec3-4abb-892b-63a0c64f8bd9"},"vehicle_type_id":"4","last_reported":1685423199,"current_range_meters":31200,"station_id":"ce4bhr92rcd13ifvqhrg","pricing_plan_id":"free"},{"bike_id":"6cf13b2f-175f-4354-9d71-92c34c92045d","system_id":"levelo_inurba_marseille","lat":43.290104,"lon":5.356111,"is_reserved":false,"is_disabled":false,"rental_uris":{"android":"levelo://app?vid=6cf13b2f-175f-4354-9d71-92c34c92045d","ios":"levelo://app?vid=6cf13b2f-175f-4354-9d71-92c34c92045d"},"vehicle_type_id":"4","last_reported":1685423199,"current_range_meters":25600,"station_id":"ce4bhb92rcd13ifvqen0","pricing_plan_id":"free"},{"bike_id":"a8a0a2ce-882c-480d-9c8d-104ff0262970","system_id":"levelo_inurba_marseille","lat":43.33045,"lon":5.38918,"is_reserved":false,"is_disabled":false,"rental_uris":{"android":"levelo://app?vid=a8a0a2ce-882c-480d-9c8d-104ff0262970","ios":"levelo://app?vid=a8a0a2ce-882c-480d-9c8d-104ff0262970"},"vehicle_type_id":"4","last_reported":1685423199,"current_range_meters":10000,"station_id":"ce4bhr92rcd13ifvqhrg","pricing_plan_id":"free"},{"bike_id":"e5bac7c5-803b-4f05-a5bc-f51900b65e5c","system_id":"levelo_inurba_marseille","lat":43.33044,"lon":5.3892,"is_reserved":false,"is_disabled":false,"rental_uris":{"android":"levelo://app?vid=e5bac7c5-803b-4f05-a5bc-f51900b65e5c","ios":"levelo://app?vid=e5bac7c5-803b-4f05-a5bc-f51900b65e5c"},"vehicle_type_id":"4","last_reported":1685423199,"current_range_meters":30800,"station_id":"ce4bhr92rcd13ifvqhrg","pricing_plan_id":"free"},{"bike_id":"1abcf0a4-d2b2-4a63-b1da-026c1c0923fc","system_id":"levelo_inurba_marseille","lat":43.33046,"lon":5.38918,"is_reserved":false,"is_disabled":false,"rental_uris":{"android":"levelo://app?vid=1abcf0a4-d2b2-4a63-b1da-026c1c0923fc","ios":"levelo://app?vid=1abcf0a4-d2b2-4a63-b1da-026c1c0923fc"},"vehicle_type_id":"4","last_reported":1685423199,"current_range_meters":16000,"station_id":"ce4bhr92rcd13ifvqhrg","pricing_plan_id":"free"},{"bike_id":"3896a6b9-7600-48ea-9a59-d8dabbd7ed56","system_id":"levelo_inurba_marseille","lat":43.290104,"lon":5.356111,"is_reserved":false,"is_disabled":false,"rental_uris":{"android":"levelo://app?vid=3896a6b9-7600-48ea-9a59-d8dabbd7ed56","ios":"levelo://app?vid=3896a6b9-7600-48ea-9a59-d8dabbd7ed56"},"vehicle_type_id":"4","last_reported":1685423199,"current_range_meters":30800,"station_id":"ce4bhb92rcd13ifvqen0","pricing_plan_id":"free"},{"bike_id":"c16ed183-58b0-44e2-9b05-8363dd78dbc4","system_id":"levelo_inurba_marseille","lat":43.289741,"lon":5.378306,"is_reserved":false,"is_disabled":false,"rental_uris":{"android":"levelo://app?vid=c16ed183-58b0-44e2-9b05-8363dd78dbc4","ios":"levelo://app?vid=c16ed183-58b0-44e2-9b05-8363dd78dbc4"},"vehicle_type_id":"4","last_reported":1685423199,"current_range_meters":27200,"station_id":"ce4bh9p2rcd13ifvqed0","pricing_plan_id":"free"},{"bike_id":"5ee454b3-2174-4bab-939b-010fae4d1500","system_id":"levelo_inurba_marseille","lat":43.290995,"lon":5.381361,"is_reserved":false,"is_disabled":false,"rental_uris":{"android":"levelo://app?vid=5ee454b3-2174-4bab-939b-010fae4d1500","ios":"levelo://app?vid=5ee454b3-2174-4bab-939b-010fae4d1500"},"vehicle_type_id":"4","last_reported":1685423199,"current_range_meters":20800,"station_id":"ce4bh512rcd13ifvqe2g","pricing_plan_id":"free"},{"bike_id":"42e6983f-c75a-4eda-b190-c6ed2031b930","system_id":"levelo_inurba_marseille","lat":43.2886,"lon":5.3586,"is_reserved":false,"is_disabled":false,"rental_uris":{"android":"levelo://app?vid=42e6983f-c75a-4eda-b190-c6ed2031b930","ios":"levelo://app?vid=42e6983f-c75a-4eda-b190-c6ed2031b930"},"vehicle_type_id":"4","last_reported":1685423199,"current_range_meters":30800,"station_id":"ce4bhb12rcd13ifvqem0","pricing_plan_id":"free"},{"bike_id":"141c14ea-594b-43ee-894e-8c44af1dcd73","system_id":"levelo_inurba_marseille","lat":43.33741,"lon":5.37457,"is_reserved":false,"is_disabled":false,"rental_uris":{"android":"levelo://app?vid=141c14ea-594b-43ee-894e-8c44af1dcd73","ios":"levelo://app?vid=141c14ea-594b-43ee-894e-8c44af1dcd73"},"vehicle_type_id":"4","last_reported":1685423199,"current_range_meters":30400,"station_id":"","pricing_plan_id":"free"},{"bike_id":"c67b547c-3fcb-4384-8614-e15f558fec55","system_id":"levelo_inurba_marseille","lat":43.33744,"lon":5.37451,"is_reserved":false,"is_disabled":false,"rental_uris":{"android":"levelo://app?vid=c67b547c-3fcb-4384-8614-e15f558fec55","ios":"levelo://app?vid=c67b547c-3fcb-4384-8614-e15f558fec55"},"vehicle_type_id":"4","last_reported":1685423199,"current_range_meters":20800,"station_id":"","pricing_plan_id":"free"},{"bike_id":"493860ce-e063-4684-ab33-c360eaf64153","system_id":"levelo_inurba_marseille","lat":43.33744,"lon":5.37451,"is_reserved":false,"is_disabled":false,"rental_uris":{"android":"levelo://app?vid=493860ce-e063-4684-ab33-c360eaf64153","ios":"levelo://app?vid=493860ce-e063-4684-ab33-c360eaf64153"},"vehicle_type_id":"4","last_reported":1685423199,"current_range_meters":11600,"station_id":"","pricing_plan_id":"free"},{"bike_id":"556c6db1-2600-4c2b-9521-aae8453517c1","system_id":"levelo_inurba_marseille","lat":43.3375,"lon":5.37443,"is_reserved":false,"is_disabled":false,"rental_uris":{"android":"levelo://app?vid=556c6db1-2600-4c2b-9521-aae8453517c1","ios":"levelo://app?vid=556c6db1-2600-4c2b-9521-aae8453517c1"},"vehicle_type_id":"4","last_reported":1685423199,"current_range_meters":7200,"station_id":"","pricing_plan_id":"free"},{"bike_id":"9f5934bd-90f4-4a7e-8f1d-13cd883e0ec6","system_id":"levelo_inurba_marseille","lat":43.30642,"lon":5.401031,"is_reserved":false,"is_disabled":false,"rental_uris":{"android":"levelo://app?vid=9f5934bd-90f4-4a7e-8f1d-13cd883e0ec6","ios":"levelo://app?vid=9f5934bd-90f4-4a7e-8f1d-13cd883e0ec6"},"vehicle_type_id":"4","last_reported":1685423199,"current_range_meters":19600,"station_id":"ce4bh112rcd13ifvqda0","pricing_plan_id":"free"},{"bike_id":"29587ac5-5a5d-4b19-85d3-29ebc9ed137d","system_id":"levelo_inurba_marseille","lat":43.30642,"lon":5.401031,"is_reserved":false,"is_disabled":false,"rental_uris":{"android":"levelo://app?vid=29587ac5-5a5d-4b19-85d3-29ebc9ed137d","ios":"levelo://app?vid=29587ac5-5a5d-4b19-85d3-29ebc9ed137d"},"vehicle_type_id":"4","last_reported":1685423199,"current_range_meters":30800,"station_id":"ce4bh112rcd13ifvqda0","pricing_plan_id":"free"},{"bike_id":"5b9adb25-5416-43b4-b68b-894fc7969186","system_id":"levelo_inurba_marseille","lat":43.30642,"lon":5.401031,"is_reserved":false,"is_disabled":false,"rental_uris":{"android":"levelo://app?vid=5b9adb25-5416-43b4-b68b-894fc7969186","ios":"levelo://app?vid=5b9adb25-5416-43b4-b68b-894fc7969186"},"vehicle_type_id":"4","last_reported":1685423199,"current_range_meters":31600,"station_id":"ce4bh112rcd13ifvqda0","pricing_plan_id":"free"},{"bike_id":"c147154c-6e2a-483d-b1c9-4a7668c7b73b","system_id":"levelo_inurba_marseille","lat":43.30642,"lon":5.401031,"is_reserved":false,"is_disabled":false,"rental_uris":{"android":"levelo://app?vid=c147154c-6e2a-483d-b1c9-4a7668c7b73b","ios":"levelo://app?vid=c147154c-6e2a-483d-b1c9-4a7668c7b73b"},"vehicle_type_id":"4","last_reported":1685423199,"current_range_meters":31600,"station_id":"ce4bh112rcd13ifvqda0","pricing_plan_id":"free"},{"bike_id":"21fc766d-c21a-4b5f-ab55-266de1de1997","system_id":"levelo_inurba_marseille","lat":43.30642,"lon":5.401031,"is_reserved":false,"is_disabled":false,"rental_uris":{"android":"levelo://app?vid=21fc766d-c21a-4b5f-ab55-266de1de1997","ios":"levelo://app?vid=21fc766d-c21a-4b5f-ab55-266de1de1997"},"vehicle_type_id":"4","last_reported":1685423199,"current_range_meters":31200,"station_id":"ce4bh112rcd13ifvqda0","pricing_plan_id":"free"},{"bike_id":"88eff76d-2f4f-4598-b8bf-a1e1ee974d5e","system_id":"levelo_inurba_marseille","lat":43.30642,"lon":5.401031,"is_reserved":false,"is_disabled":false,"rental_uris":{"android":"levelo://app?vid=88eff76d-2f4f-4598-b8bf-a1e1ee974d5e","ios":"levelo://app?vid=88eff76d-2f4f-4598-b8bf-a1e1ee974d5e"},"vehicle_type_id":"4","last_reported":1685423199,"current_range_meters":24800,"station_id":"ce4bh112rcd13ifvqda0","pricing_plan_id":"free"},{"bike_id":"5a3b6123-63b5-4f5e-851e-d3819bc51380","system_id":"levelo_inurba_marseille","lat":43.30642,"lon":5.401031,"is_reserved":false,"is_disabled":false,"rental_uris":{"android":"levelo://app?vid=5a3b6123-63b5-4f5e-851e-d3819bc51380","ios":"levelo://app?vid=5a3b6123-63b5-4f5e-851e-d3819bc51380"},"vehicle_type_id":"4","last_reported":1685423199,"current_range_meters":31200,"station_id":"ce4bh112rcd13ifvqda0","pricing_plan_id":"free"},{"bike_id":"bef5636e-69c5-45c3-a1c1-15c6ae91439a","system_id":"levelo_inurba_marseille","lat":43.30642,"lon":5.401031,"is_reserved":false,"is_disabled":false,"rental_uris":{"android":"levelo://app?vid=bef5636e-69c5-45c3-a1c1-15c6ae91439a","ios":"levelo://app?vid=bef5636e-69c5-45c3-a1c1-15c6ae91439a"},"vehicle_type_id":"4","last_reported":1685423199,"current_range_meters":21200,"station_id":"ce4bh112rcd13ifvqda0","pricing_plan_id":"free"},{"bike_id":"6d678481-0e0b-436a-aa94-9d12fa2c91f5","system_id":"levelo_inurba_marseille","lat":43.337676,"lon":5.374548,"is_reserved":false,"is_disabled":false,"rental_uris":{"android":"levelo://app?vid=6d678481-0e0b-436a-aa94-9d12fa2c91f5","ios":"levelo://app?vid=6d678481-0e0b-436a-aa94-9d12fa2c91f5"},"vehicle_type_id":"4","last_reported":1685423199,"current_range_meters":13600,"station_id":"","pricing_plan_id":"free"},{"bike_id":"50fd3e3a-b0ac-43c4-9e09-852f118dc017","system_id":"levelo_inurba_marseille","lat":43.30648,"lon":5.40098,"is_reserved":false,"is_disabled":false,"rental_uris":{"android":"levelo://app?vid=50fd3e3a-b0ac-43c4-9e09-852f118dc017","ios":"levelo://app?vid=50fd3e3a-b0ac-43c4-9e09-852f118dc017"},"vehicle_type_id":"4","last_reported":1685423199,"current_range_meters":5200,"station_id":"ce4bh112rcd13ifvqda0","pricing_plan_id":"free"},{"bike_id":"f4c227a6-ec89-467b-a14c-eb85508736ad","system_id":"levelo_inurba_marseille","lat":43.33773,"lon":5.37434,"is_reserved":false,"is_disabled":false,"rental_uris":{"android":"levelo://app?vid=f4c227a6-ec89-467b-a14c-eb85508736ad","ios":"levelo://app?vid=f4c227a6-ec89-467b-a14c-eb85508736ad"},"vehicle_type_id":"4","last_reported":1685423199,"current_range_meters":20400,"station_id":"","pricing_plan_id":"free"},{"bike_id":"d9930b53-51cd-4b7c-a5cd-2d4c171e3e0f","system_id":"levelo_inurba_marseille","lat":43.301117,"lon":5.398795,"is_reserved":false,"is_disabled":false,"rental_uris":{"android":"levelo://app?vid=d9930b53-51cd-4b7c-a5cd-2d4c171e3e0f","ios":"levelo://app?vid=d9930b53-51cd-4b7c-a5cd-2d4c171e3e0f"},"vehicle_type_id":"4","last_reported":1685423199,"current_range_meters":0,"station_id":"ce4bh0h2rcd13ifvqd40","pricing_plan_id":"free"},{"bike_id":"63a9223a-b042-46b7-8247-e66689d83fc0","system_id":"levelo_inurba_marseille","lat":43.301117,"lon":5.398795,"is_reserved":false,"is_disabled":false,"rental_uris":{"android":"levelo://app?vid=63a9223a-b042-46b7-8247-e66689d83fc0","ios":"levelo://app?vid=63a9223a-b042-46b7-8247-e66689d83fc0"},"vehicle_type_id":"4","last_reported":1685423199,"current_range_meters":31600,"station_id":"ce4bh0h2rcd13ifvqd40","pricing_plan_id":"free"},{"bike_id":"c575f62f-cdbe-43f6-be7f-ef3009bee198","system_id":"levelo_inurba_marseille","lat":43.286593,"lon":5.363346,"is_reserved":false,"is_disabled":false,"rental_uris":{"android":"levelo://app?vid=c575f62f-cdbe-43f6-be7f-ef3009bee198","ios":"levelo://app?vid=c575f62f-cdbe-43f6-be7f-ef3009bee198"},"vehicle_type_id":"4","last_reported":1685423199,"current_range_meters":25200,"station_id":"ce4bhah2rcd13ifvqej0","pricing_plan_id":"free"},{"bike_id":"5392febc-043f-4790-9ffe-a8c373b73257","system_id":"levelo_inurba_marseille","lat":43.302759,"lon":5.400793,"is_reserved":false,"is_disabled":false,"rental_uris":{"android":"levelo://app?vid=5392febc-043f-4790-9ffe-a8c373b73257","ios":"levelo://app?vid=5392febc-043f-4790-9ffe-a8c373b73257"},"vehicle_type_id":"4","last_reported":1685423199,"current_range_meters":31600,"station_id":"ce4bgvh2rcd13ifvqcs0","pricing_plan_id":"free"},{"bike_id":"6ba4cd76-914e-407a-ac32-5b0536449eb2","system_id":"levelo_inurba_marseille","lat":43.302759,"lon":5.400793,"is_reserved":false,"is_disabled":false,"rental_uris":{"android":"levelo://app?vid=6ba4cd76-914e-407a-ac32-5b0536449eb2","ios":"levelo://app?vid=6ba4cd76-914e-407a-ac32-5b0536449eb2"},"vehicle_type_id":"4","last_reported":1685423199,"current_range_meters":28800,"station_id":"ce4bgvh2rcd13ifvqcs0","pricing_plan_id":"free"},{"bike_id":"58cc29a9-9942-410a-94b6-a7fcb0039763","system_id":"levelo_inurba_marseille","lat":43.30242,"lon":5.40075,"is_reserved":false,"is_disabled":false,"rental_uris":{"android":"levelo://app?vid=58cc29a9-9942-410a-94b6-a7fcb0039763","ios":"levelo://app?vid=58cc29a9-9942-410a-94b6-a7fcb0039763"},"vehicle_type_id":"4","last_reported":1685423199,"current_range_meters":28800,"station_id":"","pricing_plan_id":"free"},{"bike_id":"1acb7963-5f01-48e3-91a0-8e53c93b5c6d","system_id":"levelo_inurba_marseille","lat":43.286039,"lon":5.370681,"is_reserved":false,"is_disabled":false,"rental_uris":{"android":"levelo://app?vid=1acb7963-5f01-48e3-91a0-8e53c93b5c6d","ios":"levelo://app?vid=1acb7963-5f01-48e3-91a0-8e53c93b5c6d"},"vehicle_type_id":"4","last_reported":1685423199,"current_range_meters":31200,"station_id":"ce4bht12rcd13ifvqi60","pricing_plan_id":"free"},{"bike_id":"2854c2c2-8802-407d-ab8d-f240f7e7b622","system_id":"levelo_inurba_marseille","lat":43.28608,"lon":5.37053,"is_reserved":false,"is_disabled":false,"rental_uris":{"android":"levelo://app?vid=2854c2c2-8802-407d-ab8d-f240f7e7b622","ios":"levelo://app?vid=2854c2c2-8802-407d-ab8d-f240f7e7b622"},"vehicle_type_id":"4","last_reported":1685423199,"current_range_meters":0,"station_id":"ce4bht12rcd13ifvqi60","pricing_plan_id":"free"},{"bike_id":"a02fa674-c9de-44ac-b54d-488d259d2088","system_id":"levelo_inurba_marseille","lat":43.286039,"lon":5.370681,"is_reserved":false,"is_disabled":false,"rental_uris":{"android":"levelo://app?vid=a02fa674-c9de-44ac-b54d-488d259d2088","ios":"levelo://app?vid=a02fa674-c9de-44ac-b54d-488d259d2088"},"vehicle_type_id":"4","last_reported":1685423199,"current_range_meters":29600,"station_id":"ce4bht12rcd13ifvqi60","pricing_plan_id":"free"},{"bike_id":"6e8b8ccd-118b-408c-8360-e1a05edc0c7f","system_id":"levelo_inurba_marseille","lat":43.28602,"lon":5.3707,"is_reserved":false,"is_disabled":false,"rental_uris":{"android":"levelo://app?vid=6e8b8ccd-118b-408c-8360-e1a05edc0c7f","ios":"levelo://app?vid=6e8b8ccd-118b-408c-8360-e1a05edc0c7f"},"vehicle_type_id":"4","last_reported":1685423199,"current_range_meters":31200,"station_id":"ce4bht12rcd13ifvqi60","pricing_plan_id":"free"},{"bike_id":"23c28044-306c-44b7-bdbe-858b9ae12b48","system_id":"levelo_inurba_marseille","lat":43.287185,"lon":5.379373,"is_reserved":false,"is_disabled":false,"rental_uris":{"android":"levelo://app?vid=23c28044-306c-44b7-bdbe-858b9ae12b48","ios":"levelo://app?vid=23c28044-306c-44b7-bdbe-858b9ae12b48"},"vehicle_type_id":"4","last_reported":1685423199,"current_range_meters":29200,"station_id":"ce4bh9p2rcd13ifvqec0","pricing_plan_id":"free"},{"bike_id":"356a0ed3-f419-4208-abb4-25a6818607c4","system_id":"levelo_inurba_marseille","lat":43.316517,"lon":5.404375,"is_reserved":false,"is_disabled":false,"rental_uris":{"android":"levelo://app?vid=356a0ed3-f419-4208-abb4-25a6818607c4","ios":"levelo://app?vid=356a0ed3-f419-4208-abb4-25a6818607c4"},"vehicle_type_id":"4","last_reported":1685423199,"current_range_meters":13600,"station_id":"ce4bh012rcd13ifvqd00","pricing_plan_id":"free"},{"bike_id":"623adf98-fec5-4711-8ef4-28f22ca4494d","system_id":"levelo_inurba_marseille","lat":43.31641,"lon":5.40437,"is_reserved":false,"is_disabled":false,"rental_uris":{"android":"levelo://app?vid=623adf98-fec5-4711-8ef4-28f22ca4494d","ios":"levelo://app?vid=623adf98-fec5-4711-8ef4-28f22ca4494d"},"vehicle_type_id":"4","last_reported":1685423199,"current_range_meters":12400,"station_id":"ce4bh012rcd13ifvqd00","pricing_plan_id":"free"},{"bike_id":"4254c66c-5909-4d21-bb42-4a6b3ae89a26","system_id":"levelo_inurba_marseille","lat":43.31642,"lon":5.40438,"is_reserved":false,"is_disabled":false,"rental_uris":{"android":"levelo://app?vid=4254c66c-5909-4d21-bb42-4a6b3ae89a26","ios":"levelo://app?vid=4254c66c-5909-4d21-bb42-4a6b3ae89a26"},"vehicle_type_id":"4","last_reported":1685423199,"current_range_meters":31200,"station_id":"ce4bh012rcd13ifvqd00","pricing_plan_id":"free"},{"bike_id":"5a86566e-ea2d-4d34-b28a-bd6d67f2f854","system_id":"levelo_inurba_marseille","lat":43.316517,"lon":5.404375,"is_reserved":false,"is_disabled":false,"rental_uris":{"android":"levelo://app?vid=5a86566e-ea2d-4d34-b28a-bd6d67f2f854","ios":"levelo://app?vid=5a86566e-ea2d-4d34-b28a-bd6d67f2f854"},"vehicle_type_id":"4","last_reported":1685423199,"current_range_meters":20800,"station_id":"ce4bh012rcd13ifvqd00","pricing_plan_id":"free"},{"bike_id":"c5021a32-e1c0-4ed6-803c-4998512206c4","system_id":"levelo_inurba_marseille","lat":43.316517,"lon":5.404375,"is_reserved":false,"is_disabled":false,"rental_uris":{"android":"levelo://app?vid=c5021a32-e1c0-4ed6-803c-4998512206c4","ios":"levelo://app?vid=c5021a32-e1c0-4ed6-803c-4998512206c4"},"vehicle_type_id":"4","last_reported":1685423199,"current_range_meters":31200,"station_id":"ce4bh012rcd13ifvqd00","pricing_plan_id":"free"},{"bike_id":"6f622105-b3dd-4ba0-8440-511dc0ffa464","system_id":"levelo_inurba_marseille","lat":43.316517,"lon":5.404375,"is_reserved":false,"is_disabled":false,"rental_uris":{"android":"levelo://app?vid=6f622105-b3dd-4ba0-8440-511dc0ffa464","ios":"levelo://app?vid=6f622105-b3dd-4ba0-8440-511dc0ffa464"},"vehicle_type_id":"4","last_reported":1685423199,"current_range_meters":31200,"station_id":"ce4bh012rcd13ifvqd00","pricing_plan_id":"free"},{"bike_id":"dfd2ce25-f346-48bd-a2fc-a825c13d1498","system_id":"levelo_inurba_marseille","lat":43.316517,"lon":5.404375,"is_reserved":false,"is_disabled":false,"rental_uris":{"android":"levelo://app?vid=dfd2ce25-f346-48bd-a2fc-a825c13d1498","ios":"levelo://app?vid=dfd2ce25-f346-48bd-a2fc-a825c13d1498"},"vehicle_type_id":"4","last_reported":1685423199,"current_range_meters":30000,"station_id":"ce4bh012rcd13ifvqd00","pricing_plan_id":"free"},{"bike_id":"9d615592-15a8-42e8-9a50-efc5499bbe80","system_id":"levelo_inurba_marseille","lat":43.316517,"lon":5.404375,"is_reserved":false,"is_disabled":false,"rental_uris":{"android":"levelo://app?vid=9d615592-15a8-42e8-9a50-efc5499bbe80","ios":"levelo://app?vid=9d615592-15a8-42e8-9a50-efc5499bbe80"},"vehicle_type_id":"4","last_reported":1685423199,"current_range_meters":28400,"station_id":"ce4bh012rcd13ifvqd00","pricing_plan_id":"free"},{"bike_id":"fef51c66-b470-4296-b155-c37441680216","system_id":"levelo_inurba_marseille","lat":43.291994,"lon":5.392907,"is_reserved":false,"is_disabled":false,"rental_uris":{"android":"levelo://app?vid=fef51c66-b470-4296-b155-c37441680216","ios":"levelo://app?vid=fef51c66-b470-4296-b155-c37441680216"},"vehicle_type_id":"4","last_reported":1685423199,"current_range_meters":25200,"station_id":"ce4bh192rcd13ifvqdd0","pricing_plan_id":"free"},{"bike_id":"8d34a19f-90a9-45d2-8d9a-773597eb7cf0","system_id":"levelo_inurba_marseille","lat":43.28466,"lon":5.35889,"is_reserved":false,"is_disabled":false,"rental_uris":{"android":"levelo://app?vid=8d34a19f-90a9-45d2-8d9a-773597eb7cf0","ios":"levelo://app?vid=8d34a19f-90a9-45d2-8d9a-773597eb7cf0"},"vehicle_type_id":"4","last_reported":1685423199,"current_range_meters":12400,"station_id":"ce4bhah2rcd13ifvqei0","pricing_plan_id":"free"},{"bike_id":"6d5333f4-e6af-4086-9947-0d87e5878dd7","system_id":"levelo_inurba_marseille","lat":43.28464,"lon":5.35895,"is_reserved":false,"is_disabled":false,"rental_uris":{"android":"levelo://app?vid=6d5333f4-e6af-4086-9947-0d87e5878dd7","ios":"levelo://app?vid=6d5333f4-e6af-4086-9947-0d87e5878dd7"},"vehicle_type_id":"4","last_reported":1685423199,"current_range_meters":31200,"station_id":"ce4bhah2rcd13ifvqei0","pricing_plan_id":"free"},{"bike_id":"8decf36e-a88a-4616-9949-a6296ebe70d3","system_id":"levelo_inurba_marseille","lat":43.28458,"lon":5.35893,"is_reserved":false,"is_disabled":false,"rental_uris":{"android":"levelo://app?vid=8decf36e-a88a-4616-9949-a6296ebe70d3","ios":"levelo://app?vid=8decf36e-a88a-4616-9949-a6296ebe70d3"},"vehicle_type_id":"4","last_reported":1685423199,"current_range_meters":12000,"station_id":"ce4bhah2rcd13ifvqei0","pricing_plan_id":"free"},{"bike_id":"f8ed514f-b73e-439c-8783-0306ab4c690f","system_id":"levelo_inurba_marseille","lat":43.31757,"lon":5.40589,"is_reserved":false,"is_disabled":false,"rental_uris":{"android":"levelo://app?vid=f8ed514f-b73e-439c-8783-0306ab4c690f","ios":"levelo://app?vid=f8ed514f-b73e-439c-8783-0306ab4c690f"},"vehicle_type_id":"4","last_reported":1685423199,"current_range_meters":16800,"station_id":"","pricing_plan_id":"free"},{"bike_id":"ca0438c9-5ff8-4092-af8d-4978a18aa988","system_id":"levelo_inurba_marseille","lat":43.28456,"lon":5.35898,"is_reserved":false,"is_disabled":false,"rental_uris":{"android":"levelo://app?vid=ca0438c9-5ff8-4092-af8d-4978a18aa988","ios":"levelo://app?vid=ca0438c9-5ff8-4092-af8d-4978a18aa988"},"vehicle_type_id":"4","last_reported":1685423199,"current_range_meters":23200,"station_id":"ce4bhah2rcd13ifvqei0","pricing_plan_id":"free"},{"bike_id":"fa6dccac-e3ae-4778-a53d-69df45939d54","system_id":"levelo_inurba_marseille","lat":43.284534,"lon":5.358662,"is_reserved":false,"is_disabled":false,"rental_uris":{"android":"levelo://app?vid=fa6dccac-e3ae-4778-a53d-69df45939d54","ios":"levelo://app?vid=fa6dccac-e3ae-4778-a53d-69df45939d54"},"vehicle_type_id":"4","last_reported":1685423199,"current_range_meters":31200,"station_id":"ce4bhah2rcd13ifvqei0","pricing_plan_id":"free"},{"bike_id":"0c47c7f2-e186-46d7-9f92-94ef19a30fde","system_id":"levelo_inurba_marseille","lat":43.28623,"lon":5.35103,"is_reserved":false,"is_disabled":false,"rental_uris":{"android":"levelo://app?vid=0c47c7f2-e186-46d7-9f92-94ef19a30fde","ios":"levelo://app?vid=0c47c7f2-e186-46d7-9f92-94ef19a30fde"},"vehicle_type_id":"4","last_reported":1685423199,"current_range_meters":17200,"station_id":"","pricing_plan_id":"free"},{"bike_id":"6d77d8e4-f939-4eac-a0ba-12042563cfdb","system_id":"levelo_inurba_marseille","lat":43.2862,"lon":5.35104,"is_reserved":false,"is_disabled":false,"rental_uris":{"android":"levelo://app?vid=6d77d8e4-f939-4eac-a0ba-12042563cfdb","ios":"levelo://app?vid=6d77d8e4-f939-4eac-a0ba-12042563cfdb"},"vehicle_type_id":"4","last_reported":1685423199,"current_range_meters":29600,"station_id":"","pricing_plan_id":"free"},{"bike_id":"65f563cd-f264-4de3-9f3f-8398efb615e5","system_id":"levelo_inurba_marseille","lat":43.285856,"lon":5.350771,"is_reserved":false,"is_disabled":false,"rental_uris":{"android":"levelo://app?vid=65f563cd-f264-4de3-9f3f-8398efb615e5","ios":"levelo://app?vid=65f563cd-f264-4de3-9f3f-8398efb615e5"},"vehicle_type_id":"4","last_reported":1685423199,"current_range_meters":31200,"station_id":"ce4bhch2rcd13ifvqeug","pricing_plan_id":"free"},{"bike_id":"81e46ed9-482f-4818-98c1-0bf8446cef3a","system_id":"levelo_inurba_marseille","lat":43.28617,"lon":5.35106,"is_reserved":false,"is_disabled":false,"rental_uris":{"android":"levelo://app?vid=81e46ed9-482f-4818-98c1-0bf8446cef3a","ios":"levelo://app?vid=81e46ed9-482f-4818-98c1-0bf8446cef3a"},"vehicle_type_id":"4","last_reported":1685423199,"current_range_meters":31200,"station_id":"","pricing_plan_id":"free"},{"bike_id":"c1ed57af-de4a-48f4-87ca-e0e2df94f1aa","system_id":"levelo_inurba_marseille","lat":43.28616,"lon":5.351,"is_reserved":false,"is_disabled":false,"rental_uris":{"android":"levelo://app?vid=c1ed57af-de4a-48f4-87ca-e0e2df94f1aa","ios":"levelo://app?vid=c1ed57af-de4a-48f4-87ca-e0e2df94f1aa"},"vehicle_type_id":"4","last_reported":1685423199,"current_range_meters":19200,"station_id":"","pricing_plan_id":"free"},{"bike_id":"3063ba41-56e8-4023-ada8-50d6a8731fe6","system_id":"levelo_inurba_marseille","lat":43.28614,"lon":5.35103,"is_reserved":false,"is_disabled":false,"rental_uris":{"android":"levelo://app?vid=3063ba41-56e8-4023-ada8-50d6a8731fe6","ios":"levelo://app?vid=3063ba41-56e8-4023-ada8-50d6a8731fe6"},"vehicle_type_id":"4","last_reported":1685423199,"current_range_meters":25200,"station_id":"","pricing_plan_id":"free"},{"bike_id":"900387b5-a2d0-408b-bb23-889a9c2a4c88","system_id":"levelo_inurba_marseille","lat":43.28614,"lon":5.35101,"is_reserved":false,"is_disabled":false,"rental_uris":{"android":"levelo://app?vid=900387b5-a2d0-408b-bb23-889a9c2a4c88","ios":"levelo://app?vid=900387b5-a2d0-408b-bb23-889a9c2a4c88"},"vehicle_type_id":"4","last_reported":1685423199,"current_range_meters":24800,"station_id":"","pricing_plan_id":"free"},{"bike_id":"47894dad-fb7b-401d-998b-33ad081bd5ad","system_id":"levelo_inurba_marseille","lat":43.285856,"lon":5.350771,"is_reserved":false,"is_disabled":false,"rental_uris":{"android":"levelo://app?vid=47894dad-fb7b-401d-998b-33ad081bd5ad","ios":"levelo://app?vid=47894dad-fb7b-401d-998b-33ad081bd5ad"},"vehicle_type_id":"4","last_reported":1685423199,"current_range_meters":30400,"station_id":"ce4bhch2rcd13ifvqeug","pricing_plan_id":"free"},{"bike_id":"b3e46f2c-a79f-4572-9234-adb24a5642bd","system_id":"levelo_inurba_marseille","lat":43.295713,"lon":5.399639,"is_reserved":false,"is_disabled":false,"rental_uris":{"android":"levelo://app?vid=b3e46f2c-a79f-4572-9234-adb24a5642bd","ios":"levelo://app?vid=b3e46f2c-a79f-4572-9234-adb24a5642bd"},"vehicle_type_id":"4","last_reported":1685423199,"current_range_meters":24800,"station_id":"ce4bh312rcd13ifvqdj0","pricing_plan_id":"free"},{"bike_id":"1f5e05f1-a409-4c09-8b4d-bba6bb6f7960","system_id":"levelo_inurba_marseille","lat":43.295713,"lon":5.399639,"is_reserved":false,"is_disabled":false,"rental_uris":{"android":"levelo://app?vid=1f5e05f1-a409-4c09-8b4d-bba6bb6f7960","ios":"levelo://app?vid=1f5e05f1-a409-4c09-8b4d-bba6bb6f7960"},"vehicle_type_id":"4","last_reported":1685423199,"current_range_meters":10800,"station_id":"ce4bh312rcd13ifvqdj0","pricing_plan_id":"free"},{"bike_id":"636cf914-502d-4f0e-8b42-a6a2120abdaa","system_id":"levelo_inurba_marseille","lat":43.286595,"lon":5.386795,"is_reserved":false,"is_disabled":false,"rental_uris":{"android":"levelo://app?vid=636cf914-502d-4f0e-8b42-a6a2120abdaa","ios":"levelo://app?vid=636cf914-502d-4f0e-8b42-a6a2120abdaa"},"vehicle_type_id":"4","last_reported":1685423199,"current_range_meters":29200,"station_id":"ce4bh492rcd13ifvqdug","pricing_plan_id":"free"},{"bike_id":"7b92bfdc-db42-4e12-922e-af58f242317d","system_id":"levelo_inurba_marseille","lat":43.286595,"lon":5.386795,"is_reserved":false,"is_disabled":false,"rental_uris":{"android":"levelo://app?vid=7b92bfdc-db42-4e12-922e-af58f242317d","ios":"levelo://app?vid=7b92bfdc-db42-4e12-922e-af58f242317d"},"vehicle_type_id":"4","last_reported":1685423199,"current_range_meters":24800,"station_id":"ce4bh492rcd13ifvqdug","pricing_plan_id":"free"},{"bike_id":"89511975-7f82-4031-aabc-27f102d060d3","system_id":"levelo_inurba_marseille","lat":43.286595,"lon":5.386795,"is_reserved":false,"is_disabled":false,"rental_uris":{"android":"levelo://app?vid=89511975-7f82-4031-aabc-27f102d060d3","ios":"levelo://app?vid=89511975-7f82-4031-aabc-27f102d060d3"},"vehicle_type_id":"4","last_reported":1685423199,"current_range_meters":30400,"station_id":"ce4bh492rcd13ifvqdug","pricing_plan_id":"free"},{"bike_id":"f32b00f0-10c7-401a-9495-5728aad19031","system_id":"levelo_inurba_marseille","lat":43.286595,"lon":5.386795,"is_reserved":false,"is_disabled":false,"rental_uris":{"android":"levelo://app?vid=f32b00f0-10c7-401a-9495-5728aad19031","ios":"levelo://app?vid=f32b00f0-10c7-401a-9495-5728aad19031"},"vehicle_type_id":"4","last_reported":1685423199,"current_range_meters":29200,"station_id":"ce4bh492rcd13ifvqdug","pricing_plan_id":"free"},{"bike_id":"a0010139-0193-4892-93ca-cee6408b66cc","system_id":"levelo_inurba_marseille","lat":43.28505,"lon":5.38433,"is_reserved":false,"is_disabled":false,"rental_uris":{"android":"levelo://app?vid=a0010139-0193-4892-93ca-cee6408b66cc","ios":"levelo://app?vid=a0010139-0193-4892-93ca-cee6408b66cc"},"vehicle_type_id":"4","last_reported":1685423199,"current_range_meters":26800,"station_id":"","pricing_plan_id":"free"},{"bike_id":"e2fc3e02-c01e-4cf9-b6e1-91c460e6e31b","system_id":"levelo_inurba_marseille","lat":43.323464,"lon":5.406297,"is_reserved":false,"is_disabled":false,"rental_uris":{"android":"levelo://app?vid=e2fc3e02-c01e-4cf9-b6e1-91c460e6e31b","ios":"levelo://app?vid=e2fc3e02-c01e-4cf9-b6e1-91c460e6e31b"},"vehicle_type_id":"4","last_reported":1685423199,"current_range_meters":30800,"station_id":"ce4bhq92rcd13ifvqhjg","pricing_plan_id":"free"},{"bike_id":"a0a2aaf5-97cb-464e-9375-44a7712676d9","system_id":"levelo_inurba_marseille","lat":43.28502,"lon":5.38427,"is_reserved":false,"is_disabled":false,"rental_uris":{"android":"levelo://app?vid=a0a2aaf5-97cb-464e-9375-44a7712676d9","ios":"levelo://app?vid=a0a2aaf5-97cb-464e-9375-44a7712676d9"},"vehicle_type_id":"4","last_reported":1685423199,"current_range_meters":28800,"station_id":"ce4bh512rcd13ifvqe3g","pricing_plan_id":"free"},{"bike_id":"f595c8e3-9127-4d90-8fe5-c29ef38a5749","system_id":"levelo_inurba_marseille","lat":43.32338,"lon":5.4062,"is_reserved":false,"is_disabled":false,"rental_uris":{"android":"levelo://app?vid=f595c8e3-9127-4d90-8fe5-c29ef38a5749","ios":"levelo://app?vid=f595c8e3-9127-4d90-8fe5-c29ef38a5749"},"vehicle_type_id":"4","last_reported":1685423199,"current_range_meters":12000,"station_id":"ce4bhq92rcd13ifvqhjg","pricing_plan_id":"free"},{"bike_id":"68c3d274-08b0-4376-86de-f35e05a442db","system_id":"levelo_inurba_marseille","lat":43.28499,"lon":5.3843,"is_reserved":false,"is_disabled":false,"rental_uris":{"android":"levelo://app?vid=68c3d274-08b0-4376-86de-f35e05a442db","ios":"levelo://app?vid=68c3d274-08b0-4376-86de-f35e05a442db"},"vehicle_type_id":"4","last_reported":1685423199,"current_range_meters":25200,"station_id":"ce4bh512rcd13ifvqe3g","pricing_plan_id":"free"},{"bike_id":"76400c0d-b16b-4298-a745-e46df11bb832","system_id":"levelo_inurba_marseille","lat":43.28493,"lon":5.38428,"is_reserved":false,"is_disabled":false,"rental_uris":{"android":"levelo://app?vid=76400c0d-b16b-4298-a745-e46df11bb832","ios":"levelo://app?vid=76400c0d-b16b-4298-a745-e46df11bb832"},"vehicle_type_id":"4","last_reported":1685423199,"current_range_meters":30800,"station_id":"ce4bh512rcd13ifvqe3g","pricing_plan_id":"free"},{"bike_id":"c66d9da6-e508-458d-b985-aea348e3b1c4","system_id":"levelo_inurba_marseille","lat":43.323464,"lon":5.406297,"is_reserved":false,"is_disabled":false,"rental_uris":{"android":"levelo://app?vid=c66d9da6-e508-458d-b985-aea348e3b1c4","ios":"levelo://app?vid=c66d9da6-e508-458d-b985-aea348e3b1c4"},"vehicle_type_id":"4","last_reported":1685423199,"current_range_meters":30000,"station_id":"ce4bhq92rcd13ifvqhjg","pricing_plan_id":"free"},{"bike_id":"155543b3-aacb-4c9f-bedb-8c78a2400201","system_id":"levelo_inurba_marseille","lat":43.2849,"lon":5.38426,"is_reserved":false,"is_disabled":false,"rental_uris":{"android":"levelo://app?vid=155543b3-aacb-4c9f-bedb-8c78a2400201","ios":"levelo://app?vid=155543b3-aacb-4c9f-bedb-8c78a2400201"},"vehicle_type_id":"4","last_reported":1685423199,"current_range_meters":23600,"station_id":"ce4bh512rcd13ifvqe3g","pricing_plan_id":"free"},{"bike_id":"3ec8ad1a-ec70-4027-837d-b2763327d44e","system_id":"levelo_inurba_marseille","lat":43.2849,"lon":5.38428,"is_reserved":false,"is_disabled":false,"rental_uris":{"android":"levelo://app?vid=3ec8ad1a-ec70-4027-837d-b2763327d44e","ios":"levelo://app?vid=3ec8ad1a-ec70-4027-837d-b2763327d44e"},