{"last_updated":1736248052,"ttl":60,"version":"2.2","data":{"bikes":[{"bike_id":"858bd43e-5fdd-4e4e-b8dc-df4e2d53b013","system_id":"levelo_inurba_marseille","lat":43.25815,"lon":5.39405,"is_reserved":false,"is_disabled":false,"rental_uris":{"android":"levelo://app?vid=858bd43e-5fdd-4e4e-b8dc-df4e2d53b013","ios":"levelo://app?vid=858bd43e-5fdd-4e4e-b8dc-df4e2d53b013"},"vehicle_type_id":"4","last_reported":1736248052,"current_range_meters":26800,"station_id":"ce4bhip2rcd13ifvqft0","pricing_plan_id":"cebpf4jnsgd1na2vs0mg"},{"bike_id":"6468ca15-1b81-4ca0-9d51-e5a545b05c54","system_id":"levelo_inurba_marseille","lat":43.27813,"lon":5.40723,"is_reserved":false,"is_disabled":false,"rental_uris":{"android":"levelo://app?vid=6468ca15-1b81-4ca0-9d51-e5a545b05c54","ios":"levelo://app?vid=6468ca15-1b81-4ca0-9d51-e5a545b05c54"},"vehicle_type_id":"4","last_reported":1736248052,"current_range_meters":26000,"station_id":"ce4bhnh2rcd13ifvqgtg","pricing_plan_id":"cebpf4jnsgd1na2vs0mg"},{"bike_id":"353691b9-2d3f-4d73-8ad0-0dbb644ba427","system_id":"levelo_inurba_marseille","lat":43.26941,"lon":5.38647,"is_reserved":false,"is_disabled":false,"rental_uris":{"android":"levelo://app?vid=353691b9-2d3f-4d73-8ad0-0dbb644ba427","ios":"levelo://app?vid=353691b9-2d3f-4d73-8ad0-0dbb644ba427"},"vehicle_type_id":"4","last_reported":1736248052,"current_range_meters":19200,"station_id":"ce4bhh92rcd13ifvqfh0","pricing_plan_id":"cebpf4jnsgd1na2vs0mg"},{"bike_id":"1a8419c8-3bfe-4236-8b26-748ea4fe4fd8","system_id":"levelo_inurba_marseille","lat":43.2465,"lon":5.38892,"is_reserved":false,"is_disabled":false,"rental_uris":{"android":"levelo://app?vid=1a8419c8-3bfe-4236-8b26-748ea4fe4fd8","ios":"levelo://app?vid=1a8419c8-3bfe-4236-8b26-748ea4fe4fd8"},"vehicle_type_id":"4","last_reported":1736248052,"current_range_meters":32400,"station_id":"ce4bhg12rcd13ifvqf60","pricing_plan_id":"cebpf4jnsgd1na2vs0mg"},{"bike_id":"a9e78922-fdd7-4fbb-a02c-53aa89293846","system_id":"levelo_inurba_marseille","lat":43.25043,"lon":5.38901,"is_reserved":false,"is_disabled":false,"rental_uris":{"android":"levelo://app?vid=a9e78922-fdd7-4fbb-a02c-53aa89293846","ios":"levelo://app?vid=a9e78922-fdd7-4fbb-a02c-53aa89293846"},"vehicle_type_id":"4","last_reported":1736248052,"current_range_meters":18800,"station_id":"ce4bhgp2rcd13ifvqfd0","pricing_plan_id":"cebpf4jnsgd1na2vs0mg"},{"bike_id":"9613f90b-2f37-462c-b77e-fcda65943653","system_id":"levelo_inurba_marseille","lat":43.28029,"lon":5.41673,"is_reserved":false,"is_disabled":false,"rental_uris":{"android":"levelo://app?vid=9613f90b-2f37-462c-b77e-fcda65943653","ios":"levelo://app?vid=9613f90b-2f37-462c-b77e-fcda65943653"},"vehicle_type_id":"4","last_reported":1736248052,"current_range_meters":32800,"station_id":"ce4bho12rcd13ifvqh1g","pricing_plan_id":"cebpf4jnsgd1na2vs0mg"},{"bike_id":"1c2c3464-8b3a-4eab-9fdd-fd6c6e2d5657","system_id":"levelo_inurba_marseille","lat":43.28631,"lon":5.38706,"is_reserved":false,"is_disabled":true,"rental_uris":{"android":"levelo://app?vid=1c2c3464-8b3a-4eab-9fdd-fd6c6e2d5657","ios":"levelo://app?vid=1c2c3464-8b3a-4eab-9fdd-fd6c6e2d5657"},"vehicle_type_id":"4","last_reported":1736248052,"current_range_meters":400,"station_id":"ce4bh492rcd13ifvqdug","pricing_plan_id":"cebpf4jnsgd1na2vs0mg"},{"bike_id":"8b2ac039-e929-4ca7-95ce-c4e861f78536","system_id":"levelo_inurba_marseille","lat":43.31755,"lon":5.39024,"is_reserved":false,"is_disabled":false,"rental_uris":{"android":"levelo://app?vid=8b2ac039-e929-4ca7-95ce-c4e861f78536","ios":"levelo://app?vid=8b2ac039-e929-4ca7-95ce-c4e861f78536"},"vehicle_type_id":"4","last_reported":1736248052,"current_range_meters":39200,"station_id":"ce4bhqp2rcd13ifvqhng","pricing_plan_id":"cebpf4jnsgd1na2vs0mg"},{"bike_id":"2d6928f8-4b5e-4102-9da8-4203b801ad10","system_id":"levelo_inurba_marseille","lat":43.30151,"lon":5.38079,"is_reserved":false,"is_disabled":false,"rental_uris":{"android":"levelo://app?vid=2d6928f8-4b5e-4102-9da8-4203b801ad10","ios":"levelo://app?vid=2d6928f8-4b5e-4102-9da8-4203b801ad10"},"vehicle_type_id":"4","last_reported":1736248052,"current_range_meters":38800,"station_id":"ce4bgjp2rcd13ifvqbh0","pricing_plan_id":"cebpf4jnsgd1na2vs0mg"},{"bike_id":"e8f7458c-cf19-43d7-a972-43547ad9fe30","system_id":"levelo_inurba_marseille","lat":43.2713,"lon":5.4103,"is_reserved":false,"is_disabled":false,"rental_uris":{"android":"levelo://app?vid=e8f7458c-cf19-43d7-a972-43547ad9fe30","ios":"levelo://app?vid=e8f7458c-cf19-43d7-a972-43547ad9fe30"},"vehicle_type_id":"4","last_reported":1736248052,"current_range_meters":4000,"station_id":"","pricing_plan_id":"cebpf4jnsgd1na2vs0mg"},{"bike_id":"05a2c15a-fb68-455c-8082-fdf747a62fe7","system_id":"levelo_inurba_marseille","lat":43.27811,"lon":5.40722,"is_reserved":false,"is_disabled":true,"rental_uris":{"android":"levelo://app?vid=05a2c15a-fb68-455c-8082-fdf747a62fe7","ios":"levelo://app?vid=05a2c15a-fb68-455c-8082-fdf747a62fe7"},"vehicle_type_id":"4","last_reported":1736248052,"current_range_meters":0,"station_id":"ce4bhnh2rcd13ifvqgtg","pricing_plan_id":"cebpf4jnsgd1na2vs0mg"},{"bike_id":"68ed12ce-19b0-4151-b855-11515b9fdf32","system_id":"levelo_inurba_marseille","lat":43.29311,"lon":5.37183,"is_reserved":false,"is_disabled":false,"rental_uris":{"android":"levelo://app?vid=68ed12ce-19b0-4151-b855-11515b9fdf32","ios":"levelo://app?vid=68ed12ce-19b0-4151-b855-11515b9fdf32"},"vehicle_type_id":"4","last_reported":1736248052,"current_range_meters":38800,"station_id":"ce4bgh92rcd13ifvqb40","pricing_plan_id":"cebpf4jnsgd1na2vs0mg"},{"bike_id":"a8780b01-fd91-47fa-b995-0c9448674493","system_id":"levelo_inurba_marseille","lat":43.31761,"lon":5.39019,"is_reserved":false,"is_disabled":false,"rental_uris":{"android":"levelo://app?vid=a8780b01-fd91-47fa-b995-0c9448674493","ios":"levelo://app?vid=a8780b01-fd91-47fa-b995-0c9448674493"},"vehicle_type_id":"4","last_reported":1736248052,"current_range_meters":4400,"station_id":"ce4bhqp2rcd13ifvqhng","pricing_plan_id":"cebpf4jnsgd1na2vs0mg"},{"bike_id":"2e3020fc-739e-484f-aff1-968aa18f2ac1","system_id":"levelo_inurba_marseille","lat":43.27978,"lon":5.41648,"is_reserved":false,"is_disabled":true,"rental_uris":{"android":"levelo://app?vid=2e3020fc-739e-484f-aff1-968aa18f2ac1","ios":"levelo://app?vid=2e3020fc-739e-484f-aff1-968aa18f2ac1"},"vehicle_type_id":"4","last_reported":1736248052,"current_range_meters":36400,"station_id":"ce4bho12rcd13ifvqh1g","pricing_plan_id":"cebpf4jnsgd1na2vs0mg"},{"bike_id":"a425e945-da11-41d8-bb80-d32256760811","system_id":"levelo_inurba_marseille","lat":43.30135,"lon":5.37408,"is_reserved":false,"is_disabled":false,"rental_uris":{"android":"levelo://app?vid=a425e945-da11-41d8-bb80-d32256760811","ios":"levelo://app?vid=a425e945-da11-41d8-bb80-d32256760811"},"vehicle_type_id":"4","last_reported":1736248052,"current_range_meters":38800,"station_id":"ce4bgs92rcd13ifvqcc0","pricing_plan_id":"cebpf4jnsgd1na2vs0mg"},{"bike_id":"25eada10-1de1-4fd2-9f49-86dd4ee2d477","system_id":"levelo_inurba_marseille","lat":43.26691,"lon":5.38277,"is_reserved":false,"is_disabled":false,"rental_uris":{"android":"levelo://app?vid=25eada10-1de1-4fd2-9f49-86dd4ee2d477","ios":"levelo://app?vid=25eada10-1de1-4fd2-9f49-86dd4ee2d477"},"vehicle_type_id":"4","last_reported":1736248052,"current_range_meters":39200,"station_id":"ce4bhg92rcd13ifvqf90","pricing_plan_id":"cebpf4jnsgd1na2vs0mg"},{"bike_id":"9bc564bb-6773-485d-ac7c-33edf80314fe","system_id":"levelo_inurba_marseille","lat":43.25001,"lon":5.38925,"is_reserved":false,"is_disabled":false,"rental_uris":{"android":"levelo://app?vid=9bc564bb-6773-485d-ac7c-33edf80314fe","ios":"levelo://app?vid=9bc564bb-6773-485d-ac7c-33edf80314fe"},"vehicle_type_id":"4","last_reported":1736248052,"current_range_meters":38800,"station_id":"ce4bhgp2rcd13ifvqfd0","pricing_plan_id":"cebpf4jnsgd1na2vs0mg"},{"bike_id":"a1297094-3d49-4db2-847c-7a7318fe3fed","system_id":"levelo_inurba_marseille","lat":43.28662,"lon":5.36376,"is_reserved":false,"is_disabled":false,"rental_uris":{"android":"levelo://app?vid=a1297094-3d49-4db2-847c-7a7318fe3fed","ios":"levelo://app?vid=a1297094-3d49-4db2-847c-7a7318fe3fed"},"vehicle_type_id":"4","last_reported":1736248052,"current_range_meters":24400,"station_id":"ce4bhah2rcd13ifvqej0","pricing_plan_id":"cebpf4jnsgd1na2vs0mg"},{"bike_id":"5f21cdc1-e56d-4c94-b8ac-7c72599c490f","system_id":"levelo_inurba_marseille","lat":43.30533,"lon":5.36568,"is_reserved":false,"is_disabled":false,"rental_uris":{"android":"levelo://app?vid=5f21cdc1-e56d-4c94-b8ac-7c72599c490f","ios":"levelo://app?vid=5f21cdc1-e56d-4c94-b8ac-7c72599c490f"},"vehicle_type_id":"4","last_reported":1736248052,"current_range_meters":38800,"station_id":"ce4bgs12rcd13ifvqcag","pricing_plan_id":"cebpf4jnsgd1na2vs0mg"},{"bike_id":"4eeaeffa-480f-4a94-8286-42f1bcb601fc","system_id":"levelo_inurba_marseille","lat":43.29245,"lon":5.40166,"is_reserved":false,"is_disabled":true,"rental_uris":{"android":"levelo://app?vid=4eeaeffa-480f-4a94-8286-42f1bcb601fc","ios":"levelo://app?vid=4eeaeffa-480f-4a94-8286-42f1bcb601fc"},"vehicle_type_id":"4","last_reported":1736248052,"current_range_meters":17600,"station_id":"ce4bh312rcd13ifvqdk0","pricing_plan_id":"cebpf4jnsgd1na2vs0mg"},{"bike_id":"3dcc1c8e-6db9-4000-a7ee-f1b5b658ee7a","system_id":"levelo_inurba_marseille","lat":43.2717,"lon":5.40999,"is_reserved":false,"is_disabled":true,"rental_uris":{"android":"levelo://app?vid=3dcc1c8e-6db9-4000-a7ee-f1b5b658ee7a","ios":"levelo://app?vid=3dcc1c8e-6db9-4000-a7ee-f1b5b658ee7a"},"vehicle_type_id":"4","last_reported":1736248052,"current_range_meters":0,"station_id":"ce4bhl12rcd13ifvqgf0","pricing_plan_id":"cebpf4jnsgd1na2vs0mg"},{"bike_id":"9c546351-1a34-4e0c-b043-749e3ab6f40e","system_id":"levelo_inurba_marseille","lat":43.25079,"lon":5.39527,"is_reserved":false,"is_disabled":false,"rental_uris":{"android":"levelo://app?vid=9c546351-1a34-4e0c-b043-749e3ab6f40e","ios":"levelo://app?vid=9c546351-1a34-4e0c-b043-749e3ab6f40e"},"vehicle_type_id":"4","last_reported":1736248052,"current_range_meters":31200,"station_id":"ce4bhm12rcd13ifvqgkg","pricing_plan_id":"cebpf4jnsgd1na2vs0mg"},{"bike_id":"791627df-7292-49e5-a18d-ea9baf1b04d0","system_id":"levelo_inurba_marseille","lat":43.23138,"lon":5.43725,"is_reserved":false,"is_disabled":false,"rental_uris":{"android":"levelo://app?vid=791627df-7292-49e5-a18d-ea9baf1b04d0","ios":"levelo://app?vid=791627df-7292-49e5-a18d-ea9baf1b04d0"},"vehicle_type_id":"4","last_reported":1736248052,"current_range_meters":8400,"station_id":"ce4bhmp2rcd13ifvqgog","pricing_plan_id":"cebpf4jnsgd1na2vs0mg"},{"bike_id":"022739ae-67ac-4aec-8e97-f227fed3949f","system_id":"levelo_inurba_marseille","lat":43.29024,"lon":5.39977,"is_reserved":false,"is_disabled":false,"rental_uris":{"android":"levelo://app?vid=022739ae-67ac-4aec-8e97-f227fed3949f","ios":"levelo://app?vid=022739ae-67ac-4aec-8e97-f227fed3949f"},"vehicle_type_id":"4","last_reported":1736248052,"current_range_meters":11200,"station_id":"ce4bh392rcd13ifvqdm0","pricing_plan_id":"cebpf4jnsgd1na2vs0mg"},{"bike_id":"fdb9800d-3c2b-423d-84ef-3f20c68ea843","system_id":"levelo_inurba_marseille","lat":43.30534,"lon":5.36727,"is_reserved":false,"is_disabled":false,"rental_uris":{"android":"levelo://app?vid=fdb9800d-3c2b-423d-84ef-3f20c68ea843","ios":"levelo://app?vid=fdb9800d-3c2b-423d-84ef-3f20c68ea843"},"vehicle_type_id":"4","last_reported":1736248052,"current_range_meters":34800,"station_id":"ce4bgrp2rcd13ifvqc9g","pricing_plan_id":"cebpf4jnsgd1na2vs0mg"},{"bike_id":"fbe46b24-788f-4906-9cbf-af9f6e8e027c","system_id":"levelo_inurba_marseille","lat":43.308927,"lon":5.36864,"is_reserved":false,"is_disabled":false,"rental_uris":{"android":"levelo://app?vid=fbe46b24-788f-4906-9cbf-af9f6e8e027c","ios":"levelo://app?vid=fbe46b24-788f-4906-9cbf-af9f6e8e027c"},"vehicle_type_id":"4","last_reported":1736248052,"current_range_meters":36400,"station_id":"ce4bgn92rcd13ifvqbvg","pricing_plan_id":"cebpf4jnsgd1na2vs0mg"},{"bike_id":"7ed01b9d-e17d-44b7-923c-501cf964c57e","system_id":"levelo_inurba_marseille","lat":43.23159,"lon":5.40004,"is_reserved":false,"is_disabled":false,"rental_uris":{"android":"levelo://app?vid=7ed01b9d-e17d-44b7-923c-501cf964c57e","ios":"levelo://app?vid=7ed01b9d-e17d-44b7-923c-501cf964c57e"},"vehicle_type_id":"4","last_reported":1736248052,"current_range_meters":39200,"station_id":"ce4bhn12rcd13ifvqgqg","pricing_plan_id":"cebpf4jnsgd1na2vs0mg"},{"bike_id":"c023aed8-c4af-47de-bf55-7ec6cfb1c879","system_id":"levelo_inurba_marseille","lat":43.26188,"lon":5.37453,"is_reserved":false,"is_disabled":true,"rental_uris":{"android":"levelo://app?vid=c023aed8-c4af-47de-bf55-7ec6cfb1c879","ios":"levelo://app?vid=c023aed8-c4af-47de-bf55-7ec6cfb1c879"},"vehicle_type_id":"4","last_reported":1736248052,"current_range_meters":27600,"station_id":"ce4bhgp2rcd13ifvqfc0","pricing_plan_id":"cebpf4jnsgd1na2vs0mg"},{"bike_id":"60d95c40-061d-4378-a80c-4613fea8ac3b","system_id":"levelo_inurba_marseille","lat":43.29527,"lon":5.37492,"is_reserved":false,"is_disabled":false,"rental_uris":{"android":"levelo://app?vid=60d95c40-061d-4378-a80c-4613fea8ac3b","ios":"levelo://app?vid=60d95c40-061d-4378-a80c-4613fea8ac3b"},"vehicle_type_id":"4","last_reported":1736248052,"current_range_meters":39200,"station_id":"ce4bgkp2rcd13ifvqbmg","pricing_plan_id":"cebpf4jnsgd1na2vs0mg"},{"bike_id":"ad036647-e9f4-4246-953d-37ee6601db50","system_id":"levelo_inurba_marseille","lat":43.24673,"lon":5.38165,"is_reserved":false,"is_disabled":false,"rental_uris":{"android":"levelo://app?vid=ad036647-e9f4-4246-953d-37ee6601db50","ios":"levelo://app?vid=ad036647-e9f4-4246-953d-37ee6601db50"},"vehicle_type_id":"4","last_reported":1736248052,"current_range_meters":16800,"station_id":"ce4bhih2rcd13ifvqfr0","pricing_plan_id":"cebpf4jnsgd1na2vs0mg"},{"bike_id":"149e3021-1368-416e-9e1b-afdb4ad781f2","system_id":"levelo_inurba_marseille","lat":43.24167,"lon":5.36434,"is_reserved":false,"is_disabled":false,"rental_uris":{"android":"levelo://app?vid=149e3021-1368-416e-9e1b-afdb4ad781f2","ios":"levelo://app?vid=149e3021-1368-416e-9e1b-afdb4ad781f2"},"vehicle_type_id":"4","last_reported":1736248052,"current_range_meters":32000,"station_id":"cpo36qri1sfpv3e86is0","pricing_plan_id":"cebpf4jnsgd1na2vs0mg"},{"bike_id":"d3f4dc47-22e3-4b3a-8557-9ec7893c6ec5","system_id":"levelo_inurba_marseille","lat":43.26945,"lon":5.38662,"is_reserved":false,"is_disabled":false,"rental_uris":{"android":"levelo://app?vid=d3f4dc47-22e3-4b3a-8557-9ec7893c6ec5","ios":"levelo://app?vid=d3f4dc47-22e3-4b3a-8557-9ec7893c6ec5"},"vehicle_type_id":"4","last_reported":1736248052,"current_range_meters":32800,"station_id":"ce4bhh92rcd13ifvqfh0","pricing_plan_id":"cebpf4jnsgd1na2vs0mg"},{"bike_id":"ee7f5816-483f-4372-8ce1-bc546e1bdb5f","system_id":"levelo_inurba_marseille","lat":43.25003,"lon":5.38932,"is_reserved":false,"is_disabled":false,"rental_uris":{"android":"levelo://app?vid=ee7f5816-483f-4372-8ce1-bc546e1bdb5f","ios":"levelo://app?vid=ee7f5816-483f-4372-8ce1-bc546e1bdb5f"},"vehicle_type_id":"4","last_reported":1736248052,"current_range_meters":24000,"station_id":"ce4bhgp2rcd13ifvqfd0","pricing_plan_id":"cebpf4jnsgd1na2vs0mg"},{"bike_id":"5f45708d-4ef4-4235-99d9-1c2e0ad239be","system_id":"levelo_inurba_marseille","lat":43.31511,"lon":5.37299,"is_reserved":false,"is_disabled":false,"rental_uris":{"android":"levelo://app?vid=5f45708d-4ef4-4235-99d9-1c2e0ad239be","ios":"levelo://app?vid=5f45708d-4ef4-4235-99d9-1c2e0ad239be"},"vehicle_type_id":"4","last_reported":1736248052,"current_range_meters":32000,"station_id":"ce4bgt12rcd13ifvqcd0","pricing_plan_id":"cebpf4jnsgd1na2vs0mg"},{"bike_id":"b92414fa-f45e-4dc8-ba9a-7a0d49f60619","system_id":"levelo_inurba_marseille","lat":43.27205,"lon":5.3915,"is_reserved":false,"is_disabled":false,"rental_uris":{"android":"levelo://app?vid=b92414fa-f45e-4dc8-ba9a-7a0d49f60619","ios":"levelo://app?vid=b92414fa-f45e-4dc8-ba9a-7a0d49f60619"},"vehicle_type_id":"4","last_reported":1736248052,"current_range_meters":38400,"station_id":"ce4bhhp2rcd13ifvqfm0","pricing_plan_id":"cebpf4jnsgd1na2vs0mg"},{"bike_id":"8ab598b6-74e1-4b0e-8edb-ab2a2e4eb67e","system_id":"levelo_inurba_marseille","lat":43.28401,"lon":5.37521,"is_reserved":false,"is_disabled":true,"rental_uris":{"android":"levelo://app?vid=8ab598b6-74e1-4b0e-8edb-ab2a2e4eb67e","ios":"levelo://app?vid=8ab598b6-74e1-4b0e-8edb-ab2a2e4eb67e"},"vehicle_type_id":"4","last_reported":1736248052,"current_range_meters":36800,"station_id":"","pricing_plan_id":"cebpf4jnsgd1na2vs0mg"},{"bike_id":"6e2b8c69-2107-44ab-a9ca-a4e9d8772e45","system_id":"levelo_inurba_marseille","lat":43.33758,"lon":5.37464,"is_reserved":false,"is_disabled":true,"rental_uris":{"android":"levelo://app?vid=6e2b8c69-2107-44ab-a9ca-a4e9d8772e45","ios":"levelo://app?vid=6e2b8c69-2107-44ab-a9ca-a4e9d8772e45"},"vehicle_type_id":"4","last_reported":1736248052,"current_range_meters":38800,"station_id":"","pricing_plan_id":"cebpf4jnsgd1na2vs0mg"},{"bike_id":"0fbfd869-1385-4e93-a4ec-7ea20e827a27","system_id":"levelo_inurba_marseille","lat":43.28201,"lon":5.36322,"is_reserved":false,"is_disabled":false,"rental_uris":{"android":"levelo://app?vid=0fbfd869-1385-4e93-a4ec-7ea20e827a27","ios":"levelo://app?vid=0fbfd869-1385-4e93-a4ec-7ea20e827a27"},"vehicle_type_id":"4","last_reported":1736248052,"current_range_meters":20800,"station_id":"","pricing_plan_id":"cebpf4jnsgd1na2vs0mg"},{"bike_id":"e649eee8-9bc7-4af1-8705-8eca6508f8fb","system_id":"levelo_inurba_marseille","lat":43.30906,"lon":5.36859,"is_reserved":false,"is_disabled":false,"rental_uris":{"android":"levelo://app?vid=e649eee8-9bc7-4af1-8705-8eca6508f8fb","ios":"levelo://app?vid=e649eee8-9bc7-4af1-8705-8eca6508f8fb"},"vehicle_type_id":"4","last_reported":1736248052,"current_range_meters":38800,"station_id":"ce4bgn92rcd13ifvqbvg","pricing_plan_id":"cebpf4jnsgd1na2vs0mg"},{"bike_id":"90cc549c-0caa-4120-a382-164d27980f0d","system_id":"levelo_inurba_marseille","lat":43.2592,"lon":5.40904,"is_reserved":false,"is_disabled":false,"rental_uris":{"android":"levelo://app?vid=90cc549c-0caa-4120-a382-164d27980f0d","ios":"levelo://app?vid=90cc549c-0caa-4120-a382-164d27980f0d"},"vehicle_type_id":"4","last_reported":1736248052,"current_range_meters":26800,"station_id":"ce4bhm92rcd13ifvqglg","pricing_plan_id":"cebpf4jnsgd1na2vs0mg"},{"bike_id":"0d869571-702b-474e-9734-e51fa36b8db2","system_id":"levelo_inurba_marseille","lat":43.2919,"lon":5.39321,"is_reserved":false,"is_disabled":true,"rental_uris":{"android":"levelo://app?vid=0d869571-702b-474e-9734-e51fa36b8db2","ios":"levelo://app?vid=0d869571-702b-474e-9734-e51fa36b8db2"},"vehicle_type_id":"4","last_reported":1736248052,"current_range_meters":8400,"station_id":"ce4bh192rcd13ifvqdd0","pricing_plan_id":"cebpf4jnsgd1na2vs0mg"},{"bike_id":"f3744943-ee86-4660-bc5b-2f1e243daeed","system_id":"levelo_inurba_marseille","lat":43.28265,"lon":5.35078,"is_reserved":false,"is_disabled":false,"rental_uris":{"android":"levelo://app?vid=f3744943-ee86-4660-bc5b-2f1e243daeed","ios":"levelo://app?vid=f3744943-ee86-4660-bc5b-2f1e243daeed"},"vehicle_type_id":"4","last_reported":1736248052,"current_range_meters":32400,"station_id":"ce4bhbp2rcd13ifvqerg","pricing_plan_id":"cebpf4jnsgd1na2vs0mg"},{"bike_id":"6df17fb0-2ddd-4e94-9f55-4c7ec4dae7de","system_id":"levelo_inurba_marseille","lat":43.29001,"lon":5.38138,"is_reserved":false,"is_disabled":false,"rental_uris":{"android":"levelo://app?vid=6df17fb0-2ddd-4e94-9f55-4c7ec4dae7de","ios":"levelo://app?vid=6df17fb0-2ddd-4e94-9f55-4c7ec4dae7de"},"vehicle_type_id":"4","last_reported":1736248052,"current_range_meters":32000,"station_id":"ce4bh4p2rcd13ifvqe1g","pricing_plan_id":"cebpf4jnsgd1na2vs0mg"},{"bike_id":"634f6533-1a25-40ca-9a18-12a912b70bc8","system_id":"levelo_inurba_marseille","lat":43.25941,"lon":5.40917,"is_reserved":false,"is_disabled":false,"rental_uris":{"android":"levelo://app?vid=634f6533-1a25-40ca-9a18-12a912b70bc8","ios":"levelo://app?vid=634f6533-1a25-40ca-9a18-12a912b70bc8"},"vehicle_type_id":"4","last_reported":1736248052,"current_range_meters":30400,"station_id":"ce4bhm92rcd13ifvqglg","pricing_plan_id":"cebpf4jnsgd1na2vs0mg"},{"bike_id":"4c58a8a6-dfaa-45fe-b47a-5a02dc616ff5","system_id":"levelo_inurba_marseille","lat":43.27057,"lon":5.42293,"is_reserved":false,"is_disabled":false,"rental_uris":{"android":"levelo://app?vid=4c58a8a6-dfaa-45fe-b47a-5a02dc616ff5","ios":"levelo://app?vid=4c58a8a6-dfaa-45fe-b47a-5a02dc616ff5"},"vehicle_type_id":"4","last_reported":1736248052,"current_range_meters":38800,"station_id":"ce4bhk92rcd13ifvqgb0","pricing_plan_id":"cebpf4jnsgd1na2vs0mg"},{"bike_id":"9682bc1f-3261-43b4-8c4c-4ff6f2ffabec","system_id":"levelo_inurba_marseille","lat":43.30142,"lon":5.38072,"is_reserved":false,"is_disabled":false,"rental_uris":{"android":"levelo://app?vid=9682bc1f-3261-43b4-8c4c-4ff6f2ffabec","ios":"levelo://app?vid=9682bc1f-3261-43b4-8c4c-4ff6f2ffabec"},"vehicle_type_id":"4","last_reported":1736248052,"current_range_meters":22000,"station_id":"ce4bgjp2rcd13ifvqbh0","pricing_plan_id":"cebpf4jnsgd1na2vs0mg"},{"bike_id":"8d0a5209-eca8-4990-a4f5-66f0ee5c1c9b","system_id":"levelo_inurba_marseille","lat":43.33605,"lon":5.41023,"is_reserved":false,"is_disabled":false,"rental_uris":{"android":"levelo://app?vid=8d0a5209-eca8-4990-a4f5-66f0ee5c1c9b","ios":"levelo://app?vid=8d0a5209-eca8-4990-a4f5-66f0ee5c1c9b"},"vehicle_type_id":"4","last_reported":1736248052,"current_range_meters":24000,"station_id":"ce4bhqh2rcd13ifvqhmg","pricing_plan_id":"cebpf4jnsgd1na2vs0mg"},{"bike_id":"3c734b14-0d1c-4c7a-ad42-5a89ff7fd6b5","system_id":"levelo_inurba_marseille","lat":43.24551,"lon":5.3953,"is_reserved":false,"is_disabled":false,"rental_uris":{"android":"levelo://app?vid=3c734b14-0d1c-4c7a-ad42-5a89ff7fd6b5","ios":"levelo://app?vid=3c734b14-0d1c-4c7a-ad42-5a89ff7fd6b5"},"vehicle_type_id":"4","last_reported":1736248052,"current_range_meters":34000,"station_id":"ce4bhlp2rcd13ifvqgjg","pricing_plan_id":"cebpf4jnsgd1na2vs0mg"},{"bike_id":"a23e7dd5-84cc-4eca-9236-90b42c7ed41b","system_id":"levelo_inurba_marseille","lat":43.32332,"lon":5.40637,"is_reserved":false,"is_disabled":true,"rental_uris":{"android":"levelo://app?vid=a23e7dd5-84cc-4eca-9236-90b42c7ed41b","ios":"levelo://app?vid=a23e7dd5-84cc-4eca-9236-90b42c7ed41b"},"vehicle_type_id":"4","last_reported":1736248052,"current_range_meters":13600,"station_id":"ce4bhq92rcd13ifvqhjg","pricing_plan_id":"cebpf4jnsgd1na2vs0mg"},{"bike_id":"ea0bb747-33d2-4448-90df-4bf6cda84291","system_id":"levelo_inurba_marseille","lat":43.29295,"lon":5.37444,"is_reserved":false,"is_disabled":false,"rental_uris":{"android":"levelo://app?vid=ea0bb747-33d2-4448-90df-4bf6cda84291","ios":"levelo://app?vid=ea0bb747-33d2-4448-90df-4bf6cda84291"},"vehicle_type_id":"4","last_reported":1736248052,"current_range_meters":26800,"station_id":"ce4bgi12rcd13ifvqb70","pricing_plan_id":"cebpf4jnsgd1na2vs0mg"},{"bike_id":"bcfcdd76-be36-45b6-88f2-c3189a920404","system_id":"levelo_inurba_marseille","lat":43.3028,"lon":5.37718,"is_reserved":false,"is_disabled":false,"rental_uris":{"android":"levelo://app?vid=bcfcdd76-be36-45b6-88f2-c3189a920404","ios":"levelo://app?vid=bcfcdd76-be36-45b6-88f2-c3189a920404"},"vehicle_type_id":"4","last_reported":1736248052,"current_range_meters":39200,"station_id":"ce4bguh2rcd13ifvqcj0","pricing_plan_id":"cebpf4jnsgd1na2vs0mg"},{"bike_id":"f11f56c5-47e5-43f6-bbfb-e36c082db081","system_id":"levelo_inurba_marseille","lat":43.3135,"lon":5.3672,"is_reserved":false,"is_disabled":false,"rental_uris":{"android":"levelo://app?vid=f11f56c5-47e5-43f6-bbfb-e36c082db081","ios":"levelo://app?vid=f11f56c5-47e5-43f6-bbfb-e36c082db081"},"vehicle_type_id":"4","last_reported":1736248052,"current_range_meters":38400,"station_id":"ce4bgr92rcd13ifvqc6g","pricing_plan_id":"cebpf4jnsgd1na2vs0mg"},{"bike_id":"abae2455-16a9-4e5a-a642-8b5cb7264c63","system_id":"levelo_inurba_marseille","lat":43.28701,"lon":5.40001,"is_reserved":false,"is_disabled":false,"rental_uris":{"android":"levelo://app?vid=abae2455-16a9-4e5a-a642-8b5cb7264c63","ios":"levelo://app?vid=abae2455-16a9-4e5a-a642-8b5cb7264c63"},"vehicle_type_id":"4","last_reported":1736248052,"current_range_meters":30800,"station_id":"ce4bho92rcd13ifvqh3g","pricing_plan_id":"cebpf4jnsgd1na2vs0mg"},{"bike_id":"db973fb0-a7a7-419f-905d-9711a91dd280","system_id":"levelo_inurba_marseille","lat":43.25716,"lon":5.41111,"is_reserved":false,"is_disabled":true,"rental_uris":{"android":"levelo://app?vid=db973fb0-a7a7-419f-905d-9711a91dd280","ios":"levelo://app?vid=db973fb0-a7a7-419f-905d-9711a91dd280"},"vehicle_type_id":"4","last_reported":1736248052,"current_range_meters":36000,"station_id":"ce4bhkp2rcd13ifvqgd0","pricing_plan_id":"cebpf4jnsgd1na2vs0mg"},{"bike_id":"a0b57a50-67bc-4d12-bffe-4176748f2bc4","system_id":"levelo_inurba_marseille","lat":43.30308,"lon":5.36899,"is_reserved":false,"is_disabled":false,"rental_uris":{"android":"levelo://app?vid=a0b57a50-67bc-4d12-bffe-4176748f2bc4","ios":"levelo://app?vid=a0b57a50-67bc-4d12-bffe-4176748f2bc4"},"vehicle_type_id":"4","last_reported":1736248052,"current_range_meters":16000,"station_id":"ce4bgqh2rcd13ifvqc5g","pricing_plan_id":"cebpf4jnsgd1na2vs0mg"},{"bike_id":"92468610-4619-4028-811e-242ed2a589b0","system_id":"levelo_inurba_marseille","lat":43.23199,"lon":5.39991,"is_reserved":false,"is_disabled":false,"rental_uris":{"android":"levelo://app?vid=92468610-4619-4028-811e-242ed2a589b0","ios":"levelo://app?vid=92468610-4619-4028-811e-242ed2a589b0"},"vehicle_type_id":"4","last_reported":1736248052,"current_range_meters":13600,"station_id":"ce4bhn12rcd13ifvqgqg","pricing_plan_id":"cebpf4jnsgd1na2vs0mg"},{"bike_id":"fe09f8ca-f67b-4f31-8eb2-63074d94e886","system_id":"levelo_inurba_marseille","lat":43.25114,"lon":5.40363,"is_reserved":false,"is_disabled":false,"rental_uris":{"android":"levelo://app?vid=fe09f8ca-f67b-4f31-8eb2-63074d94e886","ios":"levelo://app?vid=fe09f8ca-f67b-4f31-8eb2-63074d94e886"},"vehicle_type_id":"4","last_reported":1736248052,"current_range_meters":39200,"station_id":"ce4bhlh2rcd13ifvqgig","pricing_plan_id":"cebpf4jnsgd1na2vs0mg"},{"bike_id":"bf3b87f9-dd67-49e8-97eb-076d78f0412d","system_id":"levelo_inurba_marseille","lat":43.26675,"lon":5.38293,"is_reserved":false,"is_disabled":false,"rental_uris":{"android":"levelo://app?vid=bf3b87f9-dd67-49e8-97eb-076d78f0412d","ios":"levelo://app?vid=bf3b87f9-dd67-49e8-97eb-076d78f0412d"},"vehicle_type_id":"4","last_reported":1736248052,"current_range_meters":38800,"station_id":"ce4bhg92rcd13ifvqf90","pricing_plan_id":"cebpf4jnsgd1na2vs0mg"},{"bike_id":"ad92df60-f3d5-495a-8326-c79bafcf1594","system_id":"levelo_inurba_marseille","lat":43.32286,"lon":5.38277,"is_reserved":false,"is_disabled":false,"rental_uris":{"android":"levelo://app?vid=ad92df60-f3d5-495a-8326-c79bafcf1594","ios":"levelo://app?vid=ad92df60-f3d5-495a-8326-c79bafcf1594"},"vehicle_type_id":"4","last_reported":1736248052,"current_range_meters":38800,"station_id":"ce4bhr12rcd13ifvqhqg","pricing_plan_id":"cebpf4jnsgd1na2vs0mg"},{"bike_id":"c0582d81-71b0-4eea-ba50-4da054cc145f","system_id":"levelo_inurba_marseille","lat":43.281522,"lon":5.42647,"is_reserved":false,"is_disabled":false,"rental_uris":{"android":"levelo://app?vid=c0582d81-71b0-4eea-ba50-4da054cc145f","ios":"levelo://app?vid=c0582d81-71b0-4eea-ba50-4da054cc145f"},"vehicle_type_id":"4","last_reported":1736248052,"current_range_meters":6000,"station_id":"ce4bhnh2rcd13ifvqgug","pricing_plan_id":"cebpf4jnsgd1na2vs0mg"},{"bike_id":"0aa10dfe-cc5f-4fc7-90b8-fc6a5ef6e9bf","system_id":"levelo_inurba_marseille","lat":43.25584,"lon":5.38243,"is_reserved":false,"is_disabled":false,"rental_uris":{"android":"levelo://app?vid=0aa10dfe-cc5f-4fc7-90b8-fc6a5ef6e9bf","ios":"levelo://app?vid=0aa10dfe-cc5f-4fc7-90b8-fc6a5ef6e9bf"},"vehicle_type_id":"4","last_reported":1736248052,"current_range_meters":16800,"station_id":"ce4bhih2rcd13ifvqfs0","pricing_plan_id":"cebpf4jnsgd1na2vs0mg"},{"bike_id":"bc9bb4d7-2fdc-4d34-b0a0-ed77a3035abd","system_id":"levelo_inurba_marseille","lat":43.31701,"lon":5.37787,"is_reserved":false,"is_disabled":false,"rental_uris":{"android":"levelo://app?vid=bc9bb4d7-2fdc-4d34-b0a0-ed77a3035abd","ios":"levelo://app?vid=bc9bb4d7-2fdc-4d34-b0a0-ed77a3035abd"},"vehicle_type_id":"4","last_reported":1736248052,"current_range_meters":26800,"station_id":"ce4bgth2rcd13ifvqch0","pricing_plan_id":"cebpf4jnsgd1na2vs0mg"},{"bike_id":"8426cb75-87ab-4635-ad12-c9daf81b2fdc","system_id":"levelo_inurba_marseille","lat":43.28156,"lon":5.42664,"is_reserved":false,"is_disabled":false,"rental_uris":{"android":"levelo://app?vid=8426cb75-87ab-4635-ad12-c9daf81b2fdc","ios":"levelo://app?vid=8426cb75-87ab-4635-ad12-c9daf81b2fdc"},"vehicle_type_id":"4","last_reported":1736248052,"current_range_meters":22800,"station_id":"ce4bhnh2rcd13ifvqgug","pricing_plan_id":"cebpf4jnsgd1na2vs0mg"},{"bike_id":"49cc2a76-479d-444c-bd5a-568e445cdfb6","system_id":"levelo_inurba_marseille","lat":43.29165,"lon":5.37154,"is_reserved":false,"is_disabled":false,"rental_uris":{"android":"levelo://app?vid=49cc2a76-479d-444c-bd5a-568e445cdfb6","ios":"levelo://app?vid=49cc2a76-479d-444c-bd5a-568e445cdfb6"},"vehicle_type_id":"4","last_reported":1736248052,"current_range_meters":38000,"station_id":"ce4bha92rcd13ifvqeh0","pricing_plan_id":"cebpf4jnsgd1na2vs0mg"},{"bike_id":"7b78d5e2-5142-402d-a4f8-0f3037a6c533","system_id":"levelo_inurba_marseille","lat":43.26943,"lon":5.38629,"is_reserved":false,"is_disabled":true,"rental_uris":{"android":"levelo://app?vid=7b78d5e2-5142-402d-a4f8-0f3037a6c533","ios":"levelo://app?vid=7b78d5e2-5142-402d-a4f8-0f3037a6c533"},"vehicle_type_id":"4","last_reported":1736248052,"current_range_meters":33600,"station_id":"ce4bhh92rcd13ifvqfh0","pricing_plan_id":"cebpf4jnsgd1na2vs0mg"},{"bike_id":"57940789-524a-4c49-8824-fcb1509da1dc","system_id":"levelo_inurba_marseille","lat":43.26952,"lon":5.40263,"is_reserved":false,"is_disabled":false,"rental_uris":{"android":"levelo://app?vid=57940789-524a-4c49-8824-fcb1509da1dc","ios":"levelo://app?vid=57940789-524a-4c49-8824-fcb1509da1dc"},"vehicle_type_id":"4","last_reported":1736248052,"current_range_meters":38800,"station_id":"cjm6bp8fraef2m0cb0m0","pricing_plan_id":"cebpf4jnsgd1na2vs0mg"},{"bike_id":"ccefbdf4-df27-4947-9b01-eba3707af800","system_id":"levelo_inurba_marseille","lat":43.29535,"lon":5.38554,"is_reserved":false,"is_disabled":true,"rental_uris":{"android":"levelo://app?vid=ccefbdf4-df27-4947-9b01-eba3707af800","ios":"levelo://app?vid=ccefbdf4-df27-4947-9b01-eba3707af800"},"vehicle_type_id":"4","last_reported":1736248052,"current_range_meters":21600,"station_id":"ce4bgih2rcd13ifvqba0","pricing_plan_id":"cebpf4jnsgd1na2vs0mg"},{"bike_id":"05efc8db-a5eb-4569-9898-5a3e81ef0286","system_id":"levelo_inurba_marseille","lat":43.26546,"lon":5.39035,"is_reserved":false,"is_disabled":false,"rental_uris":{"android":"levelo://app?vid=05efc8db-a5eb-4569-9898-5a3e81ef0286","ios":"levelo://app?vid=05efc8db-a5eb-4569-9898-5a3e81ef0286"},"vehicle_type_id":"4","last_reported":1736248052,"current_range_meters":33200,"station_id":"ce4bhe12rcd13ifvqf30","pricing_plan_id":"cebpf4jnsgd1na2vs0mg"},{"bike_id":"7cf7b25f-d4b6-482e-ab44-d17028d65cd7","system_id":"levelo_inurba_marseille","lat":43.31696,"lon":5.37781,"is_reserved":false,"is_disabled":false,"rental_uris":{"android":"levelo://app?vid=7cf7b25f-d4b6-482e-ab44-d17028d65cd7","ios":"levelo://app?vid=7cf7b25f-d4b6-482e-ab44-d17028d65cd7"},"vehicle_type_id":"4","last_reported":1736248052,"current_range_meters":38800,"station_id":"ce4bgth2rcd13ifvqch0","pricing_plan_id":"cebpf4jnsgd1na2vs0mg"},{"bike_id":"76cd352e-a8d9-42f0-bb47-cbf0cb3d076a","system_id":"levelo_inurba_marseille","lat":43.26681,"lon":5.38304,"is_reserved":false,"is_disabled":false,"rental_uris":{"android":"levelo://app?vid=76cd352e-a8d9-42f0-bb47-cbf0cb3d076a","ios":"levelo://app?vid=76cd352e-a8d9-42f0-bb47-cbf0cb3d076a"},"vehicle_type_id":"4","last_reported":1736248052,"current_range_meters":24000,"station_id":"ce4bhg92rcd13ifvqf90","pricing_plan_id":"cebpf4jnsgd1na2vs0mg"},{"bike_id":"42dda526-5735-4886-886d-33c94e077282","system_id":"levelo_inurba_marseille","lat":43.29544,"lon":5.39383,"is_reserved":false,"is_disabled":false,"rental_uris":{"android":"levelo://app?vid=42dda526-5735-4886-886d-33c94e077282","ios":"levelo://app?vid=42dda526-5735-4886-886d-33c94e077282"},"vehicle_type_id":"4","last_reported":1736248052,"current_range_meters":36800,"station_id":"ce4bh292rcd13ifvqdf0","pricing_plan_id":"cebpf4jnsgd1na2vs0mg"},{"bike_id":"a41312dc-5b05-4e37-ba7b-c0fa0d159ad0","system_id":"levelo_inurba_marseille","lat":43.31328,"lon":5.39701,"is_reserved":false,"is_disabled":false,"rental_uris":{"android":"levelo://app?vid=a41312dc-5b05-4e37-ba7b-c0fa0d159ad0","ios":"levelo://app?vid=a41312dc-5b05-4e37-ba7b-c0fa0d159ad0"},"vehicle_type_id":"4","last_reported":1736248052,"current_range_meters":35200,"station_id":"ce4bgvp2rcd13ifvqcu0","pricing_plan_id":"cebpf4jnsgd1na2vs0mg"},{"bike_id":"bf21850d-acff-4543-bb38-ded9a3c0e11c","system_id":"levelo_inurba_marseille","lat":43.26678,"lon":5.38282,"is_reserved":false,"is_disabled":false,"rental_uris":{"android":"levelo://app?vid=bf21850d-acff-4543-bb38-ded9a3c0e11c","ios":"levelo://app?vid=bf21850d-acff-4543-bb38-ded9a3c0e11c"},"vehicle_type_id":"4","last_reported":1736248052,"current_range_meters":28400,"station_id":"ce4bhg92rcd13ifvqf90","pricing_plan_id":"cebpf4jnsgd1na2vs0mg"},{"bike_id":"637c9e25-6ec5-4d5c-9ec9-ed6c73dcb821","system_id":"levelo_inurba_marseille","lat":43.31705,"lon":5.37813,"is_reserved":false,"is_disabled":false,"rental_uris":{"android":"levelo://app?vid=637c9e25-6ec5-4d5c-9ec9-ed6c73dcb821","ios":"levelo://app?vid=637c9e25-6ec5-4d5c-9ec9-ed6c73dcb821"},"vehicle_type_id":"4","last_reported":1736248052,"current_range_meters":36000,"station_id":"","pricing_plan_id":"cebpf4jnsgd1na2vs0mg"},{"bike_id":"c4203568-2920-4a3a-9254-b7dbce893e33","system_id":"levelo_inurba_marseille","lat":43.29082,"lon":5.38135,"is_reserved":false,"is_disabled":false,"rental_uris":{"android":"levelo://app?vid=c4203568-2920-4a3a-9254-b7dbce893e33","ios":"levelo://app?vid=c4203568-2920-4a3a-9254-b7dbce893e33"},"vehicle_type_id":"4","last_reported":1736248052,"current_range_meters":37600,"station_id":"ce4bh512rcd13ifvqe2g","pricing_plan_id":"cebpf4jnsgd1na2vs0mg"},{"bike_id":"177ffa1e-b447-4332-b1a4-7216cfbbfdd7","system_id":"levelo_inurba_marseille","lat":43.29559,"lon":5.375158,"is_reserved":false,"is_disabled":false,"rental_uris":{"android":"levelo://app?vid=177ffa1e-b447-4332-b1a4-7216cfbbfdd7","ios":"levelo://app?vid=177ffa1e-b447-4332-b1a4-7216cfbbfdd7"},"vehicle_type_id":"4","last_reported":1736248052,"current_range_meters":20800,"station_id":"ce4bgh92rcd13ifvqb50","pricing_plan_id":"cebpf4jnsgd1na2vs0mg"},{"bike_id":"f4d89a0a-2551-4f65-a39a-2779380e4d0d","system_id":"levelo_inurba_marseille","lat":43.29226,"lon":5.36054,"is_reserved":false,"is_disabled":false,"rental_uris":{"android":"levelo://app?vid=f4d89a0a-2551-4f65-a39a-2779380e4d0d","ios":"levelo://app?vid=f4d89a0a-2551-4f65-a39a-2779380e4d0d"},"vehicle_type_id":"4","last_reported":1736248052,"current_range_meters":22000,"station_id":"ce4bhbh2rcd13ifvqeqg","pricing_plan_id":"cebpf4jnsgd1na2vs0mg"},{"bike_id":"5671a7cc-1094-4b46-906d-b97f733ad9e2","system_id":"levelo_inurba_marseille","lat":43.30319,"lon":5.40448,"is_reserved":false,"is_disabled":true,"rental_uris":{"android":"levelo://app?vid=5671a7cc-1094-4b46-906d-b97f733ad9e2","ios":"levelo://app?vid=5671a7cc-1094-4b46-906d-b97f733ad9e2"},"vehicle_type_id":"4","last_reported":1736248052,"current_range_meters":37600,"station_id":"ce4bh012rcd13ifvqd10","pricing_plan_id":"cebpf4jnsgd1na2vs0mg"},{"bike_id":"87214e56-26a8-4924-b39b-0d8eef493d3c","system_id":"levelo_inurba_marseille","lat":43.28037,"lon":5.36948,"is_reserved":false,"is_disabled":true,"rental_uris":{"android":"levelo://app?vid=87214e56-26a8-4924-b39b-0d8eef493d3c","ios":"levelo://app?vid=87214e56-26a8-4924-b39b-0d8eef493d3c"},"vehicle_type_id":"4","last_reported":1736248052,"current_range_meters":400,"station_id":"ce4bha12rcd13ifvqef0","pricing_plan_id":"cebpf4jnsgd1na2vs0mg"},{"bike_id":"bdd62aa5-2f74-44b1-8170-3e44d6ed0b87","system_id":"levelo_inurba_marseille","lat":43.309506,"lon":5.390468,"is_reserved":false,"is_disabled":false,"rental_uris":{"android":"levelo://app?vid=bdd62aa5-2f74-44b1-8170-3e44d6ed0b87","ios":"levelo://app?vid=bdd62aa5-2f74-44b1-8170-3e44d6ed0b87"},"vehicle_type_id":"4","last_reported":1736248052,"current_range_meters":38800,"station_id":"ce4bgup2rcd13ifvqco0","pricing_plan_id":"cebpf4jnsgd1na2vs0mg"},{"bike_id":"fd2028c5-c4c1-40b1-9b4e-4de325f8f154","system_id":"levelo_inurba_marseille","lat":43.24677,"lon":5.38148,"is_reserved":false,"is_disabled":false,"rental_uris":{"android":"levelo://app?vid=fd2028c5-c4c1-40b1-9b4e-4de325f8f154","ios":"levelo://app?vid=fd2028c5-c4c1-40b1-9b4e-4de325f8f154"},"vehicle_type_id":"4","last_reported":1736248052,"current_range_meters":20800,"station_id":"ce4bhih2rcd13ifvqfr0","pricing_plan_id":"cebpf4jnsgd1na2vs0mg"},{"bike_id":"48ea2051-fcf3-46d8-a1d9-b7059b514789","system_id":"levelo_inurba_marseille","lat":43.28262,"lon":5.35095,"is_reserved":false,"is_disabled":false,"rental_uris":{"android":"levelo://app?vid=48ea2051-fcf3-46d8-a1d9-b7059b514789","ios":"levelo://app?vid=48ea2051-fcf3-46d8-a1d9-b7059b514789"},"vehicle_type_id":"4","last_reported":1736248052,"current_range_meters":38800,"station_id":"ce4bhbp2rcd13ifvqerg","pricing_plan_id":"cebpf4jnsgd1na2vs0mg"},{"bike_id":"70976f0e-6277-4525-98da-1268151ed7d4","system_id":"levelo_inurba_marseille","lat":43.29225,"lon":5.36052,"is_reserved":false,"is_disabled":false,"rental_uris":{"android":"levelo://app?vid=70976f0e-6277-4525-98da-1268151ed7d4","ios":"levelo://app?vid=70976f0e-6277-4525-98da-1268151ed7d4"},"vehicle_type_id":"4","last_reported":1736248052,"current_range_meters":27600,"station_id":"ce4bhbh2rcd13ifvqeqg","pricing_plan_id":"cebpf4jnsgd1na2vs0mg"},{"bike_id":"3f106b25-0f7a-4cdf-8ac4-828dd3a8be26","system_id":"levelo_inurba_marseille","lat":43.304644,"lon":5.379016,"is_reserved":false,"is_disabled":false,"rental_uris":{"android":"levelo://app?vid=3f106b25-0f7a-4cdf-8ac4-828dd3a8be26","ios":"levelo://app?vid=3f106b25-0f7a-4cdf-8ac4-828dd3a8be26"},"vehicle_type_id":"4","last_reported":1736248052,"current_range_meters":20000,"station_id":"ce4bgup2rcd13ifvqcn0","pricing_plan_id":"cebpf4jnsgd1na2vs0mg"},{"bike_id":"cd364d72-d31a-4414-89fd-aae55a557184","system_id":"levelo_inurba_marseille","lat":43.32339,"lon":5.40616,"is_reserved":false,"is_disabled":false,"rental_uris":{"android":"levelo://app?vid=cd364d72-d31a-4414-89fd-aae55a557184","ios":"levelo://app?vid=cd364d72-d31a-4414-89fd-aae55a557184"},"vehicle_type_id":"4","last_reported":1736248052,"current_range_meters":38800,"station_id":"ce4bhq92rcd13ifvqhjg","pricing_plan_id":"cebpf4jnsgd1na2vs0mg"},{"bike_id":"95e5cb8a-94c1-4734-b68c-d5e982be7034","system_id":"levelo_inurba_marseille","lat":43.25818,"lon":5.39445,"is_reserved":false,"is_disabled":true,"rental_uris":{"android":"levelo://app?vid=95e5cb8a-94c1-4734-b68c-d5e982be7034","ios":"levelo://app?vid=95e5cb8a-94c1-4734-b68c-d5e982be7034"},"vehicle_type_id":"4","last_reported":1736248052,"current_range_meters":35200,"station_id":"ce4bhip2rcd13ifvqft0","pricing_plan_id":"cebpf4jnsgd1na2vs0mg"},{"bike_id":"6a595de3-0911-46a9-bdbf-4cca5437105e","system_id":"levelo_inurba_marseille","lat":43.2319,"lon":5.35566,"is_reserved":false,"is_disabled":false,"rental_uris":{"android":"levelo://app?vid=6a595de3-0911-46a9-bdbf-4cca5437105e","ios":"levelo://app?vid=6a595de3-0911-46a9-bdbf-4cca5437105e"},"vehicle_type_id":"4","last_reported":1736248052,"current_range_meters":16400,"station_id":"ce4bhu92rcd13ifvqi70","pricing_plan_id":"cebpf4jnsgd1na2vs0mg"},{"bike_id":"641d8acc-50b2-4173-ab23-c70f2a11d28e","system_id":"levelo_inurba_marseille","lat":43.28142,"lon":5.42639,"is_reserved":false,"is_disabled":true,"rental_uris":{"android":"levelo://app?vid=641d8acc-50b2-4173-ab23-c70f2a11d28e","ios":"levelo://app?vid=641d8acc-50b2-4173-ab23-c70f2a11d28e"},"vehicle_type_id":"4","last_reported":1736248052,"current_range_meters":24400,"station_id":"ce4bhnh2rcd13ifvqgug","pricing_plan_id":"cebpf4jnsgd1na2vs0mg"},{"bike_id":"149bc74f-69e3-4515-8030-a7bcaa60c288","system_id":"levelo_inurba_marseille","lat":43.23064,"lon":5.35492,"is_reserved":false,"is_disabled":false,"rental_uris":{"android":"levelo://app?vid=149bc74f-69e3-4515-8030-a7bcaa60c288","ios":"levelo://app?vid=149bc74f-69e3-4515-8030-a7bcaa60c288"},"vehicle_type_id":"4","last_reported":1736248052,"current_range_meters":28800,"station_id":"cpo3342slgdg3j2ifvpg","pricing_plan_id":"cebpf4jnsgd1na2vs0mg"},{"bike_id":"15e503f5-1d52-42d6-a98f-33a61fd8b554","system_id":"levelo_inurba_marseille","lat":43.28474,"lon":5.35891,"is_reserved":false,"is_disabled":true,"rental_uris":{"android":"levelo://app?vid=15e503f5-1d52-42d6-a98f-33a61fd8b554","ios":"levelo://app?vid=15e503f5-1d52-42d6-a98f-33a61fd8b554"},"vehicle_type_id":"4","last_reported":1736248052,"current_range_meters":16800,"station_id":"ce4bhah2rcd13ifvqei0","pricing_plan_id":"cebpf4jnsgd1na2vs0mg"},{"bike_id":"fc4f4fbe-0b2c-431b-a14f-b432ec7eed3b","system_id":"levelo_inurba_marseille","lat":43.30955,"lon":5.39029,"is_reserved":false,"is_disabled":false,"rental_uris":{"android":"levelo://app?vid=fc4f4fbe-0b2c-431b-a14f-b432ec7eed3b","ios":"levelo://app?vid=fc4f4fbe-0b2c-431b-a14f-b432ec7eed3b"},"vehicle_type_id":"4","last_reported":1736248052,"current_range_meters":6400,"station_id":"ce4bgup2rcd13ifvqco0","pricing_plan_id":"cebpf4jnsgd1na2vs0mg"},{"bike_id":"f60851cf-8079-4194-b5ee-010eac7afe0e","system_id":"levelo_inurba_marseille","lat":43.27075,"lon":5.42279,"is_reserved":false,"is_disabled":false,"rental_uris":{"android":"levelo://app?vid=f60851cf-8079-4194-b5ee-010eac7afe0e","ios":"levelo://app?vid=f60851cf-8079-4194-b5ee-010eac7afe0e"},"vehicle_type_id":"4","last_reported":1736248052,"current_range_meters":38800,"station_id":"ce4bhk92rcd13ifvqgb0","pricing_plan_id":"cebpf4jnsgd1na2vs0mg"},{"bike_id":"b431fb1b-91ef-49ea-bfde-e98d930522d6","system_id":"levelo_inurba_marseille","lat":43.24998,"lon":5.38939,"is_reserved":false,"is_disabled":false,"rental_uris":{"android":"levelo://app?vid=b431fb1b-91ef-49ea-bfde-e98d930522d6","ios":"levelo://app?vid=b431fb1b-91ef-49ea-bfde-e98d930522d6"},"vehicle_type_id":"4","last_reported":1736248052,"current_range_meters":38400,"station_id":"ce4bhgp2rcd13ifvqfd0","pricing_plan_id":"cebpf4jnsgd1na2vs0mg"},{"bike_id":"839dddab-f809-4e74-adb2-39c2d55d1a69","system_id":"levelo_inurba_marseille","lat":43.29008,"lon":5.35612,"is_reserved":false,"is_disabled":false,"rental_uris":{"android":"levelo://app?vid=839dddab-f809-4e74-adb2-39c2d55d1a69","ios":"levelo://app?vid=839dddab-f809-4e74-adb2-39c2d55d1a69"},"vehicle_type_id":"4","last_reported":1736248052,"current_range_meters":18800,"station_id":"ce4bhb92rcd13ifvqen0","pricing_plan_id":"cebpf4jnsgd1na2vs0mg"},{"bike_id":"0c4b82b8-4ee9-4dc4-ac7d-6813a20fa47b","system_id":"levelo_inurba_marseille","lat":43.29498,"lon":5.3754,"is_reserved":false,"is_disabled":false,"rental_uris":{"android":"levelo://app?vid=0c4b82b8-4ee9-4dc4-ac7d-6813a20fa47b","ios":"levelo://app?vid=0c4b82b8-4ee9-4dc4-ac7d-6813a20fa47b"},"vehicle_type_id":"4","last_reported":1736248052,"current_range_meters":38800,"station_id":"ce4bgkp2rcd13ifvqbmg","pricing_plan_id":"cebpf4jnsgd1na2vs0mg"},{"bike_id":"e79bc630-e2e9-4018-ae9a-5aaa4afbca11","system_id":"levelo_inurba_marseille","lat":43.2932,"lon":5.37406,"is_reserved":false,"is_disabled":false,"rental_uris":{"android":"levelo://app?vid=e79bc630-e2e9-4018-ae9a-5aaa4afbca11","ios":"levelo://app?vid=e79bc630-e2e9-4018-ae9a-5aaa4afbca11"},"vehicle_type_id":"4","last_reported":1736248052,"current_range_meters":33200,"station_id":"ce4bgi12rcd13ifvqb70","pricing_plan_id":"cebpf4jnsgd1na2vs0mg"},{"bike_id":"97db5fba-863c-4fa0-a4ed-153fce28887a","system_id":"levelo_inurba_marseille","lat":43.29079,"lon":5.37177,"is_reserved":false,"is_disabled":false,"rental_uris":{"android":"levelo://app?vid=97db5fba-863c-4fa0-a4ed-153fce28887a","ios":"levelo://app?vid=97db5fba-863c-4fa0-a4ed-153fce28887a"},"vehicle_type_id":"4","last_reported":1736248052,"current_range_meters":35200,"station_id":"ce4bh5p2rcd13ifvqe4g","pricing_plan_id":"cebpf4jnsgd1na2vs0mg"},{"bike_id":"6d88bbf0-f428-4bd4-ab8a-2ee8d5e7c74e","system_id":"levelo_inurba_marseille","lat":43.23046,"lon":5.35511,"is_reserved":false,"is_disabled":false,"rental_uris":{"android":"levelo://app?vid=6d88bbf0-f428-4bd4-ab8a-2ee8d5e7c74e","ios":"levelo://app?vid=6d88bbf0-f428-4bd4-ab8a-2ee8d5e7c74e"},"vehicle_type_id":"4","last_reported":1736248052,"current_range_meters":38400,"station_id":"cpo3342slgdg3j2ifvpg","pricing_plan_id":"cebpf4jnsgd1na2vs0mg"},{"bike_id":"8a497509-7453-4a09-a6e8-9e17e4d15eb6","system_id":"levelo_inurba_marseille","lat":43.28379,"lon":5.38634,"is_reserved":false,"is_disabled":false,"rental_uris":{"android":"levelo://app?vid=8a497509-7453-4a09-a6e8-9e17e4d15eb6","ios":"levelo://app?vid=8a497509-7453-4a09-a6e8-9e17e4d15eb6"},"vehicle_type_id":"4","last_reported":1736248052,"current_range_meters":36000,"station_id":"ce4bh492rcd13ifvqdvg","pricing_plan_id":"cebpf4jnsgd1na2vs0mg"},{"bike_id":"fc28be46-23fe-4f09-821c-8a3bd21ca77c","system_id":"levelo_inurba_marseille","lat":43.25569,"lon":5.38273,"is_reserved":false,"is_disabled":true,"rental_uris":{"android":"levelo://app?vid=fc28be46-23fe-4f09-821c-8a3bd21ca77c","ios":"levelo://app?vid=fc28be46-23fe-4f09-821c-8a3bd21ca77c"},"vehicle_type_id":"4","last_reported":1736248052,"current_range_meters":1200,"station_id":"ce4bhih2rcd13ifvqfs0","pricing_plan_id":"cebpf4jnsgd1na2vs0mg"},{"bike_id":"98367c3c-939f-410a-9933-8023e522e2cf","system_id":"levelo_inurba_marseille","lat":43.25825,"lon":5.3943,"is_reserved":false,"is_disabled":false,"rental_uris":{"android":"levelo://app?vid=98367c3c-939f-410a-9933-8023e522e2cf","ios":"levelo://app?vid=98367c3c-939f-410a-9933-8023e522e2cf"},"vehicle_type_id":"4","last_reported":1736248052,"current_range_meters":35600,"station_id":"ce4bhip2rcd13ifvqft0","pricing_plan_id":"cebpf4jnsgd1na2vs0mg"},{"bike_id":"a7963d89-6f1d-416f-b608-3297174d5f29","system_id":"levelo_inurba_marseille","lat":43.30387,"lon":5.41323,"is_reserved":false,"is_disabled":false,"rental_uris":{"android":"levelo://app?vid=a7963d89-6f1d-416f-b608-3297174d5f29","ios":"levelo://app?vid=a7963d89-6f1d-416f-b608-3297174d5f29"},"vehicle_type_id":"4","last_reported":1736248052,"current_range_meters":36800,"station_id":"ce4bhop2rcd13ifvqh8g","pricing_plan_id":"cebpf4jnsgd1na2vs0mg"},{"bike_id":"05bd0f7d-2e1d-4674-8e4e-7a85c8b489af","system_id":"levelo_inurba_marseille","lat":43.27064,"lon":5.40272,"is_reserved":false,"is_disabled":false,"rental_uris":{"android":"levelo://app?vid=05bd0f7d-2e1d-4674-8e4e-7a85c8b489af","ios":"levelo://app?vid=05bd0f7d-2e1d-4674-8e4e-7a85c8b489af"},"vehicle_type_id":"4","last_reported":1736248052,"current_range_meters":19600,"station_id":"ce4bhk92rcd13ifvqgc0","pricing_plan_id":"cebpf4jnsgd1na2vs0mg"},{"bike_id":"2138a6a7-75f2-42d2-9b2a-a01e21bc6f5b","system_id":"levelo_inurba_marseille","lat":43.28937,"lon":5.39624,"is_reserved":false,"is_disabled":false,"rental_uris":{"android":"levelo://app?vid=2138a6a7-75f2-42d2-9b2a-a01e21bc6f5b","ios":"levelo://app?vid=2138a6a7-75f2-42d2-9b2a-a01e21bc6f5b"},"vehicle_type_id":"4","last_reported":1736248052,"current_range_meters":32000,"station_id":"ce4bh3h2rcd13ifvqdn0","pricing_plan_id":"cebpf4jnsgd1na2vs0mg"},{"bike_id":"86cfe359-1d07-4226-a8aa-b9731bd056a4","system_id":"levelo_inurba_marseille","lat":43.30125,"lon":5.37428,"is_reserved":false,"is_disabled":false,"rental_uris":{"android":"levelo://app?vid=86cfe359-1d07-4226-a8aa-b9731bd056a4","ios":"levelo://app?vid=86cfe359-1d07-4226-a8aa-b9731bd056a4"},"vehicle_type_id":"4","last_reported":1736248052,"current_range_meters":39200,"station_id":"ce4bgs92rcd13ifvqcc0","pricing_plan_id":"cebpf4jnsgd1na2vs0mg"},{"bike_id":"e0666f4c-dba6-4762-b951-342d9dc779cb","system_id":"levelo_inurba_marseille","lat":43.26675,"lon":5.38273,"is_reserved":false,"is_disabled":false,"rental_uris":{"android":"levelo://app?vid=e0666f4c-dba6-4762-b951-342d9dc779cb","ios":"levelo://app?vid=e0666f4c-dba6-4762-b951-342d9dc779cb"},"vehicle_type_id":"4","last_reported":1736248052,"current_range_meters":25600,"station_id":"ce4bhg92rcd13ifvqf90","pricing_plan_id":"cebpf4jnsgd1na2vs0mg"},{"bike_id":"52e74274-9992-45ef-9ae7-22eff92ca4cd","system_id":"levelo_inurba_marseille","lat":43.29564,"lon":5.37523,"is_reserved":false,"is_disabled":false,"rental_uris":{"android":"levelo://app?vid=52e74274-9992-45ef-9ae7-22eff92ca4cd","ios":"levelo://app?vid=52e74274-9992-45ef-9ae7-22eff92ca4cd"},"vehicle_type_id":"4","last_reported":1736248052,"current_range_meters":34800,"station_id":"ce4bgh92rcd13ifvqb50","pricing_plan_id":"cebpf4jnsgd1na2vs0mg"},{"bike_id":"a6b1fa15-0d95-44cb-8be4-c3e55514c811","system_id":"levelo_inurba_marseille","lat":43.27316,"lon":5.39091,"is_reserved":false,"is_disabled":false,"rental_uris":{"android":"levelo://app?vid=a6b1fa15-0d95-44cb-8be4-c3e55514c811","ios":"levelo://app?vid=a6b1fa15-0d95-44cb-8be4-c3e55514c811"},"vehicle_type_id":"4","last_reported":1736248052,"current_range_meters":8400,"station_id":"ce4bhgp2rcd13ifvqfe0","pricing_plan_id":"cebpf4jnsgd1na2vs0mg"},{"bike_id":"dc435b86-f1f5-438b-b7b4-b08f57702f8c","system_id":"levelo_inurba_marseille","lat":43.287,"lon":5.40003,"is_reserved":false,"is_disabled":false,"rental_uris":{"android":"levelo://app?vid=dc435b86-f1f5-438b-b7b4-b08f57702f8c","ios":"levelo://app?vid=dc435b86-f1f5-438b-b7b4-b08f57702f8c"},"vehicle_type_id":"4","last_reported":1736248052,"current_range_meters":16800,"station_id":"ce4bho92rcd13ifvqh3g","pricing_plan_id":"cebpf4jnsgd1na2vs0mg"},{"bike_id":"4c7353e3-0977-40cf-82d8-dfd1b1b6ec44","system_id":"levelo_inurba_marseille","lat":43.29351,"lon":5.37854,"is_reserved":false,"is_disabled":false,"rental_uris":{"android":"levelo://app?vid=4c7353e3-0977-40cf-82d8-dfd1b1b6ec44","ios":"levelo://app?vid=4c7353e3-0977-40cf-82d8-dfd1b1b6ec44"},"vehicle_type_id":"4","last_reported":1736248052,"current_range_meters":39200,"station_id":"ce4bgjh2rcd13ifvqbf0","pricing_plan_id":"cebpf4jnsgd1na2vs0mg"},{"bike_id":"cad6863d-58e5-46fc-870c-6245610e16f4","system_id":"levelo_inurba_marseille","lat":43.29267,"lon":5.38429,"is_reserved":false,"is_disabled":false,"rental_uris":{"android":"levelo://app?vid=cad6863d-58e5-46fc-870c-6245610e16f4","ios":"levelo://app?vid=cad6863d-58e5-46fc-870c-6245610e16f4"},"vehicle_type_id":"4","last_reported":1736248052,"current_range_meters":26000,"station_id":"ce4bh692rcd13ifvqea0","pricing_plan_id":"cebpf4jnsgd1na2vs0mg"},{"bike_id":"fea25bb6-7ee9-42f5-b3c9-4f0cc6e29738","system_id":"levelo_inurba_marseille","lat":43.28734,"lon":5.37898,"is_reserved":false,"is_disabled":false,"rental_uris":{"android":"levelo://app?vid=fea25bb6-7ee9-42f5-b3c9-4f0cc6e29738","ios":"levelo://app?vid=fea25bb6-7ee9-42f5-b3c9-4f0cc6e29738"},"vehicle_type_id":"4","last_reported":1736248052,"current_range_meters":34000,"station_id":"ce4bh9p2rcd13ifvqec0","pricing_plan_id":"cebpf4jnsgd1na2vs0mg"},{"bike_id":"82b84c4a-7a6d-4314-a8be-5ece29c41aa5","system_id":"levelo_inurba_marseille","lat":43.29029,"lon":5.39985,"is_reserved":false,"is_disabled":false,"rental_uris":{"android":"levelo://app?vid=82b84c4a-7a6d-4314-a8be-5ece29c41aa5","ios":"levelo://app?vid=82b84c4a-7a6d-4314-a8be-5ece29c41aa5"},"vehicle_type_id":"4","last_reported":1736248052,"current_range_meters":38800,"station_id":"ce4bh392rcd13ifvqdm0","pricing_plan_id":"cebpf4jnsgd1na2vs0mg"},{"bike_id":"cca2f7c7-45e7-4f8a-80d9-cffca2b70c93","system_id":"levelo_inurba_marseille","lat":43.26693,"lon":5.38269,"is_reserved":false,"is_disabled":true,"rental_uris":{"android":"levelo://app?vid=cca2f7c7-45e7-4f8a-80d9-cffca2b70c93","ios":"levelo://app?vid=cca2f7c7-45e7-4f8a-80d9-cffca2b70c93"},"vehicle_type_id":"4","last_reported":1736248052,"current_range_meters":32400,"station_id":"ce4bhg92rcd13ifvqf90","pricing_plan_id":"cebpf4jnsgd1na2vs0mg"},{"bike_id":"edf135d7-fe46-453d-a20f-2c11dcbf0da8","system_id":"levelo_inurba_marseille","lat":43.23964,"lon":5.36639,"is_reserved":false,"is_disabled":false,"rental_uris":{"android":"levelo://app?vid=edf135d7-fe46-453d-a20f-2c11dcbf0da8","ios":"levelo://app?vid=edf135d7-fe46-453d-a20f-2c11dcbf0da8"},"vehicle_type_id":"4","last_reported":1736248052,"current_range_meters":32800,"station_id":"ce4bhi12rcd13ifvqfp0","pricing_plan_id":"cebpf4jnsgd1na2vs0mg"},{"bike_id":"0a967f6d-fd0e-4773-80c2-1aa9d073824b","system_id":"levelo_inurba_marseille","lat":43.25082,"lon":5.39539,"is_reserved":false,"is_disabled":false,"rental_uris":{"android":"levelo://app?vid=0a967f6d-fd0e-4773-80c2-1aa9d073824b","ios":"levelo://app?vid=0a967f6d-fd0e-4773-80c2-1aa9d073824b"},"vehicle_type_id":"4","last_reported":1736248052,"current_range_meters":29600,"station_id":"ce4bhm12rcd13ifvqgkg","pricing_plan_id":"cebpf4jnsgd1na2vs0mg"},{"bike_id":"e8fcdecf-26a9-40b3-82d9-1e06a6d4a009","system_id":"levelo_inurba_marseille","lat":43.2923,"lon":5.36069,"is_reserved":false,"is_disabled":false,"rental_uris":{"android":"levelo://app?vid=e8fcdecf-26a9-40b3-82d9-1e06a6d4a009","ios":"levelo://app?vid=e8fcdecf-26a9-40b3-82d9-1e06a6d4a009"},"vehicle_type_id":"4","last_reported":1736248052,"current_range_meters":30400,"station_id":"ce4bhbh2rcd13ifvqeqg","pricing_plan_id":"cebpf4jnsgd1na2vs0mg"},{"bike_id":"a7b6a724-b627-427f-a203-c936f30961bc","system_id":"levelo_inurba_marseille","lat":43.29312,"lon":5.37186,"is_reserved":false,"is_disabled":false,"rental_uris":{"android":"levelo://app?vid=a7b6a724-b627-427f-a203-c936f30961bc","ios":"levelo://app?vid=a7b6a724-b627-427f-a203-c936f30961bc"},"vehicle_type_id":"4","last_reported":1736248052,"current_range_meters":27600,"station_id":"ce4bgh92rcd13ifvqb40","pricing_plan_id":"cebpf4jnsgd1na2vs0mg"},{"bike_id":"867f6560-18b8-48f4-a602-11a4b1cfee43","system_id":"levelo_inurba_marseille","lat":43.30907,"lon":5.36851,"is_reserved":false,"is_disabled":false,"rental_uris":{"android":"levelo://app?vid=867f6560-18b8-48f4-a602-11a4b1cfee43","ios":"levelo://app?vid=867f6560-18b8-48f4-a602-11a4b1cfee43"},"vehicle_type_id":"4","last_reported":1736248052,"current_range_meters":14000,"station_id":"ce4bgn92rcd13ifvqbvg","pricing_plan_id":"cebpf4jnsgd1na2vs0mg"},{"bike_id":"54e0dbcd-7743-47e4-b8ad-145ee90bfb19","system_id":"levelo_inurba_marseille","lat":43.27656,"lon":5.38907,"is_reserved":false,"is_disabled":false,"rental_uris":{"android":"levelo://app?vid=54e0dbcd-7743-47e4-b8ad-145ee90bfb19","ios":"levelo://app?vid=54e0dbcd-7743-47e4-b8ad-145ee90bfb19"},"vehicle_type_id":"4","last_reported":1736248052,"current_range_meters":29600,"station_id":"ce4bhi12rcd13ifvqfo0","pricing_plan_id":"cebpf4jnsgd1na2vs0mg"},{"bike_id":"1611cc08-bc49-43ba-981c-70ea58e22079","system_id":"levelo_inurba_marseille","lat":43.29011,"lon":5.35617,"is_reserved":false,"is_disabled":false,"rental_uris":{"android":"levelo://app?vid=1611cc08-bc49-43ba-981c-70ea58e22079","ios":"levelo://app?vid=1611cc08-bc49-43ba-981c-70ea58e22079"},"vehicle_type_id":"4","last_reported":1736248052,"current_range_meters":38800,"station_id":"ce4bhb92rcd13ifvqen0","pricing_plan_id":"cebpf4jnsgd1na2vs0mg"},{"bike_id":"6df1f7ea-5bf9-4c29-b47c-6442be347a92","system_id":"levelo_inurba_marseille","lat":43.30419,"lon":5.41289,"is_reserved":false,"is_disabled":false,"rental_uris":{"android":"levelo://app?vid=6df1f7ea-5bf9-4c29-b47c-6442be347a92","ios":"levelo://app?vid=6df1f7ea-5bf9-4c29-b47c-6442be347a92"},"vehicle_type_id":"4","last_reported":1736248052,"current_range_meters":16400,"station_id":"ce4bhop2rcd13ifvqh8g","pricing_plan_id":"cebpf4jnsgd1na2vs0mg"},{"bike_id":"0ed9821e-3c57-4dcf-9274-906710607d1f","system_id":"levelo_inurba_marseille","lat":43.24391,"lon":5.37066,"is_reserved":false,"is_disabled":false,"rental_uris":{"android":"levelo://app?vid=0ed9821e-3c57-4dcf-9274-906710607d1f","ios":"levelo://app?vid=0ed9821e-3c57-4dcf-9274-906710607d1f"},"vehicle_type_id":"4","last_reported":1736248052,"current_range_meters":8800,"station_id":"ce4bhhh2rcd13ifvqfk0","pricing_plan_id":"cebpf4jnsgd1na2vs0mg"},{"bike_id":"a654bcd9-87ff-4423-9dec-90165872ac51","system_id":"levelo_inurba_marseille","lat":43.25498,"lon":5.37641,"is_reserved":false,"is_disabled":false,"rental_uris":{"android":"levelo://app?vid=a654bcd9-87ff-4423-9dec-90165872ac51","ios":"levelo://app?vid=a654bcd9-87ff-4423-9dec-90165872ac51"},"vehicle_type_id":"4","last_reported":1736248052,"current_range_meters":38000,"station_id":"ce4bhh12rcd13ifvqff0","pricing_plan_id":"cebpf4jnsgd1na2vs0mg"},{"bike_id":"ace40823-65b2-49d2-82ac-88910d2cc9d7","system_id":"levelo_inurba_marseille","lat":43.30537,"lon":5.36538,"is_reserved":false,"is_disabled":false,"rental_uris":{"android":"levelo://app?vid=ace40823-65b2-49d2-82ac-88910d2cc9d7","ios":"levelo://app?vid=ace40823-65b2-49d2-82ac-88910d2cc9d7"},"vehicle_type_id":"4","last_reported":1736248052,"current_range_meters":24400,"station_id":"ce4bgs12rcd13ifvqcag","pricing_plan_id":"cebpf4jnsgd1na2vs0mg"},{"bike_id":"cbc8ef3d-db5b-4e2d-8062-ee6eeb43702e","system_id":"levelo_inurba_marseille","lat":43.30843,"lon":5.36889,"is_reserved":false,"is_disabled":false,"rental_uris":{"android":"levelo://app?vid=cbc8ef3d-db5b-4e2d-8062-ee6eeb43702e","ios":"levelo://app?vid=cbc8ef3d-db5b-4e2d-8062-ee6eeb43702e"},"vehicle_type_id":"4","last_reported":1736248052,"current_range_meters":36800,"station_id":"","pricing_plan_id":"cebpf4jnsgd1na2vs0mg"},{"bike_id":"1c91e94a-d32d-4506-b8b8-b791431e401e","system_id":"levelo_inurba_marseille","lat":43.28917,"lon":5.38396,"is_reserved":false,"is_disabled":true,"rental_uris":{"android":"levelo://app?vid=1c91e94a-d32d-4506-b8b8-b791431e401e","ios":"levelo://app?vid=1c91e94a-d32d-4506-b8b8-b791431e401e"},"vehicle_type_id":"4","last_reported":1736248052,"current_range_meters":31200,"station_id":"ce4bh612rcd13ifvqe6g","pricing_plan_id":"cebpf4jnsgd1na2vs0mg"},{"bike_id":"7082a147-72ba-427b-b7d0-01f4c79523c2","system_id":"levelo_inurba_marseille","lat":43.33229,"lon":5.35934,"is_reserved":false,"is_disabled":false,"rental_uris":{"android":"levelo://app?vid=7082a147-72ba-427b-b7d0-01f4c79523c2","ios":"levelo://app?vid=7082a147-72ba-427b-b7d0-01f4c79523c2"},"vehicle_type_id":"4","last_reported":1736248052,"current_range_meters":16400,"station_id":"","pricing_plan_id":"cebpf4jnsgd1na2vs0mg"},{"bike_id":"b354de21-01c7-4a47-964b-4c267c08f725","system_id":"levelo_inurba_marseille","lat":43.30911,"lon":5.36847,"is_reserved":false,"is_disabled":false,"rental_uris":{"android":"levelo://app?vid=b354de21-01c7-4a47-964b-4c267c08f725","ios":"levelo://app?vid=b354de21-01c7-4a47-964b-4c267c08f725"},"vehicle_type_id":"4","last_reported":1736248052,"current_range_meters":22000,"station_id":"ce4bgn92rcd13ifvqbvg","pricing_plan_id":"cebpf4jnsgd1na2vs0mg"},{"bike_id":"7ac0b8f4-b144-4a52-bf8d-93e2ea2b1290","system_id":"levelo_inurba_marseille","lat":43.29372,"lon":5.3783,"is_reserved":false,"is_disabled":false,"rental_uris":{"android":"levelo://app?vid=7ac0b8f4-b144-4a52-bf8d-93e2ea2b1290","ios":"levelo://app?vid=7ac0b8f4-b144-4a52-bf8d-93e2ea2b1290"},"vehicle_type_id":"4","last_reported":1736248052,"current_range_meters":38800,"station_id":"ce4bgjh2rcd13ifvqbf0","pricing_plan_id":"cebpf4jnsgd1na2vs0mg"},{"bike_id":"c04fd81e-333c-4d68-9787-59b045fd02b0","system_id":"levelo_inurba_marseille","lat":43.29007,"lon":5.35588,"is_reserved":false,"is_disabled":false,"rental_uris":{"android":"levelo://app?vid=c04fd81e-333c-4d68-9787-59b045fd02b0","ios":"levelo://app?vid=c04fd81e-333c-4d68-9787-59b045fd02b0"},"vehicle_type_id":"4","last_reported":1736248052,"current_range_meters":25200,"station_id":"ce4bhb92rcd13ifvqen0","pricing_plan_id":"cebpf4jnsgd1na2vs0mg"},{"bike_id":"956c311b-9b96-482a-9feb-34268d1c3452","system_id":"levelo_inurba_marseille","lat":43.31352,"lon":5.36713,"is_reserved":false,"is_disabled":false,"rental_uris":{"android":"levelo://app?vid=956c311b-9b96-482a-9feb-34268d1c3452","ios":"levelo://app?vid=956c311b-9b96-482a-9feb-34268d1c3452"},"vehicle_type_id":"4","last_reported":1736248052,"current_range_meters":32000,"station_id":"ce4bgr92rcd13ifvqc6g","pricing_plan_id":"cebpf4jnsgd1na2vs0mg"},{"bike_id":"23c5b06d-980b-45ba-913e-73d87e255569","system_id":"levelo_inurba_marseille","lat":43.25858,"lon":5.39921,"is_reserved":false,"is_disabled":false,"rental_uris":{"android":"levelo://app?vid=23c5b06d-980b-45ba-913e-73d87e255569","ios":"levelo://app?vid=23c5b06d-980b-45ba-913e-73d87e255569"},"vehicle_type_id":"4","last_reported":1736248052,"current_range_meters":14000,"station_id":"ce4bhl92rcd13ifvqghg","pricing_plan_id":"cebpf4jnsgd1na2vs0mg"},{"bike_id":"d45d0089-5e8c-41ac-a04c-9866c8dc94cc","system_id":"levelo_inurba_marseille","lat":43.232019,"lon":5.355496,"is_reserved":false,"is_disabled":false,"rental_uris":{"android":"levelo://app?vid=d45d0089-5e8c-41ac-a04c-9866c8dc94cc","ios":"levelo://app?vid=d45d0089-5e8c-41ac-a04c-9866c8dc94cc"},"vehicle_type_id":"4","last_reported":1736248052,"current_range_meters":4800,"station_id":"ce4bhu92rcd13ifvqi70","pricing_plan_id":"cebpf4jnsgd1na2vs0mg"},{"bike_id":"aa33a53e-f806-43a8-ad7e-8e2bd9644426","system_id":"levelo_inurba_marseille","lat":43.32345,"lon":5.40629,"is_reserved":false,"is_disabled":true,"rental_uris":{"android":"levelo://app?vid=aa33a53e-f806-43a8-ad7e-8e2bd9644426","ios":"levelo://app?vid=aa33a53e-f806-43a8-ad7e-8e2bd9644426"},"vehicle_type_id":"4","last_reported":1736248052,"current_range_meters":0,"station_id":"ce4bhq92rcd13ifvqhjg","pricing_plan_id":"cebpf4jnsgd1na2vs0mg"},{"bike_id":"47e4e733-ddae-489d-8488-ea0c12e2344c","system_id":"levelo_inurba_marseille","lat":43.3016,"lon":5.38086,"is_reserved":false,"is_disabled":false,"rental_uris":{"android":"levelo://app?vid=47e4e733-ddae-489d-8488-ea0c12e2344c","ios":"levelo://app?vid=47e4e733-ddae-489d-8488-ea0c12e2344c"},"vehicle_type_id":"4","last_reported":1736248052,"current_range_meters":32800,"station_id":"ce4bgjp2rcd13ifvqbh0","pricing_plan_id":"cebpf4jnsgd1na2vs0mg"},{"bike_id":"ab3ef614-fdb3-4aee-a71b-8b4b61a00d6a","system_id":"levelo_inurba_marseille","lat":43.27885,"lon":5.38005,"is_reserved":false,"is_disabled":false,"rental_uris":{"android":"levelo://app?vid=ab3ef614-fdb3-4aee-a71b-8b4b61a00d6a","ios":"levelo://app?vid=ab3ef614-fdb3-4aee-a71b-8b4b61a00d6a"},"vehicle_type_id":"4","last_reported":1736248052,"current_range_meters":38000,"station_id":"ce4bhf92rcd13ifvqf50","pricing_plan_id":"cebpf4jnsgd1na2vs0mg"},{"bike_id":"a36a7a0f-e881-4fa0-98a5-d6031322e74b","system_id":"levelo_inurba_marseille","lat":43.2902,"lon":5.35602,"is_reserved":false,"is_disabled":false,"rental_uris":{"android":"levelo://app?vid=a36a7a0f-e881-4fa0-98a5-d6031322e74b","ios":"levelo://app?vid=a36a7a0f-e881-4fa0-98a5-d6031322e74b"},"vehicle_type_id":"4","last_reported":1736248052,"current_range_meters":30800,"station_id":"ce4bhb92rcd13ifvqen0","pricing_plan_id":"cebpf4jnsgd1na2vs0mg"},{"bike_id":"184ebaba-bf18-489d-8947-aa0b180dec35","system_id":"levelo_inurba_marseille","lat":43.30591,"lon":5.37262,"is_reserved":false,"is_disabled":false,"rental_uris":{"android":"levelo://app?vid=184ebaba-bf18-489d-8947-aa0b180dec35","ios":"levelo://app?vid=184ebaba-bf18-489d-8947-aa0b180dec35"},"vehicle_type_id":"4","last_reported":1736248052,"current_range_meters":34800,"station_id":"ce4bgqh2rcd13ifvqc4g","pricing_plan_id":"cebpf4jnsgd1na2vs0mg"},{"bike_id":"9f067e76-a631-4de3-8b36-6688d4c426e4","system_id":"levelo_inurba_marseille","lat":43.3175,"lon":5.4044,"is_reserved":false,"is_disabled":false,"rental_uris":{"android":"levelo://app?vid=9f067e76-a631-4de3-8b36-6688d4c426e4","ios":"levelo://app?vid=9f067e76-a631-4de3-8b36-6688d4c426e4"},"vehicle_type_id":"4","last_reported":1736248052,"current_range_meters":24800,"station_id":"","pricing_plan_id":"cebpf4jnsgd1na2vs0mg"},{"bike_id":"702ab21d-0173-4ec7-8dd8-24b0ac35f721","system_id":"levelo_inurba_marseille","lat":43.29028,"lon":5.38164,"is_reserved":false,"is_disabled":true,"rental_uris":{"android":"levelo://app?vid=702ab21d-0173-4ec7-8dd8-24b0ac35f721","ios":"levelo://app?vid=702ab21d-0173-4ec7-8dd8-24b0ac35f721"},"vehicle_type_id":"4","last_reported":1736248052,"current_range_meters":8800,"station_id":"ce4bh4p2rcd13ifvqe1g","pricing_plan_id":"cebpf4jnsgd1na2vs0mg"},{"bike_id":"dd570031-d7e4-487b-8561-00fdc78bf547","system_id":"levelo_inurba_marseille","lat":43.30536,"lon":5.36714,"is_reserved":false,"is_disabled":false,"rental_uris":{"android":"levelo://app?vid=dd570031-d7e4-487b-8561-00fdc78bf547","ios":"levelo://app?vid=dd570031-d7e4-487b-8561-00fdc78bf547"},"vehicle_type_id":"4","last_reported":1736248052,"current_range_meters":22400,"station_id":"ce4bgrp2rcd13ifvqc9g","pricing_plan_id":"cebpf4jnsgd1na2vs0mg"},{"bike_id":"f3118872-4c3c-4086-85d5-338b4150b778","system_id":"levelo_inurba_marseille","lat":43.23182,"lon":5.3999,"is_reserved":false,"is_disabled":false,"rental_uris":{"android":"levelo://app?vid=f3118872-4c3c-4086-85d5-338b4150b778","ios":"levelo://app?vid=f3118872-4c3c-4086-85d5-338b4150b778"},"vehicle_type_id":"4","last_reported":1736248052,"current_range_meters":30000,"station_id":"ce4bhn12rcd13ifvqgqg","pricing_plan_id":"cebpf4jnsgd1na2vs0mg"},{"bike_id":"fe0bf0dc-48a9-435c-b460-4984977ade1c","system_id":"levelo_inurba_marseille","lat":43.32656,"lon":5.40998,"is_reserved":false,"is_disabled":false,"rental_uris":{"android":"levelo://app?vid=fe0bf0dc-48a9-435c-b460-4984977ade1c","ios":"levelo://app?vid=fe0bf0dc-48a9-435c-b460-4984977ade1c"},"vehicle_type_id":"4","last_reported":1736248052,"current_range_meters":38000,"station_id":"ce4bhpp2rcd13ifvqhgg","pricing_plan_id":"cebpf4jnsgd1na2vs0mg"},{"bike_id":"a81f0dac-b594-48b8-b2f2-26e21503c95a","system_id":"levelo_inurba_marseille","lat":43.31705,"lon":5.43713,"is_reserved":false,"is_disabled":false,"rental_uris":{"android":"levelo://app?vid=a81f0dac-b594-48b8-b2f2-26e21503c95a","ios":"levelo://app?vid=a81f0dac-b594-48b8-b2f2-26e21503c95a"},"vehicle_type_id":"4","last_reported":1736248052,"current_range_meters":13600,"station_id":"ce4bhp92rcd13ifvqhcg","pricing_plan_id":"cebpf4jnsgd1na2vs0mg"},{"bike_id":"502087b1-18db-427e-9ac7-3d1aa22f63c7","system_id":"levelo_inurba_marseille","lat":43.29844,"lon":5.3628,"is_reserved":false,"is_disabled":false,"rental_uris":{"android":"levelo://app?vid=502087b1-18db-427e-9ac7-3d1aa22f63c7","ios":"levelo://app?vid=502087b1-18db-427e-9ac7-3d1aa22f63c7"},"vehicle_type_id":"4","last_reported":1736248052,"current_range_meters":38000,"station_id":"ce4bgpp2rcd13ifvqc3g","pricing_plan_id":"cebpf4jnsgd1na2vs0mg"},{"bike_id":"96a999e3-70dd-464e-9f52-0b69c395294f","system_id":"levelo_inurba_marseille","lat":43.30133,"lon":5.38801,"is_reserved":false,"is_disabled":false,"rental_uris":{"android":"levelo://app?vid=96a999e3-70dd-464e-9f52-0b69c395294f","ios":"levelo://app?vid=96a999e3-70dd-464e-9f52-0b69c395294f"},"vehicle_type_id":"4","last_reported":1736248052,"current_range_meters":16800,"station_id":"ce4bghh2rcd13ifvqb60","pricing_plan_id":"cebpf4jnsgd1na2vs0mg"},{"bike_id":"8bcaeacd-55f2-48aa-840b-5ec48f7447b2","system_id":"levelo_inurba_marseille","lat":43.26559,"lon":5.39039,"is_reserved":false,"is_disabled":false,"rental_uris":{"android":"levelo://app?vid=8bcaeacd-55f2-48aa-840b-5ec48f7447b2","ios":"levelo://app?vid=8bcaeacd-55f2-48aa-840b-5ec48f7447b2"},"vehicle_type_id":"4","last_reported":1736248052,"current_range_meters":32800,"station_id":"ce4bhe12rcd13ifvqf30","pricing_plan_id":"cebpf4jnsgd1na2vs0mg"},{"bike_id":"7a92d907-ce7d-4776-b9fe-0b8ebe9491a1","system_id":"levelo_inurba_marseille","lat":43.27622,"lon":5.36162,"is_reserved":false,"is_disabled":false,"rental_uris":{"android":"levelo://app?vid=7a92d907-ce7d-4776-b9fe-0b8ebe9491a1","ios":"levelo://app?vid=7a92d907-ce7d-4776-b9fe-0b8ebe9491a1"},"vehicle_type_id":"4","last_reported":1736248052,"current_range_meters":38800,"station_id":"ce4bgj92rcd13ifvqbe0","pricing_plan_id":"cebpf4jnsgd1na2vs0mg"},{"bike_id":"1ff502df-afc5-4738-9949-558ed558e139","system_id":"levelo_inurba_marseille","lat":43.25577,"lon":5.38233,"is_reserved":false,"is_disabled":false,"rental_uris":{"android":"levelo://app?vid=1ff502df-afc5-4738-9949-558ed558e139","ios":"levelo://app?vid=1ff502df-afc5-4738-9949-558ed558e139"},"vehicle_type_id":"4","last_reported":1736248052,"current_range_meters":28000,"station_id":"ce4bhih2rcd13ifvqfs0","pricing_plan_id":"cebpf4jnsgd1na2vs0mg"},{"bike_id":"f809d5a8-1ff6-4a11-9b37-65168fe48fec","system_id":"levelo_inurba_marseille","lat":43.27492,"lon":5.42463,"is_reserved":false,"is_disabled":false,"rental_uris":{"android":"levelo://app?vid=f809d5a8-1ff6-4a11-9b37-65168fe48fec","ios":"levelo://app?vid=f809d5a8-1ff6-4a11-9b37-65168fe48fec"},"vehicle_type_id":"4","last_reported":1736248052,"current_range_meters":32400,"station_id":"ce4bhn92rcd13ifvqgrg","pricing_plan_id":"cebpf4jnsgd1na2vs0mg"},{"bike_id":"e3b94486-a488-4a70-b459-2152a70aa14a","system_id":"levelo_inurba_marseille","lat":43.24995,"lon":5.38936,"is_reserved":false,"is_disabled":false,"rental_uris":{"android":"levelo://app?vid=e3b94486-a488-4a70-b459-2152a70aa14a","ios":"levelo://app?vid=e3b94486-a488-4a70-b459-2152a70aa14a"},"vehicle_type_id":"4","last_reported":1736248052,"current_range_meters":24400,"station_id":"ce4bhgp2rcd13ifvqfd0","pricing_plan_id":"cebpf4jnsgd1na2vs0mg"},{"bike_id":"6b7e7b7d-703a-46a9-9632-17988fb8f2dd","system_id":"levelo_inurba_marseille","lat":43.30411,"lon":5.41302,"is_reserved":false,"is_disabled":false,"rental_uris":{"android":"levelo://app?vid=6b7e7b7d-703a-46a9-9632-17988fb8f2dd","ios":"levelo://app?vid=6b7e7b7d-703a-46a9-9632-17988fb8f2dd"},"vehicle_type_id":"4","last_reported":1736248052,"current_range_meters":39200,"station_id":"ce4bhop2rcd13ifvqh8g","pricing_plan_id":"cebpf4jnsgd1na2vs0mg"},{"bike_id":"8a474426-cd46-4cf8-9edc-ef843a0ca02e","system_id":"levelo_inurba_marseille","lat":43.26564,"lon":5.39002,"is_reserved":false,"is_disabled":true,"rental_uris":{"android":"levelo://app?vid=8a474426-cd46-4cf8-9edc-ef843a0ca02e","ios":"levelo://app?vid=8a474426-cd46-4cf8-9edc-ef843a0ca02e"},"vehicle_type_id":"4","last_reported":1736248052,"current_range_meters":36400,"station_id":"ce4bhe12rcd13ifvqf30","pricing_plan_id":"cebpf4jnsgd1na2vs0mg"},{"bike_id":"b8e8befc-076e-4a84-a746-24b09895b81b","system_id":"levelo_inurba_marseille","lat":43.25584,"lon":5.38224,"is_reserved":false,"is_disabled":false,"rental_uris":{"android":"levelo://app?vid=b8e8befc-076e-4a84-a746-24b09895b81b","ios":"levelo://app?vid=b8e8befc-076e-4a84-a746-24b09895b81b"},"vehicle_type_id":"4","last_reported":1736248052,"current_range_meters":34000,"station_id":"ce4bhih2rcd13ifvqfs0","pricing_plan_id":"cebpf4jnsgd1na2vs0mg"},{"bike_id":"bbf998ea-d252-4590-8711-16d78ff4b07c","system_id":"levelo_inurba_marseille","lat":43.24638,"lon":5.38907,"is_reserved":false,"is_disabled":false,"rental_uris":{"android":"levelo://app?vid=bbf998ea-d252-4590-8711-16d78ff4b07c","ios":"levelo://app?vid=bbf998ea-d252-4590-8711-16d78ff4b07c"},"vehicle_type_id":"4","last_reported":1736248052,"current_range_meters":26800,"station_id":"ce4bhg12rcd13ifvqf60","pricing_plan_id":"cebpf4jnsgd1na2vs0mg"},{"bike_id":"e9dcdd34-b189-4d62-a46f-8838f8d5e652","system_id":"levelo_inurba_marseille","lat":43.24676,"lon":5.38151,"is_reserved":false,"is_disabled":false,"rental_uris":{"android":"levelo://app?vid=e9dcdd34-b189-4d62-a46f-8838f8d5e652","ios":"levelo://app?vid=e9dcdd34-b189-4d62-a46f-8838f8d5e652"},"vehicle_type_id":"4","last_reported":1736248052,"current_range_meters":16800,"station_id":"ce4bhih2rcd13ifvqfr0","pricing_plan_id":"cebpf4jnsgd1na2vs0mg"},{"bike_id":"ded1e44c-e4a7-40dd-b713-6c7ef6537058","system_id":"levelo_inurba_marseille","lat":43.24997,"lon":5.38974,"is_reserved":false,"is_disabled":false,"rental_uris":{"android":"levelo://app?vid=ded1e44c-e4a7-40dd-b713-6c7ef6537058","ios":"levelo://app?vid=ded1e44c-e4a7-40dd-b713-6c7ef6537058"},"vehicle_type_id":"4","last_reported":1736248052,"current_range_meters":27200,"station_id":"ce4bhgp2rcd13ifvqfd0","pricing_plan_id":"cebpf4jnsgd1na2vs0mg"},{"bike_id":"bfb2a8c4-a8de-401b-830e-eb9b976adb23","system_id":"levelo_inurba_marseille","lat":43.27077,"lon":5.42298,"is_reserved":false,"is_disabled":false,"rental_uris":{"android":"levelo://app?vid=bfb2a8c4-a8de-401b-830e-eb9b976adb23","ios":"levelo://app?vid=bfb2a8c4-a8de-401b-830e-eb9b976adb23"},"vehicle_type_id":"4","last_reported":1736248052,"current_range_meters":34800,"station_id":"ce4bhk92rcd13ifvqgb0","pricing_plan_id":"cebpf4jnsgd1na2vs0mg"},{"bike_id":"ff78d977-97b2-4f84-bc22-78608d306c04","system_id":"levelo_inurba_marseille","lat":43.31307,"lon":5.36726,"is_reserved":false,"is_disabled":false,"rental_uris":{"android":"levelo://app?vid=ff78d977-97b2-4f84-bc22-78608d306c04","ios":"levelo://app?vid=ff78d977-97b2-4f84-bc22-78608d306c04"},"vehicle_type_id":"4","last_reported":1736248052,"current_range_meters":34000,"station_id":"ce4bgr92rcd13ifvqc6g","pricing_plan_id":"cebpf4jnsgd1na2vs0mg"},{"bike_id":"664044e6-e824-440a-a874-8e818a3a1b1b","system_id":"levelo_inurba_marseille","lat":43.28561,"lon":5.39506,"is_reserved":false,"is_disabled":true,"rental_uris":{"android":"levelo://app?vid=664044e6-e824-440a-a874-8e818a3a1b1b","ios":"levelo://app?vid=664044e6-e824-440a-a874-8e818a3a1b1b"},"vehicle_type_id":"4","last_reported":1736248052,"current_range_meters":35200,"station_id":"ce4bh292rcd13ifvqdg0","pricing_plan_id":"cebpf4jnsgd1na2vs0mg"},{"bike_id":"5230b8f3-adf2-431f-b9b6-5c013e08717a","system_id":"levelo_inurba_marseille","lat":43.30898,"lon":5.36857,"is_reserved":false,"is_disabled":false,"rental_uris":{"android":"levelo://app?vid=5230b8f3-adf2-431f-b9b6-5c013e08717a","ios":"levelo://app?vid=5230b8f3-adf2-431f-b9b6-5c013e08717a"},"vehicle_type_id":"4","last_reported":1736248052,"current_range_meters":28000,"station_id":"ce4bgn92rcd13ifvqbvg","pricing_plan_id":"cebpf4jnsgd1na2vs0mg"},{"bike_id":"9e15c08a-99da-482d-bb97-7420d9d75815","system_id":"levelo_inurba_marseille","lat":43.32035,"lon":5.41572,"is_reserved":false,"is_disabled":false,"rental_uris":{"android":"levelo://app?vid=9e15c08a-99da-482d-bb97-7420d9d75815","ios":"levelo://app?vid=9e15c08a-99da-482d-bb97-7420d9d75815"},"vehicle_type_id":"4","last_reported":1736248052,"current_range_meters":38800,"station_id":"ce4bhq92rcd13ifvqhkg","pricing_plan_id":"cebpf4jnsgd1na2vs0mg"},{"bike_id":"3d5215c2-1845-4ea9-95c3-66c603d13955","system_id":"levelo_inurba_marseille","lat":43.30544,"lon":5.36543,"is_reserved":false,"is_disabled":false,"rental_uris":{"android":"levelo://app?vid=3d5215c2-1845-4ea9-95c3-66c603d13955","ios":"levelo://app?vid=3d5215c2-1845-4ea9-95c3-66c603d13955"},"vehicle_type_id":"4","last_reported":1736248052,"current_range_meters":30000,"station_id":"ce4bgs12rcd13ifvqcag","pricing_plan_id":"cebpf4jnsgd1na2vs0mg"},{"bike_id":"6e2d590b-13dc-4d39-8257-e699f8ea4c2f","system_id":"levelo_inurba_marseille","lat":43.2595,"lon":5.40923,"is_reserved":false,"is_disabled":false,"rental_uris":{"android":"levelo://app?vid=6e2d590b-13dc-4d39-8257-e699f8ea4c2f","ios":"levelo://app?vid=6e2d590b-13dc-4d39-8257-e699f8ea4c2f"},"vehicle_type_id":"4","last_reported":1736248052,"current_range_meters":19600,"station_id":"ce4bhm92rcd13ifvqglg","pricing_plan_id":"cebpf4jnsgd1na2vs0mg"},{"bike_id":"0bcfea18-61ca-412d-bded-b63f59943884","system_id":"levelo_inurba_marseille","lat":43.28616,"lon":5.35102,"is_reserved":false,"is_disabled":true,"rental_uris":{"android":"levelo://app?vid=0bcfea18-61ca-412d-bded-b63f59943884","ios":"levelo://app?vid=0bcfea18-61ca-412d-bded-b63f59943884"},"vehicle_type_id":"4","last_reported":1736248052,"current_range_meters":28800,"station_id":"ce4bhch2rcd13ifvqeug","pricing_plan_id":"cebpf4jnsgd1na2vs0mg"},{"bike_id":"fd7a7908-120b-4edd-bde9-672dfb333e6d","system_id":"levelo_inurba_marseille","lat":43.296,"lon":5.38123,"is_reserved":false,"is_disabled":false,"rental_uris":{"android":"levelo://app?vid=fd7a7908-120b-4edd-bde9-672dfb333e6d","ios":"levelo://app?vid=fd7a7908-120b-4edd-bde9-672dfb333e6d"},"vehicle_type_id":"4","last_reported":1736248052,"current_range_meters":25200,"station_id":"ce4bgl12rcd13ifvqbo0","pricing_plan_id":"cebpf4jnsgd1na2vs0mg"},{"bike_id":"0b9521b2-4a4a-4b15-a356-31ebe979341d","system_id":"levelo_inurba_marseille","lat":43.29893,"lon":5.43673,"is_reserved":false,"is_disabled":false,"rental_uris":{"android":"levelo://app?vid=0b9521b2-4a4a-4b15-a356-31ebe979341d","ios":"levelo://app?vid=0b9521b2-4a4a-4b15-a356-31ebe979341d"},"vehicle_type_id":"4","last_reported":1736248052,"current_range_meters":8800,"station_id":"ce4bhpp2rcd13ifvqhfg","pricing_plan_id":"cebpf4jnsgd1na2vs0mg"},{"bike_id":"877017b0-cd79-45f1-a6c2-8a62e9041e40","system_id":"levelo_inurba_marseille","lat":43.28714,"lon":5.39987,"is_reserved":false,"is_disabled":false,"rental_uris":{"android":"levelo://app?vid=877017b0-cd79-45f1-a6c2-8a62e9041e40","ios":"levelo://app?vid=877017b0-cd79-45f1-a6c2-8a62e9041e40"},"vehicle_type_id":"4","last_reported":1736248052,"current_range_meters":27600,"station_id":"ce4bho92rcd13ifvqh3g","pricing_plan_id":"cebpf4jnsgd1na2vs0mg"},{"bike_id":"03630410-cff2-41ca-8ab4-df6ebc45a627","system_id":"levelo_inurba_marseille","lat":43.30142,"lon":5.38112,"is_reserved":false,"is_disabled":true,"rental_uris":{"android":"levelo://app?vid=03630410-cff2-41ca-8ab4-df6ebc45a627","ios":"levelo://app?vid=03630410-cff2-41ca-8ab4-df6ebc45a627"},"vehicle_type_id":"4","last_reported":1736248052,"current_range_meters":33600,"station_id":"ce4bgjp2rcd13ifvqbh0","pricing_plan_id":"cebpf4jnsgd1na2vs0mg"},{"bike_id":"98e22da9-e8df-49d1-922a-8ca0ed00cbf5","system_id":"levelo_inurba_marseille","lat":43.2467,"lon":5.3816,"is_reserved":false,"is_disabled":false,"rental_uris":{"android":"levelo://app?vid=98e22da9-e8df-49d1-922a-8ca0ed00cbf5","ios":"levelo://app?vid=98e22da9-e8df-49d1-922a-8ca0ed00cbf5"},"vehicle_type_id":"4","last_reported":1736248052,"current_range_meters":34000,"station_id":"ce4bhih2rcd13ifvqfr0","pricing_plan_id":"cebpf4jnsgd1na2vs0mg"},{"bike_id":"6b9c481c-5557-4051-a4b9-ddd082853e48","system_id":"levelo_inurba_marseille","lat":43.2896,"lon":5.37844,"is_reserved":false,"is_disabled":false,"rental_uris":{"android":"levelo://app?vid=6b9c481c-5557-4051-a4b9-ddd082853e48","ios":"levelo://app?vid=6b9c481c-5557-4051-a4b9-ddd082853e48"},"vehicle_type_id":"4","last_reported":1736248052,"current_range_meters":37600,"station_id":"ce4bh9p2rcd13ifvqed0","pricing_plan_id":"cebpf4jnsgd1na2vs0mg"},{"bike_id":"be7ba3d3-7869-4990-af93-489a469e05b1","system_id":"levelo_inurba_marseille","lat":43.24089,"lon":5.37776,"is_reserved":false,"is_disabled":false,"rental_uris":{"android":"levelo://app?vid=be7ba3d3-7869-4990-af93-489a469e05b1","ios":"levelo://app?vid=be7ba3d3-7869-4990-af93-489a469e05b1"},"vehicle_type_id":"4","last_reported":1736248052,"current_range_meters":39200,"station_id":"ce4bhnp2rcd13ifvqgvg","pricing_plan_id":"cebpf4jnsgd1na2vs0mg"},{"bike_id":"9206d9db-6a1d-4495-9bc2-7d4e1ef0f397","system_id":"levelo_inurba_marseille","lat":43.289219,"lon":5.384024,"is_reserved":false,"is_disabled":true,"rental_uris":{"android":"levelo://app?vid=9206d9db-6a1d-4495-9bc2-7d4e1ef0f397","ios":"levelo://app?vid=9206d9db-6a1d-4495-9bc2-7d4e1ef0f397"},"vehicle_type_id":"4","last_reported":1736248052,"current_range_meters":35600,"station_id":"ce4bh612rcd13ifvqe6g","pricing_plan_id":"cebpf4jnsgd1na2vs0mg"},{"bike_id":"2937c8f0-6f06-4c7f-8240-41ad44bc55fa","system_id":"levelo_inurba_marseille","lat":43.231896,"lon":5.399932,"is_reserved":false,"is_disabled":false,"rental_uris":{"android":"levelo://app?vid=2937c8f0-6f06-4c7f-8240-41ad44bc55fa","ios":"levelo://app?vid=2937c8f0-6f06-4c7f-8240-41ad44bc55fa"},"vehicle_type_id":"4","last_reported":1736248052,"current_range_meters":11200,"station_id":"ce4bhn12rcd13ifvqgqg","pricing_plan_id":"cebpf4jnsgd1na2vs0mg"},{"bike_id":"2ece2365-caa6-4817-b680-d769c6a194d9","system_id":"levelo_inurba_marseille","lat":43.312451,"lon":5.380559,"is_reserved":false,"is_disabled":false,"rental_uris":{"android":"levelo://app?vid=2ece2365-caa6-4817-b680-d769c6a194d9","ios":"levelo://app?vid=2ece2365-caa6-4817-b680-d769c6a194d9"},"vehicle_type_id":"4","last_reported":1736248052,"current_range_meters":37600,"station_id":"","pricing_plan_id":"cebpf4jnsgd1na2vs0mg"},{"bike_id":"457174c4-39db-4616-8471-ca62bc384bb7","system_id":"levelo_inurba_marseille","lat":43.304763,"lon":5.3791,"is_reserved":false,"is_disabled":true,"rental_uris":{"android":"levelo://app?vid=457174c4-39db-4616-8471-ca62bc384bb7","ios":"levelo://app?vid=457174c4-39db-4616-8471-ca62bc384bb7"},"vehicle_type_id":"4","last_reported":1736248052,"current_range_meters":33200,"station_id":"ce4bgup2rcd13ifvqcn0","pricing_plan_id":"cebpf4jnsgd1na2vs0mg"},{"bike_id":"2be5c012-0767-4ef2-a3f7-735f77675172","system_id":"levelo_inurba_marseille","lat":43.30136,"lon":5.37439,"is_reserved":false,"is_disabled":false,"rental_uris":{"android":"levelo://app?vid=2be5c012-0767-4ef2-a3f7-735f77675172","ios":"levelo://app?vid=2be5c012-0767-4ef2-a3f7-735f77675172"},"vehicle_type_id":"4","last_reported":1736248052,"current_range_meters":37600,"station_id":"ce4bgs92rcd13ifvqcc0","pricing_plan_id":"cebpf4jnsgd1na2vs0mg"},{"bike_id":"d014f699-d84d-436b-b3bf-8c059d18ea89","system_id":"levelo_inurba_marseille","lat":43.22918,"lon":5.35415,"is_reserved":false,"is_disabled":false,"rental_uris":{"android":"levelo://app?vid=d014f699-d84d-436b-b3bf-8c059d18ea89","ios":"levelo://app?vid=d014f699-d84d-436b-b3bf-8c059d18ea89"},"vehicle_type_id":"4","last_reported":1736248052,"current_range_meters":8400,"station_id":"cpo3532slgdg3j2ikp40","pricing_plan_id":"cebpf4jnsgd1na2vs0mg"},{"bike_id":"d712c131-758f-4ae4-8caf-687f76e0d587","system_id":"levelo_inurba_marseille","lat":43.27328,"lon":5.39086,"is_reserved":false,"is_disabled":false,"rental_uris":{"android":"levelo://app?vid=d712c131-758f-4ae4-8caf-687f76e0d587","ios":"levelo://app?vid=d712c131-758f-4ae4-8caf-687f76e0d587"},"vehicle_type_id":"4","last_reported":1736248052,"current_range_meters":38800,"station_id":"ce4bhgp2rcd13ifvqfe0","pricing_plan_id":"cebpf4jnsgd1na2vs0mg"},{"bike_id":"c1028ac9-4e10-4a1a-bb52-92e0449f6c3a","system_id":"levelo_inurba_marseille","lat":43.29093,"lon":5.3815,"is_reserved":false,"is_disabled":false,"rental_uris":{"android":"levelo://app?vid=c1028ac9-4e10-4a1a-bb52-92e0449f6c3a","ios":"levelo://app?vid=c1028ac9-4e10-4a1a-bb52-92e0449f6c3a"},"vehicle_type_id":"4","last_reported":1736248052,"current_range_meters":38000,"station_id":"ce4bh512rcd13ifvqe2g","pricing_plan_id":"cebpf4jnsgd1na2vs0mg"},{"bike_id":"f1bf52d6-fcde-41b1-902c-c7d7fbd38d64","system_id":"levelo_inurba_marseille","lat":43.30536,"lon":5.36722,"is_reserved":false,"is_disabled":false,"rental_uris":{"android":"levelo://app?vid=f1bf52d6-fcde-41b1-902c-c7d7fbd38d64","ios":"levelo://app?vid=f1bf52d6-fcde-41b1-902c-c7d7fbd38d64"},"vehicle_type_id":"4","last_reported":1736248052,"current_range_meters":34800,"station_id":"ce4bgrp2rcd13ifvqc9g","pricing_plan_id":"cebpf4jnsgd1na2vs0mg"},{"bike_id":"955387a8-4a47-4691-946f-78754c88504b","system_id":"levelo_inurba_marseille","lat":43.23181,"lon":5.35575,"is_reserved":false,"is_disabled":false,"rental_uris":{"android":"levelo://app?vid=955387a8-4a47-4691-946f-78754c88504b","ios":"levelo://app?vid=955387a8-4a47-4691-946f-78754c88504b"},"vehicle_type_id":"4","last_reported":1736248052,"current_range_meters":36800,"station_id":"ce4bhu92rcd13ifvqi70","pricing_plan_id":"cebpf4jnsgd1na2vs0mg"},{"bike_id":"ef72cdb4-465d-4178-b952-49906f159c48","system_id":"levelo_inurba_marseille","lat":43.28143,"lon":5.42652,"is_reserved":false,"is_disabled":false,"rental_uris":{"android":"levelo://app?vid=ef72cdb4-465d-4178-b952-49906f159c48","ios":"levelo://app?vid=ef72cdb4-465d-4178-b952-49906f159c48"},"vehicle_type_id":"4","last_reported":1736248052,"current_range_meters":36800,"station_id":"ce4bhnh2rcd13ifvqgug","pricing_plan_id":"cebpf4jnsgd1na2vs0mg"},{"bike_id":"1526205b-db60-41b9-8970-27dca19f4645","system_id":"levelo_inurba_marseille","lat":43.33601,"lon":5.41012,"is_reserved":false,"is_disabled":false,"rental_uris":{"android":"levelo://app?vid=1526205b-db60-41b9-8970-27dca19f4645","ios":"levelo://app?vid=1526205b-db60-41b9-8970-27dca19f4645"},"vehicle_type_id":"4","last_reported":1736248052,"current_range_meters":9200,"station_id":"ce4bhqh2rcd13ifvqhmg","pricing_plan_id":"cebpf4jnsgd1na2vs0mg"},{"bike_id":"f949af9a-2683-4ec9-b4bf-168b31b3bcb2","system_id":"levelo_inurba_marseille","lat":43.24672,"lon":5.38898,"is_reserved":false,"is_disabled":false,"rental_uris":{"android":"levelo://app?vid=f949af9a-2683-4ec9-b4bf-168b31b3bcb2","ios":"levelo://app?vid=f949af9a-2683-4ec9-b4bf-168b31b3bcb2"},"vehicle_type_id":"4","last_reported":1736248052,"current_range_meters":19200,"station_id":"ce4bhg12rcd13ifvqf60","pricing_plan_id":"cebpf4jnsgd1na2vs0mg"},{"bike_id":"35366d3e-9927-4914-80da-37300e9998f0","system_id":"levelo_inurba_marseille","lat":43.28699,"lon":5.37399,"is_reserved":false,"is_disabled":true,"rental_uris":{"android":"levelo://app?vid=35366d3e-9927-4914-80da-37300e9998f0","ios":"levelo://app?vid=35366d3e-9927-4914-80da-37300e9998f0"},"vehicle_type_id":"4","last_reported":1736248052,"current_range_meters":28800,"station_id":"ce4bh3p2rcd13ifvqdq0","pricing_plan_id":"cebpf4jnsgd1na2vs0mg"},{"bike_id":"49a58075-360f-493d-a66e-87bce6e29700","system_id":"levelo_inurba_marseille","lat":43.33022,"lon":5.39057,"is_reserved":false,"is_disabled":false,"rental_uris":{"android":"levelo://app?vid=49a58075-360f-493d-a66e-87bce6e29700","ios":"levelo://app?vid=49a58075-360f-493d-a66e-87bce6e29700"},"vehicle_type_id":"4","last_reported":1736248052,"current_range_meters":27600,"station_id":"ce4bhr92rcd13ifvqhrg","pricing_plan_id":"cebpf4jnsgd1na2vs0mg"},{"bike_id":"79ff8c15-50e6-493a-80e7-16be3ee55efc","system_id":"levelo_inurba_marseille","lat":43.23141,"lon":5.43725,"is_reserved":false,"is_disabled":false,"rental_uris":{"android":"levelo://app?vid=79ff8c15-50e6-493a-80e7-16be3ee55efc","ios":"levelo://app?vid=79ff8c15-50e6-493a-80e7-16be3ee55efc"},"vehicle_type_id":"4","last_reported":1736248052,"current_range_meters":18800,"station_id":"ce4bhmp2rcd13ifvqgog","pricing_plan_id":"cebpf4jnsgd1na2vs0mg"},{"bike_id":"0eaa564a-644a-43f8-ab87-c179b75f38f8","system_id":"levelo_inurba_marseille","lat":43.29169,"lon":5.37166,"is_reserved":false,"is_disabled":false,"rental_uris":{"android":"levelo://app?vid=0eaa564a-644a-43f8-ab87-c179b75f38f8","ios":"levelo://app?vid=0eaa564a-644a-43f8-ab87-c179b75f38f8"},"vehicle_type_id":"4","last_reported":1736248052,"current_range_meters":38400,"station_id":"ce4bha92rcd13ifvqeh0","pricing_plan_id":"cebpf4jnsgd1na2vs0mg"},{"bike_id":"aeee90cf-380e-401d-830f-c413f5ab482e","system_id":"levelo_inurba_marseille","lat":43.29367,"lon":5.37852,"is_reserved":false,"is_disabled":false,"rental_uris":{"android":"levelo://app?vid=aeee90cf-380e-401d-830f-c413f5ab482e","ios":"levelo://app?vid=aeee90cf-380e-401d-830f-c413f5ab482e"},"vehicle_type_id":"4","last_reported":1736248052,"current_range_meters":9600,"station_id":"ce4bgjh2rcd13ifvqbf0","pricing_plan_id":"cebpf4jnsgd1na2vs0mg"},{"bike_id":"75321dea-10a3-400f-8783-48b2ff90b60c","system_id":"levelo_inurba_marseille","lat":43.24647,"lon":5.38915,"is_reserved":false,"is_disabled":false,"rental_uris":{"android":"levelo://app?vid=75321dea-10a3-400f-8783-48b2ff90b60c","ios":"levelo://app?vid=75321dea-10a3-400f-8783-48b2ff90b60c"},"vehicle_type_id":"4","last_reported":1736248052,"current_range_meters":24400,"station_id":"ce4bhg12rcd13ifvqf60","pricing_plan_id":"cebpf4jnsgd1na2vs0mg"},{"bike_id":"26e93668-3f32-4cdf-873b-a4af8fb4d1e8","system_id":"levelo_inurba_marseille","lat":43.26934,"lon":5.38918,"is_reserved":false,"is_disabled":false,"rental_uris":{"android":"levelo://app?vid=26e93668-3f32-4cdf-873b-a4af8fb4d1e8","ios":"levelo://app?vid=26e93668-3f32-4cdf-873b-a4af8fb4d1e8"},"vehicle_type_id":"4","last_reported":1736248052,"current_range_meters":36400,"station_id":"ce4bhhh2rcd13ifvqfl0","pricing_plan_id":"cebpf4jnsgd1na2vs0mg"},{"bike_id":"d8abaf67-708b-4db2-a73b-fb2a8a1352a9","system_id":"levelo_inurba_marseille","lat":43.33615,"lon":5.40978,"is_reserved":false,"is_disabled":false,"rental_uris":{"android":"levelo://app?vid=d8abaf67-708b-4db2-a73b-fb2a8a1352a9","ios":"levelo://app?vid=d8abaf67-708b-4db2-a73b-fb2a8a1352a9"},"vehicle_type_id":"4","last_reported":1736248052,"current_range_meters":19200,"station_id":"ce4bhqh2rcd13ifvqhmg","pricing_plan_id":"cebpf4jnsgd1na2vs0mg"},{"bike_id":"71d582ac-e6fe-4aab-8128-ab6df056a243","system_id":"levelo_inurba_marseille","lat":43.32488,"lon":5.36566,"is_reserved":false,"is_disabled":false,"rental_uris":{"android":"levelo://app?vid=71d582ac-e6fe-4aab-8128-ab6df056a243","ios":"levelo://app?vid=71d582ac-e6fe-4aab-8128-ab6df056a243"},"vehicle_type_id":"4","last_reported":1736248052,"current_range_meters":32000,"station_id":"ce4bhs12rcd13ifvqhvg","pricing_plan_id":"cebpf4jnsgd1na2vs0mg"},{"bike_id":"25b6f245-cadc-4cad-812c-53e062c1ef53","system_id":"levelo_inurba_marseille","lat":43.23145,"lon":5.43708,"is_reserved":false,"is_disabled":false,"rental_uris":{"android":"levelo://app?vid=25b6f245-cadc-4cad-812c-53e062c1ef53","ios":"levelo://app?vid=25b6f245-cadc-4cad-812c-53e062c1ef53"},"vehicle_type_id":"4","last_reported":1736248052,"current_range_meters":36400,"station_id":"ce4bhmp2rcd13ifvqgog","pricing_plan_id":"cebpf4jnsgd1na2vs0mg"},{"bike_id":"9ba0e643-1ccc-43bf-a78b-b67463aca0d6","system_id":"levelo_inurba_marseille","lat":43.31356,"lon":5.38489,"is_reserved":false,"is_disabled":false,"rental_uris":{"android":"levelo://app?vid=9ba0e643-1ccc-43bf-a78b-b67463aca0d6","ios":"levelo://app?vid=9ba0e643-1ccc-43bf-a78b-b67463aca0d6"},"vehicle_type_id":"4","last_reported":1736248052,"current_range_meters":30800,"station_id":"ce4bgt92rcd13ifvqcf0","pricing_plan_id":"cebpf4jnsgd1na2vs0mg"},{"bike_id":"b8d3011b-a327-432f-a2e2-4b1aaf12ebd8","system_id":"levelo_inurba_marseille","lat":43.30325,"lon":5.40437,"is_reserved":false,"is_disabled":false,"rental_uris":{"android":"levelo://app?vid=b8d3011b-a327-432f-a2e2-4b1aaf12ebd8","ios":"levelo://app?vid=b8d3011b-a327-432f-a2e2-4b1aaf12ebd8"},"vehicle_type_id":"4","last_reported":1736248052,"current_range_meters":6800,"station_id":"ce4bh012rcd13ifvqd10","pricing_plan_id":"cebpf4jnsgd1na2vs0mg"},{"bike_id":"d96a94fa-78c1-4a1b-8963-819e952c0c73","system_id":"levelo_inurba_marseille","lat":43.28153,"lon":5.426434,"is_reserved":false,"is_disabled":false,"rental_uris":{"android":"levelo://app?vid=d96a94fa-78c1-4a1b-8963-819e952c0c73","ios":"levelo://app?vid=d96a94fa-78c1-4a1b-8963-819e952c0c73"},"vehicle_type_id":"4","last_reported":1736248052,"current_range_meters":25200,"station_id":"ce4bhnh2rcd13ifvqgug","pricing_plan_id":"cebpf4jnsgd1na2vs0mg"},{"bike_id":"ea7bebe3-4aff-4a01-b28d-c9b866182ae3","system_id":"levelo_inurba_marseille","lat":43.30791,"lon":5.39213,"is_reserved":false,"is_disabled":false,"rental_uris":{"android":"levelo://app?vid=ea7bebe3-4aff-4a01-b28d-c9b866182ae3","ios":"levelo://app?vid=ea7bebe3-4aff-4a01-b28d-c9b866182ae3"},"vehicle_type_id":"4","last_reported":1736248052,"current_range_meters":28000,"station_id":"","pricing_plan_id":"cebpf4jnsgd1na2vs0mg"},{"bike_id":"4349e322-e54f-4a7c-8de9-2ce06a16918d","system_id":"levelo_inurba_marseille","lat":43.27945,"lon":5.41059,"is_reserved":false,"is_disabled":true,"rental_uris":{"android":"levelo://app?vid=4349e322-e54f-4a7c-8de9-2ce06a16918d","ios":"levelo://app?vid=4349e322-e54f-4a7c-8de9-2ce06a16918d"},"vehicle_type_id":"4","last_reported":1736248052,"current_range_meters":0,"station_id":"ce4bhnp2rcd13ifvqh0g","pricing_plan_id":"cebpf4jnsgd1na2vs0mg"},{"bike_id":"37ac3a3b-f2fe-447b-ba4c-e92489b41465","system_id":"levelo_inurba_marseille","lat":43.29575,"lon":5.37457,"is_reserved":false,"is_disabled":false,"rental_uris":{"android":"levelo://app?vid=37ac3a3b-f2fe-447b-ba4c-e92489b41465","ios":"levelo://app?vid=37ac3a3b-f2fe-447b-ba4c-e92489b41465"},"vehicle_type_id":"4","last_reported":1736248052,"current_range_meters":35200,"station_id":"ce4bgkp2rcd13ifvqbmg","pricing_plan_id":"cebpf4jnsgd1na2vs0mg"},{"bike_id":"41447cd4-de79-4bde-8e7a-cb13f2bef527","system_id":"levelo_inurba_marseille","lat":43.34123,"lon":5.40917,"is_reserved":false,"is_disabled":false,"rental_uris":{"android":"levelo://app?vid=41447cd4-de79-4bde-8e7a-cb13f2bef527","ios":"levelo://app?vid=41447cd4-de79-4bde-8e7a-cb13f2bef527"},"vehicle_type_id":"4","last_reported":1736248052,"current_range_meters":32400,"station_id":"ce4bhqh2rcd13ifvqhlg","pricing_plan_id":"cebpf4jnsgd1na2vs0mg"},{"bike_id":"1ecbf214-5d35-4cf0-b38a-77f20fe9e9d3","system_id":"levelo_inurba_marseille","lat":43.26677,"lon":5.3826,"is_reserved":false,"is_disabled":false,"rental_uris":{"android":"levelo://app?vid=1ecbf214-5d35-4cf0-b38a-77f20fe9e9d3","ios":"levelo://app?vid=1ecbf214-5d35-4cf0-b38a-77f20fe9e9d3"},"vehicle_type_id":"4","last_reported":1736248052,"current_range_meters":36000,"station_id":"ce4bhg92rcd13ifvqf90","pricing_plan_id":"cebpf4jnsgd1na2vs0mg"},{"bike_id":"380ac25f-ddad-469c-8de6-f4bbe4522ccc","system_id":"levelo_inurba_marseille","lat":43.29852,"lon":5.36279,"is_reserved":false,"is_disabled":false,"rental_uris":{"android":"levelo://app?vid=380ac25f-ddad-469c-8de6-f4bbe4522ccc","ios":"levelo://app?vid=380ac25f-ddad-469c-8de6-f4bbe4522ccc"},"vehicle_type_id":"4","last_reported":1736248052,"current_range_meters":38800,"station_id":"ce4bgpp2rcd13ifvqc3g","pricing_plan_id":"cebpf4jnsgd1na2vs0mg"},{"bike_id":"638d8e06-358a-4761-af02-7f657812043d","system_id":"levelo_inurba_marseille","lat":43.25122,"lon":5.40313,"is_reserved":false,"is_disabled":false,"rental_uris":{"android":"levelo://app?vid=638d8e06-358a-4761-af02-7f657812043d","ios":"levelo://app?vid=638d8e06-358a-4761-af02-7f657812043d"},"vehicle_type_id":"4","last_reported":1736248052,"current_range_meters":27600,"station_id":"ce4bhlh2rcd13ifvqgig","pricing_plan_id":"cebpf4jnsgd1na2vs0mg"},{"bike_id":"ff7429a5-f4cc-4709-a586-0c355ae4fc76","system_id":"levelo_inurba_marseille","lat":43.31753,"lon":5.39023,"is_reserved":false,"is_disabled":false,"rental_uris":{"android":"levelo://app?vid=ff7429a5-f4cc-4709-a586-0c355ae4fc76","ios":"levelo://app?vid=ff7429a5-f4cc-4709-a586-0c355ae4fc76"},"vehicle_type_id":"4","last_reported":1736248052,"current_range_meters":37600,"station_id":"ce4bhqp2rcd13ifvqhng","pricing_plan_id":"cebpf4jnsgd1na2vs0mg"},{"bike_id":"96eaff2f-b541-4fed-a756-a159d664d1f2","system_id":"levelo_inurba_marseille","lat":43.31344,"lon":5.36716,"is_reserved":false,"is_disabled":false,"rental_uris":{"android":"levelo://app?vid=96eaff2f-b541-4fed-a756-a159d664d1f2","ios":"levelo://app?vid=96eaff2f-b541-4fed-a756-a159d664d1f2"},"vehicle_type_id":"4","last_reported":1736248052,"current_range_meters":12400,"station_id":"ce4bgr92rcd13ifvqc6g","pricing_plan_id":"cebpf4jnsgd1na2vs0mg"},{"bike_id":"4a504124-b839-4664-9121-de41936585f8","system_id":"levelo_inurba_marseille","lat":43.322779,"lon":5.383095,"is_reserved":false,"is_disabled":false,"rental_uris":{"android":"levelo://app?vid=4a504124-b839-4664-9121-de41936585f8","ios":"levelo://app?vid=4a504124-b839-4664-9121-de41936585f8"},"vehicle_type_id":"4","last_reported":1736248052,"current_range_meters":24000,"station_id":"ce4bhr12rcd13ifvqhqg","pricing_plan_id":"cebpf4jnsgd1na2vs0mg"},{"bike_id":"7a9813b1-4146-4458-9cb1-b490c5a9e407","system_id":"levelo_inurba_marseille","lat":43.29306,"lon":5.37151,"is_reserved":false,"is_disabled":false,"rental_uris":{"android":"levelo://app?vid=7a9813b1-4146-4458-9cb1-b490c5a9e407","ios":"levelo://app?vid=7a9813b1-4146-4458-9cb1-b490c5a9e407"},"vehicle_type_id":"4","last_reported":1736248052,"current_range_meters":21600,"station_id":"ce4bgh92rcd13ifvqb40","pricing_plan_id":"cebpf4jnsgd1na2vs0mg"},{"bike_id":"09740fab-6822-4e50-a45d-c9fe9c7a2179","system_id":"levelo_inurba_marseille","lat":43.29629,"lon":5.37151,"is_reserved":false,"is_disabled":false,"rental_uris":{"android":"levelo://app?vid=09740fab-6822-4e50-a45d-c9fe9c7a2179","ios":"levelo://app?vid=09740fab-6822-4e50-a45d-c9fe9c7a2179"},"vehicle_type_id":"4","last_reported":1736248052,"current_range_meters":38800,"station_id":"ce4bgnh2rcd13ifvqc0g","pricing_plan_id":"cebpf4jnsgd1na2vs0mg"},{"bike_id":"aad4a535-b699-4598-8dc1-ecd244317ca1","system_id":"levelo_inurba_marseille","lat":43.23188,"lon":5.39978,"is_reserved":false,"is_disabled":false,"rental_uris":{"android":"levelo://app?vid=aad4a535-b699-4598-8dc1-ecd244317ca1","ios":"levelo://app?vid=aad4a535-b699-4598-8dc1-ecd244317ca1"},"vehicle_type_id":"4","last_reported":1736248052,"current_range_meters":9200,"station_id":"ce4bhn12rcd13ifvqgqg","pricing_plan_id":"cebpf4jnsgd1na2vs0mg"},{"bike_id":"846caf5b-5e22-45f4-b48d-e43e8381bc4e","system_id":"levelo_inurba_marseille","lat":43.30912,"lon":5.36859,"is_reserved":false,"is_disabled":false,"rental_uris":{"android":"levelo://app?vid=846caf5b-5e22-45f4-b48d-e43e8381bc4e","ios":"levelo://app?vid=846caf5b-5e22-45f4-b48d-e43e8381bc4e"},"vehicle_type_id":"4","last_reported":1736248052,"current_range_meters":24800,"station_id":"ce4bgn92rcd13ifvqbvg","pricing_plan_id":"cebpf4jnsgd1na2vs0mg"},{"bike_id":"d8b6ad16-2edf-48ee-aba4-9801c618dedc","system_id":"levelo_inurba_marseille","lat":43.24083,"lon":5.37749,"is_reserved":false,"is_disabled":true,"rental_uris":{"android":"levelo://app?vid=d8b6ad16-2edf-48ee-aba4-9801c618dedc","ios":"levelo://app?vid=d8b6ad16-2edf-48ee-aba4-9801c618dedc"},"vehicle_type_id":"4","last_reported":1736248052,"current_range_meters":34800,"station_id":"ce4bhnp2rcd13ifvqgvg","pricing_plan_id":"cebpf4jnsgd1na2vs0mg"},{"bike_id":"ad6a3624-3479-4903-b62b-8609c0dd2c65","system_id":"levelo_inurba_marseille","lat":43.2995,"lon":5.39794,"is_reserved":false,"is_disabled":false,"rental_uris":{"android":"levelo://app?vid=ad6a3624-3479-4903-b62b-8609c0dd2c65","ios":"levelo://app?vid=ad6a3624-3479-4903-b62b-8609c0dd2c65"},"vehicle_type_id":"4","last_reported":1736248052,"current_range_meters":36400,"station_id":"","pricing_plan_id":"cebpf4jnsgd1na2vs0mg"},{"bike_id":"dd05cbaa-65b7-459b-9b67-ea6957261094","system_id":"levelo_inurba_marseille","lat":43.23194,"lon":5.3557,"is_reserved":false,"is_disabled":false,"rental_uris":{"android":"levelo://app?vid=dd05cbaa-65b7-459b-9b67-ea6957261094","ios":"levelo://app?vid=dd05cbaa-65b7-459b-9b67-ea6957261094"},"vehicle_type_id":"4","last_reported":1736248052,"current_range_meters":38800,"station_id":"ce4bhu92rcd13ifvqi70","pricing_plan_id":"cebpf4jnsgd1na2vs0mg"},{"bike_id":"5a3172d6-06a7-4a0a-bd47-5a0bc48e7711","system_id":"levelo_inurba_marseille","lat":43.29893,"lon":5.38906,"is_reserved":false,"is_disabled":false,"rental_uris":{"android":"levelo://app?vid=5a3172d6-06a7-4a0a-bd47-5a0bc48e7711","ios":"levelo://app?vid=5a3172d6-06a7-4a0a-bd47-5a0bc48e7711"},"vehicle_type_id":"4","last_reported":1736248052,"current_range_meters":30400,"station_id":"ce4bh392rcd13ifvqdl0","pricing_plan_id":"cebpf4jnsgd1na2vs0mg"},{"bike_id":"b210e670-04e4-4c2c-8f2a-43a3063e68eb","system_id":"levelo_inurba_marseille","lat":43.24003,"lon":5.37685,"is_reserved":false,"is_disabled":true,"rental_uris":{"android":"levelo://app?vid=b210e670-04e4-4c2c-8f2a-43a3063e68eb","ios":"levelo://app?vid=b210e670-04e4-4c2c-8f2a-43a3063e68eb"},"vehicle_type_id":"4","last_reported":1736248052,"current_range_meters":38400,"station_id":"","pricing_plan_id":"cebpf4jnsgd1na2vs0mg"},{"bike_id":"3d2d87e0-1f79-4580-920a-281e6a9fb349","system_id":"levelo_inurba_marseille","lat":43.29028,"lon":5.38136,"is_reserved":false,"is_disabled":false,"rental_uris":{"android":"levelo://app?vid=3d2d87e0-1f79-4580-920a-281e6a9fb349","ios":"levelo://app?vid=3d2d87e0-1f79-4580-920a-281e6a9fb349"},"vehicle_type_id":"4","last_reported":1736248052,"current_range_meters":33600,"station_id":"ce4bh4p2rcd13ifvqe1g","pricing_plan_id":"cebpf4jnsgd1na2vs0mg"},