{"last_updated":1722704819,"ttl":30,"version":"2.2","data":{"bikes":[{"bike_id":"15de6da9-004f-440f-9ca0-2f48b64adfcc","system_id":"levelo_inurba_marseille","lat":43.30633,"lon":5.36585,"is_reserved":false,"is_disabled":false,"rental_uris":{"android":"levelo://app?vid=15de6da9-004f-440f-9ca0-2f48b64adfcc","ios":"levelo://app?vid=15de6da9-004f-440f-9ca0-2f48b64adfcc"},"vehicle_type_id":"4","last_reported":1722704820,"current_range_meters":2800,"station_id":"","pricing_plan_id":"cebpf4jnsgd1na2vs0mg"},{"bike_id":"beb29842-ed55-4b2d-8381-0e77c72ff93f","system_id":"levelo_inurba_marseille","lat":43.30937,"lon":5.374823,"is_reserved":false,"is_disabled":false,"rental_uris":{"android":"levelo://app?vid=beb29842-ed55-4b2d-8381-0e77c72ff93f","ios":"levelo://app?vid=beb29842-ed55-4b2d-8381-0e77c72ff93f"},"vehicle_type_id":"4","last_reported":1722704820,"current_range_meters":16800,"station_id":"","pricing_plan_id":"cebpf4jnsgd1na2vs0mg"},{"bike_id":"a493b506-ac02-4738-b3be-2575896972a7","system_id":"levelo_inurba_marseille","lat":43.30537,"lon":5.367345,"is_reserved":false,"is_disabled":false,"rental_uris":{"android":"levelo://app?vid=a493b506-ac02-4738-b3be-2575896972a7","ios":"levelo://app?vid=a493b506-ac02-4738-b3be-2575896972a7"},"vehicle_type_id":"4","last_reported":1722704820,"current_range_meters":0,"station_id":"ce4bgrp2rcd13ifvqc9g","pricing_plan_id":"cebpf4jnsgd1na2vs0mg"},{"bike_id":"b23c7ab1-9d0c-4e8a-a0d3-4dce4af548a0","system_id":"levelo_inurba_marseille","lat":43.311131,"lon":5.377651,"is_reserved":false,"is_disabled":false,"rental_uris":{"android":"levelo://app?vid=b23c7ab1-9d0c-4e8a-a0d3-4dce4af548a0","ios":"levelo://app?vid=b23c7ab1-9d0c-4e8a-a0d3-4dce4af548a0"},"vehicle_type_id":"4","last_reported":1722704820,"current_range_meters":16800,"station_id":"ce4bgt92rcd13ifvqcg0","pricing_plan_id":"cebpf4jnsgd1na2vs0mg"},{"bike_id":"a2c5e2bf-8d44-4ccc-b024-f5909396e765","system_id":"levelo_inurba_marseille","lat":43.311131,"lon":5.377651,"is_reserved":false,"is_disabled":false,"rental_uris":{"android":"levelo://app?vid=a2c5e2bf-8d44-4ccc-b024-f5909396e765","ios":"levelo://app?vid=a2c5e2bf-8d44-4ccc-b024-f5909396e765"},"vehicle_type_id":"4","last_reported":1722704820,"current_range_meters":14400,"station_id":"ce4bgt92rcd13ifvqcg0","pricing_plan_id":"cebpf4jnsgd1na2vs0mg"},{"bike_id":"d91b8f31-3821-4fcf-8e9c-d16c57611421","system_id":"levelo_inurba_marseille","lat":43.30919,"lon":5.37866,"is_reserved":false,"is_disabled":false,"rental_uris":{"android":"levelo://app?vid=d91b8f31-3821-4fcf-8e9c-d16c57611421","ios":"levelo://app?vid=d91b8f31-3821-4fcf-8e9c-d16c57611421"},"vehicle_type_id":"4","last_reported":1722704820,"current_range_meters":23200,"station_id":"","pricing_plan_id":"cebpf4jnsgd1na2vs0mg"},{"bike_id":"de98d718-5257-4b9a-8f84-964e169cb359","system_id":"levelo_inurba_marseille","lat":43.3116,"lon":5.37993,"is_reserved":false,"is_disabled":false,"rental_uris":{"android":"levelo://app?vid=de98d718-5257-4b9a-8f84-964e169cb359","ios":"levelo://app?vid=de98d718-5257-4b9a-8f84-964e169cb359"},"vehicle_type_id":"4","last_reported":1722704820,"current_range_meters":0,"station_id":"","pricing_plan_id":"cebpf4jnsgd1na2vs0mg"},{"bike_id":"746cd1d4-ddbc-43ad-bccc-6b9669e9fdd6","system_id":"levelo_inurba_marseille","lat":43.318864,"lon":5.377141,"is_reserved":false,"is_disabled":false,"rental_uris":{"android":"levelo://app?vid=746cd1d4-ddbc-43ad-bccc-6b9669e9fdd6","ios":"levelo://app?vid=746cd1d4-ddbc-43ad-bccc-6b9669e9fdd6"},"vehicle_type_id":"4","last_reported":1722704820,"current_range_meters":11600,"station_id":"","pricing_plan_id":"cebpf4jnsgd1na2vs0mg"},{"bike_id":"19718f60-4942-4461-8147-4579b3c3d67c","system_id":"levelo_inurba_marseille","lat":43.30304,"lon":5.368987,"is_reserved":false,"is_disabled":false,"rental_uris":{"android":"levelo://app?vid=19718f60-4942-4461-8147-4579b3c3d67c","ios":"levelo://app?vid=19718f60-4942-4461-8147-4579b3c3d67c"},"vehicle_type_id":"4","last_reported":1722704820,"current_range_meters":6000,"station_id":"ce4bgqh2rcd13ifvqc5g","pricing_plan_id":"cebpf4jnsgd1na2vs0mg"},{"bike_id":"bae58527-fd98-4245-8341-4a7e1f8b037d","system_id":"levelo_inurba_marseille","lat":43.315289,"lon":5.380349,"is_reserved":false,"is_disabled":false,"rental_uris":{"android":"levelo://app?vid=bae58527-fd98-4245-8341-4a7e1f8b037d","ios":"levelo://app?vid=bae58527-fd98-4245-8341-4a7e1f8b037d"},"vehicle_type_id":"4","last_reported":1722704820,"current_range_meters":16800,"station_id":"ce4bhsp2rcd13ifvqi50","pricing_plan_id":"cebpf4jnsgd1na2vs0mg"},{"bike_id":"937d205e-2e3f-42c5-b744-cd8fb6683f87","system_id":"levelo_inurba_marseille","lat":43.316454,"lon":5.379988,"is_reserved":false,"is_disabled":false,"rental_uris":{"android":"levelo://app?vid=937d205e-2e3f-42c5-b744-cd8fb6683f87","ios":"levelo://app?vid=937d205e-2e3f-42c5-b744-cd8fb6683f87"},"vehicle_type_id":"4","last_reported":1722704820,"current_range_meters":31200,"station_id":"","pricing_plan_id":"cebpf4jnsgd1na2vs0mg"},{"bike_id":"7d26f442-7c92-4f3d-8240-0ca62ad96ee4","system_id":"levelo_inurba_marseille","lat":43.323384,"lon":5.364835,"is_reserved":false,"is_disabled":false,"rental_uris":{"android":"levelo://app?vid=7d26f442-7c92-4f3d-8240-0ca62ad96ee4","ios":"levelo://app?vid=7d26f442-7c92-4f3d-8240-0ca62ad96ee4"},"vehicle_type_id":"4","last_reported":1722704820,"current_range_meters":25200,"station_id":"","pricing_plan_id":"cebpf4jnsgd1na2vs0mg"},{"bike_id":"15f5cf17-5bac-4b09-b248-f8bf35780b7f","system_id":"levelo_inurba_marseille","lat":43.301939,"lon":5.366286,"is_reserved":false,"is_disabled":false,"rental_uris":{"android":"levelo://app?vid=15f5cf17-5bac-4b09-b248-f8bf35780b7f","ios":"levelo://app?vid=15f5cf17-5bac-4b09-b248-f8bf35780b7f"},"vehicle_type_id":"4","last_reported":1722704820,"current_range_meters":26400,"station_id":"ce4bgrh2rcd13ifvqc8g","pricing_plan_id":"cebpf4jnsgd1na2vs0mg"},{"bike_id":"1a829339-1adf-4e50-8855-42ac20180449","system_id":"levelo_inurba_marseille","lat":43.308044,"lon":5.381457,"is_reserved":false,"is_disabled":false,"rental_uris":{"android":"levelo://app?vid=1a829339-1adf-4e50-8855-42ac20180449","ios":"levelo://app?vid=1a829339-1adf-4e50-8855-42ac20180449"},"vehicle_type_id":"4","last_reported":1722704820,"current_range_meters":0,"station_id":"ce4bgt12rcd13ifvqce0","pricing_plan_id":"cebpf4jnsgd1na2vs0mg"},{"bike_id":"8a5b150d-2e2e-4c25-bced-c2d1bbf914e1","system_id":"levelo_inurba_marseille","lat":43.308012,"lon":5.381511,"is_reserved":false,"is_disabled":false,"rental_uris":{"android":"levelo://app?vid=8a5b150d-2e2e-4c25-bced-c2d1bbf914e1","ios":"levelo://app?vid=8a5b150d-2e2e-4c25-bced-c2d1bbf914e1"},"vehicle_type_id":"4","last_reported":1722704820,"current_range_meters":400,"station_id":"ce4bgt12rcd13ifvqce0","pricing_plan_id":"cebpf4jnsgd1na2vs0mg"},{"bike_id":"44fc0fe8-4d23-4eef-94b6-e4fb8c1282e3","system_id":"levelo_inurba_marseille","lat":43.308012,"lon":5.381511,"is_reserved":false,"is_disabled":false,"rental_uris":{"android":"levelo://app?vid=44fc0fe8-4d23-4eef-94b6-e4fb8c1282e3","ios":"levelo://app?vid=44fc0fe8-4d23-4eef-94b6-e4fb8c1282e3"},"vehicle_type_id":"4","last_reported":1722704820,"current_range_meters":25200,"station_id":"ce4bgt12rcd13ifvqce0","pricing_plan_id":"cebpf4jnsgd1na2vs0mg"},{"bike_id":"cab7905e-67bc-48d9-a65f-d558dbedaf1d","system_id":"levelo_inurba_marseille","lat":43.308012,"lon":5.381511,"is_reserved":false,"is_disabled":false,"rental_uris":{"android":"levelo://app?vid=cab7905e-67bc-48d9-a65f-d558dbedaf1d","ios":"levelo://app?vid=cab7905e-67bc-48d9-a65f-d558dbedaf1d"},"vehicle_type_id":"4","last_reported":1722704820,"current_range_meters":27200,"station_id":"ce4bgt12rcd13ifvqce0","pricing_plan_id":"cebpf4jnsgd1na2vs0mg"},{"bike_id":"649e097a-3042-4399-84bd-df5063a42692","system_id":"levelo_inurba_marseille","lat":43.308012,"lon":5.381511,"is_reserved":false,"is_disabled":false,"rental_uris":{"android":"levelo://app?vid=649e097a-3042-4399-84bd-df5063a42692","ios":"levelo://app?vid=649e097a-3042-4399-84bd-df5063a42692"},"vehicle_type_id":"4","last_reported":1722704820,"current_range_meters":0,"station_id":"ce4bgt12rcd13ifvqce0","pricing_plan_id":"cebpf4jnsgd1na2vs0mg"},{"bike_id":"cfbb5f88-214f-4b9d-a4eb-4496dbd9322a","system_id":"levelo_inurba_marseille","lat":43.324771,"lon":5.36557,"is_reserved":false,"is_disabled":false,"rental_uris":{"android":"levelo://app?vid=cfbb5f88-214f-4b9d-a4eb-4496dbd9322a","ios":"levelo://app?vid=cfbb5f88-214f-4b9d-a4eb-4496dbd9322a"},"vehicle_type_id":"4","last_reported":1722704820,"current_range_meters":31600,"station_id":"ce4bhs12rcd13ifvqhvg","pricing_plan_id":"cebpf4jnsgd1na2vs0mg"},{"bike_id":"0d2c7343-d408-4f1e-b972-d2fd833b381e","system_id":"levelo_inurba_marseille","lat":43.324771,"lon":5.36557,"is_reserved":false,"is_disabled":false,"rental_uris":{"android":"levelo://app?vid=0d2c7343-d408-4f1e-b972-d2fd833b381e","ios":"levelo://app?vid=0d2c7343-d408-4f1e-b972-d2fd833b381e"},"vehicle_type_id":"4","last_reported":1722704820,"current_range_meters":6800,"station_id":"ce4bhs12rcd13ifvqhvg","pricing_plan_id":"cebpf4jnsgd1na2vs0mg"},{"bike_id":"2d103344-4df1-429f-84ee-77a076d3693b","system_id":"levelo_inurba_marseille","lat":43.324771,"lon":5.36557,"is_reserved":false,"is_disabled":false,"rental_uris":{"android":"levelo://app?vid=2d103344-4df1-429f-84ee-77a076d3693b","ios":"levelo://app?vid=2d103344-4df1-429f-84ee-77a076d3693b"},"vehicle_type_id":"4","last_reported":1722704820,"current_range_meters":31200,"station_id":"ce4bhs12rcd13ifvqhvg","pricing_plan_id":"cebpf4jnsgd1na2vs0mg"},{"bike_id":"c5eafbde-38cc-415e-bdbe-642750cf2fc4","system_id":"levelo_inurba_marseille","lat":43.324771,"lon":5.36557,"is_reserved":false,"is_disabled":false,"rental_uris":{"android":"levelo://app?vid=c5eafbde-38cc-415e-bdbe-642750cf2fc4","ios":"levelo://app?vid=c5eafbde-38cc-415e-bdbe-642750cf2fc4"},"vehicle_type_id":"4","last_reported":1722704820,"current_range_meters":23600,"station_id":"ce4bhs12rcd13ifvqhvg","pricing_plan_id":"cebpf4jnsgd1na2vs0mg"},{"bike_id":"39c3d13d-fef7-48cf-9300-21353a1419e2","system_id":"levelo_inurba_marseille","lat":43.324855,"lon":5.365746,"is_reserved":false,"is_disabled":false,"rental_uris":{"android":"levelo://app?vid=39c3d13d-fef7-48cf-9300-21353a1419e2","ios":"levelo://app?vid=39c3d13d-fef7-48cf-9300-21353a1419e2"},"vehicle_type_id":"4","last_reported":1722704820,"current_range_meters":29600,"station_id":"ce4bhs12rcd13ifvqhvg","pricing_plan_id":"cebpf4jnsgd1na2vs0mg"},{"bike_id":"81148f0e-b8c3-4d4b-a8c5-f0cd922d0ca2","system_id":"levelo_inurba_marseille","lat":43.324771,"lon":5.36557,"is_reserved":false,"is_disabled":false,"rental_uris":{"android":"levelo://app?vid=81148f0e-b8c3-4d4b-a8c5-f0cd922d0ca2","ios":"levelo://app?vid=81148f0e-b8c3-4d4b-a8c5-f0cd922d0ca2"},"vehicle_type_id":"4","last_reported":1722704820,"current_range_meters":31600,"station_id":"ce4bhs12rcd13ifvqhvg","pricing_plan_id":"cebpf4jnsgd1na2vs0mg"},{"bike_id":"aa6c3caa-a399-40fe-9908-325748fc4085","system_id":"levelo_inurba_marseille","lat":43.324771,"lon":5.36557,"is_reserved":false,"is_disabled":false,"rental_uris":{"android":"levelo://app?vid=aa6c3caa-a399-40fe-9908-325748fc4085","ios":"levelo://app?vid=aa6c3caa-a399-40fe-9908-325748fc4085"},"vehicle_type_id":"4","last_reported":1722704820,"current_range_meters":17200,"station_id":"ce4bhs12rcd13ifvqhvg","pricing_plan_id":"cebpf4jnsgd1na2vs0mg"},{"bike_id":"41980ad8-51a2-43e4-bb99-3124a61598b8","system_id":"levelo_inurba_marseille","lat":43.324771,"lon":5.36557,"is_reserved":false,"is_disabled":false,"rental_uris":{"android":"levelo://app?vid=41980ad8-51a2-43e4-bb99-3124a61598b8","ios":"levelo://app?vid=41980ad8-51a2-43e4-bb99-3124a61598b8"},"vehicle_type_id":"4","last_reported":1722704820,"current_range_meters":22800,"station_id":"ce4bhs12rcd13ifvqhvg","pricing_plan_id":"cebpf4jnsgd1na2vs0mg"},{"bike_id":"f0d49e54-ec42-4f72-b2eb-18866236d5f3","system_id":"levelo_inurba_marseille","lat":43.302784,"lon":5.377158,"is_reserved":false,"is_disabled":false,"rental_uris":{"android":"levelo://app?vid=f0d49e54-ec42-4f72-b2eb-18866236d5f3","ios":"levelo://app?vid=f0d49e54-ec42-4f72-b2eb-18866236d5f3"},"vehicle_type_id":"4","last_reported":1722704820,"current_range_meters":19200,"station_id":"ce4bguh2rcd13ifvqcj0","pricing_plan_id":"cebpf4jnsgd1na2vs0mg"},{"bike_id":"4dc12a89-c294-4a49-ab6d-b2dc5df447b5","system_id":"levelo_inurba_marseille","lat":43.324771,"lon":5.36557,"is_reserved":false,"is_disabled":false,"rental_uris":{"android":"levelo://app?vid=4dc12a89-c294-4a49-ab6d-b2dc5df447b5","ios":"levelo://app?vid=4dc12a89-c294-4a49-ab6d-b2dc5df447b5"},"vehicle_type_id":"4","last_reported":1722704820,"current_range_meters":31200,"station_id":"ce4bhs12rcd13ifvqhvg","pricing_plan_id":"cebpf4jnsgd1na2vs0mg"},{"bike_id":"c43df8fc-206b-42df-be01-7d7e5c3c15cf","system_id":"levelo_inurba_marseille","lat":43.302784,"lon":5.377158,"is_reserved":false,"is_disabled":false,"rental_uris":{"android":"levelo://app?vid=c43df8fc-206b-42df-be01-7d7e5c3c15cf","ios":"levelo://app?vid=c43df8fc-206b-42df-be01-7d7e5c3c15cf"},"vehicle_type_id":"4","last_reported":1722704820,"current_range_meters":5600,"station_id":"ce4bguh2rcd13ifvqcj0","pricing_plan_id":"cebpf4jnsgd1na2vs0mg"},{"bike_id":"b4bb3a52-e953-4c0d-9040-615bb4034f89","system_id":"levelo_inurba_marseille","lat":43.302784,"lon":5.377158,"is_reserved":false,"is_disabled":false,"rental_uris":{"android":"levelo://app?vid=b4bb3a52-e953-4c0d-9040-615bb4034f89","ios":"levelo://app?vid=b4bb3a52-e953-4c0d-9040-615bb4034f89"},"vehicle_type_id":"4","last_reported":1722704820,"current_range_meters":8400,"station_id":"ce4bguh2rcd13ifvqcj0","pricing_plan_id":"cebpf4jnsgd1na2vs0mg"},{"bike_id":"80684ddb-8040-4664-b362-2a11b88482b4","system_id":"levelo_inurba_marseille","lat":43.302784,"lon":5.377158,"is_reserved":false,"is_disabled":false,"rental_uris":{"android":"levelo://app?vid=80684ddb-8040-4664-b362-2a11b88482b4","ios":"levelo://app?vid=80684ddb-8040-4664-b362-2a11b88482b4"},"vehicle_type_id":"4","last_reported":1722704820,"current_range_meters":27600,"station_id":"ce4bguh2rcd13ifvqcj0","pricing_plan_id":"cebpf4jnsgd1na2vs0mg"},{"bike_id":"6118529c-8873-49e7-96a7-dfeb8c5f28a9","system_id":"levelo_inurba_marseille","lat":43.30149,"lon":5.37421,"is_reserved":false,"is_disabled":false,"rental_uris":{"android":"levelo://app?vid=6118529c-8873-49e7-96a7-dfeb8c5f28a9","ios":"levelo://app?vid=6118529c-8873-49e7-96a7-dfeb8c5f28a9"},"vehicle_type_id":"4","last_reported":1722704820,"current_range_meters":10000,"station_id":"ce4bgs92rcd13ifvqcc0","pricing_plan_id":"cebpf4jnsgd1na2vs0mg"},{"bike_id":"60f28eb2-3c66-4233-87bf-5795fa6302cc","system_id":"levelo_inurba_marseille","lat":43.31375,"lon":5.3849,"is_reserved":false,"is_disabled":false,"rental_uris":{"android":"levelo://app?vid=60f28eb2-3c66-4233-87bf-5795fa6302cc","ios":"levelo://app?vid=60f28eb2-3c66-4233-87bf-5795fa6302cc"},"vehicle_type_id":"4","last_reported":1722704820,"current_range_meters":11200,"station_id":"ce4bgt92rcd13ifvqcf0","pricing_plan_id":"cebpf4jnsgd1na2vs0mg"},{"bike_id":"21aae6a4-f4d6-4400-a49c-eff515669e4a","system_id":"levelo_inurba_marseille","lat":43.313571,"lon":5.384829,"is_reserved":false,"is_disabled":false,"rental_uris":{"android":"levelo://app?vid=21aae6a4-f4d6-4400-a49c-eff515669e4a","ios":"levelo://app?vid=21aae6a4-f4d6-4400-a49c-eff515669e4a"},"vehicle_type_id":"4","last_reported":1722704820,"current_range_meters":11200,"station_id":"ce4bgt92rcd13ifvqcf0","pricing_plan_id":"cebpf4jnsgd1na2vs0mg"},{"bike_id":"e38d50b2-c3a1-4e6b-86b8-e3b5034f32fe","system_id":"levelo_inurba_marseille","lat":43.313571,"lon":5.384829,"is_reserved":false,"is_disabled":false,"rental_uris":{"android":"levelo://app?vid=e38d50b2-c3a1-4e6b-86b8-e3b5034f32fe","ios":"levelo://app?vid=e38d50b2-c3a1-4e6b-86b8-e3b5034f32fe"},"vehicle_type_id":"4","last_reported":1722704820,"current_range_meters":31200,"station_id":"ce4bgt92rcd13ifvqcf0","pricing_plan_id":"cebpf4jnsgd1na2vs0mg"},{"bike_id":"4be4c614-2424-4002-8a23-1e40fcd0ac2d","system_id":"levelo_inurba_marseille","lat":43.299724,"lon":5.371829,"is_reserved":false,"is_disabled":false,"rental_uris":{"android":"levelo://app?vid=4be4c614-2424-4002-8a23-1e40fcd0ac2d","ios":"levelo://app?vid=4be4c614-2424-4002-8a23-1e40fcd0ac2d"},"vehicle_type_id":"4","last_reported":1722704820,"current_range_meters":11200,"station_id":"ce4bgr92rcd13ifvqc7g","pricing_plan_id":"cebpf4jnsgd1na2vs0mg"},{"bike_id":"e6699d5e-25d2-4e5d-a442-c8c3a7060a99","system_id":"levelo_inurba_marseille","lat":43.29976,"lon":5.37173,"is_reserved":false,"is_disabled":false,"rental_uris":{"android":"levelo://app?vid=e6699d5e-25d2-4e5d-a442-c8c3a7060a99","ios":"levelo://app?vid=e6699d5e-25d2-4e5d-a442-c8c3a7060a99"},"vehicle_type_id":"4","last_reported":1722704820,"current_range_meters":0,"station_id":"ce4bgr92rcd13ifvqc7g","pricing_plan_id":"cebpf4jnsgd1na2vs0mg"},{"bike_id":"479410d9-777f-4d39-8e4b-d5e968f65291","system_id":"levelo_inurba_marseille","lat":43.299724,"lon":5.371829,"is_reserved":false,"is_disabled":false,"rental_uris":{"android":"levelo://app?vid=479410d9-777f-4d39-8e4b-d5e968f65291","ios":"levelo://app?vid=479410d9-777f-4d39-8e4b-d5e968f65291"},"vehicle_type_id":"4","last_reported":1722704820,"current_range_meters":21200,"station_id":"ce4bgr92rcd13ifvqc7g","pricing_plan_id":"cebpf4jnsgd1na2vs0mg"},{"bike_id":"4c306cd9-ac09-4afa-b2ea-321bc317bfed","system_id":"levelo_inurba_marseille","lat":43.319935,"lon":5.381699,"is_reserved":false,"is_disabled":false,"rental_uris":{"android":"levelo://app?vid=4c306cd9-ac09-4afa-b2ea-321bc317bfed","ios":"levelo://app?vid=4c306cd9-ac09-4afa-b2ea-321bc317bfed"},"vehicle_type_id":"4","last_reported":1722704820,"current_range_meters":25200,"station_id":"ce4bhr12rcd13ifvqhpg","pricing_plan_id":"cebpf4jnsgd1na2vs0mg"},{"bike_id":"e1c2a969-3dcd-4fe4-9a6e-cae00ee41b09","system_id":"levelo_inurba_marseille","lat":43.298433,"lon":5.362774,"is_reserved":false,"is_disabled":false,"rental_uris":{"android":"levelo://app?vid=e1c2a969-3dcd-4fe4-9a6e-cae00ee41b09","ios":"levelo://app?vid=e1c2a969-3dcd-4fe4-9a6e-cae00ee41b09"},"vehicle_type_id":"4","last_reported":1722704820,"current_range_meters":27200,"station_id":"ce4bgpp2rcd13ifvqc3g","pricing_plan_id":"cebpf4jnsgd1na2vs0mg"},{"bike_id":"96ec5798-8ab7-417f-9943-97bacd945df8","system_id":"levelo_inurba_marseille","lat":43.298433,"lon":5.362774,"is_reserved":false,"is_disabled":false,"rental_uris":{"android":"levelo://app?vid=96ec5798-8ab7-417f-9943-97bacd945df8","ios":"levelo://app?vid=96ec5798-8ab7-417f-9943-97bacd945df8"},"vehicle_type_id":"4","last_reported":1722704820,"current_range_meters":2000,"station_id":"ce4bgpp2rcd13ifvqc3g","pricing_plan_id":"cebpf4jnsgd1na2vs0mg"},{"bike_id":"0aedf6a9-9cbb-41b2-8399-6adec721cec6","system_id":"levelo_inurba_marseille","lat":43.298433,"lon":5.362774,"is_reserved":false,"is_disabled":false,"rental_uris":{"android":"levelo://app?vid=0aedf6a9-9cbb-41b2-8399-6adec721cec6","ios":"levelo://app?vid=0aedf6a9-9cbb-41b2-8399-6adec721cec6"},"vehicle_type_id":"4","last_reported":1722704820,"current_range_meters":14400,"station_id":"ce4bgpp2rcd13ifvqc3g","pricing_plan_id":"cebpf4jnsgd1na2vs0mg"},{"bike_id":"0d5b9936-f476-4918-af72-4b4d3dcc5b11","system_id":"levelo_inurba_marseille","lat":43.298433,"lon":5.362774,"is_reserved":false,"is_disabled":false,"rental_uris":{"android":"levelo://app?vid=0d5b9936-f476-4918-af72-4b4d3dcc5b11","ios":"levelo://app?vid=0d5b9936-f476-4918-af72-4b4d3dcc5b11"},"vehicle_type_id":"4","last_reported":1722704820,"current_range_meters":0,"station_id":"ce4bgpp2rcd13ifvqc3g","pricing_plan_id":"cebpf4jnsgd1na2vs0mg"},{"bike_id":"cac5c10b-b5c8-4cd1-9b89-57594189f83e","system_id":"levelo_inurba_marseille","lat":43.322872,"lon":5.382756,"is_reserved":false,"is_disabled":false,"rental_uris":{"android":"levelo://app?vid=cac5c10b-b5c8-4cd1-9b89-57594189f83e","ios":"levelo://app?vid=cac5c10b-b5c8-4cd1-9b89-57594189f83e"},"vehicle_type_id":"4","last_reported":1722704820,"current_range_meters":30400,"station_id":"ce4bhr12rcd13ifvqhqg","pricing_plan_id":"cebpf4jnsgd1na2vs0mg"},{"bike_id":"d476767b-9437-40ac-b440-38cc2027482d","system_id":"levelo_inurba_marseille","lat":43.322872,"lon":5.382756,"is_reserved":false,"is_disabled":false,"rental_uris":{"android":"levelo://app?vid=d476767b-9437-40ac-b440-38cc2027482d","ios":"levelo://app?vid=d476767b-9437-40ac-b440-38cc2027482d"},"vehicle_type_id":"4","last_reported":1722704820,"current_range_meters":31200,"station_id":"ce4bhr12rcd13ifvqhqg","pricing_plan_id":"cebpf4jnsgd1na2vs0mg"},{"bike_id":"1c441c17-34e3-4a17-bb93-f8dd246c7c0c","system_id":"levelo_inurba_marseille","lat":43.32288,"lon":5.38266,"is_reserved":false,"is_disabled":false,"rental_uris":{"android":"levelo://app?vid=1c441c17-34e3-4a17-bb93-f8dd246c7c0c","ios":"levelo://app?vid=1c441c17-34e3-4a17-bb93-f8dd246c7c0c"},"vehicle_type_id":"4","last_reported":1722704820,"current_range_meters":31200,"station_id":"ce4bhr12rcd13ifvqhqg","pricing_plan_id":"cebpf4jnsgd1na2vs0mg"},{"bike_id":"e9adf5cb-5049-484b-9f97-25ddd8802bb1","system_id":"levelo_inurba_marseille","lat":43.322872,"lon":5.382756,"is_reserved":false,"is_disabled":false,"rental_uris":{"android":"levelo://app?vid=e9adf5cb-5049-484b-9f97-25ddd8802bb1","ios":"levelo://app?vid=e9adf5cb-5049-484b-9f97-25ddd8802bb1"},"vehicle_type_id":"4","last_reported":1722704820,"current_range_meters":28400,"station_id":"ce4bhr12rcd13ifvqhqg","pricing_plan_id":"cebpf4jnsgd1na2vs0mg"},{"bike_id":"694aa667-6a9c-4ba1-9f9f-636d49894d24","system_id":"levelo_inurba_marseille","lat":43.32286,"lon":5.38273,"is_reserved":false,"is_disabled":false,"rental_uris":{"android":"levelo://app?vid=694aa667-6a9c-4ba1-9f9f-636d49894d24","ios":"levelo://app?vid=694aa667-6a9c-4ba1-9f9f-636d49894d24"},"vehicle_type_id":"4","last_reported":1722704820,"current_range_meters":28800,"station_id":"ce4bhr12rcd13ifvqhqg","pricing_plan_id":"cebpf4jnsgd1na2vs0mg"},{"bike_id":"f4f01933-09ef-4c02-867a-082e621eba71","system_id":"levelo_inurba_marseille","lat":43.322872,"lon":5.382756,"is_reserved":false,"is_disabled":false,"rental_uris":{"android":"levelo://app?vid=f4f01933-09ef-4c02-867a-082e621eba71","ios":"levelo://app?vid=f4f01933-09ef-4c02-867a-082e621eba71"},"vehicle_type_id":"4","last_reported":1722704820,"current_range_meters":21600,"station_id":"ce4bhr12rcd13ifvqhqg","pricing_plan_id":"cebpf4jnsgd1na2vs0mg"},{"bike_id":"ca8a5bd0-77f7-42db-9849-8a963cccbc84","system_id":"levelo_inurba_marseille","lat":43.322872,"lon":5.382756,"is_reserved":false,"is_disabled":false,"rental_uris":{"android":"levelo://app?vid=ca8a5bd0-77f7-42db-9849-8a963cccbc84","ios":"levelo://app?vid=ca8a5bd0-77f7-42db-9849-8a963cccbc84"},"vehicle_type_id":"4","last_reported":1722704820,"current_range_meters":31600,"station_id":"ce4bhr12rcd13ifvqhqg","pricing_plan_id":"cebpf4jnsgd1na2vs0mg"},{"bike_id":"fa5848a1-28b9-4531-8af9-99f8ab463aa7","system_id":"levelo_inurba_marseille","lat":43.297163,"lon":5.365866,"is_reserved":false,"is_disabled":false,"rental_uris":{"android":"levelo://app?vid=fa5848a1-28b9-4531-8af9-99f8ab463aa7","ios":"levelo://app?vid=fa5848a1-28b9-4531-8af9-99f8ab463aa7"},"vehicle_type_id":"4","last_reported":1722704820,"current_range_meters":0,"station_id":"ce4bgn12rcd13ifvqbt0","pricing_plan_id":"cebpf4jnsgd1na2vs0mg"},{"bike_id":"c360bce1-7ae0-44d0-bde6-ac9f69c6bdc7","system_id":"levelo_inurba_marseille","lat":43.29685,"lon":5.37301,"is_reserved":false,"is_disabled":false,"rental_uris":{"android":"levelo://app?vid=c360bce1-7ae0-44d0-bde6-ac9f69c6bdc7","ios":"levelo://app?vid=c360bce1-7ae0-44d0-bde6-ac9f69c6bdc7"},"vehicle_type_id":"4","last_reported":1722704820,"current_range_meters":0,"station_id":"ce4bgk12rcd13ifvqbj0","pricing_plan_id":"cebpf4jnsgd1na2vs0mg"},{"bike_id":"2914a6ce-7a25-4971-bc58-7eb345d80670","system_id":"levelo_inurba_marseille","lat":43.32931,"lon":5.36596,"is_reserved":false,"is_disabled":false,"rental_uris":{"android":"levelo://app?vid=2914a6ce-7a25-4971-bc58-7eb345d80670","ios":"levelo://app?vid=2914a6ce-7a25-4971-bc58-7eb345d80670"},"vehicle_type_id":"4","last_reported":1722704820,"current_range_meters":27200,"station_id":"","pricing_plan_id":"cebpf4jnsgd1na2vs0mg"},{"bike_id":"abb9ce0a-6b4b-442c-a769-b1c08daa6106","system_id":"levelo_inurba_marseille","lat":43.316199,"lon":5.389296,"is_reserved":false,"is_disabled":false,"rental_uris":{"android":"levelo://app?vid=abb9ce0a-6b4b-442c-a769-b1c08daa6106","ios":"levelo://app?vid=abb9ce0a-6b4b-442c-a769-b1c08daa6106"},"vehicle_type_id":"4","last_reported":1722704820,"current_range_meters":6000,"station_id":"","pricing_plan_id":"cebpf4jnsgd1na2vs0mg"},{"bike_id":"6a4ffd0b-f444-4464-aacf-697e76dab8b9","system_id":"levelo_inurba_marseille","lat":43.296129,"lon":5.370777,"is_reserved":false,"is_disabled":false,"rental_uris":{"android":"levelo://app?vid=6a4ffd0b-f444-4464-aacf-697e76dab8b9","ios":"levelo://app?vid=6a4ffd0b-f444-4464-aacf-697e76dab8b9"},"vehicle_type_id":"4","last_reported":1722704820,"current_range_meters":0,"station_id":"ce4bgnh2rcd13ifvqc0g","pricing_plan_id":"cebpf4jnsgd1na2vs0mg"},{"bike_id":"95fa3fb5-d6bc-4532-adfd-e27c97cf572e","system_id":"levelo_inurba_marseille","lat":43.299028,"lon":5.381509,"is_reserved":false,"is_disabled":false,"rental_uris":{"android":"levelo://app?vid=95fa3fb5-d6bc-4532-adfd-e27c97cf572e","ios":"levelo://app?vid=95fa3fb5-d6bc-4532-adfd-e27c97cf572e"},"vehicle_type_id":"4","last_reported":1722704820,"current_range_meters":2000,"station_id":"ce4bgj12rcd13ifvqbc0","pricing_plan_id":"cebpf4jnsgd1na2vs0mg"},{"bike_id":"aa972351-668f-4507-91ed-9cc07574202d","system_id":"levelo_inurba_marseille","lat":43.30932,"lon":5.39026,"is_reserved":false,"is_disabled":false,"rental_uris":{"android":"levelo://app?vid=aa972351-668f-4507-91ed-9cc07574202d","ios":"levelo://app?vid=aa972351-668f-4507-91ed-9cc07574202d"},"vehicle_type_id":"4","last_reported":1722704820,"current_range_meters":26000,"station_id":"ce4bgup2rcd13ifvqco0","pricing_plan_id":"cebpf4jnsgd1na2vs0mg"},{"bike_id":"065d2175-c8cd-4b28-bd20-7562eff90411","system_id":"levelo_inurba_marseille","lat":43.298037,"lon":5.381066,"is_reserved":false,"is_disabled":false,"rental_uris":{"android":"levelo://app?vid=065d2175-c8cd-4b28-bd20-7562eff90411","ios":"levelo://app?vid=065d2175-c8cd-4b28-bd20-7562eff90411"},"vehicle_type_id":"4","last_reported":1722704820,"current_range_meters":20400,"station_id":"ce4bgip2rcd13ifvqbb0","pricing_plan_id":"cebpf4jnsgd1na2vs0mg"},{"bike_id":"d1a48dad-30d0-4d80-a655-e57dcb905d05","system_id":"levelo_inurba_marseille","lat":43.29793,"lon":5.38093,"is_reserved":false,"is_disabled":false,"rental_uris":{"android":"levelo://app?vid=d1a48dad-30d0-4d80-a655-e57dcb905d05","ios":"levelo://app?vid=d1a48dad-30d0-4d80-a655-e57dcb905d05"},"vehicle_type_id":"4","last_reported":1722704820,"current_range_meters":3200,"station_id":"ce4bgip2rcd13ifvqbb0","pricing_plan_id":"cebpf4jnsgd1na2vs0mg"},{"bike_id":"cdd64c01-6a08-42bd-b568-d94af903424d","system_id":"levelo_inurba_marseille","lat":43.298037,"lon":5.381066,"is_reserved":false,"is_disabled":false,"rental_uris":{"android":"levelo://app?vid=cdd64c01-6a08-42bd-b568-d94af903424d","ios":"levelo://app?vid=cdd64c01-6a08-42bd-b568-d94af903424d"},"vehicle_type_id":"4","last_reported":1722704820,"current_range_meters":24800,"station_id":"ce4bgip2rcd13ifvqbb0","pricing_plan_id":"cebpf4jnsgd1na2vs0mg"},{"bike_id":"62c6af85-60ce-4b24-bbc8-8a2292a4a2c0","system_id":"levelo_inurba_marseille","lat":43.295748,"lon":5.37522,"is_reserved":false,"is_disabled":false,"rental_uris":{"android":"levelo://app?vid=62c6af85-60ce-4b24-bbc8-8a2292a4a2c0","ios":"levelo://app?vid=62c6af85-60ce-4b24-bbc8-8a2292a4a2c0"},"vehicle_type_id":"4","last_reported":1722704820,"current_range_meters":0,"station_id":"ce4bgh92rcd13ifvqb50","pricing_plan_id":"cebpf4jnsgd1na2vs0mg"},{"bike_id":"6678a671-50e2-4670-8f7e-85c58cf60dc9","system_id":"levelo_inurba_marseille","lat":43.29559,"lon":5.37524,"is_reserved":false,"is_disabled":false,"rental_uris":{"android":"levelo://app?vid=6678a671-50e2-4670-8f7e-85c58cf60dc9","ios":"levelo://app?vid=6678a671-50e2-4670-8f7e-85c58cf60dc9"},"vehicle_type_id":"4","last_reported":1722704820,"current_range_meters":29200,"station_id":"ce4bgh92rcd13ifvqb50","pricing_plan_id":"cebpf4jnsgd1na2vs0mg"},{"bike_id":"e7877b22-e9dc-44b9-9ece-5cafef7eed42","system_id":"levelo_inurba_marseille","lat":43.295279,"lon":5.375048,"is_reserved":false,"is_disabled":false,"rental_uris":{"android":"levelo://app?vid=e7877b22-e9dc-44b9-9ece-5cafef7eed42","ios":"levelo://app?vid=e7877b22-e9dc-44b9-9ece-5cafef7eed42"},"vehicle_type_id":"4","last_reported":1722704820,"current_range_meters":0,"station_id":"ce4bgkp2rcd13ifvqbmg","pricing_plan_id":"cebpf4jnsgd1na2vs0mg"},{"bike_id":"00d46d32-054c-42cb-b4a3-27b0da08a934","system_id":"levelo_inurba_marseille","lat":43.324746,"lon":5.386144,"is_reserved":false,"is_disabled":false,"rental_uris":{"android":"levelo://app?vid=00d46d32-054c-42cb-b4a3-27b0da08a934","ios":"levelo://app?vid=00d46d32-054c-42cb-b4a3-27b0da08a934"},"vehicle_type_id":"4","last_reported":1722704820,"current_range_meters":7200,"station_id":"","pricing_plan_id":"cebpf4jnsgd1na2vs0mg"},{"bike_id":"2da8753e-851a-44bd-b56e-025d2ec86e44","system_id":"levelo_inurba_marseille","lat":43.299724,"lon":5.384848,"is_reserved":false,"is_disabled":false,"rental_uris":{"android":"levelo://app?vid=2da8753e-851a-44bd-b56e-025d2ec86e44","ios":"levelo://app?vid=2da8753e-851a-44bd-b56e-025d2ec86e44"},"vehicle_type_id":"4","last_reported":1722704820,"current_range_meters":31200,"station_id":"ce4bgj92rcd13ifvqbd0","pricing_plan_id":"cebpf4jnsgd1na2vs0mg"},{"bike_id":"a2a90152-b5a4-43fb-be75-5ce111ae0db2","system_id":"levelo_inurba_marseille","lat":43.29974,"lon":5.38492,"is_reserved":false,"is_disabled":false,"rental_uris":{"android":"levelo://app?vid=a2a90152-b5a4-43fb-be75-5ce111ae0db2","ios":"levelo://app?vid=a2a90152-b5a4-43fb-be75-5ce111ae0db2"},"vehicle_type_id":"4","last_reported":1722704820,"current_range_meters":31200,"station_id":"ce4bgj92rcd13ifvqbd0","pricing_plan_id":"cebpf4jnsgd1na2vs0mg"},{"bike_id":"a281f8d5-3b2c-4783-9977-68edc39d7c57","system_id":"levelo_inurba_marseille","lat":43.295279,"lon":5.375048,"is_reserved":false,"is_disabled":false,"rental_uris":{"android":"levelo://app?vid=a281f8d5-3b2c-4783-9977-68edc39d7c57","ios":"levelo://app?vid=a281f8d5-3b2c-4783-9977-68edc39d7c57"},"vehicle_type_id":"4","last_reported":1722704820,"current_range_meters":0,"station_id":"ce4bgkp2rcd13ifvqbmg","pricing_plan_id":"cebpf4jnsgd1na2vs0mg"},{"bike_id":"d15dccc5-fd78-48e7-9788-4e152bd311a1","system_id":"levelo_inurba_marseille","lat":43.29519,"lon":5.37485,"is_reserved":false,"is_disabled":false,"rental_uris":{"android":"levelo://app?vid=d15dccc5-fd78-48e7-9788-4e152bd311a1","ios":"levelo://app?vid=d15dccc5-fd78-48e7-9788-4e152bd311a1"},"vehicle_type_id":"4","last_reported":1722704820,"current_range_meters":5600,"station_id":"","pricing_plan_id":"cebpf4jnsgd1na2vs0mg"},{"bike_id":"9df82919-328f-46b6-a35b-93cb486c78e4","system_id":"levelo_inurba_marseille","lat":43.29971,"lon":5.38501,"is_reserved":false,"is_disabled":false,"rental_uris":{"android":"levelo://app?vid=9df82919-328f-46b6-a35b-93cb486c78e4","ios":"levelo://app?vid=9df82919-328f-46b6-a35b-93cb486c78e4"},"vehicle_type_id":"4","last_reported":1722704820,"current_range_meters":31200,"station_id":"ce4bgj92rcd13ifvqbd0","pricing_plan_id":"cebpf4jnsgd1na2vs0mg"},{"bike_id":"9cd5fa90-dc35-452e-8306-f0fb79fe1dac","system_id":"levelo_inurba_marseille","lat":43.301396,"lon":5.387812,"is_reserved":false,"is_disabled":false,"rental_uris":{"android":"levelo://app?vid=9cd5fa90-dc35-452e-8306-f0fb79fe1dac","ios":"levelo://app?vid=9cd5fa90-dc35-452e-8306-f0fb79fe1dac"},"vehicle_type_id":"4","last_reported":1722704820,"current_range_meters":0,"station_id":"ce4bghh2rcd13ifvqb60","pricing_plan_id":"cebpf4jnsgd1na2vs0mg"},{"bike_id":"baf8e122-a9d6-4c51-890d-d243c62fc5f8","system_id":"levelo_inurba_marseille","lat":43.32367,"lon":5.388836,"is_reserved":false,"is_disabled":false,"rental_uris":{"android":"levelo://app?vid=baf8e122-a9d6-4c51-890d-d243c62fc5f8","ios":"levelo://app?vid=baf8e122-a9d6-4c51-890d-d243c62fc5f8"},"vehicle_type_id":"4","last_reported":1722704820,"current_range_meters":5600,"station_id":"ce4bhqp2rcd13ifvqhog","pricing_plan_id":"cebpf4jnsgd1na2vs0mg"},{"bike_id":"875ce27d-28a5-49d4-a5b5-90d5ff838f61","system_id":"levelo_inurba_marseille","lat":43.32367,"lon":5.388836,"is_reserved":false,"is_disabled":false,"rental_uris":{"android":"levelo://app?vid=875ce27d-28a5-49d4-a5b5-90d5ff838f61","ios":"levelo://app?vid=875ce27d-28a5-49d4-a5b5-90d5ff838f61"},"vehicle_type_id":"4","last_reported":1722704820,"current_range_meters":28400,"station_id":"ce4bhqp2rcd13ifvqhog","pricing_plan_id":"cebpf4jnsgd1na2vs0mg"},{"bike_id":"73189b23-e502-40e6-a497-88a5355a0d2b","system_id":"levelo_inurba_marseille","lat":43.32367,"lon":5.388836,"is_reserved":false,"is_disabled":false,"rental_uris":{"android":"levelo://app?vid=73189b23-e502-40e6-a497-88a5355a0d2b","ios":"levelo://app?vid=73189b23-e502-40e6-a497-88a5355a0d2b"},"vehicle_type_id":"4","last_reported":1722704820,"current_range_meters":9200,"station_id":"ce4bhqp2rcd13ifvqhog","pricing_plan_id":"cebpf4jnsgd1na2vs0mg"},{"bike_id":"0008f7e2-f4dc-4637-b9b7-4cf15101eee2","system_id":"levelo_inurba_marseille","lat":43.32367,"lon":5.388836,"is_reserved":false,"is_disabled":false,"rental_uris":{"android":"levelo://app?vid=0008f7e2-f4dc-4637-b9b7-4cf15101eee2","ios":"levelo://app?vid=0008f7e2-f4dc-4637-b9b7-4cf15101eee2"},"vehicle_type_id":"4","last_reported":1722704820,"current_range_meters":10000,"station_id":"ce4bhqp2rcd13ifvqhog","pricing_plan_id":"cebpf4jnsgd1na2vs0mg"},{"bike_id":"21106823-58b2-4f90-a112-112b6c766bf7","system_id":"levelo_inurba_marseille","lat":43.32367,"lon":5.388836,"is_reserved":false,"is_disabled":false,"rental_uris":{"android":"levelo://app?vid=21106823-58b2-4f90-a112-112b6c766bf7","ios":"levelo://app?vid=21106823-58b2-4f90-a112-112b6c766bf7"},"vehicle_type_id":"4","last_reported":1722704820,"current_range_meters":11600,"station_id":"ce4bhqp2rcd13ifvqhog","pricing_plan_id":"cebpf4jnsgd1na2vs0mg"},{"bike_id":"bb47cc1b-7054-4e4a-b854-285943475b03","system_id":"levelo_inurba_marseille","lat":43.32367,"lon":5.388836,"is_reserved":false,"is_disabled":false,"rental_uris":{"android":"levelo://app?vid=bb47cc1b-7054-4e4a-b854-285943475b03","ios":"levelo://app?vid=bb47cc1b-7054-4e4a-b854-285943475b03"},"vehicle_type_id":"4","last_reported":1722704820,"current_range_meters":16800,"station_id":"ce4bhqp2rcd13ifvqhog","pricing_plan_id":"cebpf4jnsgd1na2vs0mg"},{"bike_id":"095f964b-1d70-4395-8a7c-220b79aedcbb","system_id":"levelo_inurba_marseille","lat":43.29602,"lon":5.381084,"is_reserved":false,"is_disabled":false,"rental_uris":{"android":"levelo://app?vid=095f964b-1d70-4395-8a7c-220b79aedcbb","ios":"levelo://app?vid=095f964b-1d70-4395-8a7c-220b79aedcbb"},"vehicle_type_id":"4","last_reported":1722704820,"current_range_meters":31200,"station_id":"ce4bgl12rcd13ifvqbo0","pricing_plan_id":"cebpf4jnsgd1na2vs0mg"},{"bike_id":"f69fb9ca-6ad9-4527-a130-11661090e941","system_id":"levelo_inurba_marseille","lat":43.293009,"lon":5.374584,"is_reserved":false,"is_disabled":false,"rental_uris":{"android":"levelo://app?vid=f69fb9ca-6ad9-4527-a130-11661090e941","ios":"levelo://app?vid=f69fb9ca-6ad9-4527-a130-11661090e941"},"vehicle_type_id":"4","last_reported":1722704820,"current_range_meters":16000,"station_id":"ce4bgi12rcd13ifvqb70","pricing_plan_id":"cebpf4jnsgd1na2vs0mg"},{"bike_id":"9e6ae840-261a-46ef-9324-fef08ee77461","system_id":"levelo_inurba_marseille","lat":43.29602,"lon":5.381084,"is_reserved":false,"is_disabled":false,"rental_uris":{"android":"levelo://app?vid=9e6ae840-261a-46ef-9324-fef08ee77461","ios":"levelo://app?vid=9e6ae840-261a-46ef-9324-fef08ee77461"},"vehicle_type_id":"4","last_reported":1722704820,"current_range_meters":31600,"station_id":"ce4bgl12rcd13ifvqbo0","pricing_plan_id":"cebpf4jnsgd1na2vs0mg"},{"bike_id":"31d83edd-00a9-4ee3-8b64-7eaf625bb263","system_id":"levelo_inurba_marseille","lat":43.29593,"lon":5.38107,"is_reserved":false,"is_disabled":false,"rental_uris":{"android":"levelo://app?vid=31d83edd-00a9-4ee3-8b64-7eaf625bb263","ios":"levelo://app?vid=31d83edd-00a9-4ee3-8b64-7eaf625bb263"},"vehicle_type_id":"4","last_reported":1722704820,"current_range_meters":31200,"station_id":"ce4bgl12rcd13ifvqbo0","pricing_plan_id":"cebpf4jnsgd1na2vs0mg"},{"bike_id":"9cec724c-6fb1-4cb1-af65-e8f9fc0d2bb6","system_id":"levelo_inurba_marseille","lat":43.293259,"lon":5.371586,"is_reserved":false,"is_disabled":false,"rental_uris":{"android":"levelo://app?vid=9cec724c-6fb1-4cb1-af65-e8f9fc0d2bb6","ios":"levelo://app?vid=9cec724c-6fb1-4cb1-af65-e8f9fc0d2bb6"},"vehicle_type_id":"4","last_reported":1722704820,"current_range_meters":0,"station_id":"ce4bgh92rcd13ifvqb40","pricing_plan_id":"cebpf4jnsgd1na2vs0mg"},{"bike_id":"65d37a58-b0bf-4730-a803-78fc8ad937b6","system_id":"levelo_inurba_marseille","lat":43.293259,"lon":5.371586,"is_reserved":false,"is_disabled":false,"rental_uris":{"android":"levelo://app?vid=65d37a58-b0bf-4730-a803-78fc8ad937b6","ios":"levelo://app?vid=65d37a58-b0bf-4730-a803-78fc8ad937b6"},"vehicle_type_id":"4","last_reported":1722704820,"current_range_meters":7600,"station_id":"ce4bgh92rcd13ifvqb40","pricing_plan_id":"cebpf4jnsgd1na2vs0mg"},{"bike_id":"a4c8bac4-b3ea-43a5-850d-2bad8de90649","system_id":"levelo_inurba_marseille","lat":43.292749,"lon":5.368402,"is_reserved":false,"is_disabled":false,"rental_uris":{"android":"levelo://app?vid=a4c8bac4-b3ea-43a5-850d-2bad8de90649","ios":"levelo://app?vid=a4c8bac4-b3ea-43a5-850d-2bad8de90649"},"vehicle_type_id":"4","last_reported":1722704820,"current_range_meters":0,"station_id":"ce4bhbp2rcd13ifvqesg","pricing_plan_id":"cebpf4jnsgd1na2vs0mg"},{"bike_id":"d7f29b1c-6c61-4e6b-b941-59c3c687b8cf","system_id":"levelo_inurba_marseille","lat":43.29283,"lon":5.36366,"is_reserved":false,"is_disabled":false,"rental_uris":{"android":"levelo://app?vid=d7f29b1c-6c61-4e6b-b941-59c3c687b8cf","ios":"levelo://app?vid=d7f29b1c-6c61-4e6b-b941-59c3c687b8cf"},"vehicle_type_id":"4","last_reported":1722704820,"current_range_meters":0,"station_id":"","pricing_plan_id":"cebpf4jnsgd1na2vs0mg"},{"bike_id":"9827057b-522a-480e-af77-8b08ad257f43","system_id":"levelo_inurba_marseille","lat":43.29303,"lon":5.3746,"is_reserved":false,"is_disabled":false,"rental_uris":{"android":"levelo://app?vid=9827057b-522a-480e-af77-8b08ad257f43","ios":"levelo://app?vid=9827057b-522a-480e-af77-8b08ad257f43"},"vehicle_type_id":"4","last_reported":1722704820,"current_range_meters":0,"station_id":"ce4bgi12rcd13ifvqb70","pricing_plan_id":"cebpf4jnsgd1na2vs0mg"},{"bike_id":"d7450310-988c-40bd-a20c-7653dfb57de1","system_id":"levelo_inurba_marseille","lat":43.29297,"lon":5.37461,"is_reserved":false,"is_disabled":false,"rental_uris":{"android":"levelo://app?vid=d7450310-988c-40bd-a20c-7653dfb57de1","ios":"levelo://app?vid=d7450310-988c-40bd-a20c-7653dfb57de1"},"vehicle_type_id":"4","last_reported":1722704820,"current_range_meters":8400,"station_id":"ce4bgi12rcd13ifvqb70","pricing_plan_id":"cebpf4jnsgd1na2vs0mg"},{"bike_id":"baaa5d15-14c2-4267-b774-151b06696204","system_id":"levelo_inurba_marseille","lat":43.303002,"lon":5.392142,"is_reserved":false,"is_disabled":false,"rental_uris":{"android":"levelo://app?vid=baaa5d15-14c2-4267-b774-151b06696204","ios":"levelo://app?vid=baaa5d15-14c2-4267-b774-151b06696204"},"vehicle_type_id":"4","last_reported":1722704820,"current_range_meters":4400,"station_id":"ce4bgkh2rcd13ifvqbk0","pricing_plan_id":"cebpf4jnsgd1na2vs0mg"},{"bike_id":"00abfd02-5a0d-49c5-a340-c68c1657f75f","system_id":"levelo_inurba_marseille","lat":43.2936,"lon":5.37835,"is_reserved":false,"is_disabled":false,"rental_uris":{"android":"levelo://app?vid=00abfd02-5a0d-49c5-a340-c68c1657f75f","ios":"levelo://app?vid=00abfd02-5a0d-49c5-a340-c68c1657f75f"},"vehicle_type_id":"4","last_reported":1722704820,"current_range_meters":0,"station_id":"ce4bgjh2rcd13ifvqbf0","pricing_plan_id":"cebpf4jnsgd1na2vs0mg"},{"bike_id":"2ff67b6d-e7cf-4404-b510-77365d9ef57d","system_id":"levelo_inurba_marseille","lat":43.292311,"lon":5.360731,"is_reserved":false,"is_disabled":false,"rental_uris":{"android":"levelo://app?vid=2ff67b6d-e7cf-4404-b510-77365d9ef57d","ios":"levelo://app?vid=2ff67b6d-e7cf-4404-b510-77365d9ef57d"},"vehicle_type_id":"4","last_reported":1722704820,"current_range_meters":4400,"station_id":"ce4bhbh2rcd13ifvqeqg","pricing_plan_id":"cebpf4jnsgd1na2vs0mg"},{"bike_id":"6a55b08b-1647-4bfe-a55d-5821e5735cab","system_id":"levelo_inurba_marseille","lat":43.29223,"lon":5.36068,"is_reserved":false,"is_disabled":false,"rental_uris":{"android":"levelo://app?vid=6a55b08b-1647-4bfe-a55d-5821e5735cab","ios":"levelo://app?vid=6a55b08b-1647-4bfe-a55d-5821e5735cab"},"vehicle_type_id":"4","last_reported":1722704820,"current_range_meters":0,"station_id":"ce4bhbh2rcd13ifvqeqg","pricing_plan_id":"cebpf4jnsgd1na2vs0mg"},{"bike_id":"99af5861-7006-43d7-a517-552147f4025f","system_id":"levelo_inurba_marseille","lat":43.292311,"lon":5.360731,"is_reserved":false,"is_disabled":false,"rental_uris":{"android":"levelo://app?vid=99af5861-7006-43d7-a517-552147f4025f","ios":"levelo://app?vid=99af5861-7006-43d7-a517-552147f4025f"},"vehicle_type_id":"4","last_reported":1722704820,"current_range_meters":18800,"station_id":"ce4bhbh2rcd13ifvqeqg","pricing_plan_id":"cebpf4jnsgd1na2vs0mg"},{"bike_id":"d6b1a6bc-3368-4ec4-b8e4-07003c448fd8","system_id":"levelo_inurba_marseille","lat":43.2922,"lon":5.36062,"is_reserved":false,"is_disabled":false,"rental_uris":{"android":"levelo://app?vid=d6b1a6bc-3368-4ec4-b8e4-07003c448fd8","ios":"levelo://app?vid=d6b1a6bc-3368-4ec4-b8e4-07003c448fd8"},"vehicle_type_id":"4","last_reported":1722704820,"current_range_meters":18400,"station_id":"ce4bhbh2rcd13ifvqeqg","pricing_plan_id":"cebpf4jnsgd1na2vs0mg"},{"bike_id":"97d3106d-2fab-466c-8c8b-67c410da3669","system_id":"levelo_inurba_marseille","lat":43.29889,"lon":5.38896,"is_reserved":false,"is_disabled":false,"rental_uris":{"android":"levelo://app?vid=97d3106d-2fab-466c-8c8b-67c410da3669","ios":"levelo://app?vid=97d3106d-2fab-466c-8c8b-67c410da3669"},"vehicle_type_id":"4","last_reported":1722704820,"current_range_meters":10000,"station_id":"ce4bh392rcd13ifvqdl0","pricing_plan_id":"cebpf4jnsgd1na2vs0mg"},{"bike_id":"cff31233-26e2-44f0-b7f8-e30a85c89fc4","system_id":"levelo_inurba_marseille","lat":43.29895,"lon":5.38904,"is_reserved":false,"is_disabled":false,"rental_uris":{"android":"levelo://app?vid=cff31233-26e2-44f0-b7f8-e30a85c89fc4","ios":"levelo://app?vid=cff31233-26e2-44f0-b7f8-e30a85c89fc4"},"vehicle_type_id":"4","last_reported":1722704820,"current_range_meters":0,"station_id":"ce4bh392rcd13ifvqdl0","pricing_plan_id":"cebpf4jnsgd1na2vs0mg"},{"bike_id":"a76f76a2-bdef-4c54-90f6-c04a0cf3c1fb","system_id":"levelo_inurba_marseille","lat":43.291671,"lon":5.371575,"is_reserved":false,"is_disabled":false,"rental_uris":{"android":"levelo://app?vid=a76f76a2-bdef-4c54-90f6-c04a0cf3c1fb","ios":"levelo://app?vid=a76f76a2-bdef-4c54-90f6-c04a0cf3c1fb"},"vehicle_type_id":"4","last_reported":1722704820,"current_range_meters":800,"station_id":"ce4bha92rcd13ifvqeh0","pricing_plan_id":"cebpf4jnsgd1na2vs0mg"},{"bike_id":"0545b0f0-7a80-4060-bf97-1cf2380f27fa","system_id":"levelo_inurba_marseille","lat":43.29529,"lon":5.385581,"is_reserved":false,"is_disabled":false,"rental_uris":{"android":"levelo://app?vid=0545b0f0-7a80-4060-bf97-1cf2380f27fa","ios":"levelo://app?vid=0545b0f0-7a80-4060-bf97-1cf2380f27fa"},"vehicle_type_id":"4","last_reported":1722704820,"current_range_meters":2800,"station_id":"ce4bgih2rcd13ifvqba0","pricing_plan_id":"cebpf4jnsgd1na2vs0mg"},{"bike_id":"4fcb86a7-3ee9-48cf-b028-bb5eb2e0fd76","system_id":"levelo_inurba_marseille","lat":43.2919,"lon":5.35814,"is_reserved":false,"is_disabled":false,"rental_uris":{"android":"levelo://app?vid=4fcb86a7-3ee9-48cf-b028-bb5eb2e0fd76","ios":"levelo://app?vid=4fcb86a7-3ee9-48cf-b028-bb5eb2e0fd76"},"vehicle_type_id":"4","last_reported":1722704820,"current_range_meters":0,"station_id":"ce4bhb12rcd13ifvqel0","pricing_plan_id":"cebpf4jnsgd1na2vs0mg"},{"bike_id":"e6a6b78e-9112-4703-bf98-02213589a869","system_id":"levelo_inurba_marseille","lat":43.309038,"lon":5.396546,"is_reserved":false,"is_disabled":false,"rental_uris":{"android":"levelo://app?vid=e6a6b78e-9112-4703-bf98-02213589a869","ios":"levelo://app?vid=e6a6b78e-9112-4703-bf98-02213589a869"},"vehicle_type_id":"4","last_reported":1722704820,"current_range_meters":10000,"station_id":"ce4bh012rcd13ifvqcv0","pricing_plan_id":"cebpf4jnsgd1na2vs0mg"},{"bike_id":"ba07c8a2-c389-4e16-81e8-62098e7e1315","system_id":"levelo_inurba_marseille","lat":43.29529,"lon":5.385581,"is_reserved":false,"is_disabled":false,"rental_uris":{"android":"levelo://app?vid=ba07c8a2-c389-4e16-81e8-62098e7e1315","ios":"levelo://app?vid=ba07c8a2-c389-4e16-81e8-62098e7e1315"},"vehicle_type_id":"4","last_reported":1722704820,"current_range_meters":20400,"station_id":"ce4bgih2rcd13ifvqba0","pricing_plan_id":"cebpf4jnsgd1na2vs0mg"},{"bike_id":"e6e66748-d910-4dd3-ba68-e17c45e42071","system_id":"levelo_inurba_marseille","lat":43.29529,"lon":5.385581,"is_reserved":false,"is_disabled":false,"rental_uris":{"android":"levelo://app?vid=e6e66748-d910-4dd3-ba68-e17c45e42071","ios":"levelo://app?vid=e6e66748-d910-4dd3-ba68-e17c45e42071"},"vehicle_type_id":"4","last_reported":1722704820,"current_range_meters":31200,"station_id":"ce4bgih2rcd13ifvqba0","pricing_plan_id":"cebpf4jnsgd1na2vs0mg"},{"bike_id":"7035208a-e51c-466d-b6ec-4a07f715331f","system_id":"levelo_inurba_marseille","lat":43.29529,"lon":5.385581,"is_reserved":false,"is_disabled":false,"rental_uris":{"android":"levelo://app?vid=7035208a-e51c-466d-b6ec-4a07f715331f","ios":"levelo://app?vid=7035208a-e51c-466d-b6ec-4a07f715331f"},"vehicle_type_id":"4","last_reported":1722704820,"current_range_meters":0,"station_id":"ce4bgih2rcd13ifvqba0","pricing_plan_id":"cebpf4jnsgd1na2vs0mg"},{"bike_id":"845f9276-cc09-4319-b76a-512bfa3cb806","system_id":"levelo_inurba_marseille","lat":43.29529,"lon":5.385581,"is_reserved":false,"is_disabled":false,"rental_uris":{"android":"levelo://app?vid=845f9276-cc09-4319-b76a-512bfa3cb806","ios":"levelo://app?vid=845f9276-cc09-4319-b76a-512bfa3cb806"},"vehicle_type_id":"4","last_reported":1722704820,"current_range_meters":31600,"station_id":"ce4bgih2rcd13ifvqba0","pricing_plan_id":"cebpf4jnsgd1na2vs0mg"},{"bike_id":"b4cc4745-4951-414d-a98f-16187d82eb56","system_id":"levelo_inurba_marseille","lat":43.29529,"lon":5.385581,"is_reserved":false,"is_disabled":false,"rental_uris":{"android":"levelo://app?vid=b4cc4745-4951-414d-a98f-16187d82eb56","ios":"levelo://app?vid=b4cc4745-4951-414d-a98f-16187d82eb56"},"vehicle_type_id":"4","last_reported":1722704820,"current_range_meters":14800,"station_id":"ce4bgih2rcd13ifvqba0","pricing_plan_id":"cebpf4jnsgd1na2vs0mg"},{"bike_id":"ba5b5a6b-c276-4971-8e61-8c2b6cf13229","system_id":"levelo_inurba_marseille","lat":43.290779,"lon":5.371482,"is_reserved":false,"is_disabled":false,"rental_uris":{"android":"levelo://app?vid=ba5b5a6b-c276-4971-8e61-8c2b6cf13229","ios":"levelo://app?vid=ba5b5a6b-c276-4971-8e61-8c2b6cf13229"},"vehicle_type_id":"4","last_reported":1722704820,"current_range_meters":11200,"station_id":"ce4bh5p2rcd13ifvqe4g","pricing_plan_id":"cebpf4jnsgd1na2vs0mg"},{"bike_id":"e416aa45-75c2-498b-9eab-ae7c9b4a45c3","system_id":"levelo_inurba_marseille","lat":43.2904,"lon":5.3701,"is_reserved":false,"is_disabled":false,"rental_uris":{"android":"levelo://app?vid=e416aa45-75c2-498b-9eab-ae7c9b4a45c3","ios":"levelo://app?vid=e416aa45-75c2-498b-9eab-ae7c9b4a45c3"},"vehicle_type_id":"4","last_reported":1722704820,"current_range_meters":31200,"station_id":"","pricing_plan_id":"cebpf4jnsgd1na2vs0mg"},{"bike_id":"d6823751-b1cf-4369-a0cd-58043a0ce2c2","system_id":"levelo_inurba_marseille","lat":43.323618,"lon":5.394019,"is_reserved":false,"is_disabled":false,"rental_uris":{"android":"levelo://app?vid=d6823751-b1cf-4369-a0cd-58043a0ce2c2","ios":"levelo://app?vid=d6823751-b1cf-4369-a0cd-58043a0ce2c2"},"vehicle_type_id":"4","last_reported":1722704820,"current_range_meters":25200,"station_id":"","pricing_plan_id":"cebpf4jnsgd1na2vs0mg"},{"bike_id":"d51f4977-db53-40b2-8180-90f13ccabe16","system_id":"levelo_inurba_marseille","lat":43.29029,"lon":5.370663,"is_reserved":false,"is_disabled":false,"rental_uris":{"android":"levelo://app?vid=d51f4977-db53-40b2-8180-90f13ccabe16","ios":"levelo://app?vid=d51f4977-db53-40b2-8180-90f13ccabe16"},"vehicle_type_id":"4","last_reported":1722704820,"current_range_meters":14400,"station_id":"ce4bh412rcd13ifvqds0","pricing_plan_id":"cebpf4jnsgd1na2vs0mg"},{"bike_id":"80c1e3fd-f4da-4b5e-9a71-b69ac8286666","system_id":"levelo_inurba_marseille","lat":43.290624,"lon":5.359245,"is_reserved":false,"is_disabled":false,"rental_uris":{"android":"levelo://app?vid=80c1e3fd-f4da-4b5e-9a71-b69ac8286666","ios":"levelo://app?vid=80c1e3fd-f4da-4b5e-9a71-b69ac8286666"},"vehicle_type_id":"4","last_reported":1722704820,"current_range_meters":27600,"station_id":"ce4bha92rcd13ifvqeg0","pricing_plan_id":"cebpf4jnsgd1na2vs0mg"},{"bike_id":"fb312359-13e2-42f5-bf4d-04f47a6df042","system_id":"levelo_inurba_marseille","lat":43.28996,"lon":5.37167,"is_reserved":false,"is_disabled":false,"rental_uris":{"android":"levelo://app?vid=fb312359-13e2-42f5-bf4d-04f47a6df042","ios":"levelo://app?vid=fb312359-13e2-42f5-bf4d-04f47a6df042"},"vehicle_type_id":"4","last_reported":1722704820,"current_range_meters":10400,"station_id":"","pricing_plan_id":"cebpf4jnsgd1na2vs0mg"},{"bike_id":"413697f0-b2d8-436f-9f23-06c1940d6a50","system_id":"levelo_inurba_marseille","lat":43.290631,"lon":5.359244,"is_reserved":false,"is_disabled":false,"rental_uris":{"android":"levelo://app?vid=413697f0-b2d8-436f-9f23-06c1940d6a50","ios":"levelo://app?vid=413697f0-b2d8-436f-9f23-06c1940d6a50"},"vehicle_type_id":"4","last_reported":1722704820,"current_range_meters":0,"station_id":"ce4bha92rcd13ifvqeg0","pricing_plan_id":"cebpf4jnsgd1na2vs0mg"},{"bike_id":"e173e088-41bf-48b7-8a54-efee926aee98","system_id":"levelo_inurba_marseille","lat":43.28952,"lon":5.36633,"is_reserved":false,"is_disabled":false,"rental_uris":{"android":"levelo://app?vid=e173e088-41bf-48b7-8a54-efee926aee98","ios":"levelo://app?vid=e173e088-41bf-48b7-8a54-efee926aee98"},"vehicle_type_id":"4","last_reported":1722704820,"current_range_meters":12000,"station_id":"ce4bhap2rcd13ifvqek0","pricing_plan_id":"cebpf4jnsgd1na2vs0mg"},{"bike_id":"d9d7a85d-7e82-4f2f-8b9f-c9a7b7193e5b","system_id":"levelo_inurba_marseille","lat":43.290327,"lon":5.375711,"is_reserved":false,"is_disabled":false,"rental_uris":{"android":"levelo://app?vid=d9d7a85d-7e82-4f2f-8b9f-c9a7b7193e5b","ios":"levelo://app?vid=d9d7a85d-7e82-4f2f-8b9f-c9a7b7193e5b"},"vehicle_type_id":"4","last_reported":1722704820,"current_range_meters":400,"station_id":"ce4bh692rcd13ifvqe90","pricing_plan_id":"cebpf4jnsgd1na2vs0mg"},{"bike_id":"1997e683-749f-4c99-bd42-a2a4ebbcdf32","system_id":"levelo_inurba_marseille","lat":43.290319,"lon":5.375732,"is_reserved":false,"is_disabled":false,"rental_uris":{"android":"levelo://app?vid=1997e683-749f-4c99-bd42-a2a4ebbcdf32","ios":"levelo://app?vid=1997e683-749f-4c99-bd42-a2a4ebbcdf32"},"vehicle_type_id":"4","last_reported":1722704820,"current_range_meters":17600,"station_id":"ce4bh692rcd13ifvqe90","pricing_plan_id":"cebpf4jnsgd1na2vs0mg"},{"bike_id":"8be44f75-59ca-4183-a8d7-729dc021f81f","system_id":"levelo_inurba_marseille","lat":43.294162,"lon":5.386292,"is_reserved":false,"is_disabled":false,"rental_uris":{"android":"levelo://app?vid=8be44f75-59ca-4183-a8d7-729dc021f81f","ios":"levelo://app?vid=8be44f75-59ca-4183-a8d7-729dc021f81f"},"vehicle_type_id":"4","last_reported":1722704820,"current_range_meters":6800,"station_id":"ce4bh2h2rcd13ifvqdh0","pricing_plan_id":"cebpf4jnsgd1na2vs0mg"},{"bike_id":"bbd7abe3-7d04-4b26-97f4-8a71ba2cf74f","system_id":"levelo_inurba_marseille","lat":43.289184,"lon":5.366408,"is_reserved":false,"is_disabled":false,"rental_uris":{"android":"levelo://app?vid=bbd7abe3-7d04-4b26-97f4-8a71ba2cf74f","ios":"levelo://app?vid=bbd7abe3-7d04-4b26-97f4-8a71ba2cf74f"},"vehicle_type_id":"4","last_reported":1722704820,"current_range_meters":31200,"station_id":"ce4bhap2rcd13ifvqek0","pricing_plan_id":"cebpf4jnsgd1na2vs0mg"},{"bike_id":"e82aa8f4-0a94-4240-a5f5-e9fbce45aa0d","system_id":"levelo_inurba_marseille","lat":43.290319,"lon":5.375732,"is_reserved":false,"is_disabled":false,"rental_uris":{"android":"levelo://app?vid=e82aa8f4-0a94-4240-a5f5-e9fbce45aa0d","ios":"levelo://app?vid=e82aa8f4-0a94-4240-a5f5-e9fbce45aa0d"},"vehicle_type_id":"4","last_reported":1722704820,"current_range_meters":31200,"station_id":"ce4bh692rcd13ifvqe90","pricing_plan_id":"cebpf4jnsgd1na2vs0mg"},{"bike_id":"bc95dbd7-5dfa-4b88-a068-2ef5bcd2b265","system_id":"levelo_inurba_marseille","lat":43.2903,"lon":5.37558,"is_reserved":false,"is_disabled":false,"rental_uris":{"android":"levelo://app?vid=bc95dbd7-5dfa-4b88-a068-2ef5bcd2b265","ios":"levelo://app?vid=bc95dbd7-5dfa-4b88-a068-2ef5bcd2b265"},"vehicle_type_id":"4","last_reported":1722704820,"current_range_meters":0,"station_id":"ce4bh692rcd13ifvqe90","pricing_plan_id":"cebpf4jnsgd1na2vs0mg"},{"bike_id":"236e289d-1d0b-43f1-82dd-deb3847b2c1f","system_id":"levelo_inurba_marseille","lat":43.289184,"lon":5.366408,"is_reserved":false,"is_disabled":false,"rental_uris":{"android":"levelo://app?vid=236e289d-1d0b-43f1-82dd-deb3847b2c1f","ios":"levelo://app?vid=236e289d-1d0b-43f1-82dd-deb3847b2c1f"},"vehicle_type_id":"4","last_reported":1722704820,"current_range_meters":27600,"station_id":"ce4bhap2rcd13ifvqek0","pricing_plan_id":"cebpf4jnsgd1na2vs0mg"},{"bike_id":"6ea74c3f-6e77-4a29-b0a1-2be230638998","system_id":"levelo_inurba_marseille","lat":43.289403,"lon":5.366465,"is_reserved":false,"is_disabled":false,"rental_uris":{"android":"levelo://app?vid=6ea74c3f-6e77-4a29-b0a1-2be230638998","ios":"levelo://app?vid=6ea74c3f-6e77-4a29-b0a1-2be230638998"},"vehicle_type_id":"4","last_reported":1722704820,"current_range_meters":11200,"station_id":"ce4bhap2rcd13ifvqek0","pricing_plan_id":"cebpf4jnsgd1na2vs0mg"},{"bike_id":"48ad3e2f-c7ad-49ac-883d-1c6733c260a2","system_id":"levelo_inurba_marseille","lat":43.289184,"lon":5.366408,"is_reserved":false,"is_disabled":false,"rental_uris":{"android":"levelo://app?vid=48ad3e2f-c7ad-49ac-883d-1c6733c260a2","ios":"levelo://app?vid=48ad3e2f-c7ad-49ac-883d-1c6733c260a2"},"vehicle_type_id":"4","last_reported":1722704820,"current_range_meters":14800,"station_id":"ce4bhap2rcd13ifvqek0","pricing_plan_id":"cebpf4jnsgd1na2vs0mg"},{"bike_id":"1621cdab-403b-4321-8915-e48a3bf1de7d","system_id":"levelo_inurba_marseille","lat":43.289184,"lon":5.366408,"is_reserved":false,"is_disabled":false,"rental_uris":{"android":"levelo://app?vid=1621cdab-403b-4321-8915-e48a3bf1de7d","ios":"levelo://app?vid=1621cdab-403b-4321-8915-e48a3bf1de7d"},"vehicle_type_id":"4","last_reported":1722704820,"current_range_meters":14000,"station_id":"ce4bhap2rcd13ifvqek0","pricing_plan_id":"cebpf4jnsgd1na2vs0mg"},{"bike_id":"ce9ff00e-d6b7-43d4-b843-ab70e450eecc","system_id":"levelo_inurba_marseille","lat":43.289184,"lon":5.366408,"is_reserved":false,"is_disabled":false,"rental_uris":{"android":"levelo://app?vid=ce9ff00e-d6b7-43d4-b843-ab70e450eecc","ios":"levelo://app?vid=ce9ff00e-d6b7-43d4-b843-ab70e450eecc"},"vehicle_type_id":"4","last_reported":1722704820,"current_range_meters":400,"station_id":"ce4bhap2rcd13ifvqek0","pricing_plan_id":"cebpf4jnsgd1na2vs0mg"},{"bike_id":"fd43be88-e8f1-4ac4-b69c-71bbc386c16a","system_id":"levelo_inurba_marseille","lat":43.289468,"lon":5.363719,"is_reserved":false,"is_disabled":false,"rental_uris":{"android":"levelo://app?vid=fd43be88-e8f1-4ac4-b69c-71bbc386c16a","ios":"levelo://app?vid=fd43be88-e8f1-4ac4-b69c-71bbc386c16a"},"vehicle_type_id":"4","last_reported":1722704820,"current_range_meters":11200,"station_id":"ce4bhc92rcd13ifvqetg","pricing_plan_id":"cebpf4jnsgd1na2vs0mg"},{"bike_id":"6a7cb3be-72bc-42d3-8470-b3f469afd797","system_id":"levelo_inurba_marseille","lat":43.289468,"lon":5.363719,"is_reserved":false,"is_disabled":false,"rental_uris":{"android":"levelo://app?vid=6a7cb3be-72bc-42d3-8470-b3f469afd797","ios":"levelo://app?vid=6a7cb3be-72bc-42d3-8470-b3f469afd797"},"vehicle_type_id":"4","last_reported":1722704820,"current_range_meters":2800,"station_id":"ce4bhc92rcd13ifvqetg","pricing_plan_id":"cebpf4jnsgd1na2vs0mg"},{"bike_id":"1b8761d7-44d7-4a20-9edc-762ad2a4db6b","system_id":"levelo_inurba_marseille","lat":43.292644,"lon":5.384257,"is_reserved":false,"is_disabled":false,"rental_uris":{"android":"levelo://app?vid=1b8761d7-44d7-4a20-9edc-762ad2a4db6b","ios":"levelo://app?vid=1b8761d7-44d7-4a20-9edc-762ad2a4db6b"},"vehicle_type_id":"4","last_reported":1722704820,"current_range_meters":0,"station_id":"ce4bh692rcd13ifvqea0","pricing_plan_id":"cebpf4jnsgd1na2vs0mg"},{"bike_id":"432a2807-7862-4061-aa94-819d7f5810e2","system_id":"levelo_inurba_marseille","lat":43.304274,"lon":5.397513,"is_reserved":false,"is_disabled":false,"rental_uris":{"android":"levelo://app?vid=432a2807-7862-4061-aa94-819d7f5810e2","ios":"levelo://app?vid=432a2807-7862-4061-aa94-819d7f5810e2"},"vehicle_type_id":"4","last_reported":1722704820,"current_range_meters":3200,"station_id":"ce4bh092rcd13ifvqd20","pricing_plan_id":"cebpf4jnsgd1na2vs0mg"},{"bike_id":"74ae73d6-cb0e-4e6b-897a-845ef65d338f","system_id":"levelo_inurba_marseille","lat":43.292644,"lon":5.384257,"is_reserved":false,"is_disabled":false,"rental_uris":{"android":"levelo://app?vid=74ae73d6-cb0e-4e6b-897a-845ef65d338f","ios":"levelo://app?vid=74ae73d6-cb0e-4e6b-897a-845ef65d338f"},"vehicle_type_id":"4","last_reported":1722704820,"current_range_meters":26400,"station_id":"ce4bh692rcd13ifvqea0","pricing_plan_id":"cebpf4jnsgd1na2vs0mg"},{"bike_id":"26cd81a2-ef59-4505-95dd-b69934ca4911","system_id":"levelo_inurba_marseille","lat":43.292642,"lon":5.384254,"is_reserved":false,"is_disabled":false,"rental_uris":{"android":"levelo://app?vid=26cd81a2-ef59-4505-95dd-b69934ca4911","ios":"levelo://app?vid=26cd81a2-ef59-4505-95dd-b69934ca4911"},"vehicle_type_id":"4","last_reported":1722704820,"current_range_meters":6000,"station_id":"ce4bh692rcd13ifvqea0","pricing_plan_id":"cebpf4jnsgd1na2vs0mg"},{"bike_id":"c4d90c88-4bce-4845-96b6-aa1eda1acd0c","system_id":"levelo_inurba_marseille","lat":43.292644,"lon":5.384257,"is_reserved":false,"is_disabled":false,"rental_uris":{"android":"levelo://app?vid=c4d90c88-4bce-4845-96b6-aa1eda1acd0c","ios":"levelo://app?vid=c4d90c88-4bce-4845-96b6-aa1eda1acd0c"},"vehicle_type_id":"4","last_reported":1722704820,"current_range_meters":22000,"station_id":"ce4bh692rcd13ifvqea0","pricing_plan_id":"cebpf4jnsgd1na2vs0mg"},{"bike_id":"f165eaea-369a-479f-9d62-0723c00bdb81","system_id":"levelo_inurba_marseille","lat":43.292644,"lon":5.384257,"is_reserved":false,"is_disabled":false,"rental_uris":{"android":"levelo://app?vid=f165eaea-369a-479f-9d62-0723c00bdb81","ios":"levelo://app?vid=f165eaea-369a-479f-9d62-0723c00bdb81"},"vehicle_type_id":"4","last_reported":1722704820,"current_range_meters":800,"station_id":"ce4bh692rcd13ifvqea0","pricing_plan_id":"cebpf4jnsgd1na2vs0mg"},{"bike_id":"fd7b6ce3-8ff4-4c12-a59e-655907bafaa0","system_id":"levelo_inurba_marseille","lat":43.292642,"lon":5.384254,"is_reserved":false,"is_disabled":false,"rental_uris":{"android":"levelo://app?vid=fd7b6ce3-8ff4-4c12-a59e-655907bafaa0","ios":"levelo://app?vid=fd7b6ce3-8ff4-4c12-a59e-655907bafaa0"},"vehicle_type_id":"4","last_reported":1722704820,"current_range_meters":30000,"station_id":"ce4bh692rcd13ifvqea0","pricing_plan_id":"cebpf4jnsgd1na2vs0mg"},{"bike_id":"f4b75da5-9d05-489a-b305-76bca3e52fdc","system_id":"levelo_inurba_marseille","lat":43.304274,"lon":5.397513,"is_reserved":false,"is_disabled":false,"rental_uris":{"android":"levelo://app?vid=f4b75da5-9d05-489a-b305-76bca3e52fdc","ios":"levelo://app?vid=f4b75da5-9d05-489a-b305-76bca3e52fdc"},"vehicle_type_id":"4","last_reported":1722704820,"current_range_meters":4800,"station_id":"ce4bh092rcd13ifvqd20","pricing_plan_id":"cebpf4jnsgd1na2vs0mg"},{"bike_id":"bb7cf3e3-5765-4080-bf4f-dd4d8e65881b","system_id":"levelo_inurba_marseille","lat":43.304274,"lon":5.397513,"is_reserved":false,"is_disabled":false,"rental_uris":{"android":"levelo://app?vid=bb7cf3e3-5765-4080-bf4f-dd4d8e65881b","ios":"levelo://app?vid=bb7cf3e3-5765-4080-bf4f-dd4d8e65881b"},"vehicle_type_id":"4","last_reported":1722704820,"current_range_meters":22400,"station_id":"ce4bh092rcd13ifvqd20","pricing_plan_id":"cebpf4jnsgd1na2vs0mg"},{"bike_id":"4a6415a0-018a-413f-9160-e3f14d281881","system_id":"levelo_inurba_marseille","lat":43.292644,"lon":5.384257,"is_reserved":false,"is_disabled":false,"rental_uris":{"android":"levelo://app?vid=4a6415a0-018a-413f-9160-e3f14d281881","ios":"levelo://app?vid=4a6415a0-018a-413f-9160-e3f14d281881"},"vehicle_type_id":"4","last_reported":1722704820,"current_range_meters":0,"station_id":"ce4bh692rcd13ifvqea0","pricing_plan_id":"cebpf4jnsgd1na2vs0mg"},{"bike_id":"2c6cfaa2-ecdb-4e8b-ae44-761bb2bf8a8e","system_id":"levelo_inurba_marseille","lat":43.290104,"lon":5.356111,"is_reserved":false,"is_disabled":false,"rental_uris":{"android":"levelo://app?vid=2c6cfaa2-ecdb-4e8b-ae44-761bb2bf8a8e","ios":"levelo://app?vid=2c6cfaa2-ecdb-4e8b-ae44-761bb2bf8a8e"},"vehicle_type_id":"4","last_reported":1722704820,"current_range_meters":22400,"station_id":"ce4bhb92rcd13ifvqen0","pricing_plan_id":"cebpf4jnsgd1na2vs0mg"},{"bike_id":"cbb267bf-1c57-46a6-9320-8adc5161b8ff","system_id":"levelo_inurba_marseille","lat":43.29003,"lon":5.35609,"is_reserved":false,"is_disabled":false,"rental_uris":{"android":"levelo://app?vid=cbb267bf-1c57-46a6-9320-8adc5161b8ff","ios":"levelo://app?vid=cbb267bf-1c57-46a6-9320-8adc5161b8ff"},"vehicle_type_id":"4","last_reported":1722704820,"current_range_meters":0,"station_id":"ce4bhb92rcd13ifvqen0","pricing_plan_id":"cebpf4jnsgd1na2vs0mg"},{"bike_id":"22a0484c-2f15-4146-b16c-89bd17d4935a","system_id":"levelo_inurba_marseille","lat":43.29023,"lon":5.35459,"is_reserved":false,"is_disabled":false,"rental_uris":{"android":"levelo://app?vid=22a0484c-2f15-4146-b16c-89bd17d4935a","ios":"levelo://app?vid=22a0484c-2f15-4146-b16c-89bd17d4935a"},"vehicle_type_id":"4","last_reported":1722704820,"current_range_meters":20800,"station_id":"","pricing_plan_id":"cebpf4jnsgd1na2vs0mg"},{"bike_id":"2bbf1155-1305-4769-b7df-26cec13f0dc4","system_id":"levelo_inurba_marseille","lat":43.297815,"lon":5.393548,"is_reserved":false,"is_disabled":false,"rental_uris":{"android":"levelo://app?vid=2bbf1155-1305-4769-b7df-26cec13f0dc4","ios":"levelo://app?vid=2bbf1155-1305-4769-b7df-26cec13f0dc4"},"vehicle_type_id":"4","last_reported":1722704820,"current_range_meters":0,"station_id":"chh1huq6cuj3fo74tm60","pricing_plan_id":"cebpf4jnsgd1na2vs0mg"},{"bike_id":"001485d6-1832-49c7-9d6b-a5de8e38af4f","system_id":"levelo_inurba_marseille","lat":43.297815,"lon":5.393548,"is_reserved":false,"is_disabled":false,"rental_uris":{"android":"levelo://app?vid=001485d6-1832-49c7-9d6b-a5de8e38af4f","ios":"levelo://app?vid=001485d6-1832-49c7-9d6b-a5de8e38af4f"},"vehicle_type_id":"4","last_reported":1722704820,"current_range_meters":18800,"station_id":"chh1huq6cuj3fo74tm60","pricing_plan_id":"cebpf4jnsgd1na2vs0mg"},{"bike_id":"5354c2c3-78b1-4b29-acf1-85848b84b1dd","system_id":"levelo_inurba_marseille","lat":43.3302,"lon":5.39029,"is_reserved":false,"is_disabled":false,"rental_uris":{"android":"levelo://app?vid=5354c2c3-78b1-4b29-acf1-85848b84b1dd","ios":"levelo://app?vid=5354c2c3-78b1-4b29-acf1-85848b84b1dd"},"vehicle_type_id":"4","last_reported":1722704820,"current_range_meters":16800,"station_id":"ce4bhr92rcd13ifvqhrg","pricing_plan_id":"cebpf4jnsgd1na2vs0mg"},{"bike_id":"0c9be5e9-c83c-4e09-9645-cae1dc7ac240","system_id":"levelo_inurba_marseille","lat":43.330243,"lon":5.39031,"is_reserved":false,"is_disabled":false,"rental_uris":{"android":"levelo://app?vid=0c9be5e9-c83c-4e09-9645-cae1dc7ac240","ios":"levelo://app?vid=0c9be5e9-c83c-4e09-9645-cae1dc7ac240"},"vehicle_type_id":"4","last_reported":1722704820,"current_range_meters":30800,"station_id":"ce4bhr92rcd13ifvqhrg","pricing_plan_id":"cebpf4jnsgd1na2vs0mg"},{"bike_id":"ca551b47-5857-4475-aef8-ca7a0dc07a1c","system_id":"levelo_inurba_marseille","lat":43.330237,"lon":5.390377,"is_reserved":false,"is_disabled":false,"rental_uris":{"android":"levelo://app?vid=ca551b47-5857-4475-aef8-ca7a0dc07a1c","ios":"levelo://app?vid=ca551b47-5857-4475-aef8-ca7a0dc07a1c"},"vehicle_type_id":"4","last_reported":1722704820,"current_range_meters":800,"station_id":"ce4bhr92rcd13ifvqhrg","pricing_plan_id":"cebpf4jnsgd1na2vs0mg"},{"bike_id":"915884c8-fa80-40b6-82b7-da4b89423431","system_id":"levelo_inurba_marseille","lat":43.33026,"lon":5.39035,"is_reserved":false,"is_disabled":false,"rental_uris":{"android":"levelo://app?vid=915884c8-fa80-40b6-82b7-da4b89423431","ios":"levelo://app?vid=915884c8-fa80-40b6-82b7-da4b89423431"},"vehicle_type_id":"4","last_reported":1722704820,"current_range_meters":12000,"station_id":"ce4bhr92rcd13ifvqhrg","pricing_plan_id":"cebpf4jnsgd1na2vs0mg"},{"bike_id":"ad82c658-0f98-4feb-9b38-99b881d4e006","system_id":"levelo_inurba_marseille","lat":43.330442,"lon":5.389148,"is_reserved":false,"is_disabled":false,"rental_uris":{"android":"levelo://app?vid=ad82c658-0f98-4feb-9b38-99b881d4e006","ios":"levelo://app?vid=ad82c658-0f98-4feb-9b38-99b881d4e006"},"vehicle_type_id":"4","last_reported":1722704820,"current_range_meters":27200,"station_id":"ce4bhr92rcd13ifvqhrg","pricing_plan_id":"cebpf4jnsgd1na2vs0mg"},{"bike_id":"541415d5-bf5f-4f71-aabc-9bb7d76b4cad","system_id":"levelo_inurba_marseille","lat":43.33026,"lon":5.39036,"is_reserved":false,"is_disabled":false,"rental_uris":{"android":"levelo://app?vid=541415d5-bf5f-4f71-aabc-9bb7d76b4cad","ios":"levelo://app?vid=541415d5-bf5f-4f71-aabc-9bb7d76b4cad"},"vehicle_type_id":"4","last_reported":1722704820,"current_range_meters":21200,"station_id":"ce4bhr92rcd13ifvqhrg","pricing_plan_id":"cebpf4jnsgd1na2vs0mg"},{"bike_id":"f5664707-8627-4f76-8906-bc68c2a89fe0","system_id":"levelo_inurba_marseille","lat":43.295169,"lon":5.390426,"is_reserved":false,"is_disabled":false,"rental_uris":{"android":"levelo://app?vid=f5664707-8627-4f76-8906-bc68c2a89fe0","ios":"levelo://app?vid=f5664707-8627-4f76-8906-bc68c2a89fe0"},"vehicle_type_id":"4","last_reported":1722704820,"current_range_meters":24800,"station_id":"ce4bh3p2rcd13ifvqdp0","pricing_plan_id":"cebpf4jnsgd1na2vs0mg"},{"bike_id":"4aa94772-9f58-4c7b-8caa-eb1e8a9fd227","system_id":"levelo_inurba_marseille","lat":43.33024,"lon":5.39039,"is_reserved":false,"is_disabled":false,"rental_uris":{"android":"levelo://app?vid=4aa94772-9f58-4c7b-8caa-eb1e8a9fd227","ios":"levelo://app?vid=4aa94772-9f58-4c7b-8caa-eb1e8a9fd227"},"vehicle_type_id":"4","last_reported":1722704820,"current_range_meters":28000,"station_id":"ce4bhr92rcd13ifvqhrg","pricing_plan_id":"cebpf4jnsgd1na2vs0mg"},{"bike_id":"2742ce8d-75d9-48a8-ad88-2063106ff6bb","system_id":"levelo_inurba_marseille","lat":43.330442,"lon":5.389148,"is_reserved":false,"is_disabled":false,"rental_uris":{"android":"levelo://app?vid=2742ce8d-75d9-48a8-ad88-2063106ff6bb","ios":"levelo://app?vid=2742ce8d-75d9-48a8-ad88-2063106ff6bb"},"vehicle_type_id":"4","last_reported":1722704820,"current_range_meters":7600,"station_id":"ce4bhr92rcd13ifvqhrg","pricing_plan_id":"cebpf4jnsgd1na2vs0mg"},{"bike_id":"7a99bf43-7e6a-4de3-b51c-cb116b20eb0a","system_id":"levelo_inurba_marseille","lat":43.330442,"lon":5.389148,"is_reserved":false,"is_disabled":false,"rental_uris":{"android":"levelo://app?vid=7a99bf43-7e6a-4de3-b51c-cb116b20eb0a","ios":"levelo://app?vid=7a99bf43-7e6a-4de3-b51c-cb116b20eb0a"},"vehicle_type_id":"4","last_reported":1722704820,"current_range_meters":7600,"station_id":"ce4bhr92rcd13ifvqhrg","pricing_plan_id":"cebpf4jnsgd1na2vs0mg"},{"bike_id":"dd2f2e88-8c99-4b0d-b5a8-3ef8d748a7d4","system_id":"levelo_inurba_marseille","lat":43.33024,"lon":5.39044,"is_reserved":false,"is_disabled":false,"rental_uris":{"android":"levelo://app?vid=dd2f2e88-8c99-4b0d-b5a8-3ef8d748a7d4","ios":"levelo://app?vid=dd2f2e88-8c99-4b0d-b5a8-3ef8d748a7d4"},"vehicle_type_id":"4","last_reported":1722704820,"current_range_meters":31200,"station_id":"ce4bhr92rcd13ifvqhrg","pricing_plan_id":"cebpf4jnsgd1na2vs0mg"},{"bike_id":"ec8a4ec8-50d7-43eb-bff1-1ea251f8a0f4","system_id":"levelo_inurba_marseille","lat":43.330442,"lon":5.389148,"is_reserved":false,"is_disabled":false,"rental_uris":{"android":"levelo://app?vid=ec8a4ec8-50d7-43eb-bff1-1ea251f8a0f4","ios":"levelo://app?vid=ec8a4ec8-50d7-43eb-bff1-1ea251f8a0f4"},"vehicle_type_id":"4","last_reported":1722704820,"current_range_meters":30800,"station_id":"ce4bhr92rcd13ifvqhrg","pricing_plan_id":"cebpf4jnsgd1na2vs0mg"},{"bike_id":"8ab0108b-b75f-413d-bd1e-e68bfbf68897","system_id":"levelo_inurba_marseille","lat":43.295169,"lon":5.390426,"is_reserved":false,"is_disabled":false,"rental_uris":{"android":"levelo://app?vid=8ab0108b-b75f-413d-bd1e-e68bfbf68897","ios":"levelo://app?vid=8ab0108b-b75f-413d-bd1e-e68bfbf68897"},"vehicle_type_id":"4","last_reported":1722704820,"current_range_meters":4000,"station_id":"ce4bh3p2rcd13ifvqdp0","pricing_plan_id":"cebpf4jnsgd1na2vs0mg"},{"bike_id":"3d45379f-92be-44ff-ac96-68c68cd90db6","system_id":"levelo_inurba_marseille","lat":43.288852,"lon":5.358699,"is_reserved":false,"is_disabled":false,"rental_uris":{"android":"levelo://app?vid=3d45379f-92be-44ff-ac96-68c68cd90db6","ios":"levelo://app?vid=3d45379f-92be-44ff-ac96-68c68cd90db6"},"vehicle_type_id":"4","last_reported":1722704820,"current_range_meters":0,"station_id":"","pricing_plan_id":"cebpf4jnsgd1na2vs0mg"},{"bike_id":"f4cdf6f8-59cc-4926-bbd3-bf830cd7e7b6","system_id":"levelo_inurba_marseille","lat":43.2901,"lon":5.381269,"is_reserved":false,"is_disabled":false,"rental_uris":{"android":"levelo://app?vid=f4cdf6f8-59cc-4926-bbd3-bf830cd7e7b6","ios":"levelo://app?vid=f4cdf6f8-59cc-4926-bbd3-bf830cd7e7b6"},"vehicle_type_id":"4","last_reported":1722704820,"current_range_meters":29200,"station_id":"ce4bh4p2rcd13ifvqe1g","pricing_plan_id":"cebpf4jnsgd1na2vs0mg"},{"bike_id":"41afc615-58bf-4d40-8f40-b2b88f010f22","system_id":"levelo_inurba_marseille","lat":43.290094,"lon":5.381264,"is_reserved":false,"is_disabled":false,"rental_uris":{"android":"levelo://app?vid=41afc615-58bf-4d40-8f40-b2b88f010f22","ios":"levelo://app?vid=41afc615-58bf-4d40-8f40-b2b88f010f22"},"vehicle_type_id":"4","last_reported":1722704820,"current_range_meters":12800,"station_id":"ce4bh4p2rcd13ifvqe1g","pricing_plan_id":"cebpf4jnsgd1na2vs0mg"},{"bike_id":"e28f4464-75a4-43c1-98a4-7e6589157984","system_id":"levelo_inurba_marseille","lat":43.28856,"lon":5.358371,"is_reserved":false,"is_disabled":false,"rental_uris":{"android":"levelo://app?vid=e28f4464-75a4-43c1-98a4-7e6589157984","ios":"levelo://app?vid=e28f4464-75a4-43c1-98a4-7e6589157984"},"vehicle_type_id":"4","last_reported":1722704820,"current_range_meters":6000,"station_id":"ce4bhb12rcd13ifvqem0","pricing_plan_id":"cebpf4jnsgd1na2vs0mg"},{"bike_id":"23c5b3b4-fc18-4d35-836b-32ad40b6f9fe","system_id":"levelo_inurba_marseille","lat":43.33098,"lon":5.39082,"is_reserved":false,"is_disabled":false,"rental_uris":{"android":"levelo://app?vid=23c5b3b4-fc18-4d35-836b-32ad40b6f9fe","ios":"levelo://app?vid=23c5b3b4-fc18-4d35-836b-32ad40b6f9fe"},"vehicle_type_id":"4","last_reported":1722704820,"current_range_meters":18800,"station_id":"","pricing_plan_id":"cebpf4jnsgd1na2vs0mg"},{"bike_id":"7046475d-4ed7-474e-8e0f-30985380002a","system_id":"levelo_inurba_marseille","lat":43.312609,"lon":5.401662,"is_reserved":false,"is_disabled":false,"rental_uris":{"android":"levelo://app?vid=7046475d-4ed7-474e-8e0f-30985380002a","ios":"levelo://app?vid=7046475d-4ed7-474e-8e0f-30985380002a"},"vehicle_type_id":"4","last_reported":1722704820,"current_range_meters":14400,"station_id":"ce4bh092rcd13ifvqd30","pricing_plan_id":"cebpf4jnsgd1na2vs0mg"},{"bike_id":"711bbdb7-4aae-43f7-98bc-a00f02c02487","system_id":"levelo_inurba_marseille","lat":43.33738,"lon":5.37451,"is_reserved":false,"is_disabled":false,"rental_uris":{"android":"levelo://app?vid=711bbdb7-4aae-43f7-98bc-a00f02c02487","ios":"levelo://app?vid=711bbdb7-4aae-43f7-98bc-a00f02c02487"},"vehicle_type_id":"4","last_reported":1722704820,"current_range_meters":24400,"station_id":"","pricing_plan_id":"cebpf4jnsgd1na2vs0mg"},{"bike_id":"533179ef-7fec-466d-84ab-50e29fba37cd","system_id":"levelo_inurba_marseille","lat":43.312609,"lon":5.401662,"is_reserved":false,"is_disabled":false,"rental_uris":{"android":"levelo://app?vid=533179ef-7fec-466d-84ab-50e29fba37cd","ios":"levelo://app?vid=533179ef-7fec-466d-84ab-50e29fba37cd"},"vehicle_type_id":"4","last_reported":1722704820,"current_range_meters":7600,"station_id":"ce4bh092rcd13ifvqd30","pricing_plan_id":"cebpf4jnsgd1na2vs0mg"},{"bike_id":"6f044633-3688-4e83-af67-cf3db97c1cc7","system_id":"levelo_inurba_marseille","lat":43.337444,"lon":5.374475,"is_reserved":false,"is_disabled":false,"rental_uris":{"android":"levelo://app?vid=6f044633-3688-4e83-af67-cf3db97c1cc7","ios":"levelo://app?vid=6f044633-3688-4e83-af67-cf3db97c1cc7"},"vehicle_type_id":"3","last_reported":1722704820,"current_range_meters":24800,"station_id":"","pricing_plan_id":"cebpf4jnsgd1na2vs0mg"},{"bike_id":"3de6c188-56d1-4f37-8954-d4f2fac6d224","system_id":"levelo_inurba_marseille","lat":43.309371,"lon":5.401449,"is_reserved":false,"is_disabled":false,"rental_uris":{"android":"levelo://app?vid=3de6c188-56d1-4f37-8954-d4f2fac6d224","ios":"levelo://app?vid=3de6c188-56d1-4f37-8954-d4f2fac6d224"},"vehicle_type_id":"4","last_reported":1722704820,"current_range_meters":28400,"station_id":"ce4bgvp2rcd13ifvqct0","pricing_plan_id":"cebpf4jnsgd1na2vs0mg"},{"bike_id":"ff80c0e7-ab19-4580-a9f1-136cc6fc1f4c","system_id":"levelo_inurba_marseille","lat":43.309371,"lon":5.401449,"is_reserved":false,"is_disabled":false,"rental_uris":{"android":"levelo://app?vid=ff80c0e7-ab19-4580-a9f1-136cc6fc1f4c","ios":"levelo://app?vid=ff80c0e7-ab19-4580-a9f1-136cc6fc1f4c"},"vehicle_type_id":"4","last_reported":1722704820,"current_range_meters":14000,"station_id":"ce4bgvp2rcd13ifvqct0","pricing_plan_id":"cebpf4jnsgd1na2vs0mg"},{"bike_id":"046f9e93-777d-4126-a3e3-f45ef49b1423","system_id":"levelo_inurba_marseille","lat":43.309371,"lon":5.401449,"is_reserved":false,"is_disabled":false,"rental_uris":{"android":"levelo://app?vid=046f9e93-777d-4126-a3e3-f45ef49b1423","ios":"levelo://app?vid=046f9e93-777d-4126-a3e3-f45ef49b1423"},"vehicle_type_id":"4","last_reported":1722704820,"current_range_meters":13200,"station_id":"ce4bgvp2rcd13ifvqct0","pricing_plan_id":"cebpf4jnsgd1na2vs0mg"},{"bike_id":"fe41bbf1-53a8-4903-8a48-eaa539bb1e76","system_id":"levelo_inurba_marseille","lat":43.33755,"lon":5.37433,"is_reserved":false,"is_disabled":false,"rental_uris":{"android":"levelo://app?vid=fe41bbf1-53a8-4903-8a48-eaa539bb1e76","ios":"levelo://app?vid=fe41bbf1-53a8-4903-8a48-eaa539bb1e76"},"vehicle_type_id":"4","last_reported":1722704820,"current_range_meters":8000,"station_id":"","pricing_plan_id":"cebpf4jnsgd1na2vs0mg"},{"bike_id":"015039a1-3ae9-4cda-93dd-860ae0eb19a3","system_id":"levelo_inurba_marseille","lat":43.306412,"lon":5.401035,"is_reserved":false,"is_disabled":false,"rental_uris":{"android":"levelo://app?vid=015039a1-3ae9-4cda-93dd-860ae0eb19a3","ios":"levelo://app?vid=015039a1-3ae9-4cda-93dd-860ae0eb19a3"},"vehicle_type_id":"4","last_reported":1722704820,"current_range_meters":24400,"station_id":"ce4bh112rcd13ifvqda0","pricing_plan_id":"cebpf4jnsgd1na2vs0mg"},{"bike_id":"7950cc3b-f2f9-431b-8834-3421a4134e26","system_id":"levelo_inurba_marseille","lat":43.306412,"lon":5.401035,"is_reserved":false,"is_disabled":false,"rental_uris":{"android":"levelo://app?vid=7950cc3b-f2f9-431b-8834-3421a4134e26","ios":"levelo://app?vid=7950cc3b-f2f9-431b-8834-3421a4134e26"},"vehicle_type_id":"4","last_reported":1722704820,"current_range_meters":10400,"station_id":"ce4bh112rcd13ifvqda0","pricing_plan_id":"cebpf4jnsgd1na2vs0mg"},{"bike_id":"049306b3-914f-4518-b91e-9b568a66e567","system_id":"levelo_inurba_marseille","lat":43.3015,"lon":5.3986,"is_reserved":false,"is_disabled":false,"rental_uris":{"android":"levelo://app?vid=049306b3-914f-4518-b91e-9b568a66e567","ios":"levelo://app?vid=049306b3-914f-4518-b91e-9b568a66e567"},"vehicle_type_id":"4","last_reported":1722704820,"current_range_meters":11600,"station_id":"ce4bh0h2rcd13ifvqd40","pricing_plan_id":"cebpf4jnsgd1na2vs0mg"},{"bike_id":"39f169a8-1167-43d5-aa15-f449c5df44bf","system_id":"levelo_inurba_marseille","lat":43.301117,"lon":5.398795,"is_reserved":false,"is_disabled":false,"rental_uris":{"android":"levelo://app?vid=39f169a8-1167-43d5-aa15-f449c5df44bf","ios":"levelo://app?vid=39f169a8-1167-43d5-aa15-f449c5df44bf"},"vehicle_type_id":"4","last_reported":1722704820,"current_range_meters":13600,"station_id":"ce4bh0h2rcd13ifvqd40","pricing_plan_id":"cebpf4jnsgd1na2vs0mg"},{"bike_id":"3656d61a-732b-4316-bfda-b17e667b7bff","system_id":"levelo_inurba_marseille","lat":43.30144,"lon":5.39867,"is_reserved":false,"is_disabled":false,"rental_uris":{"android":"levelo://app?vid=3656d61a-732b-4316-bfda-b17e667b7bff","ios":"levelo://app?vid=3656d61a-732b-4316-bfda-b17e667b7bff"},"vehicle_type_id":"4","last_reported":1722704820,"current_range_meters":26400,"station_id":"ce4bh0h2rcd13ifvqd40","pricing_plan_id":"cebpf4jnsgd1na2vs0mg"},{"bike_id":"8dfc9ae1-84c0-4881-86c5-ee97d35176f2","system_id":"levelo_inurba_marseille","lat":43.301117,"lon":5.398795,"is_reserved":false,"is_disabled":false,"rental_uris":{"android":"levelo://app?vid=8dfc9ae1-84c0-4881-86c5-ee97d35176f2","ios":"levelo://app?vid=8dfc9ae1-84c0-4881-86c5-ee97d35176f2"},"vehicle_type_id":"4","last_reported":1722704820,"current_range_meters":30400,"station_id":"ce4bh0h2rcd13ifvqd40","pricing_plan_id":"cebpf4jnsgd1na2vs0mg"},{"bike_id":"2a5949df-cfb0-482d-ae53-1bc38ba9c691","system_id":"levelo_inurba_marseille","lat":43.28727,"lon":5.36078,"is_reserved":false,"is_disabled":false,"rental_uris":{"android":"levelo://app?vid=2a5949df-cfb0-482d-ae53-1bc38ba9c691","ios":"levelo://app?vid=2a5949df-cfb0-482d-ae53-1bc38ba9c691"},"vehicle_type_id":"4","last_reported":1722704820,"current_range_meters":14000,"station_id":"cki0cbj6b192h4jlfktg","pricing_plan_id":"cebpf4jnsgd1na2vs0mg"},{"bike_id":"036c6167-a9e8-4e08-9f0c-120f32d55de4","system_id":"levelo_inurba_marseille","lat":43.28727,"lon":5.36078,"is_reserved":false,"is_disabled":false,"rental_uris":{"android":"levelo://app?vid=036c6167-a9e8-4e08-9f0c-120f32d55de4","ios":"levelo://app?vid=036c6167-a9e8-4e08-9f0c-120f32d55de4"},"vehicle_type_id":"4","last_reported":1722704820,"current_range_meters":18000,"station_id":"cki0cbj6b192h4jlfktg","pricing_plan_id":"cebpf4jnsgd1na2vs0mg"},{"bike_id":"29b562e0-0b2f-4fc7-8ff9-0ee40cccf17f","system_id":"levelo_inurba_marseille","lat":43.28692,"lon":5.363547,"is_reserved":false,"is_disabled":false,"rental_uris":{"android":"levelo://app?vid=29b562e0-0b2f-4fc7-8ff9-0ee40cccf17f","ios":"levelo://app?vid=29b562e0-0b2f-4fc7-8ff9-0ee40cccf17f"},"vehicle_type_id":"4","last_reported":1722704820,"current_range_meters":30800,"station_id":"ce4bh412rcd13ifvqds0","pricing_plan_id":"cebpf4jnsgd1na2vs0mg"},{"bike_id":"1bcf93f4-2e95-4e02-9f77-a70105628f13","system_id":"levelo_inurba_marseille","lat":43.298681,"lon":5.397225,"is_reserved":false,"is_disabled":false,"rental_uris":{"android":"levelo://app?vid=1bcf93f4-2e95-4e02-9f77-a70105628f13","ios":"levelo://app?vid=1bcf93f4-2e95-4e02-9f77-a70105628f13"},"vehicle_type_id":"4","last_reported":1722704820,"current_range_meters":0,"station_id":"ce4bh0h2rcd13ifvqd50","pricing_plan_id":"cebpf4jnsgd1na2vs0mg"},{"bike_id":"68e4589c-ad14-4c23-8fa3-ca5e9f1ac989","system_id":"levelo_inurba_marseille","lat":43.298681,"lon":5.397225,"is_reserved":false,"is_disabled":false,"rental_uris":{"android":"levelo://app?vid=68e4589c-ad14-4c23-8fa3-ca5e9f1ac989","ios":"levelo://app?vid=68e4589c-ad14-4c23-8fa3-ca5e9f1ac989"},"vehicle_type_id":"4","last_reported":1722704820,"current_range_meters":0,"station_id":"ce4bh0h2rcd13ifvqd50","pricing_plan_id":"cebpf4jnsgd1na2vs0mg"},{"bike_id":"dde6210b-ce50-4765-b7fa-4f3c5a1c6500","system_id":"levelo_inurba_marseille","lat":43.298681,"lon":5.397225,"is_reserved":false,"is_disabled":false,"rental_uris":{"android":"levelo://app?vid=dde6210b-ce50-4765-b7fa-4f3c5a1c6500","ios":"levelo://app?vid=dde6210b-ce50-4765-b7fa-4f3c5a1c6500"},"vehicle_type_id":"4","last_reported":1722704820,"current_range_meters":5600,"station_id":"ce4bh0h2rcd13ifvqd50","pricing_plan_id":"cebpf4jnsgd1na2vs0mg"},{"bike_id":"0eb40ce7-baac-4065-a714-31e55cba0ca0","system_id":"levelo_inurba_marseille","lat":43.298681,"lon":5.397225,"is_reserved":false,"is_disabled":false,"rental_uris":{"android":"levelo://app?vid=0eb40ce7-baac-4065-a714-31e55cba0ca0","ios":"levelo://app?vid=0eb40ce7-baac-4065-a714-31e55cba0ca0"},"vehicle_type_id":"4","last_reported":1722704820,"current_range_meters":20000,"station_id":"ce4bh0h2rcd13ifvqd50","pricing_plan_id":"cebpf4jnsgd1na2vs0mg"},{"bike_id":"201e6bc9-f6ee-4d9f-b4e4-224ac0516818","system_id":"levelo_inurba_marseille","lat":43.286591,"lon":5.363346,"is_reserved":false,"is_disabled":false,"rental_uris":{"android":"levelo://app?vid=201e6bc9-f6ee-4d9f-b4e4-224ac0516818","ios":"levelo://app?vid=201e6bc9-f6ee-4d9f-b4e4-224ac0516818"},"vehicle_type_id":"4","last_reported":1722704820,"current_range_meters":26000,"station_id":"ce4bhah2rcd13ifvqej0","pricing_plan_id":"cebpf4jnsgd1na2vs0mg"},{"bike_id":"7ad23007-17c8-4050-b7c2-021a17dc3147","system_id":"levelo_inurba_marseille","lat":43.286593,"lon":5.363346,"is_reserved":false,"is_disabled":false,"rental_uris":{"android":"levelo://app?vid=7ad23007-17c8-4050-b7c2-021a17dc3147","ios":"levelo://app?vid=7ad23007-17c8-4050-b7c2-021a17dc3147"},"vehicle_type_id":"4","last_reported":1722704820,"current_range_meters":26000,"station_id":"ce4bhah2rcd13ifvqej0","pricing_plan_id":"cebpf4jnsgd1na2vs0mg"},{"bike_id":"a61cdf67-e6af-4318-8c2a-732b9ef87bcf","system_id":"levelo_inurba_marseille","lat":43.28698,"lon":5.37387,"is_reserved":false,"is_disabled":false,"rental_uris":{"android":"levelo://app?vid=a61cdf67-e6af-4318-8c2a-732b9ef87bcf","ios":"levelo://app?vid=a61cdf67-e6af-4318-8c2a-732b9ef87bcf"},"vehicle_type_id":"4","last_reported":1722704820,"current_range_meters":9600,"station_id":"ce4bh3p2rcd13ifvqdq0","pricing_plan_id":"cebpf4jnsgd1na2vs0mg"},{"bike_id":"d50df9b0-b31d-4f8d-925c-2bc88887a438","system_id":"levelo_inurba_marseille","lat":43.286593,"lon":5.363346,"is_reserved":false,"is_disabled":false,"rental_uris":{"android":"levelo://app?vid=d50df9b0-b31d-4f8d-925c-2bc88887a438","ios":"levelo://app?vid=d50df9b0-b31d-4f8d-925c-2bc88887a438"},"vehicle_type_id":"4","last_reported":1722704820,"current_range_meters":0,"station_id":"ce4bhah2rcd13ifvqej0","pricing_plan_id":"cebpf4jnsgd1na2vs0mg"},{"bike_id":"01fbb2ae-ff20-4f10-98f3-d93e67dbb452","system_id":"levelo_inurba_marseille","lat":43.28694,"lon":5.37386,"is_reserved":false,"is_disabled":false,"rental_uris":{"android":"levelo://app?vid=01fbb2ae-ff20-4f10-98f3-d93e67dbb452","ios":"levelo://app?vid=01fbb2ae-ff20-4f10-98f3-d93e67dbb452"},"vehicle_type_id":"4","last_reported":1722704820,"current_range_meters":15600,"station_id":"ce4bh3p2rcd13ifvqdq0","pricing_plan_id":"cebpf4jnsgd1na2vs0mg"},{"bike_id":"77746196-5a9e-4173-ad7a-3413526863a9","system_id":"levelo_inurba_marseille","lat":43.290336,"lon":5.386425,"is_reserved":false,"is_disabled":false,"rental_uris":{"android":"levelo://app?vid=77746196-5a9e-4173-ad7a-3413526863a9","ios":"levelo://app?vid=77746196-5a9e-4173-ad7a-3413526863a9"},"vehicle_type_id":"4","last_reported":1722704820,"current_range_meters":12800,"station_id":"ce4bh4p2rcd13ifvqe0g","pricing_plan_id":"cebpf4jnsgd1na2vs0mg"},{"bike_id":"5395fe20-20f6-438d-8aa0-16af60e58409","system_id":"levelo_inurba_marseille","lat":43.29028,"lon":5.38651,"is_reserved":false,"is_disabled":false,"rental_uris":{"android":"levelo://app?vid=5395fe20-20f6-438d-8aa0-16af60e58409","ios":"levelo://app?vid=5395fe20-20f6-438d-8aa0-16af60e58409"},"vehicle_type_id":"4","last_reported":1722704820,"current_range_meters":1200,"station_id":"ce4bh4p2rcd13ifvqe0g","pricing_plan_id":"cebpf4jnsgd1na2vs0mg"},{"bike_id":"59509315-ebc8-412a-882c-117aa910dd1d","system_id":"levelo_inurba_marseille","lat":43.286039,"lon":5.370679,"is_reserved":false,"is_disabled":false,"rental_uris":{"android":"levelo://app?vid=59509315-ebc8-412a-882c-117aa910dd1d","ios":"levelo://app?vid=59509315-ebc8-412a-882c-117aa910dd1d"},"vehicle_type_id":"4","last_reported":1722704820,"current_range_meters":13200,"station_id":"ce4bht12rcd13ifvqi60","pricing_plan_id":"cebpf4jnsgd1na2vs0mg"},{"bike_id":"e68dd8ee-55e2-436e-98f6-c0947b1feb22","system_id":"levelo_inurba_marseille","lat":43.302554,"lon":5.400808,"is_reserved":false,"is_disabled":false,"rental_uris":{"android":"levelo://app?vid=e68dd8ee-55e2-436e-98f6-c0947b1feb22","ios":"levelo://app?vid=e68dd8ee-55e2-436e-98f6-c0947b1feb22"},"vehicle_type_id":"4","last_reported":1722704820,"current_range_meters":27600,"station_id":"ce4bgvh2rcd13ifvqcs0","pricing_plan_id":"cebpf4jnsgd1na2vs0mg"},{"bike_id":"1a91a567-c0ab-4516-b639-88192e360457","system_id":"levelo_inurba_marseille","lat":43.289153,"lon":5.384183,"is_reserved":false,"is_disabled":false,"rental_uris":{"android":"levelo://app?vid=1a91a567-c0ab-4516-b639-88192e360457","ios":"levelo://app?vid=1a91a567-c0ab-4516-b639-88192e360457"},"vehicle_type_id":"4","last_reported":1722704820,"current_range_meters":30000,"station_id":"ce4bh612rcd13ifvqe6g","pricing_plan_id":"cebpf4jnsgd1na2vs0mg"},{"bike_id":"eaad7400-dc3a-4a40-957c-fb6fefcd8fbb","system_id":"levelo_inurba_marseille","lat":43.286039,"lon":5.370681,"is_reserved":false,"is_disabled":false,"rental_uris":{"android":"levelo://app?vid=eaad7400-dc3a-4a40-957c-fb6fefcd8fbb","ios":"levelo://app?vid=eaad7400-dc3a-4a40-957c-fb6fefcd8fbb"},"vehicle_type_id":"4","last_reported":1722704820,"current_range_meters":0,"station_id":"ce4bht12rcd13ifvqi60","pricing_plan_id":"cebpf4jnsgd1na2vs0mg"},{"bike_id":"77d6b5b7-195a-47f8-8961-734d42a24d67","system_id":"levelo_inurba_marseille","lat":43.302759,"lon":5.400793,"is_reserved":false,"is_disabled":false,"rental_uris":{"android":"levelo://app?vid=77d6b5b7-195a-47f8-8961-734d42a24d67","ios":"levelo://app?vid=77d6b5b7-195a-47f8-8961-734d42a24d67"},"vehicle_type_id":"4","last_reported":1722704820,"current_range_meters":27600,"station_id":"ce4bgvh2rcd13ifvqcs0","pricing_plan_id":"cebpf4jnsgd1na2vs0mg"},{"bike_id":"65f47568-5a77-4bde-bca6-df6fbe827cb9","system_id":"levelo_inurba_marseille","lat":43.287184,"lon":5.37937,"is_reserved":false,"is_disabled":false,"rental_uris":{"android":"levelo://app?vid=65f47568-5a77-4bde-bca6-df6fbe827cb9","ios":"levelo://app?vid=65f47568-5a77-4bde-bca6-df6fbe827cb9"},"vehicle_type_id":"4","last_reported":1722704820,"current_range_meters":21200,"station_id":"ce4bh9p2rcd13ifvqec0","pricing_plan_id":"cebpf4jnsgd1na2vs0mg"},{"bike_id":"34d4f714-2a6e-4d6f-ae0b-82e90a4c6145","system_id":"levelo_inurba_marseille","lat":43.28719,"lon":5.37935,"is_reserved":false,"is_disabled":false,"rental_uris":{"android":"levelo://app?vid=34d4f714-2a6e-4d6f-ae0b-82e90a4c6145","ios":"levelo://app?vid=34d4f714-2a6e-4d6f-ae0b-82e90a4c6145"},"vehicle_type_id":"4","last_reported":1722704820,"current_range_meters":8000,"station_id":"ce4bh9p2rcd13ifvqec0","pricing_plan_id":"cebpf4jnsgd1na2vs0mg"},{"bike_id":"33d1efe5-c49a-439d-ae73-de8efa935bd3","system_id":"levelo_inurba_marseille","lat":43.287184,"lon":5.37937,"is_reserved":false,"is_disabled":false,"rental_uris":{"android":"levelo://app?vid=33d1efe5-c49a-439d-ae73-de8efa935bd3","ios":"levelo://app?vid=33d1efe5-c49a-439d-ae73-de8efa935bd3"},"vehicle_type_id":"4","last_reported":1722704820,"current_range_meters":24000,"station_id":"ce4bh9p2rcd13ifvqec0","pricing_plan_id":"cebpf4jnsgd1na2vs0mg"},{"bike_id":"c86d06c5-8b9a-4e03-a983-ff8027fb40ee","system_id":"levelo_inurba_marseille","lat":43.2941,"lon":5.39413,"is_reserved":false,"is_disabled":false,"rental_uris":{"android":"levelo://app?vid=c86d06c5-8b9a-4e03-a983-ff8027fb40ee","ios":"levelo://app?vid=c86d06c5-8b9a-4e03-a983-ff8027fb40ee"},"vehicle_type_id":"4","last_reported":1722704820,"current_range_meters":0,"station_id":"","pricing_plan_id":"cebpf4jnsgd1na2vs0mg"},{"bike_id":"cdd33631-131d-40cb-992a-853914b439ae","system_id":"levelo_inurba_marseille","lat":43.316821,"lon":5.404737,"is_reserved":false,"is_disabled":false,"rental_uris":{"android":"levelo://app?vid=cdd33631-131d-40cb-992a-853914b439ae","ios":"levelo://app?vid=cdd33631-131d-40cb-992a-853914b439ae"},"vehicle_type_id":"4","last_reported":1722704820,"current_range_meters":28000,"station_id":"ce4bh012rcd13ifvqd00","pricing_plan_id":"cebpf4jnsgd1na2vs0mg"},{"bike_id":"26ffadce-237c-4cd9-b312-7058835451bd","system_id":"levelo_inurba_marseille","lat":43.291994,"lon":5.392907,"is_reserved":false,"is_disabled":false,"rental_uris":{"android":"levelo://app?vid=26ffadce-237c-4cd9-b312-7058835451bd","ios":"levelo://app?vid=26ffadce-237c-4cd9-b312-7058835451bd"},"vehicle_type_id":"4","last_reported":1722704820,"current_range_meters":2400,"station_id":"ce4bh192rcd13ifvqdd0","pricing_plan_id":"cebpf4jnsgd1na2vs0mg"},{"bike_id":"929ba55e-b56d-46c1-b5be-aad8ed4c29c1","system_id":"levelo_inurba_marseille","lat":43.291994,"lon":5.392907,"is_reserved":false,"is_disabled":false,"rental_uris":{"android":"levelo://app?vid=929ba55e-b56d-46c1-b5be-aad8ed4c29c1","ios":"levelo://app?vid=929ba55e-b56d-46c1-b5be-aad8ed4c29c1"},"vehicle_type_id":"4","last_reported":1722704820,"current_range_meters":2000,"station_id":"ce4bh192rcd13ifvqdd0","pricing_plan_id":"cebpf4jnsgd1na2vs0mg"},{"bike_id":"feca3a42-d271-49f7-b2bb-bb79a7a31344","system_id":"levelo_inurba_marseille","lat":43.284538,"lon":5.358657,"is_reserved":false,"is_disabled":false,"rental_uris":{"android":"levelo://app?vid=feca3a42-d271-49f7-b2bb-bb79a7a31344","ios":"levelo://app?vid=feca3a42-d271-49f7-b2bb-bb79a7a31344"},"vehicle_type_id":"4","last_reported":1722704820,"current_range_meters":8800,"station_id":"ce4bhah2rcd13ifvqei0","pricing_plan_id":"cebpf4jnsgd1na2vs0mg"},{"bike_id":"95d7bbe4-7a01-441a-9344-260de1402c00","system_id":"levelo_inurba_marseille","lat":43.284534,"lon":5.358662,"is_reserved":false,"is_disabled":false,"rental_uris":{"android":"levelo://app?vid=95d7bbe4-7a01-441a-9344-260de1402c00","ios":"levelo://app?vid=95d7bbe4-7a01-441a-9344-260de1402c00"},"vehicle_type_id":"4","last_reported":1722704820,"current_range_meters":25200,"station_id":"ce4bhah2rcd13ifvqei0","pricing_plan_id":"cebpf4jnsgd1na2vs0mg"},{"bike_id":"e927b886-504b-4487-88ff-004191c361a4","system_id":"levelo_inurba_marseille","lat":43.28458,"lon":5.35891,"is_reserved":false,"is_disabled":false,"rental_uris":{"android":"levelo://app?vid=e927b886-504b-4487-88ff-004191c361a4","ios":"levelo://app?vid=e927b886-504b-4487-88ff-004191c361a4"},"vehicle_type_id":"4","last_reported":1722704820,"current_range_meters":11200,"station_id":"ce4bhah2rcd13ifvqei0","pricing_plan_id":"cebpf4jnsgd1na2vs0mg"},{"bike_id":"62e2b235-169e-4194-8e31-7cd8600c5796","system_id":"levelo_inurba_marseille","lat":43.28458,"lon":5.35885,"is_reserved":false,"is_disabled":false,"rental_uris":{"android":"levelo://app?vid=62e2b235-169e-4194-8e31-7cd8600c5796","ios":"levelo://app?vid=62e2b235-169e-4194-8e31-7cd8600c5796"},"vehicle_type_id":"4","last_reported":1722704820,"current_range_meters":28800,"station_id":"ce4bhah2rcd13ifvqei0","pricing_plan_id":"cebpf4jnsgd1na2vs0mg"},{"bike_id":"cd28f429-d297-4d56-8ff4-ced5b2c3512b","system_id":"levelo_inurba_marseille","lat":43.28457,"lon":5.3588,"is_reserved":false,"is_disabled":false,"rental_uris":{"android":"levelo://app?vid=cd28f429-d297-4d56-8ff4-ced5b2c3512b","ios":"levelo://app?vid=cd28f429-d297-4d56-8ff4-ced5b2c3512b"},"vehicle_type_id":"4","last_reported":1722704820,"current_range_meters":30400,"station_id":"ce4bhah2rcd13ifvqei0","pricing_plan_id":"cebpf4jnsgd1na2vs0mg"},{"bike_id":"d40c1048-70c1-4f23-9dc5-591ab0d20ae0","system_id":"levelo_inurba_marseille","lat":43.28455,"lon":5.35886,"is_reserved":false,"is_disabled":false,"rental_uris":{"android":"levelo://app?vid=d40c1048-70c1-4f23-9dc5-591ab0d20ae0","ios":"levelo://app?vid=d40c1048-70c1-4f23-9dc5-591ab0d20ae0"},"vehicle_type_id":"4","last_reported":1722704820,"current_range_meters":1600,"station_id":"ce4bhah2rcd13ifvqei0","pricing_plan_id":"cebpf4jnsgd1na2vs0mg"},{"bike_id":"553cd0c8-cdb1-40b9-8e6b-bb509346747f","system_id":"levelo_inurba_marseille","lat":43.28452,"lon":5.35889,"is_reserved":false,"is_disabled":false,"rental_uris":{"android":"levelo://app?vid=553cd0c8-cdb1-40b9-8e6b-bb509346747f","ios":"levelo://app?vid=553cd0c8-cdb1-40b9-8e6b-bb509346747f"},"vehicle_type_id":"4","last_reported":1722704820,"current_range_meters":14400,"station_id":"ce4bhah2rcd13ifvqei0","pricing_plan_id":"cebpf4jnsgd1na2vs0mg"},{"bike_id":"954ffbf8-c337-4941-87a6-d7c1e16a0951","system_id":"levelo_inurba_marseille","lat":43.286178,"lon":5.351145,"is_reserved":false,"is_disabled":false,"rental_uris":{"android":"levelo://app?vid=954ffbf8-c337-4941-87a6-d7c1e16a0951","ios":"levelo://app?vid=954ffbf8-c337-4941-87a6-d7c1e16a0951"},"vehicle_type_id":"4","last_reported":1722704820,"current_range_meters":800,"station_id":"","pricing_plan_id":"cebpf4jnsgd1na2vs0mg"},{"bike_id":"eb4fb7c7-00e2-4199-a498-93f62d5738af","system_id":"levelo_inurba_marseille","lat":43.28621,"lon":5.35104,"is_reserved":false,"is_disabled":false,"rental_uris":{"android":"levelo://app?vid=eb4fb7c7-00e2-4199-a498-93f62d5738af","ios":"levelo://app?vid=eb4fb7c7-00e2-4199-a498-93f62d5738af"},"vehicle_type_id":"4","last_reported":1722704820,"current_range_meters":31200,"station_id":"ce4bhch2rcd13ifvqeug","pricing_plan_id":"cebpf4jnsgd1na2vs0mg"},{"bike_id":"e193c0ed-d7c1-45bf-9a4f-ae3a3521e817","system_id":"levelo_inurba_marseille","lat":43.28618,"lon":5.351045,"is_reserved":false,"is_disabled":false,"rental_uris":{"android":"levelo://app?vid=e193c0ed-d7c1-45bf-9a4f-ae3a3521e817","ios":"levelo://app?vid=e193c0ed-d7c1-45bf-9a4f-ae3a3521e817"},"vehicle_type_id":"4","last_reported":1722704820,"current_range_meters":30400,"station_id":"ce4bhch2rcd13ifvqeug","pricing_plan_id":"cebpf4jnsgd1na2vs0mg"},{"bike_id":"7b07ead5-1765-4aa1-b552-b0b5e39e45a1","system_id":"levelo_inurba_marseille","lat":43.28615,"lon":5.35105,"is_reserved":false,"is_disabled":false,"rental_uris":{"android":"levelo://app?vid=7b07ead5-1765-4aa1-b552-b0b5e39e45a1","ios":"levelo://app?vid=7b07ead5-1765-4aa1-b552-b0b5e39e45a1"},"vehicle_type_id":"4","last_reported":1722704820,"current_range_meters":25600,"station_id":"ce4bhch2rcd13ifvqeug","pricing_plan_id":"cebpf4jnsgd1na2vs0mg"},{"bike_id":"cc3fb206-6f17-483d-a901-14e9b5921a49","system_id":"levelo_inurba_marseille","lat":43.28616,"lon":5.351,"is_reserved":false,"is_disabled":false,"rental_uris":{"android":"levelo://app?vid=cc3fb206-6f17-483d-a901-14e9b5921a49","ios":"levelo://app?vid=cc3fb206-6f17-483d-a901-14e9b5921a49"},"vehicle_type_id":"4","last_reported":1722704820,"current_range_meters":31200,"station_id":"ce4bhch2rcd13ifvqeug","pricing_plan_id":"cebpf4jnsgd1na2vs0mg"},{"bike_id":"0658c39a-adb8-4f06-87d0-56452212a673","system_id":"levelo_inurba_marseille","lat":43.28616,"lon":5.35099,"is_reserved":false,"is_disabled":false,"rental_uris":{"android":"levelo://app?vid=0658c39a-adb8-4f06-87d0-56452212a673","ios":"levelo://app?vid=0658c39a-adb8-4f06-87d0-56452212a673"},"vehicle_type_id":"4","last_reported":1722704820,"current_range_meters":19200,"station_id":"ce4bhch2rcd13ifvqeug","pricing_plan_id":"cebpf4jnsgd1na2vs0mg"},{"bike_id":"be1deba4-8cb2-4bdb-9a07-1ea9e194bc59","system_id":"levelo_inurba_marseille","lat":43.28435,"lon":5.37508,"is_reserved":false,"is_disabled":false,"rental_uris":{"android":"levelo://app?vid=be1deba4-8cb2-4bdb-9a07-1ea9e194bc59","ios":"levelo://app?vid=be1deba4-8cb2-4bdb-9a07-1ea9e194bc59"},"vehicle_type_id":"4","last_reported":1722704820,"current_range_meters":23200,"station_id":"ce4bh412rcd13ifvqds0","pricing_plan_id":"cebpf4jnsgd1na2vs0mg"},{"bike_id":"d9a4083a-0b0a-41ec-93ef-760b473e63db","system_id":"levelo_inurba_marseille","lat":43.28613,"lon":5.35106,"is_reserved":false,"is_disabled":false,"rental_uris":{"android":"levelo://app?vid=d9a4083a-0b0a-41ec-93ef-760b473e63db","ios":"levelo://app?vid=d9a4083a-0b0a-41ec-93ef-760b473e63db"},"vehicle_type_id":"4","last_reported":1722704820,"current_range_meters":24000,"station_id":"","pricing_plan_id":"cebpf4jnsgd1na2vs0mg"},{"bike_id":"0c13b468-e71a-4bcf-8249-60ab75744b4f","system_id":"levelo_inurba_marseille","lat":43.28614,"lon":5.35102,"is_reserved":false,"is_disabled":false,"rental_uris":{"android":"levelo://app?vid=0c13b468-e71a-4bcf-8249-60ab75744b4f","ios":"levelo://app?vid=0c13b468-e71a-4bcf-8249-60ab75744b4f"},"vehicle_type_id":"4","last_reported":1722704820,"current_range_meters":31200,"station_id":"ce4bhch2rcd13ifvqeug","pricing_plan_id":"cebpf4jnsgd1na2vs0mg"},{"bike_id":"4b63968c-7a9a-473b-b688-274dfe684a8f","system_id":"levelo_inurba_marseille","lat":43.28613,"lon":5.35102,"is_reserved":false,"is_disabled":false,"rental_uris":{"android":"levelo://app?vid=4b63968c-7a9a-473b-b688-274dfe684a8f","ios":"levelo://app?vid=4b63968c-7a9a-473b-b688-274dfe684a8f"},"vehicle_type_id":"4","last_reported":1722704820,"current_range_meters":31200,"station_id":"","pricing_plan_id":"cebpf4jnsgd1na2vs0mg"},{"bike_id":"c0047a72-2939-4335-9082-571e717b8a69","system_id":"levelo_inurba_marseille","lat":43.28613,"lon":5.35101,"is_reserved":false,"is_disabled":false,"rental_uris":{"android":"levelo://app?vid=c0047a72-2939-4335-9082-571e717b8a69","ios":"levelo://app?vid=c0047a72-2939-4335-9082-571e717b8a69"},"vehicle_type_id":"4","last_reported":1722704820,"current_range_meters":20800,"station_id":"ce4bhch2rcd13ifvqeug","pricing_plan_id":"cebpf4jnsgd1na2vs0mg"},{"bike_id":"6f7aab78-ffda-4a9a-9ad4-14da62761616","system_id":"levelo_inurba_marseille","lat":43.28613,"lon":5.35101,"is_reserved":false,"is_disabled":false,"rental_uris":{"android":"levelo://app?vid=6f7aab78-ffda-4a9a-9ad4-14da62761616","ios":"levelo://app?vid=6f7aab78-ffda-4a9a-9ad4-14da62761616"},"vehicle_type_id":"4","last_reported":1722704820,"current_range_meters":30800,"station_id":"ce4bhch2rcd13ifvqeug","pricing_plan_id":"cebpf4jnsgd1na2vs0mg"},{"bike_id":"299dfdcd-9356-4dc8-aa08-6e2e51bb1b63","system_id":"levelo_inurba_marseille","lat":43.28612,"lon":5.35094,"is_reserved":false,"is_disabled":false,"rental_uris":{"android":"levelo://app?vid=299dfdcd-9356-4dc8-aa08-6e2e51bb1b63","ios":"levelo://app?vid=299dfdcd-9356-4dc8-aa08-6e2e51bb1b63"},"vehicle_type_id":"4","last_reported":1722704820,"current_range_meters":31200,"station_id":"ce4bhch2rcd13ifvqeug","pricing_plan_id":"cebpf4jnsgd1na2vs0mg"},{"bike_id":"57f0ddf0-3f90-45f0-9139-ef8d453d17a2","system_id":"levelo_inurba_marseille","lat":43.2861,"lon":5.351,"is_reserved":false,"is_disabled":false,"rental_uris":{"android":"levelo://app?vid=57f0ddf0-3f90-45f0-9139-ef8d453d17a2","ios":"levelo://app?vid=57f0ddf0-3f90-45f0-9139-ef8d453d17a2"},"vehicle_type_id":"4","last_reported":1722704820,"current_range_meters":31200,"station_id":"ce4bhch2rcd13ifvqeug","pricing_plan_id":"cebpf4jnsgd1na2vs0mg"},{"bike_id":"ac342c10-0af1-4155-8eea-ceb0f5f0a673","system_id":"levelo_inurba_marseille","lat":43.28425,"lon":5.37518,"is_reserved":false,"is_disabled":false,"rental_uris":{"android":"levelo://app?vid=ac342c10-0af1-4155-8eea-ceb0f5f0a673","ios":"levelo://app?vid=ac342c10-0af1-4155-8eea-ceb0f5f0a673"},"vehicle_type_id":"4","last_reported":1722704820,"current_range_meters":10400,"station_id":"ce4bh412rcd13ifvqds0","pricing_plan_id":"cebpf4jnsgd1na2vs0mg"},