{"last_updated":1686683079,"ttl":30,"version":"2.2","data":{"bikes":[{"bike_id":"a142fcc1-dd44-4e45-a4d3-f750f9811ffe","system_id":"levelo_inurba_marseille","lat":43.31251,"lon":5.36793,"is_reserved":false,"is_disabled":false,"rental_uris":{"android":"levelo://app?vid=a142fcc1-dd44-4e45-a4d3-f750f9811ffe","ios":"levelo://app?vid=a142fcc1-dd44-4e45-a4d3-f750f9811ffe"},"vehicle_type_id":"4","last_reported":1686683079,"current_range_meters":11200,"station_id":"","pricing_plan_id":"free"},{"bike_id":"2236174f-9b48-4e77-bc47-17f9275c2cb6","system_id":"levelo_inurba_marseille","lat":43.309076,"lon":5.368465,"is_reserved":false,"is_disabled":false,"rental_uris":{"android":"levelo://app?vid=2236174f-9b48-4e77-bc47-17f9275c2cb6","ios":"levelo://app?vid=2236174f-9b48-4e77-bc47-17f9275c2cb6"},"vehicle_type_id":"4","last_reported":1686683079,"current_range_meters":800,"station_id":"ce4bgn92rcd13ifvqbvg","pricing_plan_id":"free"},{"bike_id":"3e4f0745-948f-44b3-8131-0ab5c133513a","system_id":"levelo_inurba_marseille","lat":43.309076,"lon":5.368465,"is_reserved":false,"is_disabled":false,"rental_uris":{"android":"levelo://app?vid=3e4f0745-948f-44b3-8131-0ab5c133513a","ios":"levelo://app?vid=3e4f0745-948f-44b3-8131-0ab5c133513a"},"vehicle_type_id":"4","last_reported":1686683079,"current_range_meters":22800,"station_id":"ce4bgn92rcd13ifvqbvg","pricing_plan_id":"free"},{"bike_id":"5bf8b6b5-e4a6-4e54-9f23-7a2e4632bdfa","system_id":"levelo_inurba_marseille","lat":43.309076,"lon":5.368465,"is_reserved":false,"is_disabled":false,"rental_uris":{"android":"levelo://app?vid=5bf8b6b5-e4a6-4e54-9f23-7a2e4632bdfa","ios":"levelo://app?vid=5bf8b6b5-e4a6-4e54-9f23-7a2e4632bdfa"},"vehicle_type_id":"4","last_reported":1686683079,"current_range_meters":29600,"station_id":"ce4bgn92rcd13ifvqbvg","pricing_plan_id":"free"},{"bike_id":"034ba470-6970-4038-9ef3-7c4ef0a3569e","system_id":"levelo_inurba_marseille","lat":43.308606,"lon":5.372099,"is_reserved":false,"is_disabled":false,"rental_uris":{"android":"levelo://app?vid=034ba470-6970-4038-9ef3-7c4ef0a3569e","ios":"levelo://app?vid=034ba470-6970-4038-9ef3-7c4ef0a3569e"},"vehicle_type_id":"4","last_reported":1686683079,"current_range_meters":9600,"station_id":"ce4bguh2rcd13ifvqckg","pricing_plan_id":"free"},{"bike_id":"c467708f-edb2-41e1-9886-5f26b940ab77","system_id":"levelo_inurba_marseille","lat":43.31687,"lon":5.37217,"is_reserved":false,"is_disabled":false,"rental_uris":{"android":"levelo://app?vid=c467708f-edb2-41e1-9886-5f26b940ab77","ios":"levelo://app?vid=c467708f-edb2-41e1-9886-5f26b940ab77"},"vehicle_type_id":"4","last_reported":1686683079,"current_range_meters":25200,"station_id":"","pricing_plan_id":"free"},{"bike_id":"b81f946f-64cf-4e0b-baa9-17ca19b957cb","system_id":"levelo_inurba_marseille","lat":43.30799,"lon":5.37161,"is_reserved":false,"is_disabled":false,"rental_uris":{"android":"levelo://app?vid=b81f946f-64cf-4e0b-baa9-17ca19b957cb","ios":"levelo://app?vid=b81f946f-64cf-4e0b-baa9-17ca19b957cb"},"vehicle_type_id":"4","last_reported":1686683079,"current_range_meters":20400,"station_id":"","pricing_plan_id":"free"},{"bike_id":"76f5681c-8d7c-4b1e-812c-d50673a300b9","system_id":"levelo_inurba_marseille","lat":43.305368,"lon":5.367343,"is_reserved":false,"is_disabled":false,"rental_uris":{"android":"levelo://app?vid=76f5681c-8d7c-4b1e-812c-d50673a300b9","ios":"levelo://app?vid=76f5681c-8d7c-4b1e-812c-d50673a300b9"},"vehicle_type_id":"4","last_reported":1686683079,"current_range_meters":25600,"station_id":"ce4bgrp2rcd13ifvqc9g","pricing_plan_id":"free"},{"bike_id":"615e4ac2-8c31-4c13-a95a-51d4af1a6474","system_id":"levelo_inurba_marseille","lat":43.305714,"lon":5.365633,"is_reserved":false,"is_disabled":false,"rental_uris":{"android":"levelo://app?vid=615e4ac2-8c31-4c13-a95a-51d4af1a6474","ios":"levelo://app?vid=615e4ac2-8c31-4c13-a95a-51d4af1a6474"},"vehicle_type_id":"4","last_reported":1686683079,"current_range_meters":21200,"station_id":"ce4bgs12rcd13ifvqcag","pricing_plan_id":"free"},{"bike_id":"24b5a833-fbb4-41ab-a944-eef5346c8c23","system_id":"levelo_inurba_marseille","lat":43.3175,"lon":5.37522,"is_reserved":false,"is_disabled":false,"rental_uris":{"android":"levelo://app?vid=24b5a833-fbb4-41ab-a944-eef5346c8c23","ios":"levelo://app?vid=24b5a833-fbb4-41ab-a944-eef5346c8c23"},"vehicle_type_id":"4","last_reported":1686683079,"current_range_meters":9600,"station_id":"","pricing_plan_id":"free"},{"bike_id":"25f01d42-b32d-4e3e-b724-9b0a55e82783","system_id":"levelo_inurba_marseille","lat":43.305989,"lon":5.37225,"is_reserved":false,"is_disabled":false,"rental_uris":{"android":"levelo://app?vid=25f01d42-b32d-4e3e-b724-9b0a55e82783","ios":"levelo://app?vid=25f01d42-b32d-4e3e-b724-9b0a55e82783"},"vehicle_type_id":"4","last_reported":1686683079,"current_range_meters":31200,"station_id":"ce4bgqh2rcd13ifvqc4g","pricing_plan_id":"free"},{"bike_id":"c3c9649b-5aae-493d-b856-09fea924206f","system_id":"levelo_inurba_marseille","lat":43.31115,"lon":5.3777,"is_reserved":false,"is_disabled":false,"rental_uris":{"android":"levelo://app?vid=c3c9649b-5aae-493d-b856-09fea924206f","ios":"levelo://app?vid=c3c9649b-5aae-493d-b856-09fea924206f"},"vehicle_type_id":"4","last_reported":1686683079,"current_range_meters":5200,"station_id":"ce4bgt92rcd13ifvqcg0","pricing_plan_id":"free"},{"bike_id":"83614233-d39e-4eed-ad6b-5004b7d44f42","system_id":"levelo_inurba_marseille","lat":43.311125,"lon":5.377624,"is_reserved":false,"is_disabled":false,"rental_uris":{"android":"levelo://app?vid=83614233-d39e-4eed-ad6b-5004b7d44f42","ios":"levelo://app?vid=83614233-d39e-4eed-ad6b-5004b7d44f42"},"vehicle_type_id":"4","last_reported":1686683079,"current_range_meters":12400,"station_id":"ce4bgt92rcd13ifvqcg0","pricing_plan_id":"free"},{"bike_id":"a77f6230-181e-460f-ba09-5100d00d37d3","system_id":"levelo_inurba_marseille","lat":43.317075,"lon":5.377367,"is_reserved":false,"is_disabled":false,"rental_uris":{"android":"levelo://app?vid=a77f6230-181e-460f-ba09-5100d00d37d3","ios":"levelo://app?vid=a77f6230-181e-460f-ba09-5100d00d37d3"},"vehicle_type_id":"4","last_reported":1686683079,"current_range_meters":15600,"station_id":"ce4bgth2rcd13ifvqch0","pricing_plan_id":"free"},{"bike_id":"4a754460-fadd-46aa-8025-e29151f697b6","system_id":"levelo_inurba_marseille","lat":43.317075,"lon":5.377367,"is_reserved":false,"is_disabled":false,"rental_uris":{"android":"levelo://app?vid=4a754460-fadd-46aa-8025-e29151f697b6","ios":"levelo://app?vid=4a754460-fadd-46aa-8025-e29151f697b6"},"vehicle_type_id":"4","last_reported":1686683079,"current_range_meters":31200,"station_id":"ce4bgth2rcd13ifvqch0","pricing_plan_id":"free"},{"bike_id":"2424216c-0462-4ad0-b127-d0366c91b61c","system_id":"levelo_inurba_marseille","lat":43.317075,"lon":5.377367,"is_reserved":false,"is_disabled":false,"rental_uris":{"android":"levelo://app?vid=2424216c-0462-4ad0-b127-d0366c91b61c","ios":"levelo://app?vid=2424216c-0462-4ad0-b127-d0366c91b61c"},"vehicle_type_id":"4","last_reported":1686683079,"current_range_meters":30800,"station_id":"ce4bgth2rcd13ifvqch0","pricing_plan_id":"free"},{"bike_id":"ff78f526-10b8-468f-b250-f826397e5fbc","system_id":"levelo_inurba_marseille","lat":43.31869,"lon":5.37713,"is_reserved":false,"is_disabled":false,"rental_uris":{"android":"levelo://app?vid=ff78f526-10b8-468f-b250-f826397e5fbc","ios":"levelo://app?vid=ff78f526-10b8-468f-b250-f826397e5fbc"},"vehicle_type_id":"4","last_reported":1686683079,"current_range_meters":17200,"station_id":"","pricing_plan_id":"free"},{"bike_id":"09e2162d-8797-43ad-977d-8ed6ed96204e","system_id":"levelo_inurba_marseille","lat":43.30312,"lon":5.3689,"is_reserved":false,"is_disabled":false,"rental_uris":{"android":"levelo://app?vid=09e2162d-8797-43ad-977d-8ed6ed96204e","ios":"levelo://app?vid=09e2162d-8797-43ad-977d-8ed6ed96204e"},"vehicle_type_id":"4","last_reported":1686683079,"current_range_meters":16400,"station_id":"ce4bgqh2rcd13ifvqc5g","pricing_plan_id":"free"},{"bike_id":"f6abd20f-e21b-4dbe-a6bc-709e43f579cc","system_id":"levelo_inurba_marseille","lat":43.31588,"lon":5.38051,"is_reserved":false,"is_disabled":false,"rental_uris":{"android":"levelo://app?vid=f6abd20f-e21b-4dbe-a6bc-709e43f579cc","ios":"levelo://app?vid=f6abd20f-e21b-4dbe-a6bc-709e43f579cc"},"vehicle_type_id":"4","last_reported":1686683079,"current_range_meters":29600,"station_id":"","pricing_plan_id":"free"},{"bike_id":"d86a30f8-fff6-4641-bc2c-a1d6de478b4c","system_id":"levelo_inurba_marseille","lat":43.301939,"lon":5.366286,"is_reserved":false,"is_disabled":false,"rental_uris":{"android":"levelo://app?vid=d86a30f8-fff6-4641-bc2c-a1d6de478b4c","ios":"levelo://app?vid=d86a30f8-fff6-4641-bc2c-a1d6de478b4c"},"vehicle_type_id":"4","last_reported":1686683079,"current_range_meters":0,"station_id":"ce4bgrh2rcd13ifvqc8g","pricing_plan_id":"free"},{"bike_id":"09d7d7cd-dc1e-4bd5-8479-c5406973499a","system_id":"levelo_inurba_marseille","lat":43.308012,"lon":5.381511,"is_reserved":false,"is_disabled":false,"rental_uris":{"android":"levelo://app?vid=09d7d7cd-dc1e-4bd5-8479-c5406973499a","ios":"levelo://app?vid=09d7d7cd-dc1e-4bd5-8479-c5406973499a"},"vehicle_type_id":"4","last_reported":1686683079,"current_range_meters":15600,"station_id":"ce4bgt12rcd13ifvqce0","pricing_plan_id":"free"},{"bike_id":"e6d5f0fb-c8b3-49d7-b92d-2ef531c05609","system_id":"levelo_inurba_marseille","lat":43.30143,"lon":5.37414,"is_reserved":false,"is_disabled":false,"rental_uris":{"android":"levelo://app?vid=e6d5f0fb-c8b3-49d7-b92d-2ef531c05609","ios":"levelo://app?vid=e6d5f0fb-c8b3-49d7-b92d-2ef531c05609"},"vehicle_type_id":"4","last_reported":1686683079,"current_range_meters":29600,"station_id":"ce4bgs92rcd13ifvqcc0","pricing_plan_id":"free"},{"bike_id":"edfc63d6-3c54-4e3f-bfa5-fd9585ee064c","system_id":"levelo_inurba_marseille","lat":43.319935,"lon":5.381699,"is_reserved":false,"is_disabled":false,"rental_uris":{"android":"levelo://app?vid=edfc63d6-3c54-4e3f-bfa5-fd9585ee064c","ios":"levelo://app?vid=edfc63d6-3c54-4e3f-bfa5-fd9585ee064c"},"vehicle_type_id":"4","last_reported":1686683079,"current_range_meters":10800,"station_id":"ce4bhr12rcd13ifvqhpg","pricing_plan_id":"free"},{"bike_id":"7de29bad-bc40-4388-a98e-5a07caa7d030","system_id":"levelo_inurba_marseille","lat":43.319935,"lon":5.381699,"is_reserved":false,"is_disabled":false,"rental_uris":{"android":"levelo://app?vid=7de29bad-bc40-4388-a98e-5a07caa7d030","ios":"levelo://app?vid=7de29bad-bc40-4388-a98e-5a07caa7d030"},"vehicle_type_id":"4","last_reported":1686683079,"current_range_meters":6000,"station_id":"ce4bhr12rcd13ifvqhpg","pricing_plan_id":"free"},{"bike_id":"692f9216-e4db-44bd-a7bb-707044154d04","system_id":"levelo_inurba_marseille","lat":43.31368,"lon":5.38484,"is_reserved":false,"is_disabled":false,"rental_uris":{"android":"levelo://app?vid=692f9216-e4db-44bd-a7bb-707044154d04","ios":"levelo://app?vid=692f9216-e4db-44bd-a7bb-707044154d04"},"vehicle_type_id":"4","last_reported":1686683079,"current_range_meters":6000,"station_id":"ce4bgt92rcd13ifvqcf0","pricing_plan_id":"free"},{"bike_id":"684c2279-dec5-458d-a444-610198a470e2","system_id":"levelo_inurba_marseille","lat":43.311722,"lon":5.387247,"is_reserved":false,"is_disabled":false,"rental_uris":{"android":"levelo://app?vid=684c2279-dec5-458d-a444-610198a470e2","ios":"levelo://app?vid=684c2279-dec5-458d-a444-610198a470e2"},"vehicle_type_id":"4","last_reported":1686683079,"current_range_meters":27200,"station_id":"ce4bgv12rcd13ifvqcp0","pricing_plan_id":"free"},{"bike_id":"6b0456e2-41a3-4769-ba47-02f291ba16b2","system_id":"levelo_inurba_marseille","lat":43.311722,"lon":5.387247,"is_reserved":false,"is_disabled":false,"rental_uris":{"android":"levelo://app?vid=6b0456e2-41a3-4769-ba47-02f291ba16b2","ios":"levelo://app?vid=6b0456e2-41a3-4769-ba47-02f291ba16b2"},"vehicle_type_id":"4","last_reported":1686683079,"current_range_meters":18000,"station_id":"ce4bgv12rcd13ifvqcp0","pricing_plan_id":"free"},{"bike_id":"6f10fb61-59db-4520-ade8-9966ce388a6f","system_id":"levelo_inurba_marseille","lat":43.297794,"lon":5.370888,"is_reserved":false,"is_disabled":false,"rental_uris":{"android":"levelo://app?vid=6f10fb61-59db-4520-ade8-9966ce388a6f","ios":"levelo://app?vid=6f10fb61-59db-4520-ade8-9966ce388a6f"},"vehicle_type_id":"4","last_reported":1686683079,"current_range_meters":12800,"station_id":"ce4bgop2rcd13ifvqc1g","pricing_plan_id":"free"},{"bike_id":"04175af0-413a-455e-9149-1fdf32162007","system_id":"levelo_inurba_marseille","lat":43.297794,"lon":5.370888,"is_reserved":false,"is_disabled":false,"rental_uris":{"android":"levelo://app?vid=04175af0-413a-455e-9149-1fdf32162007","ios":"levelo://app?vid=04175af0-413a-455e-9149-1fdf32162007"},"vehicle_type_id":"4","last_reported":1686683079,"current_range_meters":0,"station_id":"ce4bgop2rcd13ifvqc1g","pricing_plan_id":"free"},{"bike_id":"36471ec8-f27c-4700-a124-a0186998388e","system_id":"levelo_inurba_marseille","lat":43.32685,"lon":5.37479,"is_reserved":false,"is_disabled":false,"rental_uris":{"android":"levelo://app?vid=36471ec8-f27c-4700-a124-a0186998388e","ios":"levelo://app?vid=36471ec8-f27c-4700-a124-a0186998388e"},"vehicle_type_id":"4","last_reported":1686683079,"current_range_meters":22800,"station_id":"","pricing_plan_id":"free"},{"bike_id":"b008a40b-52ae-461d-9bb5-99a7bee05b7b","system_id":"levelo_inurba_marseille","lat":43.29859,"lon":5.37482,"is_reserved":false,"is_disabled":false,"rental_uris":{"android":"levelo://app?vid=b008a40b-52ae-461d-9bb5-99a7bee05b7b","ios":"levelo://app?vid=b008a40b-52ae-461d-9bb5-99a7bee05b7b"},"vehicle_type_id":"4","last_reported":1686683079,"current_range_meters":30800,"station_id":"","pricing_plan_id":"free"},{"bike_id":"276442ee-92d7-42b0-afe9-df01f0310bb8","system_id":"levelo_inurba_marseille","lat":43.328371,"lon":5.366912,"is_reserved":false,"is_disabled":false,"rental_uris":{"android":"levelo://app?vid=276442ee-92d7-42b0-afe9-df01f0310bb8","ios":"levelo://app?vid=276442ee-92d7-42b0-afe9-df01f0310bb8"},"vehicle_type_id":"4","last_reported":1686683079,"current_range_meters":22800,"station_id":"ce4bhs92rcd13ifvqi0g","pricing_plan_id":"free"},{"bike_id":"aea550fa-13a9-4e84-ae9a-b5279d2b188b","system_id":"levelo_inurba_marseille","lat":43.29709,"lon":5.36603,"is_reserved":false,"is_disabled":false,"rental_uris":{"android":"levelo://app?vid=aea550fa-13a9-4e84-ae9a-b5279d2b188b","ios":"levelo://app?vid=aea550fa-13a9-4e84-ae9a-b5279d2b188b"},"vehicle_type_id":"4","last_reported":1686683079,"current_range_meters":4800,"station_id":"","pricing_plan_id":"free"},{"bike_id":"f30e7f38-8dd8-4f53-b31a-4eee3dc949f8","system_id":"levelo_inurba_marseille","lat":43.29703,"lon":5.36604,"is_reserved":false,"is_disabled":false,"rental_uris":{"android":"levelo://app?vid=f30e7f38-8dd8-4f53-b31a-4eee3dc949f8","ios":"levelo://app?vid=f30e7f38-8dd8-4f53-b31a-4eee3dc949f8"},"vehicle_type_id":"4","last_reported":1686683079,"current_range_meters":16000,"station_id":"","pricing_plan_id":"free"},{"bike_id":"88d0330c-5bb0-4a19-9b65-d4683b42e015","system_id":"levelo_inurba_marseille","lat":43.29683,"lon":5.36046,"is_reserved":false,"is_disabled":false,"rental_uris":{"android":"levelo://app?vid=88d0330c-5bb0-4a19-9b65-d4683b42e015","ios":"levelo://app?vid=88d0330c-5bb0-4a19-9b65-d4683b42e015"},"vehicle_type_id":"4","last_reported":1686683079,"current_range_meters":20800,"station_id":"ce4bgpp2rcd13ifvqc3g","pricing_plan_id":"free"},{"bike_id":"cefe2f8c-e23c-4303-bccf-ab15b8bda243","system_id":"levelo_inurba_marseille","lat":43.29573,"lon":5.367355,"is_reserved":false,"is_disabled":false,"rental_uris":{"android":"levelo://app?vid=cefe2f8c-e23c-4303-bccf-ab15b8bda243","ios":"levelo://app?vid=cefe2f8c-e23c-4303-bccf-ab15b8bda243"},"vehicle_type_id":"4","last_reported":1686683079,"current_range_meters":7200,"station_id":"ce4bgph2rcd13ifvqc2g","pricing_plan_id":"free"},{"bike_id":"85a080cd-3634-4143-af8d-b1698203d330","system_id":"levelo_inurba_marseille","lat":43.29573,"lon":5.367355,"is_reserved":false,"is_disabled":false,"rental_uris":{"android":"levelo://app?vid=85a080cd-3634-4143-af8d-b1698203d330","ios":"levelo://app?vid=85a080cd-3634-4143-af8d-b1698203d330"},"vehicle_type_id":"4","last_reported":1686683079,"current_range_meters":11200,"station_id":"ce4bgph2rcd13ifvqc2g","pricing_plan_id":"free"},{"bike_id":"5075f3e7-232c-462e-8d99-e4f44d51784f","system_id":"levelo_inurba_marseille","lat":43.296935,"lon":5.376544,"is_reserved":false,"is_disabled":false,"rental_uris":{"android":"levelo://app?vid=5075f3e7-232c-462e-8d99-e4f44d51784f","ios":"levelo://app?vid=5075f3e7-232c-462e-8d99-e4f44d51784f"},"vehicle_type_id":"4","last_reported":1686683079,"current_range_meters":29600,"station_id":"ce4bgkh2rcd13ifvqbl0","pricing_plan_id":"free"},{"bike_id":"3aeb5edb-6189-47cd-bb49-e2a928ab8142","system_id":"levelo_inurba_marseille","lat":43.317557,"lon":5.390173,"is_reserved":false,"is_disabled":false,"rental_uris":{"android":"levelo://app?vid=3aeb5edb-6189-47cd-bb49-e2a928ab8142","ios":"levelo://app?vid=3aeb5edb-6189-47cd-bb49-e2a928ab8142"},"vehicle_type_id":"4","last_reported":1686683079,"current_range_meters":17200,"station_id":"ce4bhqp2rcd13ifvqhng","pricing_plan_id":"free"},{"bike_id":"c53dc16d-2429-4c8e-bb40-2e14de4412e5","system_id":"levelo_inurba_marseille","lat":43.298037,"lon":5.381066,"is_reserved":false,"is_disabled":false,"rental_uris":{"android":"levelo://app?vid=c53dc16d-2429-4c8e-bb40-2e14de4412e5","ios":"levelo://app?vid=c53dc16d-2429-4c8e-bb40-2e14de4412e5"},"vehicle_type_id":"4","last_reported":1686683079,"current_range_meters":30400,"station_id":"ce4bgip2rcd13ifvqbb0","pricing_plan_id":"free"},{"bike_id":"dc227973-55d0-48d5-bd45-bdb9a423538e","system_id":"levelo_inurba_marseille","lat":43.298037,"lon":5.381066,"is_reserved":false,"is_disabled":false,"rental_uris":{"android":"levelo://app?vid=dc227973-55d0-48d5-bd45-bdb9a423538e","ios":"levelo://app?vid=dc227973-55d0-48d5-bd45-bdb9a423538e"},"vehicle_type_id":"4","last_reported":1686683079,"current_range_meters":14800,"station_id":"ce4bgip2rcd13ifvqbb0","pricing_plan_id":"free"},{"bike_id":"0ad489d2-30b6-4a65-8b20-b4a34c2709e9","system_id":"levelo_inurba_marseille","lat":43.298037,"lon":5.381066,"is_reserved":false,"is_disabled":false,"rental_uris":{"android":"levelo://app?vid=0ad489d2-30b6-4a65-8b20-b4a34c2709e9","ios":"levelo://app?vid=0ad489d2-30b6-4a65-8b20-b4a34c2709e9"},"vehicle_type_id":"4","last_reported":1686683079,"current_range_meters":800,"station_id":"ce4bgip2rcd13ifvqbb0","pricing_plan_id":"free"},{"bike_id":"a66ebc43-a8cc-40fc-8a2d-0202fdd05f79","system_id":"levelo_inurba_marseille","lat":43.298037,"lon":5.381066,"is_reserved":false,"is_disabled":false,"rental_uris":{"android":"levelo://app?vid=a66ebc43-a8cc-40fc-8a2d-0202fdd05f79","ios":"levelo://app?vid=a66ebc43-a8cc-40fc-8a2d-0202fdd05f79"},"vehicle_type_id":"4","last_reported":1686683079,"current_range_meters":5200,"station_id":"ce4bgip2rcd13ifvqbb0","pricing_plan_id":"free"},{"bike_id":"6b117c49-6ed8-49ac-a514-ead8d1ee5c5a","system_id":"levelo_inurba_marseille","lat":43.298037,"lon":5.381066,"is_reserved":false,"is_disabled":false,"rental_uris":{"android":"levelo://app?vid=6b117c49-6ed8-49ac-a514-ead8d1ee5c5a","ios":"levelo://app?vid=6b117c49-6ed8-49ac-a514-ead8d1ee5c5a"},"vehicle_type_id":"4","last_reported":1686683079,"current_range_meters":400,"station_id":"ce4bgip2rcd13ifvqbb0","pricing_plan_id":"free"},{"bike_id":"af112b6a-e3d0-4710-b1fb-2c95ebabf61a","system_id":"levelo_inurba_marseille","lat":43.304274,"lon":5.388873,"is_reserved":false,"is_disabled":false,"rental_uris":{"android":"levelo://app?vid=af112b6a-e3d0-4710-b1fb-2c95ebabf61a","ios":"levelo://app?vid=af112b6a-e3d0-4710-b1fb-2c95ebabf61a"},"vehicle_type_id":"4","last_reported":1686683079,"current_range_meters":8800,"station_id":"ce4bgk12rcd13ifvqbi0","pricing_plan_id":"free"},{"bike_id":"0cbfb058-bd23-4cd3-b7b0-be2f1e5bdfce","system_id":"levelo_inurba_marseille","lat":43.29604,"lon":5.37696,"is_reserved":false,"is_disabled":false,"rental_uris":{"android":"levelo://app?vid=0cbfb058-bd23-4cd3-b7b0-be2f1e5bdfce","ios":"levelo://app?vid=0cbfb058-bd23-4cd3-b7b0-be2f1e5bdfce"},"vehicle_type_id":"4","last_reported":1686683079,"current_range_meters":31200,"station_id":"","pricing_plan_id":"free"},{"bike_id":"38632cad-1d1f-46e2-9441-f2f7fb3e0bae","system_id":"levelo_inurba_marseille","lat":43.29515,"lon":5.37513,"is_reserved":false,"is_disabled":false,"rental_uris":{"android":"levelo://app?vid=38632cad-1d1f-46e2-9441-f2f7fb3e0bae","ios":"levelo://app?vid=38632cad-1d1f-46e2-9441-f2f7fb3e0bae"},"vehicle_type_id":"4","last_reported":1686683079,"current_range_meters":8800,"station_id":"ce4bgkp2rcd13ifvqbmg","pricing_plan_id":"free"},{"bike_id":"2c9ad911-25e0-4222-8751-d809dfadd582","system_id":"levelo_inurba_marseille","lat":43.32367,"lon":5.388836,"is_reserved":false,"is_disabled":false,"rental_uris":{"android":"levelo://app?vid=2c9ad911-25e0-4222-8751-d809dfadd582","ios":"levelo://app?vid=2c9ad911-25e0-4222-8751-d809dfadd582"},"vehicle_type_id":"4","last_reported":1686683079,"current_range_meters":19200,"station_id":"ce4bhqp2rcd13ifvqhog","pricing_plan_id":"free"},{"bike_id":"1629d2c8-01ae-44a1-86b8-3cdd3fba2be7","system_id":"levelo_inurba_marseille","lat":43.32367,"lon":5.388836,"is_reserved":false,"is_disabled":false,"rental_uris":{"android":"levelo://app?vid=1629d2c8-01ae-44a1-86b8-3cdd3fba2be7","ios":"levelo://app?vid=1629d2c8-01ae-44a1-86b8-3cdd3fba2be7"},"vehicle_type_id":"4","last_reported":1686683079,"current_range_meters":12800,"station_id":"ce4bhqp2rcd13ifvqhog","pricing_plan_id":"free"},{"bike_id":"d06456ec-a075-49ef-88a6-a611e3db32cf","system_id":"levelo_inurba_marseille","lat":43.32363,"lon":5.38882,"is_reserved":false,"is_disabled":false,"rental_uris":{"android":"levelo://app?vid=d06456ec-a075-49ef-88a6-a611e3db32cf","ios":"levelo://app?vid=d06456ec-a075-49ef-88a6-a611e3db32cf"},"vehicle_type_id":"4","last_reported":1686683079,"current_range_meters":22000,"station_id":"ce4bhqp2rcd13ifvqhog","pricing_plan_id":"free"},{"bike_id":"d733d6f4-b81d-43f0-84f7-c7ab46c7de50","system_id":"levelo_inurba_marseille","lat":43.32367,"lon":5.388836,"is_reserved":false,"is_disabled":false,"rental_uris":{"android":"levelo://app?vid=d733d6f4-b81d-43f0-84f7-c7ab46c7de50","ios":"levelo://app?vid=d733d6f4-b81d-43f0-84f7-c7ab46c7de50"},"vehicle_type_id":"4","last_reported":1686683079,"current_range_meters":2800,"station_id":"ce4bhqp2rcd13ifvqhog","pricing_plan_id":"free"},{"bike_id":"c249ee5d-650e-45b1-accb-7ac50e94d326","system_id":"levelo_inurba_marseille","lat":43.32367,"lon":5.38881,"is_reserved":false,"is_disabled":false,"rental_uris":{"android":"levelo://app?vid=c249ee5d-650e-45b1-accb-7ac50e94d326","ios":"levelo://app?vid=c249ee5d-650e-45b1-accb-7ac50e94d326"},"vehicle_type_id":"4","last_reported":1686683079,"current_range_meters":24400,"station_id":"ce4bhqp2rcd13ifvqhog","pricing_plan_id":"free"},{"bike_id":"af5b164a-9a2d-47d1-95a9-20b0c3a09788","system_id":"levelo_inurba_marseille","lat":43.32366,"lon":5.38886,"is_reserved":false,"is_disabled":false,"rental_uris":{"android":"levelo://app?vid=af5b164a-9a2d-47d1-95a9-20b0c3a09788","ios":"levelo://app?vid=af5b164a-9a2d-47d1-95a9-20b0c3a09788"},"vehicle_type_id":"4","last_reported":1686683079,"current_range_meters":6800,"station_id":"ce4bhqp2rcd13ifvqhog","pricing_plan_id":"free"},{"bike_id":"48cc3df8-936b-436f-8e2d-c442122567cd","system_id":"levelo_inurba_marseille","lat":43.292749,"lon":5.368402,"is_reserved":false,"is_disabled":false,"rental_uris":{"android":"levelo://app?vid=48cc3df8-936b-436f-8e2d-c442122567cd","ios":"levelo://app?vid=48cc3df8-936b-436f-8e2d-c442122567cd"},"vehicle_type_id":"4","last_reported":1686683079,"current_range_meters":18400,"station_id":"ce4bhbp2rcd13ifvqesg","pricing_plan_id":"free"},{"bike_id":"27896598-d204-4950-9346-6f0495103481","system_id":"levelo_inurba_marseille","lat":43.29602,"lon":5.381084,"is_reserved":false,"is_disabled":false,"rental_uris":{"android":"levelo://app?vid=27896598-d204-4950-9346-6f0495103481","ios":"levelo://app?vid=27896598-d204-4950-9346-6f0495103481"},"vehicle_type_id":"4","last_reported":1686683079,"current_range_meters":6400,"station_id":"ce4bgl12rcd13ifvqbo0","pricing_plan_id":"free"},{"bike_id":"7af9cb9c-ec65-4100-b632-8e87089a3fbc","system_id":"levelo_inurba_marseille","lat":43.292749,"lon":5.368402,"is_reserved":false,"is_disabled":false,"rental_uris":{"android":"levelo://app?vid=7af9cb9c-ec65-4100-b632-8e87089a3fbc","ios":"levelo://app?vid=7af9cb9c-ec65-4100-b632-8e87089a3fbc"},"vehicle_type_id":"4","last_reported":1686683079,"current_range_meters":3200,"station_id":"ce4bhbp2rcd13ifvqesg","pricing_plan_id":"free"},{"bike_id":"557e6f19-b01f-4da5-9a61-f16ab3863897","system_id":"levelo_inurba_marseille","lat":43.29532,"lon":5.38149,"is_reserved":false,"is_disabled":false,"rental_uris":{"android":"levelo://app?vid=557e6f19-b01f-4da5-9a61-f16ab3863897","ios":"levelo://app?vid=557e6f19-b01f-4da5-9a61-f16ab3863897"},"vehicle_type_id":"4","last_reported":1686683079,"current_range_meters":0,"station_id":"","pricing_plan_id":"free"},{"bike_id":"63e971f1-3fdd-401e-88b1-f27c39f77e97","system_id":"levelo_inurba_marseille","lat":43.29568,"lon":5.38298,"is_reserved":false,"is_disabled":false,"rental_uris":{"android":"levelo://app?vid=63e971f1-3fdd-401e-88b1-f27c39f77e97","ios":"levelo://app?vid=63e971f1-3fdd-401e-88b1-f27c39f77e97"},"vehicle_type_id":"4","last_reported":1686683079,"current_range_meters":4800,"station_id":"","pricing_plan_id":"free"},{"bike_id":"781c85d1-ea3a-4961-9aee-d8ac601fee2e","system_id":"levelo_inurba_marseille","lat":43.29266,"lon":5.35973,"is_reserved":false,"is_disabled":false,"rental_uris":{"android":"levelo://app?vid=781c85d1-ea3a-4961-9aee-d8ac601fee2e","ios":"levelo://app?vid=781c85d1-ea3a-4961-9aee-d8ac601fee2e"},"vehicle_type_id":"4","last_reported":1686683079,"current_range_meters":13600,"station_id":"","pricing_plan_id":"free"},{"bike_id":"bc2160ce-d82f-4091-92b8-753a5390acfa","system_id":"levelo_inurba_marseille","lat":43.303002,"lon":5.392142,"is_reserved":false,"is_disabled":false,"rental_uris":{"android":"levelo://app?vid=bc2160ce-d82f-4091-92b8-753a5390acfa","ios":"levelo://app?vid=bc2160ce-d82f-4091-92b8-753a5390acfa"},"vehicle_type_id":"4","last_reported":1686683079,"current_range_meters":400,"station_id":"ce4bgkh2rcd13ifvqbk0","pricing_plan_id":"free"},{"bike_id":"9509ad3d-cbf9-4665-98ac-4d4ecb6aa669","system_id":"levelo_inurba_marseille","lat":43.31043,"lon":5.39552,"is_reserved":false,"is_disabled":false,"rental_uris":{"android":"levelo://app?vid=9509ad3d-cbf9-4665-98ac-4d4ecb6aa669","ios":"levelo://app?vid=9509ad3d-cbf9-4665-98ac-4d4ecb6aa669"},"vehicle_type_id":"4","last_reported":1686683079,"current_range_meters":3600,"station_id":"","pricing_plan_id":"free"},{"bike_id":"283bc49d-571d-4529-9dee-c7c433f616b1","system_id":"levelo_inurba_marseille","lat":43.292311,"lon":5.360731,"is_reserved":false,"is_disabled":false,"rental_uris":{"android":"levelo://app?vid=283bc49d-571d-4529-9dee-c7c433f616b1","ios":"levelo://app?vid=283bc49d-571d-4529-9dee-c7c433f616b1"},"vehicle_type_id":"4","last_reported":1686683079,"current_range_meters":20800,"station_id":"ce4bhbh2rcd13ifvqeqg","pricing_plan_id":"free"},{"bike_id":"0dc49324-f40a-4b54-b802-2b8d72ff414f","system_id":"levelo_inurba_marseille","lat":43.300852,"lon":5.390859,"is_reserved":false,"is_disabled":false,"rental_uris":{"android":"levelo://app?vid=0dc49324-f40a-4b54-b802-2b8d72ff414f","ios":"levelo://app?vid=0dc49324-f40a-4b54-b802-2b8d72ff414f"},"vehicle_type_id":"4","last_reported":1686683079,"current_range_meters":28000,"station_id":"ce4bh192rcd13ifvqdb0","pricing_plan_id":"free"},{"bike_id":"2f3408e3-271e-4357-898c-b0016eb35d50","system_id":"levelo_inurba_marseille","lat":43.298764,"lon":5.388973,"is_reserved":false,"is_disabled":false,"rental_uris":{"android":"levelo://app?vid=2f3408e3-271e-4357-898c-b0016eb35d50","ios":"levelo://app?vid=2f3408e3-271e-4357-898c-b0016eb35d50"},"vehicle_type_id":"4","last_reported":1686683079,"current_range_meters":800,"station_id":"ce4bh392rcd13ifvqdl0","pricing_plan_id":"free"},{"bike_id":"5da6f8ba-8840-4455-8fd7-da215494db2e","system_id":"levelo_inurba_marseille","lat":43.313291,"lon":5.396838,"is_reserved":false,"is_disabled":false,"rental_uris":{"android":"levelo://app?vid=5da6f8ba-8840-4455-8fd7-da215494db2e","ios":"levelo://app?vid=5da6f8ba-8840-4455-8fd7-da215494db2e"},"vehicle_type_id":"4","last_reported":1686683079,"current_range_meters":0,"station_id":"ce4bgvp2rcd13ifvqcu0","pricing_plan_id":"free"},{"bike_id":"05ed5723-83d0-41ea-be60-46a379fcab4e","system_id":"levelo_inurba_marseille","lat":43.31324,"lon":5.39685,"is_reserved":false,"is_disabled":false,"rental_uris":{"android":"levelo://app?vid=05ed5723-83d0-41ea-be60-46a379fcab4e","ios":"levelo://app?vid=05ed5723-83d0-41ea-be60-46a379fcab4e"},"vehicle_type_id":"4","last_reported":1686683079,"current_range_meters":6400,"station_id":"ce4bgvp2rcd13ifvqcu0","pricing_plan_id":"free"},{"bike_id":"08161066-584b-42db-9ab6-07331d7189ec","system_id":"levelo_inurba_marseille","lat":43.31325,"lon":5.39689,"is_reserved":false,"is_disabled":false,"rental_uris":{"android":"levelo://app?vid=08161066-584b-42db-9ab6-07331d7189ec","ios":"levelo://app?vid=08161066-584b-42db-9ab6-07331d7189ec"},"vehicle_type_id":"4","last_reported":1686683079,"current_range_meters":0,"station_id":"ce4bgvp2rcd13ifvqcu0","pricing_plan_id":"free"},{"bike_id":"8339b4ca-85de-481e-bd5f-a07b3bf3e3ad","system_id":"levelo_inurba_marseille","lat":43.309038,"lon":5.396546,"is_reserved":false,"is_disabled":false,"rental_uris":{"android":"levelo://app?vid=8339b4ca-85de-481e-bd5f-a07b3bf3e3ad","ios":"levelo://app?vid=8339b4ca-85de-481e-bd5f-a07b3bf3e3ad"},"vehicle_type_id":"4","last_reported":1686683079,"current_range_meters":12000,"station_id":"ce4bh012rcd13ifvqcv0","pricing_plan_id":"free"},{"bike_id":"c77a0d01-a372-40c2-95f3-bccc264c5eba","system_id":"levelo_inurba_marseille","lat":43.309038,"lon":5.396546,"is_reserved":false,"is_disabled":false,"rental_uris":{"android":"levelo://app?vid=c77a0d01-a372-40c2-95f3-bccc264c5eba","ios":"levelo://app?vid=c77a0d01-a372-40c2-95f3-bccc264c5eba"},"vehicle_type_id":"4","last_reported":1686683079,"current_range_meters":14000,"station_id":"ce4bh012rcd13ifvqcv0","pricing_plan_id":"free"},{"bike_id":"57fb79af-93d9-4f9c-8c7d-458cee9baba6","system_id":"levelo_inurba_marseille","lat":43.309038,"lon":5.396546,"is_reserved":false,"is_disabled":false,"rental_uris":{"android":"levelo://app?vid=57fb79af-93d9-4f9c-8c7d-458cee9baba6","ios":"levelo://app?vid=57fb79af-93d9-4f9c-8c7d-458cee9baba6"},"vehicle_type_id":"4","last_reported":1686683079,"current_range_meters":0,"station_id":"ce4bh012rcd13ifvqcv0","pricing_plan_id":"free"},{"bike_id":"c9ca12a9-20b6-4deb-b996-7eff6c4d6d94","system_id":"levelo_inurba_marseille","lat":43.309038,"lon":5.396546,"is_reserved":false,"is_disabled":false,"rental_uris":{"android":"levelo://app?vid=c9ca12a9-20b6-4deb-b996-7eff6c4d6d94","ios":"levelo://app?vid=c9ca12a9-20b6-4deb-b996-7eff6c4d6d94"},"vehicle_type_id":"4","last_reported":1686683079,"current_range_meters":4400,"station_id":"ce4bh012rcd13ifvqcv0","pricing_plan_id":"free"},{"bike_id":"cfe07a6e-cebe-4e68-9fa2-5ebcaea50437","system_id":"levelo_inurba_marseille","lat":43.29529,"lon":5.385581,"is_reserved":false,"is_disabled":false,"rental_uris":{"android":"levelo://app?vid=cfe07a6e-cebe-4e68-9fa2-5ebcaea50437","ios":"levelo://app?vid=cfe07a6e-cebe-4e68-9fa2-5ebcaea50437"},"vehicle_type_id":"4","last_reported":1686683079,"current_range_meters":24400,"station_id":"ce4bgih2rcd13ifvqba0","pricing_plan_id":"free"},{"bike_id":"ad4b2903-1549-4280-81c2-0ade3ae6df46","system_id":"levelo_inurba_marseille","lat":43.294153,"lon":5.386305,"is_reserved":false,"is_disabled":false,"rental_uris":{"android":"levelo://app?vid=ad4b2903-1549-4280-81c2-0ade3ae6df46","ios":"levelo://app?vid=ad4b2903-1549-4280-81c2-0ade3ae6df46"},"vehicle_type_id":"4","last_reported":1686683079,"current_range_meters":3200,"station_id":"ce4bh2h2rcd13ifvqdh0","pricing_plan_id":"free"},{"bike_id":"867c41e0-b241-47ea-a13f-5837793c5553","system_id":"levelo_inurba_marseille","lat":43.294162,"lon":5.386292,"is_reserved":false,"is_disabled":false,"rental_uris":{"android":"levelo://app?vid=867c41e0-b241-47ea-a13f-5837793c5553","ios":"levelo://app?vid=867c41e0-b241-47ea-a13f-5837793c5553"},"vehicle_type_id":"4","last_reported":1686683079,"current_range_meters":6800,"station_id":"ce4bh2h2rcd13ifvqdh0","pricing_plan_id":"free"},{"bike_id":"7477edf6-3f84-40d4-8903-f1973a25f20b","system_id":"levelo_inurba_marseille","lat":43.29416,"lon":5.38625,"is_reserved":false,"is_disabled":false,"rental_uris":{"android":"levelo://app?vid=7477edf6-3f84-40d4-8903-f1973a25f20b","ios":"levelo://app?vid=7477edf6-3f84-40d4-8903-f1973a25f20b"},"vehicle_type_id":"4","last_reported":1686683079,"current_range_meters":4800,"station_id":"ce4bh2h2rcd13ifvqdh0","pricing_plan_id":"free"},{"bike_id":"96c23dcf-3d37-46a3-b0e1-56cf4fe2e800","system_id":"levelo_inurba_marseille","lat":43.289184,"lon":5.366408,"is_reserved":false,"is_disabled":false,"rental_uris":{"android":"levelo://app?vid=96c23dcf-3d37-46a3-b0e1-56cf4fe2e800","ios":"levelo://app?vid=96c23dcf-3d37-46a3-b0e1-56cf4fe2e800"},"vehicle_type_id":"4","last_reported":1686683079,"current_range_meters":4000,"station_id":"ce4bhap2rcd13ifvqek0","pricing_plan_id":"free"},{"bike_id":"38a73611-09cd-4ca5-9c36-dd1853420473","system_id":"levelo_inurba_marseille","lat":43.289184,"lon":5.366408,"is_reserved":false,"is_disabled":false,"rental_uris":{"android":"levelo://app?vid=38a73611-09cd-4ca5-9c36-dd1853420473","ios":"levelo://app?vid=38a73611-09cd-4ca5-9c36-dd1853420473"},"vehicle_type_id":"4","last_reported":1686683079,"current_range_meters":6800,"station_id":"ce4bhap2rcd13ifvqek0","pricing_plan_id":"free"},{"bike_id":"14dc1299-62af-4563-8ae6-497d2d22a8b3","system_id":"levelo_inurba_marseille","lat":43.289184,"lon":5.366408,"is_reserved":false,"is_disabled":false,"rental_uris":{"android":"levelo://app?vid=14dc1299-62af-4563-8ae6-497d2d22a8b3","ios":"levelo://app?vid=14dc1299-62af-4563-8ae6-497d2d22a8b3"},"vehicle_type_id":"4","last_reported":1686683079,"current_range_meters":22800,"station_id":"ce4bhap2rcd13ifvqek0","pricing_plan_id":"free"},{"bike_id":"4dcfc115-de22-48ea-8cc7-0d192de9b448","system_id":"levelo_inurba_marseille","lat":43.289184,"lon":5.366408,"is_reserved":false,"is_disabled":false,"rental_uris":{"android":"levelo://app?vid=4dcfc115-de22-48ea-8cc7-0d192de9b448","ios":"levelo://app?vid=4dcfc115-de22-48ea-8cc7-0d192de9b448"},"vehicle_type_id":"4","last_reported":1686683079,"current_range_meters":0,"station_id":"ce4bhap2rcd13ifvqek0","pricing_plan_id":"free"},{"bike_id":"0d5e3e64-3c92-4eb4-9958-136c92e281f9","system_id":"levelo_inurba_marseille","lat":43.289184,"lon":5.366408,"is_reserved":false,"is_disabled":false,"rental_uris":{"android":"levelo://app?vid=0d5e3e64-3c92-4eb4-9958-136c92e281f9","ios":"levelo://app?vid=0d5e3e64-3c92-4eb4-9958-136c92e281f9"},"vehicle_type_id":"4","last_reported":1686683079,"current_range_meters":16000,"station_id":"ce4bhap2rcd13ifvqek0","pricing_plan_id":"free"},{"bike_id":"f6b7aa41-2165-490b-9aa8-29ea657c8aff","system_id":"levelo_inurba_marseille","lat":43.289184,"lon":5.366408,"is_reserved":false,"is_disabled":false,"rental_uris":{"android":"levelo://app?vid=f6b7aa41-2165-490b-9aa8-29ea657c8aff","ios":"levelo://app?vid=f6b7aa41-2165-490b-9aa8-29ea657c8aff"},"vehicle_type_id":"4","last_reported":1686683079,"current_range_meters":5200,"station_id":"ce4bhap2rcd13ifvqek0","pricing_plan_id":"free"},{"bike_id":"32b44eb0-91fe-4829-922c-88ed04ba2ad1","system_id":"levelo_inurba_marseille","lat":43.289184,"lon":5.366408,"is_reserved":false,"is_disabled":false,"rental_uris":{"android":"levelo://app?vid=32b44eb0-91fe-4829-922c-88ed04ba2ad1","ios":"levelo://app?vid=32b44eb0-91fe-4829-922c-88ed04ba2ad1"},"vehicle_type_id":"4","last_reported":1686683079,"current_range_meters":29200,"station_id":"ce4bhap2rcd13ifvqek0","pricing_plan_id":"free"},{"bike_id":"ef2195f9-e831-475a-971f-793887504855","system_id":"levelo_inurba_marseille","lat":43.289184,"lon":5.366408,"is_reserved":false,"is_disabled":false,"rental_uris":{"android":"levelo://app?vid=ef2195f9-e831-475a-971f-793887504855","ios":"levelo://app?vid=ef2195f9-e831-475a-971f-793887504855"},"vehicle_type_id":"4","last_reported":1686683079,"current_range_meters":19200,"station_id":"ce4bhap2rcd13ifvqek0","pricing_plan_id":"free"},{"bike_id":"0a4beee8-1d0b-40b6-a628-dd56857f4693","system_id":"levelo_inurba_marseille","lat":43.294032,"lon":5.386342,"is_reserved":false,"is_disabled":false,"rental_uris":{"android":"levelo://app?vid=0a4beee8-1d0b-40b6-a628-dd56857f4693","ios":"levelo://app?vid=0a4beee8-1d0b-40b6-a628-dd56857f4693"},"vehicle_type_id":"4","last_reported":1686683079,"current_range_meters":11200,"station_id":"","pricing_plan_id":"free"},{"bike_id":"5ee9bb9f-343a-469a-aac7-578a7b204518","system_id":"levelo_inurba_marseille","lat":43.289184,"lon":5.366408,"is_reserved":false,"is_disabled":false,"rental_uris":{"android":"levelo://app?vid=5ee9bb9f-343a-469a-aac7-578a7b204518","ios":"levelo://app?vid=5ee9bb9f-343a-469a-aac7-578a7b204518"},"vehicle_type_id":"4","last_reported":1686683079,"current_range_meters":10400,"station_id":"ce4bhap2rcd13ifvqek0","pricing_plan_id":"free"},{"bike_id":"3f0488e0-05ce-4c9a-ad47-93a1714aadbc","system_id":"levelo_inurba_marseille","lat":43.292644,"lon":5.384257,"is_reserved":false,"is_disabled":false,"rental_uris":{"android":"levelo://app?vid=3f0488e0-05ce-4c9a-ad47-93a1714aadbc","ios":"levelo://app?vid=3f0488e0-05ce-4c9a-ad47-93a1714aadbc"},"vehicle_type_id":"4","last_reported":1686683079,"current_range_meters":5200,"station_id":"ce4bh692rcd13ifvqea0","pricing_plan_id":"free"},{"bike_id":"95491407-62a1-4129-867c-116625f1c469","system_id":"levelo_inurba_marseille","lat":43.292644,"lon":5.384257,"is_reserved":false,"is_disabled":false,"rental_uris":{"android":"levelo://app?vid=95491407-62a1-4129-867c-116625f1c469","ios":"levelo://app?vid=95491407-62a1-4129-867c-116625f1c469"},"vehicle_type_id":"4","last_reported":1686683079,"current_range_meters":3200,"station_id":"ce4bh692rcd13ifvqea0","pricing_plan_id":"free"},{"bike_id":"16b8e611-4c8a-478d-b889-088e949be235","system_id":"levelo_inurba_marseille","lat":43.292644,"lon":5.384257,"is_reserved":false,"is_disabled":false,"rental_uris":{"android":"levelo://app?vid=16b8e611-4c8a-478d-b889-088e949be235","ios":"levelo://app?vid=16b8e611-4c8a-478d-b889-088e949be235"},"vehicle_type_id":"4","last_reported":1686683079,"current_range_meters":2000,"station_id":"ce4bh692rcd13ifvqea0","pricing_plan_id":"free"},{"bike_id":"7261d600-2803-4a93-b5f7-b0bc8eeab33c","system_id":"levelo_inurba_marseille","lat":43.292644,"lon":5.384257,"is_reserved":false,"is_disabled":false,"rental_uris":{"android":"levelo://app?vid=7261d600-2803-4a93-b5f7-b0bc8eeab33c","ios":"levelo://app?vid=7261d600-2803-4a93-b5f7-b0bc8eeab33c"},"vehicle_type_id":"4","last_reported":1686683079,"current_range_meters":6800,"station_id":"ce4bh692rcd13ifvqea0","pricing_plan_id":"free"},{"bike_id":"da0a5056-6f67-4660-b031-210db48dda97","system_id":"levelo_inurba_marseille","lat":43.2926,"lon":5.38436,"is_reserved":false,"is_disabled":false,"rental_uris":{"android":"levelo://app?vid=da0a5056-6f67-4660-b031-210db48dda97","ios":"levelo://app?vid=da0a5056-6f67-4660-b031-210db48dda97"},"vehicle_type_id":"4","last_reported":1686683079,"current_range_meters":4000,"station_id":"ce4bh692rcd13ifvqea0","pricing_plan_id":"free"},{"bike_id":"797a979a-02ef-4317-8b00-67de50a310fa","system_id":"levelo_inurba_marseille","lat":43.29256,"lon":5.38436,"is_reserved":false,"is_disabled":false,"rental_uris":{"android":"levelo://app?vid=797a979a-02ef-4317-8b00-67de50a310fa","ios":"levelo://app?vid=797a979a-02ef-4317-8b00-67de50a310fa"},"vehicle_type_id":"4","last_reported":1686683079,"current_range_meters":17200,"station_id":"ce4bh692rcd13ifvqea0","pricing_plan_id":"free"},{"bike_id":"e9c8f58e-a5c5-421b-b76b-61228e4c662d","system_id":"levelo_inurba_marseille","lat":43.292644,"lon":5.384257,"is_reserved":false,"is_disabled":false,"rental_uris":{"android":"levelo://app?vid=e9c8f58e-a5c5-421b-b76b-61228e4c662d","ios":"levelo://app?vid=e9c8f58e-a5c5-421b-b76b-61228e4c662d"},"vehicle_type_id":"4","last_reported":1686683079,"current_range_meters":11200,"station_id":"ce4bh692rcd13ifvqea0","pricing_plan_id":"free"},{"bike_id":"848151c7-01e7-47e0-b52e-0cf1824c11be","system_id":"levelo_inurba_marseille","lat":43.29248,"lon":5.38441,"is_reserved":false,"is_disabled":false,"rental_uris":{"android":"levelo://app?vid=848151c7-01e7-47e0-b52e-0cf1824c11be","ios":"levelo://app?vid=848151c7-01e7-47e0-b52e-0cf1824c11be"},"vehicle_type_id":"4","last_reported":1686683079,"current_range_meters":1200,"station_id":"ce4bh692rcd13ifvqea0","pricing_plan_id":"free"},{"bike_id":"215e6328-0afb-4786-bd6a-4be661ca8d04","system_id":"levelo_inurba_marseille","lat":43.290104,"lon":5.356111,"is_reserved":false,"is_disabled":false,"rental_uris":{"android":"levelo://app?vid=215e6328-0afb-4786-bd6a-4be661ca8d04","ios":"levelo://app?vid=215e6328-0afb-4786-bd6a-4be661ca8d04"},"vehicle_type_id":"4","last_reported":1686683079,"current_range_meters":18000,"station_id":"ce4bhb92rcd13ifvqen0","pricing_plan_id":"free"},{"bike_id":"4a1abf9c-bbc8-412c-92ea-3f8fdc782f76","system_id":"levelo_inurba_marseille","lat":43.290103,"lon":5.356114,"is_reserved":false,"is_disabled":false,"rental_uris":{"android":"levelo://app?vid=4a1abf9c-bbc8-412c-92ea-3f8fdc782f76","ios":"levelo://app?vid=4a1abf9c-bbc8-412c-92ea-3f8fdc782f76"},"vehicle_type_id":"4","last_reported":1686683079,"current_range_meters":0,"station_id":"ce4bhb92rcd13ifvqen0","pricing_plan_id":"free"},{"bike_id":"48046761-31cb-4328-b393-bf9034c1ebf4","system_id":"levelo_inurba_marseille","lat":43.290104,"lon":5.356111,"is_reserved":false,"is_disabled":false,"rental_uris":{"android":"levelo://app?vid=48046761-31cb-4328-b393-bf9034c1ebf4","ios":"levelo://app?vid=48046761-31cb-4328-b393-bf9034c1ebf4"},"vehicle_type_id":"4","last_reported":1686683079,"current_range_meters":800,"station_id":"ce4bhb92rcd13ifvqen0","pricing_plan_id":"free"},{"bike_id":"084bcdae-f0f5-459c-91cc-bb5013f8d8ed","system_id":"levelo_inurba_marseille","lat":43.290103,"lon":5.356114,"is_reserved":false,"is_disabled":false,"rental_uris":{"android":"levelo://app?vid=084bcdae-f0f5-459c-91cc-bb5013f8d8ed","ios":"levelo://app?vid=084bcdae-f0f5-459c-91cc-bb5013f8d8ed"},"vehicle_type_id":"4","last_reported":1686683079,"current_range_meters":0,"station_id":"ce4bhb92rcd13ifvqen0","pricing_plan_id":"free"},{"bike_id":"1befaeb3-8212-48ce-b9ea-d474b1dfed43","system_id":"levelo_inurba_marseille","lat":43.290104,"lon":5.356111,"is_reserved":false,"is_disabled":false,"rental_uris":{"android":"levelo://app?vid=1befaeb3-8212-48ce-b9ea-d474b1dfed43","ios":"levelo://app?vid=1befaeb3-8212-48ce-b9ea-d474b1dfed43"},"vehicle_type_id":"4","last_reported":1686683079,"current_range_meters":1200,"station_id":"ce4bhb92rcd13ifvqen0","pricing_plan_id":"free"},{"bike_id":"c7f7de9f-59de-4d5d-bc8a-10e79b0256f4","system_id":"levelo_inurba_marseille","lat":43.29793,"lon":5.39349,"is_reserved":false,"is_disabled":false,"rental_uris":{"android":"levelo://app?vid=c7f7de9f-59de-4d5d-bc8a-10e79b0256f4","ios":"levelo://app?vid=c7f7de9f-59de-4d5d-bc8a-10e79b0256f4"},"vehicle_type_id":"4","last_reported":1686683079,"current_range_meters":0,"station_id":"chh1huq6cuj3fo74tm60","pricing_plan_id":"free"},{"bike_id":"7a8ee1d0-0cf9-4ced-aea6-17bc4447d478","system_id":"levelo_inurba_marseille","lat":43.29514,"lon":5.39031,"is_reserved":false,"is_disabled":false,"rental_uris":{"android":"levelo://app?vid=7a8ee1d0-0cf9-4ced-aea6-17bc4447d478","ios":"levelo://app?vid=7a8ee1d0-0cf9-4ced-aea6-17bc4447d478"},"vehicle_type_id":"4","last_reported":1686683079,"current_range_meters":28400,"station_id":"ce4bh3p2rcd13ifvqdp0","pricing_plan_id":"free"},{"bike_id":"8d00fd40-ee50-4fdf-a7cc-c5c22e44958c","system_id":"levelo_inurba_marseille","lat":43.295169,"lon":5.390426,"is_reserved":false,"is_disabled":false,"rental_uris":{"android":"levelo://app?vid=8d00fd40-ee50-4fdf-a7cc-c5c22e44958c","ios":"levelo://app?vid=8d00fd40-ee50-4fdf-a7cc-c5c22e44958c"},"vehicle_type_id":"4","last_reported":1686683079,"current_range_meters":27200,"station_id":"ce4bh3p2rcd13ifvqdp0","pricing_plan_id":"free"},{"bike_id":"808b5845-ee3f-445d-8fff-057131e46dd4","system_id":"levelo_inurba_marseille","lat":43.289741,"lon":5.378306,"is_reserved":false,"is_disabled":false,"rental_uris":{"android":"levelo://app?vid=808b5845-ee3f-445d-8fff-057131e46dd4","ios":"levelo://app?vid=808b5845-ee3f-445d-8fff-057131e46dd4"},"vehicle_type_id":"4","last_reported":1686683079,"current_range_meters":8000,"station_id":"ce4bh9p2rcd13ifvqed0","pricing_plan_id":"free"},{"bike_id":"1a4544db-5834-4c86-b851-a618af38ccf1","system_id":"levelo_inurba_marseille","lat":43.28856,"lon":5.358371,"is_reserved":false,"is_disabled":false,"rental_uris":{"android":"levelo://app?vid=1a4544db-5834-4c86-b851-a618af38ccf1","ios":"levelo://app?vid=1a4544db-5834-4c86-b851-a618af38ccf1"},"vehicle_type_id":"4","last_reported":1686683079,"current_range_meters":8800,"station_id":"ce4bhb12rcd13ifvqem0","pricing_plan_id":"free"},{"bike_id":"e82d84c1-e26b-4b12-9d22-a1a7cd256c43","system_id":"levelo_inurba_marseille","lat":43.288563,"lon":5.358489,"is_reserved":false,"is_disabled":false,"rental_uris":{"android":"levelo://app?vid=e82d84c1-e26b-4b12-9d22-a1a7cd256c43","ios":"levelo://app?vid=e82d84c1-e26b-4b12-9d22-a1a7cd256c43"},"vehicle_type_id":"4","last_reported":1686683079,"current_range_meters":4800,"station_id":"ce4bhb12rcd13ifvqem0","pricing_plan_id":"free"},{"bike_id":"f09eb0b3-578b-4278-bc05-347a6afbcb6f","system_id":"levelo_inurba_marseille","lat":43.28856,"lon":5.358371,"is_reserved":false,"is_disabled":false,"rental_uris":{"android":"levelo://app?vid=f09eb0b3-578b-4278-bc05-347a6afbcb6f","ios":"levelo://app?vid=f09eb0b3-578b-4278-bc05-347a6afbcb6f"},"vehicle_type_id":"4","last_reported":1686683079,"current_range_meters":13600,"station_id":"ce4bhb12rcd13ifvqem0","pricing_plan_id":"free"},{"bike_id":"1fa2dff8-a470-4862-89a5-d2cedf6af01f","system_id":"levelo_inurba_marseille","lat":43.28856,"lon":5.358371,"is_reserved":false,"is_disabled":false,"rental_uris":{"android":"levelo://app?vid=1fa2dff8-a470-4862-89a5-d2cedf6af01f","ios":"levelo://app?vid=1fa2dff8-a470-4862-89a5-d2cedf6af01f"},"vehicle_type_id":"4","last_reported":1686683079,"current_range_meters":5200,"station_id":"ce4bhb12rcd13ifvqem0","pricing_plan_id":"free"},{"bike_id":"6485b115-9dfe-4b29-b1e3-d3afd704a8be","system_id":"levelo_inurba_marseille","lat":43.337317,"lon":5.374437,"is_reserved":false,"is_disabled":false,"rental_uris":{"android":"levelo://app?vid=6485b115-9dfe-4b29-b1e3-d3afd704a8be","ios":"levelo://app?vid=6485b115-9dfe-4b29-b1e3-d3afd704a8be"},"vehicle_type_id":"4","last_reported":1686683079,"current_range_meters":28800,"station_id":"","pricing_plan_id":"free"},{"bike_id":"c0fb8083-e02d-4dec-b1b9-fa095e6c5b75","system_id":"levelo_inurba_marseille","lat":43.337396,"lon":5.374526,"is_reserved":false,"is_disabled":false,"rental_uris":{"android":"levelo://app?vid=c0fb8083-e02d-4dec-b1b9-fa095e6c5b75","ios":"levelo://app?vid=c0fb8083-e02d-4dec-b1b9-fa095e6c5b75"},"vehicle_type_id":"4","last_reported":1686683079,"current_range_meters":12000,"station_id":"ce4bhp92rcd13ifvqhag","pricing_plan_id":"free"},{"bike_id":"ea03c79d-f315-40db-8e1e-c8c7f4d4a21b","system_id":"levelo_inurba_marseille","lat":43.33745,"lon":5.37441,"is_reserved":false,"is_disabled":false,"rental_uris":{"android":"levelo://app?vid=ea03c79d-f315-40db-8e1e-c8c7f4d4a21b","ios":"levelo://app?vid=ea03c79d-f315-40db-8e1e-c8c7f4d4a21b"},"vehicle_type_id":"4","last_reported":1686683079,"current_range_meters":29200,"station_id":"","pricing_plan_id":"free"},{"bike_id":"d3f4d128-e3e0-42f3-90d4-976936865e13","system_id":"levelo_inurba_marseille","lat":43.33753,"lon":5.37396,"is_reserved":false,"is_disabled":false,"rental_uris":{"android":"levelo://app?vid=d3f4d128-e3e0-42f3-90d4-976936865e13","ios":"levelo://app?vid=d3f4d128-e3e0-42f3-90d4-976936865e13"},"vehicle_type_id":"4","last_reported":1686683079,"current_range_meters":8000,"station_id":"","pricing_plan_id":"free"},{"bike_id":"588e34a7-ba7a-48c7-91de-0e47ded90344","system_id":"levelo_inurba_marseille","lat":43.33761,"lon":5.37459,"is_reserved":false,"is_disabled":false,"rental_uris":{"android":"levelo://app?vid=588e34a7-ba7a-48c7-91de-0e47ded90344","ios":"levelo://app?vid=588e34a7-ba7a-48c7-91de-0e47ded90344"},"vehicle_type_id":"4","last_reported":1686683079,"current_range_meters":30800,"station_id":"","pricing_plan_id":"free"},{"bike_id":"b54d7825-53c3-4d57-b48f-bc67877c2517","system_id":"levelo_inurba_marseille","lat":43.337628,"lon":5.374598,"is_reserved":false,"is_disabled":false,"rental_uris":{"android":"levelo://app?vid=b54d7825-53c3-4d57-b48f-bc67877c2517","ios":"levelo://app?vid=b54d7825-53c3-4d57-b48f-bc67877c2517"},"vehicle_type_id":"4","last_reported":1686683079,"current_range_meters":30800,"station_id":"","pricing_plan_id":"free"},{"bike_id":"c0035fa8-7567-4895-9504-f7c53ce06a1a","system_id":"levelo_inurba_marseille","lat":43.301117,"lon":5.398795,"is_reserved":false,"is_disabled":false,"rental_uris":{"android":"levelo://app?vid=c0035fa8-7567-4895-9504-f7c53ce06a1a","ios":"levelo://app?vid=c0035fa8-7567-4895-9504-f7c53ce06a1a"},"vehicle_type_id":"4","last_reported":1686683079,"current_range_meters":27200,"station_id":"ce4bh0h2rcd13ifvqd40","pricing_plan_id":"free"},{"bike_id":"be9772c8-43c4-4f89-b42d-3f810de5517f","system_id":"levelo_inurba_marseille","lat":43.295196,"lon":5.39397,"is_reserved":false,"is_disabled":false,"rental_uris":{"android":"levelo://app?vid=be9772c8-43c4-4f89-b42d-3f810de5517f","ios":"levelo://app?vid=be9772c8-43c4-4f89-b42d-3f810de5517f"},"vehicle_type_id":"4","last_reported":1686683079,"current_range_meters":26400,"station_id":"ce4bh292rcd13ifvqdf0","pricing_plan_id":"free"},{"bike_id":"0166d14d-130f-4e84-a441-a16724dc32fc","system_id":"levelo_inurba_marseille","lat":43.298681,"lon":5.397225,"is_reserved":false,"is_disabled":false,"rental_uris":{"android":"levelo://app?vid=0166d14d-130f-4e84-a441-a16724dc32fc","ios":"levelo://app?vid=0166d14d-130f-4e84-a441-a16724dc32fc"},"vehicle_type_id":"4","last_reported":1686683079,"current_range_meters":12400,"station_id":"ce4bh0h2rcd13ifvqd50","pricing_plan_id":"free"},{"bike_id":"a7105e77-4086-40ea-addd-a715a28be212","system_id":"levelo_inurba_marseille","lat":43.286591,"lon":5.363346,"is_reserved":false,"is_disabled":false,"rental_uris":{"android":"levelo://app?vid=a7105e77-4086-40ea-addd-a715a28be212","ios":"levelo://app?vid=a7105e77-4086-40ea-addd-a715a28be212"},"vehicle_type_id":"4","last_reported":1686683079,"current_range_meters":6000,"station_id":"ce4bhah2rcd13ifvqej0","pricing_plan_id":"free"},{"bike_id":"5d3de7d3-b04f-487c-a7ae-45bb6dd1817f","system_id":"levelo_inurba_marseille","lat":43.286591,"lon":5.363346,"is_reserved":false,"is_disabled":false,"rental_uris":{"android":"levelo://app?vid=5d3de7d3-b04f-487c-a7ae-45bb6dd1817f","ios":"levelo://app?vid=5d3de7d3-b04f-487c-a7ae-45bb6dd1817f"},"vehicle_type_id":"4","last_reported":1686683079,"current_range_meters":12000,"station_id":"ce4bhah2rcd13ifvqej0","pricing_plan_id":"free"},{"bike_id":"be5d14ba-6060-4d92-a880-cdd27c0fbf7d","system_id":"levelo_inurba_marseille","lat":43.287011,"lon":5.373825,"is_reserved":false,"is_disabled":false,"rental_uris":{"android":"levelo://app?vid=be5d14ba-6060-4d92-a880-cdd27c0fbf7d","ios":"levelo://app?vid=be5d14ba-6060-4d92-a880-cdd27c0fbf7d"},"vehicle_type_id":"4","last_reported":1686683079,"current_range_meters":0,"station_id":"","pricing_plan_id":"free"},{"bike_id":"6a6fc648-b063-4d57-85b2-386c54e208bc","system_id":"levelo_inurba_marseille","lat":43.286591,"lon":5.363346,"is_reserved":false,"is_disabled":false,"rental_uris":{"android":"levelo://app?vid=6a6fc648-b063-4d57-85b2-386c54e208bc","ios":"levelo://app?vid=6a6fc648-b063-4d57-85b2-386c54e208bc"},"vehicle_type_id":"4","last_reported":1686683079,"current_range_meters":17600,"station_id":"ce4bhah2rcd13ifvqej0","pricing_plan_id":"free"},{"bike_id":"4be5dcf8-abb9-4ab4-b59f-540cd5199675","system_id":"levelo_inurba_marseille","lat":43.286591,"lon":5.363346,"is_reserved":false,"is_disabled":false,"rental_uris":{"android":"levelo://app?vid=4be5dcf8-abb9-4ab4-b59f-540cd5199675","ios":"levelo://app?vid=4be5dcf8-abb9-4ab4-b59f-540cd5199675"},"vehicle_type_id":"4","last_reported":1686683079,"current_range_meters":14000,"station_id":"ce4bhah2rcd13ifvqej0","pricing_plan_id":"free"},{"bike_id":"ff4c2f94-370a-4d8e-9a31-28d6d0aec4dc","system_id":"levelo_inurba_marseille","lat":43.298681,"lon":5.397225,"is_reserved":false,"is_disabled":false,"rental_uris":{"android":"levelo://app?vid=ff4c2f94-370a-4d8e-9a31-28d6d0aec4dc","ios":"levelo://app?vid=ff4c2f94-370a-4d8e-9a31-28d6d0aec4dc"},"vehicle_type_id":"4","last_reported":1686683079,"current_range_meters":1200,"station_id":"ce4bh0h2rcd13ifvqd50","pricing_plan_id":"free"},{"bike_id":"9cf6f045-0f26-44fb-94fc-3f5f7745fa98","system_id":"levelo_inurba_marseille","lat":43.2866,"lon":5.36351,"is_reserved":false,"is_disabled":false,"rental_uris":{"android":"levelo://app?vid=9cf6f045-0f26-44fb-94fc-3f5f7745fa98","ios":"levelo://app?vid=9cf6f045-0f26-44fb-94fc-3f5f7745fa98"},"vehicle_type_id":"4","last_reported":1686683079,"current_range_meters":0,"station_id":"ce4bhah2rcd13ifvqej0","pricing_plan_id":"free"},{"bike_id":"5b79b030-fa71-4c71-bef4-ba06afb9aa28","system_id":"levelo_inurba_marseille","lat":43.28693,"lon":5.37384,"is_reserved":false,"is_disabled":false,"rental_uris":{"android":"levelo://app?vid=5b79b030-fa71-4c71-bef4-ba06afb9aa28","ios":"levelo://app?vid=5b79b030-fa71-4c71-bef4-ba06afb9aa28"},"vehicle_type_id":"4","last_reported":1686683079,"current_range_meters":19600,"station_id":"","pricing_plan_id":"free"},{"bike_id":"35a2310b-3e20-4aca-abd7-0b06627cb930","system_id":"levelo_inurba_marseille","lat":43.295194,"lon":5.39397,"is_reserved":false,"is_disabled":false,"rental_uris":{"android":"levelo://app?vid=35a2310b-3e20-4aca-abd7-0b06627cb930","ios":"levelo://app?vid=35a2310b-3e20-4aca-abd7-0b06627cb930"},"vehicle_type_id":"4","last_reported":1686683079,"current_range_meters":29600,"station_id":"ce4bh292rcd13ifvqdf0","pricing_plan_id":"free"},{"bike_id":"3e09701e-91fe-4d65-973a-00b13427daa5","system_id":"levelo_inurba_marseille","lat":43.29029,"lon":5.38633,"is_reserved":false,"is_disabled":false,"rental_uris":{"android":"levelo://app?vid=3e09701e-91fe-4d65-973a-00b13427daa5","ios":"levelo://app?vid=3e09701e-91fe-4d65-973a-00b13427daa5"},"vehicle_type_id":"4","last_reported":1686683079,"current_range_meters":19200,"station_id":"ce4bh4p2rcd13ifvqe0g","pricing_plan_id":"free"},{"bike_id":"0b5a8fd1-c631-4cab-84c8-cb49da56e222","system_id":"levelo_inurba_marseille","lat":43.29027,"lon":5.38642,"is_reserved":false,"is_disabled":false,"rental_uris":{"android":"levelo://app?vid=0b5a8fd1-c631-4cab-84c8-cb49da56e222","ios":"levelo://app?vid=0b5a8fd1-c631-4cab-84c8-cb49da56e222"},"vehicle_type_id":"4","last_reported":1686683079,"current_range_meters":26400,"station_id":"ce4bh4p2rcd13ifvqe0g","pricing_plan_id":"free"},{"bike_id":"a7f81aec-7604-4b22-b094-1e8e6c69274b","system_id":"levelo_inurba_marseille","lat":43.286039,"lon":5.370681,"is_reserved":false,"is_disabled":false,"rental_uris":{"android":"levelo://app?vid=a7f81aec-7604-4b22-b094-1e8e6c69274b","ios":"levelo://app?vid=a7f81aec-7604-4b22-b094-1e8e6c69274b"},"vehicle_type_id":"4","last_reported":1686683079,"current_range_meters":4800,"station_id":"ce4bht12rcd13ifvqi60","pricing_plan_id":"free"},{"bike_id":"bc171ba6-4366-4f6d-a9c9-2e9124ddb71c","system_id":"levelo_inurba_marseille","lat":43.286039,"lon":5.370679,"is_reserved":false,"is_disabled":false,"rental_uris":{"android":"levelo://app?vid=bc171ba6-4366-4f6d-a9c9-2e9124ddb71c","ios":"levelo://app?vid=bc171ba6-4366-4f6d-a9c9-2e9124ddb71c"},"vehicle_type_id":"4","last_reported":1686683079,"current_range_meters":14400,"station_id":"ce4bht12rcd13ifvqi60","pricing_plan_id":"free"},{"bike_id":"d7a27e8d-b763-4424-a828-c6574598aa0a","system_id":"levelo_inurba_marseille","lat":43.287184,"lon":5.37937,"is_reserved":false,"is_disabled":false,"rental_uris":{"android":"levelo://app?vid=d7a27e8d-b763-4424-a828-c6574598aa0a","ios":"levelo://app?vid=d7a27e8d-b763-4424-a828-c6574598aa0a"},"vehicle_type_id":"4","last_reported":1686683079,"current_range_meters":14000,"station_id":"ce4bh9p2rcd13ifvqec0","pricing_plan_id":"free"},{"bike_id":"f6eec8ef-4fe5-4525-a376-def084cad5c6","system_id":"levelo_inurba_marseille","lat":43.287184,"lon":5.37937,"is_reserved":false,"is_disabled":false,"rental_uris":{"android":"levelo://app?vid=f6eec8ef-4fe5-4525-a376-def084cad5c6","ios":"levelo://app?vid=f6eec8ef-4fe5-4525-a376-def084cad5c6"},"vehicle_type_id":"4","last_reported":1686683079,"current_range_meters":13200,"station_id":"ce4bh9p2rcd13ifvqec0","pricing_plan_id":"free"},{"bike_id":"cfff95a2-018c-4a9f-a29c-e0815f3d7e42","system_id":"levelo_inurba_marseille","lat":43.287185,"lon":5.379373,"is_reserved":false,"is_disabled":false,"rental_uris":{"android":"levelo://app?vid=cfff95a2-018c-4a9f-a29c-e0815f3d7e42","ios":"levelo://app?vid=cfff95a2-018c-4a9f-a29c-e0815f3d7e42"},"vehicle_type_id":"4","last_reported":1686683079,"current_range_meters":15200,"station_id":"ce4bh9p2rcd13ifvqec0","pricing_plan_id":"free"},{"bike_id":"7ed3d3d8-7dd8-4f3f-b986-d2cd05fee469","system_id":"levelo_inurba_marseille","lat":43.287185,"lon":5.379373,"is_reserved":false,"is_disabled":false,"rental_uris":{"android":"levelo://app?vid=7ed3d3d8-7dd8-4f3f-b986-d2cd05fee469","ios":"levelo://app?vid=7ed3d3d8-7dd8-4f3f-b986-d2cd05fee469"},"vehicle_type_id":"4","last_reported":1686683079,"current_range_meters":10800,"station_id":"ce4bh9p2rcd13ifvqec0","pricing_plan_id":"free"},{"bike_id":"2b21876a-6264-4fb4-b344-e598dbc527d3","system_id":"levelo_inurba_marseille","lat":43.28502,"lon":5.37446,"is_reserved":false,"is_disabled":false,"rental_uris":{"android":"levelo://app?vid=2b21876a-6264-4fb4-b344-e598dbc527d3","ios":"levelo://app?vid=2b21876a-6264-4fb4-b344-e598dbc527d3"},"vehicle_type_id":"4","last_reported":1686683079,"current_range_meters":9200,"station_id":"","pricing_plan_id":"free"},{"bike_id":"9319fa0d-7fac-4367-b608-04f2cab0c876","system_id":"levelo_inurba_marseille","lat":43.291994,"lon":5.392907,"is_reserved":false,"is_disabled":false,"rental_uris":{"android":"levelo://app?vid=9319fa0d-7fac-4367-b608-04f2cab0c876","ios":"levelo://app?vid=9319fa0d-7fac-4367-b608-04f2cab0c876"},"vehicle_type_id":"4","last_reported":1686683079,"current_range_meters":10800,"station_id":"ce4bh192rcd13ifvqdd0","pricing_plan_id":"free"},{"bike_id":"57334764-c3ab-45cd-9f29-b8eb7306d5e4","system_id":"levelo_inurba_marseille","lat":43.291994,"lon":5.392907,"is_reserved":false,"is_disabled":false,"rental_uris":{"android":"levelo://app?vid=57334764-c3ab-45cd-9f29-b8eb7306d5e4","ios":"levelo://app?vid=57334764-c3ab-45cd-9f29-b8eb7306d5e4"},"vehicle_type_id":"4","last_reported":1686683079,"current_range_meters":13600,"station_id":"ce4bh192rcd13ifvqdd0","pricing_plan_id":"free"},{"bike_id":"15690984-f6de-4386-879a-24ff9fd207b4","system_id":"levelo_inurba_marseille","lat":43.291994,"lon":5.392907,"is_reserved":false,"is_disabled":false,"rental_uris":{"android":"levelo://app?vid=15690984-f6de-4386-879a-24ff9fd207b4","ios":"levelo://app?vid=15690984-f6de-4386-879a-24ff9fd207b4"},"vehicle_type_id":"4","last_reported":1686683079,"current_range_meters":22400,"station_id":"ce4bh192rcd13ifvqdd0","pricing_plan_id":"free"},{"bike_id":"09523647-bab8-4ca6-b543-f3ece3a4220a","system_id":"levelo_inurba_marseille","lat":43.29,"lon":5.39019,"is_reserved":false,"is_disabled":false,"rental_uris":{"android":"levelo://app?vid=09523647-bab8-4ca6-b543-f3ece3a4220a","ios":"levelo://app?vid=09523647-bab8-4ca6-b543-f3ece3a4220a"},"vehicle_type_id":"4","last_reported":1686683079,"current_range_meters":12000,"station_id":"","pricing_plan_id":"free"},{"bike_id":"690f04f6-4f3a-447f-9494-d460b3e46778","system_id":"levelo_inurba_marseille","lat":43.284534,"lon":5.358662,"is_reserved":false,"is_disabled":false,"rental_uris":{"android":"levelo://app?vid=690f04f6-4f3a-447f-9494-d460b3e46778","ios":"levelo://app?vid=690f04f6-4f3a-447f-9494-d460b3e46778"},"vehicle_type_id":"4","last_reported":1686683079,"current_range_meters":800,"station_id":"ce4bhah2rcd13ifvqei0","pricing_plan_id":"free"},{"bike_id":"7759e3c8-6667-4a6f-8548-81fb845146bd","system_id":"levelo_inurba_marseille","lat":43.284534,"lon":5.358662,"is_reserved":false,"is_disabled":false,"rental_uris":{"android":"levelo://app?vid=7759e3c8-6667-4a6f-8548-81fb845146bd","ios":"levelo://app?vid=7759e3c8-6667-4a6f-8548-81fb845146bd"},"vehicle_type_id":"4","last_reported":1686683079,"current_range_meters":11200,"station_id":"ce4bhah2rcd13ifvqei0","pricing_plan_id":"free"},{"bike_id":"750604c3-4c39-4652-95c0-f85c6c81de7a","system_id":"levelo_inurba_marseille","lat":43.284534,"lon":5.358662,"is_reserved":false,"is_disabled":false,"rental_uris":{"android":"levelo://app?vid=750604c3-4c39-4652-95c0-f85c6c81de7a","ios":"levelo://app?vid=750604c3-4c39-4652-95c0-f85c6c81de7a"},"vehicle_type_id":"4","last_reported":1686683079,"current_range_meters":6400,"station_id":"ce4bhah2rcd13ifvqei0","pricing_plan_id":"free"},{"bike_id":"96c6d250-0fcf-4329-957e-fddcb3159f66","system_id":"levelo_inurba_marseille","lat":43.284534,"lon":5.358662,"is_reserved":false,"is_disabled":false,"rental_uris":{"android":"levelo://app?vid=96c6d250-0fcf-4329-957e-fddcb3159f66","ios":"levelo://app?vid=96c6d250-0fcf-4329-957e-fddcb3159f66"},"vehicle_type_id":"4","last_reported":1686683079,"current_range_meters":8800,"station_id":"ce4bhah2rcd13ifvqei0","pricing_plan_id":"free"},{"bike_id":"2ee0e569-0362-4083-8d39-0473734ff8df","system_id":"levelo_inurba_marseille","lat":43.284534,"lon":5.358662,"is_reserved":false,"is_disabled":false,"rental_uris":{"android":"levelo://app?vid=2ee0e569-0362-4083-8d39-0473734ff8df","ios":"levelo://app?vid=2ee0e569-0362-4083-8d39-0473734ff8df"},"vehicle_type_id":"4","last_reported":1686683079,"current_range_meters":22400,"station_id":"ce4bhah2rcd13ifvqei0","pricing_plan_id":"free"},{"bike_id":"7e18a9d1-d0af-48c1-82c5-423e7bd8f5ef","system_id":"levelo_inurba_marseille","lat":43.28454,"lon":5.35896,"is_reserved":false,"is_disabled":false,"rental_uris":{"android":"levelo://app?vid=7e18a9d1-d0af-48c1-82c5-423e7bd8f5ef","ios":"levelo://app?vid=7e18a9d1-d0af-48c1-82c5-423e7bd8f5ef"},"vehicle_type_id":"4","last_reported":1686683079,"current_range_meters":4400,"station_id":"ce4bhah2rcd13ifvqei0","pricing_plan_id":"free"},{"bike_id":"55cc9f1f-8cfd-4fc8-ae6b-6909a8089b19","system_id":"levelo_inurba_marseille","lat":43.284534,"lon":5.358662,"is_reserved":false,"is_disabled":false,"rental_uris":{"android":"levelo://app?vid=55cc9f1f-8cfd-4fc8-ae6b-6909a8089b19","ios":"levelo://app?vid=55cc9f1f-8cfd-4fc8-ae6b-6909a8089b19"},"vehicle_type_id":"4","last_reported":1686683079,"current_range_meters":1600,"station_id":"ce4bhah2rcd13ifvqei0","pricing_plan_id":"free"},{"bike_id":"aaf226b3-902d-4c7a-819e-51fea39c2bdd","system_id":"levelo_inurba_marseille","lat":43.284534,"lon":5.358662,"is_reserved":false,"is_disabled":false,"rental_uris":{"android":"levelo://app?vid=aaf226b3-902d-4c7a-819e-51fea39c2bdd","ios":"levelo://app?vid=aaf226b3-902d-4c7a-819e-51fea39c2bdd"},"vehicle_type_id":"4","last_reported":1686683079,"current_range_meters":16400,"station_id":"ce4bhah2rcd13ifvqei0","pricing_plan_id":"free"},{"bike_id":"9652928e-b057-4700-842b-07501c26e302","system_id":"levelo_inurba_marseille","lat":43.29438,"lon":5.39743,"is_reserved":false,"is_disabled":false,"rental_uris":{"android":"levelo://app?vid=9652928e-b057-4700-842b-07501c26e302","ios":"levelo://app?vid=9652928e-b057-4700-842b-07501c26e302"},"vehicle_type_id":"4","last_reported":1686683079,"current_range_meters":5600,"station_id":"","pricing_plan_id":"free"},{"bike_id":"90d3ee54-59dc-4862-a361-c0220b9cd201","system_id":"levelo_inurba_marseille","lat":43.284534,"lon":5.358662,"is_reserved":false,"is_disabled":false,"rental_uris":{"android":"levelo://app?vid=90d3ee54-59dc-4862-a361-c0220b9cd201","ios":"levelo://app?vid=90d3ee54-59dc-4862-a361-c0220b9cd201"},"vehicle_type_id":"4","last_reported":1686683079,"current_range_meters":5200,"station_id":"ce4bhah2rcd13ifvqei0","pricing_plan_id":"free"},{"bike_id":"3fff127e-55e7-44b6-baf3-fc7894e5bd92","system_id":"levelo_inurba_marseille","lat":43.2845,"lon":5.35891,"is_reserved":false,"is_disabled":false,"rental_uris":{"android":"levelo://app?vid=3fff127e-55e7-44b6-baf3-fc7894e5bd92","ios":"levelo://app?vid=3fff127e-55e7-44b6-baf3-fc7894e5bd92"},"vehicle_type_id":"4","last_reported":1686683079,"current_range_meters":5200,"station_id":"ce4bhah2rcd13ifvqei0","pricing_plan_id":"free"},{"bike_id":"e985f138-3b4b-496a-b788-fc47bbff9ad6","system_id":"levelo_inurba_marseille","lat":43.285856,"lon":5.350771,"is_reserved":false,"is_disabled":false,"rental_uris":{"android":"levelo://app?vid=e985f138-3b4b-496a-b788-fc47bbff9ad6","ios":"levelo://app?vid=e985f138-3b4b-496a-b788-fc47bbff9ad6"},"vehicle_type_id":"4","last_reported":1686683079,"current_range_meters":2400,"station_id":"ce4bhch2rcd13ifvqeug","pricing_plan_id":"free"},{"bike_id":"5b79492d-fe5e-4235-bf46-e9acf4d529c4","system_id":"levelo_inurba_marseille","lat":43.285856,"lon":5.350771,"is_reserved":false,"is_disabled":false,"rental_uris":{"android":"levelo://app?vid=5b79492d-fe5e-4235-bf46-e9acf4d529c4","ios":"levelo://app?vid=5b79492d-fe5e-4235-bf46-e9acf4d529c4"},"vehicle_type_id":"4","last_reported":1686683079,"current_range_meters":16800,"station_id":"ce4bhch2rcd13ifvqeug","pricing_plan_id":"free"},{"bike_id":"60eb2b77-4ee2-4e8f-8419-86a3f290b9eb","system_id":"levelo_inurba_marseille","lat":43.28617,"lon":5.35102,"is_reserved":false,"is_disabled":false,"rental_uris":{"android":"levelo://app?vid=60eb2b77-4ee2-4e8f-8419-86a3f290b9eb","ios":"levelo://app?vid=60eb2b77-4ee2-4e8f-8419-86a3f290b9eb"},"vehicle_type_id":"4","last_reported":1686683079,"current_range_meters":31200,"station_id":"","pricing_plan_id":"free"},{"bike_id":"423b958f-268a-40e8-8c0a-0b6b3b1fab66","system_id":"levelo_inurba_marseille","lat":43.285856,"lon":5.350771,"is_reserved":false,"is_disabled":false,"rental_uris":{"android":"levelo://app?vid=423b958f-268a-40e8-8c0a-0b6b3b1fab66","ios":"levelo://app?vid=423b958f-268a-40e8-8c0a-0b6b3b1fab66"},"vehicle_type_id":"4","last_reported":1686683079,"current_range_meters":20000,"station_id":"ce4bhch2rcd13ifvqeug","pricing_plan_id":"free"},{"bike_id":"ca772d30-db6e-45ff-9a9d-189ce99f3058","system_id":"levelo_inurba_marseille","lat":43.285856,"lon":5.350771,"is_reserved":false,"is_disabled":false,"rental_uris":{"android":"levelo://app?vid=ca772d30-db6e-45ff-9a9d-189ce99f3058","ios":"levelo://app?vid=ca772d30-db6e-45ff-9a9d-189ce99f3058"},"vehicle_type_id":"4","last_reported":1686683079,"current_range_meters":0,"station_id":"ce4bhch2rcd13ifvqeug","pricing_plan_id":"free"},{"bike_id":"f4d7ddb7-33f1-42fc-9b78-eeb7e44b93f4","system_id":"levelo_inurba_marseille","lat":43.28615,"lon":5.35098,"is_reserved":false,"is_disabled":false,"rental_uris":{"android":"levelo://app?vid=f4d7ddb7-33f1-42fc-9b78-eeb7e44b93f4","ios":"levelo://app?vid=f4d7ddb7-33f1-42fc-9b78-eeb7e44b93f4"},"vehicle_type_id":"4","last_reported":1686683079,"current_range_meters":31200,"station_id":"","pricing_plan_id":"free"},{"bike_id":"f57c48d3-a81f-48b0-8f4c-b68e525e0777","system_id":"levelo_inurba_marseille","lat":43.295713,"lon":5.399639,"is_reserved":false,"is_disabled":false,"rental_uris":{"android":"levelo://app?vid=f57c48d3-a81f-48b0-8f4c-b68e525e0777","ios":"levelo://app?vid=f57c48d3-a81f-48b0-8f4c-b68e525e0777"},"vehicle_type_id":"4","last_reported":1686683079,"current_range_meters":1600,"station_id":"ce4bh312rcd13ifvqdj0","pricing_plan_id":"free"},{"bike_id":"a7df500f-c11a-41c1-9091-a43733ef3726","system_id":"levelo_inurba_marseille","lat":43.295713,"lon":5.399639,"is_reserved":false,"is_disabled":false,"rental_uris":{"android":"levelo://app?vid=a7df500f-c11a-41c1-9091-a43733ef3726","ios":"levelo://app?vid=a7df500f-c11a-41c1-9091-a43733ef3726"},"vehicle_type_id":"4","last_reported":1686683079,"current_range_meters":12800,"station_id":"ce4bh312rcd13ifvqdj0","pricing_plan_id":"free"},{"bike_id":"96ccf8ff-ce2e-4ad7-96cd-8335a13c9828","system_id":"levelo_inurba_marseille","lat":43.295713,"lon":5.399639,"is_reserved":false,"is_disabled":false,"rental_uris":{"android":"levelo://app?vid=96ccf8ff-ce2e-4ad7-96cd-8335a13c9828","ios":"levelo://app?vid=96ccf8ff-ce2e-4ad7-96cd-8335a13c9828"},"vehicle_type_id":"4","last_reported":1686683079,"current_range_meters":2000,"station_id":"ce4bh312rcd13ifvqdj0","pricing_plan_id":"free"},{"bike_id":"7acc052f-7d68-4b80-973d-189b8db82eeb","system_id":"levelo_inurba_marseille","lat":43.295713,"lon":5.399639,"is_reserved":false,"is_disabled":false,"rental_uris":{"android":"levelo://app?vid=7acc052f-7d68-4b80-973d-189b8db82eeb","ios":"levelo://app?vid=7acc052f-7d68-4b80-973d-189b8db82eeb"},"vehicle_type_id":"4","last_reported":1686683079,"current_range_meters":4000,"station_id":"ce4bh312rcd13ifvqdj0","pricing_plan_id":"free"},{"bike_id":"5edff5b9-a1ba-40bf-b372-7e34a865256f","system_id":"levelo_inurba_marseille","lat":43.296263,"lon":5.40601,"is_reserved":false,"is_disabled":false,"rental_uris":{"android":"levelo://app?vid=5edff5b9-a1ba-40bf-b372-7e34a865256f","ios":"levelo://app?vid=5edff5b9-a1ba-40bf-b372-7e34a865256f"},"vehicle_type_id":"4","last_reported":1686683079,"current_range_meters":12400,"station_id":"ce4bh0h2rcd13ifvqd60","pricing_plan_id":"free"},{"bike_id":"9b6bcc82-171f-4fe6-8f56-d5101e37b75a","system_id":"levelo_inurba_marseille","lat":43.2839,"lon":5.37517,"is_reserved":false,"is_disabled":false,"rental_uris":{"android":"levelo://app?vid=9b6bcc82-171f-4fe6-8f56-d5101e37b75a","ios":"levelo://app?vid=9b6bcc82-171f-4fe6-8f56-d5101e37b75a"},"vehicle_type_id":"4","last_reported":1686683079,"current_range_meters":2400,"station_id":"","pricing_plan_id":"free"},{"bike_id":"032df61d-1ef3-4922-89f5-cbf642027e6e","system_id":"levelo_inurba_marseille","lat":43.286595,"lon":5.386795,"is_reserved":false,"is_disabled":false,"rental_uris":{"android":"levelo://app?vid=032df61d-1ef3-4922-89f5-cbf642027e6e","ios":"levelo://app?vid=032df61d-1ef3-4922-89f5-cbf642027e6e"},"vehicle_type_id":"4","last_reported":1686683079,"current_range_meters":400,"station_id":"ce4bh492rcd13ifvqdug","pricing_plan_id":"free"},{"bike_id":"b87ed5d5-f118-4b07-ac72-44c21f49cd53","system_id":"levelo_inurba_marseille","lat":43.286595,"lon":5.386795,"is_reserved":false,"is_disabled":false,"rental_uris":{"android":"levelo://app?vid=b87ed5d5-f118-4b07-ac72-44c21f49cd53","ios":"levelo://app?vid=b87ed5d5-f118-4b07-ac72-44c21f49cd53"},"vehicle_type_id":"4","last_reported":1686683079,"current_range_meters":3200,"station_id":"ce4bh492rcd13ifvqdug","pricing_plan_id":"free"},{"bike_id":"e2fc70b8-7548-494f-8e43-0c065153422e","system_id":"levelo_inurba_marseille","lat":43.323464,"lon":5.406297,"is_reserved":false,"is_disabled":false,"rental_uris":{"android":"levelo://app?vid=e2fc70b8-7548-494f-8e43-0c065153422e","ios":"levelo://app?vid=e2fc70b8-7548-494f-8e43-0c065153422e"},"vehicle_type_id":"4","last_reported":1686683079,"current_range_meters":32000,"station_id":"ce4bhq92rcd13ifvqhjg","pricing_plan_id":"free"},{"bike_id":"16e5fedd-6e86-436a-a0a2-72c7cd60a6ea","system_id":"levelo_inurba_marseille","lat":43.32331,"lon":5.40619,"is_reserved":false,"is_disabled":false,"rental_uris":{"android":"levelo://app?vid=16e5fedd-6e86-436a-a0a2-72c7cd60a6ea","ios":"levelo://app?vid=16e5fedd-6e86-436a-a0a2-72c7cd60a6ea"},"vehicle_type_id":"4","last_reported":1686683079,"current_range_meters":31200,"station_id":"ce4bhq92rcd13ifvqhjg","pricing_plan_id":"free"},{"bike_id":"f62ba153-082f-40a0-996c-72d65e874915","system_id":"levelo_inurba_marseille","lat":43.323464,"lon":5.406297,"is_reserved":false,"is_disabled":false,"rental_uris":{"android":"levelo://app?vid=f62ba153-082f-40a0-996c-72d65e874915","ios":"levelo://app?vid=f62ba153-082f-40a0-996c-72d65e874915"},"vehicle_type_id":"4","last_reported":1686683079,"current_range_meters":27600,"station_id":"ce4bhq92rcd13ifvqhjg","pricing_plan_id":"free"},{"bike_id":"484885b6-3140-4a4f-8522-b35d52385562","system_id":"levelo_inurba_marseille","lat":43.323464,"lon":5.406297,"is_reserved":false,"is_disabled":false,"rental_uris":{"android":"levelo://app?vid=484885b6-3140-4a4f-8522-b35d52385562","ios":"levelo://app?vid=484885b6-3140-4a4f-8522-b35d52385562"},"vehicle_type_id":"4","last_reported":1686683079,"current_range_meters":27200,"station_id":"ce4bhq92rcd13ifvqhjg","pricing_plan_id":"free"},{"bike_id":"3809e364-cfe3-479b-9723-8a57900a25ad","system_id":"levelo_inurba_marseille","lat":43.323464,"lon":5.406297,"is_reserved":false,"is_disabled":false,"rental_uris":{"android":"levelo://app?vid=3809e364-cfe3-479b-9723-8a57900a25ad","ios":"levelo://app?vid=3809e364-cfe3-479b-9723-8a57900a25ad"},"vehicle_type_id":"4","last_reported":1686683079,"current_range_meters":14400,"station_id":"ce4bhq92rcd13ifvqhjg","pricing_plan_id":"free"},{"bike_id":"9a6d0563-9ec4-468c-8e14-2d9de44a9774","system_id":"levelo_inurba_marseille","lat":43.323464,"lon":5.406297,"is_reserved":false,"is_disabled":false,"rental_uris":{"android":"levelo://app?vid=9a6d0563-9ec4-468c-8e14-2d9de44a9774","ios":"levelo://app?vid=9a6d0563-9ec4-468c-8e14-2d9de44a9774"},"vehicle_type_id":"4","last_reported":1686683079,"current_range_meters":2400,"station_id":"ce4bhq92rcd13ifvqhjg","pricing_plan_id":"free"},{"bike_id":"a9dc804e-b8c1-4c01-b832-d70ccc9043c7","system_id":"levelo_inurba_marseille","lat":43.284793,"lon":5.384119,"is_reserved":false,"is_disabled":false,"rental_uris":{"android":"levelo://app?vid=a9dc804e-b8c1-4c01-b832-d70ccc9043c7","ios":"levelo://app?vid=a9dc804e-b8c1-4c01-b832-d70ccc9043c7"},"vehicle_type_id":"4","last_reported":1686683079,"current_range_meters":2000,"station_id":"ce4bh512rcd13ifvqe3g","pricing_plan_id":"free"},{"bike_id":"bc78c788-c48d-4b17-ae12-03f6fe926dfe","system_id":"levelo_inurba_marseille","lat":43.288497,"lon":5.393089,"is_reserved":false,"is_disabled":false,"rental_uris":{"android":"levelo://app?vid=bc78c788-c48d-4b17-ae12-03f6fe926dfe","ios":"levelo://app?vid=bc78c788-c48d-4b17-ae12-03f6fe926dfe"},"vehicle_type_id":"4","last_reported":1686683079,"current_range_meters":5600,"station_id":"ce4bh2p2rcd13ifvqdi0","pricing_plan_id":"free"},{"bike_id":"63b3db1a-5b7a-4965-8284-f455d03cc8d8","system_id":"levelo_inurba_marseille","lat":43.283494,"lon":5.380945,"is_reserved":false,"is_disabled":false,"rental_uris":{"android":"levelo://app?vid=63b3db1a-5b7a-4965-8284-f455d03cc8d8","ios":"levelo://app?vid=63b3db1a-5b7a-4965-8284-f455d03cc8d8"},"vehicle_type_id":"4","last_reported":1686683079,"current_range_meters":400,"station_id":"ce4bh412rcd13ifvqdr0","pricing_plan_id":"free"},{"bike_id":"f70c1bfe-e675-44c2-ade9-88cf467f043c","system_id":"levelo_inurba_marseille","lat":43.283494,"lon":5.380945,"is_reserved":false,"is_disabled":false,"rental_uris":{"android":"levelo://app?vid=f70c1bfe-e675-44c2-ade9-88cf467f043c","ios":"levelo://app?vid=f70c1bfe-e675-44c2-ade9-88cf467f043c"},"vehicle_type_id":"4","last_reported":1686683079,"current_range_meters":6400,"station_id":"ce4bh412rcd13ifvqdr0","pricing_plan_id":"free"},{"bike_id":"970f127f-d115-49d4-bdb2-ab4aab16443c","system_id":"levelo_inurba_marseille","lat":43.28427,"lon":5.34996,"is_reserved":false,"is_disabled":false,"rental_uris":{"android":"levelo://app?vid=970f127f-d115-49d4-bdb2-ab4aab16443c","ios":"levelo://app?vid=970f127f-d115-49d4-bdb2-ab4aab16443c"},"vehicle_type_id":"4","last_reported":1686683079,"current_range_meters":31200,"station_id":"ce4bhbh2rcd13ifvqepg","pricing_plan_id":"free"},{"bike_id":"ce77a310-3a46-4ad9-91c3-94410e06b7f7","system_id":"levelo_inurba_marseille","lat":43.28427,"lon":5.34993,"is_reserved":false,"is_disabled":false,"rental_uris":{"android":"levelo://app?vid=ce77a310-3a46-4ad9-91c3-94410e06b7f7","ios":"levelo://app?vid=ce77a310-3a46-4ad9-91c3-94410e06b7f7"},"vehicle_type_id":"4","last_reported":1686683079,"current_range_meters":16800,"station_id":"ce4bhbh2rcd13ifvqepg","pricing_plan_id":"free"},{"bike_id":"8a1082f1-c614-475a-8d27-e1f1c1e08157","system_id":"levelo_inurba_marseille","lat":43.28423,"lon":5.34998,"is_reserved":false,"is_disabled":false,"rental_uris":{"android":"levelo://app?vid=8a1082f1-c614-475a-8d27-e1f1c1e08157","ios":"levelo://app?vid=8a1082f1-c614-475a-8d27-e1f1c1e08157"},"vehicle_type_id":"4","last_reported":1686683079,"current_range_meters":17200,"station_id":"ce4bhbh2rcd13ifvqepg","pricing_plan_id":"free"},{"bike_id":"c2923c4b-a1be-4a3c-8e7d-881ce8bc7cf3","system_id":"levelo_inurba_marseille","lat":43.28422,"lon":5.349898,"is_reserved":false,"is_disabled":false,"rental_uris":{"android":"levelo://app?vid=c2923c4b-a1be-4a3c-8e7d-881ce8bc7cf3","ios":"levelo://app?vid=c2923c4b-a1be-4a3c-8e7d-881ce8bc7cf3"},"vehicle_type_id":"4","last_reported":1686683079,"current_range_meters":23600,"station_id":"ce4bhbh2rcd13ifvqepg","pricing_plan_id":"free"},{"bike_id":"a4081a8c-e00c-42e5-a351-9928a354a74c","system_id":"levelo_inurba_marseille","lat":43.28419,"lon":5.34994,"is_reserved":false,"is_disabled":false,"rental_uris":{"android":"levelo://app?vid=a4081a8c-e00c-42e5-a351-9928a354a74c","ios":"levelo://app?vid=a4081a8c-e00c-42e5-a351-9928a354a74c"},"vehicle_type_id":"4","last_reported":1686683079,"current_range_meters":31200,"station_id":"ce4bhbh2rcd13ifvqepg","pricing_plan_id":"free"},{"bike_id":"0f694634-596b-4746-9038-9f45468227e3","system_id":"levelo_inurba_marseille","lat":43.2842,"lon":5.34987,"is_reserved":false,"is_disabled":false,"rental_uris":{"android":"levelo://app?vid=0f694634-596b-4746-9038-9f45468227e3","ios":"levelo://app?vid=0f694634-596b-4746-9038-9f45468227e3"},"vehicle_type_id":"4","last_reported":1686683079,"current_range_meters":16000,"station_id":"ce4bhbh2rcd13ifvqepg","pricing_plan_id":"free"},{"bike_id":"0d3b5797-4a3e-4f37-911c-a91ff97b98e6","system_id":"levelo_inurba_marseille","lat":43.28418,"lon":5.34983,"is_reserved":false,"is_disabled":false,"rental_uris":{"android":"levelo://app?vid=0d3b5797-4a3e-4f37-911c-a91ff97b98e6","ios":"levelo://app?vid=0d3b5797-4a3e-4f37-911c-a91ff97b98e6"},"vehicle_type_id":"4","last_reported":1686683079,"current_range_meters":24800,"station_id":"ce4bhbh2rcd13ifvqepg","pricing_plan_id":"free"},{"bike_id":"507b3214-c6ff-4344-9a04-4a62a5587996","system_id":"levelo_inurba_marseille","lat":43.28415,"lon":5.34992,"is_reserved":false,"is_disabled":false,"rental_uris":{"android":"levelo://app?vid=507b3214-c6ff-4344-9a04-4a62a5587996","ios":"levelo://app?vid=507b3214-c6ff-4344-9a04-4a62a5587996"},"vehicle_type_id":"4","last_reported":1686683079,"current_range_meters":26000,"station_id":"ce4bhbh2rcd13ifvqepg","pricing_plan_id":"free"},{"bike_id":"41ad3bfa-744a-48b5-8f15-6635ee32b9df","system_id":"levelo_inurba_marseille","lat":43.28414,"lon":5.34992,"is_reserved":false,"is_disabled":false,"rental_uris":{"android":"levelo://app?vid=41ad3bfa-744a-48b5-8f15-6635ee32b9df","ios":"levelo://app?vid=41ad3bfa-744a-48b5-8f15-6635ee32b9df"},"vehicle_type_id":"4","last_reported":1686683079,"current_range_meters":24400,"station_id":"ce4bhbh2rcd13ifvqepg","pricing_plan_id":"free"},{"bike_id":"f6503eda-7ae0-4a9f-9e5f-8bb8eb793075","system_id":"levelo_inurba_marseille","lat":43.2841,"lon":5.34993,"is_reserved":false,"is_disabled":false,"rental_uris":{"android":"levelo://app?vid=f6503eda-7ae0-4a9f-9e5f-8bb8eb793075","ios":"levelo://app?vid=f6503eda-7ae0-4a9f-9e5f-8bb8eb793075"},"vehicle_type_id":"4","last_reported":1686683079,"current_range_meters":31200,"station_id":"ce4bhbh2rcd13ifvqepg","pricing_plan_id":"free"},{"bike_id":"c9e4c3ce-4af6-458f-bab4-9a4a8f26bdfb","system_id":"levelo_inurba_marseille","lat":43.28273,"lon":5.3506,"is_reserved":false,"is_disabled":false,"rental_uris":{"android":"levelo://app?vid=c9e4c3ce-4af6-458f-bab4-9a4a8f26bdfb","ios":"levelo://app?vid=c9e4c3ce-4af6-458f-bab4-9a4a8f26bdfb"},"vehicle_type_id":"4","last_reported":1686683079,"current_range_meters":12800,"station_id":"ce4bhbp2rcd13ifvqerg","pricing_plan_id":"free"},{"bike_id":"b71eed36-6a3a-415e-9899-439f606539f8","system_id":"levelo_inurba_marseille","lat":43.28268,"lon":5.35058,"is_reserved":false,"is_disabled":false,"rental_uris":{"android":"levelo://app?vid=b71eed36-6a3a-415e-9899-439f606539f8","ios":"levelo://app?vid=b71eed36-6a3a-415e-9899-439f606539f8"},"vehicle_type_id":"4","last_reported":1686683079,"current_range_meters":4400,"station_id":"ce4bhbp2rcd13ifvqerg","pricing_plan_id":"free"},{"bike_id":"11777382-4a8c-4121-957c-4ca956fe4c0f","system_id":"levelo_inurba_marseille","lat":43.282754,"lon":5.350519,"is_reserved":false,"is_disabled":false,"rental_uris":{"android":"levelo://app?vid=11777382-4a8c-4121-957c-4ca956fe4c0f","ios":"levelo://app?vid=11777382-4a8c-4121-957c-4ca956fe4c0f"},"vehicle_type_id":"4","last_reported":1686683079,"current_range_meters":12800,"station_id":"ce4bhbp2rcd13ifvqerg","pricing_plan_id":"free"},{"bike_id":"570de051-0ae2-43ea-9301-9c5f85654b26","system_id":"levelo_inurba_marseille","lat":43.28039,"lon":5.369297,"is_reserved":false,"is_disabled":false,"rental_uris":{"android":"levelo://app?vid=570de051-0ae2-43ea-9301-9c5f85654b26","ios":"levelo://app?vid=570de051-0ae2-43ea-9301-9c5f85654b26"},"vehicle_type_id":"4","last_reported":1686683079,"current_range_meters":6800,"station_id":"ce4bha12rcd13ifvqef0","pricing_plan_id":"free"},{"bike_id":"f1d722b3-d0bd-4304-9223-efa59521a64d","system_id":"levelo_inurba_marseille","lat":43.281044,"lon":5.378308,"is_reserved":false,"is_disabled":false,"rental_uris":{"android":"levelo://app?vid=f1d722b3-d0bd-4304-9223-efa59521a64d","ios":"levelo://app?vid=f1d722b3-d0bd-4304-9223-efa59521a64d"},"vehicle_type_id":"4","last_reported":1686683079,"current_range_meters":400,"station_id":"ce4bha12rcd13ifvqee0","pricing_plan_id":"free"},{"bike_id":"a39fb1a5-a863-4d26-bc18-cb5985f510fa","system_id":"levelo_inurba_marseille","lat":43.281044,"lon":5.378308,"is_reserved":false,"is_disabled":false,"rental_uris":{"android":"levelo://app?vid=a39fb1a5-a863-4d26-bc18-cb5985f510fa","ios":"levelo://app?vid=a39fb1a5-a863-4d26-bc18-cb5985f510fa"},"vehicle_type_id":"4","last_reported":1686683079,"current_range_meters":21200,"station_id":"ce4bha12rcd13ifvqee0","pricing_plan_id":"free"},{"bike_id":"71163962-ad67-4e6b-8366-d5b2c8cae856","system_id":"levelo_inurba_marseille","lat":43.281044,"lon":5.378308,"is_reserved":false,"is_disabled":false,"rental_uris":{"android":"levelo://app?vid=71163962-ad67-4e6b-8366-d5b2c8cae856","ios":"levelo://app?vid=71163962-ad67-4e6b-8366-d5b2c8cae856"},"vehicle_type_id":"4","last_reported":1686683079,"current_range_meters":8800,"station_id":"ce4bha12rcd13ifvqee0","pricing_plan_id":"free"},{"bike_id":"100e92b2-aa9f-46d5-9df2-7b41e6474290","system_id":"levelo_inurba_marseille","lat":43.296263,"lon":5.40601,"is_reserved":false,"is_disabled":false,"rental_uris":{"android":"levelo://app?vid=100e92b2-aa9f-46d5-9df2-7b41e6474290","ios":"levelo://app?vid=100e92b2-aa9f-46d5-9df2-7b41e6474290"},"vehicle_type_id":"4","last_reported":1686683079,"current_range_meters":16000,"station_id":"ce4bh0h2rcd13ifvqd60","pricing_plan_id":"free"},{"bike_id":"21619207-459d-43d2-ae59-fd125b3b9e7e","system_id":"levelo_inurba_marseille","lat":43.3042,"lon":5.41284,"is_reserved":false,"is_disabled":false,"rental_uris":{"android":"levelo://app?vid=21619207-459d-43d2-ae59-fd125b3b9e7e","ios":"levelo://app?vid=21619207-459d-43d2-ae59-fd125b3b9e7e"},"vehicle_type_id":"4","last_reported":1686683079,"current_range_meters":6000,"station_id":"ce4bhop2rcd13ifvqh8g","pricing_plan_id":"free"},{"bike_id":"81c42b8a-071c-4977-80a0-02b7808e121b","system_id":"levelo_inurba_marseille","lat":43.30409,"lon":5.41286,"is_reserved":false,"is_disabled":false,"rental_uris":{"android":"levelo://app?vid=81c42b8a-071c-4977-80a0-02b7808e121b","ios":"levelo://app?vid=81c42b8a-071c-4977-80a0-02b7808e121b"},"vehicle_type_id":"4","last_reported":1686683079,"current_range_meters":400,"station_id":"ce4bhop2rcd13ifvqh8g","pricing_plan_id":"free"},{"bike_id":"5da9798f-bef8-48bb-9567-c9f89f27a834","system_id":"levelo_inurba_marseille","lat":43.27907,"lon":5.38018,"is_reserved":false,"is_disabled":false,"rental_uris":{"android":"levelo://app?vid=5da9798f-bef8-48bb-9567-c9f89f27a834","ios":"levelo://app?vid=5da9798f-bef8-48bb-9567-c9f89f27a834"},"vehicle_type_id":"4","last_reported":1686683079,"current_range_meters":12000,"station_id":"","pricing_plan_id":"free"},{"bike_id":"04165d48-d13a-47c2-93f8-c6e73b4152c5","system_id":"levelo_inurba_marseille","lat":43.27896,"lon":5.38013,"is_reserved":false,"is_disabled":false,"rental_uris":{"android":"levelo://app?vid=04165d48-d13a-47c2-93f8-c6e73b4152c5","ios":"levelo://app?vid=04165d48-d13a-47c2-93f8-c6e73b4152c5"},"vehicle_type_id":"4","last_reported":1686683079,"current_range_meters":6800,"station_id":"","pricing_plan_id":"free"},{"bike_id":"59b1b216-e044-4c3f-b2a4-ead0c66d3cce","system_id":"levelo_inurba_marseille","lat":43.27894,"lon":5.38017,"is_reserved":false,"is_disabled":false,"rental_uris":{"android":"levelo://app?vid=59b1b216-e044-4c3f-b2a4-ead0c66d3cce","ios":"levelo://app?vid=59b1b216-e044-4c3f-b2a4-ead0c66d3cce"},"vehicle_type_id":"4","last_reported":1686683079,"current_range_meters":6400,"station_id":"","pricing_plan_id":"free"},{"bike_id":"9175f12b-9b6f-4027-8b6e-65aef0fe5a4e","system_id":"levelo_inurba_marseille","lat":43.279742,"lon":5.38744,"is_reserved":false,"is_disabled":false,"rental_uris":{"android":"levelo://app?vid=9175f12b-9b6f-4027-8b6e-65aef0fe5a4e","ios":"levelo://app?vid=9175f12b-9b6f-4027-8b6e-65aef0fe5a4e"},"vehicle_type_id":"4","last_reported":1686683079,"current_range_meters":29200,"station_id":"ce4bhg12rcd13ifvqf80","pricing_plan_id":"free"},{"bike_id":"5d5b3c5d-1efd-440c-a8c8-2b89af275ad9","system_id":"levelo_inurba_marseille","lat":43.279742,"lon":5.38744,"is_reserved":false,"is_disabled":false,"rental_uris":{"android":"levelo://app?vid=5d5b3c5d-1efd-440c-a8c8-2b89af275ad9","ios":"levelo://app?vid=5d5b3c5d-1efd-440c-a8c8-2b89af275ad9"},"vehicle_type_id":"4","last_reported":1686683079,"current_range_meters":30800,"station_id":"ce4bhg12rcd13ifvqf80","pricing_plan_id":"free"},{"bike_id":"2d1a64f9-4565-401b-9cd6-54f6b1918963","system_id":"levelo_inurba_marseille","lat":43.276179,"lon":5.361009,"is_reserved":false,"is_disabled":false,"rental_uris":{"android":"levelo://app?vid=2d1a64f9-4565-401b-9cd6-54f6b1918963","ios":"levelo://app?vid=2d1a64f9-4565-401b-9cd6-54f6b1918963"},"vehicle_type_id":"4","last_reported":1686683079,"current_range_meters":24800,"station_id":"ce4bgj92rcd13ifvqbe0","pricing_plan_id":"free"},{"bike_id":"ae39e40d-71b9-4312-8a15-c9263c849f97","system_id":"levelo_inurba_marseille","lat":43.29796,"lon":5.41337,"is_reserved":false,"is_disabled":false,"rental_uris":{"android":"levelo://app?vid=ae39e40d-71b9-4312-8a15-c9263c849f97","ios":"levelo://app?vid=ae39e40d-71b9-4312-8a15-c9263c849f97"},"vehicle_type_id":"4","last_reported":1686683079,"current_range_meters":20000,"station_id":"","pricing_plan_id":"free"},{"bike_id":"0a685758-6b77-4e42-b817-f0d461bfb4d5","system_id":"levelo_inurba_marseille","lat":43.29154,"lon":5.41037,"is_reserved":false,"is_disabled":false,"rental_uris":{"android":"levelo://app?vid=0a685758-6b77-4e42-b817-f0d461bfb4d5","ios":"levelo://app?vid=0a685758-6b77-4e42-b817-f0d461bfb4d5"},"vehicle_type_id":"4","last_reported":1686683079,"current_range_meters":4000,"station_id":"","pricing_plan_id":"free"},{"bike_id":"917e2c56-0b84-4e33-823f-edbb22dd74cc","system_id":"levelo_inurba_marseille","lat":43.280784,"lon":5.396622,"is_reserved":false,"is_disabled":false,"rental_uris":{"android":"levelo://app?vid=917e2c56-0b84-4e33-823f-edbb22dd74cc","ios":"levelo://app?vid=917e2c56-0b84-4e33-823f-edbb22dd74cc"},"vehicle_type_id":"4","last_reported":1686683079,"current_range_meters":14800,"station_id":"ce4bho12rcd13ifvqh2g","pricing_plan_id":"free"},{"bike_id":"f48d4898-3d5c-4c00-80d8-5839d1aea1c4","system_id":"levelo_inurba_marseille","lat":43.303837,"lon":5.418724,"is_reserved":false,"is_disabled":false,"rental_uris":{"android":"levelo://app?vid=f48d4898-3d5c-4c00-80d8-5839d1aea1c4","ios":"levelo://app?vid=f48d4898-3d5c-4c00-80d8-5839d1aea1c4"},"vehicle_type_id":"4","last_reported":1686683079,"current_range_meters":0,"station_id":"ce4bhop2rcd13ifvqh7g","pricing_plan_id":"free"},{"bike_id":"f70faa8f-272e-48d2-b9b5-29ca99348113","system_id":"levelo_inurba_marseille","lat":43.28052,"lon":5.39701,"is_reserved":false,"is_disabled":false,"rental_uris":{"android":"levelo://app?vid=f70faa8f-272e-48d2-b9b5-29ca99348113","ios":"levelo://app?vid=f70faa8f-272e-48d2-b9b5-29ca99348113"},"vehicle_type_id":"4","last_reported":1686683079,"current_range_meters":7200,"station_id":"","pricing_plan_id":"free"},{"bike_id":"08f4c5ab-c0f0-4dd6-999c-1fe3a1513f27","system_id":"levelo_inurba_marseille","lat":43.336134,"lon":5.410341,"is_reserved":false,"is_disabled":false,"rental_uris":{"android":"levelo://app?vid=08f4c5ab-c0f0-4dd6-999c-1fe3a1513f27","ios":"levelo://app?vid=08f4c5ab-c0f0-4dd6-999c-1fe3a1513f27"},"vehicle_type_id":"4","last_reported":1686683079,"current_range_meters":7200,"station_id":"ce4bhqh2rcd13ifvqhmg","pricing_plan_id":"free"},{"bike_id":"0f337e4d-b7f7-41c0-989e-42d8b7089282","system_id":"levelo_inurba_marseille","lat":43.33612,"lon":5.410321,"is_reserved":false,"is_disabled":false,"rental_uris":{"android":"levelo://app?vid=0f337e4d-b7f7-41c0-989e-42d8b7089282","ios":"levelo://app?vid=0f337e4d-b7f7-41c0-989e-42d8b7089282"},"vehicle_type_id":"4","last_reported":1686683079,"current_range_meters":5200,"station_id":"ce4bhqh2rcd13ifvqhmg","pricing_plan_id":"free"},{"bike_id":"a8f8b517-09b4-4197-94bb-6fa9d03dd022","system_id":"levelo_inurba_marseille","lat":43.27622,"lon":5.39189,"is_reserved":false,"is_disabled":false,"rental_uris":{"android":"levelo://app?vid=a8f8b517-09b4-4197-94bb-6fa9d03dd022","ios":"levelo://app?vid=a8f8b517-09b4-4197-94bb-6fa9d03dd022"},"vehicle_type_id":"4","last_reported":1686683079,"current_range_meters":26800,"station_id":"","pricing_plan_id":"free"},{"bike_id":"ffc5bc62-68dd-44d2-8618-bda22ad3a73e","system_id":"levelo_inurba_marseille","lat":43.317121,"lon":5.423936,"is_reserved":false,"is_disabled":false,"rental_uris":{"android":"levelo://app?vid=ffc5bc62-68dd-44d2-8618-bda22ad3a73e","ios":"levelo://app?vid=ffc5bc62-68dd-44d2-8618-bda22ad3a73e"},"vehicle_type_id":"4","last_reported":1686683079,"current_range_meters":31200,"station_id":"ce4bhp92rcd13ifvqhbg","pricing_plan_id":"free"},{"bike_id":"60369bb0-0d71-43b9-a915-5d4c7e589c53","system_id":"levelo_inurba_marseille","lat":43.317121,"lon":5.423936,"is_reserved":false,"is_disabled":false,"rental_uris":{"android":"levelo://app?vid=60369bb0-0d71-43b9-a915-5d4c7e589c53","ios":"levelo://app?vid=60369bb0-0d71-43b9-a915-5d4c7e589c53"},"vehicle_type_id":"4","last_reported":1686683079,"current_range_meters":31200,"station_id":"ce4bhp92rcd13ifvqhbg","pricing_plan_id":"free"},{"bike_id":"c135417b-40c4-4c04-943e-b7711837ba3c","system_id":"levelo_inurba_marseille","lat":43.317121,"lon":5.423936,"is_reserved":false,"is_disabled":false,"rental_uris":{"android":"levelo://app?vid=c135417b-40c4-4c04-943e-b7711837ba3c","ios":"levelo://app?vid=c135417b-40c4-4c04-943e-b7711837ba3c"},"vehicle_type_id":"4","last_reported":1686683079,"current_range_meters":26000,"station_id":"ce4bhp92rcd13ifvqhbg","pricing_plan_id":"free"},{"bike_id":"753c6b72-ca8a-45ae-bd9d-8eca801d7a1c","system_id":"levelo_inurba_marseille","lat":43.27614,"lon":5.39489,"is_reserved":false,"is_disabled":false,"rental_uris":{"android":"levelo://app?vid=753c6b72-ca8a-45ae-bd9d-8eca801d7a1c","ios":"levelo://app?vid=753c6b72-ca8a-45ae-bd9d-8eca801d7a1c"},"vehicle_type_id":"4","last_reported":1686683079,"current_range_meters":4800,"station_id":"","pricing_plan_id":"free"},{"bike_id":"f82c4e0b-ce86-4de4-962b-f266d6ba506e","system_id":"levelo_inurba_marseille","lat":43.273125,"lon":5.390731,"is_reserved":false,"is_disabled":false,"rental_uris":{"android":"levelo://app?vid=f82c4e0b-ce86-4de4-962b-f266d6ba506e","ios":"levelo://app?vid=f82c4e0b-ce86-4de4-962b-f266d6ba506e"},"vehicle_type_id":"4","last_reported":1686683079,"current_range_meters":26000,"station_id":"ce4bhgp2rcd13ifvqfe0","pricing_plan_id":"free"},{"bike_id":"9a129c7f-beb5-4d42-95a2-6eca48744e6a","system_id":"levelo_inurba_marseille","lat":43.2714,"lon":5.38928,"is_reserved":false,"is_disabled":false,"rental_uris":{"android":"levelo://app?vid=9a129c7f-beb5-4d42-95a2-6eca48744e6a","ios":"levelo://app?vid=9a129c7f-beb5-4d42-95a2-6eca48744e6a"},"vehicle_type_id":"4","last_reported":1686683079,"current_range_meters":27200,"station_id":"","pricing_plan_id":"free"},{"bike_id":"13f8dd5b-a81d-4cff-ac6f-b64e762d8a2b","system_id":"levelo_inurba_marseille","lat":43.278128,"lon":5.407195,"is_reserved":false,"is_disabled":false,"rental_uris":{"android":"levelo://app?vid=13f8dd5b-a81d-4cff-ac6f-b64e762d8a2b","ios":"levelo://app?vid=13f8dd5b-a81d-4cff-ac6f-b64e762d8a2b"},"vehicle_type_id":"4","last_reported":1686683079,"current_range_meters":26400,"station_id":"ce4bhnh2rcd13ifvqgtg","pricing_plan_id":"free"},{"bike_id":"46e74ece-0935-4a6b-b695-f386cb565502","system_id":"levelo_inurba_marseille","lat":43.278128,"lon":5.407195,"is_reserved":false,"is_disabled":false,"rental_uris":{"android":"levelo://app?vid=46e74ece-0935-4a6b-b695-f386cb565502","ios":"levelo://app?vid=46e74ece-0935-4a6b-b695-f386cb565502"},"vehicle_type_id":"4","last_reported":1686683079,"current_range_meters":24800,"station_id":"ce4bhnh2rcd13ifvqgtg","pricing_plan_id":"free"},{"bike_id":"ecf886ba-9f33-4bbb-b609-9525919783a8","system_id":"levelo_inurba_marseille","lat":43.27821,"lon":5.40723,"is_reserved":false,"is_disabled":false,"rental_uris":{"android":"levelo://app?vid=ecf886ba-9f33-4bbb-b609-9525919783a8","ios":"levelo://app?vid=ecf886ba-9f33-4bbb-b609-9525919783a8"},"vehicle_type_id":"4","last_reported":1686683079,"current_range_meters":25600,"station_id":"ce4bhnh2rcd13ifvqgtg","pricing_plan_id":"free"},{"bike_id":"475d751e-efaa-4216-828c-cd8cba373551","system_id":"levelo_inurba_marseille","lat":43.278128,"lon":5.407195,"is_reserved":false,"is_disabled":false,"rental_uris":{"android":"levelo://app?vid=475d751e-efaa-4216-828c-cd8cba373551","ios":"levelo://app?vid=475d751e-efaa-4216-828c-cd8cba373551"},"vehicle_type_id":"4","last_reported":1686683079,"current_range_meters":4400,"station_id":"ce4bhnh2rcd13ifvqgtg","pricing_plan_id":"free"},{"bike_id":"9fb00c9d-0b33-4dab-87d6-7026cca0560a","system_id":"levelo_inurba_marseille","lat":43.27813,"lon":5.40715,"is_reserved":false,"is_disabled":false,"rental_uris":{"android":"levelo://app?vid=9fb00c9d-0b33-4dab-87d6-7026cca0560a","ios":"levelo://app?vid=9fb00c9d-0b33-4dab-87d6-7026cca0560a"},"vehicle_type_id":"4","last_reported":1686683079,"current_range_meters":30000,"station_id":"ce4bhnh2rcd13ifvqgtg","pricing_plan_id":"free"},{"bike_id":"87355156-e66f-4256-819a-021d30f2cd93","system_id":"levelo_inurba_marseille","lat":43.278128,"lon":5.407195,"is_reserved":false,"is_disabled":false,"rental_uris":{"android":"levelo://app?vid=87355156-e66f-4256-819a-021d30f2cd93","ios":"levelo://app?vid=87355156-e66f-4256-819a-021d30f2cd93"},"vehicle_type_id":"4","last_reported":1686683079,"current_range_meters":29600,"station_id":"ce4bhnh2rcd13ifvqgtg","pricing_plan_id":"free"},{"bike_id":"ad4fc248-046b-409f-ba4a-33c2f1e68b94","system_id":"levelo_inurba_marseille","lat":43.27812,"lon":5.40725,"is_reserved":false,"is_disabled":false,"rental_uris":{"android":"levelo://app?vid=ad4fc248-046b-409f-ba4a-33c2f1e68b94","ios":"levelo://app?vid=ad4fc248-046b-409f-ba4a-33c2f1e68b94"},"vehicle_type_id":"4","last_reported":1686683079,"current_range_meters":15200,"station_id":"ce4bhnh2rcd13ifvqgtg","pricing_plan_id":"free"},{"bike_id":"381ff9f5-76f3-464b-94a4-9838a1eeedbe","system_id":"levelo_inurba_marseille","lat":43.26996,"lon":5.39263,"is_reserved":false,"is_disabled":false,"rental_uris":{"android":"levelo://app?vid=381ff9f5-76f3-464b-94a4-9838a1eeedbe","ios":"levelo://app?vid=381ff9f5-76f3-464b-94a4-9838a1eeedbe"},"vehicle_type_id":"4","last_reported":1686683079,"current_range_meters":20800,"station_id":"","pricing_plan_id":"free"},{"bike_id":"cfba2fbe-9ed5-423f-b411-8d6c38451715","system_id":"levelo_inurba_marseille","lat":43.26683,"lon":5.38268,"is_reserved":false,"is_disabled":false,"rental_uris":{"android":"levelo://app?vid=cfba2fbe-9ed5-423f-b411-8d6c38451715","ios":"levelo://app?vid=cfba2fbe-9ed5-423f-b411-8d6c38451715"},"vehicle_type_id":"4","last_reported":1686683079,"current_range_meters":31200,"station_id":"ce4bhg92rcd13ifvqf90","pricing_plan_id":"free"},{"bike_id":"6275aaca-a354-407f-be44-df40f2969d44","system_id":"levelo_inurba_marseille","lat":43.26677,"lon":5.38272,"is_reserved":false,"is_disabled":false,"rental_uris":{"android":"levelo://app?vid=6275aaca-a354-407f-be44-df40f2969d44","ios":"levelo://app?vid=6275aaca-a354-407f-be44-df40f2969d44"},"vehicle_type_id":"4","last_reported":1686683079,"current_range_meters":31200,"station_id":"ce4bhg92rcd13ifvqf90","pricing_plan_id":"free"},{"bike_id":"a8e39cc9-462c-40cd-8a68-317865f2ef32","system_id":"levelo_inurba_marseille","lat":43.27985,"lon":5.41659,"is_reserved":false,"is_disabled":false,"rental_uris":{"android":"levelo://app?vid=a8e39cc9-462c-40cd-8a68-317865f2ef32","ios":"levelo://app?vid=a8e39cc9-462c-40cd-8a68-317865f2ef32"},"vehicle_type_id":"4","last_reported":1686683079,"current_range_meters":12800,"station_id":"ce4bho12rcd13ifvqh1g","pricing_plan_id":"free"},{"bike_id":"3987290e-fd4b-4f2b-81c0-57fca98f9cde","system_id":"levelo_inurba_marseille","lat":43.267966,"lon":5.393976,"is_reserved":false,"is_disabled":false,"rental_uris":{"android":"levelo://app?vid=3987290e-fd4b-4f2b-81c0-57fca98f9cde","ios":"levelo://app?vid=3987290e-fd4b-4f2b-81c0-57fca98f9cde"},"vehicle_type_id":"4","last_reported":1686683079,"current_range_meters":30000,"station_id":"ce4bhh12rcd13ifvqfg0","pricing_plan_id":"free"},{"bike_id":"f2d8580d-6068-4230-9051-32614745b5a8","system_id":"levelo_inurba_marseille","lat":43.26577,"lon":5.39003,"is_reserved":false,"is_disabled":false,"rental_uris":{"android":"levelo://app?vid=f2d8580d-6068-4230-9051-32614745b5a8","ios":"levelo://app?vid=f2d8580d-6068-4230-9051-32614745b5a8"},"vehicle_type_id":"4","last_reported":1686683079,"current_range_meters":27600,"station_id":"ce4bhe12rcd13ifvqf30","pricing_plan_id":"free"},{"bike_id":"1b996804-f7a8-4157-a8c3-416f8c6313c5","system_id":"levelo_inurba_marseille","lat":43.30793,"lon":5.43524,"is_reserved":false,"is_disabled":false,"rental_uris":{"android":"levelo://app?vid=1b996804-f7a8-4157-a8c3-416f8c6313c5","ios":"levelo://app?vid=1b996804-f7a8-4157-a8c3-416f8c6313c5"},"vehicle_type_id":"4","last_reported":1686683079,"current_range_meters":4800,"station_id":"","pricing_plan_id":"free"},{"bike_id":"c5c0eb20-89f3-49c1-a531-d3a0ee224618","system_id":"levelo_inurba_marseille","lat":43.26568,"lon":5.38999,"is_reserved":false,"is_disabled":false,"rental_uris":{"android":"levelo://app?vid=c5c0eb20-89f3-49c1-a531-d3a0ee224618","ios":"levelo://app?vid=c5c0eb20-89f3-49c1-a531-d3a0ee224618"},"vehicle_type_id":"4","last_reported":1686683079,"current_range_meters":25600,"station_id":"ce4bhe12rcd13ifvqf30","pricing_plan_id":"free"},{"bike_id":"57019e54-331e-488e-a883-9f017cc558f6","system_id":"levelo_inurba_marseille","lat":43.26567,"lon":5.39009,"is_reserved":false,"is_disabled":false,"rental_uris":{"android":"levelo://app?vid=57019e54-331e-488e-a883-9f017cc558f6","ios":"levelo://app?vid=57019e54-331e-488e-a883-9f017cc558f6"},"vehicle_type_id":"4","last_reported":1686683079,"current_range_meters":2000,"station_id":"ce4bhe12rcd13ifvqf30","pricing_plan_id":"free"},