{"last_updated":1711314325,"ttl":30,"version":"2.2","data":{"bikes":[{"bike_id":"afad6e39-1118-499c-87f0-79765ebb2d47","system_id":"levelo_inurba_marseille","lat":43.31212,"lon":5.36856,"is_reserved":false,"is_disabled":false,"rental_uris":{"android":"levelo://app?vid=afad6e39-1118-499c-87f0-79765ebb2d47","ios":"levelo://app?vid=afad6e39-1118-499c-87f0-79765ebb2d47"},"vehicle_type_id":"4","last_reported":1711314325,"current_range_meters":16800,"station_id":"ce4bgl92rcd13ifvqbq0","pricing_plan_id":"cebpf4jnsgd1na2vs0mg"},{"bike_id":"51d7eb39-8f00-46fc-b666-0ffce4c41c54","system_id":"levelo_inurba_marseille","lat":43.31221,"lon":5.36865,"is_reserved":false,"is_disabled":false,"rental_uris":{"android":"levelo://app?vid=51d7eb39-8f00-46fc-b666-0ffce4c41c54","ios":"levelo://app?vid=51d7eb39-8f00-46fc-b666-0ffce4c41c54"},"vehicle_type_id":"4","last_reported":1711314325,"current_range_meters":29200,"station_id":"ce4bgl92rcd13ifvqbq0","pricing_plan_id":"cebpf4jnsgd1na2vs0mg"},{"bike_id":"0b2bb224-6069-477c-9597-287f01d2b9cb","system_id":"levelo_inurba_marseille","lat":43.312239,"lon":5.368562,"is_reserved":false,"is_disabled":false,"rental_uris":{"android":"levelo://app?vid=0b2bb224-6069-477c-9597-287f01d2b9cb","ios":"levelo://app?vid=0b2bb224-6069-477c-9597-287f01d2b9cb"},"vehicle_type_id":"4","last_reported":1711314325,"current_range_meters":3600,"station_id":"ce4bgl92rcd13ifvqbq0","pricing_plan_id":"cebpf4jnsgd1na2vs0mg"},{"bike_id":"0cd2de47-43df-4c6b-b609-bd7ce9cf8ea8","system_id":"levelo_inurba_marseille","lat":43.312239,"lon":5.368562,"is_reserved":false,"is_disabled":false,"rental_uris":{"android":"levelo://app?vid=0cd2de47-43df-4c6b-b609-bd7ce9cf8ea8","ios":"levelo://app?vid=0cd2de47-43df-4c6b-b609-bd7ce9cf8ea8"},"vehicle_type_id":"4","last_reported":1711314325,"current_range_meters":26800,"station_id":"ce4bgl92rcd13ifvqbq0","pricing_plan_id":"cebpf4jnsgd1na2vs0mg"},{"bike_id":"e092e207-b0db-458d-bb27-a2ed46331867","system_id":"levelo_inurba_marseille","lat":43.309076,"lon":5.368465,"is_reserved":false,"is_disabled":false,"rental_uris":{"android":"levelo://app?vid=e092e207-b0db-458d-bb27-a2ed46331867","ios":"levelo://app?vid=e092e207-b0db-458d-bb27-a2ed46331867"},"vehicle_type_id":"4","last_reported":1711314325,"current_range_meters":0,"station_id":"ce4bgn92rcd13ifvqbvg","pricing_plan_id":"cebpf4jnsgd1na2vs0mg"},{"bike_id":"f9dd9f91-92fc-4b44-883c-f05140fc62df","system_id":"levelo_inurba_marseille","lat":43.309076,"lon":5.368465,"is_reserved":false,"is_disabled":false,"rental_uris":{"android":"levelo://app?vid=f9dd9f91-92fc-4b44-883c-f05140fc62df","ios":"levelo://app?vid=f9dd9f91-92fc-4b44-883c-f05140fc62df"},"vehicle_type_id":"4","last_reported":1711314325,"current_range_meters":4800,"station_id":"ce4bgn92rcd13ifvqbvg","pricing_plan_id":"cebpf4jnsgd1na2vs0mg"},{"bike_id":"1fcce3c7-4eae-4162-8ea6-1bbaf0071912","system_id":"levelo_inurba_marseille","lat":43.309076,"lon":5.368465,"is_reserved":false,"is_disabled":false,"rental_uris":{"android":"levelo://app?vid=1fcce3c7-4eae-4162-8ea6-1bbaf0071912","ios":"levelo://app?vid=1fcce3c7-4eae-4162-8ea6-1bbaf0071912"},"vehicle_type_id":"4","last_reported":1711314325,"current_range_meters":10400,"station_id":"ce4bgn92rcd13ifvqbvg","pricing_plan_id":"cebpf4jnsgd1na2vs0mg"},{"bike_id":"927fe6c4-2adb-4bde-83f9-d55dcd304e7c","system_id":"levelo_inurba_marseille","lat":43.31484,"lon":5.37305,"is_reserved":false,"is_disabled":false,"rental_uris":{"android":"levelo://app?vid=927fe6c4-2adb-4bde-83f9-d55dcd304e7c","ios":"levelo://app?vid=927fe6c4-2adb-4bde-83f9-d55dcd304e7c"},"vehicle_type_id":"4","last_reported":1711314325,"current_range_meters":0,"station_id":"ce4bgt12rcd13ifvqcd0","pricing_plan_id":"cebpf4jnsgd1na2vs0mg"},{"bike_id":"d8fa94b9-4926-4e4c-ba44-02e01e14379d","system_id":"levelo_inurba_marseille","lat":43.314228,"lon":5.374192,"is_reserved":false,"is_disabled":false,"rental_uris":{"android":"levelo://app?vid=d8fa94b9-4926-4e4c-ba44-02e01e14379d","ios":"levelo://app?vid=d8fa94b9-4926-4e4c-ba44-02e01e14379d"},"vehicle_type_id":"4","last_reported":1711314325,"current_range_meters":11600,"station_id":"","pricing_plan_id":"cebpf4jnsgd1na2vs0mg"},{"bike_id":"4f006df7-4021-4894-a978-e7fbd68140e6","system_id":"levelo_inurba_marseille","lat":43.313723,"lon":5.377008,"is_reserved":false,"is_disabled":false,"rental_uris":{"android":"levelo://app?vid=4f006df7-4021-4894-a978-e7fbd68140e6","ios":"levelo://app?vid=4f006df7-4021-4894-a978-e7fbd68140e6"},"vehicle_type_id":"4","last_reported":1711314325,"current_range_meters":6800,"station_id":"","pricing_plan_id":"cebpf4jnsgd1na2vs0mg"},{"bike_id":"44721306-1a87-4c45-be43-c82077ea7be5","system_id":"levelo_inurba_marseille","lat":43.305463,"lon":5.369717,"is_reserved":false,"is_disabled":false,"rental_uris":{"android":"levelo://app?vid=44721306-1a87-4c45-be43-c82077ea7be5","ios":"levelo://app?vid=44721306-1a87-4c45-be43-c82077ea7be5"},"vehicle_type_id":"4","last_reported":1711314325,"current_range_meters":0,"station_id":"","pricing_plan_id":"cebpf4jnsgd1na2vs0mg"},{"bike_id":"d40ea72c-d505-46df-8f15-ef8cfb3e103e","system_id":"levelo_inurba_marseille","lat":43.30608,"lon":5.37225,"is_reserved":false,"is_disabled":false,"rental_uris":{"android":"levelo://app?vid=d40ea72c-d505-46df-8f15-ef8cfb3e103e","ios":"levelo://app?vid=d40ea72c-d505-46df-8f15-ef8cfb3e103e"},"vehicle_type_id":"4","last_reported":1711314325,"current_range_meters":0,"station_id":"ce4bgqh2rcd13ifvqc4g","pricing_plan_id":"cebpf4jnsgd1na2vs0mg"},{"bike_id":"f8ecb559-939a-41f2-a843-b61bff54163b","system_id":"levelo_inurba_marseille","lat":43.311125,"lon":5.377624,"is_reserved":false,"is_disabled":false,"rental_uris":{"android":"levelo://app?vid=f8ecb559-939a-41f2-a843-b61bff54163b","ios":"levelo://app?vid=f8ecb559-939a-41f2-a843-b61bff54163b"},"vehicle_type_id":"4","last_reported":1711314325,"current_range_meters":7200,"station_id":"ce4bgt92rcd13ifvqcg0","pricing_plan_id":"cebpf4jnsgd1na2vs0mg"},{"bike_id":"667ee725-54ef-4a32-afbc-6809523fbc2b","system_id":"levelo_inurba_marseille","lat":43.317075,"lon":5.377367,"is_reserved":false,"is_disabled":false,"rental_uris":{"android":"levelo://app?vid=667ee725-54ef-4a32-afbc-6809523fbc2b","ios":"levelo://app?vid=667ee725-54ef-4a32-afbc-6809523fbc2b"},"vehicle_type_id":"4","last_reported":1711314325,"current_range_meters":23600,"station_id":"ce4bgth2rcd13ifvqch0","pricing_plan_id":"cebpf4jnsgd1na2vs0mg"},{"bike_id":"ca79c3fc-c0b1-4666-888e-edb18b1b4c0f","system_id":"levelo_inurba_marseille","lat":43.307945,"lon":5.376487,"is_reserved":false,"is_disabled":false,"rental_uris":{"android":"levelo://app?vid=ca79c3fc-c0b1-4666-888e-edb18b1b4c0f","ios":"levelo://app?vid=ca79c3fc-c0b1-4666-888e-edb18b1b4c0f"},"vehicle_type_id":"4","last_reported":1711314325,"current_range_meters":18400,"station_id":"ce4bgv92rcd13ifvqcq0","pricing_plan_id":"cebpf4jnsgd1na2vs0mg"},{"bike_id":"b916e65d-9470-4670-a63f-7acc05595928","system_id":"levelo_inurba_marseille","lat":43.31943,"lon":5.37437,"is_reserved":false,"is_disabled":false,"rental_uris":{"android":"levelo://app?vid=b916e65d-9470-4670-a63f-7acc05595928","ios":"levelo://app?vid=b916e65d-9470-4670-a63f-7acc05595928"},"vehicle_type_id":"4","last_reported":1711314325,"current_range_meters":20400,"station_id":"","pricing_plan_id":"cebpf4jnsgd1na2vs0mg"},{"bike_id":"719acdf2-42cc-4939-a7df-b31e3f8811fd","system_id":"levelo_inurba_marseille","lat":43.317075,"lon":5.377367,"is_reserved":false,"is_disabled":false,"rental_uris":{"android":"levelo://app?vid=719acdf2-42cc-4939-a7df-b31e3f8811fd","ios":"levelo://app?vid=719acdf2-42cc-4939-a7df-b31e3f8811fd"},"vehicle_type_id":"4","last_reported":1711314325,"current_range_meters":8000,"station_id":"ce4bgth2rcd13ifvqch0","pricing_plan_id":"cebpf4jnsgd1na2vs0mg"},{"bike_id":"ca090037-d71c-4b3e-b047-e2153cdc042f","system_id":"levelo_inurba_marseille","lat":43.307945,"lon":5.376487,"is_reserved":false,"is_disabled":false,"rental_uris":{"android":"levelo://app?vid=ca090037-d71c-4b3e-b047-e2153cdc042f","ios":"levelo://app?vid=ca090037-d71c-4b3e-b047-e2153cdc042f"},"vehicle_type_id":"4","last_reported":1711314325,"current_range_meters":3200,"station_id":"ce4bgv92rcd13ifvqcq0","pricing_plan_id":"cebpf4jnsgd1na2vs0mg"},{"bike_id":"61bbc9f3-e131-4b5a-b222-5d71425ea4ea","system_id":"levelo_inurba_marseille","lat":43.317075,"lon":5.377367,"is_reserved":false,"is_disabled":false,"rental_uris":{"android":"levelo://app?vid=61bbc9f3-e131-4b5a-b222-5d71425ea4ea","ios":"levelo://app?vid=61bbc9f3-e131-4b5a-b222-5d71425ea4ea"},"vehicle_type_id":"4","last_reported":1711314325,"current_range_meters":2400,"station_id":"ce4bgth2rcd13ifvqch0","pricing_plan_id":"cebpf4jnsgd1na2vs0mg"},{"bike_id":"238ecaa1-31b2-4d16-b3bb-7e6befbf3378","system_id":"levelo_inurba_marseille","lat":43.31374,"lon":5.37941,"is_reserved":false,"is_disabled":false,"rental_uris":{"android":"levelo://app?vid=238ecaa1-31b2-4d16-b3bb-7e6befbf3378","ios":"levelo://app?vid=238ecaa1-31b2-4d16-b3bb-7e6befbf3378"},"vehicle_type_id":"4","last_reported":1711314325,"current_range_meters":16400,"station_id":"","pricing_plan_id":"cebpf4jnsgd1na2vs0mg"},{"bike_id":"0c090971-c985-462e-a011-be74508a8414","system_id":"levelo_inurba_marseille","lat":43.315289,"lon":5.380349,"is_reserved":false,"is_disabled":false,"rental_uris":{"android":"levelo://app?vid=0c090971-c985-462e-a011-be74508a8414","ios":"levelo://app?vid=0c090971-c985-462e-a011-be74508a8414"},"vehicle_type_id":"4","last_reported":1711314325,"current_range_meters":16800,"station_id":"ce4bhsp2rcd13ifvqi50","pricing_plan_id":"cebpf4jnsgd1na2vs0mg"},{"bike_id":"47f1d9c1-d937-439e-b1e6-f9b95ea4d2ca","system_id":"levelo_inurba_marseille","lat":43.315293,"lon":5.380349,"is_reserved":false,"is_disabled":false,"rental_uris":{"android":"levelo://app?vid=47f1d9c1-d937-439e-b1e6-f9b95ea4d2ca","ios":"levelo://app?vid=47f1d9c1-d937-439e-b1e6-f9b95ea4d2ca"},"vehicle_type_id":"4","last_reported":1711314325,"current_range_meters":17600,"station_id":"ce4bhsp2rcd13ifvqi50","pricing_plan_id":"cebpf4jnsgd1na2vs0mg"},{"bike_id":"4dd73167-aea0-4325-ad4d-2e7cb704107b","system_id":"levelo_inurba_marseille","lat":43.315289,"lon":5.380349,"is_reserved":false,"is_disabled":false,"rental_uris":{"android":"levelo://app?vid=4dd73167-aea0-4325-ad4d-2e7cb704107b","ios":"levelo://app?vid=4dd73167-aea0-4325-ad4d-2e7cb704107b"},"vehicle_type_id":"4","last_reported":1711314325,"current_range_meters":12000,"station_id":"ce4bhsp2rcd13ifvqi50","pricing_plan_id":"cebpf4jnsgd1na2vs0mg"},{"bike_id":"02f93d4e-1997-4aa4-8efc-3c261ebf1d2d","system_id":"levelo_inurba_marseille","lat":43.315293,"lon":5.380349,"is_reserved":false,"is_disabled":false,"rental_uris":{"android":"levelo://app?vid=02f93d4e-1997-4aa4-8efc-3c261ebf1d2d","ios":"levelo://app?vid=02f93d4e-1997-4aa4-8efc-3c261ebf1d2d"},"vehicle_type_id":"4","last_reported":1711314325,"current_range_meters":26400,"station_id":"ce4bhsp2rcd13ifvqi50","pricing_plan_id":"cebpf4jnsgd1na2vs0mg"},{"bike_id":"2b7d57ba-166d-4c4f-8982-b9f73778c5d4","system_id":"levelo_inurba_marseille","lat":43.303485,"lon":5.37641,"is_reserved":false,"is_disabled":false,"rental_uris":{"android":"levelo://app?vid=2b7d57ba-166d-4c4f-8982-b9f73778c5d4","ios":"levelo://app?vid=2b7d57ba-166d-4c4f-8982-b9f73778c5d4"},"vehicle_type_id":"4","last_reported":1711314325,"current_range_meters":10000,"station_id":"ce4bgh92rcd13ifvqb50","pricing_plan_id":"cebpf4jnsgd1na2vs0mg"},{"bike_id":"6a0f4add-865f-489d-92f5-4666b9ea4997","system_id":"levelo_inurba_marseille","lat":43.308012,"lon":5.381511,"is_reserved":false,"is_disabled":false,"rental_uris":{"android":"levelo://app?vid=6a0f4add-865f-489d-92f5-4666b9ea4997","ios":"levelo://app?vid=6a0f4add-865f-489d-92f5-4666b9ea4997"},"vehicle_type_id":"4","last_reported":1711314325,"current_range_meters":5600,"station_id":"ce4bgt12rcd13ifvqce0","pricing_plan_id":"cebpf4jnsgd1na2vs0mg"},{"bike_id":"bddec9d4-77a8-47f8-be2e-8a5a2c91745a","system_id":"levelo_inurba_marseille","lat":43.308012,"lon":5.381511,"is_reserved":false,"is_disabled":false,"rental_uris":{"android":"levelo://app?vid=bddec9d4-77a8-47f8-be2e-8a5a2c91745a","ios":"levelo://app?vid=bddec9d4-77a8-47f8-be2e-8a5a2c91745a"},"vehicle_type_id":"4","last_reported":1711314325,"current_range_meters":800,"station_id":"ce4bgt12rcd13ifvqce0","pricing_plan_id":"cebpf4jnsgd1na2vs0mg"},{"bike_id":"93dd524b-2f4f-4a74-9621-fe1de4f18ac2","system_id":"levelo_inurba_marseille","lat":43.304606,"lon":5.379026,"is_reserved":false,"is_disabled":false,"rental_uris":{"android":"levelo://app?vid=93dd524b-2f4f-4a74-9621-fe1de4f18ac2","ios":"levelo://app?vid=93dd524b-2f4f-4a74-9621-fe1de4f18ac2"},"vehicle_type_id":"4","last_reported":1711314325,"current_range_meters":28400,"station_id":"ce4bgup2rcd13ifvqcn0","pricing_plan_id":"cebpf4jnsgd1na2vs0mg"},{"bike_id":"c2767835-0627-4dd2-a94d-e3ce6ce4d8d8","system_id":"levelo_inurba_marseille","lat":43.308012,"lon":5.381511,"is_reserved":false,"is_disabled":false,"rental_uris":{"android":"levelo://app?vid=c2767835-0627-4dd2-a94d-e3ce6ce4d8d8","ios":"levelo://app?vid=c2767835-0627-4dd2-a94d-e3ce6ce4d8d8"},"vehicle_type_id":"4","last_reported":1711314325,"current_range_meters":2000,"station_id":"ce4bgt12rcd13ifvqce0","pricing_plan_id":"cebpf4jnsgd1na2vs0mg"},{"bike_id":"87aa225b-8b58-4852-bfb0-7f02337e8c85","system_id":"levelo_inurba_marseille","lat":43.304606,"lon":5.379026,"is_reserved":false,"is_disabled":false,"rental_uris":{"android":"levelo://app?vid=87aa225b-8b58-4852-bfb0-7f02337e8c85","ios":"levelo://app?vid=87aa225b-8b58-4852-bfb0-7f02337e8c85"},"vehicle_type_id":"4","last_reported":1711314325,"current_range_meters":22400,"station_id":"ce4bgup2rcd13ifvqcn0","pricing_plan_id":"cebpf4jnsgd1na2vs0mg"},{"bike_id":"4bda8e00-13ff-4190-a88c-7ba9d1ef29f5","system_id":"levelo_inurba_marseille","lat":43.304606,"lon":5.379026,"is_reserved":false,"is_disabled":false,"rental_uris":{"android":"levelo://app?vid=4bda8e00-13ff-4190-a88c-7ba9d1ef29f5","ios":"levelo://app?vid=4bda8e00-13ff-4190-a88c-7ba9d1ef29f5"},"vehicle_type_id":"4","last_reported":1711314325,"current_range_meters":31600,"station_id":"ce4bgup2rcd13ifvqcn0","pricing_plan_id":"cebpf4jnsgd1na2vs0mg"},{"bike_id":"13b0eeb3-7f09-4b53-ac84-e58268a611f4","system_id":"levelo_inurba_marseille","lat":43.304606,"lon":5.379026,"is_reserved":false,"is_disabled":false,"rental_uris":{"android":"levelo://app?vid=13b0eeb3-7f09-4b53-ac84-e58268a611f4","ios":"levelo://app?vid=13b0eeb3-7f09-4b53-ac84-e58268a611f4"},"vehicle_type_id":"4","last_reported":1711314325,"current_range_meters":1200,"station_id":"ce4bgup2rcd13ifvqcn0","pricing_plan_id":"cebpf4jnsgd1na2vs0mg"},{"bike_id":"cbe4a429-4e2c-4d79-9e4b-2edea50a2ece","system_id":"levelo_inurba_marseille","lat":43.304606,"lon":5.379026,"is_reserved":false,"is_disabled":false,"rental_uris":{"android":"levelo://app?vid=cbe4a429-4e2c-4d79-9e4b-2edea50a2ece","ios":"levelo://app?vid=cbe4a429-4e2c-4d79-9e4b-2edea50a2ece"},"vehicle_type_id":"4","last_reported":1711314325,"current_range_meters":1200,"station_id":"ce4bgup2rcd13ifvqcn0","pricing_plan_id":"cebpf4jnsgd1na2vs0mg"},{"bike_id":"388f4dbe-d00f-41ae-80a1-e90d5fd40bfc","system_id":"levelo_inurba_marseille","lat":43.324771,"lon":5.36557,"is_reserved":false,"is_disabled":false,"rental_uris":{"android":"levelo://app?vid=388f4dbe-d00f-41ae-80a1-e90d5fd40bfc","ios":"levelo://app?vid=388f4dbe-d00f-41ae-80a1-e90d5fd40bfc"},"vehicle_type_id":"4","last_reported":1711314325,"current_range_meters":12400,"station_id":"ce4bhs12rcd13ifvqhvg","pricing_plan_id":"cebpf4jnsgd1na2vs0mg"},{"bike_id":"e93ff52a-e91d-490b-b7ce-6be5a7df203a","system_id":"levelo_inurba_marseille","lat":43.324771,"lon":5.36557,"is_reserved":false,"is_disabled":false,"rental_uris":{"android":"levelo://app?vid=e93ff52a-e91d-490b-b7ce-6be5a7df203a","ios":"levelo://app?vid=e93ff52a-e91d-490b-b7ce-6be5a7df203a"},"vehicle_type_id":"4","last_reported":1711314325,"current_range_meters":11200,"station_id":"ce4bhs12rcd13ifvqhvg","pricing_plan_id":"cebpf4jnsgd1na2vs0mg"},{"bike_id":"1da5e40e-58a0-4d1b-a7e7-2641b7356d14","system_id":"levelo_inurba_marseille","lat":43.324827,"lon":5.365597,"is_reserved":false,"is_disabled":false,"rental_uris":{"android":"levelo://app?vid=1da5e40e-58a0-4d1b-a7e7-2641b7356d14","ios":"levelo://app?vid=1da5e40e-58a0-4d1b-a7e7-2641b7356d14"},"vehicle_type_id":"4","last_reported":1711314325,"current_range_meters":0,"station_id":"ce4bhs12rcd13ifvqhvg","pricing_plan_id":"cebpf4jnsgd1na2vs0mg"},{"bike_id":"fa05d3e5-f409-4e05-ace7-f6f819e528e8","system_id":"levelo_inurba_marseille","lat":43.32484,"lon":5.36578,"is_reserved":false,"is_disabled":false,"rental_uris":{"android":"levelo://app?vid=fa05d3e5-f409-4e05-ace7-f6f819e528e8","ios":"levelo://app?vid=fa05d3e5-f409-4e05-ace7-f6f819e528e8"},"vehicle_type_id":"4","last_reported":1711314325,"current_range_meters":0,"station_id":"ce4bhs12rcd13ifvqhvg","pricing_plan_id":"cebpf4jnsgd1na2vs0mg"},{"bike_id":"336f0deb-d3ca-47f4-bb53-06b808624733","system_id":"levelo_inurba_marseille","lat":43.324771,"lon":5.36557,"is_reserved":false,"is_disabled":false,"rental_uris":{"android":"levelo://app?vid=336f0deb-d3ca-47f4-bb53-06b808624733","ios":"levelo://app?vid=336f0deb-d3ca-47f4-bb53-06b808624733"},"vehicle_type_id":"4","last_reported":1711314325,"current_range_meters":21200,"station_id":"ce4bhs12rcd13ifvqhvg","pricing_plan_id":"cebpf4jnsgd1na2vs0mg"},{"bike_id":"02ed60ba-e126-4346-af5a-15d6cded049a","system_id":"levelo_inurba_marseille","lat":43.324771,"lon":5.36557,"is_reserved":false,"is_disabled":false,"rental_uris":{"android":"levelo://app?vid=02ed60ba-e126-4346-af5a-15d6cded049a","ios":"levelo://app?vid=02ed60ba-e126-4346-af5a-15d6cded049a"},"vehicle_type_id":"4","last_reported":1711314325,"current_range_meters":2800,"station_id":"ce4bhs12rcd13ifvqhvg","pricing_plan_id":"cebpf4jnsgd1na2vs0mg"},{"bike_id":"4fdd6a97-32ed-47a3-8f14-e91089c32b29","system_id":"levelo_inurba_marseille","lat":43.310804,"lon":5.38359,"is_reserved":false,"is_disabled":false,"rental_uris":{"android":"levelo://app?vid=4fdd6a97-32ed-47a3-8f14-e91089c32b29","ios":"levelo://app?vid=4fdd6a97-32ed-47a3-8f14-e91089c32b29"},"vehicle_type_id":"4","last_reported":1711314325,"current_range_meters":8000,"station_id":"ce4bgv92rcd13ifvqcr0","pricing_plan_id":"cebpf4jnsgd1na2vs0mg"},{"bike_id":"f683880a-2053-4e09-9d87-67a72235fd6e","system_id":"levelo_inurba_marseille","lat":43.31075,"lon":5.38356,"is_reserved":false,"is_disabled":false,"rental_uris":{"android":"levelo://app?vid=f683880a-2053-4e09-9d87-67a72235fd6e","ios":"levelo://app?vid=f683880a-2053-4e09-9d87-67a72235fd6e"},"vehicle_type_id":"4","last_reported":1711314325,"current_range_meters":0,"station_id":"ce4bgv92rcd13ifvqcr0","pricing_plan_id":"cebpf4jnsgd1na2vs0mg"},{"bike_id":"8fc4410e-6c80-4222-84fd-13b63b721f35","system_id":"levelo_inurba_marseille","lat":43.310804,"lon":5.38359,"is_reserved":false,"is_disabled":false,"rental_uris":{"android":"levelo://app?vid=8fc4410e-6c80-4222-84fd-13b63b721f35","ios":"levelo://app?vid=8fc4410e-6c80-4222-84fd-13b63b721f35"},"vehicle_type_id":"4","last_reported":1711314325,"current_range_meters":19200,"station_id":"ce4bgv92rcd13ifvqcr0","pricing_plan_id":"cebpf4jnsgd1na2vs0mg"},{"bike_id":"073313bc-3ce8-495b-bec8-1379d201c0cb","system_id":"levelo_inurba_marseille","lat":43.310804,"lon":5.38359,"is_reserved":false,"is_disabled":false,"rental_uris":{"android":"levelo://app?vid=073313bc-3ce8-495b-bec8-1379d201c0cb","ios":"levelo://app?vid=073313bc-3ce8-495b-bec8-1379d201c0cb"},"vehicle_type_id":"4","last_reported":1711314325,"current_range_meters":26000,"station_id":"ce4bgv92rcd13ifvqcr0","pricing_plan_id":"cebpf4jnsgd1na2vs0mg"},{"bike_id":"31748821-308a-49ab-98f1-e27c00776aa6","system_id":"levelo_inurba_marseille","lat":43.302784,"lon":5.377158,"is_reserved":false,"is_disabled":false,"rental_uris":{"android":"levelo://app?vid=31748821-308a-49ab-98f1-e27c00776aa6","ios":"levelo://app?vid=31748821-308a-49ab-98f1-e27c00776aa6"},"vehicle_type_id":"4","last_reported":1711314325,"current_range_meters":14000,"station_id":"ce4bguh2rcd13ifvqcj0","pricing_plan_id":"cebpf4jnsgd1na2vs0mg"},{"bike_id":"ccf954a3-296a-4815-a4de-6c7541079642","system_id":"levelo_inurba_marseille","lat":43.302748,"lon":5.377164,"is_reserved":false,"is_disabled":false,"rental_uris":{"android":"levelo://app?vid=ccf954a3-296a-4815-a4de-6c7541079642","ios":"levelo://app?vid=ccf954a3-296a-4815-a4de-6c7541079642"},"vehicle_type_id":"4","last_reported":1711314325,"current_range_meters":5600,"station_id":"ce4bguh2rcd13ifvqcj0","pricing_plan_id":"cebpf4jnsgd1na2vs0mg"},{"bike_id":"5d8e8ee4-2aa1-46e3-9f89-3c688c34efbc","system_id":"levelo_inurba_marseille","lat":43.30143,"lon":5.37413,"is_reserved":false,"is_disabled":false,"rental_uris":{"android":"levelo://app?vid=5d8e8ee4-2aa1-46e3-9f89-3c688c34efbc","ios":"levelo://app?vid=5d8e8ee4-2aa1-46e3-9f89-3c688c34efbc"},"vehicle_type_id":"4","last_reported":1711314325,"current_range_meters":22000,"station_id":"ce4bgs92rcd13ifvqcc0","pricing_plan_id":"cebpf4jnsgd1na2vs0mg"},{"bike_id":"1de53826-db4b-4a85-a11f-98afbe118a3f","system_id":"levelo_inurba_marseille","lat":43.30143,"lon":5.37418,"is_reserved":false,"is_disabled":false,"rental_uris":{"android":"levelo://app?vid=1de53826-db4b-4a85-a11f-98afbe118a3f","ios":"levelo://app?vid=1de53826-db4b-4a85-a11f-98afbe118a3f"},"vehicle_type_id":"4","last_reported":1711314325,"current_range_meters":6800,"station_id":"ce4bgs92rcd13ifvqcc0","pricing_plan_id":"cebpf4jnsgd1na2vs0mg"},{"bike_id":"c637d21f-db7e-4cc8-b38d-73d404ad3c41","system_id":"levelo_inurba_marseille","lat":43.302784,"lon":5.377158,"is_reserved":false,"is_disabled":false,"rental_uris":{"android":"levelo://app?vid=c637d21f-db7e-4cc8-b38d-73d404ad3c41","ios":"levelo://app?vid=c637d21f-db7e-4cc8-b38d-73d404ad3c41"},"vehicle_type_id":"4","last_reported":1711314325,"current_range_meters":10000,"station_id":"ce4bguh2rcd13ifvqcj0","pricing_plan_id":"cebpf4jnsgd1na2vs0mg"},{"bike_id":"9fee9b9b-a740-46c5-96bd-8f0e79a39c23","system_id":"levelo_inurba_marseille","lat":43.319935,"lon":5.381699,"is_reserved":false,"is_disabled":false,"rental_uris":{"android":"levelo://app?vid=9fee9b9b-a740-46c5-96bd-8f0e79a39c23","ios":"levelo://app?vid=9fee9b9b-a740-46c5-96bd-8f0e79a39c23"},"vehicle_type_id":"4","last_reported":1711314325,"current_range_meters":0,"station_id":"ce4bhr12rcd13ifvqhpg","pricing_plan_id":"cebpf4jnsgd1na2vs0mg"},{"bike_id":"6c1e3c51-cd5a-469b-a350-c7f83832aa8a","system_id":"levelo_inurba_marseille","lat":43.319935,"lon":5.381699,"is_reserved":false,"is_disabled":false,"rental_uris":{"android":"levelo://app?vid=6c1e3c51-cd5a-469b-a350-c7f83832aa8a","ios":"levelo://app?vid=6c1e3c51-cd5a-469b-a350-c7f83832aa8a"},"vehicle_type_id":"4","last_reported":1711314325,"current_range_meters":3200,"station_id":"ce4bhr12rcd13ifvqhpg","pricing_plan_id":"cebpf4jnsgd1na2vs0mg"},{"bike_id":"fb2dbb66-bb42-4593-8a43-4d970a924dc3","system_id":"levelo_inurba_marseille","lat":43.31998,"lon":5.38151,"is_reserved":false,"is_disabled":false,"rental_uris":{"android":"levelo://app?vid=fb2dbb66-bb42-4593-8a43-4d970a924dc3","ios":"levelo://app?vid=fb2dbb66-bb42-4593-8a43-4d970a924dc3"},"vehicle_type_id":"4","last_reported":1711314325,"current_range_meters":2400,"station_id":"ce4bhr12rcd13ifvqhpg","pricing_plan_id":"cebpf4jnsgd1na2vs0mg"},{"bike_id":"ba709437-82b5-4c74-974c-4c50a356b816","system_id":"levelo_inurba_marseille","lat":43.319935,"lon":5.381699,"is_reserved":false,"is_disabled":false,"rental_uris":{"android":"levelo://app?vid=ba709437-82b5-4c74-974c-4c50a356b816","ios":"levelo://app?vid=ba709437-82b5-4c74-974c-4c50a356b816"},"vehicle_type_id":"4","last_reported":1711314325,"current_range_meters":13600,"station_id":"ce4bhr12rcd13ifvqhpg","pricing_plan_id":"cebpf4jnsgd1na2vs0mg"},{"bike_id":"bcf49a43-dffa-42c9-aa23-9dd17d61871e","system_id":"levelo_inurba_marseille","lat":43.313571,"lon":5.384829,"is_reserved":false,"is_disabled":false,"rental_uris":{"android":"levelo://app?vid=bcf49a43-dffa-42c9-aa23-9dd17d61871e","ios":"levelo://app?vid=bcf49a43-dffa-42c9-aa23-9dd17d61871e"},"vehicle_type_id":"4","last_reported":1711314325,"current_range_meters":1600,"station_id":"ce4bgt92rcd13ifvqcf0","pricing_plan_id":"cebpf4jnsgd1na2vs0mg"},{"bike_id":"21660b84-8be3-4777-93a0-11e5924fbbc6","system_id":"levelo_inurba_marseille","lat":43.31359,"lon":5.384891,"is_reserved":false,"is_disabled":false,"rental_uris":{"android":"levelo://app?vid=21660b84-8be3-4777-93a0-11e5924fbbc6","ios":"levelo://app?vid=21660b84-8be3-4777-93a0-11e5924fbbc6"},"vehicle_type_id":"4","last_reported":1711314325,"current_range_meters":800,"station_id":"ce4bgt92rcd13ifvqcf0","pricing_plan_id":"cebpf4jnsgd1na2vs0mg"},{"bike_id":"cfd812cd-a1f4-45eb-b2e0-08db039e2dd7","system_id":"levelo_inurba_marseille","lat":43.313571,"lon":5.384829,"is_reserved":false,"is_disabled":false,"rental_uris":{"android":"levelo://app?vid=cfd812cd-a1f4-45eb-b2e0-08db039e2dd7","ios":"levelo://app?vid=cfd812cd-a1f4-45eb-b2e0-08db039e2dd7"},"vehicle_type_id":"4","last_reported":1711314325,"current_range_meters":15200,"station_id":"ce4bgt92rcd13ifvqcf0","pricing_plan_id":"cebpf4jnsgd1na2vs0mg"},{"bike_id":"c75beb3d-4c90-4cf1-919e-c9c3ae495771","system_id":"levelo_inurba_marseille","lat":43.313571,"lon":5.384829,"is_reserved":false,"is_disabled":false,"rental_uris":{"android":"levelo://app?vid=c75beb3d-4c90-4cf1-919e-c9c3ae495771","ios":"levelo://app?vid=c75beb3d-4c90-4cf1-919e-c9c3ae495771"},"vehicle_type_id":"4","last_reported":1711314325,"current_range_meters":24800,"station_id":"ce4bgt92rcd13ifvqcf0","pricing_plan_id":"cebpf4jnsgd1na2vs0mg"},{"bike_id":"27dd10f0-f9bf-4c2e-be8b-f16ab195b70f","system_id":"levelo_inurba_marseille","lat":43.313571,"lon":5.384829,"is_reserved":false,"is_disabled":false,"rental_uris":{"android":"levelo://app?vid=27dd10f0-f9bf-4c2e-be8b-f16ab195b70f","ios":"levelo://app?vid=27dd10f0-f9bf-4c2e-be8b-f16ab195b70f"},"vehicle_type_id":"4","last_reported":1711314325,"current_range_meters":1200,"station_id":"ce4bgt92rcd13ifvqcf0","pricing_plan_id":"cebpf4jnsgd1na2vs0mg"},{"bike_id":"9e5d9d2c-6565-4fc5-b8cc-4633d1c7c001","system_id":"levelo_inurba_marseille","lat":43.2999,"lon":5.37177,"is_reserved":false,"is_disabled":false,"rental_uris":{"android":"levelo://app?vid=9e5d9d2c-6565-4fc5-b8cc-4633d1c7c001","ios":"levelo://app?vid=9e5d9d2c-6565-4fc5-b8cc-4633d1c7c001"},"vehicle_type_id":"4","last_reported":1711314325,"current_range_meters":23200,"station_id":"ce4bgr92rcd13ifvqc7g","pricing_plan_id":"cebpf4jnsgd1na2vs0mg"},{"bike_id":"fc8c41fe-b39c-4ca6-9f36-bb917a32fe24","system_id":"levelo_inurba_marseille","lat":43.299724,"lon":5.371829,"is_reserved":false,"is_disabled":false,"rental_uris":{"android":"levelo://app?vid=fc8c41fe-b39c-4ca6-9f36-bb917a32fe24","ios":"levelo://app?vid=fc8c41fe-b39c-4ca6-9f36-bb917a32fe24"},"vehicle_type_id":"4","last_reported":1711314325,"current_range_meters":15200,"station_id":"ce4bgr92rcd13ifvqc7g","pricing_plan_id":"cebpf4jnsgd1na2vs0mg"},{"bike_id":"e500e8f9-a3c3-4b05-a2b3-64573a6de804","system_id":"levelo_inurba_marseille","lat":43.299724,"lon":5.371829,"is_reserved":false,"is_disabled":false,"rental_uris":{"android":"levelo://app?vid=e500e8f9-a3c3-4b05-a2b3-64573a6de804","ios":"levelo://app?vid=e500e8f9-a3c3-4b05-a2b3-64573a6de804"},"vehicle_type_id":"4","last_reported":1711314325,"current_range_meters":24800,"station_id":"ce4bgr92rcd13ifvqc7g","pricing_plan_id":"cebpf4jnsgd1na2vs0mg"},{"bike_id":"77862199-2a8a-4ea3-8817-fc00745b2b9f","system_id":"levelo_inurba_marseille","lat":43.299724,"lon":5.371829,"is_reserved":false,"is_disabled":false,"rental_uris":{"android":"levelo://app?vid=77862199-2a8a-4ea3-8817-fc00745b2b9f","ios":"levelo://app?vid=77862199-2a8a-4ea3-8817-fc00745b2b9f"},"vehicle_type_id":"4","last_reported":1711314325,"current_range_meters":2800,"station_id":"ce4bgr92rcd13ifvqc7g","pricing_plan_id":"cebpf4jnsgd1na2vs0mg"},{"bike_id":"f16e3ee4-b97c-4bcb-9224-8d0aecf74bf5","system_id":"levelo_inurba_marseille","lat":43.299222,"lon":5.365554,"is_reserved":false,"is_disabled":false,"rental_uris":{"android":"levelo://app?vid=f16e3ee4-b97c-4bcb-9224-8d0aecf74bf5","ios":"levelo://app?vid=f16e3ee4-b97c-4bcb-9224-8d0aecf74bf5"},"vehicle_type_id":"4","last_reported":1711314325,"current_range_meters":15600,"station_id":"ce4bgm92rcd13ifvqbr0","pricing_plan_id":"cebpf4jnsgd1na2vs0mg"},{"bike_id":"5ed9c65c-4b1b-4ef6-a252-4079f9082569","system_id":"levelo_inurba_marseille","lat":43.299222,"lon":5.365554,"is_reserved":false,"is_disabled":false,"rental_uris":{"android":"levelo://app?vid=5ed9c65c-4b1b-4ef6-a252-4079f9082569","ios":"levelo://app?vid=5ed9c65c-4b1b-4ef6-a252-4079f9082569"},"vehicle_type_id":"4","last_reported":1711314325,"current_range_meters":28800,"station_id":"ce4bgm92rcd13ifvqbr0","pricing_plan_id":"cebpf4jnsgd1na2vs0mg"},{"bike_id":"c9840c67-3801-4d37-91b7-21b935724cf2","system_id":"levelo_inurba_marseille","lat":43.299222,"lon":5.365554,"is_reserved":false,"is_disabled":false,"rental_uris":{"android":"levelo://app?vid=c9840c67-3801-4d37-91b7-21b935724cf2","ios":"levelo://app?vid=c9840c67-3801-4d37-91b7-21b935724cf2"},"vehicle_type_id":"4","last_reported":1711314325,"current_range_meters":27200,"station_id":"ce4bgm92rcd13ifvqbr0","pricing_plan_id":"cebpf4jnsgd1na2vs0mg"},{"bike_id":"e4f3f1ce-05f0-469e-8f0e-29822bdc8e3b","system_id":"levelo_inurba_marseille","lat":43.299222,"lon":5.365554,"is_reserved":false,"is_disabled":false,"rental_uris":{"android":"levelo://app?vid=e4f3f1ce-05f0-469e-8f0e-29822bdc8e3b","ios":"levelo://app?vid=e4f3f1ce-05f0-469e-8f0e-29822bdc8e3b"},"vehicle_type_id":"4","last_reported":1711314325,"current_range_meters":20800,"station_id":"ce4bgm92rcd13ifvqbr0","pricing_plan_id":"cebpf4jnsgd1na2vs0mg"},{"bike_id":"87e73152-e8f1-41c2-9e0c-697b60c394f3","system_id":"levelo_inurba_marseille","lat":43.299724,"lon":5.371829,"is_reserved":false,"is_disabled":false,"rental_uris":{"android":"levelo://app?vid=87e73152-e8f1-41c2-9e0c-697b60c394f3","ios":"levelo://app?vid=87e73152-e8f1-41c2-9e0c-697b60c394f3"},"vehicle_type_id":"4","last_reported":1711314325,"current_range_meters":0,"station_id":"ce4bgr92rcd13ifvqc7g","pricing_plan_id":"cebpf4jnsgd1na2vs0mg"},{"bike_id":"3b5a2047-73e1-4bc0-bbee-cba8ffefc934","system_id":"levelo_inurba_marseille","lat":43.299724,"lon":5.371829,"is_reserved":false,"is_disabled":false,"rental_uris":{"android":"levelo://app?vid=3b5a2047-73e1-4bc0-bbee-cba8ffefc934","ios":"levelo://app?vid=3b5a2047-73e1-4bc0-bbee-cba8ffefc934"},"vehicle_type_id":"4","last_reported":1711314325,"current_range_meters":6000,"station_id":"ce4bgr92rcd13ifvqc7g","pricing_plan_id":"cebpf4jnsgd1na2vs0mg"},{"bike_id":"52296648-4e91-4dea-98e6-555ca5c7f475","system_id":"levelo_inurba_marseille","lat":43.299724,"lon":5.371829,"is_reserved":false,"is_disabled":false,"rental_uris":{"android":"levelo://app?vid=52296648-4e91-4dea-98e6-555ca5c7f475","ios":"levelo://app?vid=52296648-4e91-4dea-98e6-555ca5c7f475"},"vehicle_type_id":"4","last_reported":1711314325,"current_range_meters":4400,"station_id":"ce4bgr92rcd13ifvqc7g","pricing_plan_id":"cebpf4jnsgd1na2vs0mg"},{"bike_id":"52239f62-1634-4550-b32c-c62fc5d93cdc","system_id":"levelo_inurba_marseille","lat":43.311722,"lon":5.387247,"is_reserved":false,"is_disabled":false,"rental_uris":{"android":"levelo://app?vid=52239f62-1634-4550-b32c-c62fc5d93cdc","ios":"levelo://app?vid=52239f62-1634-4550-b32c-c62fc5d93cdc"},"vehicle_type_id":"4","last_reported":1711314325,"current_range_meters":29600,"station_id":"ce4bgv12rcd13ifvqcp0","pricing_plan_id":"cebpf4jnsgd1na2vs0mg"},{"bike_id":"e5d73ee1-d9ad-41e7-a06b-e701b6466ada","system_id":"levelo_inurba_marseille","lat":43.31182,"lon":5.38716,"is_reserved":false,"is_disabled":false,"rental_uris":{"android":"levelo://app?vid=e5d73ee1-d9ad-41e7-a06b-e701b6466ada","ios":"levelo://app?vid=e5d73ee1-d9ad-41e7-a06b-e701b6466ada"},"vehicle_type_id":"4","last_reported":1711314325,"current_range_meters":0,"station_id":"ce4bgv12rcd13ifvqcp0","pricing_plan_id":"cebpf4jnsgd1na2vs0mg"},{"bike_id":"bb87d668-1f57-42fb-93f6-0ee72c9e0e04","system_id":"levelo_inurba_marseille","lat":43.299243,"lon":5.37481,"is_reserved":false,"is_disabled":false,"rental_uris":{"android":"levelo://app?vid=bb87d668-1f57-42fb-93f6-0ee72c9e0e04","ios":"levelo://app?vid=bb87d668-1f57-42fb-93f6-0ee72c9e0e04"},"vehicle_type_id":"4","last_reported":1711314325,"current_range_meters":27200,"station_id":"ce4bgjh2rcd13ifvqbg0","pricing_plan_id":"cebpf4jnsgd1na2vs0mg"},{"bike_id":"e90549c9-4120-4547-8268-a7fcc099d810","system_id":"levelo_inurba_marseille","lat":43.311722,"lon":5.387247,"is_reserved":false,"is_disabled":false,"rental_uris":{"android":"levelo://app?vid=e90549c9-4120-4547-8268-a7fcc099d810","ios":"levelo://app?vid=e90549c9-4120-4547-8268-a7fcc099d810"},"vehicle_type_id":"4","last_reported":1711314325,"current_range_meters":20400,"station_id":"ce4bgv12rcd13ifvqcp0","pricing_plan_id":"cebpf4jnsgd1na2vs0mg"},{"bike_id":"83e26b6a-bb93-4efc-825a-9c7fa0e47b88","system_id":"levelo_inurba_marseille","lat":43.311722,"lon":5.387247,"is_reserved":false,"is_disabled":false,"rental_uris":{"android":"levelo://app?vid=83e26b6a-bb93-4efc-825a-9c7fa0e47b88","ios":"levelo://app?vid=83e26b6a-bb93-4efc-825a-9c7fa0e47b88"},"vehicle_type_id":"4","last_reported":1711314325,"current_range_meters":1200,"station_id":"ce4bgv12rcd13ifvqcp0","pricing_plan_id":"cebpf4jnsgd1na2vs0mg"},{"bike_id":"f20547e7-665d-4de6-80d0-6241a7adcb37","system_id":"levelo_inurba_marseille","lat":43.297794,"lon":5.370888,"is_reserved":false,"is_disabled":false,"rental_uris":{"android":"levelo://app?vid=f20547e7-665d-4de6-80d0-6241a7adcb37","ios":"levelo://app?vid=f20547e7-665d-4de6-80d0-6241a7adcb37"},"vehicle_type_id":"4","last_reported":1711314325,"current_range_meters":12000,"station_id":"ce4bgop2rcd13ifvqc1g","pricing_plan_id":"cebpf4jnsgd1na2vs0mg"},{"bike_id":"cb30b22e-3628-4e20-98b7-f3a66de3059c","system_id":"levelo_inurba_marseille","lat":43.297794,"lon":5.370888,"is_reserved":false,"is_disabled":false,"rental_uris":{"android":"levelo://app?vid=cb30b22e-3628-4e20-98b7-f3a66de3059c","ios":"levelo://app?vid=cb30b22e-3628-4e20-98b7-f3a66de3059c"},"vehicle_type_id":"4","last_reported":1711314325,"current_range_meters":6800,"station_id":"ce4bgop2rcd13ifvqc1g","pricing_plan_id":"cebpf4jnsgd1na2vs0mg"},{"bike_id":"d8aaf9de-79b2-4284-81d5-08eae9a3a254","system_id":"levelo_inurba_marseille","lat":43.297794,"lon":5.370888,"is_reserved":false,"is_disabled":false,"rental_uris":{"android":"levelo://app?vid=d8aaf9de-79b2-4284-81d5-08eae9a3a254","ios":"levelo://app?vid=d8aaf9de-79b2-4284-81d5-08eae9a3a254"},"vehicle_type_id":"4","last_reported":1711314325,"current_range_meters":12000,"station_id":"ce4bgop2rcd13ifvqc1g","pricing_plan_id":"cebpf4jnsgd1na2vs0mg"},{"bike_id":"feead7e7-9cee-4c57-94a6-da647512767c","system_id":"levelo_inurba_marseille","lat":43.322896,"lon":5.382515,"is_reserved":false,"is_disabled":false,"rental_uris":{"android":"levelo://app?vid=feead7e7-9cee-4c57-94a6-da647512767c","ios":"levelo://app?vid=feead7e7-9cee-4c57-94a6-da647512767c"},"vehicle_type_id":"4","last_reported":1711314325,"current_range_meters":2000,"station_id":"ce4bhr12rcd13ifvqhqg","pricing_plan_id":"cebpf4jnsgd1na2vs0mg"},{"bike_id":"207cdac5-b3e6-4d55-8f97-75f17398d943","system_id":"levelo_inurba_marseille","lat":43.322872,"lon":5.382756,"is_reserved":false,"is_disabled":false,"rental_uris":{"android":"levelo://app?vid=207cdac5-b3e6-4d55-8f97-75f17398d943","ios":"levelo://app?vid=207cdac5-b3e6-4d55-8f97-75f17398d943"},"vehicle_type_id":"4","last_reported":1711314325,"current_range_meters":6000,"station_id":"ce4bhr12rcd13ifvqhqg","pricing_plan_id":"cebpf4jnsgd1na2vs0mg"},{"bike_id":"5387bba9-250f-4a59-ad81-4995f8725e20","system_id":"levelo_inurba_marseille","lat":43.32292,"lon":5.38262,"is_reserved":false,"is_disabled":false,"rental_uris":{"android":"levelo://app?vid=5387bba9-250f-4a59-ad81-4995f8725e20","ios":"levelo://app?vid=5387bba9-250f-4a59-ad81-4995f8725e20"},"vehicle_type_id":"4","last_reported":1711314325,"current_range_meters":17600,"station_id":"ce4bhr12rcd13ifvqhqg","pricing_plan_id":"cebpf4jnsgd1na2vs0mg"},{"bike_id":"3ff125a5-dff1-4591-b6cc-449dc2424878","system_id":"levelo_inurba_marseille","lat":43.32287,"lon":5.38269,"is_reserved":false,"is_disabled":false,"rental_uris":{"android":"levelo://app?vid=3ff125a5-dff1-4591-b6cc-449dc2424878","ios":"levelo://app?vid=3ff125a5-dff1-4591-b6cc-449dc2424878"},"vehicle_type_id":"4","last_reported":1711314325,"current_range_meters":400,"station_id":"ce4bhr12rcd13ifvqhqg","pricing_plan_id":"cebpf4jnsgd1na2vs0mg"},{"bike_id":"5a8af2e0-bd88-4f66-892c-33841408b461","system_id":"levelo_inurba_marseille","lat":43.32293,"lon":5.38264,"is_reserved":false,"is_disabled":false,"rental_uris":{"android":"levelo://app?vid=5a8af2e0-bd88-4f66-892c-33841408b461","ios":"levelo://app?vid=5a8af2e0-bd88-4f66-892c-33841408b461"},"vehicle_type_id":"4","last_reported":1711314325,"current_range_meters":6000,"station_id":"ce4bhr12rcd13ifvqhqg","pricing_plan_id":"cebpf4jnsgd1na2vs0mg"},{"bike_id":"5d8768c3-c16c-4f03-812d-0467d2c881f1","system_id":"levelo_inurba_marseille","lat":43.322872,"lon":5.382756,"is_reserved":false,"is_disabled":false,"rental_uris":{"android":"levelo://app?vid=5d8768c3-c16c-4f03-812d-0467d2c881f1","ios":"levelo://app?vid=5d8768c3-c16c-4f03-812d-0467d2c881f1"},"vehicle_type_id":"4","last_reported":1711314325,"current_range_meters":19200,"station_id":"ce4bhr12rcd13ifvqhqg","pricing_plan_id":"cebpf4jnsgd1na2vs0mg"},{"bike_id":"9607cebd-f2b1-4cda-94e6-b812c1eeae5d","system_id":"levelo_inurba_marseille","lat":43.322872,"lon":5.382756,"is_reserved":false,"is_disabled":false,"rental_uris":{"android":"levelo://app?vid=9607cebd-f2b1-4cda-94e6-b812c1eeae5d","ios":"levelo://app?vid=9607cebd-f2b1-4cda-94e6-b812c1eeae5d"},"vehicle_type_id":"4","last_reported":1711314325,"current_range_meters":28800,"station_id":"ce4bhr12rcd13ifvqhqg","pricing_plan_id":"cebpf4jnsgd1na2vs0mg"},{"bike_id":"85d4d71c-b2c1-426a-b0b8-be8461195f7e","system_id":"levelo_inurba_marseille","lat":43.322872,"lon":5.382756,"is_reserved":false,"is_disabled":false,"rental_uris":{"android":"levelo://app?vid=85d4d71c-b2c1-426a-b0b8-be8461195f7e","ios":"levelo://app?vid=85d4d71c-b2c1-426a-b0b8-be8461195f7e"},"vehicle_type_id":"4","last_reported":1711314325,"current_range_meters":30800,"station_id":"ce4bhr12rcd13ifvqhqg","pricing_plan_id":"cebpf4jnsgd1na2vs0mg"},{"bike_id":"a2ee1e43-dd55-4286-9b87-053cf67c3419","system_id":"levelo_inurba_marseille","lat":43.322872,"lon":5.382756,"is_reserved":false,"is_disabled":false,"rental_uris":{"android":"levelo://app?vid=a2ee1e43-dd55-4286-9b87-053cf67c3419","ios":"levelo://app?vid=a2ee1e43-dd55-4286-9b87-053cf67c3419"},"vehicle_type_id":"4","last_reported":1711314325,"current_range_meters":25600,"station_id":"ce4bhr12rcd13ifvqhqg","pricing_plan_id":"cebpf4jnsgd1na2vs0mg"},{"bike_id":"7b4c39dd-df38-41ab-b889-e331e5e57978","system_id":"levelo_inurba_marseille","lat":43.297163,"lon":5.365866,"is_reserved":false,"is_disabled":false,"rental_uris":{"android":"levelo://app?vid=7b4c39dd-df38-41ab-b889-e331e5e57978","ios":"levelo://app?vid=7b4c39dd-df38-41ab-b889-e331e5e57978"},"vehicle_type_id":"4","last_reported":1711314325,"current_range_meters":31200,"station_id":"ce4bgn12rcd13ifvqbt0","pricing_plan_id":"cebpf4jnsgd1na2vs0mg"},{"bike_id":"aab4ae90-4b30-4cbe-a482-2c15f7f027f2","system_id":"levelo_inurba_marseille","lat":43.297163,"lon":5.365866,"is_reserved":false,"is_disabled":false,"rental_uris":{"android":"levelo://app?vid=aab4ae90-4b30-4cbe-a482-2c15f7f027f2","ios":"levelo://app?vid=aab4ae90-4b30-4cbe-a482-2c15f7f027f2"},"vehicle_type_id":"4","last_reported":1711314325,"current_range_meters":24800,"station_id":"ce4bgn12rcd13ifvqbt0","pricing_plan_id":"cebpf4jnsgd1na2vs0mg"},{"bike_id":"9eb8a103-a006-4795-963f-f79841f2f3f2","system_id":"levelo_inurba_marseille","lat":43.297163,"lon":5.365866,"is_reserved":false,"is_disabled":false,"rental_uris":{"android":"levelo://app?vid=9eb8a103-a006-4795-963f-f79841f2f3f2","ios":"levelo://app?vid=9eb8a103-a006-4795-963f-f79841f2f3f2"},"vehicle_type_id":"4","last_reported":1711314325,"current_range_meters":11600,"station_id":"ce4bgn12rcd13ifvqbt0","pricing_plan_id":"cebpf4jnsgd1na2vs0mg"},{"bike_id":"255ced51-3471-466b-af99-03cb9913c1a9","system_id":"levelo_inurba_marseille","lat":43.297163,"lon":5.365866,"is_reserved":false,"is_disabled":false,"rental_uris":{"android":"levelo://app?vid=255ced51-3471-466b-af99-03cb9913c1a9","ios":"levelo://app?vid=255ced51-3471-466b-af99-03cb9913c1a9"},"vehicle_type_id":"4","last_reported":1711314325,"current_range_meters":7600,"station_id":"ce4bgn12rcd13ifvqbt0","pricing_plan_id":"cebpf4jnsgd1na2vs0mg"},{"bike_id":"5edacfe8-83e7-48cc-be66-a50360d71307","system_id":"levelo_inurba_marseille","lat":43.299028,"lon":5.381509,"is_reserved":false,"is_disabled":false,"rental_uris":{"android":"levelo://app?vid=5edacfe8-83e7-48cc-be66-a50360d71307","ios":"levelo://app?vid=5edacfe8-83e7-48cc-be66-a50360d71307"},"vehicle_type_id":"4","last_reported":1711314325,"current_range_meters":10000,"station_id":"ce4bgj12rcd13ifvqbc0","pricing_plan_id":"cebpf4jnsgd1na2vs0mg"},{"bike_id":"dd5b468e-03ef-4537-84e8-7a396e482c32","system_id":"levelo_inurba_marseille","lat":43.29908,"lon":5.38153,"is_reserved":false,"is_disabled":false,"rental_uris":{"android":"levelo://app?vid=dd5b468e-03ef-4537-84e8-7a396e482c32","ios":"levelo://app?vid=dd5b468e-03ef-4537-84e8-7a396e482c32"},"vehicle_type_id":"4","last_reported":1711314325,"current_range_meters":0,"station_id":"ce4bgj12rcd13ifvqbc0","pricing_plan_id":"cebpf4jnsgd1na2vs0mg"},{"bike_id":"b65fbb9c-958b-4bcb-ba86-d2d5ed6be681","system_id":"levelo_inurba_marseille","lat":43.29909,"lon":5.381575,"is_reserved":false,"is_disabled":false,"rental_uris":{"android":"levelo://app?vid=b65fbb9c-958b-4bcb-ba86-d2d5ed6be681","ios":"levelo://app?vid=b65fbb9c-958b-4bcb-ba86-d2d5ed6be681"},"vehicle_type_id":"4","last_reported":1711314325,"current_range_meters":4400,"station_id":"ce4bgj12rcd13ifvqbc0","pricing_plan_id":"cebpf4jnsgd1na2vs0mg"},{"bike_id":"fd386013-58e6-47e8-8cc0-75b94dccf246","system_id":"levelo_inurba_marseille","lat":43.299028,"lon":5.381509,"is_reserved":false,"is_disabled":false,"rental_uris":{"android":"levelo://app?vid=fd386013-58e6-47e8-8cc0-75b94dccf246","ios":"levelo://app?vid=fd386013-58e6-47e8-8cc0-75b94dccf246"},"vehicle_type_id":"4","last_reported":1711314325,"current_range_meters":25600,"station_id":"ce4bgj12rcd13ifvqbc0","pricing_plan_id":"cebpf4jnsgd1na2vs0mg"},{"bike_id":"85f6d6f1-df56-47d3-8d15-9355da4cd1b2","system_id":"levelo_inurba_marseille","lat":43.309589,"lon":5.390258,"is_reserved":false,"is_disabled":false,"rental_uris":{"android":"levelo://app?vid=85f6d6f1-df56-47d3-8d15-9355da4cd1b2","ios":"levelo://app?vid=85f6d6f1-df56-47d3-8d15-9355da4cd1b2"},"vehicle_type_id":"4","last_reported":1711314325,"current_range_meters":3600,"station_id":"ce4bgup2rcd13ifvqco0","pricing_plan_id":"cebpf4jnsgd1na2vs0mg"},{"bike_id":"b7802cd7-4611-4f51-877f-6a4d7a8276d9","system_id":"levelo_inurba_marseille","lat":43.309589,"lon":5.390258,"is_reserved":false,"is_disabled":false,"rental_uris":{"android":"levelo://app?vid=b7802cd7-4611-4f51-877f-6a4d7a8276d9","ios":"levelo://app?vid=b7802cd7-4611-4f51-877f-6a4d7a8276d9"},"vehicle_type_id":"4","last_reported":1711314325,"current_range_meters":3600,"station_id":"ce4bgup2rcd13ifvqco0","pricing_plan_id":"cebpf4jnsgd1na2vs0mg"},{"bike_id":"ac534005-bd33-4c23-910b-49e182ad97da","system_id":"levelo_inurba_marseille","lat":43.309589,"lon":5.390258,"is_reserved":false,"is_disabled":false,"rental_uris":{"android":"levelo://app?vid=ac534005-bd33-4c23-910b-49e182ad97da","ios":"levelo://app?vid=ac534005-bd33-4c23-910b-49e182ad97da"},"vehicle_type_id":"4","last_reported":1711314325,"current_range_meters":8400,"station_id":"ce4bgup2rcd13ifvqco0","pricing_plan_id":"cebpf4jnsgd1na2vs0mg"},{"bike_id":"548e4105-178b-4a57-81b5-d522a35f9759","system_id":"levelo_inurba_marseille","lat":43.298938,"lon":5.381612,"is_reserved":false,"is_disabled":false,"rental_uris":{"android":"levelo://app?vid=548e4105-178b-4a57-81b5-d522a35f9759","ios":"levelo://app?vid=548e4105-178b-4a57-81b5-d522a35f9759"},"vehicle_type_id":"4","last_reported":1711314325,"current_range_meters":0,"station_id":"ce4bgj12rcd13ifvqbc0","pricing_plan_id":"cebpf4jnsgd1na2vs0mg"},{"bike_id":"2127399f-d128-416b-8ad4-76d643702b2b","system_id":"levelo_inurba_marseille","lat":43.317557,"lon":5.390173,"is_reserved":false,"is_disabled":false,"rental_uris":{"android":"levelo://app?vid=2127399f-d128-416b-8ad4-76d643702b2b","ios":"levelo://app?vid=2127399f-d128-416b-8ad4-76d643702b2b"},"vehicle_type_id":"4","last_reported":1711314325,"current_range_meters":28000,"station_id":"ce4bhqp2rcd13ifvqhng","pricing_plan_id":"cebpf4jnsgd1na2vs0mg"},{"bike_id":"6754a9e9-66e4-4669-85ef-d70f15e7e6a9","system_id":"levelo_inurba_marseille","lat":43.31751,"lon":5.39018,"is_reserved":false,"is_disabled":false,"rental_uris":{"android":"levelo://app?vid=6754a9e9-66e4-4669-85ef-d70f15e7e6a9","ios":"levelo://app?vid=6754a9e9-66e4-4669-85ef-d70f15e7e6a9"},"vehicle_type_id":"4","last_reported":1711314325,"current_range_meters":3600,"station_id":"ce4bhqp2rcd13ifvqhng","pricing_plan_id":"cebpf4jnsgd1na2vs0mg"},{"bike_id":"655aa1d0-cd5b-4fe3-baa3-fa62dfaf2660","system_id":"levelo_inurba_marseille","lat":43.317557,"lon":5.390173,"is_reserved":false,"is_disabled":false,"rental_uris":{"android":"levelo://app?vid=655aa1d0-cd5b-4fe3-baa3-fa62dfaf2660","ios":"levelo://app?vid=655aa1d0-cd5b-4fe3-baa3-fa62dfaf2660"},"vehicle_type_id":"4","last_reported":1711314325,"current_range_meters":27600,"station_id":"ce4bhqp2rcd13ifvqhng","pricing_plan_id":"cebpf4jnsgd1na2vs0mg"},{"bike_id":"64faaf0e-8299-47ab-9335-1274f7d2f7f6","system_id":"levelo_inurba_marseille","lat":43.31753,"lon":5.39021,"is_reserved":false,"is_disabled":false,"rental_uris":{"android":"levelo://app?vid=64faaf0e-8299-47ab-9335-1274f7d2f7f6","ios":"levelo://app?vid=64faaf0e-8299-47ab-9335-1274f7d2f7f6"},"vehicle_type_id":"4","last_reported":1711314325,"current_range_meters":6400,"station_id":"ce4bhqp2rcd13ifvqhng","pricing_plan_id":"cebpf4jnsgd1na2vs0mg"},{"bike_id":"d82f7987-e846-442b-9405-1b4dbe04d52c","system_id":"levelo_inurba_marseille","lat":43.31753,"lon":5.39023,"is_reserved":false,"is_disabled":false,"rental_uris":{"android":"levelo://app?vid=d82f7987-e846-442b-9405-1b4dbe04d52c","ios":"levelo://app?vid=d82f7987-e846-442b-9405-1b4dbe04d52c"},"vehicle_type_id":"4","last_reported":1711314325,"current_range_meters":4800,"station_id":"ce4bhqp2rcd13ifvqhng","pricing_plan_id":"cebpf4jnsgd1na2vs0mg"},{"bike_id":"9c00e332-e493-41ed-bbf7-57fae36097c1","system_id":"levelo_inurba_marseille","lat":43.31758,"lon":5.39025,"is_reserved":false,"is_disabled":false,"rental_uris":{"android":"levelo://app?vid=9c00e332-e493-41ed-bbf7-57fae36097c1","ios":"levelo://app?vid=9c00e332-e493-41ed-bbf7-57fae36097c1"},"vehicle_type_id":"4","last_reported":1711314325,"current_range_meters":0,"station_id":"ce4bhqp2rcd13ifvqhng","pricing_plan_id":"cebpf4jnsgd1na2vs0mg"},{"bike_id":"a84494ff-e488-44c6-9347-0b89aeb12141","system_id":"levelo_inurba_marseille","lat":43.317561,"lon":5.390293,"is_reserved":false,"is_disabled":false,"rental_uris":{"android":"levelo://app?vid=a84494ff-e488-44c6-9347-0b89aeb12141","ios":"levelo://app?vid=a84494ff-e488-44c6-9347-0b89aeb12141"},"vehicle_type_id":"4","last_reported":1711314325,"current_range_meters":4000,"station_id":"ce4bhqp2rcd13ifvqhng","pricing_plan_id":"cebpf4jnsgd1na2vs0mg"},{"bike_id":"cb33f770-2b45-41f4-a77a-f36c98e0ad8f","system_id":"levelo_inurba_marseille","lat":43.31763,"lon":5.3903,"is_reserved":false,"is_disabled":false,"rental_uris":{"android":"levelo://app?vid=cb33f770-2b45-41f4-a77a-f36c98e0ad8f","ios":"levelo://app?vid=cb33f770-2b45-41f4-a77a-f36c98e0ad8f"},"vehicle_type_id":"4","last_reported":1711314325,"current_range_meters":2800,"station_id":"ce4bhqp2rcd13ifvqhng","pricing_plan_id":"cebpf4jnsgd1na2vs0mg"},{"bike_id":"ceace010-13a8-4d77-9c8c-733f246cd8f3","system_id":"levelo_inurba_marseille","lat":43.297463,"lon":5.379228,"is_reserved":false,"is_disabled":false,"rental_uris":{"android":"levelo://app?vid=ceace010-13a8-4d77-9c8c-733f246cd8f3","ios":"levelo://app?vid=ceace010-13a8-4d77-9c8c-733f246cd8f3"},"vehicle_type_id":"4","last_reported":1711314325,"current_range_meters":1600,"station_id":"","pricing_plan_id":"cebpf4jnsgd1na2vs0mg"},{"bike_id":"a6afdd3b-1132-4aa5-94e0-67ac11ea2b68","system_id":"levelo_inurba_marseille","lat":43.298037,"lon":5.381066,"is_reserved":false,"is_disabled":false,"rental_uris":{"android":"levelo://app?vid=a6afdd3b-1132-4aa5-94e0-67ac11ea2b68","ios":"levelo://app?vid=a6afdd3b-1132-4aa5-94e0-67ac11ea2b68"},"vehicle_type_id":"4","last_reported":1711314325,"current_range_meters":800,"station_id":"ce4bgip2rcd13ifvqbb0","pricing_plan_id":"cebpf4jnsgd1na2vs0mg"},{"bike_id":"717a6247-a60c-4089-a19d-44bcc39af7dc","system_id":"levelo_inurba_marseille","lat":43.304274,"lon":5.388873,"is_reserved":false,"is_disabled":false,"rental_uris":{"android":"levelo://app?vid=717a6247-a60c-4089-a19d-44bcc39af7dc","ios":"levelo://app?vid=717a6247-a60c-4089-a19d-44bcc39af7dc"},"vehicle_type_id":"4","last_reported":1711314325,"current_range_meters":9600,"station_id":"ce4bgk12rcd13ifvqbi0","pricing_plan_id":"cebpf4jnsgd1na2vs0mg"},{"bike_id":"c7b6608b-f19c-4139-a9f2-e5f1abb9d5e1","system_id":"levelo_inurba_marseille","lat":43.304278,"lon":5.388868,"is_reserved":false,"is_disabled":false,"rental_uris":{"android":"levelo://app?vid=c7b6608b-f19c-4139-a9f2-e5f1abb9d5e1","ios":"levelo://app?vid=c7b6608b-f19c-4139-a9f2-e5f1abb9d5e1"},"vehicle_type_id":"4","last_reported":1711314325,"current_range_meters":0,"station_id":"ce4bgk12rcd13ifvqbi0","pricing_plan_id":"cebpf4jnsgd1na2vs0mg"},{"bike_id":"7c7927ef-dff8-4073-a937-dd6062b8abc2","system_id":"levelo_inurba_marseille","lat":43.304278,"lon":5.388868,"is_reserved":false,"is_disabled":false,"rental_uris":{"android":"levelo://app?vid=7c7927ef-dff8-4073-a937-dd6062b8abc2","ios":"levelo://app?vid=7c7927ef-dff8-4073-a937-dd6062b8abc2"},"vehicle_type_id":"4","last_reported":1711314325,"current_range_meters":14800,"station_id":"ce4bgk12rcd13ifvqbi0","pricing_plan_id":"cebpf4jnsgd1na2vs0mg"},{"bike_id":"2c864b8f-45e6-4378-914b-5f0293c6372b","system_id":"levelo_inurba_marseille","lat":43.304278,"lon":5.388868,"is_reserved":false,"is_disabled":false,"rental_uris":{"android":"levelo://app?vid=2c864b8f-45e6-4378-914b-5f0293c6372b","ios":"levelo://app?vid=2c864b8f-45e6-4378-914b-5f0293c6372b"},"vehicle_type_id":"4","last_reported":1711314325,"current_range_meters":10400,"station_id":"ce4bgk12rcd13ifvqbi0","pricing_plan_id":"cebpf4jnsgd1na2vs0mg"},{"bike_id":"bfe274c8-62bc-4229-a592-6d263a819b7e","system_id":"levelo_inurba_marseille","lat":43.304274,"lon":5.388873,"is_reserved":false,"is_disabled":false,"rental_uris":{"android":"levelo://app?vid=bfe274c8-62bc-4229-a592-6d263a819b7e","ios":"levelo://app?vid=bfe274c8-62bc-4229-a592-6d263a819b7e"},"vehicle_type_id":"4","last_reported":1711314325,"current_range_meters":14800,"station_id":"ce4bgk12rcd13ifvqbi0","pricing_plan_id":"cebpf4jnsgd1na2vs0mg"},{"bike_id":"92016ac5-8796-4471-b26b-3b29df78d403","system_id":"levelo_inurba_marseille","lat":43.304278,"lon":5.388868,"is_reserved":false,"is_disabled":false,"rental_uris":{"android":"levelo://app?vid=92016ac5-8796-4471-b26b-3b29df78d403","ios":"levelo://app?vid=92016ac5-8796-4471-b26b-3b29df78d403"},"vehicle_type_id":"4","last_reported":1711314325,"current_range_meters":16000,"station_id":"ce4bgk12rcd13ifvqbi0","pricing_plan_id":"cebpf4jnsgd1na2vs0mg"},{"bike_id":"67b9cbe0-15a9-4814-bec2-afb3e5017540","system_id":"levelo_inurba_marseille","lat":43.295748,"lon":5.37522,"is_reserved":false,"is_disabled":false,"rental_uris":{"android":"levelo://app?vid=67b9cbe0-15a9-4814-bec2-afb3e5017540","ios":"levelo://app?vid=67b9cbe0-15a9-4814-bec2-afb3e5017540"},"vehicle_type_id":"4","last_reported":1711314325,"current_range_meters":6000,"station_id":"ce4bgh92rcd13ifvqb50","pricing_plan_id":"cebpf4jnsgd1na2vs0mg"},{"bike_id":"93e8c660-d4e5-4a60-8f50-13eb3e41e1b1","system_id":"levelo_inurba_marseille","lat":43.304278,"lon":5.388868,"is_reserved":false,"is_disabled":false,"rental_uris":{"android":"levelo://app?vid=93e8c660-d4e5-4a60-8f50-13eb3e41e1b1","ios":"levelo://app?vid=93e8c660-d4e5-4a60-8f50-13eb3e41e1b1"},"vehicle_type_id":"4","last_reported":1711314325,"current_range_meters":8400,"station_id":"ce4bgk12rcd13ifvqbi0","pricing_plan_id":"cebpf4jnsgd1na2vs0mg"},{"bike_id":"9b918fe3-5b4d-49f9-8271-2e305a35dfb0","system_id":"levelo_inurba_marseille","lat":43.295748,"lon":5.37522,"is_reserved":false,"is_disabled":false,"rental_uris":{"android":"levelo://app?vid=9b918fe3-5b4d-49f9-8271-2e305a35dfb0","ios":"levelo://app?vid=9b918fe3-5b4d-49f9-8271-2e305a35dfb0"},"vehicle_type_id":"4","last_reported":1711314325,"current_range_meters":24000,"station_id":"ce4bgh92rcd13ifvqb50","pricing_plan_id":"cebpf4jnsgd1na2vs0mg"},{"bike_id":"c5608d65-deed-4df0-ba77-39bcc3a8c1b6","system_id":"levelo_inurba_marseille","lat":43.304274,"lon":5.388873,"is_reserved":false,"is_disabled":false,"rental_uris":{"android":"levelo://app?vid=c5608d65-deed-4df0-ba77-39bcc3a8c1b6","ios":"levelo://app?vid=c5608d65-deed-4df0-ba77-39bcc3a8c1b6"},"vehicle_type_id":"4","last_reported":1711314325,"current_range_meters":0,"station_id":"ce4bgk12rcd13ifvqbi0","pricing_plan_id":"cebpf4jnsgd1na2vs0mg"},{"bike_id":"5830e371-7d64-4da2-ad94-129c26acb30a","system_id":"levelo_inurba_marseille","lat":43.299717,"lon":5.384845,"is_reserved":false,"is_disabled":false,"rental_uris":{"android":"levelo://app?vid=5830e371-7d64-4da2-ad94-129c26acb30a","ios":"levelo://app?vid=5830e371-7d64-4da2-ad94-129c26acb30a"},"vehicle_type_id":"4","last_reported":1711314325,"current_range_meters":5200,"station_id":"ce4bgj92rcd13ifvqbd0","pricing_plan_id":"cebpf4jnsgd1na2vs0mg"},{"bike_id":"e89f8fbb-450f-4a67-8339-f25d9cc098c8","system_id":"levelo_inurba_marseille","lat":43.2954,"lon":5.37505,"is_reserved":false,"is_disabled":false,"rental_uris":{"android":"levelo://app?vid=e89f8fbb-450f-4a67-8339-f25d9cc098c8","ios":"levelo://app?vid=e89f8fbb-450f-4a67-8339-f25d9cc098c8"},"vehicle_type_id":"4","last_reported":1711314325,"current_range_meters":26800,"station_id":"ce4bgkp2rcd13ifvqbmg","pricing_plan_id":"cebpf4jnsgd1na2vs0mg"},{"bike_id":"4981cddd-2ab3-4875-a88d-10278b640fdf","system_id":"levelo_inurba_marseille","lat":43.29538,"lon":5.3751,"is_reserved":false,"is_disabled":false,"rental_uris":{"android":"levelo://app?vid=4981cddd-2ab3-4875-a88d-10278b640fdf","ios":"levelo://app?vid=4981cddd-2ab3-4875-a88d-10278b640fdf"},"vehicle_type_id":"4","last_reported":1711314325,"current_range_meters":21600,"station_id":"ce4bgkp2rcd13ifvqbmg","pricing_plan_id":"cebpf4jnsgd1na2vs0mg"},{"bike_id":"617b0e6f-676e-40f0-bbaf-c9395e5b4dcd","system_id":"levelo_inurba_marseille","lat":43.314598,"lon":5.392096,"is_reserved":false,"is_disabled":false,"rental_uris":{"android":"levelo://app?vid=617b0e6f-676e-40f0-bbaf-c9395e5b4dcd","ios":"levelo://app?vid=617b0e6f-676e-40f0-bbaf-c9395e5b4dcd"},"vehicle_type_id":"4","last_reported":1711314325,"current_range_meters":5600,"station_id":"","pricing_plan_id":"cebpf4jnsgd1na2vs0mg"},{"bike_id":"bf9bf615-bce6-4b76-a67d-ae2385bcd89c","system_id":"levelo_inurba_marseille","lat":43.314628,"lon":5.392209,"is_reserved":false,"is_disabled":false,"rental_uris":{"android":"levelo://app?vid=bf9bf615-bce6-4b76-a67d-ae2385bcd89c","ios":"levelo://app?vid=bf9bf615-bce6-4b76-a67d-ae2385bcd89c"},"vehicle_type_id":"4","last_reported":1711314325,"current_range_meters":31200,"station_id":"","pricing_plan_id":"cebpf4jnsgd1na2vs0mg"},{"bike_id":"8f19ff18-4853-4795-a9c2-1da839760478","system_id":"levelo_inurba_marseille","lat":43.32367,"lon":5.388836,"is_reserved":false,"is_disabled":false,"rental_uris":{"android":"levelo://app?vid=8f19ff18-4853-4795-a9c2-1da839760478","ios":"levelo://app?vid=8f19ff18-4853-4795-a9c2-1da839760478"},"vehicle_type_id":"4","last_reported":1711314325,"current_range_meters":14800,"station_id":"ce4bhqp2rcd13ifvqhog","pricing_plan_id":"cebpf4jnsgd1na2vs0mg"},{"bike_id":"4a3df1e6-d90c-4e48-b8ff-ad7fdfe779c9","system_id":"levelo_inurba_marseille","lat":43.32368,"lon":5.38888,"is_reserved":false,"is_disabled":false,"rental_uris":{"android":"levelo://app?vid=4a3df1e6-d90c-4e48-b8ff-ad7fdfe779c9","ios":"levelo://app?vid=4a3df1e6-d90c-4e48-b8ff-ad7fdfe779c9"},"vehicle_type_id":"4","last_reported":1711314325,"current_range_meters":0,"station_id":"ce4bhqp2rcd13ifvqhog","pricing_plan_id":"cebpf4jnsgd1na2vs0mg"},{"bike_id":"c9a3c98e-7cac-4856-b507-897618b57146","system_id":"levelo_inurba_marseille","lat":43.32366,"lon":5.38897,"is_reserved":false,"is_disabled":false,"rental_uris":{"android":"levelo://app?vid=c9a3c98e-7cac-4856-b507-897618b57146","ios":"levelo://app?vid=c9a3c98e-7cac-4856-b507-897618b57146"},"vehicle_type_id":"4","last_reported":1711314325,"current_range_meters":3600,"station_id":"ce4bhqp2rcd13ifvqhog","pricing_plan_id":"cebpf4jnsgd1na2vs0mg"},{"bike_id":"af20fe1b-1205-495a-ae29-c78e2bd2f7ff","system_id":"levelo_inurba_marseille","lat":43.296,"lon":5.38105,"is_reserved":false,"is_disabled":false,"rental_uris":{"android":"levelo://app?vid=af20fe1b-1205-495a-ae29-c78e2bd2f7ff","ios":"levelo://app?vid=af20fe1b-1205-495a-ae29-c78e2bd2f7ff"},"vehicle_type_id":"4","last_reported":1711314325,"current_range_meters":0,"station_id":"ce4bgl12rcd13ifvqbo0","pricing_plan_id":"cebpf4jnsgd1na2vs0mg"},{"bike_id":"5f64c8f7-0508-4282-a046-ed90eb561669","system_id":"levelo_inurba_marseille","lat":43.29602,"lon":5.381084,"is_reserved":false,"is_disabled":false,"rental_uris":{"android":"levelo://app?vid=5f64c8f7-0508-4282-a046-ed90eb561669","ios":"levelo://app?vid=5f64c8f7-0508-4282-a046-ed90eb561669"},"vehicle_type_id":"4","last_reported":1711314325,"current_range_meters":8000,"station_id":"ce4bgl12rcd13ifvqbo0","pricing_plan_id":"cebpf4jnsgd1na2vs0mg"},{"bike_id":"b83e59b8-746e-4834-8444-55d624f71a3c","system_id":"levelo_inurba_marseille","lat":43.293249,"lon":5.371578,"is_reserved":false,"is_disabled":false,"rental_uris":{"android":"levelo://app?vid=b83e59b8-746e-4834-8444-55d624f71a3c","ios":"levelo://app?vid=b83e59b8-746e-4834-8444-55d624f71a3c"},"vehicle_type_id":"4","last_reported":1711314325,"current_range_meters":6800,"station_id":"ce4bgh92rcd13ifvqb40","pricing_plan_id":"cebpf4jnsgd1na2vs0mg"},{"bike_id":"c72d801a-870b-4bc6-94bd-0ff90d26388a","system_id":"levelo_inurba_marseille","lat":43.293249,"lon":5.371578,"is_reserved":false,"is_disabled":false,"rental_uris":{"android":"levelo://app?vid=c72d801a-870b-4bc6-94bd-0ff90d26388a","ios":"levelo://app?vid=c72d801a-870b-4bc6-94bd-0ff90d26388a"},"vehicle_type_id":"4","last_reported":1711314325,"current_range_meters":3600,"station_id":"ce4bgh92rcd13ifvqb40","pricing_plan_id":"cebpf4jnsgd1na2vs0mg"},{"bike_id":"b4aeced2-a445-4e60-8ad1-52c2b9e646ab","system_id":"levelo_inurba_marseille","lat":43.293009,"lon":5.374584,"is_reserved":false,"is_disabled":false,"rental_uris":{"android":"levelo://app?vid=b4aeced2-a445-4e60-8ad1-52c2b9e646ab","ios":"levelo://app?vid=b4aeced2-a445-4e60-8ad1-52c2b9e646ab"},"vehicle_type_id":"4","last_reported":1711314325,"current_range_meters":19600,"station_id":"ce4bgi12rcd13ifvqb70","pricing_plan_id":"cebpf4jnsgd1na2vs0mg"},{"bike_id":"2ccff898-c3e2-4ab2-ad69-595606a6a838","system_id":"levelo_inurba_marseille","lat":43.305994,"lon":5.393687,"is_reserved":false,"is_disabled":false,"rental_uris":{"android":"levelo://app?vid=2ccff898-c3e2-4ab2-ad69-595606a6a838","ios":"levelo://app?vid=2ccff898-c3e2-4ab2-ad69-595606a6a838"},"vehicle_type_id":"4","last_reported":1711314325,"current_range_meters":8400,"station_id":"ce4bh0p2rcd13ifvqd80","pricing_plan_id":"cebpf4jnsgd1na2vs0mg"},{"bike_id":"fd15f54b-9ceb-47c3-a29c-3bb1c7684836","system_id":"levelo_inurba_marseille","lat":43.305994,"lon":5.393687,"is_reserved":false,"is_disabled":false,"rental_uris":{"android":"levelo://app?vid=fd15f54b-9ceb-47c3-a29c-3bb1c7684836","ios":"levelo://app?vid=fd15f54b-9ceb-47c3-a29c-3bb1c7684836"},"vehicle_type_id":"4","last_reported":1711314325,"current_range_meters":20000,"station_id":"ce4bh0p2rcd13ifvqd80","pricing_plan_id":"cebpf4jnsgd1na2vs0mg"},{"bike_id":"b13ba3ed-365b-4945-85db-b7c544a9854b","system_id":"levelo_inurba_marseille","lat":43.293009,"lon":5.374584,"is_reserved":false,"is_disabled":false,"rental_uris":{"android":"levelo://app?vid=b13ba3ed-365b-4945-85db-b7c544a9854b","ios":"levelo://app?vid=b13ba3ed-365b-4945-85db-b7c544a9854b"},"vehicle_type_id":"4","last_reported":1711314325,"current_range_meters":26000,"station_id":"ce4bgi12rcd13ifvqb70","pricing_plan_id":"cebpf4jnsgd1na2vs0mg"},{"bike_id":"c403db0f-67fd-4f13-acd2-fc4bd400ac95","system_id":"levelo_inurba_marseille","lat":43.305994,"lon":5.393687,"is_reserved":false,"is_disabled":false,"rental_uris":{"android":"levelo://app?vid=c403db0f-67fd-4f13-acd2-fc4bd400ac95","ios":"levelo://app?vid=c403db0f-67fd-4f13-acd2-fc4bd400ac95"},"vehicle_type_id":"4","last_reported":1711314325,"current_range_meters":7200,"station_id":"ce4bh0p2rcd13ifvqd80","pricing_plan_id":"cebpf4jnsgd1na2vs0mg"},{"bike_id":"d0714a75-b677-418c-a072-6b2010612859","system_id":"levelo_inurba_marseille","lat":43.305994,"lon":5.393687,"is_reserved":false,"is_disabled":false,"rental_uris":{"android":"levelo://app?vid=d0714a75-b677-418c-a072-6b2010612859","ios":"levelo://app?vid=d0714a75-b677-418c-a072-6b2010612859"},"vehicle_type_id":"4","last_reported":1711314325,"current_range_meters":23600,"station_id":"ce4bh0p2rcd13ifvqd80","pricing_plan_id":"cebpf4jnsgd1na2vs0mg"},{"bike_id":"2ec59c98-7820-47db-8eab-4c5d9f5aadba","system_id":"levelo_inurba_marseille","lat":43.303002,"lon":5.392142,"is_reserved":false,"is_disabled":false,"rental_uris":{"android":"levelo://app?vid=2ec59c98-7820-47db-8eab-4c5d9f5aadba","ios":"levelo://app?vid=2ec59c98-7820-47db-8eab-4c5d9f5aadba"},"vehicle_type_id":"4","last_reported":1711314325,"current_range_meters":25200,"station_id":"ce4bgkh2rcd13ifvqbk0","pricing_plan_id":"cebpf4jnsgd1na2vs0mg"},{"bike_id":"c208e18e-7666-4e6e-8772-28d9745b9bf2","system_id":"levelo_inurba_marseille","lat":43.303002,"lon":5.392142,"is_reserved":false,"is_disabled":false,"rental_uris":{"android":"levelo://app?vid=c208e18e-7666-4e6e-8772-28d9745b9bf2","ios":"levelo://app?vid=c208e18e-7666-4e6e-8772-28d9745b9bf2"},"vehicle_type_id":"4","last_reported":1711314325,"current_range_meters":18800,"station_id":"ce4bgkh2rcd13ifvqbk0","pricing_plan_id":"cebpf4jnsgd1na2vs0mg"},{"bike_id":"a864f7f7-6d29-4035-b5e9-4767ed53bd26","system_id":"levelo_inurba_marseille","lat":43.303002,"lon":5.392142,"is_reserved":false,"is_disabled":false,"rental_uris":{"android":"levelo://app?vid=a864f7f7-6d29-4035-b5e9-4767ed53bd26","ios":"levelo://app?vid=a864f7f7-6d29-4035-b5e9-4767ed53bd26"},"vehicle_type_id":"4","last_reported":1711314325,"current_range_meters":9600,"station_id":"ce4bgkh2rcd13ifvqbk0","pricing_plan_id":"cebpf4jnsgd1na2vs0mg"},{"bike_id":"a2729662-6cf0-453f-997b-e5c9d80f5183","system_id":"levelo_inurba_marseille","lat":43.302992,"lon":5.392136,"is_reserved":false,"is_disabled":false,"rental_uris":{"android":"levelo://app?vid=a2729662-6cf0-453f-997b-e5c9d80f5183","ios":"levelo://app?vid=a2729662-6cf0-453f-997b-e5c9d80f5183"},"vehicle_type_id":"4","last_reported":1711314325,"current_range_meters":19200,"station_id":"ce4bgkh2rcd13ifvqbk0","pricing_plan_id":"cebpf4jnsgd1na2vs0mg"},{"bike_id":"d808d336-62f6-4165-825b-d075199f24ce","system_id":"levelo_inurba_marseille","lat":43.302992,"lon":5.392136,"is_reserved":false,"is_disabled":false,"rental_uris":{"android":"levelo://app?vid=d808d336-62f6-4165-825b-d075199f24ce","ios":"levelo://app?vid=d808d336-62f6-4165-825b-d075199f24ce"},"vehicle_type_id":"4","last_reported":1711314325,"current_range_meters":31200,"station_id":"ce4bgkh2rcd13ifvqbk0","pricing_plan_id":"cebpf4jnsgd1na2vs0mg"},{"bike_id":"dbef717e-7a8a-4b43-a16d-c69ee69cd6ec","system_id":"levelo_inurba_marseille","lat":43.303002,"lon":5.392142,"is_reserved":false,"is_disabled":false,"rental_uris":{"android":"levelo://app?vid=dbef717e-7a8a-4b43-a16d-c69ee69cd6ec","ios":"levelo://app?vid=dbef717e-7a8a-4b43-a16d-c69ee69cd6ec"},"vehicle_type_id":"4","last_reported":1711314325,"current_range_meters":20000,"station_id":"ce4bgkh2rcd13ifvqbk0","pricing_plan_id":"cebpf4jnsgd1na2vs0mg"},{"bike_id":"b334d681-e533-4517-8af2-c13a79e5b6d0","system_id":"levelo_inurba_marseille","lat":43.302992,"lon":5.392136,"is_reserved":false,"is_disabled":false,"rental_uris":{"android":"levelo://app?vid=b334d681-e533-4517-8af2-c13a79e5b6d0","ios":"levelo://app?vid=b334d681-e533-4517-8af2-c13a79e5b6d0"},"vehicle_type_id":"4","last_reported":1711314325,"current_range_meters":18800,"station_id":"ce4bgkh2rcd13ifvqbk0","pricing_plan_id":"cebpf4jnsgd1na2vs0mg"},{"bike_id":"7d9d885c-f2cb-4b7a-b074-863b84c571d6","system_id":"levelo_inurba_marseille","lat":43.303002,"lon":5.392142,"is_reserved":false,"is_disabled":false,"rental_uris":{"android":"levelo://app?vid=7d9d885c-f2cb-4b7a-b074-863b84c571d6","ios":"levelo://app?vid=7d9d885c-f2cb-4b7a-b074-863b84c571d6"},"vehicle_type_id":"4","last_reported":1711314325,"current_range_meters":28400,"station_id":"ce4bgkh2rcd13ifvqbk0","pricing_plan_id":"cebpf4jnsgd1na2vs0mg"},{"bike_id":"09a54d30-564d-4df6-8e05-798766d495cc","system_id":"levelo_inurba_marseille","lat":43.293748,"lon":5.378565,"is_reserved":false,"is_disabled":false,"rental_uris":{"android":"levelo://app?vid=09a54d30-564d-4df6-8e05-798766d495cc","ios":"levelo://app?vid=09a54d30-564d-4df6-8e05-798766d495cc"},"vehicle_type_id":"4","last_reported":1711314325,"current_range_meters":0,"station_id":"ce4bgjh2rcd13ifvqbf0","pricing_plan_id":"cebpf4jnsgd1na2vs0mg"},{"bike_id":"990a543c-a485-4d26-9256-166dc7641d31","system_id":"levelo_inurba_marseille","lat":43.302992,"lon":5.392136,"is_reserved":false,"is_disabled":false,"rental_uris":{"android":"levelo://app?vid=990a543c-a485-4d26-9256-166dc7641d31","ios":"levelo://app?vid=990a543c-a485-4d26-9256-166dc7641d31"},"vehicle_type_id":"4","last_reported":1711314325,"current_range_meters":22800,"station_id":"ce4bgkh2rcd13ifvqbk0","pricing_plan_id":"cebpf4jnsgd1na2vs0mg"},{"bike_id":"a4b99bf9-b003-4a98-9ed8-7806be131bae","system_id":"levelo_inurba_marseille","lat":43.2936,"lon":5.37835,"is_reserved":false,"is_disabled":false,"rental_uris":{"android":"levelo://app?vid=a4b99bf9-b003-4a98-9ed8-7806be131bae","ios":"levelo://app?vid=a4b99bf9-b003-4a98-9ed8-7806be131bae"},"vehicle_type_id":"4","last_reported":1711314325,"current_range_meters":14000,"station_id":"ce4bgjh2rcd13ifvqbf0","pricing_plan_id":"cebpf4jnsgd1na2vs0mg"},{"bike_id":"65530adc-c0fd-4525-a005-0b05a7bc3c5a","system_id":"levelo_inurba_marseille","lat":43.302992,"lon":5.392136,"is_reserved":false,"is_disabled":false,"rental_uris":{"android":"levelo://app?vid=65530adc-c0fd-4525-a005-0b05a7bc3c5a","ios":"levelo://app?vid=65530adc-c0fd-4525-a005-0b05a7bc3c5a"},"vehicle_type_id":"4","last_reported":1711314325,"current_range_meters":24000,"station_id":"ce4bgkh2rcd13ifvqbk0","pricing_plan_id":"cebpf4jnsgd1na2vs0mg"},{"bike_id":"7f25e0d9-bcde-4f18-9e40-239d0e338e61","system_id":"levelo_inurba_marseille","lat":43.292311,"lon":5.360731,"is_reserved":false,"is_disabled":false,"rental_uris":{"android":"levelo://app?vid=7f25e0d9-bcde-4f18-9e40-239d0e338e61","ios":"levelo://app?vid=7f25e0d9-bcde-4f18-9e40-239d0e338e61"},"vehicle_type_id":"4","last_reported":1711314325,"current_range_meters":22800,"station_id":"ce4bhbh2rcd13ifvqeqg","pricing_plan_id":"cebpf4jnsgd1na2vs0mg"},{"bike_id":"de08f7f7-1f4c-42aa-ab5e-df822ee65a58","system_id":"levelo_inurba_marseille","lat":43.300852,"lon":5.390859,"is_reserved":false,"is_disabled":false,"rental_uris":{"android":"levelo://app?vid=de08f7f7-1f4c-42aa-ab5e-df822ee65a58","ios":"levelo://app?vid=de08f7f7-1f4c-42aa-ab5e-df822ee65a58"},"vehicle_type_id":"4","last_reported":1711314325,"current_range_meters":14000,"station_id":"ce4bh192rcd13ifvqdb0","pricing_plan_id":"cebpf4jnsgd1na2vs0mg"},{"bike_id":"e1d948c7-d80e-489e-867d-cbf08351481a","system_id":"levelo_inurba_marseille","lat":43.2927,"lon":5.37624,"is_reserved":false,"is_disabled":false,"rental_uris":{"android":"levelo://app?vid=e1d948c7-d80e-489e-867d-cbf08351481a","ios":"levelo://app?vid=e1d948c7-d80e-489e-867d-cbf08351481a"},"vehicle_type_id":"4","last_reported":1711314325,"current_range_meters":800,"station_id":"","pricing_plan_id":"cebpf4jnsgd1na2vs0mg"},{"bike_id":"c5ba5147-9647-4daf-b5f7-6ad188a061b8","system_id":"levelo_inurba_marseille","lat":43.298764,"lon":5.388973,"is_reserved":false,"is_disabled":false,"rental_uris":{"android":"levelo://app?vid=c5ba5147-9647-4daf-b5f7-6ad188a061b8","ios":"levelo://app?vid=c5ba5147-9647-4daf-b5f7-6ad188a061b8"},"vehicle_type_id":"4","last_reported":1711314325,"current_range_meters":0,"station_id":"ce4bh392rcd13ifvqdl0","pricing_plan_id":"cebpf4jnsgd1na2vs0mg"},{"bike_id":"3d97b71b-fd6f-49cd-966d-a9ead491b8b1","system_id":"levelo_inurba_marseille","lat":43.29263,"lon":5.37625,"is_reserved":false,"is_disabled":false,"rental_uris":{"android":"levelo://app?vid=3d97b71b-fd6f-49cd-966d-a9ead491b8b1","ios":"levelo://app?vid=3d97b71b-fd6f-49cd-966d-a9ead491b8b1"},"vehicle_type_id":"4","last_reported":1711314325,"current_range_meters":13600,"station_id":"","pricing_plan_id":"cebpf4jnsgd1na2vs0mg"},{"bike_id":"501bde02-5377-4406-8aa8-56fceaae0671","system_id":"levelo_inurba_marseille","lat":43.291721,"lon":5.371415,"is_reserved":false,"is_disabled":false,"rental_uris":{"android":"levelo://app?vid=501bde02-5377-4406-8aa8-56fceaae0671","ios":"levelo://app?vid=501bde02-5377-4406-8aa8-56fceaae0671"},"vehicle_type_id":"4","last_reported":1711314325,"current_range_meters":0,"station_id":"ce4bha92rcd13ifvqeh0","pricing_plan_id":"cebpf4jnsgd1na2vs0mg"},{"bike_id":"f3a6efd7-e073-44bc-8310-75ccbcadc4d1","system_id":"levelo_inurba_marseille","lat":43.2917,"lon":5.371503,"is_reserved":false,"is_disabled":false,"rental_uris":{"android":"levelo://app?vid=f3a6efd7-e073-44bc-8310-75ccbcadc4d1","ios":"levelo://app?vid=f3a6efd7-e073-44bc-8310-75ccbcadc4d1"},"vehicle_type_id":"4","last_reported":1711314325,"current_range_meters":0,"station_id":"ce4bha92rcd13ifvqeh0","pricing_plan_id":"cebpf4jnsgd1na2vs0mg"},{"bike_id":"c570446a-fc1a-4b8b-bae9-56d96ee5ffa1","system_id":"levelo_inurba_marseille","lat":43.298764,"lon":5.388973,"is_reserved":false,"is_disabled":false,"rental_uris":{"android":"levelo://app?vid=c570446a-fc1a-4b8b-bae9-56d96ee5ffa1","ios":"levelo://app?vid=c570446a-fc1a-4b8b-bae9-56d96ee5ffa1"},"vehicle_type_id":"4","last_reported":1711314325,"current_range_meters":0,"station_id":"ce4bh392rcd13ifvqdl0","pricing_plan_id":"cebpf4jnsgd1na2vs0mg"},{"bike_id":"94605962-3ca2-4a7a-8236-9981f7bb73cb","system_id":"levelo_inurba_marseille","lat":43.298764,"lon":5.388973,"is_reserved":false,"is_disabled":false,"rental_uris":{"android":"levelo://app?vid=94605962-3ca2-4a7a-8236-9981f7bb73cb","ios":"levelo://app?vid=94605962-3ca2-4a7a-8236-9981f7bb73cb"},"vehicle_type_id":"4","last_reported":1711314325,"current_range_meters":31200,"station_id":"ce4bh392rcd13ifvqdl0","pricing_plan_id":"cebpf4jnsgd1na2vs0mg"},{"bike_id":"d2ee7bb7-c8f5-460d-bb82-155af9fa6da8","system_id":"levelo_inurba_marseille","lat":43.298764,"lon":5.388973,"is_reserved":false,"is_disabled":false,"rental_uris":{"android":"levelo://app?vid=d2ee7bb7-c8f5-460d-bb82-155af9fa6da8","ios":"levelo://app?vid=d2ee7bb7-c8f5-460d-bb82-155af9fa6da8"},"vehicle_type_id":"4","last_reported":1711314325,"current_range_meters":8400,"station_id":"ce4bh392rcd13ifvqdl0","pricing_plan_id":"cebpf4jnsgd1na2vs0mg"},{"bike_id":"f682700e-9a8a-4d59-a28e-0b5233bea279","system_id":"levelo_inurba_marseille","lat":43.298764,"lon":5.388973,"is_reserved":false,"is_disabled":false,"rental_uris":{"android":"levelo://app?vid=f682700e-9a8a-4d59-a28e-0b5233bea279","ios":"levelo://app?vid=f682700e-9a8a-4d59-a28e-0b5233bea279"},"vehicle_type_id":"4","last_reported":1711314325,"current_range_meters":19200,"station_id":"ce4bh392rcd13ifvqdl0","pricing_plan_id":"cebpf4jnsgd1na2vs0mg"},{"bike_id":"476bc37a-abf3-4429-b7cd-f8dffcc2dc5e","system_id":"levelo_inurba_marseille","lat":43.29195,"lon":5.35802,"is_reserved":false,"is_disabled":false,"rental_uris":{"android":"levelo://app?vid=476bc37a-abf3-4429-b7cd-f8dffcc2dc5e","ios":"levelo://app?vid=476bc37a-abf3-4429-b7cd-f8dffcc2dc5e"},"vehicle_type_id":"4","last_reported":1711314325,"current_range_meters":0,"station_id":"ce4bhb12rcd13ifvqel0","pricing_plan_id":"cebpf4jnsgd1na2vs0mg"},{"bike_id":"eed036a8-7bbc-4b94-82e6-875246a9783e","system_id":"levelo_inurba_marseille","lat":43.291994,"lon":5.357886,"is_reserved":false,"is_disabled":false,"rental_uris":{"android":"levelo://app?vid=eed036a8-7bbc-4b94-82e6-875246a9783e","ios":"levelo://app?vid=eed036a8-7bbc-4b94-82e6-875246a9783e"},"vehicle_type_id":"4","last_reported":1711314325,"current_range_meters":23200,"station_id":"ce4bhb12rcd13ifvqel0","pricing_plan_id":"cebpf4jnsgd1na2vs0mg"},{"bike_id":"3798347e-e047-45b3-9622-ef48c12b607c","system_id":"levelo_inurba_marseille","lat":43.291994,"lon":5.357886,"is_reserved":false,"is_disabled":false,"rental_uris":{"android":"levelo://app?vid=3798347e-e047-45b3-9622-ef48c12b607c","ios":"levelo://app?vid=3798347e-e047-45b3-9622-ef48c12b607c"},"vehicle_type_id":"4","last_reported":1711314325,"current_range_meters":8000,"station_id":"ce4bhb12rcd13ifvqel0","pricing_plan_id":"cebpf4jnsgd1na2vs0mg"},{"bike_id":"30daf7f8-ea42-4863-8102-32063dc2c2f3","system_id":"levelo_inurba_marseille","lat":43.313291,"lon":5.396838,"is_reserved":false,"is_disabled":false,"rental_uris":{"android":"levelo://app?vid=30daf7f8-ea42-4863-8102-32063dc2c2f3","ios":"levelo://app?vid=30daf7f8-ea42-4863-8102-32063dc2c2f3"},"vehicle_type_id":"4","last_reported":1711314325,"current_range_meters":0,"station_id":"ce4bgvp2rcd13ifvqcu0","pricing_plan_id":"cebpf4jnsgd1na2vs0mg"},{"bike_id":"739ea645-cacf-436b-a383-15ab5ee37d04","system_id":"levelo_inurba_marseille","lat":43.31332,"lon":5.39693,"is_reserved":false,"is_disabled":false,"rental_uris":{"android":"levelo://app?vid=739ea645-cacf-436b-a383-15ab5ee37d04","ios":"levelo://app?vid=739ea645-cacf-436b-a383-15ab5ee37d04"},"vehicle_type_id":"4","last_reported":1711314325,"current_range_meters":0,"station_id":"ce4bgvp2rcd13ifvqcu0","pricing_plan_id":"cebpf4jnsgd1na2vs0mg"},{"bike_id":"1fb82d2e-9fc3-4c5b-8897-c1b42ea9b285","system_id":"levelo_inurba_marseille","lat":43.313389,"lon":5.396944,"is_reserved":false,"is_disabled":false,"rental_uris":{"android":"levelo://app?vid=1fb82d2e-9fc3-4c5b-8897-c1b42ea9b285","ios":"levelo://app?vid=1fb82d2e-9fc3-4c5b-8897-c1b42ea9b285"},"vehicle_type_id":"4","last_reported":1711314325,"current_range_meters":1600,"station_id":"ce4bgvp2rcd13ifvqcu0","pricing_plan_id":"cebpf4jnsgd1na2vs0mg"},{"bike_id":"9b0950ce-14a9-4495-8e37-1f70ae31bb1f","system_id":"levelo_inurba_marseille","lat":43.313291,"lon":5.396838,"is_reserved":false,"is_disabled":false,"rental_uris":{"android":"levelo://app?vid=9b0950ce-14a9-4495-8e37-1f70ae31bb1f","ios":"levelo://app?vid=9b0950ce-14a9-4495-8e37-1f70ae31bb1f"},"vehicle_type_id":"4","last_reported":1711314325,"current_range_meters":6800,"station_id":"ce4bgvp2rcd13ifvqcu0","pricing_plan_id":"cebpf4jnsgd1na2vs0mg"},{"bike_id":"783a3831-9557-4413-a024-20a4d4f9e1ad","system_id":"levelo_inurba_marseille","lat":43.309047,"lon":5.396551,"is_reserved":false,"is_disabled":false,"rental_uris":{"android":"levelo://app?vid=783a3831-9557-4413-a024-20a4d4f9e1ad","ios":"levelo://app?vid=783a3831-9557-4413-a024-20a4d4f9e1ad"},"vehicle_type_id":"4","last_reported":1711314325,"current_range_meters":6800,"station_id":"ce4bh012rcd13ifvqcv0","pricing_plan_id":"cebpf4jnsgd1na2vs0mg"},{"bike_id":"8989b21a-8c43-4eaf-aaab-ac282dfca142","system_id":"levelo_inurba_marseille","lat":43.309047,"lon":5.396551,"is_reserved":false,"is_disabled":false,"rental_uris":{"android":"levelo://app?vid=8989b21a-8c43-4eaf-aaab-ac282dfca142","ios":"levelo://app?vid=8989b21a-8c43-4eaf-aaab-ac282dfca142"},"vehicle_type_id":"4","last_reported":1711314325,"current_range_meters":24800,"station_id":"ce4bh012rcd13ifvqcv0","pricing_plan_id":"cebpf4jnsgd1na2vs0mg"},{"bike_id":"9f8aa523-cc03-4866-a137-c0d2a5b7c2dd","system_id":"levelo_inurba_marseille","lat":43.309038,"lon":5.396546,"is_reserved":false,"is_disabled":false,"rental_uris":{"android":"levelo://app?vid=9f8aa523-cc03-4866-a137-c0d2a5b7c2dd","ios":"levelo://app?vid=9f8aa523-cc03-4866-a137-c0d2a5b7c2dd"},"vehicle_type_id":"4","last_reported":1711314325,"current_range_meters":19200,"station_id":"ce4bh012rcd13ifvqcv0","pricing_plan_id":"cebpf4jnsgd1na2vs0mg"},{"bike_id":"29bdaa63-7b06-45c2-b686-f6cb7e9b3372","system_id":"levelo_inurba_marseille","lat":43.29529,"lon":5.385581,"is_reserved":false,"is_disabled":false,"rental_uris":{"android":"levelo://app?vid=29bdaa63-7b06-45c2-b686-f6cb7e9b3372","ios":"levelo://app?vid=29bdaa63-7b06-45c2-b686-f6cb7e9b3372"},"vehicle_type_id":"4","last_reported":1711314325,"current_range_meters":13600,"station_id":"ce4bgih2rcd13ifvqba0","pricing_plan_id":"cebpf4jnsgd1na2vs0mg"},{"bike_id":"a9862dbe-b03c-4c00-82c1-0668ccaafebf","system_id":"levelo_inurba_marseille","lat":43.29533,"lon":5.385383,"is_reserved":false,"is_disabled":false,"rental_uris":{"android":"levelo://app?vid=a9862dbe-b03c-4c00-82c1-0668ccaafebf","ios":"levelo://app?vid=a9862dbe-b03c-4c00-82c1-0668ccaafebf"},"vehicle_type_id":"4","last_reported":1711314325,"current_range_meters":0,"station_id":"ce4bgih2rcd13ifvqba0","pricing_plan_id":"cebpf4jnsgd1na2vs0mg"},{"bike_id":"376923cd-9dd8-4ad1-914c-52d87d6fa346","system_id":"levelo_inurba_marseille","lat":43.309038,"lon":5.396546,"is_reserved":false,"is_disabled":false,"rental_uris":{"android":"levelo://app?vid=376923cd-9dd8-4ad1-914c-52d87d6fa346","ios":"levelo://app?vid=376923cd-9dd8-4ad1-914c-52d87d6fa346"},"vehicle_type_id":"4","last_reported":1711314325,"current_range_meters":16000,"station_id":"ce4bh012rcd13ifvqcv0","pricing_plan_id":"cebpf4jnsgd1na2vs0mg"},{"bike_id":"f9c3520a-95e9-4e56-b26b-a1776e127508","system_id":"levelo_inurba_marseille","lat":43.29529,"lon":5.385581,"is_reserved":false,"is_disabled":false,"rental_uris":{"android":"levelo://app?vid=f9c3520a-95e9-4e56-b26b-a1776e127508","ios":"levelo://app?vid=f9c3520a-95e9-4e56-b26b-a1776e127508"},"vehicle_type_id":"4","last_reported":1711314325,"current_range_meters":5200,"station_id":"ce4bgih2rcd13ifvqba0","pricing_plan_id":"cebpf4jnsgd1na2vs0mg"},{"bike_id":"553be6ba-c65d-4cef-80a9-9bd5e9dea82e","system_id":"levelo_inurba_marseille","lat":43.328077,"lon":5.388814,"is_reserved":false,"is_disabled":false,"rental_uris":{"android":"levelo://app?vid=553be6ba-c65d-4cef-80a9-9bd5e9dea82e","ios":"levelo://app?vid=553be6ba-c65d-4cef-80a9-9bd5e9dea82e"},"vehicle_type_id":"4","last_reported":1711314325,"current_range_meters":30400,"station_id":"","pricing_plan_id":"cebpf4jnsgd1na2vs0mg"},{"bike_id":"07ae1fab-8b3d-41cc-b06a-aae4690236a6","system_id":"levelo_inurba_marseille","lat":43.290779,"lon":5.371482,"is_reserved":false,"is_disabled":false,"rental_uris":{"android":"levelo://app?vid=07ae1fab-8b3d-41cc-b06a-aae4690236a6","ios":"levelo://app?vid=07ae1fab-8b3d-41cc-b06a-aae4690236a6"},"vehicle_type_id":"4","last_reported":1711314325,"current_range_meters":19200,"station_id":"ce4bh5p2rcd13ifvqe4g","pricing_plan_id":"cebpf4jnsgd1na2vs0mg"},{"bike_id":"932c1674-9e7f-43ae-8667-237ac5f11d10","system_id":"levelo_inurba_marseille","lat":43.290779,"lon":5.371482,"is_reserved":false,"is_disabled":false,"rental_uris":{"android":"levelo://app?vid=932c1674-9e7f-43ae-8667-237ac5f11d10","ios":"levelo://app?vid=932c1674-9e7f-43ae-8667-237ac5f11d10"},"vehicle_type_id":"4","last_reported":1711314325,"current_range_meters":21600,"station_id":"ce4bh5p2rcd13ifvqe4g","pricing_plan_id":"cebpf4jnsgd1na2vs0mg"},{"bike_id":"c8c1331d-06e0-4b0e-93f0-276590dc4fc3","system_id":"levelo_inurba_marseille","lat":43.290779,"lon":5.371482,"is_reserved":false,"is_disabled":false,"rental_uris":{"android":"levelo://app?vid=c8c1331d-06e0-4b0e-93f0-276590dc4fc3","ios":"levelo://app?vid=c8c1331d-06e0-4b0e-93f0-276590dc4fc3"},"vehicle_type_id":"4","last_reported":1711314325,"current_range_meters":26000,"station_id":"ce4bh5p2rcd13ifvqe4g","pricing_plan_id":"cebpf4jnsgd1na2vs0mg"},{"bike_id":"1ed88598-09a2-4751-b246-7d22d8b423e0","system_id":"levelo_inurba_marseille","lat":43.290779,"lon":5.371482,"is_reserved":false,"is_disabled":false,"rental_uris":{"android":"levelo://app?vid=1ed88598-09a2-4751-b246-7d22d8b423e0","ios":"levelo://app?vid=1ed88598-09a2-4751-b246-7d22d8b423e0"},"vehicle_type_id":"4","last_reported":1711314325,"current_range_meters":22000,"station_id":"ce4bh5p2rcd13ifvqe4g","pricing_plan_id":"cebpf4jnsgd1na2vs0mg"},{"bike_id":"8bc91653-44bc-4e8d-9461-dae6438d1123","system_id":"levelo_inurba_marseille","lat":43.296375,"lon":5.387806,"is_reserved":false,"is_disabled":false,"rental_uris":{"android":"levelo://app?vid=8bc91653-44bc-4e8d-9461-dae6438d1123","ios":"levelo://app?vid=8bc91653-44bc-4e8d-9461-dae6438d1123"},"vehicle_type_id":"4","last_reported":1711314325,"current_range_meters":18400,"station_id":"","pricing_plan_id":"cebpf4jnsgd1na2vs0mg"},{"bike_id":"b4589abe-d197-44ec-8b1b-a98a0a6a5583","system_id":"levelo_inurba_marseille","lat":43.290779,"lon":5.371482,"is_reserved":false,"is_disabled":false,"rental_uris":{"android":"levelo://app?vid=b4589abe-d197-44ec-8b1b-a98a0a6a5583","ios":"levelo://app?vid=b4589abe-d197-44ec-8b1b-a98a0a6a5583"},"vehicle_type_id":"4","last_reported":1711314325,"current_range_meters":16400,"station_id":"ce4bh5p2rcd13ifvqe4g","pricing_plan_id":"cebpf4jnsgd1na2vs0mg"},{"bike_id":"69e7ae1b-d1b6-4ae2-9043-0ead08a6d8ff","system_id":"levelo_inurba_marseille","lat":43.290562,"lon":5.370798,"is_reserved":false,"is_disabled":false,"rental_uris":{"android":"levelo://app?vid=69e7ae1b-d1b6-4ae2-9043-0ead08a6d8ff","ios":"levelo://app?vid=69e7ae1b-d1b6-4ae2-9043-0ead08a6d8ff"},"vehicle_type_id":"4","last_reported":1711314325,"current_range_meters":31200,"station_id":"","pricing_plan_id":"cebpf4jnsgd1na2vs0mg"},{"bike_id":"a9d837d0-d194-47f2-b812-516431e69eea","system_id":"levelo_inurba_marseille","lat":43.290779,"lon":5.371482,"is_reserved":false,"is_disabled":false,"rental_uris":{"android":"levelo://app?vid=a9d837d0-d194-47f2-b812-516431e69eea","ios":"levelo://app?vid=a9d837d0-d194-47f2-b812-516431e69eea"},"vehicle_type_id":"4","last_reported":1711314325,"current_range_meters":18000,"station_id":"ce4bh5p2rcd13ifvqe4g","pricing_plan_id":"cebpf4jnsgd1na2vs0mg"},{"bike_id":"1e0e7557-36a1-4468-bc55-eb260fa16c82","system_id":"levelo_inurba_marseille","lat":43.290779,"lon":5.371482,"is_reserved":false,"is_disabled":false,"rental_uris":{"android":"levelo://app?vid=1e0e7557-36a1-4468-bc55-eb260fa16c82","ios":"levelo://app?vid=1e0e7557-36a1-4468-bc55-eb260fa16c82"},"vehicle_type_id":"4","last_reported":1711314325,"current_range_meters":0,"station_id":"ce4bh5p2rcd13ifvqe4g","pricing_plan_id":"cebpf4jnsgd1na2vs0mg"},{"bike_id":"3b0bf75c-858b-4da4-9358-fcb56e13f712","system_id":"levelo_inurba_marseille","lat":43.28951,"lon":5.36646,"is_reserved":false,"is_disabled":false,"rental_uris":{"android":"levelo://app?vid=3b0bf75c-858b-4da4-9358-fcb56e13f712","ios":"levelo://app?vid=3b0bf75c-858b-4da4-9358-fcb56e13f712"},"vehicle_type_id":"4","last_reported":1711314325,"current_range_meters":0,"station_id":"ce4bhap2rcd13ifvqek0","pricing_plan_id":"cebpf4jnsgd1na2vs0mg"},{"bike_id":"aa248dd8-cc9a-4089-bcb9-32a0c6b3cdc1","system_id":"levelo_inurba_marseille","lat":43.294162,"lon":5.386292,"is_reserved":false,"is_disabled":false,"rental_uris":{"android":"levelo://app?vid=aa248dd8-cc9a-4089-bcb9-32a0c6b3cdc1","ios":"levelo://app?vid=aa248dd8-cc9a-4089-bcb9-32a0c6b3cdc1"},"vehicle_type_id":"4","last_reported":1711314325,"current_range_meters":0,"station_id":"ce4bh2h2rcd13ifvqdh0","pricing_plan_id":"cebpf4jnsgd1na2vs0mg"},{"bike_id":"951c090a-4494-4165-9cdf-f3efcf533a13","system_id":"levelo_inurba_marseille","lat":43.294162,"lon":5.386292,"is_reserved":false,"is_disabled":false,"rental_uris":{"android":"levelo://app?vid=951c090a-4494-4165-9cdf-f3efcf533a13","ios":"levelo://app?vid=951c090a-4494-4165-9cdf-f3efcf533a13"},"vehicle_type_id":"4","last_reported":1711314325,"current_range_meters":14000,"station_id":"ce4bh2h2rcd13ifvqdh0","pricing_plan_id":"cebpf4jnsgd1na2vs0mg"},{"bike_id":"45302e68-5e45-461a-987a-cfae7b58f818","system_id":"levelo_inurba_marseille","lat":43.289184,"lon":5.366408,"is_reserved":false,"is_disabled":false,"rental_uris":{"android":"levelo://app?vid=45302e68-5e45-461a-987a-cfae7b58f818","ios":"levelo://app?vid=45302e68-5e45-461a-987a-cfae7b58f818"},"vehicle_type_id":"4","last_reported":1711314325,"current_range_meters":23200,"station_id":"ce4bhap2rcd13ifvqek0","pricing_plan_id":"cebpf4jnsgd1na2vs0mg"},{"bike_id":"af67da93-65d3-4ef8-b6e1-79b081aaf3b8","system_id":"levelo_inurba_marseille","lat":43.28932,"lon":5.36642,"is_reserved":false,"is_disabled":false,"rental_uris":{"android":"levelo://app?vid=af67da93-65d3-4ef8-b6e1-79b081aaf3b8","ios":"levelo://app?vid=af67da93-65d3-4ef8-b6e1-79b081aaf3b8"},"vehicle_type_id":"4","last_reported":1711314325,"current_range_meters":6400,"station_id":"ce4bhap2rcd13ifvqek0","pricing_plan_id":"cebpf4jnsgd1na2vs0mg"},{"bike_id":"f44e3203-86ea-448f-8dfb-2c86bc15c631","system_id":"levelo_inurba_marseille","lat":43.289468,"lon":5.363719,"is_reserved":false,"is_disabled":false,"rental_uris":{"android":"levelo://app?vid=f44e3203-86ea-448f-8dfb-2c86bc15c631","ios":"levelo://app?vid=f44e3203-86ea-448f-8dfb-2c86bc15c631"},"vehicle_type_id":"4","last_reported":1711314325,"current_range_meters":27600,"station_id":"ce4bhc92rcd13ifvqetg","pricing_plan_id":"cebpf4jnsgd1na2vs0mg"},{"bike_id":"ff5d7d0c-dad8-419d-81e7-81ea67274e14","system_id":"levelo_inurba_marseille","lat":43.289468,"lon":5.363719,"is_reserved":false,"is_disabled":false,"rental_uris":{"android":"levelo://app?vid=ff5d7d0c-dad8-419d-81e7-81ea67274e14","ios":"levelo://app?vid=ff5d7d0c-dad8-419d-81e7-81ea67274e14"},"vehicle_type_id":"4","last_reported":1711314325,"current_range_meters":7600,"station_id":"ce4bhc92rcd13ifvqetg","pricing_plan_id":"cebpf4jnsgd1na2vs0mg"},{"bike_id":"62f975ce-bd24-42f7-9b0a-45e3ec1eb8ab","system_id":"levelo_inurba_marseille","lat":43.292642,"lon":5.384254,"is_reserved":false,"is_disabled":false,"rental_uris":{"android":"levelo://app?vid=62f975ce-bd24-42f7-9b0a-45e3ec1eb8ab","ios":"levelo://app?vid=62f975ce-bd24-42f7-9b0a-45e3ec1eb8ab"},"vehicle_type_id":"4","last_reported":1711314325,"current_range_meters":25200,"station_id":"ce4bh692rcd13ifvqea0","pricing_plan_id":"cebpf4jnsgd1na2vs0mg"},{"bike_id":"c206c47e-fe10-44f5-93cd-8439cf32c3c5","system_id":"levelo_inurba_marseille","lat":43.304296,"lon":5.397513,"is_reserved":false,"is_disabled":false,"rental_uris":{"android":"levelo://app?vid=c206c47e-fe10-44f5-93cd-8439cf32c3c5","ios":"levelo://app?vid=c206c47e-fe10-44f5-93cd-8439cf32c3c5"},"vehicle_type_id":"4","last_reported":1711314325,"current_range_meters":25600,"station_id":"ce4bh092rcd13ifvqd20","pricing_plan_id":"cebpf4jnsgd1na2vs0mg"},{"bike_id":"1bc96608-e5a2-46ad-ae98-75cc4ee1815c","system_id":"levelo_inurba_marseille","lat":43.304296,"lon":5.397513,"is_reserved":false,"is_disabled":false,"rental_uris":{"android":"levelo://app?vid=1bc96608-e5a2-46ad-ae98-75cc4ee1815c","ios":"levelo://app?vid=1bc96608-e5a2-46ad-ae98-75cc4ee1815c"},"vehicle_type_id":"4","last_reported":1711314325,"current_range_meters":1600,"station_id":"ce4bh092rcd13ifvqd20","pricing_plan_id":"cebpf4jnsgd1na2vs0mg"},{"bike_id":"9b49a34b-48cf-4163-8aac-02747aed92ba","system_id":"levelo_inurba_marseille","lat":43.29264,"lon":5.38431,"is_reserved":false,"is_disabled":false,"rental_uris":{"android":"levelo://app?vid=9b49a34b-48cf-4163-8aac-02747aed92ba","ios":"levelo://app?vid=9b49a34b-48cf-4163-8aac-02747aed92ba"},"vehicle_type_id":"4","last_reported":1711314325,"current_range_meters":18000,"station_id":"ce4bh692rcd13ifvqea0","pricing_plan_id":"cebpf4jnsgd1na2vs0mg"},{"bike_id":"6cc45f12-d2ba-47b9-bac5-4a6fecda2faa","system_id":"levelo_inurba_marseille","lat":43.292644,"lon":5.384257,"is_reserved":false,"is_disabled":false,"rental_uris":{"android":"levelo://app?vid=6cc45f12-d2ba-47b9-bac5-4a6fecda2faa","ios":"levelo://app?vid=6cc45f12-d2ba-47b9-bac5-4a6fecda2faa"},"vehicle_type_id":"4","last_reported":1711314325,"current_range_meters":31200,"station_id":"ce4bh692rcd13ifvqea0","pricing_plan_id":"cebpf4jnsgd1na2vs0mg"},{"bike_id":"5e1ea60a-684b-4ca1-a964-d311a00b0e9a","system_id":"levelo_inurba_marseille","lat":43.290103,"lon":5.356114,"is_reserved":false,"is_disabled":false,"rental_uris":{"android":"levelo://app?vid=5e1ea60a-684b-4ca1-a964-d311a00b0e9a","ios":"levelo://app?vid=5e1ea60a-684b-4ca1-a964-d311a00b0e9a"},"vehicle_type_id":"4","last_reported":1711314325,"current_range_meters":5200,"station_id":"ce4bhb92rcd13ifvqen0","pricing_plan_id":"cebpf4jnsgd1na2vs0mg"},{"bike_id":"637bd5ab-af0b-4f7f-994a-b79aa29e9418","system_id":"levelo_inurba_marseille","lat":43.28856,"lon":5.358371,"is_reserved":false,"is_disabled":false,"rental_uris":{"android":"levelo://app?vid=637bd5ab-af0b-4f7f-994a-b79aa29e9418","ios":"levelo://app?vid=637bd5ab-af0b-4f7f-994a-b79aa29e9418"},"vehicle_type_id":"4","last_reported":1711314325,"current_range_meters":8000,"station_id":"ce4bhb12rcd13ifvqem0","pricing_plan_id":"cebpf4jnsgd1na2vs0mg"},{"bike_id":"09d574e2-59b3-43c4-a88e-e562be2042a2","system_id":"levelo_inurba_marseille","lat":43.290995,"lon":5.381361,"is_reserved":false,"is_disabled":false,"rental_uris":{"android":"levelo://app?vid=09d574e2-59b3-43c4-a88e-e562be2042a2","ios":"levelo://app?vid=09d574e2-59b3-43c4-a88e-e562be2042a2"},"vehicle_type_id":"4","last_reported":1711314325,"current_range_meters":10000,"station_id":"ce4bh512rcd13ifvqe2g","pricing_plan_id":"cebpf4jnsgd1na2vs0mg"},{"bike_id":"ddb2a22f-3572-423f-a8fb-e0016851d8b2","system_id":"levelo_inurba_marseille","lat":43.295169,"lon":5.390426,"is_reserved":false,"is_disabled":false,"rental_uris":{"android":"levelo://app?vid=ddb2a22f-3572-423f-a8fb-e0016851d8b2","ios":"levelo://app?vid=ddb2a22f-3572-423f-a8fb-e0016851d8b2"},"vehicle_type_id":"4","last_reported":1711314325,"current_range_meters":7600,"station_id":"ce4bh3p2rcd13ifvqdp0","pricing_plan_id":"cebpf4jnsgd1na2vs0mg"},{"bike_id":"fec4806a-5aac-4a2c-868a-76e4228ba518","system_id":"levelo_inurba_marseille","lat":43.29791,"lon":5.393414,"is_reserved":false,"is_disabled":false,"rental_uris":{"android":"levelo://app?vid=fec4806a-5aac-4a2c-868a-76e4228ba518","ios":"levelo://app?vid=fec4806a-5aac-4a2c-868a-76e4228ba518"},"vehicle_type_id":"4","last_reported":1711314325,"current_range_meters":0,"station_id":"","pricing_plan_id":"cebpf4jnsgd1na2vs0mg"},{"bike_id":"017f8993-f535-4116-ab80-407022c10565","system_id":"levelo_inurba_marseille","lat":43.297815,"lon":5.393548,"is_reserved":false,"is_disabled":false,"rental_uris":{"android":"levelo://app?vid=017f8993-f535-4116-ab80-407022c10565","ios":"levelo://app?vid=017f8993-f535-4116-ab80-407022c10565"},"vehicle_type_id":"4","last_reported":1711314325,"current_range_meters":27200,"station_id":"chh1huq6cuj3fo74tm60","pricing_plan_id":"cebpf4jnsgd1na2vs0mg"},{"bike_id":"2599690e-7ed9-47a8-b73c-0e392b28eccb","system_id":"levelo_inurba_marseille","lat":43.330442,"lon":5.389148,"is_reserved":false,"is_disabled":false,"rental_uris":{"android":"levelo://app?vid=2599690e-7ed9-47a8-b73c-0e392b28eccb","ios":"levelo://app?vid=2599690e-7ed9-47a8-b73c-0e392b28eccb"},"vehicle_type_id":"4","last_reported":1711314325,"current_range_meters":14400,"station_id":"ce4bhr92rcd13ifvqhrg","pricing_plan_id":"cebpf4jnsgd1na2vs0mg"},{"bike_id":"b936aa08-1447-4a5e-99ae-f6d3c8dfba2e","system_id":"levelo_inurba_marseille","lat":43.330442,"lon":5.389148,"is_reserved":false,"is_disabled":false,"rental_uris":{"android":"levelo://app?vid=b936aa08-1447-4a5e-99ae-f6d3c8dfba2e","ios":"levelo://app?vid=b936aa08-1447-4a5e-99ae-f6d3c8dfba2e"},"vehicle_type_id":"4","last_reported":1711314325,"current_range_meters":30800,"station_id":"ce4bhr92rcd13ifvqhrg","pricing_plan_id":"cebpf4jnsgd1na2vs0mg"},{"bike_id":"910ef323-d493-4b40-85a8-7689c3baa5c4","system_id":"levelo_inurba_marseille","lat":43.330442,"lon":5.389148,"is_reserved":false,"is_disabled":false,"rental_uris":{"android":"levelo://app?vid=910ef323-d493-4b40-85a8-7689c3baa5c4","ios":"levelo://app?vid=910ef323-d493-4b40-85a8-7689c3baa5c4"},"vehicle_type_id":"4","last_reported":1711314325,"current_range_meters":800,"station_id":"ce4bhr92rcd13ifvqhrg","pricing_plan_id":"cebpf4jnsgd1na2vs0mg"},{"bike_id":"69f8d974-f4ae-4fd4-9622-377f1bfd0894","system_id":"levelo_inurba_marseille","lat":43.289741,"lon":5.378306,"is_reserved":false,"is_disabled":false,"rental_uris":{"android":"levelo://app?vid=69f8d974-f4ae-4fd4-9622-377f1bfd0894","ios":"levelo://app?vid=69f8d974-f4ae-4fd4-9622-377f1bfd0894"},"vehicle_type_id":"4","last_reported":1711314325,"current_range_meters":25600,"station_id":"ce4bh9p2rcd13ifvqed0","pricing_plan_id":"cebpf4jnsgd1na2vs0mg"},{"bike_id":"787ceb86-efae-494a-8b39-5abcd17943e3","system_id":"levelo_inurba_marseille","lat":43.295169,"lon":5.390426,"is_reserved":false,"is_disabled":false,"rental_uris":{"android":"levelo://app?vid=787ceb86-efae-494a-8b39-5abcd17943e3","ios":"levelo://app?vid=787ceb86-efae-494a-8b39-5abcd17943e3"},"vehicle_type_id":"4","last_reported":1711314325,"current_range_meters":7600,"station_id":"ce4bh3p2rcd13ifvqdp0","pricing_plan_id":"cebpf4jnsgd1na2vs0mg"},{"bike_id":"2fb083d6-1a91-4eaa-a744-e1f8deab11b3","system_id":"levelo_inurba_marseille","lat":43.330442,"lon":5.389148,"is_reserved":false,"is_disabled":false,"rental_uris":{"android":"levelo://app?vid=2fb083d6-1a91-4eaa-a744-e1f8deab11b3","ios":"levelo://app?vid=2fb083d6-1a91-4eaa-a744-e1f8deab11b3"},"vehicle_type_id":"4","last_reported":1711314325,"current_range_meters":5200,"station_id":"ce4bhr92rcd13ifvqhrg","pricing_plan_id":"cebpf4jnsgd1na2vs0mg"},{"bike_id":"3f0ac827-8edc-4c35-a17e-fd8059554b7b","system_id":"levelo_inurba_marseille","lat":43.28856,"lon":5.358371,"is_reserved":false,"is_disabled":false,"rental_uris":{"android":"levelo://app?vid=3f0ac827-8edc-4c35-a17e-fd8059554b7b","ios":"levelo://app?vid=3f0ac827-8edc-4c35-a17e-fd8059554b7b"},"vehicle_type_id":"4","last_reported":1711314325,"current_range_meters":27200,"station_id":"ce4bhb12rcd13ifvqem0","pricing_plan_id":"cebpf4jnsgd1na2vs0mg"},{"bike_id":"38d4fba7-ea8d-4576-8184-17d147c9696b","system_id":"levelo_inurba_marseille","lat":43.28856,"lon":5.358371,"is_reserved":false,"is_disabled":false,"rental_uris":{"android":"levelo://app?vid=38d4fba7-ea8d-4576-8184-17d147c9696b","ios":"levelo://app?vid=38d4fba7-ea8d-4576-8184-17d147c9696b"},"vehicle_type_id":"4","last_reported":1711314325,"current_range_meters":0,"station_id":"ce4bhb12rcd13ifvqem0","pricing_plan_id":"cebpf4jnsgd1na2vs0mg"},{"bike_id":"21f3efd8-f3f6-4666-ae40-14f213f4a326","system_id":"levelo_inurba_marseille","lat":43.28856,"lon":5.358371,"is_reserved":false,"is_disabled":false,"rental_uris":{"android":"levelo://app?vid=21f3efd8-f3f6-4666-ae40-14f213f4a326","ios":"levelo://app?vid=21f3efd8-f3f6-4666-ae40-14f213f4a326"},"vehicle_type_id":"4","last_reported":1711314325,"current_range_meters":13200,"station_id":"ce4bhb12rcd13ifvqem0","pricing_plan_id":"cebpf4jnsgd1na2vs0mg"},{"bike_id":"f6594e3b-0d78-4f4e-914b-2180377449a9","system_id":"levelo_inurba_marseille","lat":43.312609,"lon":5.401662,"is_reserved":false,"is_disabled":false,"rental_uris":{"android":"levelo://app?vid=f6594e3b-0d78-4f4e-914b-2180377449a9","ios":"levelo://app?vid=f6594e3b-0d78-4f4e-914b-2180377449a9"},"vehicle_type_id":"4","last_reported":1711314325,"current_range_meters":17600,"station_id":"ce4bh092rcd13ifvqd30","pricing_plan_id":"cebpf4jnsgd1na2vs0mg"},{"bike_id":"0a511bf8-403b-4835-a69d-8845b0587042","system_id":"levelo_inurba_marseille","lat":43.33743,"lon":5.37474,"is_reserved":false,"is_disabled":false,"rental_uris":{"android":"levelo://app?vid=0a511bf8-403b-4835-a69d-8845b0587042","ios":"levelo://app?vid=0a511bf8-403b-4835-a69d-8845b0587042"},"vehicle_type_id":"4","last_reported":1711314325,"current_range_meters":9600,"station_id":"","pricing_plan_id":"cebpf4jnsgd1na2vs0mg"},{"bike_id":"0b127886-2af5-4850-a0a8-224f8840dbab","system_id":"levelo_inurba_marseille","lat":43.30937,"lon":5.40147,"is_reserved":false,"is_disabled":false,"rental_uris":{"android":"levelo://app?vid=0b127886-2af5-4850-a0a8-224f8840dbab","ios":"levelo://app?vid=0b127886-2af5-4850-a0a8-224f8840dbab"},"vehicle_type_id":"4","last_reported":1711314325,"current_range_meters":0,"station_id":"ce4bgvp2rcd13ifvqct0","pricing_plan_id":"cebpf4jnsgd1na2vs0mg"},{"bike_id":"a019d0bb-a22d-4c94-9e0c-86e4c40307a1","system_id":"levelo_inurba_marseille","lat":43.306457,"lon":5.40087,"is_reserved":false,"is_disabled":false,"rental_uris":{"android":"levelo://app?vid=a019d0bb-a22d-4c94-9e0c-86e4c40307a1","ios":"levelo://app?vid=a019d0bb-a22d-4c94-9e0c-86e4c40307a1"},"vehicle_type_id":"4","last_reported":1711314325,"current_range_meters":0,"station_id":"ce4bh112rcd13ifvqda0","pricing_plan_id":"cebpf4jnsgd1na2vs0mg"},{"bike_id":"a798c0ce-3b06-4729-adc8-1aab11f14a54","system_id":"levelo_inurba_marseille","lat":43.301117,"lon":5.398795,"is_reserved":false,"is_disabled":false,"rental_uris":{"android":"levelo://app?vid=a798c0ce-3b06-4729-adc8-1aab11f14a54","ios":"levelo://app?vid=a798c0ce-3b06-4729-adc8-1aab11f14a54"},"vehicle_type_id":"4","last_reported":1711314325,"current_range_meters":25600,"station_id":"ce4bh0h2rcd13ifvqd40","pricing_plan_id":"cebpf4jnsgd1na2vs0mg"},{"bike_id":"e3576529-ac47-4e20-8e4d-f99c98418d14","system_id":"levelo_inurba_marseille","lat":43.301443,"lon":5.398758,"is_reserved":false,"is_disabled":false,"rental_uris":{"android":"levelo://app?vid=e3576529-ac47-4e20-8e4d-f99c98418d14","ios":"levelo://app?vid=e3576529-ac47-4e20-8e4d-f99c98418d14"},"vehicle_type_id":"4","last_reported":1711314325,"current_range_meters":0,"station_id":"ce4bh0h2rcd13ifvqd40","pricing_plan_id":"cebpf4jnsgd1na2vs0mg"},{"bike_id":"f2dd8af8-ba67-4954-b6ee-97e81e3b5c5f","system_id":"levelo_inurba_marseille","lat":43.301117,"lon":5.398795,"is_reserved":false,"is_disabled":false,"rental_uris":{"android":"levelo://app?vid=f2dd8af8-ba67-4954-b6ee-97e81e3b5c5f","ios":"levelo://app?vid=f2dd8af8-ba67-4954-b6ee-97e81e3b5c5f"},"vehicle_type_id":"4","last_reported":1711314325,"current_range_meters":1200,"station_id":"ce4bh0h2rcd13ifvqd40","pricing_plan_id":"cebpf4jnsgd1na2vs0mg"},{"bike_id":"c09b6e0e-f769-460b-bb55-5b33c856ffc0","system_id":"levelo_inurba_marseille","lat":43.301117,"lon":5.398795,"is_reserved":false,"is_disabled":false,"rental_uris":{"android":"levelo://app?vid=c09b6e0e-f769-460b-bb55-5b33c856ffc0","ios":"levelo://app?vid=c09b6e0e-f769-460b-bb55-5b33c856ffc0"},"vehicle_type_id":"4","last_reported":1711314325,"current_range_meters":21200,"station_id":"ce4bh0h2rcd13ifvqd40","pricing_plan_id":"cebpf4jnsgd1na2vs0mg"},{"bike_id":"c490ecf8-473e-4649-afc1-41236bf1d686","system_id":"levelo_inurba_marseille","lat":43.28727,"lon":5.36078,"is_reserved":false,"is_disabled":false,"rental_uris":{"android":"levelo://app?vid=c490ecf8-473e-4649-afc1-41236bf1d686","ios":"levelo://app?vid=c490ecf8-473e-4649-afc1-41236bf1d686"},"vehicle_type_id":"4","last_reported":1711314325,"current_range_meters":20000,"station_id":"cki0cbj6b192h4jlfktg","pricing_plan_id":"cebpf4jnsgd1na2vs0mg"},{"bike_id":"dd4c958a-2e83-4ed2-8099-9987f96e0190","system_id":"levelo_inurba_marseille","lat":43.28727,"lon":5.36078,"is_reserved":false,"is_disabled":false,"rental_uris":{"android":"levelo://app?vid=dd4c958a-2e83-4ed2-8099-9987f96e0190","ios":"levelo://app?vid=dd4c958a-2e83-4ed2-8099-9987f96e0190"},"vehicle_type_id":"4","last_reported":1711314325,"current_range_meters":18000,"station_id":"cki0cbj6b192h4jlfktg","pricing_plan_id":"cebpf4jnsgd1na2vs0mg"},