{"last_updated":1710526211,"ttl":30,"version":"2.2","data":{"bikes":[{"bike_id":"080d7386-8767-47a1-b77e-6122f915759c","system_id":"levelo_inurba_marseille","lat":43.313391,"lon":5.36706,"is_reserved":false,"is_disabled":false,"rental_uris":{"android":"levelo://app?vid=080d7386-8767-47a1-b77e-6122f915759c","ios":"levelo://app?vid=080d7386-8767-47a1-b77e-6122f915759c"},"vehicle_type_id":"4","last_reported":1710526211,"current_range_meters":19600,"station_id":"ce4bgr92rcd13ifvqc6g","pricing_plan_id":"cebpf4jnsgd1na2vs0mg"},{"bike_id":"b67b1a43-d900-4cb0-aa4f-9eceebc57327","system_id":"levelo_inurba_marseille","lat":43.309076,"lon":5.368465,"is_reserved":false,"is_disabled":false,"rental_uris":{"android":"levelo://app?vid=b67b1a43-d900-4cb0-aa4f-9eceebc57327","ios":"levelo://app?vid=b67b1a43-d900-4cb0-aa4f-9eceebc57327"},"vehicle_type_id":"4","last_reported":1710526211,"current_range_meters":12000,"station_id":"ce4bgn92rcd13ifvqbvg","pricing_plan_id":"cebpf4jnsgd1na2vs0mg"},{"bike_id":"4bccb892-6713-4eda-9095-40e68c1d9bc9","system_id":"levelo_inurba_marseille","lat":43.309076,"lon":5.368465,"is_reserved":false,"is_disabled":false,"rental_uris":{"android":"levelo://app?vid=4bccb892-6713-4eda-9095-40e68c1d9bc9","ios":"levelo://app?vid=4bccb892-6713-4eda-9095-40e68c1d9bc9"},"vehicle_type_id":"4","last_reported":1710526211,"current_range_meters":12800,"station_id":"ce4bgn92rcd13ifvqbvg","pricing_plan_id":"cebpf4jnsgd1na2vs0mg"},{"bike_id":"9f079f6e-7beb-4ab0-9e00-3a98e12971c4","system_id":"levelo_inurba_marseille","lat":43.309076,"lon":5.368465,"is_reserved":false,"is_disabled":false,"rental_uris":{"android":"levelo://app?vid=9f079f6e-7beb-4ab0-9e00-3a98e12971c4","ios":"levelo://app?vid=9f079f6e-7beb-4ab0-9e00-3a98e12971c4"},"vehicle_type_id":"4","last_reported":1710526211,"current_range_meters":10800,"station_id":"ce4bgn92rcd13ifvqbvg","pricing_plan_id":"cebpf4jnsgd1na2vs0mg"},{"bike_id":"0c7904ef-2d7b-444b-9f76-bf43878802a5","system_id":"levelo_inurba_marseille","lat":43.30915,"lon":5.36844,"is_reserved":false,"is_disabled":false,"rental_uris":{"android":"levelo://app?vid=0c7904ef-2d7b-444b-9f76-bf43878802a5","ios":"levelo://app?vid=0c7904ef-2d7b-444b-9f76-bf43878802a5"},"vehicle_type_id":"4","last_reported":1710526211,"current_range_meters":0,"station_id":"ce4bgn92rcd13ifvqbvg","pricing_plan_id":"cebpf4jnsgd1na2vs0mg"},{"bike_id":"b40699e8-31a5-41ad-bb36-1bb1f2201802","system_id":"levelo_inurba_marseille","lat":43.309076,"lon":5.368465,"is_reserved":false,"is_disabled":false,"rental_uris":{"android":"levelo://app?vid=b40699e8-31a5-41ad-bb36-1bb1f2201802","ios":"levelo://app?vid=b40699e8-31a5-41ad-bb36-1bb1f2201802"},"vehicle_type_id":"4","last_reported":1710526211,"current_range_meters":24400,"station_id":"ce4bgn92rcd13ifvqbvg","pricing_plan_id":"cebpf4jnsgd1na2vs0mg"},{"bike_id":"d74a7086-5065-4409-b145-0d8764f305ac","system_id":"levelo_inurba_marseille","lat":43.30912,"lon":5.3685,"is_reserved":false,"is_disabled":false,"rental_uris":{"android":"levelo://app?vid=d74a7086-5065-4409-b145-0d8764f305ac","ios":"levelo://app?vid=d74a7086-5065-4409-b145-0d8764f305ac"},"vehicle_type_id":"4","last_reported":1710526211,"current_range_meters":0,"station_id":"ce4bgn92rcd13ifvqbvg","pricing_plan_id":"cebpf4jnsgd1na2vs0mg"},{"bike_id":"d6686302-a919-410b-aeeb-ef3f6c78e108","system_id":"levelo_inurba_marseille","lat":43.309076,"lon":5.368465,"is_reserved":false,"is_disabled":false,"rental_uris":{"android":"levelo://app?vid=d6686302-a919-410b-aeeb-ef3f6c78e108","ios":"levelo://app?vid=d6686302-a919-410b-aeeb-ef3f6c78e108"},"vehicle_type_id":"4","last_reported":1710526211,"current_range_meters":3600,"station_id":"ce4bgn92rcd13ifvqbvg","pricing_plan_id":"cebpf4jnsgd1na2vs0mg"},{"bike_id":"1af7c7b6-42f5-4be0-a066-a2b3267583e6","system_id":"levelo_inurba_marseille","lat":43.314811,"lon":5.373103,"is_reserved":false,"is_disabled":false,"rental_uris":{"android":"levelo://app?vid=1af7c7b6-42f5-4be0-a066-a2b3267583e6","ios":"levelo://app?vid=1af7c7b6-42f5-4be0-a066-a2b3267583e6"},"vehicle_type_id":"4","last_reported":1710526211,"current_range_meters":0,"station_id":"ce4bgt12rcd13ifvqcd0","pricing_plan_id":"cebpf4jnsgd1na2vs0mg"},{"bike_id":"a0cc4e71-48c7-44ac-8178-8e17b7e9c996","system_id":"levelo_inurba_marseille","lat":43.314811,"lon":5.373103,"is_reserved":false,"is_disabled":false,"rental_uris":{"android":"levelo://app?vid=a0cc4e71-48c7-44ac-8178-8e17b7e9c996","ios":"levelo://app?vid=a0cc4e71-48c7-44ac-8178-8e17b7e9c996"},"vehicle_type_id":"4","last_reported":1710526211,"current_range_meters":0,"station_id":"ce4bgt12rcd13ifvqcd0","pricing_plan_id":"cebpf4jnsgd1na2vs0mg"},{"bike_id":"c03a5caf-e2cb-44c1-aaa2-e1bbf9c9b9a1","system_id":"levelo_inurba_marseille","lat":43.309039,"lon":5.371797,"is_reserved":false,"is_disabled":false,"rental_uris":{"android":"levelo://app?vid=c03a5caf-e2cb-44c1-aaa2-e1bbf9c9b9a1","ios":"levelo://app?vid=c03a5caf-e2cb-44c1-aaa2-e1bbf9c9b9a1"},"vehicle_type_id":"4","last_reported":1710526211,"current_range_meters":12400,"station_id":"ce4bguh2rcd13ifvqckg","pricing_plan_id":"cebpf4jnsgd1na2vs0mg"},{"bike_id":"ddb04754-dbf8-4fa1-a6a7-0f7274a44195","system_id":"levelo_inurba_marseille","lat":43.314811,"lon":5.373104,"is_reserved":false,"is_disabled":false,"rental_uris":{"android":"levelo://app?vid=ddb04754-dbf8-4fa1-a6a7-0f7274a44195","ios":"levelo://app?vid=ddb04754-dbf8-4fa1-a6a7-0f7274a44195"},"vehicle_type_id":"4","last_reported":1710526211,"current_range_meters":4000,"station_id":"ce4bgt12rcd13ifvqcd0","pricing_plan_id":"cebpf4jnsgd1na2vs0mg"},{"bike_id":"abc1a865-c1d6-4434-8e5d-265dcc865247","system_id":"levelo_inurba_marseille","lat":43.314811,"lon":5.373104,"is_reserved":false,"is_disabled":false,"rental_uris":{"android":"levelo://app?vid=abc1a865-c1d6-4434-8e5d-265dcc865247","ios":"levelo://app?vid=abc1a865-c1d6-4434-8e5d-265dcc865247"},"vehicle_type_id":"4","last_reported":1710526211,"current_range_meters":8000,"station_id":"ce4bgt12rcd13ifvqcd0","pricing_plan_id":"cebpf4jnsgd1na2vs0mg"},{"bike_id":"d53d8e22-584b-4c12-8ecd-e68309f30b6b","system_id":"levelo_inurba_marseille","lat":43.309039,"lon":5.371797,"is_reserved":false,"is_disabled":false,"rental_uris":{"android":"levelo://app?vid=d53d8e22-584b-4c12-8ecd-e68309f30b6b","ios":"levelo://app?vid=d53d8e22-584b-4c12-8ecd-e68309f30b6b"},"vehicle_type_id":"4","last_reported":1710526211,"current_range_meters":27200,"station_id":"ce4bguh2rcd13ifvqckg","pricing_plan_id":"cebpf4jnsgd1na2vs0mg"},{"bike_id":"de13e5ff-dac5-4b3d-879a-aab3947bc861","system_id":"levelo_inurba_marseille","lat":43.309039,"lon":5.371797,"is_reserved":false,"is_disabled":false,"rental_uris":{"android":"levelo://app?vid=de13e5ff-dac5-4b3d-879a-aab3947bc861","ios":"levelo://app?vid=de13e5ff-dac5-4b3d-879a-aab3947bc861"},"vehicle_type_id":"4","last_reported":1710526211,"current_range_meters":6800,"station_id":"ce4bguh2rcd13ifvqckg","pricing_plan_id":"cebpf4jnsgd1na2vs0mg"},{"bike_id":"4bcc3e51-b130-4189-8a5c-42237944c43c","system_id":"levelo_inurba_marseille","lat":43.309034,"lon":5.371783,"is_reserved":false,"is_disabled":false,"rental_uris":{"android":"levelo://app?vid=4bcc3e51-b130-4189-8a5c-42237944c43c","ios":"levelo://app?vid=4bcc3e51-b130-4189-8a5c-42237944c43c"},"vehicle_type_id":"4","last_reported":1710526211,"current_range_meters":10000,"station_id":"ce4bguh2rcd13ifvqckg","pricing_plan_id":"cebpf4jnsgd1na2vs0mg"},{"bike_id":"d090e976-0fb9-485a-a90c-79a102996172","system_id":"levelo_inurba_marseille","lat":43.305368,"lon":5.367343,"is_reserved":false,"is_disabled":false,"rental_uris":{"android":"levelo://app?vid=d090e976-0fb9-485a-a90c-79a102996172","ios":"levelo://app?vid=d090e976-0fb9-485a-a90c-79a102996172"},"vehicle_type_id":"4","last_reported":1710526211,"current_range_meters":23600,"station_id":"ce4bgrp2rcd13ifvqc9g","pricing_plan_id":"cebpf4jnsgd1na2vs0mg"},{"bike_id":"f0d71f4f-b242-48ce-ae6b-4e163cbc0aca","system_id":"levelo_inurba_marseille","lat":43.305368,"lon":5.367343,"is_reserved":false,"is_disabled":false,"rental_uris":{"android":"levelo://app?vid=f0d71f4f-b242-48ce-ae6b-4e163cbc0aca","ios":"levelo://app?vid=f0d71f4f-b242-48ce-ae6b-4e163cbc0aca"},"vehicle_type_id":"4","last_reported":1710526211,"current_range_meters":0,"station_id":"ce4bgrp2rcd13ifvqc9g","pricing_plan_id":"cebpf4jnsgd1na2vs0mg"},{"bike_id":"89e893ff-417d-44ee-8430-e2222ac15c0b","system_id":"levelo_inurba_marseille","lat":43.305989,"lon":5.37225,"is_reserved":false,"is_disabled":false,"rental_uris":{"android":"levelo://app?vid=89e893ff-417d-44ee-8430-e2222ac15c0b","ios":"levelo://app?vid=89e893ff-417d-44ee-8430-e2222ac15c0b"},"vehicle_type_id":"4","last_reported":1710526211,"current_range_meters":12000,"station_id":"ce4bgqh2rcd13ifvqc4g","pricing_plan_id":"cebpf4jnsgd1na2vs0mg"},{"bike_id":"21c8ba45-ebd4-4f7b-b5c4-2734059ef047","system_id":"levelo_inurba_marseille","lat":43.305989,"lon":5.37225,"is_reserved":false,"is_disabled":false,"rental_uris":{"android":"levelo://app?vid=21c8ba45-ebd4-4f7b-b5c4-2734059ef047","ios":"levelo://app?vid=21c8ba45-ebd4-4f7b-b5c4-2734059ef047"},"vehicle_type_id":"4","last_reported":1710526211,"current_range_meters":16000,"station_id":"ce4bgqh2rcd13ifvqc4g","pricing_plan_id":"cebpf4jnsgd1na2vs0mg"},{"bike_id":"682ad3ba-56c8-45ec-ae4f-5801eb58da62","system_id":"levelo_inurba_marseille","lat":43.311131,"lon":5.377651,"is_reserved":false,"is_disabled":false,"rental_uris":{"android":"levelo://app?vid=682ad3ba-56c8-45ec-ae4f-5801eb58da62","ios":"levelo://app?vid=682ad3ba-56c8-45ec-ae4f-5801eb58da62"},"vehicle_type_id":"4","last_reported":1710526211,"current_range_meters":1200,"station_id":"ce4bgt92rcd13ifvqcg0","pricing_plan_id":"cebpf4jnsgd1na2vs0mg"},{"bike_id":"3f944ed4-a096-437b-a387-56df874863cb","system_id":"levelo_inurba_marseille","lat":43.311177,"lon":5.377657,"is_reserved":false,"is_disabled":false,"rental_uris":{"android":"levelo://app?vid=3f944ed4-a096-437b-a387-56df874863cb","ios":"levelo://app?vid=3f944ed4-a096-437b-a387-56df874863cb"},"vehicle_type_id":"4","last_reported":1710526211,"current_range_meters":0,"station_id":"ce4bgt92rcd13ifvqcg0","pricing_plan_id":"cebpf4jnsgd1na2vs0mg"},{"bike_id":"d2fc1d8b-85e5-4faa-8473-7466d783f4a7","system_id":"levelo_inurba_marseille","lat":43.311131,"lon":5.377651,"is_reserved":false,"is_disabled":false,"rental_uris":{"android":"levelo://app?vid=d2fc1d8b-85e5-4faa-8473-7466d783f4a7","ios":"levelo://app?vid=d2fc1d8b-85e5-4faa-8473-7466d783f4a7"},"vehicle_type_id":"4","last_reported":1710526211,"current_range_meters":800,"station_id":"ce4bgt92rcd13ifvqcg0","pricing_plan_id":"cebpf4jnsgd1na2vs0mg"},{"bike_id":"5b6d465b-4c57-4f4e-9f08-748f8b7117fe","system_id":"levelo_inurba_marseille","lat":43.311131,"lon":5.377651,"is_reserved":false,"is_disabled":false,"rental_uris":{"android":"levelo://app?vid=5b6d465b-4c57-4f4e-9f08-748f8b7117fe","ios":"levelo://app?vid=5b6d465b-4c57-4f4e-9f08-748f8b7117fe"},"vehicle_type_id":"4","last_reported":1710526211,"current_range_meters":3600,"station_id":"ce4bgt92rcd13ifvqcg0","pricing_plan_id":"cebpf4jnsgd1na2vs0mg"},{"bike_id":"f9173339-4d4d-43cc-b562-fb45fa69845d","system_id":"levelo_inurba_marseille","lat":43.311125,"lon":5.377624,"is_reserved":false,"is_disabled":false,"rental_uris":{"android":"levelo://app?vid=f9173339-4d4d-43cc-b562-fb45fa69845d","ios":"levelo://app?vid=f9173339-4d4d-43cc-b562-fb45fa69845d"},"vehicle_type_id":"4","last_reported":1710526211,"current_range_meters":17600,"station_id":"ce4bgt92rcd13ifvqcg0","pricing_plan_id":"cebpf4jnsgd1na2vs0mg"},{"bike_id":"5ee602b4-9446-4ef0-aab0-681260d22387","system_id":"levelo_inurba_marseille","lat":43.3042,"lon":5.36543,"is_reserved":false,"is_disabled":false,"rental_uris":{"android":"levelo://app?vid=5ee602b4-9446-4ef0-aab0-681260d22387","ios":"levelo://app?vid=5ee602b4-9446-4ef0-aab0-681260d22387"},"vehicle_type_id":"4","last_reported":1710526211,"current_range_meters":5600,"station_id":"","pricing_plan_id":"cebpf4jnsgd1na2vs0mg"},{"bike_id":"f840e024-4e9b-4ec6-abbd-18927ad3925c","system_id":"levelo_inurba_marseille","lat":43.317066,"lon":5.377366,"is_reserved":false,"is_disabled":false,"rental_uris":{"android":"levelo://app?vid=f840e024-4e9b-4ec6-abbd-18927ad3925c","ios":"levelo://app?vid=f840e024-4e9b-4ec6-abbd-18927ad3925c"},"vehicle_type_id":"4","last_reported":1710526211,"current_range_meters":19600,"station_id":"ce4bgth2rcd13ifvqch0","pricing_plan_id":"cebpf4jnsgd1na2vs0mg"},{"bike_id":"ecc435ed-950d-4105-8ab8-78ee338280c3","system_id":"levelo_inurba_marseille","lat":43.317075,"lon":5.377367,"is_reserved":false,"is_disabled":false,"rental_uris":{"android":"levelo://app?vid=ecc435ed-950d-4105-8ab8-78ee338280c3","ios":"levelo://app?vid=ecc435ed-950d-4105-8ab8-78ee338280c3"},"vehicle_type_id":"4","last_reported":1710526211,"current_range_meters":27600,"station_id":"ce4bgth2rcd13ifvqch0","pricing_plan_id":"cebpf4jnsgd1na2vs0mg"},{"bike_id":"6df8a519-a704-46e9-b3eb-42b1fb917e85","system_id":"levelo_inurba_marseille","lat":43.31771,"lon":5.37788,"is_reserved":false,"is_disabled":false,"rental_uris":{"android":"levelo://app?vid=6df8a519-a704-46e9-b3eb-42b1fb917e85","ios":"levelo://app?vid=6df8a519-a704-46e9-b3eb-42b1fb917e85"},"vehicle_type_id":"4","last_reported":1710526211,"current_range_meters":14400,"station_id":"","pricing_plan_id":"cebpf4jnsgd1na2vs0mg"},{"bike_id":"6a7a556b-465e-476e-94ca-fd9b30229764","system_id":"levelo_inurba_marseille","lat":43.303046,"lon":5.368981,"is_reserved":false,"is_disabled":false,"rental_uris":{"android":"levelo://app?vid=6a7a556b-465e-476e-94ca-fd9b30229764","ios":"levelo://app?vid=6a7a556b-465e-476e-94ca-fd9b30229764"},"vehicle_type_id":"4","last_reported":1710526211,"current_range_meters":17200,"station_id":"ce4bgqh2rcd13ifvqc5g","pricing_plan_id":"cebpf4jnsgd1na2vs0mg"},{"bike_id":"3608d763-66fd-497b-a690-4b174f8b5ff5","system_id":"levelo_inurba_marseille","lat":43.315293,"lon":5.380349,"is_reserved":false,"is_disabled":false,"rental_uris":{"android":"levelo://app?vid=3608d763-66fd-497b-a690-4b174f8b5ff5","ios":"levelo://app?vid=3608d763-66fd-497b-a690-4b174f8b5ff5"},"vehicle_type_id":"4","last_reported":1710526211,"current_range_meters":30000,"station_id":"ce4bhsp2rcd13ifvqi50","pricing_plan_id":"cebpf4jnsgd1na2vs0mg"},{"bike_id":"d937afa4-a740-4cda-9fb3-d53f85ca2579","system_id":"levelo_inurba_marseille","lat":43.315293,"lon":5.380349,"is_reserved":false,"is_disabled":false,"rental_uris":{"android":"levelo://app?vid=d937afa4-a740-4cda-9fb3-d53f85ca2579","ios":"levelo://app?vid=d937afa4-a740-4cda-9fb3-d53f85ca2579"},"vehicle_type_id":"4","last_reported":1710526211,"current_range_meters":24400,"station_id":"ce4bhsp2rcd13ifvqi50","pricing_plan_id":"cebpf4jnsgd1na2vs0mg"},{"bike_id":"516f2353-9594-4c2e-980b-5ee0bfaee235","system_id":"levelo_inurba_marseille","lat":43.31038,"lon":5.38092,"is_reserved":false,"is_disabled":false,"rental_uris":{"android":"levelo://app?vid=516f2353-9594-4c2e-980b-5ee0bfaee235","ios":"levelo://app?vid=516f2353-9594-4c2e-980b-5ee0bfaee235"},"vehicle_type_id":"4","last_reported":1710526211,"current_range_meters":0,"station_id":"","pricing_plan_id":"cebpf4jnsgd1na2vs0mg"},{"bike_id":"74362c37-fb1a-43b0-87c5-4cbaab17659f","system_id":"levelo_inurba_marseille","lat":43.308012,"lon":5.381511,"is_reserved":false,"is_disabled":false,"rental_uris":{"android":"levelo://app?vid=74362c37-fb1a-43b0-87c5-4cbaab17659f","ios":"levelo://app?vid=74362c37-fb1a-43b0-87c5-4cbaab17659f"},"vehicle_type_id":"4","last_reported":1710526211,"current_range_meters":800,"station_id":"ce4bgt12rcd13ifvqce0","pricing_plan_id":"cebpf4jnsgd1na2vs0mg"},{"bike_id":"6eaa7a5d-8292-4872-adbf-26f09145ebee","system_id":"levelo_inurba_marseille","lat":43.308012,"lon":5.381511,"is_reserved":false,"is_disabled":false,"rental_uris":{"android":"levelo://app?vid=6eaa7a5d-8292-4872-adbf-26f09145ebee","ios":"levelo://app?vid=6eaa7a5d-8292-4872-adbf-26f09145ebee"},"vehicle_type_id":"4","last_reported":1710526211,"current_range_meters":2400,"station_id":"ce4bgt12rcd13ifvqce0","pricing_plan_id":"cebpf4jnsgd1na2vs0mg"},{"bike_id":"1fee50e3-15d4-478a-b19a-2361c6fcb413","system_id":"levelo_inurba_marseille","lat":43.308012,"lon":5.381511,"is_reserved":false,"is_disabled":false,"rental_uris":{"android":"levelo://app?vid=1fee50e3-15d4-478a-b19a-2361c6fcb413","ios":"levelo://app?vid=1fee50e3-15d4-478a-b19a-2361c6fcb413"},"vehicle_type_id":"4","last_reported":1710526211,"current_range_meters":0,"station_id":"ce4bgt12rcd13ifvqce0","pricing_plan_id":"cebpf4jnsgd1na2vs0mg"},{"bike_id":"70c7defb-385b-4ff3-a52a-3e5069ab6a69","system_id":"levelo_inurba_marseille","lat":43.308012,"lon":5.381511,"is_reserved":false,"is_disabled":false,"rental_uris":{"android":"levelo://app?vid=70c7defb-385b-4ff3-a52a-3e5069ab6a69","ios":"levelo://app?vid=70c7defb-385b-4ff3-a52a-3e5069ab6a69"},"vehicle_type_id":"4","last_reported":1710526211,"current_range_meters":2800,"station_id":"ce4bgt12rcd13ifvqce0","pricing_plan_id":"cebpf4jnsgd1na2vs0mg"},{"bike_id":"8bb17e0b-8c94-41c9-ba60-ba67d052a7ba","system_id":"levelo_inurba_marseille","lat":43.304606,"lon":5.379026,"is_reserved":false,"is_disabled":false,"rental_uris":{"android":"levelo://app?vid=8bb17e0b-8c94-41c9-ba60-ba67d052a7ba","ios":"levelo://app?vid=8bb17e0b-8c94-41c9-ba60-ba67d052a7ba"},"vehicle_type_id":"4","last_reported":1710526211,"current_range_meters":0,"station_id":"ce4bgup2rcd13ifvqcn0","pricing_plan_id":"cebpf4jnsgd1na2vs0mg"},{"bike_id":"899d132f-7bce-4a42-a443-5d5eb1cc6b06","system_id":"levelo_inurba_marseille","lat":43.304606,"lon":5.379026,"is_reserved":false,"is_disabled":false,"rental_uris":{"android":"levelo://app?vid=899d132f-7bce-4a42-a443-5d5eb1cc6b06","ios":"levelo://app?vid=899d132f-7bce-4a42-a443-5d5eb1cc6b06"},"vehicle_type_id":"4","last_reported":1710526211,"current_range_meters":2000,"station_id":"ce4bgup2rcd13ifvqcn0","pricing_plan_id":"cebpf4jnsgd1na2vs0mg"},{"bike_id":"687d7261-f7bc-474e-9558-138d06562266","system_id":"levelo_inurba_marseille","lat":43.304606,"lon":5.379026,"is_reserved":false,"is_disabled":false,"rental_uris":{"android":"levelo://app?vid=687d7261-f7bc-474e-9558-138d06562266","ios":"levelo://app?vid=687d7261-f7bc-474e-9558-138d06562266"},"vehicle_type_id":"4","last_reported":1710526211,"current_range_meters":0,"station_id":"ce4bgup2rcd13ifvqcn0","pricing_plan_id":"cebpf4jnsgd1na2vs0mg"},{"bike_id":"c0cc4b46-b357-4a80-98cc-afe13efe41f1","system_id":"levelo_inurba_marseille","lat":43.324771,"lon":5.36557,"is_reserved":false,"is_disabled":false,"rental_uris":{"android":"levelo://app?vid=c0cc4b46-b357-4a80-98cc-afe13efe41f1","ios":"levelo://app?vid=c0cc4b46-b357-4a80-98cc-afe13efe41f1"},"vehicle_type_id":"4","last_reported":1710526211,"current_range_meters":5200,"station_id":"ce4bhs12rcd13ifvqhvg","pricing_plan_id":"cebpf4jnsgd1na2vs0mg"},{"bike_id":"96ade1c6-b8f4-4248-a16c-9ca6451e8605","system_id":"levelo_inurba_marseille","lat":43.324771,"lon":5.36557,"is_reserved":false,"is_disabled":false,"rental_uris":{"android":"levelo://app?vid=96ade1c6-b8f4-4248-a16c-9ca6451e8605","ios":"levelo://app?vid=96ade1c6-b8f4-4248-a16c-9ca6451e8605"},"vehicle_type_id":"4","last_reported":1710526211,"current_range_meters":22400,"station_id":"ce4bhs12rcd13ifvqhvg","pricing_plan_id":"cebpf4jnsgd1na2vs0mg"},{"bike_id":"af0a83ad-4db4-465e-a460-b561e0502353","system_id":"levelo_inurba_marseille","lat":43.324771,"lon":5.36557,"is_reserved":false,"is_disabled":false,"rental_uris":{"android":"levelo://app?vid=af0a83ad-4db4-465e-a460-b561e0502353","ios":"levelo://app?vid=af0a83ad-4db4-465e-a460-b561e0502353"},"vehicle_type_id":"4","last_reported":1710526211,"current_range_meters":0,"station_id":"ce4bhs12rcd13ifvqhvg","pricing_plan_id":"cebpf4jnsgd1na2vs0mg"},{"bike_id":"18fc47d4-f43a-4eed-abb4-9d13f9e04f59","system_id":"levelo_inurba_marseille","lat":43.324771,"lon":5.36557,"is_reserved":false,"is_disabled":false,"rental_uris":{"android":"levelo://app?vid=18fc47d4-f43a-4eed-abb4-9d13f9e04f59","ios":"levelo://app?vid=18fc47d4-f43a-4eed-abb4-9d13f9e04f59"},"vehicle_type_id":"4","last_reported":1710526211,"current_range_meters":20800,"station_id":"ce4bhs12rcd13ifvqhvg","pricing_plan_id":"cebpf4jnsgd1na2vs0mg"},{"bike_id":"0beae27c-8e15-427f-98a8-4f6c1fff4039","system_id":"levelo_inurba_marseille","lat":43.324771,"lon":5.36557,"is_reserved":false,"is_disabled":false,"rental_uris":{"android":"levelo://app?vid=0beae27c-8e15-427f-98a8-4f6c1fff4039","ios":"levelo://app?vid=0beae27c-8e15-427f-98a8-4f6c1fff4039"},"vehicle_type_id":"4","last_reported":1710526211,"current_range_meters":8800,"station_id":"ce4bhs12rcd13ifvqhvg","pricing_plan_id":"cebpf4jnsgd1na2vs0mg"},{"bike_id":"12c419ff-5d5f-445b-9471-a4225b24c594","system_id":"levelo_inurba_marseille","lat":43.324771,"lon":5.36557,"is_reserved":false,"is_disabled":false,"rental_uris":{"android":"levelo://app?vid=12c419ff-5d5f-445b-9471-a4225b24c594","ios":"levelo://app?vid=12c419ff-5d5f-445b-9471-a4225b24c594"},"vehicle_type_id":"4","last_reported":1710526211,"current_range_meters":6000,"station_id":"ce4bhs12rcd13ifvqhvg","pricing_plan_id":"cebpf4jnsgd1na2vs0mg"},{"bike_id":"45c182d4-c42c-4114-9e74-abc1eba34bef","system_id":"levelo_inurba_marseille","lat":43.32489,"lon":5.36574,"is_reserved":false,"is_disabled":false,"rental_uris":{"android":"levelo://app?vid=45c182d4-c42c-4114-9e74-abc1eba34bef","ios":"levelo://app?vid=45c182d4-c42c-4114-9e74-abc1eba34bef"},"vehicle_type_id":"4","last_reported":1710526211,"current_range_meters":25200,"station_id":"ce4bhs12rcd13ifvqhvg","pricing_plan_id":"cebpf4jnsgd1na2vs0mg"},{"bike_id":"3636e797-ae37-4ed8-ae31-11958c8b0dde","system_id":"levelo_inurba_marseille","lat":43.324771,"lon":5.36557,"is_reserved":false,"is_disabled":false,"rental_uris":{"android":"levelo://app?vid=3636e797-ae37-4ed8-ae31-11958c8b0dde","ios":"levelo://app?vid=3636e797-ae37-4ed8-ae31-11958c8b0dde"},"vehicle_type_id":"4","last_reported":1710526211,"current_range_meters":15600,"station_id":"ce4bhs12rcd13ifvqhvg","pricing_plan_id":"cebpf4jnsgd1na2vs0mg"},{"bike_id":"4fbddead-94a4-4d62-8b05-b6aa80f360ed","system_id":"levelo_inurba_marseille","lat":43.31081,"lon":5.38357,"is_reserved":false,"is_disabled":false,"rental_uris":{"android":"levelo://app?vid=4fbddead-94a4-4d62-8b05-b6aa80f360ed","ios":"levelo://app?vid=4fbddead-94a4-4d62-8b05-b6aa80f360ed"},"vehicle_type_id":"4","last_reported":1710526211,"current_range_meters":0,"station_id":"ce4bgv92rcd13ifvqcr0","pricing_plan_id":"cebpf4jnsgd1na2vs0mg"},{"bike_id":"f0abc305-840e-4239-a132-d852de4bd002","system_id":"levelo_inurba_marseille","lat":43.310804,"lon":5.38359,"is_reserved":false,"is_disabled":false,"rental_uris":{"android":"levelo://app?vid=f0abc305-840e-4239-a132-d852de4bd002","ios":"levelo://app?vid=f0abc305-840e-4239-a132-d852de4bd002"},"vehicle_type_id":"4","last_reported":1710526211,"current_range_meters":15200,"station_id":"ce4bgv92rcd13ifvqcr0","pricing_plan_id":"cebpf4jnsgd1na2vs0mg"},{"bike_id":"7615204a-5323-42e8-b6d7-a3ed7e31db63","system_id":"levelo_inurba_marseille","lat":43.301429,"lon":5.37413,"is_reserved":false,"is_disabled":false,"rental_uris":{"android":"levelo://app?vid=7615204a-5323-42e8-b6d7-a3ed7e31db63","ios":"levelo://app?vid=7615204a-5323-42e8-b6d7-a3ed7e31db63"},"vehicle_type_id":"4","last_reported":1710526211,"current_range_meters":0,"station_id":"ce4bgs92rcd13ifvqcc0","pricing_plan_id":"cebpf4jnsgd1na2vs0mg"},{"bike_id":"c948e4ea-3506-4bf5-b479-2c59d25c384c","system_id":"levelo_inurba_marseille","lat":43.2968,"lon":5.37291,"is_reserved":false,"is_disabled":false,"rental_uris":{"android":"levelo://app?vid=c948e4ea-3506-4bf5-b479-2c59d25c384c","ios":"levelo://app?vid=c948e4ea-3506-4bf5-b479-2c59d25c384c"},"vehicle_type_id":"4","last_reported":1710526211,"current_range_meters":22000,"station_id":"ce4bgk12rcd13ifvqbj0","pricing_plan_id":"cebpf4jnsgd1na2vs0mg"},{"bike_id":"047bfaaa-aa6b-49b2-8002-e870a4645c6c","system_id":"levelo_inurba_marseille","lat":43.319935,"lon":5.381699,"is_reserved":false,"is_disabled":false,"rental_uris":{"android":"levelo://app?vid=047bfaaa-aa6b-49b2-8002-e870a4645c6c","ios":"levelo://app?vid=047bfaaa-aa6b-49b2-8002-e870a4645c6c"},"vehicle_type_id":"4","last_reported":1710526211,"current_range_meters":18400,"station_id":"ce4bhr12rcd13ifvqhpg","pricing_plan_id":"cebpf4jnsgd1na2vs0mg"},{"bike_id":"c84e0966-1c7f-41d6-a8f6-7198b24b7e42","system_id":"levelo_inurba_marseille","lat":43.319935,"lon":5.381699,"is_reserved":false,"is_disabled":false,"rental_uris":{"android":"levelo://app?vid=c84e0966-1c7f-41d6-a8f6-7198b24b7e42","ios":"levelo://app?vid=c84e0966-1c7f-41d6-a8f6-7198b24b7e42"},"vehicle_type_id":"4","last_reported":1710526211,"current_range_meters":21600,"station_id":"ce4bhr12rcd13ifvqhpg","pricing_plan_id":"cebpf4jnsgd1na2vs0mg"},{"bike_id":"a46f3b86-7dc1-46bc-b469-645f5d47ddad","system_id":"levelo_inurba_marseille","lat":43.319935,"lon":5.381699,"is_reserved":false,"is_disabled":false,"rental_uris":{"android":"levelo://app?vid=a46f3b86-7dc1-46bc-b469-645f5d47ddad","ios":"levelo://app?vid=a46f3b86-7dc1-46bc-b469-645f5d47ddad"},"vehicle_type_id":"4","last_reported":1710526211,"current_range_meters":20000,"station_id":"ce4bhr12rcd13ifvqhpg","pricing_plan_id":"cebpf4jnsgd1na2vs0mg"},{"bike_id":"2dec62fd-9cfc-45e2-864c-72b1b6a74bba","system_id":"levelo_inurba_marseille","lat":43.319935,"lon":5.381699,"is_reserved":false,"is_disabled":false,"rental_uris":{"android":"levelo://app?vid=2dec62fd-9cfc-45e2-864c-72b1b6a74bba","ios":"levelo://app?vid=2dec62fd-9cfc-45e2-864c-72b1b6a74bba"},"vehicle_type_id":"4","last_reported":1710526211,"current_range_meters":2800,"station_id":"ce4bhr12rcd13ifvqhpg","pricing_plan_id":"cebpf4jnsgd1na2vs0mg"},{"bike_id":"747ec0e5-a700-4ed0-859f-8b01d77434a9","system_id":"levelo_inurba_marseille","lat":43.319935,"lon":5.381699,"is_reserved":false,"is_disabled":false,"rental_uris":{"android":"levelo://app?vid=747ec0e5-a700-4ed0-859f-8b01d77434a9","ios":"levelo://app?vid=747ec0e5-a700-4ed0-859f-8b01d77434a9"},"vehicle_type_id":"4","last_reported":1710526211,"current_range_meters":400,"station_id":"ce4bhr12rcd13ifvqhpg","pricing_plan_id":"cebpf4jnsgd1na2vs0mg"},{"bike_id":"b2273e34-f3b1-45d8-a7c1-e0a5296f08a5","system_id":"levelo_inurba_marseille","lat":43.319935,"lon":5.381699,"is_reserved":false,"is_disabled":false,"rental_uris":{"android":"levelo://app?vid=b2273e34-f3b1-45d8-a7c1-e0a5296f08a5","ios":"levelo://app?vid=b2273e34-f3b1-45d8-a7c1-e0a5296f08a5"},"vehicle_type_id":"4","last_reported":1710526211,"current_range_meters":20400,"station_id":"ce4bhr12rcd13ifvqhpg","pricing_plan_id":"cebpf4jnsgd1na2vs0mg"},{"bike_id":"5e3113e3-29f6-4f14-a9c5-2af5d9ac0333","system_id":"levelo_inurba_marseille","lat":43.319935,"lon":5.381699,"is_reserved":false,"is_disabled":false,"rental_uris":{"android":"levelo://app?vid=5e3113e3-29f6-4f14-a9c5-2af5d9ac0333","ios":"levelo://app?vid=5e3113e3-29f6-4f14-a9c5-2af5d9ac0333"},"vehicle_type_id":"4","last_reported":1710526211,"current_range_meters":10000,"station_id":"ce4bhr12rcd13ifvqhpg","pricing_plan_id":"cebpf4jnsgd1na2vs0mg"},{"bike_id":"a42b73d8-419d-44d3-ba3d-05eb76089fd5","system_id":"levelo_inurba_marseille","lat":43.319935,"lon":5.381699,"is_reserved":false,"is_disabled":false,"rental_uris":{"android":"levelo://app?vid=a42b73d8-419d-44d3-ba3d-05eb76089fd5","ios":"levelo://app?vid=a42b73d8-419d-44d3-ba3d-05eb76089fd5"},"vehicle_type_id":"4","last_reported":1710526211,"current_range_meters":24400,"station_id":"ce4bhr12rcd13ifvqhpg","pricing_plan_id":"cebpf4jnsgd1na2vs0mg"},{"bike_id":"32f5d04a-4a49-412d-8179-8f69e2f51ddc","system_id":"levelo_inurba_marseille","lat":43.320081,"lon":5.381719,"is_reserved":false,"is_disabled":false,"rental_uris":{"android":"levelo://app?vid=32f5d04a-4a49-412d-8179-8f69e2f51ddc","ios":"levelo://app?vid=32f5d04a-4a49-412d-8179-8f69e2f51ddc"},"vehicle_type_id":"4","last_reported":1710526211,"current_range_meters":7200,"station_id":"ce4bgup2rcd13ifvqco0","pricing_plan_id":"cebpf4jnsgd1na2vs0mg"},{"bike_id":"b0da8d32-ad58-4635-b50d-78f40aa55214","system_id":"levelo_inurba_marseille","lat":43.319935,"lon":5.381699,"is_reserved":false,"is_disabled":false,"rental_uris":{"android":"levelo://app?vid=b0da8d32-ad58-4635-b50d-78f40aa55214","ios":"levelo://app?vid=b0da8d32-ad58-4635-b50d-78f40aa55214"},"vehicle_type_id":"4","last_reported":1710526211,"current_range_meters":3200,"station_id":"ce4bhr12rcd13ifvqhpg","pricing_plan_id":"cebpf4jnsgd1na2vs0mg"},{"bike_id":"aec21a42-9f02-44d5-8ed0-239cd7069cb7","system_id":"levelo_inurba_marseille","lat":43.313571,"lon":5.384829,"is_reserved":false,"is_disabled":false,"rental_uris":{"android":"levelo://app?vid=aec21a42-9f02-44d5-8ed0-239cd7069cb7","ios":"levelo://app?vid=aec21a42-9f02-44d5-8ed0-239cd7069cb7"},"vehicle_type_id":"4","last_reported":1710526211,"current_range_meters":19600,"station_id":"ce4bgt92rcd13ifvqcf0","pricing_plan_id":"cebpf4jnsgd1na2vs0mg"},{"bike_id":"034e3908-9df5-4a00-bbe2-3063caa792f3","system_id":"levelo_inurba_marseille","lat":43.313571,"lon":5.384829,"is_reserved":false,"is_disabled":false,"rental_uris":{"android":"levelo://app?vid=034e3908-9df5-4a00-bbe2-3063caa792f3","ios":"levelo://app?vid=034e3908-9df5-4a00-bbe2-3063caa792f3"},"vehicle_type_id":"4","last_reported":1710526211,"current_range_meters":16400,"station_id":"ce4bgt92rcd13ifvqcf0","pricing_plan_id":"cebpf4jnsgd1na2vs0mg"},{"bike_id":"454b71e2-f3d7-4f21-bb26-6b26d7507832","system_id":"levelo_inurba_marseille","lat":43.299724,"lon":5.371829,"is_reserved":false,"is_disabled":false,"rental_uris":{"android":"levelo://app?vid=454b71e2-f3d7-4f21-bb26-6b26d7507832","ios":"levelo://app?vid=454b71e2-f3d7-4f21-bb26-6b26d7507832"},"vehicle_type_id":"4","last_reported":1710526211,"current_range_meters":20400,"station_id":"ce4bgr92rcd13ifvqc7g","pricing_plan_id":"cebpf4jnsgd1na2vs0mg"},{"bike_id":"5302c603-8a43-4936-8431-20a2a8ce1a6a","system_id":"levelo_inurba_marseille","lat":43.299222,"lon":5.365554,"is_reserved":false,"is_disabled":false,"rental_uris":{"android":"levelo://app?vid=5302c603-8a43-4936-8431-20a2a8ce1a6a","ios":"levelo://app?vid=5302c603-8a43-4936-8431-20a2a8ce1a6a"},"vehicle_type_id":"4","last_reported":1710526211,"current_range_meters":0,"station_id":"ce4bgm92rcd13ifvqbr0","pricing_plan_id":"cebpf4jnsgd1na2vs0mg"},{"bike_id":"9d37dfd3-4cc9-4626-9766-79b4eb7cf1b7","system_id":"levelo_inurba_marseille","lat":43.299724,"lon":5.371829,"is_reserved":false,"is_disabled":false,"rental_uris":{"android":"levelo://app?vid=9d37dfd3-4cc9-4626-9766-79b4eb7cf1b7","ios":"levelo://app?vid=9d37dfd3-4cc9-4626-9766-79b4eb7cf1b7"},"vehicle_type_id":"4","last_reported":1710526211,"current_range_meters":10000,"station_id":"ce4bgr92rcd13ifvqc7g","pricing_plan_id":"cebpf4jnsgd1na2vs0mg"},{"bike_id":"655b4959-dc1c-4983-b9a1-b194ff9bd420","system_id":"levelo_inurba_marseille","lat":43.29935,"lon":5.36548,"is_reserved":false,"is_disabled":false,"rental_uris":{"android":"levelo://app?vid=655b4959-dc1c-4983-b9a1-b194ff9bd420","ios":"levelo://app?vid=655b4959-dc1c-4983-b9a1-b194ff9bd420"},"vehicle_type_id":"4","last_reported":1710526211,"current_range_meters":0,"station_id":"ce4bgm92rcd13ifvqbr0","pricing_plan_id":"cebpf4jnsgd1na2vs0mg"},{"bike_id":"556fe023-9012-4822-a3c8-05766dee557f","system_id":"levelo_inurba_marseille","lat":43.299724,"lon":5.371829,"is_reserved":false,"is_disabled":false,"rental_uris":{"android":"levelo://app?vid=556fe023-9012-4822-a3c8-05766dee557f","ios":"levelo://app?vid=556fe023-9012-4822-a3c8-05766dee557f"},"vehicle_type_id":"4","last_reported":1710526211,"current_range_meters":16400,"station_id":"ce4bgr92rcd13ifvqc7g","pricing_plan_id":"cebpf4jnsgd1na2vs0mg"},{"bike_id":"2473357a-3eae-48bd-b640-ec956b0823b5","system_id":"levelo_inurba_marseille","lat":43.299724,"lon":5.371829,"is_reserved":false,"is_disabled":false,"rental_uris":{"android":"levelo://app?vid=2473357a-3eae-48bd-b640-ec956b0823b5","ios":"levelo://app?vid=2473357a-3eae-48bd-b640-ec956b0823b5"},"vehicle_type_id":"4","last_reported":1710526211,"current_range_meters":12000,"station_id":"ce4bgr92rcd13ifvqc7g","pricing_plan_id":"cebpf4jnsgd1na2vs0mg"},{"bike_id":"9a482fbf-983e-4130-ac96-696c89f5e04a","system_id":"levelo_inurba_marseille","lat":43.299724,"lon":5.371829,"is_reserved":false,"is_disabled":false,"rental_uris":{"android":"levelo://app?vid=9a482fbf-983e-4130-ac96-696c89f5e04a","ios":"levelo://app?vid=9a482fbf-983e-4130-ac96-696c89f5e04a"},"vehicle_type_id":"4","last_reported":1710526211,"current_range_meters":13200,"station_id":"ce4bgr92rcd13ifvqc7g","pricing_plan_id":"cebpf4jnsgd1na2vs0mg"},{"bike_id":"2cf98b04-3a6b-4708-a093-d9c9edef2d7c","system_id":"levelo_inurba_marseille","lat":43.299724,"lon":5.371829,"is_reserved":false,"is_disabled":false,"rental_uris":{"android":"levelo://app?vid=2cf98b04-3a6b-4708-a093-d9c9edef2d7c","ios":"levelo://app?vid=2cf98b04-3a6b-4708-a093-d9c9edef2d7c"},"vehicle_type_id":"4","last_reported":1710526211,"current_range_meters":12400,"station_id":"ce4bgr92rcd13ifvqc7g","pricing_plan_id":"cebpf4jnsgd1na2vs0mg"},{"bike_id":"8dd51675-3f66-442d-a78d-ff4ba9d586a6","system_id":"levelo_inurba_marseille","lat":43.299724,"lon":5.371829,"is_reserved":false,"is_disabled":false,"rental_uris":{"android":"levelo://app?vid=8dd51675-3f66-442d-a78d-ff4ba9d586a6","ios":"levelo://app?vid=8dd51675-3f66-442d-a78d-ff4ba9d586a6"},"vehicle_type_id":"4","last_reported":1710526211,"current_range_meters":3200,"station_id":"ce4bgr92rcd13ifvqc7g","pricing_plan_id":"cebpf4jnsgd1na2vs0mg"},{"bike_id":"7642786c-6f7f-476a-9bb7-3e01e6dca348","system_id":"levelo_inurba_marseille","lat":43.299724,"lon":5.371829,"is_reserved":false,"is_disabled":false,"rental_uris":{"android":"levelo://app?vid=7642786c-6f7f-476a-9bb7-3e01e6dca348","ios":"levelo://app?vid=7642786c-6f7f-476a-9bb7-3e01e6dca348"},"vehicle_type_id":"4","last_reported":1710526211,"current_range_meters":8400,"station_id":"ce4bgr92rcd13ifvqc7g","pricing_plan_id":"cebpf4jnsgd1na2vs0mg"},{"bike_id":"47aca380-5b66-4eab-a954-e9c3271864a5","system_id":"levelo_inurba_marseille","lat":43.313571,"lon":5.384829,"is_reserved":false,"is_disabled":false,"rental_uris":{"android":"levelo://app?vid=47aca380-5b66-4eab-a954-e9c3271864a5","ios":"levelo://app?vid=47aca380-5b66-4eab-a954-e9c3271864a5"},"vehicle_type_id":"4","last_reported":1710526211,"current_range_meters":12400,"station_id":"ce4bgt92rcd13ifvqcf0","pricing_plan_id":"cebpf4jnsgd1na2vs0mg"},{"bike_id":"3f606752-50b8-4450-b7b6-5a4233d36644","system_id":"levelo_inurba_marseille","lat":43.305364,"lon":5.384119,"is_reserved":false,"is_disabled":false,"rental_uris":{"android":"levelo://app?vid=3f606752-50b8-4450-b7b6-5a4233d36644","ios":"levelo://app?vid=3f606752-50b8-4450-b7b6-5a4233d36644"},"vehicle_type_id":"4","last_reported":1710526211,"current_range_meters":800,"station_id":"ce4bgg92rcd13ifvqb30","pricing_plan_id":"cebpf4jnsgd1na2vs0mg"},{"bike_id":"5b141de9-004c-4c45-bf4d-55e0f2cf4342","system_id":"levelo_inurba_marseille","lat":43.305364,"lon":5.384119,"is_reserved":false,"is_disabled":false,"rental_uris":{"android":"levelo://app?vid=5b141de9-004c-4c45-bf4d-55e0f2cf4342","ios":"levelo://app?vid=5b141de9-004c-4c45-bf4d-55e0f2cf4342"},"vehicle_type_id":"4","last_reported":1710526211,"current_range_meters":18400,"station_id":"ce4bgg92rcd13ifvqb30","pricing_plan_id":"cebpf4jnsgd1na2vs0mg"},{"bike_id":"f64ddb62-56f3-4766-aa09-652aa449a70c","system_id":"levelo_inurba_marseille","lat":43.298433,"lon":5.362774,"is_reserved":false,"is_disabled":false,"rental_uris":{"android":"levelo://app?vid=f64ddb62-56f3-4766-aa09-652aa449a70c","ios":"levelo://app?vid=f64ddb62-56f3-4766-aa09-652aa449a70c"},"vehicle_type_id":"4","last_reported":1710526211,"current_range_meters":7600,"station_id":"ce4bgpp2rcd13ifvqc3g","pricing_plan_id":"cebpf4jnsgd1na2vs0mg"},{"bike_id":"c815d8fd-c0e7-44a4-b73a-4abd9b12f1fc","system_id":"levelo_inurba_marseille","lat":43.305364,"lon":5.384119,"is_reserved":false,"is_disabled":false,"rental_uris":{"android":"levelo://app?vid=c815d8fd-c0e7-44a4-b73a-4abd9b12f1fc","ios":"levelo://app?vid=c815d8fd-c0e7-44a4-b73a-4abd9b12f1fc"},"vehicle_type_id":"4","last_reported":1710526211,"current_range_meters":17600,"station_id":"ce4bgg92rcd13ifvqb30","pricing_plan_id":"cebpf4jnsgd1na2vs0mg"},{"bike_id":"2bacbe20-ac34-4a7e-83df-a58a3abecb84","system_id":"levelo_inurba_marseille","lat":43.305364,"lon":5.384119,"is_reserved":false,"is_disabled":false,"rental_uris":{"android":"levelo://app?vid=2bacbe20-ac34-4a7e-83df-a58a3abecb84","ios":"levelo://app?vid=2bacbe20-ac34-4a7e-83df-a58a3abecb84"},"vehicle_type_id":"4","last_reported":1710526211,"current_range_meters":0,"station_id":"ce4bgg92rcd13ifvqb30","pricing_plan_id":"cebpf4jnsgd1na2vs0mg"},{"bike_id":"c109eb85-2856-4adb-9696-65f6976602d0","system_id":"levelo_inurba_marseille","lat":43.298433,"lon":5.362774,"is_reserved":false,"is_disabled":false,"rental_uris":{"android":"levelo://app?vid=c109eb85-2856-4adb-9696-65f6976602d0","ios":"levelo://app?vid=c109eb85-2856-4adb-9696-65f6976602d0"},"vehicle_type_id":"4","last_reported":1710526211,"current_range_meters":9200,"station_id":"ce4bgpp2rcd13ifvqc3g","pricing_plan_id":"cebpf4jnsgd1na2vs0mg"},{"bike_id":"47699736-a717-43da-a7ac-5dcda266ab8f","system_id":"levelo_inurba_marseille","lat":43.299243,"lon":5.374807,"is_reserved":false,"is_disabled":false,"rental_uris":{"android":"levelo://app?vid=47699736-a717-43da-a7ac-5dcda266ab8f","ios":"levelo://app?vid=47699736-a717-43da-a7ac-5dcda266ab8f"},"vehicle_type_id":"4","last_reported":1710526211,"current_range_meters":19600,"station_id":"ce4bgjh2rcd13ifvqbg0","pricing_plan_id":"cebpf4jnsgd1na2vs0mg"},{"bike_id":"e6ca7e64-b135-4bf1-80fd-cdd386fc9f11","system_id":"levelo_inurba_marseille","lat":43.29921,"lon":5.37472,"is_reserved":false,"is_disabled":false,"rental_uris":{"android":"levelo://app?vid=e6ca7e64-b135-4bf1-80fd-cdd386fc9f11","ios":"levelo://app?vid=e6ca7e64-b135-4bf1-80fd-cdd386fc9f11"},"vehicle_type_id":"4","last_reported":1710526211,"current_range_meters":2400,"station_id":"ce4bgjh2rcd13ifvqbg0","pricing_plan_id":"cebpf4jnsgd1na2vs0mg"},{"bike_id":"7ca14005-3df0-4c9e-9c86-d5767df980e1","system_id":"levelo_inurba_marseille","lat":43.31181,"lon":5.38708,"is_reserved":false,"is_disabled":false,"rental_uris":{"android":"levelo://app?vid=7ca14005-3df0-4c9e-9c86-d5767df980e1","ios":"levelo://app?vid=7ca14005-3df0-4c9e-9c86-d5767df980e1"},"vehicle_type_id":"4","last_reported":1710526211,"current_range_meters":0,"station_id":"ce4bgv12rcd13ifvqcp0","pricing_plan_id":"cebpf4jnsgd1na2vs0mg"},{"bike_id":"2b4f311c-63a0-4652-9021-59458a4ae164","system_id":"levelo_inurba_marseille","lat":43.299243,"lon":5.374807,"is_reserved":false,"is_disabled":false,"rental_uris":{"android":"levelo://app?vid=2b4f311c-63a0-4652-9021-59458a4ae164","ios":"levelo://app?vid=2b4f311c-63a0-4652-9021-59458a4ae164"},"vehicle_type_id":"4","last_reported":1710526211,"current_range_meters":400,"station_id":"ce4bgjh2rcd13ifvqbg0","pricing_plan_id":"cebpf4jnsgd1na2vs0mg"},{"bike_id":"9aea7703-e4fa-480b-b071-6d7285522986","system_id":"levelo_inurba_marseille","lat":43.29916,"lon":5.37471,"is_reserved":false,"is_disabled":false,"rental_uris":{"android":"levelo://app?vid=9aea7703-e4fa-480b-b071-6d7285522986","ios":"levelo://app?vid=9aea7703-e4fa-480b-b071-6d7285522986"},"vehicle_type_id":"4","last_reported":1710526211,"current_range_meters":0,"station_id":"ce4bgjh2rcd13ifvqbg0","pricing_plan_id":"cebpf4jnsgd1na2vs0mg"},{"bike_id":"0c3fb006-008b-4088-afa4-f007e6833bab","system_id":"levelo_inurba_marseille","lat":43.311722,"lon":5.387247,"is_reserved":false,"is_disabled":false,"rental_uris":{"android":"levelo://app?vid=0c3fb006-008b-4088-afa4-f007e6833bab","ios":"levelo://app?vid=0c3fb006-008b-4088-afa4-f007e6833bab"},"vehicle_type_id":"4","last_reported":1710526211,"current_range_meters":22400,"station_id":"ce4bgv12rcd13ifvqcp0","pricing_plan_id":"cebpf4jnsgd1na2vs0mg"},{"bike_id":"74807756-66de-4ece-b975-4fcac01a7b5e","system_id":"levelo_inurba_marseille","lat":43.29917,"lon":5.37485,"is_reserved":false,"is_disabled":false,"rental_uris":{"android":"levelo://app?vid=74807756-66de-4ece-b975-4fcac01a7b5e","ios":"levelo://app?vid=74807756-66de-4ece-b975-4fcac01a7b5e"},"vehicle_type_id":"4","last_reported":1710526211,"current_range_meters":18000,"station_id":"ce4bgjh2rcd13ifvqbg0","pricing_plan_id":"cebpf4jnsgd1na2vs0mg"},{"bike_id":"bf0505d9-6e8b-4f76-8641-ac5cb11ba48f","system_id":"levelo_inurba_marseille","lat":43.311722,"lon":5.387247,"is_reserved":false,"is_disabled":false,"rental_uris":{"android":"levelo://app?vid=bf0505d9-6e8b-4f76-8641-ac5cb11ba48f","ios":"levelo://app?vid=bf0505d9-6e8b-4f76-8641-ac5cb11ba48f"},"vehicle_type_id":"4","last_reported":1710526211,"current_range_meters":2800,"station_id":"ce4bgv12rcd13ifvqcp0","pricing_plan_id":"cebpf4jnsgd1na2vs0mg"},{"bike_id":"19ad82e6-a2ee-487f-a3f7-bcddbf95668a","system_id":"levelo_inurba_marseille","lat":43.299243,"lon":5.374807,"is_reserved":false,"is_disabled":false,"rental_uris":{"android":"levelo://app?vid=19ad82e6-a2ee-487f-a3f7-bcddbf95668a","ios":"levelo://app?vid=19ad82e6-a2ee-487f-a3f7-bcddbf95668a"},"vehicle_type_id":"4","last_reported":1710526211,"current_range_meters":2400,"station_id":"ce4bgjh2rcd13ifvqbg0","pricing_plan_id":"cebpf4jnsgd1na2vs0mg"},{"bike_id":"6a87c0b4-55c3-4066-9579-b939a8f7e1c1","system_id":"levelo_inurba_marseille","lat":43.299201,"lon":5.375455,"is_reserved":false,"is_disabled":false,"rental_uris":{"android":"levelo://app?vid=6a87c0b4-55c3-4066-9579-b939a8f7e1c1","ios":"levelo://app?vid=6a87c0b4-55c3-4066-9579-b939a8f7e1c1"},"vehicle_type_id":"4","last_reported":1710526211,"current_range_meters":0,"station_id":"ce4bgjh2rcd13ifvqbg0","pricing_plan_id":"cebpf4jnsgd1na2vs0mg"},{"bike_id":"33b24acf-298f-4a11-a2c4-edc87e891ea2","system_id":"levelo_inurba_marseille","lat":43.322872,"lon":5.382756,"is_reserved":false,"is_disabled":false,"rental_uris":{"android":"levelo://app?vid=33b24acf-298f-4a11-a2c4-edc87e891ea2","ios":"levelo://app?vid=33b24acf-298f-4a11-a2c4-edc87e891ea2"},"vehicle_type_id":"4","last_reported":1710526211,"current_range_meters":4400,"station_id":"ce4bhr12rcd13ifvqhqg","pricing_plan_id":"cebpf4jnsgd1na2vs0mg"},{"bike_id":"36727d06-0af4-4c64-88de-4193d3d2494b","system_id":"levelo_inurba_marseille","lat":43.322872,"lon":5.382756,"is_reserved":false,"is_disabled":false,"rental_uris":{"android":"levelo://app?vid=36727d06-0af4-4c64-88de-4193d3d2494b","ios":"levelo://app?vid=36727d06-0af4-4c64-88de-4193d3d2494b"},"vehicle_type_id":"4","last_reported":1710526211,"current_range_meters":18800,"station_id":"ce4bhr12rcd13ifvqhqg","pricing_plan_id":"cebpf4jnsgd1na2vs0mg"},{"bike_id":"3ff125a5-dff1-4591-b6cc-449dc2424878","system_id":"levelo_inurba_marseille","lat":43.322872,"lon":5.382756,"is_reserved":false,"is_disabled":false,"rental_uris":{"android":"levelo://app?vid=3ff125a5-dff1-4591-b6cc-449dc2424878","ios":"levelo://app?vid=3ff125a5-dff1-4591-b6cc-449dc2424878"},"vehicle_type_id":"4","last_reported":1710526211,"current_range_meters":21200,"station_id":"ce4bhr12rcd13ifvqhqg","pricing_plan_id":"cebpf4jnsgd1na2vs0mg"},{"bike_id":"c7138234-dee1-496b-a4b5-ec50ce387339","system_id":"levelo_inurba_marseille","lat":43.322872,"lon":5.382756,"is_reserved":false,"is_disabled":false,"rental_uris":{"android":"levelo://app?vid=c7138234-dee1-496b-a4b5-ec50ce387339","ios":"levelo://app?vid=c7138234-dee1-496b-a4b5-ec50ce387339"},"vehicle_type_id":"4","last_reported":1710526211,"current_range_meters":19600,"station_id":"ce4bhr12rcd13ifvqhqg","pricing_plan_id":"cebpf4jnsgd1na2vs0mg"},{"bike_id":"a0646874-b928-4238-88ab-01778b2d284c","system_id":"levelo_inurba_marseille","lat":43.32287,"lon":5.38273,"is_reserved":false,"is_disabled":false,"rental_uris":{"android":"levelo://app?vid=a0646874-b928-4238-88ab-01778b2d284c","ios":"levelo://app?vid=a0646874-b928-4238-88ab-01778b2d284c"},"vehicle_type_id":"4","last_reported":1710526211,"current_range_meters":0,"station_id":"ce4bhr12rcd13ifvqhqg","pricing_plan_id":"cebpf4jnsgd1na2vs0mg"},{"bike_id":"41a964d5-3943-4f24-b8cf-62a929f835d5","system_id":"levelo_inurba_marseille","lat":43.322872,"lon":5.382756,"is_reserved":false,"is_disabled":false,"rental_uris":{"android":"levelo://app?vid=41a964d5-3943-4f24-b8cf-62a929f835d5","ios":"levelo://app?vid=41a964d5-3943-4f24-b8cf-62a929f835d5"},"vehicle_type_id":"4","last_reported":1710526211,"current_range_meters":23200,"station_id":"ce4bhr12rcd13ifvqhqg","pricing_plan_id":"cebpf4jnsgd1na2vs0mg"},{"bike_id":"7d711117-8f24-4ca5-af35-2d207110a750","system_id":"levelo_inurba_marseille","lat":43.322872,"lon":5.382756,"is_reserved":false,"is_disabled":false,"rental_uris":{"android":"levelo://app?vid=7d711117-8f24-4ca5-af35-2d207110a750","ios":"levelo://app?vid=7d711117-8f24-4ca5-af35-2d207110a750"},"vehicle_type_id":"4","last_reported":1710526211,"current_range_meters":31200,"station_id":"ce4bhr12rcd13ifvqhqg","pricing_plan_id":"cebpf4jnsgd1na2vs0mg"},{"bike_id":"9be1610f-c31d-4ce8-90f5-92648a7ce7bd","system_id":"levelo_inurba_marseille","lat":43.322872,"lon":5.382756,"is_reserved":false,"is_disabled":false,"rental_uris":{"android":"levelo://app?vid=9be1610f-c31d-4ce8-90f5-92648a7ce7bd","ios":"levelo://app?vid=9be1610f-c31d-4ce8-90f5-92648a7ce7bd"},"vehicle_type_id":"4","last_reported":1710526211,"current_range_meters":24800,"station_id":"ce4bhr12rcd13ifvqhqg","pricing_plan_id":"cebpf4jnsgd1na2vs0mg"},{"bike_id":"a1ea46c0-4921-4767-a801-a177044432f3","system_id":"levelo_inurba_marseille","lat":43.322872,"lon":5.382756,"is_reserved":false,"is_disabled":false,"rental_uris":{"android":"levelo://app?vid=a1ea46c0-4921-4767-a801-a177044432f3","ios":"levelo://app?vid=a1ea46c0-4921-4767-a801-a177044432f3"},"vehicle_type_id":"4","last_reported":1710526211,"current_range_meters":30800,"station_id":"ce4bhr12rcd13ifvqhqg","pricing_plan_id":"cebpf4jnsgd1na2vs0mg"},{"bike_id":"2d6887a7-62ae-4d89-8c19-2ea133424140","system_id":"levelo_inurba_marseille","lat":43.322872,"lon":5.382756,"is_reserved":false,"is_disabled":false,"rental_uris":{"android":"levelo://app?vid=2d6887a7-62ae-4d89-8c19-2ea133424140","ios":"levelo://app?vid=2d6887a7-62ae-4d89-8c19-2ea133424140"},"vehicle_type_id":"4","last_reported":1710526211,"current_range_meters":8400,"station_id":"ce4bhr12rcd13ifvqhqg","pricing_plan_id":"cebpf4jnsgd1na2vs0mg"},{"bike_id":"26a6f107-4553-428a-b878-f3d63b74f859","system_id":"levelo_inurba_marseille","lat":43.322872,"lon":5.382756,"is_reserved":false,"is_disabled":false,"rental_uris":{"android":"levelo://app?vid=26a6f107-4553-428a-b878-f3d63b74f859","ios":"levelo://app?vid=26a6f107-4553-428a-b878-f3d63b74f859"},"vehicle_type_id":"4","last_reported":1710526211,"current_range_meters":14000,"station_id":"ce4bhr12rcd13ifvqhqg","pricing_plan_id":"cebpf4jnsgd1na2vs0mg"},{"bike_id":"d9c7295e-158e-4641-9756-30eaf8e27ab3","system_id":"levelo_inurba_marseille","lat":43.322872,"lon":5.382756,"is_reserved":false,"is_disabled":false,"rental_uris":{"android":"levelo://app?vid=d9c7295e-158e-4641-9756-30eaf8e27ab3","ios":"levelo://app?vid=d9c7295e-158e-4641-9756-30eaf8e27ab3"},"vehicle_type_id":"4","last_reported":1710526211,"current_range_meters":4000,"station_id":"ce4bhr12rcd13ifvqhqg","pricing_plan_id":"cebpf4jnsgd1na2vs0mg"},{"bike_id":"6fca82c1-1a9d-4d59-86e4-79a11f14e03e","system_id":"levelo_inurba_marseille","lat":43.297163,"lon":5.365866,"is_reserved":false,"is_disabled":false,"rental_uris":{"android":"levelo://app?vid=6fca82c1-1a9d-4d59-86e4-79a11f14e03e","ios":"levelo://app?vid=6fca82c1-1a9d-4d59-86e4-79a11f14e03e"},"vehicle_type_id":"4","last_reported":1710526211,"current_range_meters":27200,"station_id":"ce4bgn12rcd13ifvqbt0","pricing_plan_id":"cebpf4jnsgd1na2vs0mg"},{"bike_id":"f8527709-0478-4463-8709-86c81b29e673","system_id":"levelo_inurba_marseille","lat":43.29704,"lon":5.36607,"is_reserved":false,"is_disabled":false,"rental_uris":{"android":"levelo://app?vid=f8527709-0478-4463-8709-86c81b29e673","ios":"levelo://app?vid=f8527709-0478-4463-8709-86c81b29e673"},"vehicle_type_id":"4","last_reported":1710526211,"current_range_meters":0,"station_id":"ce4bgn12rcd13ifvqbt0","pricing_plan_id":"cebpf4jnsgd1na2vs0mg"},{"bike_id":"b831be3b-5bd8-44ec-9fdf-c0e37cac9d89","system_id":"levelo_inurba_marseille","lat":43.297163,"lon":5.365866,"is_reserved":false,"is_disabled":false,"rental_uris":{"android":"levelo://app?vid=b831be3b-5bd8-44ec-9fdf-c0e37cac9d89","ios":"levelo://app?vid=b831be3b-5bd8-44ec-9fdf-c0e37cac9d89"},"vehicle_type_id":"4","last_reported":1710526211,"current_range_meters":15600,"station_id":"ce4bgn12rcd13ifvqbt0","pricing_plan_id":"cebpf4jnsgd1na2vs0mg"},{"bike_id":"0c3a71a7-2cf9-487e-813c-a15d0ca4d586","system_id":"levelo_inurba_marseille","lat":43.317471,"lon":5.388834,"is_reserved":false,"is_disabled":false,"rental_uris":{"android":"levelo://app?vid=0c3a71a7-2cf9-487e-813c-a15d0ca4d586","ios":"levelo://app?vid=0c3a71a7-2cf9-487e-813c-a15d0ca4d586"},"vehicle_type_id":"4","last_reported":1710526211,"current_range_meters":24400,"station_id":"","pricing_plan_id":"cebpf4jnsgd1na2vs0mg"},{"bike_id":"48098c6e-d3e8-470f-b62b-ceb034f0783e","system_id":"levelo_inurba_marseille","lat":43.299028,"lon":5.381509,"is_reserved":false,"is_disabled":false,"rental_uris":{"android":"levelo://app?vid=48098c6e-d3e8-470f-b62b-ceb034f0783e","ios":"levelo://app?vid=48098c6e-d3e8-470f-b62b-ceb034f0783e"},"vehicle_type_id":"4","last_reported":1710526211,"current_range_meters":3200,"station_id":"ce4bgj12rcd13ifvqbc0","pricing_plan_id":"cebpf4jnsgd1na2vs0mg"},{"bike_id":"276d3d6f-bfa2-4524-98be-58df3e9ee082","system_id":"levelo_inurba_marseille","lat":43.296129,"lon":5.370777,"is_reserved":false,"is_disabled":false,"rental_uris":{"android":"levelo://app?vid=276d3d6f-bfa2-4524-98be-58df3e9ee082","ios":"levelo://app?vid=276d3d6f-bfa2-4524-98be-58df3e9ee082"},"vehicle_type_id":"4","last_reported":1710526211,"current_range_meters":21200,"station_id":"ce4bgnh2rcd13ifvqc0g","pricing_plan_id":"cebpf4jnsgd1na2vs0mg"},{"bike_id":"007707c3-07ef-4288-bbdd-92cef8dfca80","system_id":"levelo_inurba_marseille","lat":43.309589,"lon":5.390258,"is_reserved":false,"is_disabled":false,"rental_uris":{"android":"levelo://app?vid=007707c3-07ef-4288-bbdd-92cef8dfca80","ios":"levelo://app?vid=007707c3-07ef-4288-bbdd-92cef8dfca80"},"vehicle_type_id":"4","last_reported":1710526211,"current_range_meters":1200,"station_id":"ce4bgup2rcd13ifvqco0","pricing_plan_id":"cebpf4jnsgd1na2vs0mg"},{"bike_id":"33f85818-fc87-46c5-970a-782e2b79d4ab","system_id":"levelo_inurba_marseille","lat":43.296921,"lon":5.376579,"is_reserved":false,"is_disabled":false,"rental_uris":{"android":"levelo://app?vid=33f85818-fc87-46c5-970a-782e2b79d4ab","ios":"levelo://app?vid=33f85818-fc87-46c5-970a-782e2b79d4ab"},"vehicle_type_id":"4","last_reported":1710526211,"current_range_meters":0,"station_id":"ce4bgkh2rcd13ifvqbl0","pricing_plan_id":"cebpf4jnsgd1na2vs0mg"},{"bike_id":"efdb4eb3-9dbd-471f-b852-1349ee65e6bf","system_id":"levelo_inurba_marseille","lat":43.31751,"lon":5.38994,"is_reserved":false,"is_disabled":false,"rental_uris":{"android":"levelo://app?vid=efdb4eb3-9dbd-471f-b852-1349ee65e6bf","ios":"levelo://app?vid=efdb4eb3-9dbd-471f-b852-1349ee65e6bf"},"vehicle_type_id":"4","last_reported":1710526211,"current_range_meters":2000,"station_id":"ce4bhqp2rcd13ifvqhng","pricing_plan_id":"cebpf4jnsgd1na2vs0mg"},{"bike_id":"9cc0de22-c994-4630-a056-91ad50f77187","system_id":"levelo_inurba_marseille","lat":43.317557,"lon":5.390173,"is_reserved":false,"is_disabled":false,"rental_uris":{"android":"levelo://app?vid=9cc0de22-c994-4630-a056-91ad50f77187","ios":"levelo://app?vid=9cc0de22-c994-4630-a056-91ad50f77187"},"vehicle_type_id":"4","last_reported":1710526211,"current_range_meters":20800,"station_id":"ce4bhqp2rcd13ifvqhng","pricing_plan_id":"cebpf4jnsgd1na2vs0mg"},{"bike_id":"41e3df2a-b958-4acb-84c5-f5691f8c9dbb","system_id":"levelo_inurba_marseille","lat":43.31747,"lon":5.39015,"is_reserved":false,"is_disabled":false,"rental_uris":{"android":"levelo://app?vid=41e3df2a-b958-4acb-84c5-f5691f8c9dbb","ios":"levelo://app?vid=41e3df2a-b958-4acb-84c5-f5691f8c9dbb"},"vehicle_type_id":"4","last_reported":1710526211,"current_range_meters":0,"station_id":"ce4bhqp2rcd13ifvqhng","pricing_plan_id":"cebpf4jnsgd1na2vs0mg"},{"bike_id":"d1648c38-3094-4ab4-b136-dd4fa626e569","system_id":"levelo_inurba_marseille","lat":43.317557,"lon":5.390173,"is_reserved":false,"is_disabled":false,"rental_uris":{"android":"levelo://app?vid=d1648c38-3094-4ab4-b136-dd4fa626e569","ios":"levelo://app?vid=d1648c38-3094-4ab4-b136-dd4fa626e569"},"vehicle_type_id":"4","last_reported":1710526211,"current_range_meters":28800,"station_id":"ce4bhqp2rcd13ifvqhng","pricing_plan_id":"cebpf4jnsgd1na2vs0mg"},{"bike_id":"934dcfbb-851e-4f5b-8f06-0e4a0da081b2","system_id":"levelo_inurba_marseille","lat":43.29772,"lon":5.37947,"is_reserved":false,"is_disabled":false,"rental_uris":{"android":"levelo://app?vid=934dcfbb-851e-4f5b-8f06-0e4a0da081b2","ios":"levelo://app?vid=934dcfbb-851e-4f5b-8f06-0e4a0da081b2"},"vehicle_type_id":"4","last_reported":1710526211,"current_range_meters":1600,"station_id":"","pricing_plan_id":"cebpf4jnsgd1na2vs0mg"},{"bike_id":"9abd7ab2-11a1-4b0c-86cd-498b22fe8f60","system_id":"levelo_inurba_marseille","lat":43.31754,"lon":5.39017,"is_reserved":false,"is_disabled":false,"rental_uris":{"android":"levelo://app?vid=9abd7ab2-11a1-4b0c-86cd-498b22fe8f60","ios":"levelo://app?vid=9abd7ab2-11a1-4b0c-86cd-498b22fe8f60"},"vehicle_type_id":"4","last_reported":1710526211,"current_range_meters":16400,"station_id":"ce4bhqp2rcd13ifvqhng","pricing_plan_id":"cebpf4jnsgd1na2vs0mg"},{"bike_id":"fd1852e9-d567-48c8-94d0-c242d922a974","system_id":"levelo_inurba_marseille","lat":43.317557,"lon":5.390173,"is_reserved":false,"is_disabled":false,"rental_uris":{"android":"levelo://app?vid=fd1852e9-d567-48c8-94d0-c242d922a974","ios":"levelo://app?vid=fd1852e9-d567-48c8-94d0-c242d922a974"},"vehicle_type_id":"4","last_reported":1710526211,"current_range_meters":8800,"station_id":"ce4bhqp2rcd13ifvqhng","pricing_plan_id":"cebpf4jnsgd1na2vs0mg"},{"bike_id":"3691c91c-f079-4d4b-a80d-0c8ab6dd396e","system_id":"levelo_inurba_marseille","lat":43.317557,"lon":5.390173,"is_reserved":false,"is_disabled":false,"rental_uris":{"android":"levelo://app?vid=3691c91c-f079-4d4b-a80d-0c8ab6dd396e","ios":"levelo://app?vid=3691c91c-f079-4d4b-a80d-0c8ab6dd396e"},"vehicle_type_id":"4","last_reported":1710526211,"current_range_meters":26800,"station_id":"ce4bhqp2rcd13ifvqhng","pricing_plan_id":"cebpf4jnsgd1na2vs0mg"},{"bike_id":"d2906694-80e2-44d0-85fa-8756332fa591","system_id":"levelo_inurba_marseille","lat":43.31756,"lon":5.39027,"is_reserved":false,"is_disabled":false,"rental_uris":{"android":"levelo://app?vid=d2906694-80e2-44d0-85fa-8756332fa591","ios":"levelo://app?vid=d2906694-80e2-44d0-85fa-8756332fa591"},"vehicle_type_id":"4","last_reported":1710526211,"current_range_meters":24000,"station_id":"ce4bhqp2rcd13ifvqhng","pricing_plan_id":"cebpf4jnsgd1na2vs0mg"},{"bike_id":"00318bef-c960-48db-b44f-2713cceae068","system_id":"levelo_inurba_marseille","lat":43.298037,"lon":5.381066,"is_reserved":false,"is_disabled":false,"rental_uris":{"android":"levelo://app?vid=00318bef-c960-48db-b44f-2713cceae068","ios":"levelo://app?vid=00318bef-c960-48db-b44f-2713cceae068"},"vehicle_type_id":"4","last_reported":1710526211,"current_range_meters":17600,"station_id":"ce4bgip2rcd13ifvqbb0","pricing_plan_id":"cebpf4jnsgd1na2vs0mg"},{"bike_id":"66551069-9d5e-4503-9b04-8ee92e605713","system_id":"levelo_inurba_marseille","lat":43.304278,"lon":5.388868,"is_reserved":false,"is_disabled":false,"rental_uris":{"android":"levelo://app?vid=66551069-9d5e-4503-9b04-8ee92e605713","ios":"levelo://app?vid=66551069-9d5e-4503-9b04-8ee92e605713"},"vehicle_type_id":"4","last_reported":1710526211,"current_range_meters":19200,"station_id":"ce4bgk12rcd13ifvqbi0","pricing_plan_id":"cebpf4jnsgd1na2vs0mg"},{"bike_id":"d6131310-a0e0-491d-a54f-9c3e97099e96","system_id":"levelo_inurba_marseille","lat":43.304278,"lon":5.388868,"is_reserved":false,"is_disabled":false,"rental_uris":{"android":"levelo://app?vid=d6131310-a0e0-491d-a54f-9c3e97099e96","ios":"levelo://app?vid=d6131310-a0e0-491d-a54f-9c3e97099e96"},"vehicle_type_id":"4","last_reported":1710526211,"current_range_meters":20800,"station_id":"ce4bgk12rcd13ifvqbi0","pricing_plan_id":"cebpf4jnsgd1na2vs0mg"},{"bike_id":"d221ce96-9cf3-4687-bca7-69405056eded","system_id":"levelo_inurba_marseille","lat":43.298023,"lon":5.381283,"is_reserved":false,"is_disabled":false,"rental_uris":{"android":"levelo://app?vid=d221ce96-9cf3-4687-bca7-69405056eded","ios":"levelo://app?vid=d221ce96-9cf3-4687-bca7-69405056eded"},"vehicle_type_id":"4","last_reported":1710526211,"current_range_meters":31200,"station_id":"ce4bgip2rcd13ifvqbb0","pricing_plan_id":"cebpf4jnsgd1na2vs0mg"},{"bike_id":"9832252e-8df1-4311-a33d-2563532d3f5b","system_id":"levelo_inurba_marseille","lat":43.3043,"lon":5.38886,"is_reserved":false,"is_disabled":false,"rental_uris":{"android":"levelo://app?vid=9832252e-8df1-4311-a33d-2563532d3f5b","ios":"levelo://app?vid=9832252e-8df1-4311-a33d-2563532d3f5b"},"vehicle_type_id":"4","last_reported":1710526211,"current_range_meters":0,"station_id":"ce4bgk12rcd13ifvqbi0","pricing_plan_id":"cebpf4jnsgd1na2vs0mg"},{"bike_id":"ff5b5ad6-d81d-4655-8f73-8f9844938c5d","system_id":"levelo_inurba_marseille","lat":43.298037,"lon":5.381066,"is_reserved":false,"is_disabled":false,"rental_uris":{"android":"levelo://app?vid=ff5b5ad6-d81d-4655-8f73-8f9844938c5d","ios":"levelo://app?vid=ff5b5ad6-d81d-4655-8f73-8f9844938c5d"},"vehicle_type_id":"4","last_reported":1710526211,"current_range_meters":18000,"station_id":"ce4bgip2rcd13ifvqbb0","pricing_plan_id":"cebpf4jnsgd1na2vs0mg"},{"bike_id":"7a97d7e2-1a44-4408-a22c-89ddff2aaf15","system_id":"levelo_inurba_marseille","lat":43.298037,"lon":5.381066,"is_reserved":false,"is_disabled":false,"rental_uris":{"android":"levelo://app?vid=7a97d7e2-1a44-4408-a22c-89ddff2aaf15","ios":"levelo://app?vid=7a97d7e2-1a44-4408-a22c-89ddff2aaf15"},"vehicle_type_id":"4","last_reported":1710526211,"current_range_meters":9200,"station_id":"ce4bgip2rcd13ifvqbb0","pricing_plan_id":"cebpf4jnsgd1na2vs0mg"},{"bike_id":"25d1f653-8204-4ce8-be11-b115a0aaa6fb","system_id":"levelo_inurba_marseille","lat":43.304278,"lon":5.388868,"is_reserved":false,"is_disabled":false,"rental_uris":{"android":"levelo://app?vid=25d1f653-8204-4ce8-be11-b115a0aaa6fb","ios":"levelo://app?vid=25d1f653-8204-4ce8-be11-b115a0aaa6fb"},"vehicle_type_id":"4","last_reported":1710526211,"current_range_meters":4000,"station_id":"ce4bgk12rcd13ifvqbi0","pricing_plan_id":"cebpf4jnsgd1na2vs0mg"},{"bike_id":"dbd16492-0778-4404-bc84-eafa59b12f42","system_id":"levelo_inurba_marseille","lat":43.29557,"lon":5.37487,"is_reserved":false,"is_disabled":false,"rental_uris":{"android":"levelo://app?vid=dbd16492-0778-4404-bc84-eafa59b12f42","ios":"levelo://app?vid=dbd16492-0778-4404-bc84-eafa59b12f42"},"vehicle_type_id":"4","last_reported":1710526211,"current_range_meters":0,"station_id":"ce4bgh92rcd13ifvqb50","pricing_plan_id":"cebpf4jnsgd1na2vs0mg"},{"bike_id":"ad43cf19-940c-44ee-82ad-34290a14dbe9","system_id":"levelo_inurba_marseille","lat":43.298037,"lon":5.381066,"is_reserved":false,"is_disabled":false,"rental_uris":{"android":"levelo://app?vid=ad43cf19-940c-44ee-82ad-34290a14dbe9","ios":"levelo://app?vid=ad43cf19-940c-44ee-82ad-34290a14dbe9"},"vehicle_type_id":"4","last_reported":1710526211,"current_range_meters":0,"station_id":"ce4bgip2rcd13ifvqbb0","pricing_plan_id":"cebpf4jnsgd1na2vs0mg"},{"bike_id":"afa17ffa-3dee-4ddb-8b4d-5e21c914ba18","system_id":"levelo_inurba_marseille","lat":43.296263,"lon":5.377094,"is_reserved":false,"is_disabled":false,"rental_uris":{"android":"levelo://app?vid=afa17ffa-3dee-4ddb-8b4d-5e21c914ba18","ios":"levelo://app?vid=afa17ffa-3dee-4ddb-8b4d-5e21c914ba18"},"vehicle_type_id":"4","last_reported":1710526211,"current_range_meters":17200,"station_id":"ce4bgi92rcd13ifvqb90","pricing_plan_id":"cebpf4jnsgd1na2vs0mg"},{"bike_id":"9b670c75-781e-4868-8fee-dc775e0bca13","system_id":"levelo_inurba_marseille","lat":43.296263,"lon":5.377094,"is_reserved":false,"is_disabled":false,"rental_uris":{"android":"levelo://app?vid=9b670c75-781e-4868-8fee-dc775e0bca13","ios":"levelo://app?vid=9b670c75-781e-4868-8fee-dc775e0bca13"},"vehicle_type_id":"4","last_reported":1710526211,"current_range_meters":20000,"station_id":"ce4bgi92rcd13ifvqb90","pricing_plan_id":"cebpf4jnsgd1na2vs0mg"},{"bike_id":"0162e7a8-38d1-432e-8700-c89792e17aba","system_id":"levelo_inurba_marseille","lat":43.295279,"lon":5.375048,"is_reserved":false,"is_disabled":false,"rental_uris":{"android":"levelo://app?vid=0162e7a8-38d1-432e-8700-c89792e17aba","ios":"levelo://app?vid=0162e7a8-38d1-432e-8700-c89792e17aba"},"vehicle_type_id":"4","last_reported":1710526211,"current_range_meters":3600,"station_id":"ce4bgkp2rcd13ifvqbmg","pricing_plan_id":"cebpf4jnsgd1na2vs0mg"},{"bike_id":"214cfde0-8667-4bac-9485-5afbaf9831ff","system_id":"levelo_inurba_marseille","lat":43.29525,"lon":5.37504,"is_reserved":false,"is_disabled":false,"rental_uris":{"android":"levelo://app?vid=214cfde0-8667-4bac-9485-5afbaf9831ff","ios":"levelo://app?vid=214cfde0-8667-4bac-9485-5afbaf9831ff"},"vehicle_type_id":"4","last_reported":1710526211,"current_range_meters":0,"station_id":"ce4bgkp2rcd13ifvqbmg","pricing_plan_id":"cebpf4jnsgd1na2vs0mg"},{"bike_id":"e793ce3c-e84a-459d-b597-79d9330cf5ea","system_id":"levelo_inurba_marseille","lat":43.29964,"lon":5.38504,"is_reserved":false,"is_disabled":false,"rental_uris":{"android":"levelo://app?vid=e793ce3c-e84a-459d-b597-79d9330cf5ea","ios":"levelo://app?vid=e793ce3c-e84a-459d-b597-79d9330cf5ea"},"vehicle_type_id":"4","last_reported":1710526211,"current_range_meters":0,"station_id":"ce4bgj92rcd13ifvqbd0","pricing_plan_id":"cebpf4jnsgd1na2vs0mg"},{"bike_id":"d35f6d8b-4f12-4dd8-b5f1-86b0a5ae90f0","system_id":"levelo_inurba_marseille","lat":43.295279,"lon":5.375048,"is_reserved":false,"is_disabled":false,"rental_uris":{"android":"levelo://app?vid=d35f6d8b-4f12-4dd8-b5f1-86b0a5ae90f0","ios":"levelo://app?vid=d35f6d8b-4f12-4dd8-b5f1-86b0a5ae90f0"},"vehicle_type_id":"4","last_reported":1710526211,"current_range_meters":13200,"station_id":"ce4bgkp2rcd13ifvqbmg","pricing_plan_id":"cebpf4jnsgd1na2vs0mg"},{"bike_id":"0b792ebc-fe78-4b10-b87c-4088a347f958","system_id":"levelo_inurba_marseille","lat":43.32367,"lon":5.388836,"is_reserved":false,"is_disabled":false,"rental_uris":{"android":"levelo://app?vid=0b792ebc-fe78-4b10-b87c-4088a347f958","ios":"levelo://app?vid=0b792ebc-fe78-4b10-b87c-4088a347f958"},"vehicle_type_id":"4","last_reported":1710526211,"current_range_meters":24800,"station_id":"ce4bhqp2rcd13ifvqhog","pricing_plan_id":"cebpf4jnsgd1na2vs0mg"},{"bike_id":"601549c9-17b6-4663-bb1f-1fc3c0514675","system_id":"levelo_inurba_marseille","lat":43.323618,"lon":5.388801,"is_reserved":false,"is_disabled":false,"rental_uris":{"android":"levelo://app?vid=601549c9-17b6-4663-bb1f-1fc3c0514675","ios":"levelo://app?vid=601549c9-17b6-4663-bb1f-1fc3c0514675"},"vehicle_type_id":"4","last_reported":1710526211,"current_range_meters":15600,"station_id":"ce4bhqp2rcd13ifvqhog","pricing_plan_id":"cebpf4jnsgd1na2vs0mg"},{"bike_id":"eaf421f3-46ac-4e30-949b-910710944134","system_id":"levelo_inurba_marseille","lat":43.3236,"lon":5.388829,"is_reserved":false,"is_disabled":false,"rental_uris":{"android":"levelo://app?vid=eaf421f3-46ac-4e30-949b-910710944134","ios":"levelo://app?vid=eaf421f3-46ac-4e30-949b-910710944134"},"vehicle_type_id":"4","last_reported":1710526211,"current_range_meters":10000,"station_id":"ce4bhqp2rcd13ifvqhog","pricing_plan_id":"cebpf4jnsgd1na2vs0mg"},{"bike_id":"32892f61-1f15-40bc-b639-76781b52ef74","system_id":"levelo_inurba_marseille","lat":43.32367,"lon":5.38877,"is_reserved":false,"is_disabled":false,"rental_uris":{"android":"levelo://app?vid=32892f61-1f15-40bc-b639-76781b52ef74","ios":"levelo://app?vid=32892f61-1f15-40bc-b639-76781b52ef74"},"vehicle_type_id":"4","last_reported":1710526211,"current_range_meters":24000,"station_id":"ce4bhqp2rcd13ifvqhog","pricing_plan_id":"cebpf4jnsgd1na2vs0mg"},{"bike_id":"598fb1f3-a37f-4e7b-8fbd-0c96fece7550","system_id":"levelo_inurba_marseille","lat":43.32364,"lon":5.38881,"is_reserved":false,"is_disabled":false,"rental_uris":{"android":"levelo://app?vid=598fb1f3-a37f-4e7b-8fbd-0c96fece7550","ios":"levelo://app?vid=598fb1f3-a37f-4e7b-8fbd-0c96fece7550"},"vehicle_type_id":"4","last_reported":1710526211,"current_range_meters":0,"station_id":"ce4bhqp2rcd13ifvqhog","pricing_plan_id":"cebpf4jnsgd1na2vs0mg"},{"bike_id":"40e2eb8a-4357-46b9-90f8-84a1e303713d","system_id":"levelo_inurba_marseille","lat":43.323678,"lon":5.38879,"is_reserved":false,"is_disabled":false,"rental_uris":{"android":"levelo://app?vid=40e2eb8a-4357-46b9-90f8-84a1e303713d","ios":"levelo://app?vid=40e2eb8a-4357-46b9-90f8-84a1e303713d"},"vehicle_type_id":"4","last_reported":1710526211,"current_range_meters":6800,"station_id":"ce4bhqp2rcd13ifvqhog","pricing_plan_id":"cebpf4jnsgd1na2vs0mg"},{"bike_id":"73189312-5711-4f07-9ba2-a07b812fa614","system_id":"levelo_inurba_marseille","lat":43.32367,"lon":5.388836,"is_reserved":false,"is_disabled":false,"rental_uris":{"android":"levelo://app?vid=73189312-5711-4f07-9ba2-a07b812fa614","ios":"levelo://app?vid=73189312-5711-4f07-9ba2-a07b812fa614"},"vehicle_type_id":"4","last_reported":1710526211,"current_range_meters":26000,"station_id":"ce4bhqp2rcd13ifvqhog","pricing_plan_id":"cebpf4jnsgd1na2vs0mg"},{"bike_id":"598544ef-450f-4b1f-8a2f-55ac02e68072","system_id":"levelo_inurba_marseille","lat":43.3237,"lon":5.38879,"is_reserved":false,"is_disabled":false,"rental_uris":{"android":"levelo://app?vid=598544ef-450f-4b1f-8a2f-55ac02e68072","ios":"levelo://app?vid=598544ef-450f-4b1f-8a2f-55ac02e68072"},"vehicle_type_id":"4","last_reported":1710526211,"current_range_meters":0,"station_id":"ce4bhqp2rcd13ifvqhog","pricing_plan_id":"cebpf4jnsgd1na2vs0mg"},{"bike_id":"fabfa73f-5084-4820-a827-515b7447769f","system_id":"levelo_inurba_marseille","lat":43.32367,"lon":5.388836,"is_reserved":false,"is_disabled":false,"rental_uris":{"android":"levelo://app?vid=fabfa73f-5084-4820-a827-515b7447769f","ios":"levelo://app?vid=fabfa73f-5084-4820-a827-515b7447769f"},"vehicle_type_id":"4","last_reported":1710526211,"current_range_meters":2800,"station_id":"ce4bhqp2rcd13ifvqhog","pricing_plan_id":"cebpf4jnsgd1na2vs0mg"},{"bike_id":"9b401e39-87f3-43dd-9631-732bf6970701","system_id":"levelo_inurba_marseille","lat":43.323509,"lon":5.388973,"is_reserved":false,"is_disabled":false,"rental_uris":{"android":"levelo://app?vid=9b401e39-87f3-43dd-9631-732bf6970701","ios":"levelo://app?vid=9b401e39-87f3-43dd-9631-732bf6970701"},"vehicle_type_id":"4","last_reported":1710526211,"current_range_meters":12400,"station_id":"ce4bhqp2rcd13ifvqhog","pricing_plan_id":"cebpf4jnsgd1na2vs0mg"},{"bike_id":"924501c2-f36b-4abb-8a2d-abcf66e5eef4","system_id":"levelo_inurba_marseille","lat":43.32367,"lon":5.388836,"is_reserved":false,"is_disabled":false,"rental_uris":{"android":"levelo://app?vid=924501c2-f36b-4abb-8a2d-abcf66e5eef4","ios":"levelo://app?vid=924501c2-f36b-4abb-8a2d-abcf66e5eef4"},"vehicle_type_id":"4","last_reported":1710526211,"current_range_meters":0,"station_id":"ce4bhqp2rcd13ifvqhog","pricing_plan_id":"cebpf4jnsgd1na2vs0mg"},{"bike_id":"543d4186-714b-4866-a911-93293b5ebde7","system_id":"levelo_inurba_marseille","lat":43.32367,"lon":5.388836,"is_reserved":false,"is_disabled":false,"rental_uris":{"android":"levelo://app?vid=543d4186-714b-4866-a911-93293b5ebde7","ios":"levelo://app?vid=543d4186-714b-4866-a911-93293b5ebde7"},"vehicle_type_id":"4","last_reported":1710526211,"current_range_meters":11600,"station_id":"ce4bhqp2rcd13ifvqhog","pricing_plan_id":"cebpf4jnsgd1na2vs0mg"},{"bike_id":"775cf867-e75b-4fd5-b02f-97c73260f4b7","system_id":"levelo_inurba_marseille","lat":43.32371,"lon":5.38884,"is_reserved":false,"is_disabled":false,"rental_uris":{"android":"levelo://app?vid=775cf867-e75b-4fd5-b02f-97c73260f4b7","ios":"levelo://app?vid=775cf867-e75b-4fd5-b02f-97c73260f4b7"},"vehicle_type_id":"4","last_reported":1710526211,"current_range_meters":6800,"station_id":"ce4bhqp2rcd13ifvqhog","pricing_plan_id":"cebpf4jnsgd1na2vs0mg"},{"bike_id":"cc81d865-bd9e-47ea-9dba-ee06420c17c4","system_id":"levelo_inurba_marseille","lat":43.32367,"lon":5.388836,"is_reserved":false,"is_disabled":false,"rental_uris":{"android":"levelo://app?vid=cc81d865-bd9e-47ea-9dba-ee06420c17c4","ios":"levelo://app?vid=cc81d865-bd9e-47ea-9dba-ee06420c17c4"},"vehicle_type_id":"4","last_reported":1710526211,"current_range_meters":0,"station_id":"ce4bhqp2rcd13ifvqhog","pricing_plan_id":"cebpf4jnsgd1na2vs0mg"},{"bike_id":"98c893c2-7601-480f-b687-9b8b6030928a","system_id":"levelo_inurba_marseille","lat":43.32367,"lon":5.388836,"is_reserved":false,"is_disabled":false,"rental_uris":{"android":"levelo://app?vid=98c893c2-7601-480f-b687-9b8b6030928a","ios":"levelo://app?vid=98c893c2-7601-480f-b687-9b8b6030928a"},"vehicle_type_id":"4","last_reported":1710526211,"current_range_meters":4400,"station_id":"ce4bhqp2rcd13ifvqhog","pricing_plan_id":"cebpf4jnsgd1na2vs0mg"},{"bike_id":"3987cddb-4ed7-405b-96ca-b1abeb478286","system_id":"levelo_inurba_marseille","lat":43.32367,"lon":5.388836,"is_reserved":false,"is_disabled":false,"rental_uris":{"android":"levelo://app?vid=3987cddb-4ed7-405b-96ca-b1abeb478286","ios":"levelo://app?vid=3987cddb-4ed7-405b-96ca-b1abeb478286"},"vehicle_type_id":"4","last_reported":1710526211,"current_range_meters":22800,"station_id":"ce4bhqp2rcd13ifvqhog","pricing_plan_id":"cebpf4jnsgd1na2vs0mg"},{"bike_id":"e7defb13-07db-447b-afd9-2164da423aef","system_id":"levelo_inurba_marseille","lat":43.32367,"lon":5.388836,"is_reserved":false,"is_disabled":false,"rental_uris":{"android":"levelo://app?vid=e7defb13-07db-447b-afd9-2164da423aef","ios":"levelo://app?vid=e7defb13-07db-447b-afd9-2164da423aef"},"vehicle_type_id":"4","last_reported":1710526211,"current_range_meters":22800,"station_id":"ce4bhqp2rcd13ifvqhog","pricing_plan_id":"cebpf4jnsgd1na2vs0mg"},{"bike_id":"436926f5-e57b-453a-9185-42eb378c240e","system_id":"levelo_inurba_marseille","lat":43.29609,"lon":5.38105,"is_reserved":false,"is_disabled":false,"rental_uris":{"android":"levelo://app?vid=436926f5-e57b-453a-9185-42eb378c240e","ios":"levelo://app?vid=436926f5-e57b-453a-9185-42eb378c240e"},"vehicle_type_id":"4","last_reported":1710526211,"current_range_meters":4000,"station_id":"ce4bgl12rcd13ifvqbo0","pricing_plan_id":"cebpf4jnsgd1na2vs0mg"},{"bike_id":"ca988be6-0f0e-4fdc-9978-c0e0aa776b70","system_id":"levelo_inurba_marseille","lat":43.296047,"lon":5.380958,"is_reserved":false,"is_disabled":false,"rental_uris":{"android":"levelo://app?vid=ca988be6-0f0e-4fdc-9978-c0e0aa776b70","ios":"levelo://app?vid=ca988be6-0f0e-4fdc-9978-c0e0aa776b70"},"vehicle_type_id":"4","last_reported":1710526211,"current_range_meters":1200,"station_id":"ce4bgl12rcd13ifvqbo0","pricing_plan_id":"cebpf4jnsgd1na2vs0mg"},{"bike_id":"1a186d64-4941-4218-a47a-15803869db5f","system_id":"levelo_inurba_marseille","lat":43.29602,"lon":5.381084,"is_reserved":false,"is_disabled":false,"rental_uris":{"android":"levelo://app?vid=1a186d64-4941-4218-a47a-15803869db5f","ios":"levelo://app?vid=1a186d64-4941-4218-a47a-15803869db5f"},"vehicle_type_id":"4","last_reported":1710526211,"current_range_meters":18000,"station_id":"ce4bgl12rcd13ifvqbo0","pricing_plan_id":"cebpf4jnsgd1na2vs0mg"},{"bike_id":"badf16ed-cb59-4bce-98a6-fef9a065894d","system_id":"levelo_inurba_marseille","lat":43.29602,"lon":5.381084,"is_reserved":false,"is_disabled":false,"rental_uris":{"android":"levelo://app?vid=badf16ed-cb59-4bce-98a6-fef9a065894d","ios":"levelo://app?vid=badf16ed-cb59-4bce-98a6-fef9a065894d"},"vehicle_type_id":"4","last_reported":1710526211,"current_range_meters":8800,"station_id":"ce4bgl12rcd13ifvqbo0","pricing_plan_id":"cebpf4jnsgd1na2vs0mg"},{"bike_id":"57c87314-ba8a-4c11-8257-814c044d1596","system_id":"levelo_inurba_marseille","lat":43.29602,"lon":5.381084,"is_reserved":false,"is_disabled":false,"rental_uris":{"android":"levelo://app?vid=57c87314-ba8a-4c11-8257-814c044d1596","ios":"levelo://app?vid=57c87314-ba8a-4c11-8257-814c044d1596"},"vehicle_type_id":"4","last_reported":1710526211,"current_range_meters":19600,"station_id":"ce4bgl12rcd13ifvqbo0","pricing_plan_id":"cebpf4jnsgd1na2vs0mg"},{"bike_id":"d7961cb3-b184-4ccb-8c2c-709670246efc","system_id":"levelo_inurba_marseille","lat":43.29602,"lon":5.381084,"is_reserved":false,"is_disabled":false,"rental_uris":{"android":"levelo://app?vid=d7961cb3-b184-4ccb-8c2c-709670246efc","ios":"levelo://app?vid=d7961cb3-b184-4ccb-8c2c-709670246efc"},"vehicle_type_id":"4","last_reported":1710526211,"current_range_meters":1200,"station_id":"ce4bgl12rcd13ifvqbo0","pricing_plan_id":"cebpf4jnsgd1na2vs0mg"},{"bike_id":"ca05234e-d197-48d3-8057-ea252b0b8107","system_id":"levelo_inurba_marseille","lat":43.29602,"lon":5.381084,"is_reserved":false,"is_disabled":false,"rental_uris":{"android":"levelo://app?vid=ca05234e-d197-48d3-8057-ea252b0b8107","ios":"levelo://app?vid=ca05234e-d197-48d3-8057-ea252b0b8107"},"vehicle_type_id":"4","last_reported":1710526211,"current_range_meters":1200,"station_id":"ce4bgl12rcd13ifvqbo0","pricing_plan_id":"cebpf4jnsgd1na2vs0mg"},{"bike_id":"bbf3172b-708e-4a8e-a299-ba8aa1494269","system_id":"levelo_inurba_marseille","lat":43.29596,"lon":5.38101,"is_reserved":false,"is_disabled":false,"rental_uris":{"android":"levelo://app?vid=bbf3172b-708e-4a8e-a299-ba8aa1494269","ios":"levelo://app?vid=bbf3172b-708e-4a8e-a299-ba8aa1494269"},"vehicle_type_id":"4","last_reported":1710526211,"current_range_meters":4400,"station_id":"ce4bgl12rcd13ifvqbo0","pricing_plan_id":"cebpf4jnsgd1na2vs0mg"},{"bike_id":"eb114369-426f-4134-8e20-d7fba13b01d9","system_id":"levelo_inurba_marseille","lat":43.304274,"lon":5.388873,"is_reserved":false,"is_disabled":false,"rental_uris":{"android":"levelo://app?vid=eb114369-426f-4134-8e20-d7fba13b01d9","ios":"levelo://app?vid=eb114369-426f-4134-8e20-d7fba13b01d9"},"vehicle_type_id":"4","last_reported":1710526211,"current_range_meters":7600,"station_id":"ce4bgk12rcd13ifvqbi0","pricing_plan_id":"cebpf4jnsgd1na2vs0mg"},{"bike_id":"d561f501-3cef-4e5c-bb1d-dca8458e3ea4","system_id":"levelo_inurba_marseille","lat":43.293259,"lon":5.371586,"is_reserved":false,"is_disabled":false,"rental_uris":{"android":"levelo://app?vid=d561f501-3cef-4e5c-bb1d-dca8458e3ea4","ios":"levelo://app?vid=d561f501-3cef-4e5c-bb1d-dca8458e3ea4"},"vehicle_type_id":"4","last_reported":1710526211,"current_range_meters":8000,"station_id":"ce4bgh92rcd13ifvqb40","pricing_plan_id":"cebpf4jnsgd1na2vs0mg"},{"bike_id":"6aee7dab-2471-4158-b83d-770b33d1b1e9","system_id":"levelo_inurba_marseille","lat":43.292749,"lon":5.368398,"is_reserved":false,"is_disabled":false,"rental_uris":{"android":"levelo://app?vid=6aee7dab-2471-4158-b83d-770b33d1b1e9","ios":"levelo://app?vid=6aee7dab-2471-4158-b83d-770b33d1b1e9"},"vehicle_type_id":"4","last_reported":1710526211,"current_range_meters":0,"station_id":"ce4bhbp2rcd13ifvqesg","pricing_plan_id":"cebpf4jnsgd1na2vs0mg"},{"bike_id":"9c211be9-182c-4215-881b-9d798083abfd","system_id":"levelo_inurba_marseille","lat":43.29278,"lon":5.36845,"is_reserved":false,"is_disabled":false,"rental_uris":{"android":"levelo://app?vid=9c211be9-182c-4215-881b-9d798083abfd","ios":"levelo://app?vid=9c211be9-182c-4215-881b-9d798083abfd"},"vehicle_type_id":"4","last_reported":1710526211,"current_range_meters":0,"station_id":"","pricing_plan_id":"cebpf4jnsgd1na2vs0mg"},{"bike_id":"bb7bd29e-0782-402b-b19b-2d21990a064a","system_id":"levelo_inurba_marseille","lat":43.293009,"lon":5.374584,"is_reserved":false,"is_disabled":false,"rental_uris":{"android":"levelo://app?vid=bb7bd29e-0782-402b-b19b-2d21990a064a","ios":"levelo://app?vid=bb7bd29e-0782-402b-b19b-2d21990a064a"},"vehicle_type_id":"4","last_reported":1710526211,"current_range_meters":6000,"station_id":"ce4bgi12rcd13ifvqb70","pricing_plan_id":"cebpf4jnsgd1na2vs0mg"},{"bike_id":"8fb66ad3-003d-401b-baac-c5cdb6f5990c","system_id":"levelo_inurba_marseille","lat":43.29296,"lon":5.3745,"is_reserved":false,"is_disabled":false,"rental_uris":{"android":"levelo://app?vid=8fb66ad3-003d-401b-baac-c5cdb6f5990c","ios":"levelo://app?vid=8fb66ad3-003d-401b-baac-c5cdb6f5990c"},"vehicle_type_id":"4","last_reported":1710526211,"current_range_meters":0,"station_id":"ce4bgi12rcd13ifvqb70","pricing_plan_id":"cebpf4jnsgd1na2vs0mg"},{"bike_id":"c97c641c-f7f8-44a3-bcec-1a1ac9591772","system_id":"levelo_inurba_marseille","lat":43.303002,"lon":5.392142,"is_reserved":false,"is_disabled":false,"rental_uris":{"android":"levelo://app?vid=c97c641c-f7f8-44a3-bcec-1a1ac9591772","ios":"levelo://app?vid=c97c641c-f7f8-44a3-bcec-1a1ac9591772"},"vehicle_type_id":"4","last_reported":1710526211,"current_range_meters":1600,"station_id":"ce4bgkh2rcd13ifvqbk0","pricing_plan_id":"cebpf4jnsgd1na2vs0mg"},{"bike_id":"85e1e697-2ef7-40e6-bc2f-42dc10b1c72d","system_id":"levelo_inurba_marseille","lat":43.303002,"lon":5.392142,"is_reserved":false,"is_disabled":false,"rental_uris":{"android":"levelo://app?vid=85e1e697-2ef7-40e6-bc2f-42dc10b1c72d","ios":"levelo://app?vid=85e1e697-2ef7-40e6-bc2f-42dc10b1c72d"},"vehicle_type_id":"4","last_reported":1710526211,"current_range_meters":400,"station_id":"ce4bgkh2rcd13ifvqbk0","pricing_plan_id":"cebpf4jnsgd1na2vs0mg"},{"bike_id":"3574188f-2c39-4568-9fc5-c9a7b2c93ee0","system_id":"levelo_inurba_marseille","lat":43.293691,"lon":5.378137,"is_reserved":false,"is_disabled":false,"rental_uris":{"android":"levelo://app?vid=3574188f-2c39-4568-9fc5-c9a7b2c93ee0","ios":"levelo://app?vid=3574188f-2c39-4568-9fc5-c9a7b2c93ee0"},"vehicle_type_id":"4","last_reported":1710526211,"current_range_meters":3600,"station_id":"ce4bgjh2rcd13ifvqbf0","pricing_plan_id":"cebpf4jnsgd1na2vs0mg"},{"bike_id":"94d4d6f7-c261-4bf3-9069-cac3c0e5f43f","system_id":"levelo_inurba_marseille","lat":43.2936,"lon":5.37835,"is_reserved":false,"is_disabled":false,"rental_uris":{"android":"levelo://app?vid=94d4d6f7-c261-4bf3-9069-cac3c0e5f43f","ios":"levelo://app?vid=94d4d6f7-c261-4bf3-9069-cac3c0e5f43f"},"vehicle_type_id":"4","last_reported":1710526211,"current_range_meters":13600,"station_id":"ce4bgjh2rcd13ifvqbf0","pricing_plan_id":"cebpf4jnsgd1na2vs0mg"},{"bike_id":"8302b298-20af-4ca7-851e-640e440f474a","system_id":"levelo_inurba_marseille","lat":43.291675,"lon":5.371583,"is_reserved":false,"is_disabled":false,"rental_uris":{"android":"levelo://app?vid=8302b298-20af-4ca7-851e-640e440f474a","ios":"levelo://app?vid=8302b298-20af-4ca7-851e-640e440f474a"},"vehicle_type_id":"4","last_reported":1710526211,"current_range_meters":6400,"station_id":"ce4bha92rcd13ifvqeh0","pricing_plan_id":"cebpf4jnsgd1na2vs0mg"},{"bike_id":"1bfe21d0-9918-43bd-8d24-48ace5480c01","system_id":"levelo_inurba_marseille","lat":43.299,"lon":5.3884,"is_reserved":false,"is_disabled":false,"rental_uris":{"android":"levelo://app?vid=1bfe21d0-9918-43bd-8d24-48ace5480c01","ios":"levelo://app?vid=1bfe21d0-9918-43bd-8d24-48ace5480c01"},"vehicle_type_id":"4","last_reported":1710526211,"current_range_meters":20000,"station_id":"","pricing_plan_id":"cebpf4jnsgd1na2vs0mg"},{"bike_id":"65cee062-5e1a-4142-b1e7-c6d3b54331b2","system_id":"levelo_inurba_marseille","lat":43.292427,"lon":5.37337,"is_reserved":false,"is_disabled":false,"rental_uris":{"android":"levelo://app?vid=65cee062-5e1a-4142-b1e7-c6d3b54331b2","ios":"levelo://app?vid=65cee062-5e1a-4142-b1e7-c6d3b54331b2"},"vehicle_type_id":"4","last_reported":1710526211,"current_range_meters":0,"station_id":"","pricing_plan_id":"cebpf4jnsgd1na2vs0mg"},{"bike_id":"586bbd8f-9536-4430-b258-deeee9453fb4","system_id":"levelo_inurba_marseille","lat":43.292311,"lon":5.360731,"is_reserved":false,"is_disabled":false,"rental_uris":{"android":"levelo://app?vid=586bbd8f-9536-4430-b258-deeee9453fb4","ios":"levelo://app?vid=586bbd8f-9536-4430-b258-deeee9453fb4"},"vehicle_type_id":"4","last_reported":1710526211,"current_range_meters":22000,"station_id":"ce4bhbh2rcd13ifvqeqg","pricing_plan_id":"cebpf4jnsgd1na2vs0mg"},{"bike_id":"9839ef1e-1f23-4c7c-8311-aa2a51447140","system_id":"levelo_inurba_marseille","lat":43.292311,"lon":5.360731,"is_reserved":false,"is_disabled":false,"rental_uris":{"android":"levelo://app?vid=9839ef1e-1f23-4c7c-8311-aa2a51447140","ios":"levelo://app?vid=9839ef1e-1f23-4c7c-8311-aa2a51447140"},"vehicle_type_id":"4","last_reported":1710526211,"current_range_meters":0,"station_id":"ce4bhbh2rcd13ifvqeqg","pricing_plan_id":"cebpf4jnsgd1na2vs0mg"},{"bike_id":"f6d5133e-7c4a-4a4e-9b36-f20776666401","system_id":"levelo_inurba_marseille","lat":43.293009,"lon":5.374584,"is_reserved":false,"is_disabled":false,"rental_uris":{"android":"levelo://app?vid=f6d5133e-7c4a-4a4e-9b36-f20776666401","ios":"levelo://app?vid=f6d5133e-7c4a-4a4e-9b36-f20776666401"},"vehicle_type_id":"4","last_reported":1710526211,"current_range_meters":14400,"station_id":"ce4bgi12rcd13ifvqb70","pricing_plan_id":"cebpf4jnsgd1na2vs0mg"},{"bike_id":"4fe07819-85cc-4584-b42d-bd4b48c5b13e","system_id":"levelo_inurba_marseille","lat":43.292146,"lon":5.360393,"is_reserved":false,"is_disabled":false,"rental_uris":{"android":"levelo://app?vid=4fe07819-85cc-4584-b42d-bd4b48c5b13e","ios":"levelo://app?vid=4fe07819-85cc-4584-b42d-bd4b48c5b13e"},"vehicle_type_id":"4","last_reported":1710526211,"current_range_meters":16800,"station_id":"ce4bhbh2rcd13ifvqeqg","pricing_plan_id":"cebpf4jnsgd1na2vs0mg"},{"bike_id":"9c59decb-49be-4100-9015-b219bbd8b920","system_id":"levelo_inurba_marseille","lat":43.293009,"lon":5.374584,"is_reserved":false,"is_disabled":false,"rental_uris":{"android":"levelo://app?vid=9c59decb-49be-4100-9015-b219bbd8b920","ios":"levelo://app?vid=9c59decb-49be-4100-9015-b219bbd8b920"},"vehicle_type_id":"4","last_reported":1710526211,"current_range_meters":7200,"station_id":"ce4bgi12rcd13ifvqb70","pricing_plan_id":"cebpf4jnsgd1na2vs0mg"},{"bike_id":"553ab356-fc15-4ddc-98c2-dd2f2ddd3dc2","system_id":"levelo_inurba_marseille","lat":43.292694,"lon":5.376344,"is_reserved":false,"is_disabled":false,"rental_uris":{"android":"levelo://app?vid=553ab356-fc15-4ddc-98c2-dd2f2ddd3dc2","ios":"levelo://app?vid=553ab356-fc15-4ddc-98c2-dd2f2ddd3dc2"},"vehicle_type_id":"4","last_reported":1710526211,"current_range_meters":0,"station_id":"","pricing_plan_id":"cebpf4jnsgd1na2vs0mg"},{"bike_id":"b966187f-a06f-4e59-991c-ed24952382ce","system_id":"levelo_inurba_marseille","lat":43.293009,"lon":5.374584,"is_reserved":false,"is_disabled":false,"rental_uris":{"android":"levelo://app?vid=b966187f-a06f-4e59-991c-ed24952382ce","ios":"levelo://app?vid=b966187f-a06f-4e59-991c-ed24952382ce"},"vehicle_type_id":"4","last_reported":1710526211,"current_range_meters":22000,"station_id":"ce4bgi12rcd13ifvqb70","pricing_plan_id":"cebpf4jnsgd1na2vs0mg"},{"bike_id":"0c5e7ce5-2f4b-444c-9809-771d27f497c7","system_id":"levelo_inurba_marseille","lat":43.298764,"lon":5.388973,"is_reserved":false,"is_disabled":false,"rental_uris":{"android":"levelo://app?vid=0c5e7ce5-2f4b-444c-9809-771d27f497c7","ios":"levelo://app?vid=0c5e7ce5-2f4b-444c-9809-771d27f497c7"},"vehicle_type_id":"4","last_reported":1710526211,"current_range_meters":6800,"station_id":"ce4bh392rcd13ifvqdl0","pricing_plan_id":"cebpf4jnsgd1na2vs0mg"},{"bike_id":"341b4c54-8ada-48af-a339-a6cfa4e0c098","system_id":"levelo_inurba_marseille","lat":43.2917,"lon":5.37143,"is_reserved":false,"is_disabled":false,"rental_uris":{"android":"levelo://app?vid=341b4c54-8ada-48af-a339-a6cfa4e0c098","ios":"levelo://app?vid=341b4c54-8ada-48af-a339-a6cfa4e0c098"},"vehicle_type_id":"4","last_reported":1710526211,"current_range_meters":21600,"station_id":"ce4bha92rcd13ifvqeh0","pricing_plan_id":"cebpf4jnsgd1na2vs0mg"},{"bike_id":"70470368-3c45-45cc-844b-0a71ab4b1f24","system_id":"levelo_inurba_marseille","lat":43.313291,"lon":5.396838,"is_reserved":false,"is_disabled":false,"rental_uris":{"android":"levelo://app?vid=70470368-3c45-45cc-844b-0a71ab4b1f24","ios":"levelo://app?vid=70470368-3c45-45cc-844b-0a71ab4b1f24"},"vehicle_type_id":"4","last_reported":1710526211,"current_range_meters":5600,"station_id":"ce4bgvp2rcd13ifvqcu0","pricing_plan_id":"cebpf4jnsgd1na2vs0mg"},{"bike_id":"5d8c12c8-7ea7-4c23-97c6-8f500cf69335","system_id":"levelo_inurba_marseille","lat":43.291994,"lon":5.357886,"is_reserved":false,"is_disabled":false,"rental_uris":{"android":"levelo://app?vid=5d8c12c8-7ea7-4c23-97c6-8f500cf69335","ios":"levelo://app?vid=5d8c12c8-7ea7-4c23-97c6-8f500cf69335"},"vehicle_type_id":"4","last_reported":1710526211,"current_range_meters":6800,"station_id":"ce4bhb12rcd13ifvqel0","pricing_plan_id":"cebpf4jnsgd1na2vs0mg"},{"bike_id":"f5e9f847-3759-4241-ba89-bc9c0b167c5a","system_id":"levelo_inurba_marseille","lat":43.29201,"lon":5.35807,"is_reserved":false,"is_disabled":false,"rental_uris":{"android":"levelo://app?vid=f5e9f847-3759-4241-ba89-bc9c0b167c5a","ios":"levelo://app?vid=f5e9f847-3759-4241-ba89-bc9c0b167c5a"},"vehicle_type_id":"4","last_reported":1710526211,"current_range_meters":0,"station_id":"ce4bhb12rcd13ifvqel0","pricing_plan_id":"cebpf4jnsgd1na2vs0mg"},{"bike_id":"1656c44b-a69e-45b9-80a9-e75863dc0e23","system_id":"levelo_inurba_marseille","lat":43.291994,"lon":5.357886,"is_reserved":false,"is_disabled":false,"rental_uris":{"android":"levelo://app?vid=1656c44b-a69e-45b9-80a9-e75863dc0e23","ios":"levelo://app?vid=1656c44b-a69e-45b9-80a9-e75863dc0e23"},"vehicle_type_id":"4","last_reported":1710526211,"current_range_meters":0,"station_id":"ce4bhb12rcd13ifvqel0","pricing_plan_id":"cebpf4jnsgd1na2vs0mg"},{"bike_id":"56f09200-dc32-4d4d-8251-7f9f7b5a218c","system_id":"levelo_inurba_marseille","lat":43.291994,"lon":5.357886,"is_reserved":false,"is_disabled":false,"rental_uris":{"android":"levelo://app?vid=56f09200-dc32-4d4d-8251-7f9f7b5a218c","ios":"levelo://app?vid=56f09200-dc32-4d4d-8251-7f9f7b5a218c"},"vehicle_type_id":"4","last_reported":1710526211,"current_range_meters":14000,"station_id":"ce4bhb12rcd13ifvqel0","pricing_plan_id":"cebpf4jnsgd1na2vs0mg"},{"bike_id":"58ebe924-70b3-4eb5-a251-a114e4ccae3e","system_id":"levelo_inurba_marseille","lat":43.313291,"lon":5.396838,"is_reserved":false,"is_disabled":false,"rental_uris":{"android":"levelo://app?vid=58ebe924-70b3-4eb5-a251-a114e4ccae3e","ios":"levelo://app?vid=58ebe924-70b3-4eb5-a251-a114e4ccae3e"},"vehicle_type_id":"4","last_reported":1710526211,"current_range_meters":6800,"station_id":"ce4bgvp2rcd13ifvqcu0","pricing_plan_id":"cebpf4jnsgd1na2vs0mg"},{"bike_id":"c1b1a05b-ef8b-4843-bbd0-421e2c653c29","system_id":"levelo_inurba_marseille","lat":43.313291,"lon":5.396838,"is_reserved":false,"is_disabled":false,"rental_uris":{"android":"levelo://app?vid=c1b1a05b-ef8b-4843-bbd0-421e2c653c29","ios":"levelo://app?vid=c1b1a05b-ef8b-4843-bbd0-421e2c653c29"},"vehicle_type_id":"4","last_reported":1710526211,"current_range_meters":4400,"station_id":"ce4bgvp2rcd13ifvqcu0","pricing_plan_id":"cebpf4jnsgd1na2vs0mg"},{"bike_id":"b966b460-0bae-47ff-8dec-1543f1aadb67","system_id":"levelo_inurba_marseille","lat":43.313291,"lon":5.396838,"is_reserved":false,"is_disabled":false,"rental_uris":{"android":"levelo://app?vid=b966b460-0bae-47ff-8dec-1543f1aadb67","ios":"levelo://app?vid=b966b460-0bae-47ff-8dec-1543f1aadb67"},"vehicle_type_id":"4","last_reported":1710526211,"current_range_meters":400,"station_id":"ce4bgvp2rcd13ifvqcu0","pricing_plan_id":"cebpf4jnsgd1na2vs0mg"},{"bike_id":"29ec88ba-1947-4a62-a847-7fc5f4369f98","system_id":"levelo_inurba_marseille","lat":43.313291,"lon":5.396838,"is_reserved":false,"is_disabled":false,"rental_uris":{"android":"levelo://app?vid=29ec88ba-1947-4a62-a847-7fc5f4369f98","ios":"levelo://app?vid=29ec88ba-1947-4a62-a847-7fc5f4369f98"},"vehicle_type_id":"4","last_reported":1710526211,"current_range_meters":10000,"station_id":"ce4bgvp2rcd13ifvqcu0","pricing_plan_id":"cebpf4jnsgd1na2vs0mg"},{"bike_id":"a85ebae4-2575-4931-8bd0-8a3f6a2551b8","system_id":"levelo_inurba_marseille","lat":43.308807,"lon":5.396427,"is_reserved":false,"is_disabled":false,"rental_uris":{"android":"levelo://app?vid=a85ebae4-2575-4931-8bd0-8a3f6a2551b8","ios":"levelo://app?vid=a85ebae4-2575-4931-8bd0-8a3f6a2551b8"},"vehicle_type_id":"4","last_reported":1710526211,"current_range_meters":0,"station_id":"ce4bh012rcd13ifvqcv0","pricing_plan_id":"cebpf4jnsgd1na2vs0mg"},{"bike_id":"03ebd572-d460-4199-9fc1-7ba4f65ceef1","system_id":"levelo_inurba_marseille","lat":43.313291,"lon":5.396838,"is_reserved":false,"is_disabled":false,"rental_uris":{"android":"levelo://app?vid=03ebd572-d460-4199-9fc1-7ba4f65ceef1","ios":"levelo://app?vid=03ebd572-d460-4199-9fc1-7ba4f65ceef1"},"vehicle_type_id":"4","last_reported":1710526211,"current_range_meters":9600,"station_id":"ce4bgvp2rcd13ifvqcu0","pricing_plan_id":"cebpf4jnsgd1na2vs0mg"},{"bike_id":"a57bc142-5d3e-4964-b724-8afa574f2a23","system_id":"levelo_inurba_marseille","lat":43.309047,"lon":5.396551,"is_reserved":false,"is_disabled":false,"rental_uris":{"android":"levelo://app?vid=a57bc142-5d3e-4964-b724-8afa574f2a23","ios":"levelo://app?vid=a57bc142-5d3e-4964-b724-8afa574f2a23"},"vehicle_type_id":"4","last_reported":1710526211,"current_range_meters":5200,"station_id":"ce4bh012rcd13ifvqcv0","pricing_plan_id":"cebpf4jnsgd1na2vs0mg"},{"bike_id":"29587399-738b-4220-a68e-df4082fed383","system_id":"levelo_inurba_marseille","lat":43.31326,"lon":5.39694,"is_reserved":false,"is_disabled":false,"rental_uris":{"android":"levelo://app?vid=29587399-738b-4220-a68e-df4082fed383","ios":"levelo://app?vid=29587399-738b-4220-a68e-df4082fed383"},"vehicle_type_id":"4","last_reported":1710526211,"current_range_meters":6400,"station_id":"ce4bgvp2rcd13ifvqcu0","pricing_plan_id":"cebpf4jnsgd1na2vs0mg"},{"bike_id":"aebcccf1-8d33-4ac0-a22c-73f5aad4de0d","system_id":"levelo_inurba_marseille","lat":43.313291,"lon":5.396838,"is_reserved":false,"is_disabled":false,"rental_uris":{"android":"levelo://app?vid=aebcccf1-8d33-4ac0-a22c-73f5aad4de0d","ios":"levelo://app?vid=aebcccf1-8d33-4ac0-a22c-73f5aad4de0d"},"vehicle_type_id":"4","last_reported":1710526211,"current_range_meters":18000,"station_id":"ce4bgvp2rcd13ifvqcu0","pricing_plan_id":"cebpf4jnsgd1na2vs0mg"},{"bike_id":"8d2d75b9-07c3-4106-af02-35795f24435a","system_id":"levelo_inurba_marseille","lat":43.309047,"lon":5.396551,"is_reserved":false,"is_disabled":false,"rental_uris":{"android":"levelo://app?vid=8d2d75b9-07c3-4106-af02-35795f24435a","ios":"levelo://app?vid=8d2d75b9-07c3-4106-af02-35795f24435a"},"vehicle_type_id":"4","last_reported":1710526211,"current_range_meters":10400,"station_id":"ce4bh012rcd13ifvqcv0","pricing_plan_id":"cebpf4jnsgd1na2vs0mg"},{"bike_id":"c44198f3-58f3-4932-83e1-67c5b12e279a","system_id":"levelo_inurba_marseille","lat":43.309047,"lon":5.396551,"is_reserved":false,"is_disabled":false,"rental_uris":{"android":"levelo://app?vid=c44198f3-58f3-4932-83e1-67c5b12e279a","ios":"levelo://app?vid=c44198f3-58f3-4932-83e1-67c5b12e279a"},"vehicle_type_id":"4","last_reported":1710526211,"current_range_meters":10800,"station_id":"ce4bh012rcd13ifvqcv0","pricing_plan_id":"cebpf4jnsgd1na2vs0mg"},{"bike_id":"e3f7d42c-d588-496b-8475-0b055a894a0d","system_id":"levelo_inurba_marseille","lat":43.290779,"lon":5.371482,"is_reserved":false,"is_disabled":false,"rental_uris":{"android":"levelo://app?vid=e3f7d42c-d588-496b-8475-0b055a894a0d","ios":"levelo://app?vid=e3f7d42c-d588-496b-8475-0b055a894a0d"},"vehicle_type_id":"4","last_reported":1710526211,"current_range_meters":16400,"station_id":"ce4bh5p2rcd13ifvqe4g","pricing_plan_id":"cebpf4jnsgd1na2vs0mg"},{"bike_id":"d714af41-5e64-4c59-85ef-1d847e37e978","system_id":"levelo_inurba_marseille","lat":43.298251,"lon":5.390589,"is_reserved":false,"is_disabled":false,"rental_uris":{"android":"levelo://app?vid=d714af41-5e64-4c59-85ef-1d847e37e978","ios":"levelo://app?vid=d714af41-5e64-4c59-85ef-1d847e37e978"},"vehicle_type_id":"4","last_reported":1710526211,"current_range_meters":13600,"station_id":"","pricing_plan_id":"cebpf4jnsgd1na2vs0mg"},{"bike_id":"04dd163c-b7d3-4084-9442-c137f68ee111","system_id":"levelo_inurba_marseille","lat":43.29939,"lon":5.39184,"is_reserved":false,"is_disabled":false,"rental_uris":{"android":"levelo://app?vid=04dd163c-b7d3-4084-9442-c137f68ee111","ios":"levelo://app?vid=04dd163c-b7d3-4084-9442-c137f68ee111"},"vehicle_type_id":"4","last_reported":1710526211,"current_range_meters":12000,"station_id":"","pricing_plan_id":"cebpf4jnsgd1na2vs0mg"},{"bike_id":"8ac20fac-f913-4f1a-b625-f66ec3093fb5","system_id":"levelo_inurba_marseille","lat":43.290465,"lon":5.359025,"is_reserved":false,"is_disabled":false,"rental_uris":{"android":"levelo://app?vid=8ac20fac-f913-4f1a-b625-f66ec3093fb5","ios":"levelo://app?vid=8ac20fac-f913-4f1a-b625-f66ec3093fb5"},"vehicle_type_id":"4","last_reported":1710526211,"current_range_meters":18800,"station_id":"ce4bha92rcd13ifvqeg0","pricing_plan_id":"cebpf4jnsgd1na2vs0mg"},{"bike_id":"18507b56-6611-44b7-a9bf-28bcff91c94c","system_id":"levelo_inurba_marseille","lat":43.290631,"lon":5.359244,"is_reserved":false,"is_disabled":false,"rental_uris":{"android":"levelo://app?vid=18507b56-6611-44b7-a9bf-28bcff91c94c","ios":"levelo://app?vid=18507b56-6611-44b7-a9bf-28bcff91c94c"},"vehicle_type_id":"4","last_reported":1710526211,"current_range_meters":29600,"station_id":"ce4bha92rcd13ifvqeg0","pricing_plan_id":"cebpf4jnsgd1na2vs0mg"},{"bike_id":"cfee190b-7ffc-4a5f-ad6b-3290c64450a4","system_id":"levelo_inurba_marseille","lat":43.290631,"lon":5.359244,"is_reserved":false,"is_disabled":false,"rental_uris":{"android":"levelo://app?vid=cfee190b-7ffc-4a5f-ad6b-3290c64450a4","ios":"levelo://app?vid=cfee190b-7ffc-4a5f-ad6b-3290c64450a4"},"vehicle_type_id":"4","last_reported":1710526211,"current_range_meters":14400,"station_id":"ce4bha92rcd13ifvqeg0","pricing_plan_id":"cebpf4jnsgd1na2vs0mg"},{"bike_id":"1f617d19-bcd8-4e9c-8c82-a5bb88ad4848","system_id":"levelo_inurba_marseille","lat":43.290327,"lon":5.375711,"is_reserved":false,"is_disabled":false,"rental_uris":{"android":"levelo://app?vid=1f617d19-bcd8-4e9c-8c82-a5bb88ad4848","ios":"levelo://app?vid=1f617d19-bcd8-4e9c-8c82-a5bb88ad4848"},"vehicle_type_id":"4","last_reported":1710526211,"current_range_meters":19600,"station_id":"ce4bh692rcd13ifvqe90","pricing_plan_id":"cebpf4jnsgd1na2vs0mg"},{"bike_id":"cf42e52d-81aa-4bb9-a744-f3ec026f04ae","system_id":"levelo_inurba_marseille","lat":43.290319,"lon":5.375732,"is_reserved":false,"is_disabled":false,"rental_uris":{"android":"levelo://app?vid=cf42e52d-81aa-4bb9-a744-f3ec026f04ae","ios":"levelo://app?vid=cf42e52d-81aa-4bb9-a744-f3ec026f04ae"},"vehicle_type_id":"4","last_reported":1710526211,"current_range_meters":20000,"station_id":"ce4bh692rcd13ifvqe90","pricing_plan_id":"cebpf4jnsgd1na2vs0mg"},{"bike_id":"74d845bb-1961-4cf4-9851-368af4b771d1","system_id":"levelo_inurba_marseille","lat":43.290327,"lon":5.375711,"is_reserved":false,"is_disabled":false,"rental_uris":{"android":"levelo://app?vid=74d845bb-1961-4cf4-9851-368af4b771d1","ios":"levelo://app?vid=74d845bb-1961-4cf4-9851-368af4b771d1"},"vehicle_type_id":"4","last_reported":1710526211,"current_range_meters":28800,"station_id":"ce4bh692rcd13ifvqe90","pricing_plan_id":"cebpf4jnsgd1na2vs0mg"},{"bike_id":"66040019-7eec-4af4-bedc-cb71528fa8c8","system_id":"levelo_inurba_marseille","lat":43.289184,"lon":5.366408,"is_reserved":false,"is_disabled":false,"rental_uris":{"android":"levelo://app?vid=66040019-7eec-4af4-bedc-cb71528fa8c8","ios":"levelo://app?vid=66040019-7eec-4af4-bedc-cb71528fa8c8"},"vehicle_type_id":"4","last_reported":1710526211,"current_range_meters":16000,"station_id":"ce4bhap2rcd13ifvqek0","pricing_plan_id":"cebpf4jnsgd1na2vs0mg"},{"bike_id":"3e1169e0-85e5-4777-9aad-4411ce2e597e","system_id":"levelo_inurba_marseille","lat":43.28944,"lon":5.36634,"is_reserved":false,"is_disabled":false,"rental_uris":{"android":"levelo://app?vid=3e1169e0-85e5-4777-9aad-4411ce2e597e","ios":"levelo://app?vid=3e1169e0-85e5-4777-9aad-4411ce2e597e"},"vehicle_type_id":"4","last_reported":1710526211,"current_range_meters":11600,"station_id":"ce4bhap2rcd13ifvqek0","pricing_plan_id":"cebpf4jnsgd1na2vs0mg"},{"bike_id":"7304b59b-c8a4-4135-9ec6-5107f2d17e92","system_id":"levelo_inurba_marseille","lat":43.289184,"lon":5.366408,"is_reserved":false,"is_disabled":false,"rental_uris":{"android":"levelo://app?vid=7304b59b-c8a4-4135-9ec6-5107f2d17e92","ios":"levelo://app?vid=7304b59b-c8a4-4135-9ec6-5107f2d17e92"},"vehicle_type_id":"4","last_reported":1710526211,"current_range_meters":14000,"station_id":"ce4bhap2rcd13ifvqek0","pricing_plan_id":"cebpf4jnsgd1na2vs0mg"},{"bike_id":"bca66fac-489f-4904-9b98-13ce4ba13c29","system_id":"levelo_inurba_marseille","lat":43.289184,"lon":5.366408,"is_reserved":false,"is_disabled":false,"rental_uris":{"android":"levelo://app?vid=bca66fac-489f-4904-9b98-13ce4ba13c29","ios":"levelo://app?vid=bca66fac-489f-4904-9b98-13ce4ba13c29"},"vehicle_type_id":"4","last_reported":1710526211,"current_range_meters":28400,"station_id":"ce4bhap2rcd13ifvqek0","pricing_plan_id":"cebpf4jnsgd1na2vs0mg"},{"bike_id":"abfdd485-5b6d-4886-b0d9-9e39632a9f55","system_id":"levelo_inurba_marseille","lat":43.289184,"lon":5.366408,"is_reserved":false,"is_disabled":false,"rental_uris":{"android":"levelo://app?vid=abfdd485-5b6d-4886-b0d9-9e39632a9f55","ios":"levelo://app?vid=abfdd485-5b6d-4886-b0d9-9e39632a9f55"},"vehicle_type_id":"4","last_reported":1710526211,"current_range_meters":7200,"station_id":"ce4bhap2rcd13ifvqek0","pricing_plan_id":"cebpf4jnsgd1na2vs0mg"},{"bike_id":"e4891e19-d605-4157-a3a0-a8db6bc69474","system_id":"levelo_inurba_marseille","lat":43.289468,"lon":5.363719,"is_reserved":false,"is_disabled":false,"rental_uris":{"android":"levelo://app?vid=e4891e19-d605-4157-a3a0-a8db6bc69474","ios":"levelo://app?vid=e4891e19-d605-4157-a3a0-a8db6bc69474"},"vehicle_type_id":"4","last_reported":1710526211,"current_range_meters":0,"station_id":"ce4bhc92rcd13ifvqetg","pricing_plan_id":"cebpf4jnsgd1na2vs0mg"},{"bike_id":"9f376aad-36d8-4bae-9e97-e740fa206a30","system_id":"levelo_inurba_marseille","lat":43.289184,"lon":5.366408,"is_reserved":false,"is_disabled":false,"rental_uris":{"android":"levelo://app?vid=9f376aad-36d8-4bae-9e97-e740fa206a30","ios":"levelo://app?vid=9f376aad-36d8-4bae-9e97-e740fa206a30"},"vehicle_type_id":"4","last_reported":1710526211,"current_range_meters":5600,"station_id":"ce4bhap2rcd13ifvqek0","pricing_plan_id":"cebpf4jnsgd1na2vs0mg"},{"bike_id":"5646bb5f-f672-4160-a2d6-2ae4996d7a12","system_id":"levelo_inurba_marseille","lat":43.28934,"lon":5.36633,"is_reserved":false,"is_disabled":false,"rental_uris":{"android":"levelo://app?vid=5646bb5f-f672-4160-a2d6-2ae4996d7a12","ios":"levelo://app?vid=5646bb5f-f672-4160-a2d6-2ae4996d7a12"},"vehicle_type_id":"4","last_reported":1710526211,"current_range_meters":0,"station_id":"ce4bhap2rcd13ifvqek0","pricing_plan_id":"cebpf4jnsgd1na2vs0mg"},{"bike_id":"fba2e50b-1fbc-4456-95cb-deda55ebdfa0","system_id":"levelo_inurba_marseille","lat":43.28932,"lon":5.36637,"is_reserved":false,"is_disabled":false,"rental_uris":{"android":"levelo://app?vid=fba2e50b-1fbc-4456-95cb-deda55ebdfa0","ios":"levelo://app?vid=fba2e50b-1fbc-4456-95cb-deda55ebdfa0"},"vehicle_type_id":"4","last_reported":1710526211,"current_range_meters":800,"station_id":"ce4bhap2rcd13ifvqek0","pricing_plan_id":"cebpf4jnsgd1na2vs0mg"},{"bike_id":"4971a0b4-81da-4623-ac9f-2c911de29499","system_id":"levelo_inurba_marseille","lat":43.289184,"lon":5.366408,"is_reserved":false,"is_disabled":false,"rental_uris":{"android":"levelo://app?vid=4971a0b4-81da-4623-ac9f-2c911de29499","ios":"levelo://app?vid=4971a0b4-81da-4623-ac9f-2c911de29499"},"vehicle_type_id":"4","last_reported":1710526211,"current_range_meters":22400,"station_id":"ce4bhap2rcd13ifvqek0","pricing_plan_id":"cebpf4jnsgd1na2vs0mg"},{"bike_id":"94ee058f-635b-47ae-84d6-37f3c6e26cb7","system_id":"levelo_inurba_marseille","lat":43.289468,"lon":5.363719,"is_reserved":false,"is_disabled":false,"rental_uris":{"android":"levelo://app?vid=94ee058f-635b-47ae-84d6-37f3c6e26cb7","ios":"levelo://app?vid=94ee058f-635b-47ae-84d6-37f3c6e26cb7"},"vehicle_type_id":"4","last_reported":1710526211,"current_range_meters":5600,"station_id":"ce4bhc92rcd13ifvqetg","pricing_plan_id":"cebpf4jnsgd1na2vs0mg"},