{"last_updated":1747149011,"ttl":60,"version":"2.2","data":{"bikes":[{"bike_id":"c0b9fd4f-e181-46ce-b0bf-f5119973334f","system_id":"levelo_inurba_marseille","lat":43.33771,"lon":5.37424,"is_reserved":false,"is_disabled":false,"rental_uris":{"android":"levelo://app?vid=c0b9fd4f-e181-46ce-b0bf-f5119973334f","ios":"levelo://app?vid=c0b9fd4f-e181-46ce-b0bf-f5119973334f"},"vehicle_type_id":"4","last_reported":1747149011,"current_range_meters":23200,"station_id":"","pricing_plan_id":"cebpf4jnsgd1na2vs0mg"},{"bike_id":"d19ebaab-ef98-4efa-b952-7192b9b2f014","system_id":"levelo_inurba_marseille","lat":43.261476,"lon":5.391944,"is_reserved":false,"is_disabled":true,"rental_uris":{"android":"levelo://app?vid=d19ebaab-ef98-4efa-b952-7192b9b2f014","ios":"levelo://app?vid=d19ebaab-ef98-4efa-b952-7192b9b2f014"},"vehicle_type_id":"4","last_reported":1747149011,"current_range_meters":0,"station_id":"","pricing_plan_id":"cebpf4jnsgd1na2vs0mg"},{"bike_id":"792567c6-0442-4011-aff0-9c05e25deb48","system_id":"levelo_inurba_marseille","lat":43.28112,"lon":5.44168,"is_reserved":false,"is_disabled":true,"rental_uris":{"android":"levelo://app?vid=792567c6-0442-4011-aff0-9c05e25deb48","ios":"levelo://app?vid=792567c6-0442-4011-aff0-9c05e25deb48"},"vehicle_type_id":"4","last_reported":1747149011,"current_range_meters":0,"station_id":"","pricing_plan_id":"cebpf4jnsgd1na2vs0mg"},{"bike_id":"f38c2ca4-76c1-4fea-a402-adadbee3f3cd","system_id":"levelo_inurba_marseille","lat":43.3031,"lon":5.39219,"is_reserved":false,"is_disabled":true,"rental_uris":{"android":"levelo://app?vid=f38c2ca4-76c1-4fea-a402-adadbee3f3cd","ios":"levelo://app?vid=f38c2ca4-76c1-4fea-a402-adadbee3f3cd"},"vehicle_type_id":"4","last_reported":1747149011,"current_range_meters":0,"station_id":"ce4bgkh2rcd13ifvqbk0","pricing_plan_id":"cebpf4jnsgd1na2vs0mg"},{"bike_id":"20925527-816f-447b-b65c-af37203d0786","system_id":"levelo_inurba_marseille","lat":43.305467,"lon":5.365716,"is_reserved":false,"is_disabled":true,"rental_uris":{"android":"levelo://app?vid=20925527-816f-447b-b65c-af37203d0786","ios":"levelo://app?vid=20925527-816f-447b-b65c-af37203d0786"},"vehicle_type_id":"4","last_reported":1747149011,"current_range_meters":0,"station_id":"ce4bgs12rcd13ifvqcag","pricing_plan_id":"cebpf4jnsgd1na2vs0mg"},{"bike_id":"04526589-1f36-4fcb-a7eb-acfed1948eed","system_id":"levelo_inurba_marseille","lat":43.30927,"lon":5.40153,"is_reserved":false,"is_disabled":true,"rental_uris":{"android":"levelo://app?vid=04526589-1f36-4fcb-a7eb-acfed1948eed","ios":"levelo://app?vid=04526589-1f36-4fcb-a7eb-acfed1948eed"},"vehicle_type_id":"4","last_reported":1747149011,"current_range_meters":0,"station_id":"ce4bgvp2rcd13ifvqct0","pricing_plan_id":"cebpf4jnsgd1na2vs0mg"},{"bike_id":"5ec97cfb-4ea9-4a95-a350-ffdd4b74e3c5","system_id":"levelo_inurba_marseille","lat":43.29802,"lon":5.40395,"is_reserved":false,"is_disabled":true,"rental_uris":{"android":"levelo://app?vid=5ec97cfb-4ea9-4a95-a350-ffdd4b74e3c5","ios":"levelo://app?vid=5ec97cfb-4ea9-4a95-a350-ffdd4b74e3c5"},"vehicle_type_id":"4","last_reported":1747149011,"current_range_meters":0,"station_id":"ce4bh112rcd13ifvqd90","pricing_plan_id":"cebpf4jnsgd1na2vs0mg"},{"bike_id":"203667f1-1dbd-42f7-8cc5-106dee4098f6","system_id":"levelo_inurba_marseille","lat":43.28569,"lon":5.39502,"is_reserved":false,"is_disabled":true,"rental_uris":{"android":"levelo://app?vid=203667f1-1dbd-42f7-8cc5-106dee4098f6","ios":"levelo://app?vid=203667f1-1dbd-42f7-8cc5-106dee4098f6"},"vehicle_type_id":"4","last_reported":1747149011,"current_range_meters":0,"station_id":"ce4bh292rcd13ifvqdg0","pricing_plan_id":"cebpf4jnsgd1na2vs0mg"},{"bike_id":"3244fb58-72e5-4a79-8472-0bab6c658285","system_id":"levelo_inurba_marseille","lat":43.29061,"lon":5.35914,"is_reserved":false,"is_disabled":true,"rental_uris":{"android":"levelo://app?vid=3244fb58-72e5-4a79-8472-0bab6c658285","ios":"levelo://app?vid=3244fb58-72e5-4a79-8472-0bab6c658285"},"vehicle_type_id":"4","last_reported":1747149011,"current_range_meters":0,"station_id":"ce4bha92rcd13ifvqeg0","pricing_plan_id":"cebpf4jnsgd1na2vs0mg"},{"bike_id":"208b0791-f93c-41c9-b797-b6e43d4d6cd3","system_id":"levelo_inurba_marseille","lat":43.29014,"lon":5.35624,"is_reserved":false,"is_disabled":true,"rental_uris":{"android":"levelo://app?vid=208b0791-f93c-41c9-b797-b6e43d4d6cd3","ios":"levelo://app?vid=208b0791-f93c-41c9-b797-b6e43d4d6cd3"},"vehicle_type_id":"4","last_reported":1747149011,"current_range_meters":0,"station_id":"ce4bhb92rcd13ifvqen0","pricing_plan_id":"cebpf4jnsgd1na2vs0mg"},{"bike_id":"3c12878f-5d3e-478e-bd83-cbe334aaae8e","system_id":"levelo_inurba_marseille","lat":43.262087,"lon":5.3744,"is_reserved":false,"is_disabled":true,"rental_uris":{"android":"levelo://app?vid=3c12878f-5d3e-478e-bd83-cbe334aaae8e","ios":"levelo://app?vid=3c12878f-5d3e-478e-bd83-cbe334aaae8e"},"vehicle_type_id":"4","last_reported":1747149011,"current_range_meters":0,"station_id":"ce4bhgp2rcd13ifvqfc0","pricing_plan_id":"cebpf4jnsgd1na2vs0mg"},{"bike_id":"65c05c73-d244-4743-a5e4-1be5c961c717","system_id":"levelo_inurba_marseille","lat":43.26959,"lon":5.38637,"is_reserved":false,"is_disabled":true,"rental_uris":{"android":"levelo://app?vid=65c05c73-d244-4743-a5e4-1be5c961c717","ios":"levelo://app?vid=65c05c73-d244-4743-a5e4-1be5c961c717"},"vehicle_type_id":"4","last_reported":1747149011,"current_range_meters":0,"station_id":"ce4bhh92rcd13ifvqfh0","pricing_plan_id":"cebpf4jnsgd1na2vs0mg"},{"bike_id":"df298da0-a084-4b4f-b54b-887e36dd9bd4","system_id":"levelo_inurba_marseille","lat":43.27077,"lon":5.42284,"is_reserved":false,"is_disabled":true,"rental_uris":{"android":"levelo://app?vid=df298da0-a084-4b4f-b54b-887e36dd9bd4","ios":"levelo://app?vid=df298da0-a084-4b4f-b54b-887e36dd9bd4"},"vehicle_type_id":"4","last_reported":1747149011,"current_range_meters":0,"station_id":"ce4bhk92rcd13ifvqgb0","pricing_plan_id":"cebpf4jnsgd1na2vs0mg"},{"bike_id":"5d827ec4-8e5e-4cde-b859-9c1aa0de8069","system_id":"levelo_inurba_marseille","lat":43.2706,"lon":5.40267,"is_reserved":false,"is_disabled":true,"rental_uris":{"android":"levelo://app?vid=5d827ec4-8e5e-4cde-b859-9c1aa0de8069","ios":"levelo://app?vid=5d827ec4-8e5e-4cde-b859-9c1aa0de8069"},"vehicle_type_id":"4","last_reported":1747149011,"current_range_meters":0,"station_id":"ce4bhk92rcd13ifvqgc0","pricing_plan_id":"cebpf4jnsgd1na2vs0mg"},{"bike_id":"7d648bb7-ab7e-409a-add7-d4a17f03de12","system_id":"levelo_inurba_marseille","lat":43.23159,"lon":5.43703,"is_reserved":false,"is_disabled":true,"rental_uris":{"android":"levelo://app?vid=7d648bb7-ab7e-409a-add7-d4a17f03de12","ios":"levelo://app?vid=7d648bb7-ab7e-409a-add7-d4a17f03de12"},"vehicle_type_id":"4","last_reported":1747149011,"current_range_meters":0,"station_id":"ce4bhmp2rcd13ifvqgog","pricing_plan_id":"cebpf4jnsgd1na2vs0mg"},{"bike_id":"6af03016-8529-41bf-a76c-959e0f94726e","system_id":"levelo_inurba_marseille","lat":43.26806,"lon":5.40262,"is_reserved":false,"is_disabled":true,"rental_uris":{"android":"levelo://app?vid=6af03016-8529-41bf-a76c-959e0f94726e","ios":"levelo://app?vid=6af03016-8529-41bf-a76c-959e0f94726e"},"vehicle_type_id":"4","last_reported":1747149011,"current_range_meters":0,"station_id":"ce501612rcd8frsf0b60","pricing_plan_id":"cebpf4jnsgd1na2vs0mg"},{"bike_id":"0fedde00-40eb-40d2-8fc2-e61ecce46b7b","system_id":"levelo_inurba_marseille","lat":43.28292,"lon":5.43257,"is_reserved":false,"is_disabled":true,"rental_uris":{"android":"levelo://app?vid=0fedde00-40eb-40d2-8fc2-e61ecce46b7b","ios":"levelo://app?vid=0fedde00-40eb-40d2-8fc2-e61ecce46b7b"},"vehicle_type_id":"4","last_reported":1747149011,"current_range_meters":400,"station_id":"","pricing_plan_id":"cebpf4jnsgd1na2vs0mg"},{"bike_id":"1d89f1b4-d422-43f0-a8f8-2d1bfba93913","system_id":"levelo_inurba_marseille","lat":43.31373,"lon":5.38501,"is_reserved":false,"is_disabled":true,"rental_uris":{"android":"levelo://app?vid=1d89f1b4-d422-43f0-a8f8-2d1bfba93913","ios":"levelo://app?vid=1d89f1b4-d422-43f0-a8f8-2d1bfba93913"},"vehicle_type_id":"4","last_reported":1747149011,"current_range_meters":400,"station_id":"ce4bgt92rcd13ifvqcf0","pricing_plan_id":"cebpf4jnsgd1na2vs0mg"},{"bike_id":"dd27d1c0-10e2-43a2-9444-6abd2fb84d9b","system_id":"levelo_inurba_marseille","lat":43.31326,"lon":5.39703,"is_reserved":false,"is_disabled":true,"rental_uris":{"android":"levelo://app?vid=dd27d1c0-10e2-43a2-9444-6abd2fb84d9b","ios":"levelo://app?vid=dd27d1c0-10e2-43a2-9444-6abd2fb84d9b"},"vehicle_type_id":"4","last_reported":1747149011,"current_range_meters":400,"station_id":"ce4bgvp2rcd13ifvqcu0","pricing_plan_id":"cebpf4jnsgd1na2vs0mg"},{"bike_id":"508db666-e9c3-4fdf-81c9-dae661aabd53","system_id":"levelo_inurba_marseille","lat":43.30592,"lon":5.3935,"is_reserved":false,"is_disabled":true,"rental_uris":{"android":"levelo://app?vid=508db666-e9c3-4fdf-81c9-dae661aabd53","ios":"levelo://app?vid=508db666-e9c3-4fdf-81c9-dae661aabd53"},"vehicle_type_id":"4","last_reported":1747149011,"current_range_meters":400,"station_id":"ce4bh0p2rcd13ifvqd80","pricing_plan_id":"cebpf4jnsgd1na2vs0mg"},{"bike_id":"fb8e4a4d-f8de-4db8-8989-85852a15e58f","system_id":"levelo_inurba_marseille","lat":43.26198,"lon":5.37447,"is_reserved":false,"is_disabled":true,"rental_uris":{"android":"levelo://app?vid=fb8e4a4d-f8de-4db8-8989-85852a15e58f","ios":"levelo://app?vid=fb8e4a4d-f8de-4db8-8989-85852a15e58f"},"vehicle_type_id":"4","last_reported":1747149011,"current_range_meters":400,"station_id":"ce4bhgp2rcd13ifvqfc0","pricing_plan_id":"cebpf4jnsgd1na2vs0mg"},{"bike_id":"fc2577e7-1497-425b-9d4f-ab8d7dc843c6","system_id":"levelo_inurba_marseille","lat":43.33771,"lon":5.37485,"is_reserved":false,"is_disabled":true,"rental_uris":{"android":"levelo://app?vid=fc2577e7-1497-425b-9d4f-ab8d7dc843c6","ios":"levelo://app?vid=fc2577e7-1497-425b-9d4f-ab8d7dc843c6"},"vehicle_type_id":"4","last_reported":1747149011,"current_range_meters":800,"station_id":"","pricing_plan_id":"cebpf4jnsgd1na2vs0mg"},{"bike_id":"1d0c651b-de70-4bcf-b5d5-658a3cab966e","system_id":"levelo_inurba_marseille","lat":43.31079,"lon":5.38348,"is_reserved":false,"is_disabled":true,"rental_uris":{"android":"levelo://app?vid=1d0c651b-de70-4bcf-b5d5-658a3cab966e","ios":"levelo://app?vid=1d0c651b-de70-4bcf-b5d5-658a3cab966e"},"vehicle_type_id":"4","last_reported":1747149011,"current_range_meters":800,"station_id":"ce4bgv92rcd13ifvqcr0","pricing_plan_id":"cebpf4jnsgd1na2vs0mg"},{"bike_id":"5d2a46b2-e6ee-4729-b89e-aa5d20518f80","system_id":"levelo_inurba_marseille","lat":43.27503,"lon":5.42453,"is_reserved":false,"is_disabled":true,"rental_uris":{"android":"levelo://app?vid=5d2a46b2-e6ee-4729-b89e-aa5d20518f80","ios":"levelo://app?vid=5d2a46b2-e6ee-4729-b89e-aa5d20518f80"},"vehicle_type_id":"4","last_reported":1747149011,"current_range_meters":1200,"station_id":"ce4bhn92rcd13ifvqgrg","pricing_plan_id":"cebpf4jnsgd1na2vs0mg"},{"bike_id":"04f38af8-5456-494e-a369-b96a5fb014b8","system_id":"levelo_inurba_marseille","lat":43.30794,"lon":5.38165,"is_reserved":false,"is_disabled":true,"rental_uris":{"android":"levelo://app?vid=04f38af8-5456-494e-a369-b96a5fb014b8","ios":"levelo://app?vid=04f38af8-5456-494e-a369-b96a5fb014b8"},"vehicle_type_id":"4","last_reported":1747149011,"current_range_meters":1600,"station_id":"ce4bgt12rcd13ifvqce0","pricing_plan_id":"cebpf4jnsgd1na2vs0mg"},{"bike_id":"8bda8af9-0535-47bf-a51b-244c6d6594bd","system_id":"levelo_inurba_marseille","lat":43.30655,"lon":5.40102,"is_reserved":false,"is_disabled":true,"rental_uris":{"android":"levelo://app?vid=8bda8af9-0535-47bf-a51b-244c6d6594bd","ios":"levelo://app?vid=8bda8af9-0535-47bf-a51b-244c6d6594bd"},"vehicle_type_id":"4","last_reported":1747149011,"current_range_meters":1600,"station_id":"ce4bh112rcd13ifvqda0","pricing_plan_id":"cebpf4jnsgd1na2vs0mg"},{"bike_id":"a80aecd7-ea7a-4030-92ee-ca81bdbc8bb0","system_id":"levelo_inurba_marseille","lat":43.26194,"lon":5.37448,"is_reserved":false,"is_disabled":true,"rental_uris":{"android":"levelo://app?vid=a80aecd7-ea7a-4030-92ee-ca81bdbc8bb0","ios":"levelo://app?vid=a80aecd7-ea7a-4030-92ee-ca81bdbc8bb0"},"vehicle_type_id":"4","last_reported":1747149011,"current_range_meters":1600,"station_id":"ce4bhgp2rcd13ifvqfc0","pricing_plan_id":"cebpf4jnsgd1na2vs0mg"},{"bike_id":"7ab76b38-563c-4273-bcb7-90df9fad2ca5","system_id":"levelo_inurba_marseille","lat":43.28446,"lon":5.39167,"is_reserved":false,"is_disabled":true,"rental_uris":{"android":"levelo://app?vid=7ab76b38-563c-4273-bcb7-90df9fad2ca5","ios":"levelo://app?vid=7ab76b38-563c-4273-bcb7-90df9fad2ca5"},"vehicle_type_id":"4","last_reported":1747149011,"current_range_meters":1600,"station_id":"ce4bhoh2rcd13ifvqh5g","pricing_plan_id":"cebpf4jnsgd1na2vs0mg"},{"bike_id":"a4f09bc0-c1b3-43d6-a09b-70aa0ea77216","system_id":"levelo_inurba_marseille","lat":43.30136,"lon":5.38794,"is_reserved":false,"is_disabled":true,"rental_uris":{"android":"levelo://app?vid=a4f09bc0-c1b3-43d6-a09b-70aa0ea77216","ios":"levelo://app?vid=a4f09bc0-c1b3-43d6-a09b-70aa0ea77216"},"vehicle_type_id":"4","last_reported":1747149011,"current_range_meters":2000,"station_id":"ce4bghh2rcd13ifvqb60","pricing_plan_id":"cebpf4jnsgd1na2vs0mg"},{"bike_id":"ac383e46-46c6-487d-8aff-3a96862d06de","system_id":"levelo_inurba_marseille","lat":43.30293,"lon":5.37708,"is_reserved":false,"is_disabled":false,"rental_uris":{"android":"levelo://app?vid=ac383e46-46c6-487d-8aff-3a96862d06de","ios":"levelo://app?vid=ac383e46-46c6-487d-8aff-3a96862d06de"},"vehicle_type_id":"4","last_reported":1747149011,"current_range_meters":2000,"station_id":"ce4bguh2rcd13ifvqcj0","pricing_plan_id":"cebpf4jnsgd1na2vs0mg"},{"bike_id":"56c87b39-db49-4d0c-8346-ca1440cbe2a5","system_id":"levelo_inurba_marseille","lat":43.28478,"lon":5.38425,"is_reserved":false,"is_disabled":true,"rental_uris":{"android":"levelo://app?vid=56c87b39-db49-4d0c-8346-ca1440cbe2a5","ios":"levelo://app?vid=56c87b39-db49-4d0c-8346-ca1440cbe2a5"},"vehicle_type_id":"4","last_reported":1747149011,"current_range_meters":2000,"station_id":"ce4bh512rcd13ifvqe3g","pricing_plan_id":"cebpf4jnsgd1na2vs0mg"},{"bike_id":"c30277d1-cc56-4f55-9628-2be239f7aa1f","system_id":"levelo_inurba_marseille","lat":43.28724,"lon":5.37936,"is_reserved":false,"is_disabled":true,"rental_uris":{"android":"levelo://app?vid=c30277d1-cc56-4f55-9628-2be239f7aa1f","ios":"levelo://app?vid=c30277d1-cc56-4f55-9628-2be239f7aa1f"},"vehicle_type_id":"4","last_reported":1747149011,"current_range_meters":2000,"station_id":"ce4bh9p2rcd13ifvqec0","pricing_plan_id":"cebpf4jnsgd1na2vs0mg"},{"bike_id":"f63c10c2-a560-441a-8167-3b249d8f9ac0","system_id":"levelo_inurba_marseille","lat":43.27385,"lon":5.36273,"is_reserved":false,"is_disabled":true,"rental_uris":{"android":"levelo://app?vid=f63c10c2-a560-441a-8167-3b249d8f9ac0","ios":"levelo://app?vid=f63c10c2-a560-441a-8167-3b249d8f9ac0"},"vehicle_type_id":"4","last_reported":1747149011,"current_range_meters":2000,"station_id":"ce4bhbh2rcd13ifvqeo0","pricing_plan_id":"cebpf4jnsgd1na2vs0mg"},{"bike_id":"04d43387-e863-476b-ae17-b62953ab80e4","system_id":"levelo_inurba_marseille","lat":43.27379,"lon":5.36251,"is_reserved":false,"is_disabled":true,"rental_uris":{"android":"levelo://app?vid=04d43387-e863-476b-ae17-b62953ab80e4","ios":"levelo://app?vid=04d43387-e863-476b-ae17-b62953ab80e4"},"vehicle_type_id":"4","last_reported":1747149011,"current_range_meters":2000,"station_id":"ce4bhbh2rcd13ifvqeo0","pricing_plan_id":"cebpf4jnsgd1na2vs0mg"},{"bike_id":"41202ab1-ea38-4d2b-89a2-f636ce6d5690","system_id":"levelo_inurba_marseille","lat":43.27319,"lon":5.39082,"is_reserved":false,"is_disabled":true,"rental_uris":{"android":"levelo://app?vid=41202ab1-ea38-4d2b-89a2-f636ce6d5690","ios":"levelo://app?vid=41202ab1-ea38-4d2b-89a2-f636ce6d5690"},"vehicle_type_id":"4","last_reported":1747149011,"current_range_meters":2000,"station_id":"ce4bhgp2rcd13ifvqfe0","pricing_plan_id":"cebpf4jnsgd1na2vs0mg"},{"bike_id":"6acf9ba8-322b-4c16-9bce-0db6f9486fcd","system_id":"levelo_inurba_marseille","lat":43.30887,"lon":5.39664,"is_reserved":false,"is_disabled":true,"rental_uris":{"android":"levelo://app?vid=6acf9ba8-322b-4c16-9bce-0db6f9486fcd","ios":"levelo://app?vid=6acf9ba8-322b-4c16-9bce-0db6f9486fcd"},"vehicle_type_id":"4","last_reported":1747149011,"current_range_meters":2800,"station_id":"ce4bh012rcd13ifvqcv0","pricing_plan_id":"cebpf4jnsgd1na2vs0mg"},{"bike_id":"963cfef7-2895-4d51-89e2-5fcf5e316f2b","system_id":"levelo_inurba_marseille","lat":43.269322,"lon":5.389226,"is_reserved":false,"is_disabled":false,"rental_uris":{"android":"levelo://app?vid=963cfef7-2895-4d51-89e2-5fcf5e316f2b","ios":"levelo://app?vid=963cfef7-2895-4d51-89e2-5fcf5e316f2b"},"vehicle_type_id":"4","last_reported":1747149011,"current_range_meters":2800,"station_id":"ce4bhhh2rcd13ifvqfl0","pricing_plan_id":"cebpf4jnsgd1na2vs0mg"},{"bike_id":"02e21758-2ae3-402e-b38b-f4a91368cbb6","system_id":"levelo_inurba_marseille","lat":43.304597,"lon":5.379078,"is_reserved":false,"is_disabled":false,"rental_uris":{"android":"levelo://app?vid=02e21758-2ae3-402e-b38b-f4a91368cbb6","ios":"levelo://app?vid=02e21758-2ae3-402e-b38b-f4a91368cbb6"},"vehicle_type_id":"4","last_reported":1747149011,"current_range_meters":3600,"station_id":"ce4bgv92rcd13ifvqcq0","pricing_plan_id":"cebpf4jnsgd1na2vs0mg"},{"bike_id":"5379a556-4311-4f05-96dc-20fa7b7fe785","system_id":"levelo_inurba_marseille","lat":43.26503,"lon":5.39542,"is_reserved":false,"is_disabled":false,"rental_uris":{"android":"levelo://app?vid=5379a556-4311-4f05-96dc-20fa7b7fe785","ios":"levelo://app?vid=5379a556-4311-4f05-96dc-20fa7b7fe785"},"vehicle_type_id":"4","last_reported":1747149011,"current_range_meters":3600,"station_id":"ce4bhi12rcd13ifvqfq0","pricing_plan_id":"cebpf4jnsgd1na2vs0mg"},{"bike_id":"c60a1bdb-bc4c-4360-a4f2-cbb8f0858b45","system_id":"levelo_inurba_marseille","lat":43.302457,"lon":5.400832,"is_reserved":false,"is_disabled":false,"rental_uris":{"android":"levelo://app?vid=c60a1bdb-bc4c-4360-a4f2-cbb8f0858b45","ios":"levelo://app?vid=c60a1bdb-bc4c-4360-a4f2-cbb8f0858b45"},"vehicle_type_id":"4","last_reported":1747149011,"current_range_meters":4000,"station_id":"ce4bgvh2rcd13ifvqcs0","pricing_plan_id":"cebpf4jnsgd1na2vs0mg"},{"bike_id":"409e58cc-b147-45b4-9db8-27d192bd9b5a","system_id":"levelo_inurba_marseille","lat":43.29878,"lon":5.38918,"is_reserved":false,"is_disabled":false,"rental_uris":{"android":"levelo://app?vid=409e58cc-b147-45b4-9db8-27d192bd9b5a","ios":"levelo://app?vid=409e58cc-b147-45b4-9db8-27d192bd9b5a"},"vehicle_type_id":"4","last_reported":1747149011,"current_range_meters":4000,"station_id":"ce4bh392rcd13ifvqdl0","pricing_plan_id":"cebpf4jnsgd1na2vs0mg"},{"bike_id":"bca46486-5c4b-4273-a3ec-733ddac656df","system_id":"levelo_inurba_marseille","lat":43.29793,"lon":5.39358,"is_reserved":false,"is_disabled":false,"rental_uris":{"android":"levelo://app?vid=bca46486-5c4b-4273-a3ec-733ddac656df","ios":"levelo://app?vid=bca46486-5c4b-4273-a3ec-733ddac656df"},"vehicle_type_id":"4","last_reported":1747149011,"current_range_meters":4000,"station_id":"chh1huq6cuj3fo74tm60","pricing_plan_id":"cebpf4jnsgd1na2vs0mg"},{"bike_id":"af3a3e53-4d5a-45b9-9355-bc523c2ddd74","system_id":"levelo_inurba_marseille","lat":43.29217,"lon":5.37511,"is_reserved":false,"is_disabled":false,"rental_uris":{"android":"levelo://app?vid=af3a3e53-4d5a-45b9-9355-bc523c2ddd74","ios":"levelo://app?vid=af3a3e53-4d5a-45b9-9355-bc523c2ddd74"},"vehicle_type_id":"4","last_reported":1747149011,"current_range_meters":4400,"station_id":"","pricing_plan_id":"cebpf4jnsgd1na2vs0mg"},{"bike_id":"50306cb2-7061-4cbb-9248-b8941f0100f9","system_id":"levelo_inurba_marseille","lat":43.304278,"lon":5.38895,"is_reserved":false,"is_disabled":false,"rental_uris":{"android":"levelo://app?vid=50306cb2-7061-4cbb-9248-b8941f0100f9","ios":"levelo://app?vid=50306cb2-7061-4cbb-9248-b8941f0100f9"},"vehicle_type_id":"4","last_reported":1747149011,"current_range_meters":4400,"station_id":"ce4bgop2rcd13ifvqc1g","pricing_plan_id":"cebpf4jnsgd1na2vs0mg"},{"bike_id":"e8a9c6af-aff1-4a12-8988-2b13be8fc4a2","system_id":"levelo_inurba_marseille","lat":43.30653,"lon":5.40099,"is_reserved":false,"is_disabled":false,"rental_uris":{"android":"levelo://app?vid=e8a9c6af-aff1-4a12-8988-2b13be8fc4a2","ios":"levelo://app?vid=e8a9c6af-aff1-4a12-8988-2b13be8fc4a2"},"vehicle_type_id":"4","last_reported":1747149011,"current_range_meters":4400,"station_id":"ce4bh112rcd13ifvqda0","pricing_plan_id":"cebpf4jnsgd1na2vs0mg"},{"bike_id":"e70b8c56-ba2d-445b-8db2-9f469e180e4c","system_id":"levelo_inurba_marseille","lat":43.28111,"lon":5.37828,"is_reserved":false,"is_disabled":false,"rental_uris":{"android":"levelo://app?vid=e70b8c56-ba2d-445b-8db2-9f469e180e4c","ios":"levelo://app?vid=e70b8c56-ba2d-445b-8db2-9f469e180e4c"},"vehicle_type_id":"4","last_reported":1747149011,"current_range_meters":4400,"station_id":"ce4bha12rcd13ifvqee0","pricing_plan_id":"cebpf4jnsgd1na2vs0mg"},{"bike_id":"2f2808f9-72d5-4e29-a4a0-cbbaffbbe57a","system_id":"levelo_inurba_marseille","lat":43.27379,"lon":5.36257,"is_reserved":false,"is_disabled":false,"rental_uris":{"android":"levelo://app?vid=2f2808f9-72d5-4e29-a4a0-cbbaffbbe57a","ios":"levelo://app?vid=2f2808f9-72d5-4e29-a4a0-cbbaffbbe57a"},"vehicle_type_id":"4","last_reported":1747149011,"current_range_meters":4400,"station_id":"ce4bhbh2rcd13ifvqeo0","pricing_plan_id":"cebpf4jnsgd1na2vs0mg"},{"bike_id":"9fd04553-a656-41d9-b56e-086554cc571f","system_id":"levelo_inurba_marseille","lat":43.26211,"lon":5.37477,"is_reserved":false,"is_disabled":false,"rental_uris":{"android":"levelo://app?vid=9fd04553-a656-41d9-b56e-086554cc571f","ios":"levelo://app?vid=9fd04553-a656-41d9-b56e-086554cc571f"},"vehicle_type_id":"4","last_reported":1747149011,"current_range_meters":4400,"station_id":"ce4bhgp2rcd13ifvqfc0","pricing_plan_id":"cebpf4jnsgd1na2vs0mg"},{"bike_id":"50669389-ba3f-491d-a3f0-417fd0876b90","system_id":"levelo_inurba_marseille","lat":43.25876,"lon":5.39893,"is_reserved":false,"is_disabled":false,"rental_uris":{"android":"levelo://app?vid=50669389-ba3f-491d-a3f0-417fd0876b90","ios":"levelo://app?vid=50669389-ba3f-491d-a3f0-417fd0876b90"},"vehicle_type_id":"4","last_reported":1747149011,"current_range_meters":4400,"station_id":"ce4bhl92rcd13ifvqghg","pricing_plan_id":"cebpf4jnsgd1na2vs0mg"},{"bike_id":"269d831b-7232-4169-8305-a0f53422e065","system_id":"levelo_inurba_marseille","lat":43.22519,"lon":5.34764,"is_reserved":false,"is_disabled":false,"rental_uris":{"android":"levelo://app?vid=269d831b-7232-4169-8305-a0f53422e065","ios":"levelo://app?vid=269d831b-7232-4169-8305-a0f53422e065"},"vehicle_type_id":"4","last_reported":1747149011,"current_range_meters":4400,"station_id":"st_cvj5dfep6f1abm77gieg","pricing_plan_id":"cebpf4jnsgd1na2vs0mg"},{"bike_id":"aefb24d2-1db4-4ef1-a56a-b4676bf2b0e5","system_id":"levelo_inurba_marseille","lat":43.265579,"lon":5.372893,"is_reserved":false,"is_disabled":false,"rental_uris":{"android":"levelo://app?vid=aefb24d2-1db4-4ef1-a56a-b4676bf2b0e5","ios":"levelo://app?vid=aefb24d2-1db4-4ef1-a56a-b4676bf2b0e5"},"vehicle_type_id":"4","last_reported":1747149011,"current_range_meters":4800,"station_id":"ce4bhg12rcd13ifvqf70","pricing_plan_id":"cebpf4jnsgd1na2vs0mg"},{"bike_id":"3e1f740a-e853-46fa-b4b1-625fbc032f5c","system_id":"levelo_inurba_marseille","lat":43.28475,"lon":5.38415,"is_reserved":false,"is_disabled":false,"rental_uris":{"android":"levelo://app?vid=3e1f740a-e853-46fa-b4b1-625fbc032f5c","ios":"levelo://app?vid=3e1f740a-e853-46fa-b4b1-625fbc032f5c"},"vehicle_type_id":"4","last_reported":1747149011,"current_range_meters":5600,"station_id":"","pricing_plan_id":"cebpf4jnsgd1na2vs0mg"},{"bike_id":"5781d32e-43eb-4645-abba-437f29b59f65","system_id":"levelo_inurba_marseille","lat":43.297211,"lon":5.377259,"is_reserved":false,"is_disabled":false,"rental_uris":{"android":"levelo://app?vid=5781d32e-43eb-4645-abba-437f29b59f65","ios":"levelo://app?vid=5781d32e-43eb-4645-abba-437f29b59f65"},"vehicle_type_id":"4","last_reported":1747149011,"current_range_meters":5600,"station_id":"ce4bgkh2rcd13ifvqbl0","pricing_plan_id":"cebpf4jnsgd1na2vs0mg"},{"bike_id":"875d6232-14d3-4457-8a55-b5a57b3ab858","system_id":"levelo_inurba_marseille","lat":43.29011,"lon":5.35627,"is_reserved":false,"is_disabled":false,"rental_uris":{"android":"levelo://app?vid=875d6232-14d3-4457-8a55-b5a57b3ab858","ios":"levelo://app?vid=875d6232-14d3-4457-8a55-b5a57b3ab858"},"vehicle_type_id":"4","last_reported":1747149011,"current_range_meters":5600,"station_id":"ce4bhb92rcd13ifvqen0","pricing_plan_id":"cebpf4jnsgd1na2vs0mg"},{"bike_id":"34ccdfeb-1246-4186-97e5-2c975dfdccbf","system_id":"levelo_inurba_marseille","lat":43.29009,"lon":5.35607,"is_reserved":false,"is_disabled":false,"rental_uris":{"android":"levelo://app?vid=34ccdfeb-1246-4186-97e5-2c975dfdccbf","ios":"levelo://app?vid=34ccdfeb-1246-4186-97e5-2c975dfdccbf"},"vehicle_type_id":"4","last_reported":1747149011,"current_range_meters":5600,"station_id":"ce4bhb92rcd13ifvqen0","pricing_plan_id":"cebpf4jnsgd1na2vs0mg"},{"bike_id":"bcbbd9fc-3079-41aa-8382-0794f07512be","system_id":"levelo_inurba_marseille","lat":43.27812,"lon":5.40715,"is_reserved":false,"is_disabled":true,"rental_uris":{"android":"levelo://app?vid=bcbbd9fc-3079-41aa-8382-0794f07512be","ios":"levelo://app?vid=bcbbd9fc-3079-41aa-8382-0794f07512be"},"vehicle_type_id":"4","last_reported":1747149011,"current_range_meters":5600,"station_id":"ce4bhnh2rcd13ifvqgtg","pricing_plan_id":"cebpf4jnsgd1na2vs0mg"},{"bike_id":"aa90f387-49e7-4c83-b578-b096619472ca","system_id":"levelo_inurba_marseille","lat":43.21756,"lon":5.34604,"is_reserved":false,"is_disabled":false,"rental_uris":{"android":"levelo://app?vid=aa90f387-49e7-4c83-b578-b096619472ca","ios":"levelo://app?vid=aa90f387-49e7-4c83-b578-b096619472ca"},"vehicle_type_id":"4","last_reported":1747149011,"current_range_meters":5600,"station_id":"st_cvj6r9ubvosntc0bgbag","pricing_plan_id":"cebpf4jnsgd1na2vs0mg"},{"bike_id":"b03b9851-39d1-4ca4-b6c1-146bddddff7e","system_id":"levelo_inurba_marseille","lat":43.29709,"lon":5.36615,"is_reserved":false,"is_disabled":false,"rental_uris":{"android":"levelo://app?vid=b03b9851-39d1-4ca4-b6c1-146bddddff7e","ios":"levelo://app?vid=b03b9851-39d1-4ca4-b6c1-146bddddff7e"},"vehicle_type_id":"4","last_reported":1747149011,"current_range_meters":6000,"station_id":"ce4bgn12rcd13ifvqbt0","pricing_plan_id":"cebpf4jnsgd1na2vs0mg"},{"bike_id":"4e9b28a0-4617-4360-83f8-701b127bfa5b","system_id":"levelo_inurba_marseille","lat":43.31185,"lon":5.38715,"is_reserved":false,"is_disabled":false,"rental_uris":{"android":"levelo://app?vid=4e9b28a0-4617-4360-83f8-701b127bfa5b","ios":"levelo://app?vid=4e9b28a0-4617-4360-83f8-701b127bfa5b"},"vehicle_type_id":"4","last_reported":1747149011,"current_range_meters":6000,"station_id":"ce4bgv12rcd13ifvqcp0","pricing_plan_id":"cebpf4jnsgd1na2vs0mg"},{"bike_id":"831aa21e-7eed-48a7-8fee-11df5950f587","system_id":"levelo_inurba_marseille","lat":43.28418,"lon":5.35007,"is_reserved":false,"is_disabled":false,"rental_uris":{"android":"levelo://app?vid=831aa21e-7eed-48a7-8fee-11df5950f587","ios":"levelo://app?vid=831aa21e-7eed-48a7-8fee-11df5950f587"},"vehicle_type_id":"4","last_reported":1747149011,"current_range_meters":6000,"station_id":"ce4bhbh2rcd13ifvqepg","pricing_plan_id":"cebpf4jnsgd1na2vs0mg"},{"bike_id":"6c70c643-6831-44b1-9fa2-9c2bf1447a5b","system_id":"levelo_inurba_marseille","lat":43.28448,"lon":5.39202,"is_reserved":false,"is_disabled":false,"rental_uris":{"android":"levelo://app?vid=6c70c643-6831-44b1-9fa2-9c2bf1447a5b","ios":"levelo://app?vid=6c70c643-6831-44b1-9fa2-9c2bf1447a5b"},"vehicle_type_id":"4","last_reported":1747149011,"current_range_meters":6000,"station_id":"ce4bhoh2rcd13ifvqh5g","pricing_plan_id":"cebpf4jnsgd1na2vs0mg"},{"bike_id":"f7109709-dbc7-4dec-8657-a6e6ad1ac787","system_id":"levelo_inurba_marseille","lat":43.270642,"lon":5.402593,"is_reserved":false,"is_disabled":false,"rental_uris":{"android":"levelo://app?vid=f7109709-dbc7-4dec-8657-a6e6ad1ac787","ios":"levelo://app?vid=f7109709-dbc7-4dec-8657-a6e6ad1ac787"},"vehicle_type_id":"4","last_reported":1747149011,"current_range_meters":6400,"station_id":"ce4bhk92rcd13ifvqgb0","pricing_plan_id":"cebpf4jnsgd1na2vs0mg"},{"bike_id":"ca22e09a-a9e7-4bd5-a92d-3278c3f88c17","system_id":"levelo_inurba_marseille","lat":43.24567,"lon":5.39524,"is_reserved":false,"is_disabled":false,"rental_uris":{"android":"levelo://app?vid=ca22e09a-a9e7-4bd5-a92d-3278c3f88c17","ios":"levelo://app?vid=ca22e09a-a9e7-4bd5-a92d-3278c3f88c17"},"vehicle_type_id":"4","last_reported":1747149011,"current_range_meters":6400,"station_id":"ce4bhlp2rcd13ifvqgjg","pricing_plan_id":"cebpf4jnsgd1na2vs0mg"},{"bike_id":"2220dc6f-d88d-4d10-9f5e-2fc8ce013411","system_id":"levelo_inurba_marseille","lat":43.323419,"lon":5.406294,"is_reserved":false,"is_disabled":false,"rental_uris":{"android":"levelo://app?vid=2220dc6f-d88d-4d10-9f5e-2fc8ce013411","ios":"levelo://app?vid=2220dc6f-d88d-4d10-9f5e-2fc8ce013411"},"vehicle_type_id":"4","last_reported":1747149011,"current_range_meters":6400,"station_id":"ce4bhq92rcd13ifvqhjg","pricing_plan_id":"cebpf4jnsgd1na2vs0mg"},{"bike_id":"2934cff5-6f3f-4f6c-ad6d-eacd14c64770","system_id":"levelo_inurba_marseille","lat":43.31491,"lon":5.37306,"is_reserved":false,"is_disabled":false,"rental_uris":{"android":"levelo://app?vid=2934cff5-6f3f-4f6c-ad6d-eacd14c64770","ios":"levelo://app?vid=2934cff5-6f3f-4f6c-ad6d-eacd14c64770"},"vehicle_type_id":"4","last_reported":1747149011,"current_range_meters":6800,"station_id":"ce4bgt12rcd13ifvqcd0","pricing_plan_id":"cebpf4jnsgd1na2vs0mg"},{"bike_id":"6aa923f6-f361-4b78-9858-6abd832ea3a8","system_id":"levelo_inurba_marseille","lat":43.24389,"lon":5.37062,"is_reserved":false,"is_disabled":false,"rental_uris":{"android":"levelo://app?vid=6aa923f6-f361-4b78-9858-6abd832ea3a8","ios":"levelo://app?vid=6aa923f6-f361-4b78-9858-6abd832ea3a8"},"vehicle_type_id":"4","last_reported":1747149011,"current_range_meters":6800,"station_id":"ce4bhhh2rcd13ifvqfk0","pricing_plan_id":"cebpf4jnsgd1na2vs0mg"},{"bike_id":"01c28854-6c3e-4fe6-846d-e8723809c7f9","system_id":"levelo_inurba_marseille","lat":43.28151,"lon":5.42637,"is_reserved":false,"is_disabled":false,"rental_uris":{"android":"levelo://app?vid=01c28854-6c3e-4fe6-846d-e8723809c7f9","ios":"levelo://app?vid=01c28854-6c3e-4fe6-846d-e8723809c7f9"},"vehicle_type_id":"4","last_reported":1747149011,"current_range_meters":6800,"station_id":"ce4bhnh2rcd13ifvqgug","pricing_plan_id":"cebpf4jnsgd1na2vs0mg"},{"bike_id":"756c4952-b764-4b32-a854-e5a21ceb0230","system_id":"levelo_inurba_marseille","lat":43.323699,"lon":5.388875,"is_reserved":false,"is_disabled":false,"rental_uris":{"android":"levelo://app?vid=756c4952-b764-4b32-a854-e5a21ceb0230","ios":"levelo://app?vid=756c4952-b764-4b32-a854-e5a21ceb0230"},"vehicle_type_id":"4","last_reported":1747149011,"current_range_meters":6800,"station_id":"ce4bhqp2rcd13ifvqhog","pricing_plan_id":"cebpf4jnsgd1na2vs0mg"},{"bike_id":"74795a7c-45fc-4b29-b5e3-e55edd562156","system_id":"levelo_inurba_marseille","lat":43.2957,"lon":5.378,"is_reserved":false,"is_disabled":false,"rental_uris":{"android":"levelo://app?vid=74795a7c-45fc-4b29-b5e3-e55edd562156","ios":"levelo://app?vid=74795a7c-45fc-4b29-b5e3-e55edd562156"},"vehicle_type_id":"4","last_reported":1747149011,"current_range_meters":7200,"station_id":"","pricing_plan_id":"cebpf4jnsgd1na2vs0mg"},{"bike_id":"e820b74f-0e3b-4be4-88a1-0de4d9301852","system_id":"levelo_inurba_marseille","lat":43.30875,"lon":5.39653,"is_reserved":false,"is_disabled":false,"rental_uris":{"android":"levelo://app?vid=e820b74f-0e3b-4be4-88a1-0de4d9301852","ios":"levelo://app?vid=e820b74f-0e3b-4be4-88a1-0de4d9301852"},"vehicle_type_id":"4","last_reported":1747149011,"current_range_meters":7200,"station_id":"ce4bh012rcd13ifvqcv0","pricing_plan_id":"cebpf4jnsgd1na2vs0mg"},{"bike_id":"06d3fe83-9ea2-4663-b60c-b2fd39baac80","system_id":"levelo_inurba_marseille","lat":43.27379,"lon":5.36259,"is_reserved":false,"is_disabled":false,"rental_uris":{"android":"levelo://app?vid=06d3fe83-9ea2-4663-b60c-b2fd39baac80","ios":"levelo://app?vid=06d3fe83-9ea2-4663-b60c-b2fd39baac80"},"vehicle_type_id":"4","last_reported":1747149011,"current_range_meters":7200,"station_id":"ce4bhbh2rcd13ifvqeo0","pricing_plan_id":"cebpf4jnsgd1na2vs0mg"},{"bike_id":"003090df-6895-4de7-af01-bda004a852d8","system_id":"levelo_inurba_marseille","lat":43.28622,"lon":5.35103,"is_reserved":false,"is_disabled":false,"rental_uris":{"android":"levelo://app?vid=003090df-6895-4de7-af01-bda004a852d8","ios":"levelo://app?vid=003090df-6895-4de7-af01-bda004a852d8"},"vehicle_type_id":"4","last_reported":1747149011,"current_range_meters":7200,"station_id":"ce4bhch2rcd13ifvqeug","pricing_plan_id":"cebpf4jnsgd1na2vs0mg"},{"bike_id":"07cc954e-cb06-45cb-b4bc-f61aaeba5fad","system_id":"levelo_inurba_marseille","lat":43.2791,"lon":5.39579,"is_reserved":false,"is_disabled":false,"rental_uris":{"android":"levelo://app?vid=07cc954e-cb06-45cb-b4bc-f61aaeba5fad","ios":"levelo://app?vid=07cc954e-cb06-45cb-b4bc-f61aaeba5fad"},"vehicle_type_id":"4","last_reported":1747149011,"current_range_meters":7200,"station_id":"ce4bhf92rcd13ifvqf40","pricing_plan_id":"cebpf4jnsgd1na2vs0mg"},{"bike_id":"225ed4bd-f4b9-4457-a994-c8edf36d7f7b","system_id":"levelo_inurba_marseille","lat":43.254975,"lon":5.376478,"is_reserved":false,"is_disabled":false,"rental_uris":{"android":"levelo://app?vid=225ed4bd-f4b9-4457-a994-c8edf36d7f7b","ios":"levelo://app?vid=225ed4bd-f4b9-4457-a994-c8edf36d7f7b"},"vehicle_type_id":"4","last_reported":1747149011,"current_range_meters":7200,"station_id":"ce4bhh12rcd13ifvqff0","pricing_plan_id":"cebpf4jnsgd1na2vs0mg"},{"bike_id":"22b5b891-f9dc-4849-9cb7-652e4944e601","system_id":"levelo_inurba_marseille","lat":43.27813,"lon":5.40704,"is_reserved":false,"is_disabled":false,"rental_uris":{"android":"levelo://app?vid=22b5b891-f9dc-4849-9cb7-652e4944e601","ios":"levelo://app?vid=22b5b891-f9dc-4849-9cb7-652e4944e601"},"vehicle_type_id":"4","last_reported":1747149011,"current_range_meters":7200,"station_id":"ce4bhnh2rcd13ifvqgtg","pricing_plan_id":"cebpf4jnsgd1na2vs0mg"},{"bike_id":"c9ac0e7c-f683-4da8-a794-4a1849e7621c","system_id":"levelo_inurba_marseille","lat":43.28083,"lon":5.39661,"is_reserved":false,"is_disabled":false,"rental_uris":{"android":"levelo://app?vid=c9ac0e7c-f683-4da8-a794-4a1849e7621c","ios":"levelo://app?vid=c9ac0e7c-f683-4da8-a794-4a1849e7621c"},"vehicle_type_id":"4","last_reported":1747149011,"current_range_meters":7200,"station_id":"ce4bho12rcd13ifvqh2g","pricing_plan_id":"cebpf4jnsgd1na2vs0mg"},{"bike_id":"2ee4d910-0ee1-4bc5-86c8-c77afad12b4f","system_id":"levelo_inurba_marseille","lat":43.321213,"lon":5.367621,"is_reserved":false,"is_disabled":false,"rental_uris":{"android":"levelo://app?vid=2ee4d910-0ee1-4bc5-86c8-c77afad12b4f","ios":"levelo://app?vid=2ee4d910-0ee1-4bc5-86c8-c77afad12b4f"},"vehicle_type_id":"4","last_reported":1747149011,"current_range_meters":7200,"station_id":"ce4bhrh2rcd13ifvqhug","pricing_plan_id":"cebpf4jnsgd1na2vs0mg"},{"bike_id":"aa2a46b0-b808-4bfe-8b6f-408052d6b53e","system_id":"levelo_inurba_marseille","lat":43.29978,"lon":5.38487,"is_reserved":false,"is_disabled":false,"rental_uris":{"android":"levelo://app?vid=aa2a46b0-b808-4bfe-8b6f-408052d6b53e","ios":"levelo://app?vid=aa2a46b0-b808-4bfe-8b6f-408052d6b53e"},"vehicle_type_id":"4","last_reported":1747149011,"current_range_meters":8000,"station_id":"ce4bgj92rcd13ifvqbd0","pricing_plan_id":"cebpf4jnsgd1na2vs0mg"},{"bike_id":"a215a12d-68af-419b-9220-bd2e8c6cb13a","system_id":"levelo_inurba_marseille","lat":43.254956,"lon":5.376524,"is_reserved":false,"is_disabled":false,"rental_uris":{"android":"levelo://app?vid=a215a12d-68af-419b-9220-bd2e8c6cb13a","ios":"levelo://app?vid=a215a12d-68af-419b-9220-bd2e8c6cb13a"},"vehicle_type_id":"4","last_reported":1747149011,"current_range_meters":8000,"station_id":"ce4bhh12rcd13ifvqff0","pricing_plan_id":"cebpf4jnsgd1na2vs0mg"},{"bike_id":"3223355a-1d4e-43e6-8a51-d9326749043f","system_id":"levelo_inurba_marseille","lat":43.23967,"lon":5.36636,"is_reserved":false,"is_disabled":false,"rental_uris":{"android":"levelo://app?vid=3223355a-1d4e-43e6-8a51-d9326749043f","ios":"levelo://app?vid=3223355a-1d4e-43e6-8a51-d9326749043f"},"vehicle_type_id":"4","last_reported":1747149011,"current_range_meters":8000,"station_id":"ce4bhi12rcd13ifvqfp0","pricing_plan_id":"cebpf4jnsgd1na2vs0mg"},{"bike_id":"095038c5-171b-47aa-b452-ea84e255eace","system_id":"levelo_inurba_marseille","lat":43.32485,"lon":5.36572,"is_reserved":false,"is_disabled":false,"rental_uris":{"android":"levelo://app?vid=095038c5-171b-47aa-b452-ea84e255eace","ios":"levelo://app?vid=095038c5-171b-47aa-b452-ea84e255eace"},"vehicle_type_id":"4","last_reported":1747149011,"current_range_meters":8000,"station_id":"ce4bhs12rcd13ifvqhvg","pricing_plan_id":"cebpf4jnsgd1na2vs0mg"},{"bike_id":"a4f36c93-2d52-402b-812b-36540d308604","system_id":"levelo_inurba_marseille","lat":43.29581,"lon":5.3675,"is_reserved":false,"is_disabled":false,"rental_uris":{"android":"levelo://app?vid=a4f36c93-2d52-402b-812b-36540d308604","ios":"levelo://app?vid=a4f36c93-2d52-402b-812b-36540d308604"},"vehicle_type_id":"4","last_reported":1747149011,"current_range_meters":8400,"station_id":"ce4bgph2rcd13ifvqc2g","pricing_plan_id":"cebpf4jnsgd1na2vs0mg"},{"bike_id":"ca8021bf-8b74-416c-8235-ce4c40fef47a","system_id":"levelo_inurba_marseille","lat":43.286621,"lon":5.363724,"is_reserved":false,"is_disabled":false,"rental_uris":{"android":"levelo://app?vid=ca8021bf-8b74-416c-8235-ce4c40fef47a","ios":"levelo://app?vid=ca8021bf-8b74-416c-8235-ce4c40fef47a"},"vehicle_type_id":"4","last_reported":1747149011,"current_range_meters":8400,"station_id":"ce4bhah2rcd13ifvqej0","pricing_plan_id":"cebpf4jnsgd1na2vs0mg"},{"bike_id":"8af0f37f-91d0-4a8f-90fb-768ce0af8917","system_id":"levelo_inurba_marseille","lat":43.27176,"lon":5.40997,"is_reserved":false,"is_disabled":false,"rental_uris":{"android":"levelo://app?vid=8af0f37f-91d0-4a8f-90fb-768ce0af8917","ios":"levelo://app?vid=8af0f37f-91d0-4a8f-90fb-768ce0af8917"},"vehicle_type_id":"4","last_reported":1747149011,"current_range_meters":8400,"station_id":"ce4bhl12rcd13ifvqgf0","pricing_plan_id":"cebpf4jnsgd1na2vs0mg"},{"bike_id":"ff803671-7258-463a-beda-53a6c1d01120","system_id":"levelo_inurba_marseille","lat":43.24167,"lon":5.36404,"is_reserved":false,"is_disabled":false,"rental_uris":{"android":"levelo://app?vid=ff803671-7258-463a-beda-53a6c1d01120","ios":"levelo://app?vid=ff803671-7258-463a-beda-53a6c1d01120"},"vehicle_type_id":"4","last_reported":1747149011,"current_range_meters":8400,"station_id":"cpo36qri1sfpv3e86is0","pricing_plan_id":"cebpf4jnsgd1na2vs0mg"},{"bike_id":"f69a4cf6-aed6-4274-ac64-24c37e09d6f8","system_id":"levelo_inurba_marseille","lat":43.30187,"lon":5.36627,"is_reserved":false,"is_disabled":false,"rental_uris":{"android":"levelo://app?vid=f69a4cf6-aed6-4274-ac64-24c37e09d6f8","ios":"levelo://app?vid=f69a4cf6-aed6-4274-ac64-24c37e09d6f8"},"vehicle_type_id":"4","last_reported":1747149011,"current_range_meters":8800,"station_id":"ce4bgrh2rcd13ifvqc8g","pricing_plan_id":"cebpf4jnsgd1na2vs0mg"},{"bike_id":"c9732978-cbd1-4d97-933b-c3f0d8c2fdc3","system_id":"levelo_inurba_marseille","lat":43.24651,"lon":5.38889,"is_reserved":false,"is_disabled":false,"rental_uris":{"android":"levelo://app?vid=c9732978-cbd1-4d97-933b-c3f0d8c2fdc3","ios":"levelo://app?vid=c9732978-cbd1-4d97-933b-c3f0d8c2fdc3"},"vehicle_type_id":"4","last_reported":1747149011,"current_range_meters":8800,"station_id":"ce4bhg12rcd13ifvqf60","pricing_plan_id":"cebpf4jnsgd1na2vs0mg"},{"bike_id":"a9fef8cd-2d29-4882-a062-a7c128ee28a2","system_id":"levelo_inurba_marseille","lat":43.26196,"lon":5.37459,"is_reserved":false,"is_disabled":false,"rental_uris":{"android":"levelo://app?vid=a9fef8cd-2d29-4882-a062-a7c128ee28a2","ios":"levelo://app?vid=a9fef8cd-2d29-4882-a062-a7c128ee28a2"},"vehicle_type_id":"4","last_reported":1747149011,"current_range_meters":8800,"station_id":"ce4bhgp2rcd13ifvqfc0","pricing_plan_id":"cebpf4jnsgd1na2vs0mg"},{"bike_id":"0bb2c9ac-7679-4915-9df0-aa0855c6e6b0","system_id":"levelo_inurba_marseille","lat":43.28724,"lon":5.36079,"is_reserved":false,"is_disabled":false,"rental_uris":{"android":"levelo://app?vid=0bb2c9ac-7679-4915-9df0-aa0855c6e6b0","ios":"levelo://app?vid=0bb2c9ac-7679-4915-9df0-aa0855c6e6b0"},"vehicle_type_id":"4","last_reported":1747149011,"current_range_meters":8800,"station_id":"cki0cbj6b192h4jlfktg","pricing_plan_id":"cebpf4jnsgd1na2vs0mg"},{"bike_id":"b70d1dde-2432-48a5-aae6-5a993582c371","system_id":"levelo_inurba_marseille","lat":43.29873,"lon":5.38909,"is_reserved":false,"is_disabled":false,"rental_uris":{"android":"levelo://app?vid=b70d1dde-2432-48a5-aae6-5a993582c371","ios":"levelo://app?vid=b70d1dde-2432-48a5-aae6-5a993582c371"},"vehicle_type_id":"4","last_reported":1747149011,"current_range_meters":9200,"station_id":"ce4bh392rcd13ifvqdl0","pricing_plan_id":"cebpf4jnsgd1na2vs0mg"},{"bike_id":"a8ab5e85-b914-4051-884d-39573baac9d9","system_id":"levelo_inurba_marseille","lat":43.28385,"lon":5.38659,"is_reserved":false,"is_disabled":false,"rental_uris":{"android":"levelo://app?vid=a8ab5e85-b914-4051-884d-39573baac9d9","ios":"levelo://app?vid=a8ab5e85-b914-4051-884d-39573baac9d9"},"vehicle_type_id":"4","last_reported":1747149011,"current_range_meters":9200,"station_id":"ce4bh492rcd13ifvqdvg","pricing_plan_id":"cebpf4jnsgd1na2vs0mg"},{"bike_id":"bf350630-ab85-4577-857e-2c784c1acf58","system_id":"levelo_inurba_marseille","lat":43.28109,"lon":5.37846,"is_reserved":false,"is_disabled":false,"rental_uris":{"android":"levelo://app?vid=bf350630-ab85-4577-857e-2c784c1acf58","ios":"levelo://app?vid=bf350630-ab85-4577-857e-2c784c1acf58"},"vehicle_type_id":"4","last_reported":1747149011,"current_range_meters":9200,"station_id":"ce4bha12rcd13ifvqee0","pricing_plan_id":"cebpf4jnsgd1na2vs0mg"},{"bike_id":"f9e3b1b8-d602-49c1-94db-4f5939f08229","system_id":"levelo_inurba_marseille","lat":43.28937,"lon":5.36643,"is_reserved":false,"is_disabled":false,"rental_uris":{"android":"levelo://app?vid=f9e3b1b8-d602-49c1-94db-4f5939f08229","ios":"levelo://app?vid=f9e3b1b8-d602-49c1-94db-4f5939f08229"},"vehicle_type_id":"4","last_reported":1747149011,"current_range_meters":9200,"station_id":"ce4bhap2rcd13ifvqek0","pricing_plan_id":"cebpf4jnsgd1na2vs0mg"},{"bike_id":"9f4520be-12fd-46c0-9614-3fed53db649a","system_id":"levelo_inurba_marseille","lat":43.28278,"lon":5.3507,"is_reserved":false,"is_disabled":false,"rental_uris":{"android":"levelo://app?vid=9f4520be-12fd-46c0-9614-3fed53db649a","ios":"levelo://app?vid=9f4520be-12fd-46c0-9614-3fed53db649a"},"vehicle_type_id":"4","last_reported":1747149011,"current_range_meters":9200,"station_id":"ce4bhbp2rcd13ifvqerg","pricing_plan_id":"cebpf4jnsgd1na2vs0mg"},{"bike_id":"5de7701c-b453-458c-8c11-6fc6a7a6118a","system_id":"levelo_inurba_marseille","lat":43.2862,"lon":5.351,"is_reserved":false,"is_disabled":false,"rental_uris":{"android":"levelo://app?vid=5de7701c-b453-458c-8c11-6fc6a7a6118a","ios":"levelo://app?vid=5de7701c-b453-458c-8c11-6fc6a7a6118a"},"vehicle_type_id":"4","last_reported":1747149011,"current_range_meters":9200,"station_id":"ce4bhch2rcd13ifvqeug","pricing_plan_id":"cebpf4jnsgd1na2vs0mg"},{"bike_id":"2693847c-c460-40a9-82f3-072a7e4fa9c7","system_id":"levelo_inurba_marseille","lat":43.28606,"lon":5.370753,"is_reserved":false,"is_disabled":false,"rental_uris":{"android":"levelo://app?vid=2693847c-c460-40a9-82f3-072a7e4fa9c7","ios":"levelo://app?vid=2693847c-c460-40a9-82f3-072a7e4fa9c7"},"vehicle_type_id":"4","last_reported":1747149011,"current_range_meters":9200,"station_id":"ce4bhf92rcd13ifvqf50","pricing_plan_id":"cebpf4jnsgd1na2vs0mg"},{"bike_id":"5aedcd95-1d73-4a7f-90ed-fd1a12b97e28","system_id":"levelo_inurba_marseille","lat":43.27056,"lon":5.40263,"is_reserved":false,"is_disabled":false,"rental_uris":{"android":"levelo://app?vid=5aedcd95-1d73-4a7f-90ed-fd1a12b97e28","ios":"levelo://app?vid=5aedcd95-1d73-4a7f-90ed-fd1a12b97e28"},"vehicle_type_id":"4","last_reported":1747149011,"current_range_meters":9200,"station_id":"ce4bhk92rcd13ifvqgc0","pricing_plan_id":"cebpf4jnsgd1na2vs0mg"},{"bike_id":"e12e4ef7-72ca-4ac4-8e5a-005976a54293","system_id":"levelo_inurba_marseille","lat":43.29011,"lon":5.35607,"is_reserved":false,"is_disabled":false,"rental_uris":{"android":"levelo://app?vid=e12e4ef7-72ca-4ac4-8e5a-005976a54293","ios":"levelo://app?vid=e12e4ef7-72ca-4ac4-8e5a-005976a54293"},"vehicle_type_id":"4","last_reported":1747149011,"current_range_meters":9600,"station_id":"ce4bhb92rcd13ifvqen0","pricing_plan_id":"cebpf4jnsgd1na2vs0mg"},{"bike_id":"710552c6-827c-4014-b6a4-cdffe4bbed7d","system_id":"levelo_inurba_marseille","lat":43.26557,"lon":5.37279,"is_reserved":false,"is_disabled":false,"rental_uris":{"android":"levelo://app?vid=710552c6-827c-4014-b6a4-cdffe4bbed7d","ios":"levelo://app?vid=710552c6-827c-4014-b6a4-cdffe4bbed7d"},"vehicle_type_id":"4","last_reported":1747149011,"current_range_meters":9600,"station_id":"ce4bhg12rcd13ifvqf70","pricing_plan_id":"cebpf4jnsgd1na2vs0mg"},{"bike_id":"134dfd21-e84e-4a7f-be82-8461578a0be7","system_id":"levelo_inurba_marseille","lat":43.2656,"lon":5.37287,"is_reserved":false,"is_disabled":false,"rental_uris":{"android":"levelo://app?vid=134dfd21-e84e-4a7f-be82-8461578a0be7","ios":"levelo://app?vid=134dfd21-e84e-4a7f-be82-8461578a0be7"},"vehicle_type_id":"4","last_reported":1747149011,"current_range_meters":9600,"station_id":"ce4bhg12rcd13ifvqf70","pricing_plan_id":"cebpf4jnsgd1na2vs0mg"},{"bike_id":"0e89a721-196d-4572-b905-e39e1dafff7a","system_id":"levelo_inurba_marseille","lat":43.32116,"lon":5.36798,"is_reserved":false,"is_disabled":false,"rental_uris":{"android":"levelo://app?vid=0e89a721-196d-4572-b905-e39e1dafff7a","ios":"levelo://app?vid=0e89a721-196d-4572-b905-e39e1dafff7a"},"vehicle_type_id":"4","last_reported":1747149011,"current_range_meters":9600,"station_id":"ce4bhrh2rcd13ifvqhug","pricing_plan_id":"cebpf4jnsgd1na2vs0mg"},{"bike_id":"61e5b0aa-cac1-4aca-9164-580d32f9ed61","system_id":"levelo_inurba_marseille","lat":43.280783,"lon":5.396398,"is_reserved":false,"is_disabled":false,"rental_uris":{"android":"levelo://app?vid=61e5b0aa-cac1-4aca-9164-580d32f9ed61","ios":"levelo://app?vid=61e5b0aa-cac1-4aca-9164-580d32f9ed61"},"vehicle_type_id":"4","last_reported":1747149011,"current_range_meters":10000,"station_id":"","pricing_plan_id":"cebpf4jnsgd1na2vs0mg"},{"bike_id":"f2d1ebb4-3c54-427d-a186-6aea5993ad7d","system_id":"levelo_inurba_marseille","lat":43.31177,"lon":5.38707,"is_reserved":false,"is_disabled":false,"rental_uris":{"android":"levelo://app?vid=f2d1ebb4-3c54-427d-a186-6aea5993ad7d","ios":"levelo://app?vid=f2d1ebb4-3c54-427d-a186-6aea5993ad7d"},"vehicle_type_id":"4","last_reported":1747149011,"current_range_meters":10000,"station_id":"ce4bgv12rcd13ifvqcp0","pricing_plan_id":"cebpf4jnsgd1na2vs0mg"},{"bike_id":"cdc8b3ec-43c3-4426-94aa-6f58b9135fcc","system_id":"levelo_inurba_marseille","lat":43.29869,"lon":5.39741,"is_reserved":false,"is_disabled":false,"rental_uris":{"android":"levelo://app?vid=cdc8b3ec-43c3-4426-94aa-6f58b9135fcc","ios":"levelo://app?vid=cdc8b3ec-43c3-4426-94aa-6f58b9135fcc"},"vehicle_type_id":"4","last_reported":1747149011,"current_range_meters":10000,"station_id":"ce4bh0h2rcd13ifvqd50","pricing_plan_id":"cebpf4jnsgd1na2vs0mg"},{"bike_id":"27994014-45b8-4b29-9e0b-f874a482fc95","system_id":"levelo_inurba_marseille","lat":43.25598,"lon":5.38213,"is_reserved":false,"is_disabled":false,"rental_uris":{"android":"levelo://app?vid=27994014-45b8-4b29-9e0b-f874a482fc95","ios":"levelo://app?vid=27994014-45b8-4b29-9e0b-f874a482fc95"},"vehicle_type_id":"4","last_reported":1747149011,"current_range_meters":10000,"station_id":"ce4bhih2rcd13ifvqfs0","pricing_plan_id":"cebpf4jnsgd1na2vs0mg"},{"bike_id":"d842b4d3-0a9b-4056-9366-feb3f0b7009c","system_id":"levelo_inurba_marseille","lat":43.32276,"lon":5.41237,"is_reserved":false,"is_disabled":false,"rental_uris":{"android":"levelo://app?vid=d842b4d3-0a9b-4056-9366-feb3f0b7009c","ios":"levelo://app?vid=d842b4d3-0a9b-4056-9366-feb3f0b7009c"},"vehicle_type_id":"4","last_reported":1747149011,"current_range_meters":10800,"station_id":"","pricing_plan_id":"cebpf4jnsgd1na2vs0mg"},{"bike_id":"0c7d0175-204c-44ab-8b88-6fea13071089","system_id":"levelo_inurba_marseille","lat":43.28263,"lon":5.35057,"is_reserved":false,"is_disabled":false,"rental_uris":{"android":"levelo://app?vid=0c7d0175-204c-44ab-8b88-6fea13071089","ios":"levelo://app?vid=0c7d0175-204c-44ab-8b88-6fea13071089"},"vehicle_type_id":"4","last_reported":1747149011,"current_range_meters":10800,"station_id":"ce4bhbp2rcd13ifvqerg","pricing_plan_id":"cebpf4jnsgd1na2vs0mg"},{"bike_id":"8d28c2e4-267a-4e7d-9b2f-cb40e8db127d","system_id":"levelo_inurba_marseille","lat":43.26933,"lon":5.38921,"is_reserved":false,"is_disabled":false,"rental_uris":{"android":"levelo://app?vid=8d28c2e4-267a-4e7d-9b2f-cb40e8db127d","ios":"levelo://app?vid=8d28c2e4-267a-4e7d-9b2f-cb40e8db127d"},"vehicle_type_id":"4","last_reported":1747149011,"current_range_meters":10800,"station_id":"ce4bhhh2rcd13ifvqfl0","pricing_plan_id":"cebpf4jnsgd1na2vs0mg"},{"bike_id":"94377c4a-ae7b-4f10-ab0c-f81495930bb0","system_id":"levelo_inurba_marseille","lat":43.27945,"lon":5.41062,"is_reserved":false,"is_disabled":false,"rental_uris":{"android":"levelo://app?vid=94377c4a-ae7b-4f10-ab0c-f81495930bb0","ios":"levelo://app?vid=94377c4a-ae7b-4f10-ab0c-f81495930bb0"},"vehicle_type_id":"4","last_reported":1747149011,"current_range_meters":10800,"station_id":"ce4bhnp2rcd13ifvqh0g","pricing_plan_id":"cebpf4jnsgd1na2vs0mg"},{"bike_id":"5154b202-3f43-41d5-ada9-6da52b99c2d3","system_id":"levelo_inurba_marseille","lat":43.269348,"lon":5.402581,"is_reserved":false,"is_disabled":false,"rental_uris":{"android":"levelo://app?vid=5154b202-3f43-41d5-ada9-6da52b99c2d3","ios":"levelo://app?vid=5154b202-3f43-41d5-ada9-6da52b99c2d3"},"vehicle_type_id":"4","last_reported":1747149011,"current_range_meters":10800,"station_id":"cjm6bp8fraef2m0cb0m0","pricing_plan_id":"cebpf4jnsgd1na2vs0mg"},{"bike_id":"b196a7c2-ea26-4b9a-99fe-6e3562b7fc13","system_id":"levelo_inurba_marseille","lat":43.30538,"lon":5.3652,"is_reserved":false,"is_disabled":false,"rental_uris":{"android":"levelo://app?vid=b196a7c2-ea26-4b9a-99fe-6e3562b7fc13","ios":"levelo://app?vid=b196a7c2-ea26-4b9a-99fe-6e3562b7fc13"},"vehicle_type_id":"4","last_reported":1747149011,"current_range_meters":11200,"station_id":"ce4bgs12rcd13ifvqcag","pricing_plan_id":"cebpf4jnsgd1na2vs0mg"},{"bike_id":"3fe0b462-ae65-41c4-8dbd-633cfde38333","system_id":"levelo_inurba_marseille","lat":43.28365,"lon":5.38113,"is_reserved":false,"is_disabled":false,"rental_uris":{"android":"levelo://app?vid=3fe0b462-ae65-41c4-8dbd-633cfde38333","ios":"levelo://app?vid=3fe0b462-ae65-41c4-8dbd-633cfde38333"},"vehicle_type_id":"4","last_reported":1747149011,"current_range_meters":11200,"station_id":"ce4bh412rcd13ifvqdr0","pricing_plan_id":"cebpf4jnsgd1na2vs0mg"},{"bike_id":"a9b44846-92d5-4737-a65d-9a6acf8fe552","system_id":"levelo_inurba_marseille","lat":43.28977,"lon":5.35581,"is_reserved":false,"is_disabled":false,"rental_uris":{"android":"levelo://app?vid=a9b44846-92d5-4737-a65d-9a6acf8fe552","ios":"levelo://app?vid=a9b44846-92d5-4737-a65d-9a6acf8fe552"},"vehicle_type_id":"4","last_reported":1747149011,"current_range_meters":11200,"station_id":"ce4bhb92rcd13ifvqen0","pricing_plan_id":"cebpf4jnsgd1na2vs0mg"},{"bike_id":"c16e4e1f-c147-4e8f-a33c-812de28b3550","system_id":"levelo_inurba_marseille","lat":43.27993,"lon":5.41668,"is_reserved":false,"is_disabled":false,"rental_uris":{"android":"levelo://app?vid=c16e4e1f-c147-4e8f-a33c-812de28b3550","ios":"levelo://app?vid=c16e4e1f-c147-4e8f-a33c-812de28b3550"},"vehicle_type_id":"4","last_reported":1747149011,"current_range_meters":11200,"station_id":"ce4bho12rcd13ifvqh1g","pricing_plan_id":"cebpf4jnsgd1na2vs0mg"},{"bike_id":"432c3a17-a0ad-42b8-af65-65df16cb3c2f","system_id":"levelo_inurba_marseille","lat":43.29217,"lon":5.39324,"is_reserved":false,"is_disabled":false,"rental_uris":{"android":"levelo://app?vid=432c3a17-a0ad-42b8-af65-65df16cb3c2f","ios":"levelo://app?vid=432c3a17-a0ad-42b8-af65-65df16cb3c2f"},"vehicle_type_id":"4","last_reported":1747149011,"current_range_meters":11600,"station_id":"ce4bh192rcd13ifvqdd0","pricing_plan_id":"cebpf4jnsgd1na2vs0mg"},{"bike_id":"1abde755-c5a3-43a2-a145-eac77fc6d418","system_id":"levelo_inurba_marseille","lat":43.25574,"lon":5.38239,"is_reserved":false,"is_disabled":false,"rental_uris":{"android":"levelo://app?vid=1abde755-c5a3-43a2-a145-eac77fc6d418","ios":"levelo://app?vid=1abde755-c5a3-43a2-a145-eac77fc6d418"},"vehicle_type_id":"4","last_reported":1747149011,"current_range_meters":11600,"station_id":"ce4bhih2rcd13ifvqfs0","pricing_plan_id":"cebpf4jnsgd1na2vs0mg"},{"bike_id":"37c439fc-ca6c-4983-9416-21791407e332","system_id":"levelo_inurba_marseille","lat":43.25591,"lon":5.38235,"is_reserved":false,"is_disabled":false,"rental_uris":{"android":"levelo://app?vid=37c439fc-ca6c-4983-9416-21791407e332","ios":"levelo://app?vid=37c439fc-ca6c-4983-9416-21791407e332"},"vehicle_type_id":"4","last_reported":1747149011,"current_range_meters":11600,"station_id":"ce4bhih2rcd13ifvqfs0","pricing_plan_id":"cebpf4jnsgd1na2vs0mg"},{"bike_id":"d1b69818-1964-4d56-bb06-2d949d7e8deb","system_id":"levelo_inurba_marseille","lat":43.27609,"lon":5.36118,"is_reserved":false,"is_disabled":false,"rental_uris":{"android":"levelo://app?vid=d1b69818-1964-4d56-bb06-2d949d7e8deb","ios":"levelo://app?vid=d1b69818-1964-4d56-bb06-2d949d7e8deb"},"vehicle_type_id":"4","last_reported":1747149011,"current_range_meters":12000,"station_id":"ce4bgj92rcd13ifvqbe0","pricing_plan_id":"cebpf4jnsgd1na2vs0mg"},{"bike_id":"2375761b-1ab4-424f-91e6-6bc9e91e1d70","system_id":"levelo_inurba_marseille","lat":43.31709,"lon":5.40463,"is_reserved":false,"is_disabled":false,"rental_uris":{"android":"levelo://app?vid=2375761b-1ab4-424f-91e6-6bc9e91e1d70","ios":"levelo://app?vid=2375761b-1ab4-424f-91e6-6bc9e91e1d70"},"vehicle_type_id":"4","last_reported":1747149011,"current_range_meters":12000,"station_id":"ce4bh012rcd13ifvqd00","pricing_plan_id":"cebpf4jnsgd1na2vs0mg"},{"bike_id":"7c79f884-a5bd-46d4-b572-55a88d9c1bc9","system_id":"levelo_inurba_marseille","lat":43.28462,"lon":5.35904,"is_reserved":false,"is_disabled":false,"rental_uris":{"android":"levelo://app?vid=7c79f884-a5bd-46d4-b572-55a88d9c1bc9","ios":"levelo://app?vid=7c79f884-a5bd-46d4-b572-55a88d9c1bc9"},"vehicle_type_id":"4","last_reported":1747149011,"current_range_meters":12000,"station_id":"ce4bhah2rcd13ifvqei0","pricing_plan_id":"cebpf4jnsgd1na2vs0mg"},{"bike_id":"44561e1f-c6c0-4254-820a-b87cfcdb930a","system_id":"levelo_inurba_marseille","lat":43.29007,"lon":5.35606,"is_reserved":false,"is_disabled":false,"rental_uris":{"android":"levelo://app?vid=44561e1f-c6c0-4254-820a-b87cfcdb930a","ios":"levelo://app?vid=44561e1f-c6c0-4254-820a-b87cfcdb930a"},"vehicle_type_id":"4","last_reported":1747149011,"current_range_meters":12000,"station_id":"ce4bhb92rcd13ifvqen0","pricing_plan_id":"cebpf4jnsgd1na2vs0mg"},{"bike_id":"bae0709b-c933-441a-ab47-3aad58f66d78","system_id":"levelo_inurba_marseille","lat":43.21756,"lon":5.34597,"is_reserved":false,"is_disabled":false,"rental_uris":{"android":"levelo://app?vid=bae0709b-c933-441a-ab47-3aad58f66d78","ios":"levelo://app?vid=bae0709b-c933-441a-ab47-3aad58f66d78"},"vehicle_type_id":"4","last_reported":1747149011,"current_range_meters":12000,"station_id":"st_cvj6r9ubvosntc0bgbag","pricing_plan_id":"cebpf4jnsgd1na2vs0mg"},{"bike_id":"6a83cb7b-22a6-47c2-80de-bd1301bfc457","system_id":"levelo_inurba_marseille","lat":43.29791,"lon":5.38094,"is_reserved":false,"is_disabled":false,"rental_uris":{"android":"levelo://app?vid=6a83cb7b-22a6-47c2-80de-bd1301bfc457","ios":"levelo://app?vid=6a83cb7b-22a6-47c2-80de-bd1301bfc457"},"vehicle_type_id":"4","last_reported":1747149011,"current_range_meters":12400,"station_id":"ce4bgip2rcd13ifvqbb0","pricing_plan_id":"cebpf4jnsgd1na2vs0mg"},{"bike_id":"d53164b4-0763-4c98-8e75-21cc656604d0","system_id":"levelo_inurba_marseille","lat":43.30095,"lon":5.39092,"is_reserved":false,"is_disabled":false,"rental_uris":{"android":"levelo://app?vid=d53164b4-0763-4c98-8e75-21cc656604d0","ios":"levelo://app?vid=d53164b4-0763-4c98-8e75-21cc656604d0"},"vehicle_type_id":"4","last_reported":1747149011,"current_range_meters":12400,"station_id":"ce4bh192rcd13ifvqdb0","pricing_plan_id":"cebpf4jnsgd1na2vs0mg"},{"bike_id":"c49db32f-acc9-4199-9544-043410ba6300","system_id":"levelo_inurba_marseille","lat":43.26567,"lon":5.39014,"is_reserved":false,"is_disabled":false,"rental_uris":{"android":"levelo://app?vid=c49db32f-acc9-4199-9544-043410ba6300","ios":"levelo://app?vid=c49db32f-acc9-4199-9544-043410ba6300"},"vehicle_type_id":"4","last_reported":1747149011,"current_range_meters":12400,"station_id":"ce4bhe12rcd13ifvqf30","pricing_plan_id":"cebpf4jnsgd1na2vs0mg"},{"bike_id":"1606775a-8b80-4155-b55d-ec466c29fc03","system_id":"levelo_inurba_marseille","lat":43.25873,"lon":5.39894,"is_reserved":false,"is_disabled":false,"rental_uris":{"android":"levelo://app?vid=1606775a-8b80-4155-b55d-ec466c29fc03","ios":"levelo://app?vid=1606775a-8b80-4155-b55d-ec466c29fc03"},"vehicle_type_id":"4","last_reported":1747149011,"current_range_meters":12400,"station_id":"ce4bhl92rcd13ifvqghg","pricing_plan_id":"cebpf4jnsgd1na2vs0mg"},{"bike_id":"81232509-42a4-4110-9a03-451c40256bc8","system_id":"levelo_inurba_marseille","lat":43.25114,"lon":5.4033,"is_reserved":false,"is_disabled":false,"rental_uris":{"android":"levelo://app?vid=81232509-42a4-4110-9a03-451c40256bc8","ios":"levelo://app?vid=81232509-42a4-4110-9a03-451c40256bc8"},"vehicle_type_id":"4","last_reported":1747149011,"current_range_meters":12400,"station_id":"ce4bhlh2rcd13ifvqgig","pricing_plan_id":"cebpf4jnsgd1na2vs0mg"},{"bike_id":"a015cea0-410c-433b-b24c-09c11599343b","system_id":"levelo_inurba_marseille","lat":43.30547,"lon":5.36556,"is_reserved":false,"is_disabled":false,"rental_uris":{"android":"levelo://app?vid=a015cea0-410c-433b-b24c-09c11599343b","ios":"levelo://app?vid=a015cea0-410c-433b-b24c-09c11599343b"},"vehicle_type_id":"4","last_reported":1747149011,"current_range_meters":12800,"station_id":"ce4bgs12rcd13ifvqcag","pricing_plan_id":"cebpf4jnsgd1na2vs0mg"},{"bike_id":"f31872f2-9c12-4aad-87f2-dfd4d2126ef2","system_id":"levelo_inurba_marseille","lat":43.31343,"lon":5.39693,"is_reserved":false,"is_disabled":false,"rental_uris":{"android":"levelo://app?vid=f31872f2-9c12-4aad-87f2-dfd4d2126ef2","ios":"levelo://app?vid=f31872f2-9c12-4aad-87f2-dfd4d2126ef2"},"vehicle_type_id":"4","last_reported":1747149011,"current_range_meters":12800,"station_id":"ce4bgvp2rcd13ifvqcu0","pricing_plan_id":"cebpf4jnsgd1na2vs0mg"},{"bike_id":"af482389-e24e-4d94-84c5-c14774258823","system_id":"levelo_inurba_marseille","lat":43.30555,"lon":5.36539,"is_reserved":false,"is_disabled":false,"rental_uris":{"android":"levelo://app?vid=af482389-e24e-4d94-84c5-c14774258823","ios":"levelo://app?vid=af482389-e24e-4d94-84c5-c14774258823"},"vehicle_type_id":"4","last_reported":1747149011,"current_range_meters":13600,"station_id":"ce4bgs12rcd13ifvqcag","pricing_plan_id":"cebpf4jnsgd1na2vs0mg"},{"bike_id":"233fcc44-eba3-43df-b7c2-6ef09c4617de","system_id":"levelo_inurba_marseille","lat":43.30551,"lon":5.36508,"is_reserved":false,"is_disabled":false,"rental_uris":{"android":"levelo://app?vid=233fcc44-eba3-43df-b7c2-6ef09c4617de","ios":"levelo://app?vid=233fcc44-eba3-43df-b7c2-6ef09c4617de"},"vehicle_type_id":"4","last_reported":1747149011,"current_range_meters":14000,"station_id":"ce4bgs12rcd13ifvqcag","pricing_plan_id":"cebpf4jnsgd1na2vs0mg"},{"bike_id":"a725b798-2247-4f7f-9957-39198e1b13e0","system_id":"levelo_inurba_marseille","lat":43.30076,"lon":5.391,"is_reserved":false,"is_disabled":false,"rental_uris":{"android":"levelo://app?vid=a725b798-2247-4f7f-9957-39198e1b13e0","ios":"levelo://app?vid=a725b798-2247-4f7f-9957-39198e1b13e0"},"vehicle_type_id":"4","last_reported":1747149011,"current_range_meters":14000,"station_id":"ce4bh192rcd13ifvqdb0","pricing_plan_id":"cebpf4jnsgd1na2vs0mg"},{"bike_id":"407c5462-88a5-4e71-b102-b927bcbb7e70","system_id":"levelo_inurba_marseille","lat":43.25579,"lon":5.38239,"is_reserved":false,"is_disabled":false,"rental_uris":{"android":"levelo://app?vid=407c5462-88a5-4e71-b102-b927bcbb7e70","ios":"levelo://app?vid=407c5462-88a5-4e71-b102-b927bcbb7e70"},"vehicle_type_id":"4","last_reported":1747149011,"current_range_meters":14000,"station_id":"ce4bhih2rcd13ifvqfs0","pricing_plan_id":"cebpf4jnsgd1na2vs0mg"},{"bike_id":"16eaa2ab-cdb4-4813-be5e-9482ceb1aef6","system_id":"levelo_inurba_marseille","lat":43.29981,"lon":5.38486,"is_reserved":false,"is_disabled":false,"rental_uris":{"android":"levelo://app?vid=16eaa2ab-cdb4-4813-be5e-9482ceb1aef6","ios":"levelo://app?vid=16eaa2ab-cdb4-4813-be5e-9482ceb1aef6"},"vehicle_type_id":"4","last_reported":1747149011,"current_range_meters":14400,"station_id":"ce4bgj92rcd13ifvqbd0","pricing_plan_id":"cebpf4jnsgd1na2vs0mg"},{"bike_id":"f512d631-ab5d-4c44-86ac-58d2401416f2","system_id":"levelo_inurba_marseille","lat":43.29007,"lon":5.35592,"is_reserved":false,"is_disabled":false,"rental_uris":{"android":"levelo://app?vid=f512d631-ab5d-4c44-86ac-58d2401416f2","ios":"levelo://app?vid=f512d631-ab5d-4c44-86ac-58d2401416f2"},"vehicle_type_id":"4","last_reported":1747149011,"current_range_meters":14400,"station_id":"ce4bhb92rcd13ifvqen0","pricing_plan_id":"cebpf4jnsgd1na2vs0mg"},{"bike_id":"c8747c89-b35f-4348-87e6-c594a932c995","system_id":"levelo_inurba_marseille","lat":43.28415,"lon":5.34993,"is_reserved":false,"is_disabled":false,"rental_uris":{"android":"levelo://app?vid=c8747c89-b35f-4348-87e6-c594a932c995","ios":"levelo://app?vid=c8747c89-b35f-4348-87e6-c594a932c995"},"vehicle_type_id":"4","last_reported":1747149011,"current_range_meters":14400,"station_id":"ce4bhbh2rcd13ifvqepg","pricing_plan_id":"cebpf4jnsgd1na2vs0mg"},{"bike_id":"88a83555-08eb-4d77-b3bb-0811afaef3ac","system_id":"levelo_inurba_marseille","lat":43.29966,"lon":5.37179,"is_reserved":false,"is_disabled":false,"rental_uris":{"android":"levelo://app?vid=88a83555-08eb-4d77-b3bb-0811afaef3ac","ios":"levelo://app?vid=88a83555-08eb-4d77-b3bb-0811afaef3ac"},"vehicle_type_id":"4","last_reported":1747149011,"current_range_meters":15200,"station_id":"ce4bgr92rcd13ifvqc7g","pricing_plan_id":"cebpf4jnsgd1na2vs0mg"},{"bike_id":"ee95d7b1-23aa-4ba2-8604-c3c7e16b2172","system_id":"levelo_inurba_marseille","lat":43.289173,"lon":5.366553,"is_reserved":false,"is_disabled":false,"rental_uris":{"android":"levelo://app?vid=ee95d7b1-23aa-4ba2-8604-c3c7e16b2172","ios":"levelo://app?vid=ee95d7b1-23aa-4ba2-8604-c3c7e16b2172"},"vehicle_type_id":"4","last_reported":1747149011,"current_range_meters":15200,"station_id":"ce4bhap2rcd13ifvqek0","pricing_plan_id":"cebpf4jnsgd1na2vs0mg"},{"bike_id":"c7df1b7f-8113-48a7-bf83-7a2771c60483","system_id":"levelo_inurba_marseille","lat":43.28277,"lon":5.35086,"is_reserved":false,"is_disabled":false,"rental_uris":{"android":"levelo://app?vid=c7df1b7f-8113-48a7-bf83-7a2771c60483","ios":"levelo://app?vid=c7df1b7f-8113-48a7-bf83-7a2771c60483"},"vehicle_type_id":"4","last_reported":1747149011,"current_range_meters":15200,"station_id":"ce4bhbp2rcd13ifvqerg","pricing_plan_id":"cebpf4jnsgd1na2vs0mg"},{"bike_id":"54222e5e-699d-410b-9e51-ee6e3210ad28","system_id":"levelo_inurba_marseille","lat":43.24654,"lon":5.38171,"is_reserved":false,"is_disabled":false,"rental_uris":{"android":"levelo://app?vid=54222e5e-699d-410b-9e51-ee6e3210ad28","ios":"levelo://app?vid=54222e5e-699d-410b-9e51-ee6e3210ad28"},"vehicle_type_id":"4","last_reported":1747149011,"current_range_meters":15200,"station_id":"ce4bhih2rcd13ifvqfr0","pricing_plan_id":"cebpf4jnsgd1na2vs0mg"},{"bike_id":"d47e0ef5-128e-4c82-8e08-c07c79e20732","system_id":"levelo_inurba_marseille","lat":43.32482,"lon":5.36557,"is_reserved":false,"is_disabled":false,"rental_uris":{"android":"levelo://app?vid=d47e0ef5-128e-4c82-8e08-c07c79e20732","ios":"levelo://app?vid=d47e0ef5-128e-4c82-8e08-c07c79e20732"},"vehicle_type_id":"4","last_reported":1747149011,"current_range_meters":15200,"station_id":"ce4bhs12rcd13ifvqhvg","pricing_plan_id":"cebpf4jnsgd1na2vs0mg"},{"bike_id":"af7378f2-5574-4580-8919-9220d94ad1cc","system_id":"levelo_inurba_marseille","lat":43.23213,"lon":5.35548,"is_reserved":false,"is_disabled":false,"rental_uris":{"android":"levelo://app?vid=af7378f2-5574-4580-8919-9220d94ad1cc","ios":"levelo://app?vid=af7378f2-5574-4580-8919-9220d94ad1cc"},"vehicle_type_id":"4","last_reported":1747149011,"current_range_meters":15200,"station_id":"ce4bhu92rcd13ifvqi70","pricing_plan_id":"cebpf4jnsgd1na2vs0mg"},{"bike_id":"6fa802fe-519c-4183-9c3a-60cb1796171f","system_id":"levelo_inurba_marseille","lat":43.28582,"lon":5.395,"is_reserved":false,"is_disabled":false,"rental_uris":{"android":"levelo://app?vid=6fa802fe-519c-4183-9c3a-60cb1796171f","ios":"levelo://app?vid=6fa802fe-519c-4183-9c3a-60cb1796171f"},"vehicle_type_id":"4","last_reported":1747149011,"current_range_meters":16000,"station_id":"ce4bh292rcd13ifvqdg0","pricing_plan_id":"cebpf4jnsgd1na2vs0mg"},{"bike_id":"cd92550b-2fd9-47d8-85fc-daa526cb96ca","system_id":"levelo_inurba_marseille","lat":43.25723,"lon":5.41114,"is_reserved":false,"is_disabled":false,"rental_uris":{"android":"levelo://app?vid=cd92550b-2fd9-47d8-85fc-daa526cb96ca","ios":"levelo://app?vid=cd92550b-2fd9-47d8-85fc-daa526cb96ca"},"vehicle_type_id":"4","last_reported":1747149011,"current_range_meters":16000,"station_id":"ce4bhkp2rcd13ifvqgd0","pricing_plan_id":"cebpf4jnsgd1na2vs0mg"},{"bike_id":"09515db7-9738-4001-b87c-9371c34a4a1f","system_id":"levelo_inurba_marseille","lat":43.2786,"lon":5.39922,"is_reserved":false,"is_disabled":false,"rental_uris":{"android":"levelo://app?vid=09515db7-9738-4001-b87c-9371c34a4a1f","ios":"levelo://app?vid=09515db7-9738-4001-b87c-9371c34a4a1f"},"vehicle_type_id":"4","last_reported":1747149011,"current_range_meters":16400,"station_id":"","pricing_plan_id":"cebpf4jnsgd1na2vs0mg"},{"bike_id":"b6d6b15f-032c-4958-8678-c517ee877ea9","system_id":"levelo_inurba_marseille","lat":43.3031,"lon":5.39222,"is_reserved":false,"is_disabled":false,"rental_uris":{"android":"levelo://app?vid=b6d6b15f-032c-4958-8678-c517ee877ea9","ios":"levelo://app?vid=b6d6b15f-032c-4958-8678-c517ee877ea9"},"vehicle_type_id":"4","last_reported":1747149011,"current_range_meters":16400,"station_id":"ce4bgkh2rcd13ifvqbk0","pricing_plan_id":"cebpf4jnsgd1na2vs0mg"},{"bike_id":"cbf5429c-51a7-4082-8e19-c0dde79f9043","system_id":"levelo_inurba_marseille","lat":43.30559,"lon":5.36537,"is_reserved":false,"is_disabled":false,"rental_uris":{"android":"levelo://app?vid=cbf5429c-51a7-4082-8e19-c0dde79f9043","ios":"levelo://app?vid=cbf5429c-51a7-4082-8e19-c0dde79f9043"},"vehicle_type_id":"4","last_reported":1747149011,"current_range_meters":16400,"station_id":"ce4bgs12rcd13ifvqcag","pricing_plan_id":"cebpf4jnsgd1na2vs0mg"},{"bike_id":"5f80874e-680b-443c-ae7b-78804c628ccc","system_id":"levelo_inurba_marseille","lat":43.29893,"lon":5.39777,"is_reserved":false,"is_disabled":false,"rental_uris":{"android":"levelo://app?vid=5f80874e-680b-443c-ae7b-78804c628ccc","ios":"levelo://app?vid=5f80874e-680b-443c-ae7b-78804c628ccc"},"vehicle_type_id":"4","last_reported":1747149011,"current_range_meters":16400,"station_id":"ce4bh0h2rcd13ifvqd50","pricing_plan_id":"cebpf4jnsgd1na2vs0mg"},{"bike_id":"5c3eb281-6976-45b8-9526-7dac96f521d6","system_id":"levelo_inurba_marseille","lat":43.29,"lon":5.35601,"is_reserved":false,"is_disabled":false,"rental_uris":{"android":"levelo://app?vid=5c3eb281-6976-45b8-9526-7dac96f521d6","ios":"levelo://app?vid=5c3eb281-6976-45b8-9526-7dac96f521d6"},"vehicle_type_id":"4","last_reported":1747149011,"current_range_meters":16400,"station_id":"ce4bhb92rcd13ifvqen0","pricing_plan_id":"cebpf4jnsgd1na2vs0mg"},{"bike_id":"0a937b37-2a73-4b79-bebe-c5952c78432f","system_id":"levelo_inurba_marseille","lat":43.2862,"lon":5.35099,"is_reserved":false,"is_disabled":false,"rental_uris":{"android":"levelo://app?vid=0a937b37-2a73-4b79-bebe-c5952c78432f","ios":"levelo://app?vid=0a937b37-2a73-4b79-bebe-c5952c78432f"},"vehicle_type_id":"4","last_reported":1747149011,"current_range_meters":16400,"station_id":"ce4bhch2rcd13ifvqeug","pricing_plan_id":"cebpf4jnsgd1na2vs0mg"},{"bike_id":"42cfaabc-d4d4-405c-ab84-52ce3ce3032a","system_id":"levelo_inurba_marseille","lat":43.31717,"lon":5.43602,"is_reserved":false,"is_disabled":false,"rental_uris":{"android":"levelo://app?vid=42cfaabc-d4d4-405c-ab84-52ce3ce3032a","ios":"levelo://app?vid=42cfaabc-d4d4-405c-ab84-52ce3ce3032a"},"vehicle_type_id":"4","last_reported":1747149011,"current_range_meters":16800,"station_id":"","pricing_plan_id":"cebpf4jnsgd1na2vs0mg"},{"bike_id":"70ac1821-a827-4b9a-aba2-b6128e9a93b0","system_id":"levelo_inurba_marseille","lat":43.29318,"lon":5.37169,"is_reserved":false,"is_disabled":false,"rental_uris":{"android":"levelo://app?vid=70ac1821-a827-4b9a-aba2-b6128e9a93b0","ios":"levelo://app?vid=70ac1821-a827-4b9a-aba2-b6128e9a93b0"},"vehicle_type_id":"4","last_reported":1747149011,"current_range_meters":16800,"station_id":"ce4bgh92rcd13ifvqb40","pricing_plan_id":"cebpf4jnsgd1na2vs0mg"},{"bike_id":"fafe9230-73f3-4f82-9b35-135a8da5320c","system_id":"levelo_inurba_marseille","lat":43.30549,"lon":5.36565,"is_reserved":false,"is_disabled":false,"rental_uris":{"android":"levelo://app?vid=fafe9230-73f3-4f82-9b35-135a8da5320c","ios":"levelo://app?vid=fafe9230-73f3-4f82-9b35-135a8da5320c"},"vehicle_type_id":"4","last_reported":1747149011,"current_range_meters":16800,"station_id":"ce4bgs12rcd13ifvqcag","pricing_plan_id":"cebpf4jnsgd1na2vs0mg"},{"bike_id":"4b8d7078-eb6f-4ea4-adc5-fd45cbebdd61","system_id":"levelo_inurba_marseille","lat":43.29878,"lon":5.39736,"is_reserved":false,"is_disabled":false,"rental_uris":{"android":"levelo://app?vid=4b8d7078-eb6f-4ea4-adc5-fd45cbebdd61","ios":"levelo://app?vid=4b8d7078-eb6f-4ea4-adc5-fd45cbebdd61"},"vehicle_type_id":"4","last_reported":1747149011,"current_range_meters":16800,"station_id":"ce4bh0h2rcd13ifvqd50","pricing_plan_id":"cebpf4jnsgd1na2vs0mg"},{"bike_id":"9274b707-218a-4b4b-94e3-f58187143fd7","system_id":"levelo_inurba_marseille","lat":43.29516,"lon":5.39401,"is_reserved":false,"is_disabled":false,"rental_uris":{"android":"levelo://app?vid=9274b707-218a-4b4b-94e3-f58187143fd7","ios":"levelo://app?vid=9274b707-218a-4b4b-94e3-f58187143fd7"},"vehicle_type_id":"4","last_reported":1747149011,"current_range_meters":16800,"station_id":"ce4bh292rcd13ifvqdf0","pricing_plan_id":"cebpf4jnsgd1na2vs0mg"},{"bike_id":"987ebcdc-e752-4db2-93a6-bdc475212ce1","system_id":"levelo_inurba_marseille","lat":43.28037,"lon":5.36961,"is_reserved":false,"is_disabled":false,"rental_uris":{"android":"levelo://app?vid=987ebcdc-e752-4db2-93a6-bdc475212ce1","ios":"levelo://app?vid=987ebcdc-e752-4db2-93a6-bdc475212ce1"},"vehicle_type_id":"4","last_reported":1747149011,"current_range_meters":16800,"station_id":"ce4bha12rcd13ifvqef0","pricing_plan_id":"cebpf4jnsgd1na2vs0mg"},{"bike_id":"c8742d51-26c3-4dd1-aa7a-7e92aedabcbb","system_id":"levelo_inurba_marseille","lat":43.29058,"lon":5.35911,"is_reserved":false,"is_disabled":false,"rental_uris":{"android":"levelo://app?vid=c8742d51-26c3-4dd1-aa7a-7e92aedabcbb","ios":"levelo://app?vid=c8742d51-26c3-4dd1-aa7a-7e92aedabcbb"},"vehicle_type_id":"4","last_reported":1747149011,"current_range_meters":16800,"station_id":"ce4bha92rcd13ifvqeg0","pricing_plan_id":"cebpf4jnsgd1na2vs0mg"},{"bike_id":"9d76660f-c284-49a2-8765-48337aa51471","system_id":"levelo_inurba_marseille","lat":43.321084,"lon":5.367882,"is_reserved":false,"is_disabled":false,"rental_uris":{"android":"levelo://app?vid=9d76660f-c284-49a2-8765-48337aa51471","ios":"levelo://app?vid=9d76660f-c284-49a2-8765-48337aa51471"},"vehicle_type_id":"4","last_reported":1747149011,"current_range_meters":16800,"station_id":"ce4bhrh2rcd13ifvqhug","pricing_plan_id":"cebpf4jnsgd1na2vs0mg"},{"bike_id":"0c893fb7-8626-4706-85bf-f404b871dea5","system_id":"levelo_inurba_marseille","lat":43.281212,"lon":5.446014,"is_reserved":false,"is_disabled":false,"rental_uris":{"android":"levelo://app?vid=0c893fb7-8626-4706-85bf-f404b871dea5","ios":"levelo://app?vid=0c893fb7-8626-4706-85bf-f404b871dea5"},"vehicle_type_id":"4","last_reported":1747149011,"current_range_meters":17200,"station_id":"","pricing_plan_id":"cebpf4jnsgd1na2vs0mg"},{"bike_id":"4166d349-de1b-4b76-9456-a8d3a51606e5","system_id":"levelo_inurba_marseille","lat":43.24188,"lon":5.39715,"is_reserved":false,"is_disabled":false,"rental_uris":{"android":"levelo://app?vid=4166d349-de1b-4b76-9456-a8d3a51606e5","ios":"levelo://app?vid=4166d349-de1b-4b76-9456-a8d3a51606e5"},"vehicle_type_id":"4","last_reported":1747149011,"current_range_meters":17200,"station_id":"ce4bhn12rcd13ifvqgpg","pricing_plan_id":"cebpf4jnsgd1na2vs0mg"},{"bike_id":"eeb882a8-fe36-4d5c-a964-fc0d0f965523","system_id":"levelo_inurba_marseille","lat":43.306764,"lon":5.366821,"is_reserved":false,"is_disabled":false,"rental_uris":{"android":"levelo://app?vid=eeb882a8-fe36-4d5c-a964-fc0d0f965523","ios":"levelo://app?vid=eeb882a8-fe36-4d5c-a964-fc0d0f965523"},"vehicle_type_id":"4","last_reported":1747149011,"current_range_meters":17600,"station_id":"","pricing_plan_id":"cebpf4jnsgd1na2vs0mg"},{"bike_id":"fecb4a4c-f7d6-4b9d-b445-1d538e3cb194","system_id":"levelo_inurba_marseille","lat":43.29009,"lon":5.35611,"is_reserved":false,"is_disabled":false,"rental_uris":{"android":"levelo://app?vid=fecb4a4c-f7d6-4b9d-b445-1d538e3cb194","ios":"levelo://app?vid=fecb4a4c-f7d6-4b9d-b445-1d538e3cb194"},"vehicle_type_id":"4","last_reported":1747149011,"current_range_meters":17600,"station_id":"ce4bhb92rcd13ifvqen0","pricing_plan_id":"cebpf4jnsgd1na2vs0mg"},{"bike_id":"baa8f69c-cae9-477d-8381-31495e79a957","system_id":"levelo_inurba_marseille","lat":43.28268,"lon":5.35074,"is_reserved":false,"is_disabled":false,"rental_uris":{"android":"levelo://app?vid=baa8f69c-cae9-477d-8381-31495e79a957","ios":"levelo://app?vid=baa8f69c-cae9-477d-8381-31495e79a957"},"vehicle_type_id":"4","last_reported":1747149011,"current_range_meters":17600,"station_id":"ce4bhbp2rcd13ifvqerg","pricing_plan_id":"cebpf4jnsgd1na2vs0mg"},{"bike_id":"5a0566df-0255-489a-b460-b7cc20b6f01d","system_id":"levelo_inurba_marseille","lat":43.25723,"lon":5.41114,"is_reserved":false,"is_disabled":false,"rental_uris":{"android":"levelo://app?vid=5a0566df-0255-489a-b460-b7cc20b6f01d","ios":"levelo://app?vid=5a0566df-0255-489a-b460-b7cc20b6f01d"},"vehicle_type_id":"4","last_reported":1747149011,"current_range_meters":17600,"station_id":"ce4bhkp2rcd13ifvqgd0","pricing_plan_id":"cebpf4jnsgd1na2vs0mg"},{"bike_id":"1f54236e-d7c6-4197-9966-36da646f988e","system_id":"levelo_inurba_marseille","lat":43.25108,"lon":5.40326,"is_reserved":false,"is_disabled":false,"rental_uris":{"android":"levelo://app?vid=1f54236e-d7c6-4197-9966-36da646f988e","ios":"levelo://app?vid=1f54236e-d7c6-4197-9966-36da646f988e"},"vehicle_type_id":"4","last_reported":1747149011,"current_range_meters":17600,"station_id":"ce4bhlh2rcd13ifvqgig","pricing_plan_id":"cebpf4jnsgd1na2vs0mg"},{"bike_id":"06fda02f-14f9-49ab-b56b-86dad7e44f53","system_id":"levelo_inurba_marseille","lat":43.28082,"lon":5.3966,"is_reserved":false,"is_disabled":false,"rental_uris":{"android":"levelo://app?vid=06fda02f-14f9-49ab-b56b-86dad7e44f53","ios":"levelo://app?vid=06fda02f-14f9-49ab-b56b-86dad7e44f53"},"vehicle_type_id":"4","last_reported":1747149011,"current_range_meters":17600,"station_id":"ce4bho12rcd13ifvqh2g","pricing_plan_id":"cebpf4jnsgd1na2vs0mg"},{"bike_id":"1e297e0e-a907-489c-9a22-1dfb89bfb64f","system_id":"levelo_inurba_marseille","lat":43.29259,"lon":5.36382,"is_reserved":false,"is_disabled":false,"rental_uris":{"android":"levelo://app?vid=1e297e0e-a907-489c-9a22-1dfb89bfb64f","ios":"levelo://app?vid=1e297e0e-a907-489c-9a22-1dfb89bfb64f"},"vehicle_type_id":"4","last_reported":1747149011,"current_range_meters":18000,"station_id":"","pricing_plan_id":"cebpf4jnsgd1na2vs0mg"},{"bike_id":"76d4af9d-ad76-4c84-98f2-2cba421cd757","system_id":"levelo_inurba_marseille","lat":43.316811,"lon":5.404811,"is_reserved":false,"is_disabled":false,"rental_uris":{"android":"levelo://app?vid=76d4af9d-ad76-4c84-98f2-2cba421cd757","ios":"levelo://app?vid=76d4af9d-ad76-4c84-98f2-2cba421cd757"},"vehicle_type_id":"4","last_reported":1747149011,"current_range_meters":18000,"station_id":"ce4bh012rcd13ifvqd00","pricing_plan_id":"cebpf4jnsgd1na2vs0mg"},{"bike_id":"ee9cc488-6955-405e-a8e8-9b12ad6d08d4","system_id":"levelo_inurba_marseille","lat":43.28263,"lon":5.35059,"is_reserved":false,"is_disabled":false,"rental_uris":{"android":"levelo://app?vid=ee9cc488-6955-405e-a8e8-9b12ad6d08d4","ios":"levelo://app?vid=ee9cc488-6955-405e-a8e8-9b12ad6d08d4"},"vehicle_type_id":"4","last_reported":1747149011,"current_range_meters":18000,"station_id":"ce4bhbp2rcd13ifvqerg","pricing_plan_id":"cebpf4jnsgd1na2vs0mg"},{"bike_id":"90a28b7f-461f-4e9c-a457-bbbd6c1126c9","system_id":"levelo_inurba_marseille","lat":43.32351,"lon":5.40594,"is_reserved":false,"is_disabled":false,"rental_uris":{"android":"levelo://app?vid=90a28b7f-461f-4e9c-a457-bbbd6c1126c9","ios":"levelo://app?vid=90a28b7f-461f-4e9c-a457-bbbd6c1126c9"},"vehicle_type_id":"4","last_reported":1747149011,"current_range_meters":18000,"station_id":"ce4bhq92rcd13ifvqhjg","pricing_plan_id":"cebpf4jnsgd1na2vs0mg"},{"bike_id":"df60fa94-36d1-445a-98cb-6b5ab31d594b","system_id":"levelo_inurba_marseille","lat":43.3237,"lon":5.3887,"is_reserved":false,"is_disabled":false,"rental_uris":{"android":"levelo://app?vid=df60fa94-36d1-445a-98cb-6b5ab31d594b","ios":"levelo://app?vid=df60fa94-36d1-445a-98cb-6b5ab31d594b"},"vehicle_type_id":"4","last_reported":1747149011,"current_range_meters":18000,"station_id":"ce4bhqp2rcd13ifvqhog","pricing_plan_id":"cebpf4jnsgd1na2vs0mg"},{"bike_id":"90b47be1-47ee-466d-b74a-5bcce5a1c637","system_id":"levelo_inurba_marseille","lat":43.22951,"lon":5.35363,"is_reserved":false,"is_disabled":false,"rental_uris":{"android":"levelo://app?vid=90b47be1-47ee-466d-b74a-5bcce5a1c637","ios":"levelo://app?vid=90b47be1-47ee-466d-b74a-5bcce5a1c637"},"vehicle_type_id":"4","last_reported":1747149011,"current_range_meters":18000,"station_id":"cpo3532slgdg3j2ikp40","pricing_plan_id":"cebpf4jnsgd1na2vs0mg"},{"bike_id":"6e3094ae-584b-4b23-8747-809792d486b5","system_id":"levelo_inurba_marseille","lat":43.2123,"lon":5.35095,"is_reserved":false,"is_disabled":false,"rental_uris":{"android":"levelo://app?vid=6e3094ae-584b-4b23-8747-809792d486b5","ios":"levelo://app?vid=6e3094ae-584b-4b23-8747-809792d486b5"},"vehicle_type_id":"4","last_reported":1747149011,"current_range_meters":18800,"station_id":"","pricing_plan_id":"cebpf4jnsgd1na2vs0mg"},{"bike_id":"55b50ae4-c82b-45a3-a40b-4cb32b4603d8","system_id":"levelo_inurba_marseille","lat":43.29015,"lon":5.35614,"is_reserved":false,"is_disabled":false,"rental_uris":{"android":"levelo://app?vid=55b50ae4-c82b-45a3-a40b-4cb32b4603d8","ios":"levelo://app?vid=55b50ae4-c82b-45a3-a40b-4cb32b4603d8"},"vehicle_type_id":"4","last_reported":1747149011,"current_range_meters":18800,"station_id":"ce4bhb92rcd13ifvqen0","pricing_plan_id":"cebpf4jnsgd1na2vs0mg"},{"bike_id":"b9272588-7a56-4677-8329-a3204fef55d7","system_id":"levelo_inurba_marseille","lat":43.28414,"lon":5.3498,"is_reserved":false,"is_disabled":false,"rental_uris":{"android":"levelo://app?vid=b9272588-7a56-4677-8329-a3204fef55d7","ios":"levelo://app?vid=b9272588-7a56-4677-8329-a3204fef55d7"},"vehicle_type_id":"4","last_reported":1747149011,"current_range_meters":18800,"station_id":"ce4bhbh2rcd13ifvqepg","pricing_plan_id":"cebpf4jnsgd1na2vs0mg"},{"bike_id":"13e40b0e-8d43-469d-9950-d560df07a743","system_id":"levelo_inurba_marseille","lat":43.28273,"lon":5.3506,"is_reserved":false,"is_disabled":false,"rental_uris":{"android":"levelo://app?vid=13e40b0e-8d43-469d-9950-d560df07a743","ios":"levelo://app?vid=13e40b0e-8d43-469d-9950-d560df07a743"},"vehicle_type_id":"4","last_reported":1747149011,"current_range_meters":18800,"station_id":"ce4bhbp2rcd13ifvqerg","pricing_plan_id":"cebpf4jnsgd1na2vs0mg"},{"bike_id":"7e4ebc78-ef43-414d-aa0a-199169e450ce","system_id":"levelo_inurba_marseille","lat":43.26034,"lon":5.37548,"is_reserved":false,"is_disabled":false,"rental_uris":{"android":"levelo://app?vid=7e4ebc78-ef43-414d-aa0a-199169e450ce","ios":"levelo://app?vid=7e4ebc78-ef43-414d-aa0a-199169e450ce"},"vehicle_type_id":"4","last_reported":1747149011,"current_range_meters":18800,"station_id":"ce4bhgh2rcd13ifvqfa0","pricing_plan_id":"cebpf4jnsgd1na2vs0mg"},{"bike_id":"6d31d691-bd6c-42a0-96a0-4c37024cc790","system_id":"levelo_inurba_marseille","lat":43.32491,"lon":5.36607,"is_reserved":false,"is_disabled":false,"rental_uris":{"android":"levelo://app?vid=6d31d691-bd6c-42a0-96a0-4c37024cc790","ios":"levelo://app?vid=6d31d691-bd6c-42a0-96a0-4c37024cc790"},"vehicle_type_id":"4","last_reported":1747149011,"current_range_meters":18800,"station_id":"ce4bhs12rcd13ifvqhvg","pricing_plan_id":"cebpf4jnsgd1na2vs0mg"},{"bike_id":"f2710316-5259-4170-880a-9c34a1f7926d","system_id":"levelo_inurba_marseille","lat":43.2836,"lon":5.38101,"is_reserved":false,"is_disabled":false,"rental_uris":{"android":"levelo://app?vid=f2710316-5259-4170-880a-9c34a1f7926d","ios":"levelo://app?vid=f2710316-5259-4170-880a-9c34a1f7926d"},"vehicle_type_id":"4","last_reported":1747149011,"current_range_meters":19200,"station_id":"ce4bh412rcd13ifvqdr0","pricing_plan_id":"cebpf4jnsgd1na2vs0mg"},{"bike_id":"7471ae41-13b3-4cf7-ad07-5944ca16ee74","system_id":"levelo_inurba_marseille","lat":43.28404,"lon":5.3499,"is_reserved":false,"is_disabled":false,"rental_uris":{"android":"levelo://app?vid=7471ae41-13b3-4cf7-ad07-5944ca16ee74","ios":"levelo://app?vid=7471ae41-13b3-4cf7-ad07-5944ca16ee74"},"vehicle_type_id":"4","last_reported":1747149011,"current_range_meters":19200,"station_id":"ce4bhbh2rcd13ifvqepg","pricing_plan_id":"cebpf4jnsgd1na2vs0mg"},{"bike_id":"95d7f4c3-ae98-487c-91a3-09c7111a2651","system_id":"levelo_inurba_marseille","lat":43.28406,"lon":5.35,"is_reserved":false,"is_disabled":false,"rental_uris":{"android":"levelo://app?vid=95d7f4c3-ae98-487c-91a3-09c7111a2651","ios":"levelo://app?vid=95d7f4c3-ae98-487c-91a3-09c7111a2651"},"vehicle_type_id":"4","last_reported":1747149011,"current_range_meters":19200,"station_id":"ce4bhbh2rcd13ifvqepg","pricing_plan_id":"cebpf4jnsgd1na2vs0mg"},{"bike_id":"a0737b21-2c0a-46bd-868d-397fe56ddd64","system_id":"levelo_inurba_marseille","lat":43.28268,"lon":5.35061,"is_reserved":false,"is_disabled":false,"rental_uris":{"android":"levelo://app?vid=a0737b21-2c0a-46bd-868d-397fe56ddd64","ios":"levelo://app?vid=a0737b21-2c0a-46bd-868d-397fe56ddd64"},"vehicle_type_id":"4","last_reported":1747149011,"current_range_meters":19200,"station_id":"ce4bhbp2rcd13ifvqerg","pricing_plan_id":"cebpf4jnsgd1na2vs0mg"},{"bike_id":"de2adad2-bc80-42ca-bf10-3b33c83942e2","system_id":"levelo_inurba_marseille","lat":43.28265,"lon":5.35062,"is_reserved":false,"is_disabled":false,"rental_uris":{"android":"levelo://app?vid=de2adad2-bc80-42ca-bf10-3b33c83942e2","ios":"levelo://app?vid=de2adad2-bc80-42ca-bf10-3b33c83942e2"},"vehicle_type_id":"4","last_reported":1747149011,"current_range_meters":19200,"station_id":"ce4bhbp2rcd13ifvqerg","pricing_plan_id":"cebpf4jnsgd1na2vs0mg"},{"bike_id":"a7dd721a-9fac-48c8-98c0-c0238514667b","system_id":"levelo_inurba_marseille","lat":43.27174,"lon":5.40989,"is_reserved":false,"is_disabled":false,"rental_uris":{"android":"levelo://app?vid=a7dd721a-9fac-48c8-98c0-c0238514667b","ios":"levelo://app?vid=a7dd721a-9fac-48c8-98c0-c0238514667b"},"vehicle_type_id":"4","last_reported":1747149011,"current_range_meters":19200,"station_id":"ce4bhl12rcd13ifvqgf0","pricing_plan_id":"cebpf4jnsgd1na2vs0mg"},{"bike_id":"d5991a5f-0984-4621-93f2-5eea05ca4cd6","system_id":"levelo_inurba_marseille","lat":43.32286,"lon":5.38272,"is_reserved":false,"is_disabled":false,"rental_uris":{"android":"levelo://app?vid=d5991a5f-0984-4621-93f2-5eea05ca4cd6","ios":"levelo://app?vid=d5991a5f-0984-4621-93f2-5eea05ca4cd6"},"vehicle_type_id":"4","last_reported":1747149011,"current_range_meters":19200,"station_id":"ce4bhr12rcd13ifvqhqg","pricing_plan_id":"cebpf4jnsgd1na2vs0mg"},{"bike_id":"1fce8101-c97f-4509-a2b3-bf0f6ac75789","system_id":"levelo_inurba_marseille","lat":43.32478,"lon":5.36577,"is_reserved":false,"is_disabled":false,"rental_uris":{"android":"levelo://app?vid=1fce8101-c97f-4509-a2b3-bf0f6ac75789","ios":"levelo://app?vid=1fce8101-c97f-4509-a2b3-bf0f6ac75789"},"vehicle_type_id":"4","last_reported":1747149011,"current_range_meters":19200,"station_id":"ce4bhs12rcd13ifvqhvg","pricing_plan_id":"cebpf4jnsgd1na2vs0mg"},{"bike_id":"995b6502-9a4f-4150-822f-178690fca4ba","system_id":"levelo_inurba_marseille","lat":43.211938,"lon":5.35076,"is_reserved":false,"is_disabled":false,"rental_uris":{"android":"levelo://app?vid=995b6502-9a4f-4150-822f-178690fca4ba","ios":"levelo://app?vid=995b6502-9a4f-4150-822f-178690fca4ba"},"vehicle_type_id":"4","last_reported":1747149011,"current_range_meters":19200,"station_id":"st_cvj6sg6p6f1abm77japg","pricing_plan_id":"cebpf4jnsgd1na2vs0mg"},{"bike_id":"42615aac-b158-4cd4-b301-022923304455","system_id":"levelo_inurba_marseille","lat":43.308,"lon":5.38162,"is_reserved":false,"is_disabled":false,"rental_uris":{"android":"levelo://app?vid=42615aac-b158-4cd4-b301-022923304455","ios":"levelo://app?vid=42615aac-b158-4cd4-b301-022923304455"},"vehicle_type_id":"4","last_reported":1747149011,"current_range_meters":19600,"station_id":"ce4bgt12rcd13ifvqce0","pricing_plan_id":"cebpf4jnsgd1na2vs0mg"},{"bike_id":"1a61c887-3bd2-45db-965c-ccee0ff0eb0f","system_id":"levelo_inurba_marseille","lat":43.29225,"lon":5.36062,"is_reserved":false,"is_disabled":false,"rental_uris":{"android":"levelo://app?vid=1a61c887-3bd2-45db-965c-ccee0ff0eb0f","ios":"levelo://app?vid=1a61c887-3bd2-45db-965c-ccee0ff0eb0f"},"vehicle_type_id":"4","last_reported":1747149011,"current_range_meters":19600,"station_id":"ce4bhbh2rcd13ifvqeqg","pricing_plan_id":"cebpf4jnsgd1na2vs0mg"},{"bike_id":"0d819378-776a-472b-9e2a-c3ce0178baf1","system_id":"levelo_inurba_marseille","lat":43.2573,"lon":5.4112,"is_reserved":false,"is_disabled":false,"rental_uris":{"android":"levelo://app?vid=0d819378-776a-472b-9e2a-c3ce0178baf1","ios":"levelo://app?vid=0d819378-776a-472b-9e2a-c3ce0178baf1"},"vehicle_type_id":"4","last_reported":1747149011,"current_range_meters":19600,"station_id":"ce4bhkp2rcd13ifvqgd0","pricing_plan_id":"cebpf4jnsgd1na2vs0mg"},{"bike_id":"155bf5e3-c415-4979-a6f5-9c3717f87cdd","system_id":"levelo_inurba_marseille","lat":43.307607,"lon":5.434623,"is_reserved":false,"is_disabled":false,"rental_uris":{"android":"levelo://app?vid=155bf5e3-c415-4979-a6f5-9c3717f87cdd","ios":"levelo://app?vid=155bf5e3-c415-4979-a6f5-9c3717f87cdd"},"vehicle_type_id":"4","last_reported":1747149011,"current_range_meters":20000,"station_id":"","pricing_plan_id":"cebpf4jnsgd1na2vs0mg"},{"bike_id":"7989e5cb-74e9-4eaa-ae4f-f5be5ccb011e","system_id":"levelo_inurba_marseille","lat":43.29635,"lon":5.37699,"is_reserved":false,"is_disabled":false,"rental_uris":{"android":"levelo://app?vid=7989e5cb-74e9-4eaa-ae4f-f5be5ccb011e","ios":"levelo://app?vid=7989e5cb-74e9-4eaa-ae4f-f5be5ccb011e"},"vehicle_type_id":"4","last_reported":1747149011,"current_range_meters":20000,"station_id":"ce4bgi92rcd13ifvqb90","pricing_plan_id":"cebpf4jnsgd1na2vs0mg"},{"bike_id":"85915a77-4c46-4867-b6a9-96400408ad3a","system_id":"levelo_inurba_marseille","lat":43.29713,"lon":5.37703,"is_reserved":false,"is_disabled":false,"rental_uris":{"android":"levelo://app?vid=85915a77-4c46-4867-b6a9-96400408ad3a","ios":"levelo://app?vid=85915a77-4c46-4867-b6a9-96400408ad3a"},"vehicle_type_id":"4","last_reported":1747149011,"current_range_meters":20000,"station_id":"ce4bgkh2rcd13ifvqbl0","pricing_plan_id":"cebpf4jnsgd1na2vs0mg"},{"bike_id":"f57c4747-ba55-4a0d-bcf3-2ec07a64cb7e","system_id":"levelo_inurba_marseille","lat":43.29872,"lon":5.39735,"is_reserved":false,"is_disabled":false,"rental_uris":{"android":"levelo://app?vid=f57c4747-ba55-4a0d-bcf3-2ec07a64cb7e","ios":"levelo://app?vid=f57c4747-ba55-4a0d-bcf3-2ec07a64cb7e"},"vehicle_type_id":"4","last_reported":1747149011,"current_range_meters":20000,"station_id":"ce4bh0h2rcd13ifvqd50","pricing_plan_id":"cebpf4jnsgd1na2vs0mg"},{"bike_id":"5f4689d8-17b2-41f4-8da2-8a6a1886f01a","system_id":"levelo_inurba_marseille","lat":43.25892,"lon":5.39946,"is_reserved":false,"is_disabled":false,"rental_uris":{"android":"levelo://app?vid=5f4689d8-17b2-41f4-8da2-8a6a1886f01a","ios":"levelo://app?vid=5f4689d8-17b2-41f4-8da2-8a6a1886f01a"},"vehicle_type_id":"4","last_reported":1747149011,"current_range_meters":20000,"station_id":"ce4bhl92rcd13ifvqghg","pricing_plan_id":"cebpf4jnsgd1na2vs0mg"},{"bike_id":"b334cba1-669b-4ba4-b288-ab14a40de0d1","system_id":"levelo_inurba_marseille","lat":43.23193,"lon":5.35545,"is_reserved":false,"is_disabled":false,"rental_uris":{"android":"levelo://app?vid=b334cba1-669b-4ba4-b288-ab14a40de0d1","ios":"levelo://app?vid=b334cba1-669b-4ba4-b288-ab14a40de0d1"},"vehicle_type_id":"4","last_reported":1747149011,"current_range_meters":20000,"station_id":"ce4bhu92rcd13ifvqi70","pricing_plan_id":"cebpf4jnsgd1na2vs0mg"},{"bike_id":"c5a6038e-e242-4c42-a6da-186787771b16","system_id":"levelo_inurba_marseille","lat":43.21785,"lon":5.34599,"is_reserved":false,"is_disabled":false,"rental_uris":{"android":"levelo://app?vid=c5a6038e-e242-4c42-a6da-186787771b16","ios":"levelo://app?vid=c5a6038e-e242-4c42-a6da-186787771b16"},"vehicle_type_id":"4","last_reported":1747149011,"current_range_meters":20000,"station_id":"st_cvj6r9ubvosntc0bgbag","pricing_plan_id":"cebpf4jnsgd1na2vs0mg"},{"bike_id":"c95d307e-1a0a-4bbc-b160-8ab27f82cbe5","system_id":"levelo_inurba_marseille","lat":43.288539,"lon":5.393056,"is_reserved":false,"is_disabled":false,"rental_uris":{"android":"levelo://app?vid=c95d307e-1a0a-4bbc-b160-8ab27f82cbe5","ios":"levelo://app?vid=c95d307e-1a0a-4bbc-b160-8ab27f82cbe5"},"vehicle_type_id":"4","last_reported":1747149011,"current_range_meters":20400,"station_id":"","pricing_plan_id":"cebpf4jnsgd1na2vs0mg"},{"bike_id":"c7230f92-b51c-4a6a-b908-08d9392fae94","system_id":"levelo_inurba_marseille","lat":43.29185,"lon":5.39323,"is_reserved":false,"is_disabled":false,"rental_uris":{"android":"levelo://app?vid=c7230f92-b51c-4a6a-b908-08d9392fae94","ios":"levelo://app?vid=c7230f92-b51c-4a6a-b908-08d9392fae94"},"vehicle_type_id":"4","last_reported":1747149011,"current_range_meters":20400,"station_id":"ce4bh192rcd13ifvqdd0","pricing_plan_id":"cebpf4jnsgd1na2vs0mg"},{"bike_id":"ecab6cd2-1e5e-45b6-9eb0-799dcec2f2c8","system_id":"levelo_inurba_marseille","lat":43.26564,"lon":5.37299,"is_reserved":false,"is_disabled":false,"rental_uris":{"android":"levelo://app?vid=ecab6cd2-1e5e-45b6-9eb0-799dcec2f2c8","ios":"levelo://app?vid=ecab6cd2-1e5e-45b6-9eb0-799dcec2f2c8"},"vehicle_type_id":"4","last_reported":1747149011,"current_range_meters":20400,"station_id":"ce4bhg12rcd13ifvqf70","pricing_plan_id":"cebpf4jnsgd1na2vs0mg"},{"bike_id":"e15bd1ff-e0e9-4540-b0c2-15f6a8596be1","system_id":"levelo_inurba_marseille","lat":43.28159,"lon":5.42673,"is_reserved":false,"is_disabled":false,"rental_uris":{"android":"levelo://app?vid=e15bd1ff-e0e9-4540-b0c2-15f6a8596be1","ios":"levelo://app?vid=e15bd1ff-e0e9-4540-b0c2-15f6a8596be1"},"vehicle_type_id":"4","last_reported":1747149011,"current_range_meters":20400,"station_id":"ce4bhnh2rcd13ifvqgug","pricing_plan_id":"cebpf4jnsgd1na2vs0mg"},{"bike_id":"1abca8a8-02c1-4392-bdee-af9569166752","system_id":"levelo_inurba_marseille","lat":43.32292,"lon":5.382634,"is_reserved":false,"is_disabled":false,"rental_uris":{"android":"levelo://app?vid=1abca8a8-02c1-4392-bdee-af9569166752","ios":"levelo://app?vid=1abca8a8-02c1-4392-bdee-af9569166752"},"vehicle_type_id":"4","last_reported":1747149011,"current_range_meters":20400,"station_id":"ce4bhr12rcd13ifvqhqg","pricing_plan_id":"cebpf4jnsgd1na2vs0mg"},{"bike_id":"9ac236a5-a1b9-4d55-8484-136112ed4b8a","system_id":"levelo_inurba_marseille","lat":43.29237,"lon":5.36215,"is_reserved":false,"is_disabled":false,"rental_uris":{"android":"levelo://app?vid=9ac236a5-a1b9-4d55-8484-136112ed4b8a","ios":"levelo://app?vid=9ac236a5-a1b9-4d55-8484-136112ed4b8a"},"vehicle_type_id":"4","last_reported":1747149011,"current_range_meters":20800,"station_id":"","pricing_plan_id":"cebpf4jnsgd1na2vs0mg"},{"bike_id":"bfb0ba93-f4cc-4494-b5cc-6824644415cf","system_id":"levelo_inurba_marseille","lat":43.309143,"lon":5.368476,"is_reserved":false,"is_disabled":false,"rental_uris":{"android":"levelo://app?vid=bfb0ba93-f4cc-4494-b5cc-6824644415cf","ios":"levelo://app?vid=bfb0ba93-f4cc-4494-b5cc-6824644415cf"},"vehicle_type_id":"4","last_reported":1747149011,"current_range_meters":20800,"station_id":"ce4bgn92rcd13ifvqbvg","pricing_plan_id":"cebpf4jnsgd1na2vs0mg"},{"bike_id":"4ee1b8f7-3b56-473c-8e35-a15d6e2f2377","system_id":"levelo_inurba_marseille","lat":43.28419,"lon":5.34981,"is_reserved":false,"is_disabled":false,"rental_uris":{"android":"levelo://app?vid=4ee1b8f7-3b56-473c-8e35-a15d6e2f2377","ios":"levelo://app?vid=4ee1b8f7-3b56-473c-8e35-a15d6e2f2377"},"vehicle_type_id":"4","last_reported":1747149011,"current_range_meters":20800,"station_id":"ce4bhbh2rcd13ifvqepg","pricing_plan_id":"cebpf4jnsgd1na2vs0mg"},{"bike_id":"81759df7-0b71-428c-bae4-4b87a68e03dd","system_id":"levelo_inurba_marseille","lat":43.23211,"lon":5.35544,"is_reserved":false,"is_disabled":false,"rental_uris":{"android":"levelo://app?vid=81759df7-0b71-428c-bae4-4b87a68e03dd","ios":"levelo://app?vid=81759df7-0b71-428c-bae4-4b87a68e03dd"},"vehicle_type_id":"4","last_reported":1747149011,"current_range_meters":20800,"station_id":"ce4bhu92rcd13ifvqi70","pricing_plan_id":"cebpf4jnsgd1na2vs0mg"},{"bike_id":"5647a91f-31a6-41fb-82bb-83893a94fc73","system_id":"levelo_inurba_marseille","lat":43.21205,"lon":5.35078,"is_reserved":false,"is_disabled":false,"rental_uris":{"android":"levelo://app?vid=5647a91f-31a6-41fb-82bb-83893a94fc73","ios":"levelo://app?vid=5647a91f-31a6-41fb-82bb-83893a94fc73"},"vehicle_type_id":"4","last_reported":1747149011,"current_range_meters":20800,"station_id":"st_cvj6sg6p6f1abm77japg","pricing_plan_id":"cebpf4jnsgd1na2vs0mg"},{"bike_id":"cc6c1282-a61d-4bd0-8826-760cf666aa63","system_id":"levelo_inurba_marseille","lat":43.29623,"lon":5.37707,"is_reserved":false,"is_disabled":false,"rental_uris":{"android":"levelo://app?vid=cc6c1282-a61d-4bd0-8826-760cf666aa63","ios":"levelo://app?vid=cc6c1282-a61d-4bd0-8826-760cf666aa63"},"vehicle_type_id":"4","last_reported":1747149011,"current_range_meters":21600,"station_id":"ce4bgi92rcd13ifvqb90","pricing_plan_id":"cebpf4jnsgd1na2vs0mg"},{"bike_id":"b6d4e5dc-e256-40a1-8da0-e7249deb0bdc","system_id":"levelo_inurba_marseille","lat":43.31164,"lon":5.38727,"is_reserved":false,"is_disabled":false,"rental_uris":{"android":"levelo://app?vid=b6d4e5dc-e256-40a1-8da0-e7249deb0bdc","ios":"levelo://app?vid=b6d4e5dc-e256-40a1-8da0-e7249deb0bdc"},"vehicle_type_id":"4","last_reported":1747149011,"current_range_meters":21600,"station_id":"ce4bgv12rcd13ifvqcp0","pricing_plan_id":"cebpf4jnsgd1na2vs0mg"},{"bike_id":"d2370d49-3722-4047-8318-b034eb691c20","system_id":"levelo_inurba_marseille","lat":43.28429,"lon":5.35008,"is_reserved":false,"is_disabled":false,"rental_uris":{"android":"levelo://app?vid=d2370d49-3722-4047-8318-b034eb691c20","ios":"levelo://app?vid=d2370d49-3722-4047-8318-b034eb691c20"},"vehicle_type_id":"4","last_reported":1747149011,"current_range_meters":21600,"station_id":"ce4bhbh2rcd13ifvqepg","pricing_plan_id":"cebpf4jnsgd1na2vs0mg"},{"bike_id":"699c1474-9a76-47f9-9a02-e417ead8b1d0","system_id":"levelo_inurba_marseille","lat":43.28421,"lon":5.34978,"is_reserved":false,"is_disabled":false,"rental_uris":{"android":"levelo://app?vid=699c1474-9a76-47f9-9a02-e417ead8b1d0","ios":"levelo://app?vid=699c1474-9a76-47f9-9a02-e417ead8b1d0"},"vehicle_type_id":"4","last_reported":1747149011,"current_range_meters":21600,"station_id":"ce4bhbh2rcd13ifvqepg","pricing_plan_id":"cebpf4jnsgd1na2vs0mg"},{"bike_id":"7c24e3a9-dce6-45a4-946b-15e60c5a7421","system_id":"levelo_inurba_marseille","lat":43.28268,"lon":5.35073,"is_reserved":false,"is_disabled":false,"rental_uris":{"android":"levelo://app?vid=7c24e3a9-dce6-45a4-946b-15e60c5a7421","ios":"levelo://app?vid=7c24e3a9-dce6-45a4-946b-15e60c5a7421"},"vehicle_type_id":"4","last_reported":1747149011,"current_range_meters":21600,"station_id":"ce4bhbp2rcd13ifvqerg","pricing_plan_id":"cebpf4jnsgd1na2vs0mg"},{"bike_id":"ca82a374-f544-4dc6-8f51-1f5b3c63ed41","system_id":"levelo_inurba_marseille","lat":43.3133,"lon":5.39692,"is_reserved":false,"is_disabled":false,"rental_uris":{"android":"levelo://app?vid=ca82a374-f544-4dc6-8f51-1f5b3c63ed41","ios":"levelo://app?vid=ca82a374-f544-4dc6-8f51-1f5b3c63ed41"},"vehicle_type_id":"4","last_reported":1747149011,"current_range_meters":22000,"station_id":"ce4bgvp2rcd13ifvqcu0","pricing_plan_id":"cebpf4jnsgd1na2vs0mg"},{"bike_id":"bc7fbd2e-8d19-4c6d-aa5d-d270aa32bd97","system_id":"levelo_inurba_marseille","lat":43.29883,"lon":5.38904,"is_reserved":false,"is_disabled":false,"rental_uris":{"android":"levelo://app?vid=bc7fbd2e-8d19-4c6d-aa5d-d270aa32bd97","ios":"levelo://app?vid=bc7fbd2e-8d19-4c6d-aa5d-d270aa32bd97"},"vehicle_type_id":"4","last_reported":1747149011,"current_range_meters":22000,"station_id":"ce4bh392rcd13ifvqdl0","pricing_plan_id":"cebpf4jnsgd1na2vs0mg"},{"bike_id":"f02e0565-ab0d-433e-8aa3-f2f795b48e2b","system_id":"levelo_inurba_marseille","lat":43.29022,"lon":5.38648,"is_reserved":false,"is_disabled":false,"rental_uris":{"android":"levelo://app?vid=f02e0565-ab0d-433e-8aa3-f2f795b48e2b","ios":"levelo://app?vid=f02e0565-ab0d-433e-8aa3-f2f795b48e2b"},"vehicle_type_id":"4","last_reported":1747149011,"current_range_meters":22000,"station_id":"ce4bh4p2rcd13ifvqe0g","pricing_plan_id":"cebpf4jnsgd1na2vs0mg"},{"bike_id":"ac0112c9-313e-422c-910b-a3523b05b0c9","system_id":"levelo_inurba_marseille","lat":43.23046,"lon":5.35517,"is_reserved":false,"is_disabled":false,"rental_uris":{"android":"levelo://app?vid=ac0112c9-313e-422c-910b-a3523b05b0c9","ios":"levelo://app?vid=ac0112c9-313e-422c-910b-a3523b05b0c9"},"vehicle_type_id":"4","last_reported":1747149011,"current_range_meters":22000,"station_id":"cpo3342slgdg3j2ifvpg","pricing_plan_id":"cebpf4jnsgd1na2vs0mg"},{"bike_id":"6db40f51-7220-4463-a799-460e053a84cc","system_id":"levelo_inurba_marseille","lat":43.3087,"lon":5.36901,"is_reserved":false,"is_disabled":false,"rental_uris":{"android":"levelo://app?vid=6db40f51-7220-4463-a799-460e053a84cc","ios":"levelo://app?vid=6db40f51-7220-4463-a799-460e053a84cc"},"vehicle_type_id":"4","last_reported":1747149011,"current_range_meters":22400,"station_id":"","pricing_plan_id":"cebpf4jnsgd1na2vs0mg"},{"bike_id":"eb7f67c9-1e5b-4def-a246-5af45ac21349","system_id":"levelo_inurba_marseille","lat":43.30643,"lon":5.40106,"is_reserved":false,"is_disabled":false,"rental_uris":{"android":"levelo://app?vid=eb7f67c9-1e5b-4def-a246-5af45ac21349","ios":"levelo://app?vid=eb7f67c9-1e5b-4def-a246-5af45ac21349"},"vehicle_type_id":"4","last_reported":1747149011,"current_range_meters":22400,"station_id":"ce4bh112rcd13ifvqda0","pricing_plan_id":"cebpf4jnsgd1na2vs0mg"},{"bike_id":"63f63cfc-5fe0-42f8-a808-d26d0fdde2b4","system_id":"levelo_inurba_marseille","lat":43.28678,"lon":5.38663,"is_reserved":false,"is_disabled":false,"rental_uris":{"android":"levelo://app?vid=63f63cfc-5fe0-42f8-a808-d26d0fdde2b4","ios":"levelo://app?vid=63f63cfc-5fe0-42f8-a808-d26d0fdde2b4"},"vehicle_type_id":"4","last_reported":1747149011,"current_range_meters":22400,"station_id":"ce4bh492rcd13ifvqdug","pricing_plan_id":"cebpf4jnsgd1na2vs0mg"},{"bike_id":"cdc4cbb3-cd92-463c-a324-e9811b78635f","system_id":"levelo_inurba_marseille","lat":43.29012,"lon":5.35617,"is_reserved":false,"is_disabled":false,"rental_uris":{"android":"levelo://app?vid=cdc4cbb3-cd92-463c-a324-e9811b78635f","ios":"levelo://app?vid=cdc4cbb3-cd92-463c-a324-e9811b78635f"},