{"last_updated":1683410749,"ttl":30,"version":"2.2","data":{"bikes":[{"bike_id":"17cf358b-fd9d-48ff-b472-fd772803b377","system_id":"levelo_inurba_marseille","lat":43.312239,"lon":5.368562,"is_reserved":false,"is_disabled":false,"rental_uris":{"android":"levelo://app?vid=17cf358b-fd9d-48ff-b472-fd772803b377","ios":"levelo://app?vid=17cf358b-fd9d-48ff-b472-fd772803b377"},"vehicle_type_id":"4","last_reported":1683410750,"current_range_meters":12000,"station_id":"ce4bgl92rcd13ifvqbq0","pricing_plan_id":"free"},{"bike_id":"71a3dbcc-c74d-4bae-9fea-667d6a8a562a","system_id":"levelo_inurba_marseille","lat":43.312239,"lon":5.368562,"is_reserved":false,"is_disabled":false,"rental_uris":{"android":"levelo://app?vid=71a3dbcc-c74d-4bae-9fea-667d6a8a562a","ios":"levelo://app?vid=71a3dbcc-c74d-4bae-9fea-667d6a8a562a"},"vehicle_type_id":"4","last_reported":1683410750,"current_range_meters":31200,"station_id":"ce4bgl92rcd13ifvqbq0","pricing_plan_id":"free"},{"bike_id":"7f91af93-875b-43a6-8e39-c43573e763a6","system_id":"levelo_inurba_marseille","lat":43.312239,"lon":5.368562,"is_reserved":false,"is_disabled":false,"rental_uris":{"android":"levelo://app?vid=7f91af93-875b-43a6-8e39-c43573e763a6","ios":"levelo://app?vid=7f91af93-875b-43a6-8e39-c43573e763a6"},"vehicle_type_id":"4","last_reported":1683410750,"current_range_meters":14800,"station_id":"ce4bgl92rcd13ifvqbq0","pricing_plan_id":"free"},{"bike_id":"a15c0cfa-64f4-471f-b37c-89e979a865ff","system_id":"levelo_inurba_marseille","lat":43.314811,"lon":5.373103,"is_reserved":false,"is_disabled":false,"rental_uris":{"android":"levelo://app?vid=a15c0cfa-64f4-471f-b37c-89e979a865ff","ios":"levelo://app?vid=a15c0cfa-64f4-471f-b37c-89e979a865ff"},"vehicle_type_id":"4","last_reported":1683410750,"current_range_meters":12000,"station_id":"ce4bgt12rcd13ifvqcd0","pricing_plan_id":"free"},{"bike_id":"3b581a37-817e-4647-8743-9a0251f77bc3","system_id":"levelo_inurba_marseille","lat":43.31478,"lon":5.3731,"is_reserved":false,"is_disabled":false,"rental_uris":{"android":"levelo://app?vid=3b581a37-817e-4647-8743-9a0251f77bc3","ios":"levelo://app?vid=3b581a37-817e-4647-8743-9a0251f77bc3"},"vehicle_type_id":"4","last_reported":1683410750,"current_range_meters":3200,"station_id":"ce4bgt12rcd13ifvqcd0","pricing_plan_id":"free"},{"bike_id":"617985df-9fd6-4213-aac4-811a5c72d6a5","system_id":"levelo_inurba_marseille","lat":43.31483,"lon":5.37307,"is_reserved":false,"is_disabled":false,"rental_uris":{"android":"levelo://app?vid=617985df-9fd6-4213-aac4-811a5c72d6a5","ios":"levelo://app?vid=617985df-9fd6-4213-aac4-811a5c72d6a5"},"vehicle_type_id":"4","last_reported":1683410750,"current_range_meters":10000,"station_id":"ce4bgt12rcd13ifvqcd0","pricing_plan_id":"free"},{"bike_id":"7eeef4f9-5b08-4550-aa17-8a3841b3d2aa","system_id":"levelo_inurba_marseille","lat":43.31483,"lon":5.37309,"is_reserved":false,"is_disabled":false,"rental_uris":{"android":"levelo://app?vid=7eeef4f9-5b08-4550-aa17-8a3841b3d2aa","ios":"levelo://app?vid=7eeef4f9-5b08-4550-aa17-8a3841b3d2aa"},"vehicle_type_id":"4","last_reported":1683410750,"current_range_meters":14000,"station_id":"ce4bgt12rcd13ifvqcd0","pricing_plan_id":"free"},{"bike_id":"8675f31e-a841-460a-84f2-9c999d1ec14a","system_id":"levelo_inurba_marseille","lat":43.314811,"lon":5.373104,"is_reserved":false,"is_disabled":false,"rental_uris":{"android":"levelo://app?vid=8675f31e-a841-460a-84f2-9c999d1ec14a","ios":"levelo://app?vid=8675f31e-a841-460a-84f2-9c999d1ec14a"},"vehicle_type_id":"4","last_reported":1683410750,"current_range_meters":19200,"station_id":"ce4bgt12rcd13ifvqcd0","pricing_plan_id":"free"},{"bike_id":"bf47690f-b648-4ac8-b08d-b7f08ff59742","system_id":"levelo_inurba_marseille","lat":43.308614,"lon":5.372098,"is_reserved":false,"is_disabled":false,"rental_uris":{"android":"levelo://app?vid=bf47690f-b648-4ac8-b08d-b7f08ff59742","ios":"levelo://app?vid=bf47690f-b648-4ac8-b08d-b7f08ff59742"},"vehicle_type_id":"4","last_reported":1683410750,"current_range_meters":8800,"station_id":"ce4bguh2rcd13ifvqckg","pricing_plan_id":"free"},{"bike_id":"b120d035-a19d-4c5b-a7be-b7d0ef1e13bc","system_id":"levelo_inurba_marseille","lat":43.308614,"lon":5.372098,"is_reserved":false,"is_disabled":false,"rental_uris":{"android":"levelo://app?vid=b120d035-a19d-4c5b-a7be-b7d0ef1e13bc","ios":"levelo://app?vid=b120d035-a19d-4c5b-a7be-b7d0ef1e13bc"},"vehicle_type_id":"4","last_reported":1683410750,"current_range_meters":14000,"station_id":"ce4bguh2rcd13ifvqckg","pricing_plan_id":"free"},{"bike_id":"8eb86c4d-e0c7-4281-8428-6b158ae722ba","system_id":"levelo_inurba_marseille","lat":43.31922,"lon":5.3676,"is_reserved":false,"is_disabled":false,"rental_uris":{"android":"levelo://app?vid=8eb86c4d-e0c7-4281-8428-6b158ae722ba","ios":"levelo://app?vid=8eb86c4d-e0c7-4281-8428-6b158ae722ba"},"vehicle_type_id":"4","last_reported":1683410750,"current_range_meters":13200,"station_id":"","pricing_plan_id":"free"},{"bike_id":"caea2489-5a5d-4f00-8e78-8c319f8ed68e","system_id":"levelo_inurba_marseille","lat":43.3057,"lon":5.36553,"is_reserved":false,"is_disabled":false,"rental_uris":{"android":"levelo://app?vid=caea2489-5a5d-4f00-8e78-8c319f8ed68e","ios":"levelo://app?vid=caea2489-5a5d-4f00-8e78-8c319f8ed68e"},"vehicle_type_id":"4","last_reported":1683410750,"current_range_meters":5200,"station_id":"","pricing_plan_id":"free"},{"bike_id":"692d6c67-f71a-4d21-b15f-e5cb89228b9d","system_id":"levelo_inurba_marseille","lat":43.30547,"lon":5.367,"is_reserved":false,"is_disabled":false,"rental_uris":{"android":"levelo://app?vid=692d6c67-f71a-4d21-b15f-e5cb89228b9d","ios":"levelo://app?vid=692d6c67-f71a-4d21-b15f-e5cb89228b9d"},"vehicle_type_id":"4","last_reported":1683410750,"current_range_meters":12400,"station_id":"","pricing_plan_id":"free"},{"bike_id":"53c9fb97-2f30-4059-88ff-947c233d8321","system_id":"levelo_inurba_marseille","lat":43.305706,"lon":5.365654,"is_reserved":false,"is_disabled":false,"rental_uris":{"android":"levelo://app?vid=53c9fb97-2f30-4059-88ff-947c233d8321","ios":"levelo://app?vid=53c9fb97-2f30-4059-88ff-947c233d8321"},"vehicle_type_id":"4","last_reported":1683410750,"current_range_meters":2400,"station_id":"ce4bgs12rcd13ifvqcag","pricing_plan_id":"free"},{"bike_id":"e0054d71-d2a5-468e-8be3-9bb3f89337fc","system_id":"levelo_inurba_marseille","lat":43.30547,"lon":5.36534,"is_reserved":false,"is_disabled":false,"rental_uris":{"android":"levelo://app?vid=e0054d71-d2a5-468e-8be3-9bb3f89337fc","ios":"levelo://app?vid=e0054d71-d2a5-468e-8be3-9bb3f89337fc"},"vehicle_type_id":"4","last_reported":1683410750,"current_range_meters":2000,"station_id":"","pricing_plan_id":"free"},{"bike_id":"c233cc8d-d098-492e-9bb1-69d4576874df","system_id":"levelo_inurba_marseille","lat":43.305368,"lon":5.367343,"is_reserved":false,"is_disabled":false,"rental_uris":{"android":"levelo://app?vid=c233cc8d-d098-492e-9bb1-69d4576874df","ios":"levelo://app?vid=c233cc8d-d098-492e-9bb1-69d4576874df"},"vehicle_type_id":"4","last_reported":1683410750,"current_range_meters":5200,"station_id":"ce4bgrp2rcd13ifvqc9g","pricing_plan_id":"free"},{"bike_id":"cca32320-f1b3-4e7a-8edb-fbe3a3aa1905","system_id":"levelo_inurba_marseille","lat":43.30536,"lon":5.36546,"is_reserved":false,"is_disabled":false,"rental_uris":{"android":"levelo://app?vid=cca32320-f1b3-4e7a-8edb-fbe3a3aa1905","ios":"levelo://app?vid=cca32320-f1b3-4e7a-8edb-fbe3a3aa1905"},"vehicle_type_id":"4","last_reported":1683410750,"current_range_meters":0,"station_id":"","pricing_plan_id":"free"},{"bike_id":"9eaa0251-dce6-4da8-9bec-faabd323f8c1","system_id":"levelo_inurba_marseille","lat":43.30533,"lon":5.36543,"is_reserved":false,"is_disabled":false,"rental_uris":{"android":"levelo://app?vid=9eaa0251-dce6-4da8-9bec-faabd323f8c1","ios":"levelo://app?vid=9eaa0251-dce6-4da8-9bec-faabd323f8c1"},"vehicle_type_id":"4","last_reported":1683410750,"current_range_meters":27200,"station_id":"","pricing_plan_id":"free"},{"bike_id":"b03c1e35-46ce-46b7-80ce-6af12ad4543b","system_id":"levelo_inurba_marseille","lat":43.311131,"lon":5.377651,"is_reserved":false,"is_disabled":false,"rental_uris":{"android":"levelo://app?vid=b03c1e35-46ce-46b7-80ce-6af12ad4543b","ios":"levelo://app?vid=b03c1e35-46ce-46b7-80ce-6af12ad4543b"},"vehicle_type_id":"4","last_reported":1683410750,"current_range_meters":18000,"station_id":"ce4bgt92rcd13ifvqcg0","pricing_plan_id":"free"},{"bike_id":"a629806c-0288-4eb5-9434-6693fed72f8e","system_id":"levelo_inurba_marseille","lat":43.311131,"lon":5.377651,"is_reserved":false,"is_disabled":false,"rental_uris":{"android":"levelo://app?vid=a629806c-0288-4eb5-9434-6693fed72f8e","ios":"levelo://app?vid=a629806c-0288-4eb5-9434-6693fed72f8e"},"vehicle_type_id":"4","last_reported":1683410750,"current_range_meters":10000,"station_id":"ce4bgt92rcd13ifvqcg0","pricing_plan_id":"free"},{"bike_id":"df72dee3-ccf6-473b-9d33-15c55dd5b988","system_id":"levelo_inurba_marseille","lat":43.311131,"lon":5.377651,"is_reserved":false,"is_disabled":false,"rental_uris":{"android":"levelo://app?vid=df72dee3-ccf6-473b-9d33-15c55dd5b988","ios":"levelo://app?vid=df72dee3-ccf6-473b-9d33-15c55dd5b988"},"vehicle_type_id":"4","last_reported":1683410750,"current_range_meters":6800,"station_id":"ce4bgt92rcd13ifvqcg0","pricing_plan_id":"free"},{"bike_id":"bf681ef6-951a-49a1-9ec7-12db3ebff79b","system_id":"levelo_inurba_marseille","lat":43.311131,"lon":5.377651,"is_reserved":false,"is_disabled":false,"rental_uris":{"android":"levelo://app?vid=bf681ef6-951a-49a1-9ec7-12db3ebff79b","ios":"levelo://app?vid=bf681ef6-951a-49a1-9ec7-12db3ebff79b"},"vehicle_type_id":"4","last_reported":1683410750,"current_range_meters":0,"station_id":"ce4bgt92rcd13ifvqcg0","pricing_plan_id":"free"},{"bike_id":"0fcc3bc2-6ba4-4650-bf96-4cf18964f223","system_id":"levelo_inurba_marseille","lat":43.317075,"lon":5.377367,"is_reserved":false,"is_disabled":false,"rental_uris":{"android":"levelo://app?vid=0fcc3bc2-6ba4-4650-bf96-4cf18964f223","ios":"levelo://app?vid=0fcc3bc2-6ba4-4650-bf96-4cf18964f223"},"vehicle_type_id":"4","last_reported":1683410750,"current_range_meters":31200,"station_id":"ce4bgth2rcd13ifvqch0","pricing_plan_id":"free"},{"bike_id":"bcbdb51c-fef5-424a-a0ff-c67a1197276e","system_id":"levelo_inurba_marseille","lat":43.317075,"lon":5.377367,"is_reserved":false,"is_disabled":false,"rental_uris":{"android":"levelo://app?vid=bcbdb51c-fef5-424a-a0ff-c67a1197276e","ios":"levelo://app?vid=bcbdb51c-fef5-424a-a0ff-c67a1197276e"},"vehicle_type_id":"4","last_reported":1683410750,"current_range_meters":15200,"station_id":"ce4bgth2rcd13ifvqch0","pricing_plan_id":"free"},{"bike_id":"e985851e-177a-4ab8-9c5c-743517ccc1af","system_id":"levelo_inurba_marseille","lat":43.303046,"lon":5.368981,"is_reserved":false,"is_disabled":false,"rental_uris":{"android":"levelo://app?vid=e985851e-177a-4ab8-9c5c-743517ccc1af","ios":"levelo://app?vid=e985851e-177a-4ab8-9c5c-743517ccc1af"},"vehicle_type_id":"4","last_reported":1683410750,"current_range_meters":25200,"station_id":"ce4bgqh2rcd13ifvqc5g","pricing_plan_id":"free"},{"bike_id":"82ee987f-ee8f-4a2b-8643-a39f7d1c6ad5","system_id":"levelo_inurba_marseille","lat":43.30304,"lon":5.368987,"is_reserved":false,"is_disabled":false,"rental_uris":{"android":"levelo://app?vid=82ee987f-ee8f-4a2b-8643-a39f7d1c6ad5","ios":"levelo://app?vid=82ee987f-ee8f-4a2b-8643-a39f7d1c6ad5"},"vehicle_type_id":"4","last_reported":1683410750,"current_range_meters":26400,"station_id":"ce4bgqh2rcd13ifvqc5g","pricing_plan_id":"free"},{"bike_id":"735db315-86c0-4415-86a5-2e460158fbcf","system_id":"levelo_inurba_marseille","lat":43.308022,"lon":5.381445,"is_reserved":false,"is_disabled":false,"rental_uris":{"android":"levelo://app?vid=735db315-86c0-4415-86a5-2e460158fbcf","ios":"levelo://app?vid=735db315-86c0-4415-86a5-2e460158fbcf"},"vehicle_type_id":"4","last_reported":1683410750,"current_range_meters":18800,"station_id":"ce4bgt12rcd13ifvqce0","pricing_plan_id":"free"},{"bike_id":"f9d4a628-88ac-453e-9d35-8dc6d0abd2ee","system_id":"levelo_inurba_marseille","lat":43.308012,"lon":5.381511,"is_reserved":false,"is_disabled":false,"rental_uris":{"android":"levelo://app?vid=f9d4a628-88ac-453e-9d35-8dc6d0abd2ee","ios":"levelo://app?vid=f9d4a628-88ac-453e-9d35-8dc6d0abd2ee"},"vehicle_type_id":"4","last_reported":1683410750,"current_range_meters":6000,"station_id":"ce4bgt12rcd13ifvqce0","pricing_plan_id":"free"},{"bike_id":"12d101a6-7079-47e4-96eb-31df13af5ab6","system_id":"levelo_inurba_marseille","lat":43.308012,"lon":5.381511,"is_reserved":false,"is_disabled":false,"rental_uris":{"android":"levelo://app?vid=12d101a6-7079-47e4-96eb-31df13af5ab6","ios":"levelo://app?vid=12d101a6-7079-47e4-96eb-31df13af5ab6"},"vehicle_type_id":"4","last_reported":1683410750,"current_range_meters":18000,"station_id":"ce4bgt12rcd13ifvqce0","pricing_plan_id":"free"},{"bike_id":"db100ee9-c49b-4ee7-aa34-9346bb696bf7","system_id":"levelo_inurba_marseille","lat":43.308012,"lon":5.381511,"is_reserved":false,"is_disabled":false,"rental_uris":{"android":"levelo://app?vid=db100ee9-c49b-4ee7-aa34-9346bb696bf7","ios":"levelo://app?vid=db100ee9-c49b-4ee7-aa34-9346bb696bf7"},"vehicle_type_id":"4","last_reported":1683410750,"current_range_meters":20400,"station_id":"ce4bgt12rcd13ifvqce0","pricing_plan_id":"free"},{"bike_id":"5d515ba4-c936-4bd9-a073-e90179fd330e","system_id":"levelo_inurba_marseille","lat":43.308012,"lon":5.381511,"is_reserved":false,"is_disabled":false,"rental_uris":{"android":"levelo://app?vid=5d515ba4-c936-4bd9-a073-e90179fd330e","ios":"levelo://app?vid=5d515ba4-c936-4bd9-a073-e90179fd330e"},"vehicle_type_id":"4","last_reported":1683410750,"current_range_meters":800,"station_id":"ce4bgt12rcd13ifvqce0","pricing_plan_id":"free"},{"bike_id":"0aec4e78-2eb0-4bea-aab4-8db4348e56ec","system_id":"levelo_inurba_marseille","lat":43.30808,"lon":5.38157,"is_reserved":false,"is_disabled":false,"rental_uris":{"android":"levelo://app?vid=0aec4e78-2eb0-4bea-aab4-8db4348e56ec","ios":"levelo://app?vid=0aec4e78-2eb0-4bea-aab4-8db4348e56ec"},"vehicle_type_id":"4","last_reported":1683410750,"current_range_meters":0,"station_id":"ce4bgt12rcd13ifvqce0","pricing_plan_id":"free"},{"bike_id":"f25f4f1b-94b8-4324-9385-61d5ed784b3b","system_id":"levelo_inurba_marseille","lat":43.308012,"lon":5.381511,"is_reserved":false,"is_disabled":false,"rental_uris":{"android":"levelo://app?vid=f25f4f1b-94b8-4324-9385-61d5ed784b3b","ios":"levelo://app?vid=f25f4f1b-94b8-4324-9385-61d5ed784b3b"},"vehicle_type_id":"4","last_reported":1683410750,"current_range_meters":7200,"station_id":"ce4bgt12rcd13ifvqce0","pricing_plan_id":"free"},{"bike_id":"f6351fa2-f816-47b1-975d-aea90323641b","system_id":"levelo_inurba_marseille","lat":43.308012,"lon":5.381511,"is_reserved":false,"is_disabled":false,"rental_uris":{"android":"levelo://app?vid=f6351fa2-f816-47b1-975d-aea90323641b","ios":"levelo://app?vid=f6351fa2-f816-47b1-975d-aea90323641b"},"vehicle_type_id":"4","last_reported":1683410750,"current_range_meters":3200,"station_id":"ce4bgt12rcd13ifvqce0","pricing_plan_id":"free"},{"bike_id":"caa46269-6068-40e0-9a74-33cf5f0f2dc7","system_id":"levelo_inurba_marseille","lat":43.304606,"lon":5.379026,"is_reserved":false,"is_disabled":false,"rental_uris":{"android":"levelo://app?vid=caa46269-6068-40e0-9a74-33cf5f0f2dc7","ios":"levelo://app?vid=caa46269-6068-40e0-9a74-33cf5f0f2dc7"},"vehicle_type_id":"4","last_reported":1683410750,"current_range_meters":6000,"station_id":"ce4bgup2rcd13ifvqcn0","pricing_plan_id":"free"},{"bike_id":"92193100-4b86-450e-8cbb-1acf69bb142c","system_id":"levelo_inurba_marseille","lat":43.304606,"lon":5.379026,"is_reserved":false,"is_disabled":false,"rental_uris":{"android":"levelo://app?vid=92193100-4b86-450e-8cbb-1acf69bb142c","ios":"levelo://app?vid=92193100-4b86-450e-8cbb-1acf69bb142c"},"vehicle_type_id":"4","last_reported":1683410750,"current_range_meters":14000,"station_id":"ce4bgup2rcd13ifvqcn0","pricing_plan_id":"free"},{"bike_id":"a34f34a1-af32-4036-814d-2b0552858a9f","system_id":"levelo_inurba_marseille","lat":43.304606,"lon":5.379026,"is_reserved":false,"is_disabled":false,"rental_uris":{"android":"levelo://app?vid=a34f34a1-af32-4036-814d-2b0552858a9f","ios":"levelo://app?vid=a34f34a1-af32-4036-814d-2b0552858a9f"},"vehicle_type_id":"4","last_reported":1683410750,"current_range_meters":12400,"station_id":"ce4bgup2rcd13ifvqcn0","pricing_plan_id":"free"},{"bike_id":"15ffeffc-7251-4bef-a4ed-5b3acf1ada50","system_id":"levelo_inurba_marseille","lat":43.30456,"lon":5.3792,"is_reserved":false,"is_disabled":false,"rental_uris":{"android":"levelo://app?vid=15ffeffc-7251-4bef-a4ed-5b3acf1ada50","ios":"levelo://app?vid=15ffeffc-7251-4bef-a4ed-5b3acf1ada50"},"vehicle_type_id":"4","last_reported":1683410750,"current_range_meters":8800,"station_id":"ce4bgup2rcd13ifvqcn0","pricing_plan_id":"free"},{"bike_id":"3df80b9a-ff71-4739-a199-301eed21288c","system_id":"levelo_inurba_marseille","lat":43.30143,"lon":5.37413,"is_reserved":false,"is_disabled":false,"rental_uris":{"android":"levelo://app?vid=3df80b9a-ff71-4739-a199-301eed21288c","ios":"levelo://app?vid=3df80b9a-ff71-4739-a199-301eed21288c"},"vehicle_type_id":"4","last_reported":1683410750,"current_range_meters":16800,"station_id":"ce4bgs92rcd13ifvqcc0","pricing_plan_id":"free"},{"bike_id":"cc586232-4c64-48d8-be7f-2b3abf9cba14","system_id":"levelo_inurba_marseille","lat":43.313571,"lon":5.384829,"is_reserved":false,"is_disabled":false,"rental_uris":{"android":"levelo://app?vid=cc586232-4c64-48d8-be7f-2b3abf9cba14","ios":"levelo://app?vid=cc586232-4c64-48d8-be7f-2b3abf9cba14"},"vehicle_type_id":"4","last_reported":1683410750,"current_range_meters":1600,"station_id":"ce4bgt92rcd13ifvqcf0","pricing_plan_id":"free"},{"bike_id":"288109fe-ed3a-4d3d-bf48-cbcad35de74f","system_id":"levelo_inurba_marseille","lat":43.313571,"lon":5.384829,"is_reserved":false,"is_disabled":false,"rental_uris":{"android":"levelo://app?vid=288109fe-ed3a-4d3d-bf48-cbcad35de74f","ios":"levelo://app?vid=288109fe-ed3a-4d3d-bf48-cbcad35de74f"},"vehicle_type_id":"4","last_reported":1683410750,"current_range_meters":27200,"station_id":"ce4bgt92rcd13ifvqcf0","pricing_plan_id":"free"},{"bike_id":"9c03582b-25d2-497b-afed-91a56ab1c36a","system_id":"levelo_inurba_marseille","lat":43.313571,"lon":5.384829,"is_reserved":false,"is_disabled":false,"rental_uris":{"android":"levelo://app?vid=9c03582b-25d2-497b-afed-91a56ab1c36a","ios":"levelo://app?vid=9c03582b-25d2-497b-afed-91a56ab1c36a"},"vehicle_type_id":"4","last_reported":1683410750,"current_range_meters":400,"station_id":"ce4bgt92rcd13ifvqcf0","pricing_plan_id":"free"},{"bike_id":"aea7f314-6e7f-460e-beee-6f08abd0d35a","system_id":"levelo_inurba_marseille","lat":43.313571,"lon":5.384829,"is_reserved":false,"is_disabled":false,"rental_uris":{"android":"levelo://app?vid=aea7f314-6e7f-460e-beee-6f08abd0d35a","ios":"levelo://app?vid=aea7f314-6e7f-460e-beee-6f08abd0d35a"},"vehicle_type_id":"4","last_reported":1683410750,"current_range_meters":15600,"station_id":"ce4bgt92rcd13ifvqcf0","pricing_plan_id":"free"},{"bike_id":"a85b848b-1c4d-47ba-aa76-c27d1762a076","system_id":"levelo_inurba_marseille","lat":43.313571,"lon":5.384829,"is_reserved":false,"is_disabled":false,"rental_uris":{"android":"levelo://app?vid=a85b848b-1c4d-47ba-aa76-c27d1762a076","ios":"levelo://app?vid=a85b848b-1c4d-47ba-aa76-c27d1762a076"},"vehicle_type_id":"4","last_reported":1683410750,"current_range_meters":3600,"station_id":"ce4bgt92rcd13ifvqcf0","pricing_plan_id":"free"},{"bike_id":"e51ae06d-8ef8-4b93-a071-0c598f1b9e7a","system_id":"levelo_inurba_marseille","lat":43.313571,"lon":5.384829,"is_reserved":false,"is_disabled":false,"rental_uris":{"android":"levelo://app?vid=e51ae06d-8ef8-4b93-a071-0c598f1b9e7a","ios":"levelo://app?vid=e51ae06d-8ef8-4b93-a071-0c598f1b9e7a"},"vehicle_type_id":"4","last_reported":1683410750,"current_range_meters":3200,"station_id":"ce4bgt92rcd13ifvqcf0","pricing_plan_id":"free"},{"bike_id":"16b378fc-a64b-4339-ae98-9e0df643b7d3","system_id":"levelo_inurba_marseille","lat":43.313571,"lon":5.384829,"is_reserved":false,"is_disabled":false,"rental_uris":{"android":"levelo://app?vid=16b378fc-a64b-4339-ae98-9e0df643b7d3","ios":"levelo://app?vid=16b378fc-a64b-4339-ae98-9e0df643b7d3"},"vehicle_type_id":"4","last_reported":1683410750,"current_range_meters":9600,"station_id":"ce4bgt92rcd13ifvqcf0","pricing_plan_id":"free"},{"bike_id":"35095b63-4149-4d9d-ac8e-37914b09e565","system_id":"levelo_inurba_marseille","lat":43.313571,"lon":5.384829,"is_reserved":false,"is_disabled":false,"rental_uris":{"android":"levelo://app?vid=35095b63-4149-4d9d-ac8e-37914b09e565","ios":"levelo://app?vid=35095b63-4149-4d9d-ac8e-37914b09e565"},"vehicle_type_id":"4","last_reported":1683410750,"current_range_meters":15200,"station_id":"ce4bgt92rcd13ifvqcf0","pricing_plan_id":"free"},{"bike_id":"9a52a7ed-2cb8-4136-a087-3c3f0f0e253a","system_id":"levelo_inurba_marseille","lat":43.299209,"lon":5.365547,"is_reserved":false,"is_disabled":false,"rental_uris":{"android":"levelo://app?vid=9a52a7ed-2cb8-4136-a087-3c3f0f0e253a","ios":"levelo://app?vid=9a52a7ed-2cb8-4136-a087-3c3f0f0e253a"},"vehicle_type_id":"4","last_reported":1683410750,"current_range_meters":5200,"station_id":"ce4bgm92rcd13ifvqbr0","pricing_plan_id":"free"},{"bike_id":"be1c07f8-2b7d-4865-9513-5d6169ea5218","system_id":"levelo_inurba_marseille","lat":43.305364,"lon":5.384119,"is_reserved":false,"is_disabled":false,"rental_uris":{"android":"levelo://app?vid=be1c07f8-2b7d-4865-9513-5d6169ea5218","ios":"levelo://app?vid=be1c07f8-2b7d-4865-9513-5d6169ea5218"},"vehicle_type_id":"4","last_reported":1683410750,"current_range_meters":12800,"station_id":"ce4bgg92rcd13ifvqb30","pricing_plan_id":"free"},{"bike_id":"56791214-18e8-4d1b-bd31-c9ee9f09665a","system_id":"levelo_inurba_marseille","lat":43.298433,"lon":5.362774,"is_reserved":false,"is_disabled":false,"rental_uris":{"android":"levelo://app?vid=56791214-18e8-4d1b-bd31-c9ee9f09665a","ios":"levelo://app?vid=56791214-18e8-4d1b-bd31-c9ee9f09665a"},"vehicle_type_id":"4","last_reported":1683410750,"current_range_meters":8000,"station_id":"ce4bgpp2rcd13ifvqc3g","pricing_plan_id":"free"},{"bike_id":"0e37784c-9d30-46c5-91cd-52ab993206d0","system_id":"levelo_inurba_marseille","lat":43.298433,"lon":5.362774,"is_reserved":false,"is_disabled":false,"rental_uris":{"android":"levelo://app?vid=0e37784c-9d30-46c5-91cd-52ab993206d0","ios":"levelo://app?vid=0e37784c-9d30-46c5-91cd-52ab993206d0"},"vehicle_type_id":"4","last_reported":1683410750,"current_range_meters":12000,"station_id":"ce4bgpp2rcd13ifvqc3g","pricing_plan_id":"free"},{"bike_id":"8b8d7a31-f70d-4725-8d34-b3d6ea93892e","system_id":"levelo_inurba_marseille","lat":43.305364,"lon":5.384119,"is_reserved":false,"is_disabled":false,"rental_uris":{"android":"levelo://app?vid=8b8d7a31-f70d-4725-8d34-b3d6ea93892e","ios":"levelo://app?vid=8b8d7a31-f70d-4725-8d34-b3d6ea93892e"},"vehicle_type_id":"4","last_reported":1683410750,"current_range_meters":3200,"station_id":"ce4bgg92rcd13ifvqb30","pricing_plan_id":"free"},{"bike_id":"6e1ccea3-5afd-4d28-94d3-6330f3b29cb7","system_id":"levelo_inurba_marseille","lat":43.305364,"lon":5.384119,"is_reserved":false,"is_disabled":false,"rental_uris":{"android":"levelo://app?vid=6e1ccea3-5afd-4d28-94d3-6330f3b29cb7","ios":"levelo://app?vid=6e1ccea3-5afd-4d28-94d3-6330f3b29cb7"},"vehicle_type_id":"4","last_reported":1683410750,"current_range_meters":12400,"station_id":"ce4bgg92rcd13ifvqb30","pricing_plan_id":"free"},{"bike_id":"844a6d8f-dc12-466f-b019-238a4a4ed0f8","system_id":"levelo_inurba_marseille","lat":43.305364,"lon":5.384119,"is_reserved":false,"is_disabled":false,"rental_uris":{"android":"levelo://app?vid=844a6d8f-dc12-466f-b019-238a4a4ed0f8","ios":"levelo://app?vid=844a6d8f-dc12-466f-b019-238a4a4ed0f8"},"vehicle_type_id":"4","last_reported":1683410750,"current_range_meters":800,"station_id":"ce4bgg92rcd13ifvqb30","pricing_plan_id":"free"},{"bike_id":"aba50e0b-5c25-48f4-bd6d-440f8726f1f3","system_id":"levelo_inurba_marseille","lat":43.3029,"lon":5.38183,"is_reserved":false,"is_disabled":false,"rental_uris":{"android":"levelo://app?vid=aba50e0b-5c25-48f4-bd6d-440f8726f1f3","ios":"levelo://app?vid=aba50e0b-5c25-48f4-bd6d-440f8726f1f3"},"vehicle_type_id":"4","last_reported":1683410750,"current_range_meters":6000,"station_id":"","pricing_plan_id":"free"},{"bike_id":"0a3e5018-42cc-4b44-9ea5-5b1a1f4c2e73","system_id":"levelo_inurba_marseille","lat":43.311722,"lon":5.387247,"is_reserved":false,"is_disabled":false,"rental_uris":{"android":"levelo://app?vid=0a3e5018-42cc-4b44-9ea5-5b1a1f4c2e73","ios":"levelo://app?vid=0a3e5018-42cc-4b44-9ea5-5b1a1f4c2e73"},"vehicle_type_id":"4","last_reported":1683410750,"current_range_meters":31600,"station_id":"ce4bgv12rcd13ifvqcp0","pricing_plan_id":"free"},{"bike_id":"fde2d51b-bca9-4bd9-888c-f5478e778443","system_id":"levelo_inurba_marseille","lat":43.311722,"lon":5.387247,"is_reserved":false,"is_disabled":false,"rental_uris":{"android":"levelo://app?vid=fde2d51b-bca9-4bd9-888c-f5478e778443","ios":"levelo://app?vid=fde2d51b-bca9-4bd9-888c-f5478e778443"},"vehicle_type_id":"4","last_reported":1683410750,"current_range_meters":31200,"station_id":"ce4bgv12rcd13ifvqcp0","pricing_plan_id":"free"},{"bike_id":"55413a9d-70fd-4ed3-a836-14ec7f2a0b70","system_id":"levelo_inurba_marseille","lat":43.311722,"lon":5.387247,"is_reserved":false,"is_disabled":false,"rental_uris":{"android":"levelo://app?vid=55413a9d-70fd-4ed3-a836-14ec7f2a0b70","ios":"levelo://app?vid=55413a9d-70fd-4ed3-a836-14ec7f2a0b70"},"vehicle_type_id":"4","last_reported":1683410750,"current_range_meters":31200,"station_id":"ce4bgv12rcd13ifvqcp0","pricing_plan_id":"free"},{"bike_id":"09905636-2fde-43db-a48a-c876f232e946","system_id":"levelo_inurba_marseille","lat":43.311722,"lon":5.387247,"is_reserved":false,"is_disabled":false,"rental_uris":{"android":"levelo://app?vid=09905636-2fde-43db-a48a-c876f232e946","ios":"levelo://app?vid=09905636-2fde-43db-a48a-c876f232e946"},"vehicle_type_id":"4","last_reported":1683410750,"current_range_meters":27600,"station_id":"ce4bgv12rcd13ifvqcp0","pricing_plan_id":"free"},{"bike_id":"8c068111-e8b2-43d6-a16b-3a2446497765","system_id":"levelo_inurba_marseille","lat":43.311722,"lon":5.387247,"is_reserved":false,"is_disabled":false,"rental_uris":{"android":"levelo://app?vid=8c068111-e8b2-43d6-a16b-3a2446497765","ios":"levelo://app?vid=8c068111-e8b2-43d6-a16b-3a2446497765"},"vehicle_type_id":"4","last_reported":1683410750,"current_range_meters":19200,"station_id":"ce4bgv12rcd13ifvqcp0","pricing_plan_id":"free"},{"bike_id":"3b90d079-5e9b-4e96-959c-50f4a067e20c","system_id":"levelo_inurba_marseille","lat":43.311722,"lon":5.387247,"is_reserved":false,"is_disabled":false,"rental_uris":{"android":"levelo://app?vid=3b90d079-5e9b-4e96-959c-50f4a067e20c","ios":"levelo://app?vid=3b90d079-5e9b-4e96-959c-50f4a067e20c"},"vehicle_type_id":"4","last_reported":1683410750,"current_range_meters":16800,"station_id":"ce4bgv12rcd13ifvqcp0","pricing_plan_id":"free"},{"bike_id":"395a1951-c8db-44d0-bf4a-95f5910f235d","system_id":"levelo_inurba_marseille","lat":43.311722,"lon":5.387247,"is_reserved":false,"is_disabled":false,"rental_uris":{"android":"levelo://app?vid=395a1951-c8db-44d0-bf4a-95f5910f235d","ios":"levelo://app?vid=395a1951-c8db-44d0-bf4a-95f5910f235d"},"vehicle_type_id":"4","last_reported":1683410750,"current_range_meters":3600,"station_id":"ce4bgv12rcd13ifvqcp0","pricing_plan_id":"free"},{"bike_id":"ee23a5e6-55ec-4d77-a76c-70f812e09101","system_id":"levelo_inurba_marseille","lat":43.29997,"lon":5.37755,"is_reserved":false,"is_disabled":false,"rental_uris":{"android":"levelo://app?vid=ee23a5e6-55ec-4d77-a76c-70f812e09101","ios":"levelo://app?vid=ee23a5e6-55ec-4d77-a76c-70f812e09101"},"vehicle_type_id":"4","last_reported":1683410750,"current_range_meters":18400,"station_id":"","pricing_plan_id":"free"},{"bike_id":"ebfff8e2-ca02-4dec-9410-57e28844da37","system_id":"levelo_inurba_marseille","lat":43.297794,"lon":5.370888,"is_reserved":false,"is_disabled":false,"rental_uris":{"android":"levelo://app?vid=ebfff8e2-ca02-4dec-9410-57e28844da37","ios":"levelo://app?vid=ebfff8e2-ca02-4dec-9410-57e28844da37"},"vehicle_type_id":"4","last_reported":1683410750,"current_range_meters":24400,"station_id":"ce4bgop2rcd13ifvqc1g","pricing_plan_id":"free"},{"bike_id":"ed12c0d8-2667-4d0c-9f97-d9b219fe4186","system_id":"levelo_inurba_marseille","lat":43.297794,"lon":5.370888,"is_reserved":false,"is_disabled":false,"rental_uris":{"android":"levelo://app?vid=ed12c0d8-2667-4d0c-9f97-d9b219fe4186","ios":"levelo://app?vid=ed12c0d8-2667-4d0c-9f97-d9b219fe4186"},"vehicle_type_id":"4","last_reported":1683410750,"current_range_meters":2000,"station_id":"ce4bgop2rcd13ifvqc1g","pricing_plan_id":"free"},{"bike_id":"ebba5a22-7d26-47e7-9981-d6d3a5800b44","system_id":"levelo_inurba_marseille","lat":43.32826,"lon":5.36683,"is_reserved":false,"is_disabled":false,"rental_uris":{"android":"levelo://app?vid=ebba5a22-7d26-47e7-9981-d6d3a5800b44","ios":"levelo://app?vid=ebba5a22-7d26-47e7-9981-d6d3a5800b44"},"vehicle_type_id":"4","last_reported":1683410750,"current_range_meters":800,"station_id":"ce4bhs92rcd13ifvqi0g","pricing_plan_id":"free"},{"bike_id":"30587bba-0482-49c5-ac3a-0b1318e8d80c","system_id":"levelo_inurba_marseille","lat":43.32827,"lon":5.36686,"is_reserved":false,"is_disabled":false,"rental_uris":{"android":"levelo://app?vid=30587bba-0482-49c5-ac3a-0b1318e8d80c","ios":"levelo://app?vid=30587bba-0482-49c5-ac3a-0b1318e8d80c"},"vehicle_type_id":"4","last_reported":1683410750,"current_range_meters":14000,"station_id":"ce4bhs92rcd13ifvqi0g","pricing_plan_id":"free"},{"bike_id":"fa495c37-f7d4-465f-a146-0169143d7693","system_id":"levelo_inurba_marseille","lat":43.328371,"lon":5.366912,"is_reserved":false,"is_disabled":false,"rental_uris":{"android":"levelo://app?vid=fa495c37-f7d4-465f-a146-0169143d7693","ios":"levelo://app?vid=fa495c37-f7d4-465f-a146-0169143d7693"},"vehicle_type_id":"4","last_reported":1683410750,"current_range_meters":12800,"station_id":"ce4bhs92rcd13ifvqi0g","pricing_plan_id":"free"},{"bike_id":"cb03d0a7-8198-46ba-b8e4-07d3539f0078","system_id":"levelo_inurba_marseille","lat":43.328371,"lon":5.366912,"is_reserved":false,"is_disabled":false,"rental_uris":{"android":"levelo://app?vid=cb03d0a7-8198-46ba-b8e4-07d3539f0078","ios":"levelo://app?vid=cb03d0a7-8198-46ba-b8e4-07d3539f0078"},"vehicle_type_id":"4","last_reported":1683410750,"current_range_meters":17200,"station_id":"ce4bhs92rcd13ifvqi0g","pricing_plan_id":"free"},{"bike_id":"12d4b821-0cea-4e9f-935f-354ee9cd9e8b","system_id":"levelo_inurba_marseille","lat":43.32833,"lon":5.36693,"is_reserved":false,"is_disabled":false,"rental_uris":{"android":"levelo://app?vid=12d4b821-0cea-4e9f-935f-354ee9cd9e8b","ios":"levelo://app?vid=12d4b821-0cea-4e9f-935f-354ee9cd9e8b"},"vehicle_type_id":"4","last_reported":1683410750,"current_range_meters":23200,"station_id":"ce4bhs92rcd13ifvqi0g","pricing_plan_id":"free"},{"bike_id":"05c44ec8-9bf2-419a-aafa-32210ead3afe","system_id":"levelo_inurba_marseille","lat":43.32833,"lon":5.36684,"is_reserved":false,"is_disabled":false,"rental_uris":{"android":"levelo://app?vid=05c44ec8-9bf2-419a-aafa-32210ead3afe","ios":"levelo://app?vid=05c44ec8-9bf2-419a-aafa-32210ead3afe"},"vehicle_type_id":"4","last_reported":1683410750,"current_range_meters":28800,"station_id":"ce4bhs92rcd13ifvqi0g","pricing_plan_id":"free"},{"bike_id":"f7058cbd-13d6-4363-8a29-3f09f8ac5d4d","system_id":"levelo_inurba_marseille","lat":43.32833,"lon":5.3668,"is_reserved":false,"is_disabled":false,"rental_uris":{"android":"levelo://app?vid=f7058cbd-13d6-4363-8a29-3f09f8ac5d4d","ios":"levelo://app?vid=f7058cbd-13d6-4363-8a29-3f09f8ac5d4d"},"vehicle_type_id":"4","last_reported":1683410750,"current_range_meters":1600,"station_id":"ce4bhs92rcd13ifvqi0g","pricing_plan_id":"free"},{"bike_id":"58a4b5a9-3b99-4d17-87b0-5d38697b3565","system_id":"levelo_inurba_marseille","lat":43.32833,"lon":5.36677,"is_reserved":false,"is_disabled":false,"rental_uris":{"android":"levelo://app?vid=58a4b5a9-3b99-4d17-87b0-5d38697b3565","ios":"levelo://app?vid=58a4b5a9-3b99-4d17-87b0-5d38697b3565"},"vehicle_type_id":"4","last_reported":1683410750,"current_range_meters":13600,"station_id":"ce4bhs92rcd13ifvqi0g","pricing_plan_id":"free"},{"bike_id":"a530905d-c529-4875-b459-f28e3a7844a4","system_id":"levelo_inurba_marseille","lat":43.32834,"lon":5.36681,"is_reserved":false,"is_disabled":false,"rental_uris":{"android":"levelo://app?vid=a530905d-c529-4875-b459-f28e3a7844a4","ios":"levelo://app?vid=a530905d-c529-4875-b459-f28e3a7844a4"},"vehicle_type_id":"4","last_reported":1683410750,"current_range_meters":18400,"station_id":"ce4bhs92rcd13ifvqi0g","pricing_plan_id":"free"},{"bike_id":"73868a82-6310-47a2-b64f-e84244206b53","system_id":"levelo_inurba_marseille","lat":43.32834,"lon":5.36681,"is_reserved":false,"is_disabled":false,"rental_uris":{"android":"levelo://app?vid=73868a82-6310-47a2-b64f-e84244206b53","ios":"levelo://app?vid=73868a82-6310-47a2-b64f-e84244206b53"},"vehicle_type_id":"4","last_reported":1683410750,"current_range_meters":6400,"station_id":"ce4bhs92rcd13ifvqi0g","pricing_plan_id":"free"},{"bike_id":"c409266a-97dd-4c8e-b99d-6eca39371552","system_id":"levelo_inurba_marseille","lat":43.32836,"lon":5.36695,"is_reserved":false,"is_disabled":false,"rental_uris":{"android":"levelo://app?vid=c409266a-97dd-4c8e-b99d-6eca39371552","ios":"levelo://app?vid=c409266a-97dd-4c8e-b99d-6eca39371552"},"vehicle_type_id":"4","last_reported":1683410750,"current_range_meters":4000,"station_id":"ce4bhs92rcd13ifvqi0g","pricing_plan_id":"free"},{"bike_id":"aafcc005-5e38-4c52-a10d-6d0f89f0012b","system_id":"levelo_inurba_marseille","lat":43.302008,"lon":5.394694,"is_reserved":false,"is_disabled":false,"rental_uris":{"android":"levelo://app?vid=aafcc005-5e38-4c52-a10d-6d0f89f0012b","ios":"levelo://app?vid=aafcc005-5e38-4c52-a10d-6d0f89f0012b"},"vehicle_type_id":"4","last_reported":1683410750,"current_range_meters":3200,"station_id":"ce4bh0p2rcd13ifvqd70","pricing_plan_id":"free"},{"bike_id":"43ef989d-954c-471e-9f96-c8ff34d0c791","system_id":"levelo_inurba_marseille","lat":43.296131,"lon":5.370791,"is_reserved":false,"is_disabled":false,"rental_uris":{"android":"levelo://app?vid=43ef989d-954c-471e-9f96-c8ff34d0c791","ios":"levelo://app?vid=43ef989d-954c-471e-9f96-c8ff34d0c791"},"vehicle_type_id":"4","last_reported":1683410750,"current_range_meters":2400,"station_id":"ce4bgnh2rcd13ifvqc0g","pricing_plan_id":"free"},{"bike_id":"b61366dc-67f9-4b1f-8f27-f9e0bd4fc15a","system_id":"levelo_inurba_marseille","lat":43.29908,"lon":5.38131,"is_reserved":false,"is_disabled":false,"rental_uris":{"android":"levelo://app?vid=b61366dc-67f9-4b1f-8f27-f9e0bd4fc15a","ios":"levelo://app?vid=b61366dc-67f9-4b1f-8f27-f9e0bd4fc15a"},"vehicle_type_id":"4","last_reported":1683410750,"current_range_meters":11200,"station_id":"ce4bgj12rcd13ifvqbc0","pricing_plan_id":"free"},{"bike_id":"05dc5714-a860-4080-b0cf-fc68f8bcf092","system_id":"levelo_inurba_marseille","lat":43.30955,"lon":5.39034,"is_reserved":false,"is_disabled":false,"rental_uris":{"android":"levelo://app?vid=05dc5714-a860-4080-b0cf-fc68f8bcf092","ios":"levelo://app?vid=05dc5714-a860-4080-b0cf-fc68f8bcf092"},"vehicle_type_id":"4","last_reported":1683410750,"current_range_meters":10000,"station_id":"ce4bgup2rcd13ifvqco0","pricing_plan_id":"free"},{"bike_id":"e2fc5a62-0634-4cb5-889e-1520208a3300","system_id":"levelo_inurba_marseille","lat":43.30945,"lon":5.39032,"is_reserved":false,"is_disabled":false,"rental_uris":{"android":"levelo://app?vid=e2fc5a62-0634-4cb5-889e-1520208a3300","ios":"levelo://app?vid=e2fc5a62-0634-4cb5-889e-1520208a3300"},"vehicle_type_id":"4","last_reported":1683410750,"current_range_meters":1200,"station_id":"ce4bgup2rcd13ifvqco0","pricing_plan_id":"free"},{"bike_id":"bac21cc3-5eb1-4b10-ac25-2cffe6a18048","system_id":"levelo_inurba_marseille","lat":43.309589,"lon":5.390258,"is_reserved":false,"is_disabled":false,"rental_uris":{"android":"levelo://app?vid=bac21cc3-5eb1-4b10-ac25-2cffe6a18048","ios":"levelo://app?vid=bac21cc3-5eb1-4b10-ac25-2cffe6a18048"},"vehicle_type_id":"4","last_reported":1683410750,"current_range_meters":12800,"station_id":"ce4bgup2rcd13ifvqco0","pricing_plan_id":"free"},{"bike_id":"23538473-e0f7-416e-82b6-b297ee973637","system_id":"levelo_inurba_marseille","lat":43.30945,"lon":5.39034,"is_reserved":false,"is_disabled":false,"rental_uris":{"android":"levelo://app?vid=23538473-e0f7-416e-82b6-b297ee973637","ios":"levelo://app?vid=23538473-e0f7-416e-82b6-b297ee973637"},"vehicle_type_id":"4","last_reported":1683410750,"current_range_meters":22000,"station_id":"ce4bgup2rcd13ifvqco0","pricing_plan_id":"free"},{"bike_id":"39635811-f5a9-4da4-a790-894b929cd8bc","system_id":"levelo_inurba_marseille","lat":43.30942,"lon":5.39035,"is_reserved":false,"is_disabled":false,"rental_uris":{"android":"levelo://app?vid=39635811-f5a9-4da4-a790-894b929cd8bc","ios":"levelo://app?vid=39635811-f5a9-4da4-a790-894b929cd8bc"},"vehicle_type_id":"4","last_reported":1683410750,"current_range_meters":400,"station_id":"ce4bgup2rcd13ifvqco0","pricing_plan_id":"free"},{"bike_id":"6ee78b2e-ceae-4d6d-9854-179328b36d1b","system_id":"levelo_inurba_marseille","lat":43.309589,"lon":5.390258,"is_reserved":false,"is_disabled":false,"rental_uris":{"android":"levelo://app?vid=6ee78b2e-ceae-4d6d-9854-179328b36d1b","ios":"levelo://app?vid=6ee78b2e-ceae-4d6d-9854-179328b36d1b"},"vehicle_type_id":"4","last_reported":1683410750,"current_range_meters":10800,"station_id":"ce4bgup2rcd13ifvqco0","pricing_plan_id":"free"},{"bike_id":"2e6f7f5a-1b2c-43dd-bb35-a59336b7d4bc","system_id":"levelo_inurba_marseille","lat":43.30944,"lon":5.39037,"is_reserved":false,"is_disabled":false,"rental_uris":{"android":"levelo://app?vid=2e6f7f5a-1b2c-43dd-bb35-a59336b7d4bc","ios":"levelo://app?vid=2e6f7f5a-1b2c-43dd-bb35-a59336b7d4bc"},"vehicle_type_id":"4","last_reported":1683410750,"current_range_meters":5200,"station_id":"ce4bgup2rcd13ifvqco0","pricing_plan_id":"free"},{"bike_id":"5f556b7c-b9bb-4db8-a158-1ced3c1ea202","system_id":"levelo_inurba_marseille","lat":43.309589,"lon":5.390258,"is_reserved":false,"is_disabled":false,"rental_uris":{"android":"levelo://app?vid=5f556b7c-b9bb-4db8-a158-1ced3c1ea202","ios":"levelo://app?vid=5f556b7c-b9bb-4db8-a158-1ced3c1ea202"},"vehicle_type_id":"4","last_reported":1683410750,"current_range_meters":17200,"station_id":"ce4bgup2rcd13ifvqco0","pricing_plan_id":"free"},{"bike_id":"d5e71ddf-05d1-49c4-9961-706a323add67","system_id":"levelo_inurba_marseille","lat":43.309589,"lon":5.390258,"is_reserved":false,"is_disabled":false,"rental_uris":{"android":"levelo://app?vid=d5e71ddf-05d1-49c4-9961-706a323add67","ios":"levelo://app?vid=d5e71ddf-05d1-49c4-9961-706a323add67"},"vehicle_type_id":"4","last_reported":1683410750,"current_range_meters":12400,"station_id":"ce4bgup2rcd13ifvqco0","pricing_plan_id":"free"},{"bike_id":"3cc3142b-80b4-4cf1-9880-2f35cd7c2654","system_id":"levelo_inurba_marseille","lat":43.30948,"lon":5.39042,"is_reserved":false,"is_disabled":false,"rental_uris":{"android":"levelo://app?vid=3cc3142b-80b4-4cf1-9880-2f35cd7c2654","ios":"levelo://app?vid=3cc3142b-80b4-4cf1-9880-2f35cd7c2654"},"vehicle_type_id":"4","last_reported":1683410750,"current_range_meters":28400,"station_id":"ce4bgup2rcd13ifvqco0","pricing_plan_id":"free"},{"bike_id":"ac599044-4e20-4727-98e0-505c77ca91e0","system_id":"levelo_inurba_marseille","lat":43.317557,"lon":5.390173,"is_reserved":false,"is_disabled":false,"rental_uris":{"android":"levelo://app?vid=ac599044-4e20-4727-98e0-505c77ca91e0","ios":"levelo://app?vid=ac599044-4e20-4727-98e0-505c77ca91e0"},"vehicle_type_id":"4","last_reported":1683410750,"current_range_meters":7200,"station_id":"ce4bhqp2rcd13ifvqhng","pricing_plan_id":"free"},{"bike_id":"5e26388f-afcc-4ebc-9b1c-d20adac7f39a","system_id":"levelo_inurba_marseille","lat":43.31754,"lon":5.39013,"is_reserved":false,"is_disabled":false,"rental_uris":{"android":"levelo://app?vid=5e26388f-afcc-4ebc-9b1c-d20adac7f39a","ios":"levelo://app?vid=5e26388f-afcc-4ebc-9b1c-d20adac7f39a"},"vehicle_type_id":"4","last_reported":1683410750,"current_range_meters":19600,"station_id":"ce4bhqp2rcd13ifvqhng","pricing_plan_id":"free"},{"bike_id":"68fdfdcc-f9c5-4ca1-895f-541fa1837e92","system_id":"levelo_inurba_marseille","lat":43.317557,"lon":5.390173,"is_reserved":false,"is_disabled":false,"rental_uris":{"android":"levelo://app?vid=68fdfdcc-f9c5-4ca1-895f-541fa1837e92","ios":"levelo://app?vid=68fdfdcc-f9c5-4ca1-895f-541fa1837e92"},"vehicle_type_id":"4","last_reported":1683410750,"current_range_meters":3200,"station_id":"ce4bhqp2rcd13ifvqhng","pricing_plan_id":"free"},{"bike_id":"e07bf578-a7b1-4fdf-b6ca-2df5788b2781","system_id":"levelo_inurba_marseille","lat":43.317557,"lon":5.390173,"is_reserved":false,"is_disabled":false,"rental_uris":{"android":"levelo://app?vid=e07bf578-a7b1-4fdf-b6ca-2df5788b2781","ios":"levelo://app?vid=e07bf578-a7b1-4fdf-b6ca-2df5788b2781"},"vehicle_type_id":"4","last_reported":1683410750,"current_range_meters":15600,"station_id":"ce4bhqp2rcd13ifvqhng","pricing_plan_id":"free"},{"bike_id":"165cf4ec-ee3c-4a5c-929b-636fc1f79c2d","system_id":"levelo_inurba_marseille","lat":43.3176,"lon":5.39018,"is_reserved":false,"is_disabled":false,"rental_uris":{"android":"levelo://app?vid=165cf4ec-ee3c-4a5c-929b-636fc1f79c2d","ios":"levelo://app?vid=165cf4ec-ee3c-4a5c-929b-636fc1f79c2d"},"vehicle_type_id":"4","last_reported":1683410750,"current_range_meters":17600,"station_id":"ce4bhqp2rcd13ifvqhng","pricing_plan_id":"free"},{"bike_id":"b1a943be-9309-4b59-8fb4-e0eff6e5d9f3","system_id":"levelo_inurba_marseille","lat":43.29808,"lon":5.38098,"is_reserved":false,"is_disabled":false,"rental_uris":{"android":"levelo://app?vid=b1a943be-9309-4b59-8fb4-e0eff6e5d9f3","ios":"levelo://app?vid=b1a943be-9309-4b59-8fb4-e0eff6e5d9f3"},"vehicle_type_id":"4","last_reported":1683410750,"current_range_meters":11200,"station_id":"ce4bgip2rcd13ifvqbb0","pricing_plan_id":"free"},{"bike_id":"6b53433e-89fc-4138-90d9-87250efd3a68","system_id":"levelo_inurba_marseille","lat":43.29578,"lon":5.37502,"is_reserved":false,"is_disabled":false,"rental_uris":{"android":"levelo://app?vid=6b53433e-89fc-4138-90d9-87250efd3a68","ios":"levelo://app?vid=6b53433e-89fc-4138-90d9-87250efd3a68"},"vehicle_type_id":"4","last_reported":1683410750,"current_range_meters":0,"station_id":"ce4bgh92rcd13ifvqb50","pricing_plan_id":"free"},{"bike_id":"09081df1-fd8d-4ae4-a90d-07a993a085cb","system_id":"levelo_inurba_marseille","lat":43.29578,"lon":5.37514,"is_reserved":false,"is_disabled":false,"rental_uris":{"android":"levelo://app?vid=09081df1-fd8d-4ae4-a90d-07a993a085cb","ios":"levelo://app?vid=09081df1-fd8d-4ae4-a90d-07a993a085cb"},"vehicle_type_id":"4","last_reported":1683410750,"current_range_meters":12000,"station_id":"ce4bgh92rcd13ifvqb50","pricing_plan_id":"free"},{"bike_id":"80c02b44-044f-4dba-9078-fb07c926afd6","system_id":"levelo_inurba_marseille","lat":43.304278,"lon":5.388868,"is_reserved":false,"is_disabled":false,"rental_uris":{"android":"levelo://app?vid=80c02b44-044f-4dba-9078-fb07c926afd6","ios":"levelo://app?vid=80c02b44-044f-4dba-9078-fb07c926afd6"},"vehicle_type_id":"4","last_reported":1683410750,"current_range_meters":0,"station_id":"ce4bgk12rcd13ifvqbi0","pricing_plan_id":"free"},{"bike_id":"2625250b-1f23-46b4-88ec-0cb4a8043613","system_id":"levelo_inurba_marseille","lat":43.29791,"lon":5.38112,"is_reserved":false,"is_disabled":false,"rental_uris":{"android":"levelo://app?vid=2625250b-1f23-46b4-88ec-0cb4a8043613","ios":"levelo://app?vid=2625250b-1f23-46b4-88ec-0cb4a8043613"},"vehicle_type_id":"4","last_reported":1683410750,"current_range_meters":6800,"station_id":"ce4bgip2rcd13ifvqbb0","pricing_plan_id":"free"},{"bike_id":"50cf3a5a-a4ad-4bce-b8ac-3c7726c683aa","system_id":"levelo_inurba_marseille","lat":43.29563,"lon":5.37501,"is_reserved":false,"is_disabled":false,"rental_uris":{"android":"levelo://app?vid=50cf3a5a-a4ad-4bce-b8ac-3c7726c683aa","ios":"levelo://app?vid=50cf3a5a-a4ad-4bce-b8ac-3c7726c683aa"},"vehicle_type_id":"4","last_reported":1683410750,"current_range_meters":4000,"station_id":"ce4bgh92rcd13ifvqb50","pricing_plan_id":"free"},{"bike_id":"891f7c32-c5e8-46ec-836f-a52624253098","system_id":"levelo_inurba_marseille","lat":43.304278,"lon":5.388868,"is_reserved":false,"is_disabled":false,"rental_uris":{"android":"levelo://app?vid=891f7c32-c5e8-46ec-836f-a52624253098","ios":"levelo://app?vid=891f7c32-c5e8-46ec-836f-a52624253098"},"vehicle_type_id":"4","last_reported":1683410750,"current_range_meters":18400,"station_id":"ce4bgk12rcd13ifvqbi0","pricing_plan_id":"free"},{"bike_id":"e29007ff-0614-4ce9-9186-b3e5eac3e873","system_id":"levelo_inurba_marseille","lat":43.304278,"lon":5.388868,"is_reserved":false,"is_disabled":false,"rental_uris":{"android":"levelo://app?vid=e29007ff-0614-4ce9-9186-b3e5eac3e873","ios":"levelo://app?vid=e29007ff-0614-4ce9-9186-b3e5eac3e873"},"vehicle_type_id":"4","last_reported":1683410750,"current_range_meters":8800,"station_id":"ce4bgk12rcd13ifvqbi0","pricing_plan_id":"free"},{"bike_id":"ce98ea0e-2b71-470d-9d9e-23ec56ad3341","system_id":"levelo_inurba_marseille","lat":43.304278,"lon":5.388868,"is_reserved":false,"is_disabled":false,"rental_uris":{"android":"levelo://app?vid=ce98ea0e-2b71-470d-9d9e-23ec56ad3341","ios":"levelo://app?vid=ce98ea0e-2b71-470d-9d9e-23ec56ad3341"},"vehicle_type_id":"4","last_reported":1683410750,"current_range_meters":9600,"station_id":"ce4bgk12rcd13ifvqbi0","pricing_plan_id":"free"},{"bike_id":"b3d8b20d-0e9e-4873-a955-3b8f970483b6","system_id":"levelo_inurba_marseille","lat":43.299707,"lon":5.384859,"is_reserved":false,"is_disabled":false,"rental_uris":{"android":"levelo://app?vid=b3d8b20d-0e9e-4873-a955-3b8f970483b6","ios":"levelo://app?vid=b3d8b20d-0e9e-4873-a955-3b8f970483b6"},"vehicle_type_id":"4","last_reported":1683410750,"current_range_meters":16000,"station_id":"ce4bgj92rcd13ifvqbd0","pricing_plan_id":"free"},{"bike_id":"862befa7-8475-4d75-a77f-26ad988dc82f","system_id":"levelo_inurba_marseille","lat":43.299707,"lon":5.384859,"is_reserved":false,"is_disabled":false,"rental_uris":{"android":"levelo://app?vid=862befa7-8475-4d75-a77f-26ad988dc82f","ios":"levelo://app?vid=862befa7-8475-4d75-a77f-26ad988dc82f"},"vehicle_type_id":"4","last_reported":1683410750,"current_range_meters":2000,"station_id":"ce4bgj92rcd13ifvqbd0","pricing_plan_id":"free"},{"bike_id":"01343588-3280-47f4-9ab7-24b1536dbf06","system_id":"levelo_inurba_marseille","lat":43.29974,"lon":5.38493,"is_reserved":false,"is_disabled":false,"rental_uris":{"android":"levelo://app?vid=01343588-3280-47f4-9ab7-24b1536dbf06","ios":"levelo://app?vid=01343588-3280-47f4-9ab7-24b1536dbf06"},"vehicle_type_id":"4","last_reported":1683410750,"current_range_meters":14000,"station_id":"ce4bgj92rcd13ifvqbd0","pricing_plan_id":"free"},{"bike_id":"ca8e8949-65b2-49c0-bb14-35d87332da72","system_id":"levelo_inurba_marseille","lat":43.29963,"lon":5.38504,"is_reserved":false,"is_disabled":false,"rental_uris":{"android":"levelo://app?vid=ca8e8949-65b2-49c0-bb14-35d87332da72","ios":"levelo://app?vid=ca8e8949-65b2-49c0-bb14-35d87332da72"},"vehicle_type_id":"4","last_reported":1683410750,"current_range_meters":26400,"station_id":"ce4bgj92rcd13ifvqbd0","pricing_plan_id":"free"},{"bike_id":"f0dcfd84-4222-444a-b26d-9f99a892695b","system_id":"levelo_inurba_marseille","lat":43.31452,"lon":5.39271,"is_reserved":false,"is_disabled":false,"rental_uris":{"android":"levelo://app?vid=f0dcfd84-4222-444a-b26d-9f99a892695b","ios":"levelo://app?vid=f0dcfd84-4222-444a-b26d-9f99a892695b"},"vehicle_type_id":"4","last_reported":1683410750,"current_range_meters":5600,"station_id":"","pricing_plan_id":"free"},{"bike_id":"10c9f1d2-ac12-4c55-839e-589181cb847c","system_id":"levelo_inurba_marseille","lat":43.29602,"lon":5.381084,"is_reserved":false,"is_disabled":false,"rental_uris":{"android":"levelo://app?vid=10c9f1d2-ac12-4c55-839e-589181cb847c","ios":"levelo://app?vid=10c9f1d2-ac12-4c55-839e-589181cb847c"},"vehicle_type_id":"4","last_reported":1683410750,"current_range_meters":5600,"station_id":"ce4bgl12rcd13ifvqbo0","pricing_plan_id":"free"},{"bike_id":"e2f4bcc8-810f-4d27-a105-10e4d786003b","system_id":"levelo_inurba_marseille","lat":43.293009,"lon":5.374584,"is_reserved":false,"is_disabled":false,"rental_uris":{"android":"levelo://app?vid=e2f4bcc8-810f-4d27-a105-10e4d786003b","ios":"levelo://app?vid=e2f4bcc8-810f-4d27-a105-10e4d786003b"},"vehicle_type_id":"4","last_reported":1683410750,"current_range_meters":0,"station_id":"ce4bgi12rcd13ifvqb70","pricing_plan_id":"free"},{"bike_id":"d75d2f99-ffdc-457b-9c82-4bc942373534","system_id":"levelo_inurba_marseille","lat":43.306,"lon":5.39357,"is_reserved":false,"is_disabled":false,"rental_uris":{"android":"levelo://app?vid=d75d2f99-ffdc-457b-9c82-4bc942373534","ios":"levelo://app?vid=d75d2f99-ffdc-457b-9c82-4bc942373534"},"vehicle_type_id":"4","last_reported":1683410750,"current_range_meters":16400,"station_id":"ce4bh0p2rcd13ifvqd80","pricing_plan_id":"free"},{"bike_id":"70138f92-afce-4e26-bc58-7c3287c3d55a","system_id":"levelo_inurba_marseille","lat":43.30601,"lon":5.39359,"is_reserved":false,"is_disabled":false,"rental_uris":{"android":"levelo://app?vid=70138f92-afce-4e26-bc58-7c3287c3d55a","ios":"levelo://app?vid=70138f92-afce-4e26-bc58-7c3287c3d55a"},"vehicle_type_id":"4","last_reported":1683410750,"current_range_meters":10400,"station_id":"ce4bh0p2rcd13ifvqd80","pricing_plan_id":"free"},{"bike_id":"dd103c93-54ce-4c82-ac1c-6011a66e3b69","system_id":"levelo_inurba_marseille","lat":43.293009,"lon":5.374584,"is_reserved":false,"is_disabled":false,"rental_uris":{"android":"levelo://app?vid=dd103c93-54ce-4c82-ac1c-6011a66e3b69","ios":"levelo://app?vid=dd103c93-54ce-4c82-ac1c-6011a66e3b69"},"vehicle_type_id":"4","last_reported":1683410750,"current_range_meters":1600,"station_id":"ce4bgi12rcd13ifvqb70","pricing_plan_id":"free"},{"bike_id":"3e6159a0-8f43-4537-af06-4062d63377e7","system_id":"levelo_inurba_marseille","lat":43.303002,"lon":5.392142,"is_reserved":false,"is_disabled":false,"rental_uris":{"android":"levelo://app?vid=3e6159a0-8f43-4537-af06-4062d63377e7","ios":"levelo://app?vid=3e6159a0-8f43-4537-af06-4062d63377e7"},"vehicle_type_id":"4","last_reported":1683410750,"current_range_meters":0,"station_id":"ce4bgkh2rcd13ifvqbk0","pricing_plan_id":"free"},{"bike_id":"bdfffbf3-813a-43d2-b372-91153364edce","system_id":"levelo_inurba_marseille","lat":43.302992,"lon":5.392136,"is_reserved":false,"is_disabled":false,"rental_uris":{"android":"levelo://app?vid=bdfffbf3-813a-43d2-b372-91153364edce","ios":"levelo://app?vid=bdfffbf3-813a-43d2-b372-91153364edce"},"vehicle_type_id":"4","last_reported":1683410750,"current_range_meters":23200,"station_id":"ce4bgkh2rcd13ifvqbk0","pricing_plan_id":"free"},{"bike_id":"4dc28582-d691-485f-8193-fbf58a0bcf7b","system_id":"levelo_inurba_marseille","lat":43.302992,"lon":5.392136,"is_reserved":false,"is_disabled":false,"rental_uris":{"android":"levelo://app?vid=4dc28582-d691-485f-8193-fbf58a0bcf7b","ios":"levelo://app?vid=4dc28582-d691-485f-8193-fbf58a0bcf7b"},"vehicle_type_id":"4","last_reported":1683410750,"current_range_meters":1200,"station_id":"ce4bgkh2rcd13ifvqbk0","pricing_plan_id":"free"},{"bike_id":"fc29bb47-7eec-402f-a028-c11edcf38b18","system_id":"levelo_inurba_marseille","lat":43.302992,"lon":5.392136,"is_reserved":false,"is_disabled":false,"rental_uris":{"android":"levelo://app?vid=fc29bb47-7eec-402f-a028-c11edcf38b18","ios":"levelo://app?vid=fc29bb47-7eec-402f-a028-c11edcf38b18"},"vehicle_type_id":"4","last_reported":1683410750,"current_range_meters":12800,"station_id":"ce4bgkh2rcd13ifvqbk0","pricing_plan_id":"free"},{"bike_id":"674b3a9f-82a3-4e3e-8df6-d61f218fad0f","system_id":"levelo_inurba_marseille","lat":43.303002,"lon":5.392142,"is_reserved":false,"is_disabled":false,"rental_uris":{"android":"levelo://app?vid=674b3a9f-82a3-4e3e-8df6-d61f218fad0f","ios":"levelo://app?vid=674b3a9f-82a3-4e3e-8df6-d61f218fad0f"},"vehicle_type_id":"4","last_reported":1683410750,"current_range_meters":19200,"station_id":"ce4bgkh2rcd13ifvqbk0","pricing_plan_id":"free"},{"bike_id":"d9b29f87-ccb0-4847-a332-05a7fee86e97","system_id":"levelo_inurba_marseille","lat":43.302992,"lon":5.392136,"is_reserved":false,"is_disabled":false,"rental_uris":{"android":"levelo://app?vid=d9b29f87-ccb0-4847-a332-05a7fee86e97","ios":"levelo://app?vid=d9b29f87-ccb0-4847-a332-05a7fee86e97"},"vehicle_type_id":"4","last_reported":1683410750,"current_range_meters":31200,"station_id":"ce4bgkh2rcd13ifvqbk0","pricing_plan_id":"free"},{"bike_id":"98cb2c59-3e24-4676-a072-3517bbdb7d2e","system_id":"levelo_inurba_marseille","lat":43.302992,"lon":5.392136,"is_reserved":false,"is_disabled":false,"rental_uris":{"android":"levelo://app?vid=98cb2c59-3e24-4676-a072-3517bbdb7d2e","ios":"levelo://app?vid=98cb2c59-3e24-4676-a072-3517bbdb7d2e"},"vehicle_type_id":"4","last_reported":1683410750,"current_range_meters":5600,"station_id":"ce4bgkh2rcd13ifvqbk0","pricing_plan_id":"free"},{"bike_id":"8b01377c-d0ae-4894-a869-b005c0605a13","system_id":"levelo_inurba_marseille","lat":43.303002,"lon":5.392142,"is_reserved":false,"is_disabled":false,"rental_uris":{"android":"levelo://app?vid=8b01377c-d0ae-4894-a869-b005c0605a13","ios":"levelo://app?vid=8b01377c-d0ae-4894-a869-b005c0605a13"},"vehicle_type_id":"4","last_reported":1683410750,"current_range_meters":400,"station_id":"ce4bgkh2rcd13ifvqbk0","pricing_plan_id":"free"},{"bike_id":"506fa748-c06a-4238-98c0-341f65697061","system_id":"levelo_inurba_marseille","lat":43.302992,"lon":5.392136,"is_reserved":false,"is_disabled":false,"rental_uris":{"android":"levelo://app?vid=506fa748-c06a-4238-98c0-341f65697061","ios":"levelo://app?vid=506fa748-c06a-4238-98c0-341f65697061"},"vehicle_type_id":"4","last_reported":1683410750,"current_range_meters":24800,"station_id":"ce4bgkh2rcd13ifvqbk0","pricing_plan_id":"free"},{"bike_id":"4d30ccea-e2c8-4699-8f27-2e07debec93c","system_id":"levelo_inurba_marseille","lat":43.291675,"lon":5.371583,"is_reserved":false,"is_disabled":false,"rental_uris":{"android":"levelo://app?vid=4d30ccea-e2c8-4699-8f27-2e07debec93c","ios":"levelo://app?vid=4d30ccea-e2c8-4699-8f27-2e07debec93c"},"vehicle_type_id":"4","last_reported":1683410750,"current_range_meters":17600,"station_id":"ce4bha92rcd13ifvqeh0","pricing_plan_id":"free"},{"bike_id":"2ff8ee26-772e-46c9-9e40-45f777b685af","system_id":"levelo_inurba_marseille","lat":43.298764,"lon":5.388973,"is_reserved":false,"is_disabled":false,"rental_uris":{"android":"levelo://app?vid=2ff8ee26-772e-46c9-9e40-45f777b685af","ios":"levelo://app?vid=2ff8ee26-772e-46c9-9e40-45f777b685af"},"vehicle_type_id":"4","last_reported":1683410750,"current_range_meters":0,"station_id":"ce4bh392rcd13ifvqdl0","pricing_plan_id":"free"},{"bike_id":"1777fd86-e906-4c1b-95c3-c236c0056156","system_id":"levelo_inurba_marseille","lat":43.298764,"lon":5.388973,"is_reserved":false,"is_disabled":false,"rental_uris":{"android":"levelo://app?vid=1777fd86-e906-4c1b-95c3-c236c0056156","ios":"levelo://app?vid=1777fd86-e906-4c1b-95c3-c236c0056156"},"vehicle_type_id":"4","last_reported":1683410750,"current_range_meters":22000,"station_id":"ce4bh392rcd13ifvqdl0","pricing_plan_id":"free"},{"bike_id":"134215ce-8001-4c92-bbe6-5e06c0d207ea","system_id":"levelo_inurba_marseille","lat":43.298764,"lon":5.388973,"is_reserved":false,"is_disabled":false,"rental_uris":{"android":"levelo://app?vid=134215ce-8001-4c92-bbe6-5e06c0d207ea","ios":"levelo://app?vid=134215ce-8001-4c92-bbe6-5e06c0d207ea"},"vehicle_type_id":"4","last_reported":1683410750,"current_range_meters":0,"station_id":"ce4bh392rcd13ifvqdl0","pricing_plan_id":"free"},{"bike_id":"14da4e21-08ff-46c9-b717-99e629857a52","system_id":"levelo_inurba_marseille","lat":43.298764,"lon":5.388973,"is_reserved":false,"is_disabled":false,"rental_uris":{"android":"levelo://app?vid=14da4e21-08ff-46c9-b717-99e629857a52","ios":"levelo://app?vid=14da4e21-08ff-46c9-b717-99e629857a52"},"vehicle_type_id":"4","last_reported":1683410750,"current_range_meters":0,"station_id":"ce4bh392rcd13ifvqdl0","pricing_plan_id":"free"},{"bike_id":"90cc782d-be20-41fa-9baa-2dfb851cd186","system_id":"levelo_inurba_marseille","lat":43.309038,"lon":5.396546,"is_reserved":false,"is_disabled":false,"rental_uris":{"android":"levelo://app?vid=90cc782d-be20-41fa-9baa-2dfb851cd186","ios":"levelo://app?vid=90cc782d-be20-41fa-9baa-2dfb851cd186"},"vehicle_type_id":"4","last_reported":1683410750,"current_range_meters":8400,"station_id":"ce4bh012rcd13ifvqcv0","pricing_plan_id":"free"},{"bike_id":"52702192-13e7-43c8-9548-69f677554ad3","system_id":"levelo_inurba_marseille","lat":43.309038,"lon":5.396546,"is_reserved":false,"is_disabled":false,"rental_uris":{"android":"levelo://app?vid=52702192-13e7-43c8-9548-69f677554ad3","ios":"levelo://app?vid=52702192-13e7-43c8-9548-69f677554ad3"},"vehicle_type_id":"4","last_reported":1683410750,"current_range_meters":13200,"station_id":"ce4bh012rcd13ifvqcv0","pricing_plan_id":"free"},{"bike_id":"463ee983-db2c-4144-a9d9-430106455312","system_id":"levelo_inurba_marseille","lat":43.309038,"lon":5.396546,"is_reserved":false,"is_disabled":false,"rental_uris":{"android":"levelo://app?vid=463ee983-db2c-4144-a9d9-430106455312","ios":"levelo://app?vid=463ee983-db2c-4144-a9d9-430106455312"},"vehicle_type_id":"4","last_reported":1683410750,"current_range_meters":5600,"station_id":"ce4bh012rcd13ifvqcv0","pricing_plan_id":"free"},{"bike_id":"483f8e07-7bae-4894-b0cc-8e0a3ce1c995","system_id":"levelo_inurba_marseille","lat":43.309038,"lon":5.396546,"is_reserved":false,"is_disabled":false,"rental_uris":{"android":"levelo://app?vid=483f8e07-7bae-4894-b0cc-8e0a3ce1c995","ios":"levelo://app?vid=483f8e07-7bae-4894-b0cc-8e0a3ce1c995"},"vehicle_type_id":"4","last_reported":1683410750,"current_range_meters":23600,"station_id":"ce4bh012rcd13ifvqcv0","pricing_plan_id":"free"},{"bike_id":"e192e9cb-3e8d-4d58-a073-854d14f37dcc","system_id":"levelo_inurba_marseille","lat":43.313291,"lon":5.396838,"is_reserved":false,"is_disabled":false,"rental_uris":{"android":"levelo://app?vid=e192e9cb-3e8d-4d58-a073-854d14f37dcc","ios":"levelo://app?vid=e192e9cb-3e8d-4d58-a073-854d14f37dcc"},"vehicle_type_id":"4","last_reported":1683410750,"current_range_meters":19200,"station_id":"ce4bgvp2rcd13ifvqcu0","pricing_plan_id":"free"},{"bike_id":"cef18ba2-0469-4972-bccb-7df78dfeba14","system_id":"levelo_inurba_marseille","lat":43.313291,"lon":5.396838,"is_reserved":false,"is_disabled":false,"rental_uris":{"android":"levelo://app?vid=cef18ba2-0469-4972-bccb-7df78dfeba14","ios":"levelo://app?vid=cef18ba2-0469-4972-bccb-7df78dfeba14"},"vehicle_type_id":"4","last_reported":1683410750,"current_range_meters":6400,"station_id":"ce4bgvp2rcd13ifvqcu0","pricing_plan_id":"free"},{"bike_id":"829cd36e-405b-4bf0-9fa8-f9dc567e5b73","system_id":"levelo_inurba_marseille","lat":43.309038,"lon":5.396546,"is_reserved":false,"is_disabled":false,"rental_uris":{"android":"levelo://app?vid=829cd36e-405b-4bf0-9fa8-f9dc567e5b73","ios":"levelo://app?vid=829cd36e-405b-4bf0-9fa8-f9dc567e5b73"},"vehicle_type_id":"4","last_reported":1683410750,"current_range_meters":20800,"station_id":"ce4bh012rcd13ifvqcv0","pricing_plan_id":"free"},{"bike_id":"ec919113-9412-4494-bdef-6cb8ebb9d53d","system_id":"levelo_inurba_marseille","lat":43.309038,"lon":5.396546,"is_reserved":false,"is_disabled":false,"rental_uris":{"android":"levelo://app?vid=ec919113-9412-4494-bdef-6cb8ebb9d53d","ios":"levelo://app?vid=ec919113-9412-4494-bdef-6cb8ebb9d53d"},"vehicle_type_id":"4","last_reported":1683410750,"current_range_meters":17200,"station_id":"ce4bh012rcd13ifvqcv0","pricing_plan_id":"free"},{"bike_id":"34e8f97f-7f7b-401a-a605-d20e69ba43c7","system_id":"levelo_inurba_marseille","lat":43.309038,"lon":5.396546,"is_reserved":false,"is_disabled":false,"rental_uris":{"android":"levelo://app?vid=34e8f97f-7f7b-401a-a605-d20e69ba43c7","ios":"levelo://app?vid=34e8f97f-7f7b-401a-a605-d20e69ba43c7"},"vehicle_type_id":"4","last_reported":1683410750,"current_range_meters":12400,"station_id":"ce4bh012rcd13ifvqcv0","pricing_plan_id":"free"},{"bike_id":"26543a27-5e4c-4139-975a-3461b9ec9422","system_id":"levelo_inurba_marseille","lat":43.313291,"lon":5.396838,"is_reserved":false,"is_disabled":false,"rental_uris":{"android":"levelo://app?vid=26543a27-5e4c-4139-975a-3461b9ec9422","ios":"levelo://app?vid=26543a27-5e4c-4139-975a-3461b9ec9422"},"vehicle_type_id":"4","last_reported":1683410750,"current_range_meters":400,"station_id":"ce4bgvp2rcd13ifvqcu0","pricing_plan_id":"free"},{"bike_id":"fa230fcd-a127-4563-b9fc-b1bc978f8fe5","system_id":"levelo_inurba_marseille","lat":43.309038,"lon":5.396546,"is_reserved":false,"is_disabled":false,"rental_uris":{"android":"levelo://app?vid=fa230fcd-a127-4563-b9fc-b1bc978f8fe5","ios":"levelo://app?vid=fa230fcd-a127-4563-b9fc-b1bc978f8fe5"},"vehicle_type_id":"4","last_reported":1683410750,"current_range_meters":4800,"station_id":"ce4bh012rcd13ifvqcv0","pricing_plan_id":"free"},{"bike_id":"58663711-157f-49f7-9fb5-f54567fc7ff5","system_id":"levelo_inurba_marseille","lat":43.309038,"lon":5.396546,"is_reserved":false,"is_disabled":false,"rental_uris":{"android":"levelo://app?vid=58663711-157f-49f7-9fb5-f54567fc7ff5","ios":"levelo://app?vid=58663711-157f-49f7-9fb5-f54567fc7ff5"},"vehicle_type_id":"4","last_reported":1683410750,"current_range_meters":8000,"station_id":"ce4bh012rcd13ifvqcv0","pricing_plan_id":"free"},{"bike_id":"a5b6235d-d56a-46ef-97f5-f3cfe80d4290","system_id":"levelo_inurba_marseille","lat":43.29529,"lon":5.385581,"is_reserved":false,"is_disabled":false,"rental_uris":{"android":"levelo://app?vid=a5b6235d-d56a-46ef-97f5-f3cfe80d4290","ios":"levelo://app?vid=a5b6235d-d56a-46ef-97f5-f3cfe80d4290"},"vehicle_type_id":"4","last_reported":1683410750,"current_range_meters":11200,"station_id":"ce4bgih2rcd13ifvqba0","pricing_plan_id":"free"},{"bike_id":"5907034e-878f-4406-b9bf-5e3b5ca3cf6c","system_id":"levelo_inurba_marseille","lat":43.29529,"lon":5.385581,"is_reserved":false,"is_disabled":false,"rental_uris":{"android":"levelo://app?vid=5907034e-878f-4406-b9bf-5e3b5ca3cf6c","ios":"levelo://app?vid=5907034e-878f-4406-b9bf-5e3b5ca3cf6c"},"vehicle_type_id":"4","last_reported":1683410750,"current_range_meters":4800,"station_id":"ce4bgih2rcd13ifvqba0","pricing_plan_id":"free"},{"bike_id":"ad79519b-4151-458b-b569-340f59565c36","system_id":"levelo_inurba_marseille","lat":43.29529,"lon":5.385581,"is_reserved":false,"is_disabled":false,"rental_uris":{"android":"levelo://app?vid=ad79519b-4151-458b-b569-340f59565c36","ios":"levelo://app?vid=ad79519b-4151-458b-b569-340f59565c36"},"vehicle_type_id":"4","last_reported":1683410750,"current_range_meters":5600,"station_id":"ce4bgih2rcd13ifvqba0","pricing_plan_id":"free"},{"bike_id":"fb1303c1-6672-4df4-a47f-27772de5e07e","system_id":"levelo_inurba_marseille","lat":43.2953,"lon":5.38538,"is_reserved":false,"is_disabled":false,"rental_uris":{"android":"levelo://app?vid=fb1303c1-6672-4df4-a47f-27772de5e07e","ios":"levelo://app?vid=fb1303c1-6672-4df4-a47f-27772de5e07e"},"vehicle_type_id":"4","last_reported":1683410750,"current_range_meters":0,"station_id":"ce4bgih2rcd13ifvqba0","pricing_plan_id":"free"},{"bike_id":"09e3bf20-d785-427c-bee8-3e0800566ab4","system_id":"levelo_inurba_marseille","lat":43.29529,"lon":5.385581,"is_reserved":false,"is_disabled":false,"rental_uris":{"android":"levelo://app?vid=09e3bf20-d785-427c-bee8-3e0800566ab4","ios":"levelo://app?vid=09e3bf20-d785-427c-bee8-3e0800566ab4"},"vehicle_type_id":"4","last_reported":1683410750,"current_range_meters":0,"station_id":"ce4bgih2rcd13ifvqba0","pricing_plan_id":"free"},{"bike_id":"b5d3df38-5c98-4a46-b885-00e7ae18be2c","system_id":"levelo_inurba_marseille","lat":43.29529,"lon":5.385581,"is_reserved":false,"is_disabled":false,"rental_uris":{"android":"levelo://app?vid=b5d3df38-5c98-4a46-b885-00e7ae18be2c","ios":"levelo://app?vid=b5d3df38-5c98-4a46-b885-00e7ae18be2c"},"vehicle_type_id":"4","last_reported":1683410750,"current_range_meters":11600,"station_id":"ce4bgih2rcd13ifvqba0","pricing_plan_id":"free"},{"bike_id":"51558edf-ce59-44fe-b971-cb9777426414","system_id":"levelo_inurba_marseille","lat":43.29529,"lon":5.385581,"is_reserved":false,"is_disabled":false,"rental_uris":{"android":"levelo://app?vid=51558edf-ce59-44fe-b971-cb9777426414","ios":"levelo://app?vid=51558edf-ce59-44fe-b971-cb9777426414"},"vehicle_type_id":"4","last_reported":1683410750,"current_range_meters":11600,"station_id":"ce4bgih2rcd13ifvqba0","pricing_plan_id":"free"},{"bike_id":"78515159-c835-408a-97b8-1f1af80d0159","system_id":"levelo_inurba_marseille","lat":43.29531,"lon":5.38545,"is_reserved":false,"is_disabled":false,"rental_uris":{"android":"levelo://app?vid=78515159-c835-408a-97b8-1f1af80d0159","ios":"levelo://app?vid=78515159-c835-408a-97b8-1f1af80d0159"},"vehicle_type_id":"4","last_reported":1683410750,"current_range_meters":15600,"station_id":"ce4bgih2rcd13ifvqba0","pricing_plan_id":"free"},{"bike_id":"f305b8e8-df10-4821-80e2-fdeb757dcde9","system_id":"levelo_inurba_marseille","lat":43.313291,"lon":5.396838,"is_reserved":false,"is_disabled":false,"rental_uris":{"android":"levelo://app?vid=f305b8e8-df10-4821-80e2-fdeb757dcde9","ios":"levelo://app?vid=f305b8e8-df10-4821-80e2-fdeb757dcde9"},"vehicle_type_id":"4","last_reported":1683410750,"current_range_meters":24000,"station_id":"ce4bgvp2rcd13ifvqcu0","pricing_plan_id":"free"},{"bike_id":"7f654ebc-2903-4e1a-9fbf-e76cf9757490","system_id":"levelo_inurba_marseille","lat":43.302008,"lon":5.394694,"is_reserved":false,"is_disabled":false,"rental_uris":{"android":"levelo://app?vid=7f654ebc-2903-4e1a-9fbf-e76cf9757490","ios":"levelo://app?vid=7f654ebc-2903-4e1a-9fbf-e76cf9757490"},"vehicle_type_id":"4","last_reported":1683410750,"current_range_meters":6000,"station_id":"ce4bh0p2rcd13ifvqd70","pricing_plan_id":"free"},{"bike_id":"1d0e290a-b24f-4ef1-9ffb-1be46340d82e","system_id":"levelo_inurba_marseille","lat":43.302008,"lon":5.394694,"is_reserved":false,"is_disabled":false,"rental_uris":{"android":"levelo://app?vid=1d0e290a-b24f-4ef1-9ffb-1be46340d82e","ios":"levelo://app?vid=1d0e290a-b24f-4ef1-9ffb-1be46340d82e"},"vehicle_type_id":"4","last_reported":1683410750,"current_range_meters":400,"station_id":"ce4bh0p2rcd13ifvqd70","pricing_plan_id":"free"},{"bike_id":"3c739cbb-c6dc-4e46-ac81-52de52f5fb8d","system_id":"levelo_inurba_marseille","lat":43.304296,"lon":5.397513,"is_reserved":false,"is_disabled":false,"rental_uris":{"android":"levelo://app?vid=3c739cbb-c6dc-4e46-ac81-52de52f5fb8d","ios":"levelo://app?vid=3c739cbb-c6dc-4e46-ac81-52de52f5fb8d"},"vehicle_type_id":"4","last_reported":1683410750,"current_range_meters":400,"station_id":"ce4bh092rcd13ifvqd20","pricing_plan_id":"free"},{"bike_id":"39046a81-c6c7-41a6-a4e1-d8ca2ce3001c","system_id":"levelo_inurba_marseille","lat":43.30421,"lon":5.39746,"is_reserved":false,"is_disabled":false,"rental_uris":{"android":"levelo://app?vid=39046a81-c6c7-41a6-a4e1-d8ca2ce3001c","ios":"levelo://app?vid=39046a81-c6c7-41a6-a4e1-d8ca2ce3001c"},"vehicle_type_id":"4","last_reported":1683410750,"current_range_meters":800,"station_id":"ce4bh092rcd13ifvqd20","pricing_plan_id":"free"},{"bike_id":"9562e998-8423-41c3-a9e2-84e085eb66f0","system_id":"levelo_inurba_marseille","lat":43.30426,"lon":5.39754,"is_reserved":false,"is_disabled":false,"rental_uris":{"android":"levelo://app?vid=9562e998-8423-41c3-a9e2-84e085eb66f0","ios":"levelo://app?vid=9562e998-8423-41c3-a9e2-84e085eb66f0"},"vehicle_type_id":"4","last_reported":1683410750,"current_range_meters":1600,"station_id":"ce4bh092rcd13ifvqd20","pricing_plan_id":"free"},{"bike_id":"770f7768-8a09-4346-9337-de57b7dd1ffb","system_id":"levelo_inurba_marseille","lat":43.292644,"lon":5.384257,"is_reserved":false,"is_disabled":false,"rental_uris":{"android":"levelo://app?vid=770f7768-8a09-4346-9337-de57b7dd1ffb","ios":"levelo://app?vid=770f7768-8a09-4346-9337-de57b7dd1ffb"},"vehicle_type_id":"4","last_reported":1683410750,"current_range_meters":31200,"station_id":"ce4bh692rcd13ifvqea0","pricing_plan_id":"free"},{"bike_id":"c7d204ce-6619-491c-8812-dc4b0a6a663b","system_id":"levelo_inurba_marseille","lat":43.33041,"lon":5.38917,"is_reserved":false,"is_disabled":false,"rental_uris":{"android":"levelo://app?vid=c7d204ce-6619-491c-8812-dc4b0a6a663b","ios":"levelo://app?vid=c7d204ce-6619-491c-8812-dc4b0a6a663b"},"vehicle_type_id":"4","last_reported":1683410750,"current_range_meters":27200,"station_id":"ce4bhr92rcd13ifvqhrg","pricing_plan_id":"free"},{"bike_id":"10a8eeb7-4f93-4e8d-81bd-f27d3d4ef515","system_id":"levelo_inurba_marseille","lat":43.33041,"lon":5.38918,"is_reserved":false,"is_disabled":false,"rental_uris":{"android":"levelo://app?vid=10a8eeb7-4f93-4e8d-81bd-f27d3d4ef515","ios":"levelo://app?vid=10a8eeb7-4f93-4e8d-81bd-f27d3d4ef515"},"vehicle_type_id":"4","last_reported":1683410750,"current_range_meters":24800,"station_id":"ce4bhr92rcd13ifvqhrg","pricing_plan_id":"free"},{"bike_id":"813acaa4-8e1c-430d-a7e4-7fac36dc1a39","system_id":"levelo_inurba_marseille","lat":43.290104,"lon":5.356111,"is_reserved":false,"is_disabled":false,"rental_uris":{"android":"levelo://app?vid=813acaa4-8e1c-430d-a7e4-7fac36dc1a39","ios":"levelo://app?vid=813acaa4-8e1c-430d-a7e4-7fac36dc1a39"},"vehicle_type_id":"4","last_reported":1683410750,"current_range_meters":0,"station_id":"ce4bhb92rcd13ifvqen0","pricing_plan_id":"free"},{"bike_id":"d6233f8b-531d-433b-b8e9-589e3920c098","system_id":"levelo_inurba_marseille","lat":43.33044,"lon":5.38915,"is_reserved":false,"is_disabled":false,"rental_uris":{"android":"levelo://app?vid=d6233f8b-531d-433b-b8e9-589e3920c098","ios":"levelo://app?vid=d6233f8b-531d-433b-b8e9-589e3920c098"},"vehicle_type_id":"4","last_reported":1683410750,"current_range_meters":20000,"station_id":"ce4bhr92rcd13ifvqhrg","pricing_plan_id":"free"},{"bike_id":"da86836b-d020-456b-ad95-a73c452d8db8","system_id":"levelo_inurba_marseille","lat":43.33041,"lon":5.3892,"is_reserved":false,"is_disabled":false,"rental_uris":{"android":"levelo://app?vid=da86836b-d020-456b-ad95-a73c452d8db8","ios":"levelo://app?vid=da86836b-d020-456b-ad95-a73c452d8db8"},"vehicle_type_id":"4","last_reported":1683410750,"current_range_meters":23600,"station_id":"ce4bhr92rcd13ifvqhrg","pricing_plan_id":"free"},{"bike_id":"c6d8bc85-5d48-4175-a0b2-78b2152265a7","system_id":"levelo_inurba_marseille","lat":43.33043,"lon":5.38918,"is_reserved":false,"is_disabled":false,"rental_uris":{"android":"levelo://app?vid=c6d8bc85-5d48-4175-a0b2-78b2152265a7","ios":"levelo://app?vid=c6d8bc85-5d48-4175-a0b2-78b2152265a7"},"vehicle_type_id":"4","last_reported":1683410750,"current_range_meters":2400,"station_id":"ce4bhr92rcd13ifvqhrg","pricing_plan_id":"free"},{"bike_id":"d364d2ad-2c66-4587-a79b-ee0314a1a93f","system_id":"levelo_inurba_marseille","lat":43.33043,"lon":5.3892,"is_reserved":false,"is_disabled":false,"rental_uris":{"android":"levelo://app?vid=d364d2ad-2c66-4587-a79b-ee0314a1a93f","ios":"levelo://app?vid=d364d2ad-2c66-4587-a79b-ee0314a1a93f"},"vehicle_type_id":"4","last_reported":1683410750,"current_range_meters":15600,"station_id":"ce4bhr92rcd13ifvqhrg","pricing_plan_id":"free"},{"bike_id":"fe683e1e-f5e9-414b-b75d-fe742b567ffa","system_id":"levelo_inurba_marseille","lat":43.33047,"lon":5.38914,"is_reserved":false,"is_disabled":false,"rental_uris":{"android":"levelo://app?vid=fe683e1e-f5e9-414b-b75d-fe742b567ffa","ios":"levelo://app?vid=fe683e1e-f5e9-414b-b75d-fe742b567ffa"},"vehicle_type_id":"4","last_reported":1683410750,"current_range_meters":3200,"station_id":"ce4bhr92rcd13ifvqhrg","pricing_plan_id":"free"},{"bike_id":"79be8b69-b2b1-4e6f-8dc0-7c017ae7ff07","system_id":"levelo_inurba_marseille","lat":43.33045,"lon":5.38918,"is_reserved":false,"is_disabled":false,"rental_uris":{"android":"levelo://app?vid=79be8b69-b2b1-4e6f-8dc0-7c017ae7ff07","ios":"levelo://app?vid=79be8b69-b2b1-4e6f-8dc0-7c017ae7ff07"},"vehicle_type_id":"4","last_reported":1683410750,"current_range_meters":22000,"station_id":"ce4bhr92rcd13ifvqhrg","pricing_plan_id":"free"},{"bike_id":"4da2ea4c-0587-4161-8586-452f9bca890c","system_id":"levelo_inurba_marseille","lat":43.33045,"lon":5.38918,"is_reserved":false,"is_disabled":false,"rental_uris":{"android":"levelo://app?vid=4da2ea4c-0587-4161-8586-452f9bca890c","ios":"levelo://app?vid=4da2ea4c-0587-4161-8586-452f9bca890c"},"vehicle_type_id":"4","last_reported":1683410750,"current_range_meters":18400,"station_id":"ce4bhr92rcd13ifvqhrg","pricing_plan_id":"free"},{"bike_id":"7c5f40d0-fbd9-4c76-bb42-238ce9a43ee9","system_id":"levelo_inurba_marseille","lat":43.33047,"lon":5.38915,"is_reserved":false,"is_disabled":false,"rental_uris":{"android":"levelo://app?vid=7c5f40d0-fbd9-4c76-bb42-238ce9a43ee9","ios":"levelo://app?vid=7c5f40d0-fbd9-4c76-bb42-238ce9a43ee9"},"vehicle_type_id":"4","last_reported":1683410750,"current_range_meters":5200,"station_id":"ce4bhr92rcd13ifvqhrg","pricing_plan_id":"free"},{"bike_id":"95f4e6b5-68f5-4202-946d-1e5a35b8c334","system_id":"levelo_inurba_marseille","lat":43.33043,"lon":5.38922,"is_reserved":false,"is_disabled":false,"rental_uris":{"android":"levelo://app?vid=95f4e6b5-68f5-4202-946d-1e5a35b8c334","ios":"levelo://app?vid=95f4e6b5-68f5-4202-946d-1e5a35b8c334"},"vehicle_type_id":"4","last_reported":1683410750,"current_range_meters":16000,"station_id":"ce4bhr92rcd13ifvqhrg","pricing_plan_id":"free"},{"bike_id":"2a4c9986-79e6-473a-9088-a22214a8de69","system_id":"levelo_inurba_marseille","lat":43.33046,"lon":5.38918,"is_reserved":false,"is_disabled":false,"rental_uris":{"android":"levelo://app?vid=2a4c9986-79e6-473a-9088-a22214a8de69","ios":"levelo://app?vid=2a4c9986-79e6-473a-9088-a22214a8de69"},"vehicle_type_id":"4","last_reported":1683410750,"current_range_meters":14800,"station_id":"ce4bhr92rcd13ifvqhrg","pricing_plan_id":"free"},{"bike_id":"f3bb54a1-482a-46b5-b06f-fc89832589f5","system_id":"levelo_inurba_marseille","lat":43.290103,"lon":5.356114,"is_reserved":false,"is_disabled":false,"rental_uris":{"android":"levelo://app?vid=f3bb54a1-482a-46b5-b06f-fc89832589f5","ios":"levelo://app?vid=f3bb54a1-482a-46b5-b06f-fc89832589f5"},"vehicle_type_id":"4","last_reported":1683410750,"current_range_meters":0,"station_id":"ce4bhb92rcd13ifvqen0","pricing_plan_id":"free"},{"bike_id":"496fc879-c6a2-4335-9eab-2fdd6a6f8bf1","system_id":"levelo_inurba_marseille","lat":43.33045,"lon":5.38926,"is_reserved":false,"is_disabled":false,"rental_uris":{"android":"levelo://app?vid=496fc879-c6a2-4335-9eab-2fdd6a6f8bf1","ios":"levelo://app?vid=496fc879-c6a2-4335-9eab-2fdd6a6f8bf1"},"vehicle_type_id":"4","last_reported":1683410750,"current_range_meters":15200,"station_id":"ce4bhr92rcd13ifvqhrg","pricing_plan_id":"free"},{"bike_id":"7570b4d5-79c1-4064-a419-8ea7018c4ed4","system_id":"levelo_inurba_marseille","lat":43.295169,"lon":5.390426,"is_reserved":false,"is_disabled":false,"rental_uris":{"android":"levelo://app?vid=7570b4d5-79c1-4064-a419-8ea7018c4ed4","ios":"levelo://app?vid=7570b4d5-79c1-4064-a419-8ea7018c4ed4"},"vehicle_type_id":"4","last_reported":1683410750,"current_range_meters":400,"station_id":"ce4bh3p2rcd13ifvqdp0","pricing_plan_id":"free"},{"bike_id":"7beb90c8-93ec-45c4-948d-764f87cb3e38","system_id":"levelo_inurba_marseille","lat":43.29519,"lon":5.39042,"is_reserved":false,"is_disabled":false,"rental_uris":{"android":"levelo://app?vid=7beb90c8-93ec-45c4-948d-764f87cb3e38","ios":"levelo://app?vid=7beb90c8-93ec-45c4-948d-764f87cb3e38"},"vehicle_type_id":"4","last_reported":1683410750,"current_range_meters":14400,"station_id":"ce4bh3p2rcd13ifvqdp0","pricing_plan_id":"free"},{"bike_id":"dc5bc03a-35ab-4fd7-b93a-3295647e38b6","system_id":"levelo_inurba_marseille","lat":43.295169,"lon":5.390426,"is_reserved":false,"is_disabled":false,"rental_uris":{"android":"levelo://app?vid=dc5bc03a-35ab-4fd7-b93a-3295647e38b6","ios":"levelo://app?vid=dc5bc03a-35ab-4fd7-b93a-3295647e38b6"},"vehicle_type_id":"4","last_reported":1683410750,"current_range_meters":21600,"station_id":"ce4bh3p2rcd13ifvqdp0","pricing_plan_id":"free"},{"bike_id":"7e62201f-8884-4eba-88dc-70c362ca43a4","system_id":"levelo_inurba_marseille","lat":43.295169,"lon":5.390426,"is_reserved":false,"is_disabled":false,"rental_uris":{"android":"levelo://app?vid=7e62201f-8884-4eba-88dc-70c362ca43a4","ios":"levelo://app?vid=7e62201f-8884-4eba-88dc-70c362ca43a4"},"vehicle_type_id":"4","last_reported":1683410750,"current_range_meters":18000,"station_id":"ce4bh3p2rcd13ifvqdp0","pricing_plan_id":"free"},{"bike_id":"eebd6ac6-e4d6-4d28-9424-0fa5d8584e61","system_id":"levelo_inurba_marseille","lat":43.28856,"lon":5.358371,"is_reserved":false,"is_disabled":false,"rental_uris":{"android":"levelo://app?vid=eebd6ac6-e4d6-4d28-9424-0fa5d8584e61","ios":"levelo://app?vid=eebd6ac6-e4d6-4d28-9424-0fa5d8584e61"},"vehicle_type_id":"4","last_reported":1683410750,"current_range_meters":25600,"station_id":"ce4bhb12rcd13ifvqem0","pricing_plan_id":"free"},{"bike_id":"20083ae5-f09f-4d10-9758-3cdd331d6a45","system_id":"levelo_inurba_marseille","lat":43.33741,"lon":5.37442,"is_reserved":false,"is_disabled":false,"rental_uris":{"android":"levelo://app?vid=20083ae5-f09f-4d10-9758-3cdd331d6a45","ios":"levelo://app?vid=20083ae5-f09f-4d10-9758-3cdd331d6a45"},"vehicle_type_id":"4","last_reported":1683410750,"current_range_meters":14000,"station_id":"","pricing_plan_id":"free"},{"bike_id":"ab7b8dc5-9722-47e7-8a78-100d1a674f6d","system_id":"levelo_inurba_marseille","lat":43.33741,"lon":5.37467,"is_reserved":false,"is_disabled":false,"rental_uris":{"android":"levelo://app?vid=ab7b8dc5-9722-47e7-8a78-100d1a674f6d","ios":"levelo://app?vid=ab7b8dc5-9722-47e7-8a78-100d1a674f6d"},"vehicle_type_id":"4","last_reported":1683410750,"current_range_meters":6000,"station_id":"","pricing_plan_id":"free"},{"bike_id":"34320fce-24bb-4291-be42-2c361aed67f0","system_id":"levelo_inurba_marseille","lat":43.33746,"lon":5.37444,"is_reserved":false,"is_disabled":false,"rental_uris":{"android":"levelo://app?vid=34320fce-24bb-4291-be42-2c361aed67f0","ios":"levelo://app?vid=34320fce-24bb-4291-be42-2c361aed67f0"},"vehicle_type_id":"4","last_reported":1683410750,"current_range_meters":22400,"station_id":"","pricing_plan_id":"free"},{"bike_id":"d1338cde-b3d1-46b1-8800-7a50c92c327c","system_id":"levelo_inurba_marseille","lat":43.3375,"lon":5.3743,"is_reserved":false,"is_disabled":false,"rental_uris":{"android":"levelo://app?vid=d1338cde-b3d1-46b1-8800-7a50c92c327c","ios":"levelo://app?vid=d1338cde-b3d1-46b1-8800-7a50c92c327c"},"vehicle_type_id":"4","last_reported":1683410750,"current_range_meters":26000,"station_id":"","pricing_plan_id":"free"},{"bike_id":"cc5900b6-b927-49fc-82db-4d13a3d02316","system_id":"levelo_inurba_marseille","lat":43.33752,"lon":5.37486,"is_reserved":false,"is_disabled":false,"rental_uris":{"android":"levelo://app?vid=cc5900b6-b927-49fc-82db-4d13a3d02316","ios":"levelo://app?vid=cc5900b6-b927-49fc-82db-4d13a3d02316"},"vehicle_type_id":"4","last_reported":1683410750,"current_range_meters":24800,"station_id":"","pricing_plan_id":"free"},{"bike_id":"c7ca1285-2438-40b1-b3fb-b1369776e4df","system_id":"levelo_inurba_marseille","lat":43.30642,"lon":5.401031,"is_reserved":false,"is_disabled":false,"rental_uris":{"android":"levelo://app?vid=c7ca1285-2438-40b1-b3fb-b1369776e4df","ios":"levelo://app?vid=c7ca1285-2438-40b1-b3fb-b1369776e4df"},"vehicle_type_id":"4","last_reported":1683410750,"current_range_meters":2800,"station_id":"ce4bh112rcd13ifvqda0","pricing_plan_id":"free"},{"bike_id":"f727c0bc-04a9-4ba5-a521-c700589c5742","system_id":"levelo_inurba_marseille","lat":43.301117,"lon":5.398795,"is_reserved":false,"is_disabled":false,"rental_uris":{"android":"levelo://app?vid=f727c0bc-04a9-4ba5-a521-c700589c5742","ios":"levelo://app?vid=f727c0bc-04a9-4ba5-a521-c700589c5742"},"vehicle_type_id":"4","last_reported":1683410750,"current_range_meters":0,"station_id":"ce4bh0h2rcd13ifvqd40","pricing_plan_id":"free"},{"bike_id":"db84b57a-c242-4d31-93f3-e9f12005c4b3","system_id":"levelo_inurba_marseille","lat":43.33762,"lon":5.37494,"is_reserved":false,"is_disabled":false,"rental_uris":{"android":"levelo://app?vid=db84b57a-c242-4d31-93f3-e9f12005c4b3","ios":"levelo://app?vid=db84b57a-c242-4d31-93f3-e9f12005c4b3"},"vehicle_type_id":"4","last_reported":1683410750,"current_range_meters":25600,"station_id":"","pricing_plan_id":"free"},{"bike_id":"4fda01a1-0466-4078-a01a-6a94779c7de9","system_id":"levelo_inurba_marseille","lat":43.301117,"lon":5.398795,"is_reserved":false,"is_disabled":false,"rental_uris":{"android":"levelo://app?vid=4fda01a1-0466-4078-a01a-6a94779c7de9","ios":"levelo://app?vid=4fda01a1-0466-4078-a01a-6a94779c7de9"},"vehicle_type_id":"4","last_reported":1683410750,"current_range_meters":16400,"station_id":"ce4bh0h2rcd13ifvqd40","pricing_plan_id":"free"},{"bike_id":"c452a78d-8a25-4dac-a034-b406e8dd2a51","system_id":"levelo_inurba_marseille","lat":43.28771,"lon":5.35931,"is_reserved":false,"is_disabled":false,"rental_uris":{"android":"levelo://app?vid=c452a78d-8a25-4dac-a034-b406e8dd2a51","ios":"levelo://app?vid=c452a78d-8a25-4dac-a034-b406e8dd2a51"},"vehicle_type_id":"4","last_reported":1683410750,"current_range_meters":3200,"station_id":"","pricing_plan_id":"free"},{"bike_id":"d33b7d22-efb6-4bc6-b347-f9651bc688d0","system_id":"levelo_inurba_marseille","lat":43.301117,"lon":5.398795,"is_reserved":false,"is_disabled":false,"rental_uris":{"android":"levelo://app?vid=d33b7d22-efb6-4bc6-b347-f9651bc688d0","ios":"levelo://app?vid=d33b7d22-efb6-4bc6-b347-f9651bc688d0"},"vehicle_type_id":"4","last_reported":1683410750,"current_range_meters":7600,"station_id":"ce4bh0h2rcd13ifvqd40","pricing_plan_id":"free"},{"bike_id":"1a3f2945-2f42-4f1b-9914-c425a48c5020","system_id":"levelo_inurba_marseille","lat":43.30124,"lon":5.39863,"is_reserved":false,"is_disabled":false,"rental_uris":{"android":"levelo://app?vid=1a3f2945-2f42-4f1b-9914-c425a48c5020","ios":"levelo://app?vid=1a3f2945-2f42-4f1b-9914-c425a48c5020"},"vehicle_type_id":"4","last_reported":1683410750,"current_range_meters":1200,"station_id":"ce4bh0h2rcd13ifvqd40","pricing_plan_id":"free"},{"bike_id":"dc2ae00c-a98b-4361-a874-1f2475ae35f7","system_id":"levelo_inurba_marseille","lat":43.301117,"lon":5.398795,"is_reserved":false,"is_disabled":false,"rental_uris":{"android":"levelo://app?vid=dc2ae00c-a98b-4361-a874-1f2475ae35f7","ios":"levelo://app?vid=dc2ae00c-a98b-4361-a874-1f2475ae35f7"},"vehicle_type_id":"4","last_reported":1683410750,"current_range_meters":8400,"station_id":"ce4bh0h2rcd13ifvqd40","pricing_plan_id":"free"},{"bike_id":"33b412e3-58b5-4ca7-b021-0ec85a1e8b2c","system_id":"levelo_inurba_marseille","lat":43.298681,"lon":5.397225,"is_reserved":false,"is_disabled":false,"rental_uris":{"android":"levelo://app?vid=33b412e3-58b5-4ca7-b021-0ec85a1e8b2c","ios":"levelo://app?vid=33b412e3-58b5-4ca7-b021-0ec85a1e8b2c"},"vehicle_type_id":"4","last_reported":1683410750,"current_range_meters":7200,"station_id":"ce4bh0h2rcd13ifvqd50","pricing_plan_id":"free"},{"bike_id":"f6b4415e-216f-4757-90f0-60747f1d600a","system_id":"levelo_inurba_marseille","lat":43.29867,"lon":5.39736,"is_reserved":false,"is_disabled":false,"rental_uris":{"android":"levelo://app?vid=f6b4415e-216f-4757-90f0-60747f1d600a","ios":"levelo://app?vid=f6b4415e-216f-4757-90f0-60747f1d600a"},"vehicle_type_id":"4","last_reported":1683410750,"current_range_meters":9600,"station_id":"ce4bh0h2rcd13ifvqd50","pricing_plan_id":"free"},{"bike_id":"5de61649-a1c8-4449-ace7-55fd2f85d723","system_id":"levelo_inurba_marseille","lat":43.286591,"lon":5.363346,"is_reserved":false,"is_disabled":false,"rental_uris":{"android":"levelo://app?vid=5de61649-a1c8-4449-ace7-55fd2f85d723","ios":"levelo://app?vid=5de61649-a1c8-4449-ace7-55fd2f85d723"},"vehicle_type_id":"4","last_reported":1683410750,"current_range_meters":10000,"station_id":"ce4bhah2rcd13ifvqej0","pricing_plan_id":"free"},{"bike_id":"e723fc7b-7b7c-453d-9486-5318e7a905bd","system_id":"levelo_inurba_marseille","lat":43.295194,"lon":5.39397,"is_reserved":false,"is_disabled":false,"rental_uris":{"android":"levelo://app?vid=e723fc7b-7b7c-453d-9486-5318e7a905bd","ios":"levelo://app?vid=e723fc7b-7b7c-453d-9486-5318e7a905bd"},"vehicle_type_id":"4","last_reported":1683410750,"current_range_meters":1200,"station_id":"ce4bh292rcd13ifvqdf0","pricing_plan_id":"free"},{"bike_id":"06b9f748-2613-4fc6-9b12-a313c1189cd5","system_id":"levelo_inurba_marseille","lat":43.295194,"lon":5.39397,"is_reserved":false,"is_disabled":false,"rental_uris":{"android":"levelo://app?vid=06b9f748-2613-4fc6-9b12-a313c1189cd5","ios":"levelo://app?vid=06b9f748-2613-4fc6-9b12-a313c1189cd5"},"vehicle_type_id":"4","last_reported":1683410750,"current_range_meters":4400,"station_id":"ce4bh292rcd13ifvqdf0","pricing_plan_id":"free"},{"bike_id":"9af665ab-3d5a-4975-b771-9832b8e900f8","system_id":"levelo_inurba_marseille","lat":43.29514,"lon":5.39403,"is_reserved":false,"is_disabled":false,"rental_uris":{"android":"levelo://app?vid=9af665ab-3d5a-4975-b771-9832b8e900f8","ios":"levelo://app?vid=9af665ab-3d5a-4975-b771-9832b8e900f8"},"vehicle_type_id":"4","last_reported":1683410750,"current_range_meters":0,"station_id":"ce4bh292rcd13ifvqdf0","pricing_plan_id":"free"},{"bike_id":"61ad6e0e-24ef-4a9d-9e04-e7d77b2a69ba","system_id":"levelo_inurba_marseille","lat":43.295194,"lon":5.39397,"is_reserved":false,"is_disabled":false,"rental_uris":{"android":"levelo://app?vid=61ad6e0e-24ef-4a9d-9e04-e7d77b2a69ba","ios":"levelo://app?vid=61ad6e0e-24ef-4a9d-9e04-e7d77b2a69ba"},"vehicle_type_id":"4","last_reported":1683410750,"current_range_meters":0,"station_id":"ce4bh292rcd13ifvqdf0","pricing_plan_id":"free"},{"bike_id":"20a8bc2e-d82b-4038-96b0-b3d6c0c63336","system_id":"levelo_inurba_marseille","lat":43.290336,"lon":5.386425,"is_reserved":false,"is_disabled":false,"rental_uris":{"android":"levelo://app?vid=20a8bc2e-d82b-4038-96b0-b3d6c0c63336","ios":"levelo://app?vid=20a8bc2e-d82b-4038-96b0-b3d6c0c63336"},"vehicle_type_id":"4","last_reported":1683410750,"current_range_meters":9200,"station_id":"ce4bh4p2rcd13ifvqe0g","pricing_plan_id":"free"},{"bike_id":"c6929fa2-46d3-42fb-a518-ff9697466fc2","system_id":"levelo_inurba_marseille","lat":43.30253,"lon":5.40082,"is_reserved":false,"is_disabled":false,"rental_uris":{"android":"levelo://app?vid=c6929fa2-46d3-42fb-a518-ff9697466fc2","ios":"levelo://app?vid=c6929fa2-46d3-42fb-a518-ff9697466fc2"},"vehicle_type_id":"4","last_reported":1683410750,"current_range_meters":0,"station_id":"ce4bgvh2rcd13ifvqcs0","pricing_plan_id":"free"},{"bike_id":"e39d7518-08d0-4e6b-ae7a-f7e9afc80e96","system_id":"levelo_inurba_marseille","lat":43.286039,"lon":5.370679,"is_reserved":false,"is_disabled":false,"rental_uris":{"android":"levelo://app?vid=e39d7518-08d0-4e6b-ae7a-f7e9afc80e96","ios":"levelo://app?vid=e39d7518-08d0-4e6b-ae7a-f7e9afc80e96"},"vehicle_type_id":"4","last_reported":1683410750,"current_range_meters":17200,"station_id":"ce4bht12rcd13ifvqi60","pricing_plan_id":"free"},{"bike_id":"b7bef82f-73df-418a-981a-fd2d3cf06555","system_id":"levelo_inurba_marseille","lat":43.2861,"lon":5.3706,"is_reserved":false,"is_disabled":false,"rental_uris":{"android":"levelo://app?vid=b7bef82f-73df-418a-981a-fd2d3cf06555","ios":"levelo://app?vid=b7bef82f-73df-418a-981a-fd2d3cf06555"},"vehicle_type_id":"4","last_reported":1683410750,"current_range_meters":21600,"station_id":"ce4bht12rcd13ifvqi60","pricing_plan_id":"free"},{"bike_id":"c5a48fad-289b-4227-8730-ffb0bbb18bf1","system_id":"levelo_inurba_marseille","lat":43.286039,"lon":5.370679,"is_reserved":false,"is_disabled":false,"rental_uris":{"android":"levelo://app?vid=c5a48fad-289b-4227-8730-ffb0bbb18bf1","ios":"levelo://app?vid=c5a48fad-289b-4227-8730-ffb0bbb18bf1"},"vehicle_type_id":"4","last_reported":1683410750,"current_range_meters":8800,"station_id":"ce4bht12rcd13ifvqi60","pricing_plan_id":"free"},{"bike_id":"fe40c389-c80d-4035-8c26-96ab7662184d","system_id":"levelo_inurba_marseille","lat":43.286039,"lon":5.370681,"is_reserved":false,"is_disabled":false,"rental_uris":{"android":"levelo://app?vid=fe40c389-c80d-4035-8c26-96ab7662184d","ios":"levelo://app?vid=fe40c389-c80d-4035-8c26-96ab7662184d"},"vehicle_type_id":"4","last_reported":1683410750,"current_range_meters":800,"station_id":"ce4bht12rcd13ifvqi60","pricing_plan_id":"free"},{"bike_id":"7e2c13d1-71c8-4dd7-8a55-d0a913125d76","system_id":"levelo_inurba_marseille","lat":43.286039,"lon":5.370679,"is_reserved":false,"is_disabled":false,"rental_uris":{"android":"levelo://app?vid=7e2c13d1-71c8-4dd7-8a55-d0a913125d76","ios":"levelo://app?vid=7e2c13d1-71c8-4dd7-8a55-d0a913125d76"},"vehicle_type_id":"4","last_reported":1683410750,"current_range_meters":6000,"station_id":"ce4bht12rcd13ifvqi60","pricing_plan_id":"free"},{"bike_id":"72fcf500-86ac-4948-acbe-7b5a204c71d4","system_id":"levelo_inurba_marseille","lat":43.286039,"lon":5.370679,"is_reserved":false,"is_disabled":false,"rental_uris":{"android":"levelo://app?vid=72fcf500-86ac-4948-acbe-7b5a204c71d4","ios":"levelo://app?vid=72fcf500-86ac-4948-acbe-7b5a204c71d4"},"vehicle_type_id":"4","last_reported":1683410750,"current_range_meters":400,"station_id":"ce4bht12rcd13ifvqi60","pricing_plan_id":"free"},{"bike_id":"c2776e04-12e9-4e7f-9327-00922ef2ee21","system_id":"levelo_inurba_marseille","lat":43.286039,"lon":5.370679,"is_reserved":false,"is_disabled":false,"rental_uris":{"android":"levelo://app?vid=c2776e04-12e9-4e7f-9327-00922ef2ee21","ios":"levelo://app?vid=c2776e04-12e9-4e7f-9327-00922ef2ee21"},"vehicle_type_id":"4","last_reported":1683410750,"current_range_meters":21200,"station_id":"ce4bht12rcd13ifvqi60","pricing_plan_id":"free"},{"bike_id":"9595f8bb-3022-4124-af91-4de45cac1c12","system_id":"levelo_inurba_marseille","lat":43.31645,"lon":5.40442,"is_reserved":false,"is_disabled":false,"rental_uris":{"android":"levelo://app?vid=9595f8bb-3022-4124-af91-4de45cac1c12","ios":"levelo://app?vid=9595f8bb-3022-4124-af91-4de45cac1c12"},"vehicle_type_id":"4","last_reported":1683410750,"current_range_meters":12800,"station_id":"ce4bh012rcd13ifvqd00","pricing_plan_id":"free"},{"bike_id":"e19fd36f-2c84-4aee-bc6e-7d93411551cf","system_id":"levelo_inurba_marseille","lat":43.286039,"lon":5.370679,"is_reserved":false,"is_disabled":false,"rental_uris":{"android":"levelo://app?vid=e19fd36f-2c84-4aee-bc6e-7d93411551cf","ios":"levelo://app?vid=e19fd36f-2c84-4aee-bc6e-7d93411551cf"},"vehicle_type_id":"4","last_reported":1683410750,"current_range_meters":21200,"station_id":"ce4bht12rcd13ifvqi60","pricing_plan_id":"free"},{"bike_id":"9b58c03a-e056-4d5d-9897-00689f1be5e2","system_id":"levelo_inurba_marseille","lat":43.33473,"lon":5.38999,"is_reserved":false,"is_disabled":false,"rental_uris":{"android":"levelo://app?vid=9b58c03a-e056-4d5d-9897-00689f1be5e2","ios":"levelo://app?vid=9b58c03a-e056-4d5d-9897-00689f1be5e2"},"vehicle_type_id":"4","last_reported":1683410750,"current_range_meters":6000,"station_id":"","pricing_plan_id":"free"},{"bike_id":"27865f6e-c046-4416-9233-48156b6bae2c","system_id":"levelo_inurba_marseille","lat":43.33482,"lon":5.38984,"is_reserved":false,"is_disabled":false,"rental_uris":{"android":"levelo://app?vid=27865f6e-c046-4416-9233-48156b6bae2c","ios":"levelo://app?vid=27865f6e-c046-4416-9233-48156b6bae2c"},"vehicle_type_id":"4","last_reported":1683410750,"current_range_meters":28400,"station_id":"","pricing_plan_id":"free"},{"bike_id":"007c9210-e319-4cb4-bfbf-a907d96c2724","system_id":"levelo_inurba_marseille","lat":43.291994,"lon":5.392907,"is_reserved":false,"is_disabled":false,"rental_uris":{"android":"levelo://app?vid=007c9210-e319-4cb4-bfbf-a907d96c2724","ios":"levelo://app?vid=007c9210-e319-4cb4-bfbf-a907d96c2724"},"vehicle_type_id":"4","last_reported":1683410750,"current_range_meters":30400,"station_id":"ce4bh192rcd13ifvqdd0","pricing_plan_id":"free"},{"bike_id":"3fa4bec3-9f94-40d3-afe8-768f7088bba6","system_id":"levelo_inurba_marseille","lat":43.284534,"lon":5.358662,"is_reserved":false,"is_disabled":false,"rental_uris":{"android":"levelo://app?vid=3fa4bec3-9f94-40d3-afe8-768f7088bba6","ios":"levelo://app?vid=3fa4bec3-9f94-40d3-afe8-768f7088bba6"},"vehicle_type_id":"4","last_reported":1683410750,"current_range_meters":20000,"station_id":"ce4bhah2rcd13ifvqei0","pricing_plan_id":"free"},{"bike_id":"898cbac4-d6e5-4457-b6ff-295da9bb33ba","system_id":"levelo_inurba_marseille","lat":43.28621,"lon":5.35099,"is_reserved":false,"is_disabled":false,"rental_uris":{"android":"levelo://app?vid=898cbac4-d6e5-4457-b6ff-295da9bb33ba","ios":"levelo://app?vid=898cbac4-d6e5-4457-b6ff-295da9bb33ba"},"vehicle_type_id":"4","last_reported":1683410750,"current_range_meters":31200,"station_id":"","pricing_plan_id":"free"},{"bike_id":"3f7795e9-beba-49a8-9c22-07bf6ef992b3","system_id":"levelo_inurba_marseille","lat":43.285856,"lon":5.350771,"is_reserved":false,"is_disabled":false,"rental_uris":{"android":"levelo://app?vid=3f7795e9-beba-49a8-9c22-07bf6ef992b3","ios":"levelo://app?vid=3f7795e9-beba-49a8-9c22-07bf6ef992b3"},"vehicle_type_id":"4","last_reported":1683410750,"current_range_meters":31200,"station_id":"ce4bhch2rcd13ifvqeug","pricing_plan_id":"free"},{"bike_id":"d397c1db-8e59-4394-bc66-e6d2706f3f1a","system_id":"levelo_inurba_marseille","lat":43.28617,"lon":5.35103,"is_reserved":false,"is_disabled":false,"rental_uris":{"android":"levelo://app?vid=d397c1db-8e59-4394-bc66-e6d2706f3f1a","ios":"levelo://app?vid=d397c1db-8e59-4394-bc66-e6d2706f3f1a"},"vehicle_type_id":"4","last_reported":1683410750,"current_range_meters":31200,"station_id":"","pricing_plan_id":"free"},{"bike_id":"1605f744-88ae-4be4-a91b-7f702ae49b53","system_id":"levelo_inurba_marseille","lat":43.28617,"lon":5.35103,"is_reserved":false,"is_disabled":false,"rental_uris":{"android":"levelo://app?vid=1605f744-88ae-4be4-a91b-7f702ae49b53","ios":"levelo://app?vid=1605f744-88ae-4be4-a91b-7f702ae49b53"},"vehicle_type_id":"4","last_reported":1683410750,"current_range_meters":31200,"station_id":"","pricing_plan_id":"free"},{"bike_id":"4619ec7c-00a2-44bd-b80f-d546cf4e0731","system_id":"levelo_inurba_marseille","lat":43.28617,"lon":5.35097,"is_reserved":false,"is_disabled":false,"rental_uris":{"android":"levelo://app?vid=4619ec7c-00a2-44bd-b80f-d546cf4e0731","ios":"levelo://app?vid=4619ec7c-00a2-44bd-b80f-d546cf4e0731"},"vehicle_type_id":"4","last_reported":1683410750,"current_range_meters":31200,"station_id":"","pricing_plan_id":"free"},{"bike_id":"87be1e86-6604-4c13-8bbc-cdf04701c037","system_id":"levelo_inurba_marseille","lat":43.28615,"lon":5.35103,"is_reserved":false,"is_disabled":false,"rental_uris":{"android":"levelo://app?vid=87be1e86-6604-4c13-8bbc-cdf04701c037","ios":"levelo://app?vid=87be1e86-6604-4c13-8bbc-cdf04701c037"},"vehicle_type_id":"4","last_reported":1683410750,"current_range_meters":31200,"station_id":"","pricing_plan_id":"free"},{"bike_id":"b8d6bbc0-2e64-4f18-a84f-3b3d178c5659","system_id":"levelo_inurba_marseille","lat":43.28612,"lon":5.35109,"is_reserved":false,"is_disabled":false,"rental_uris":{"android":"levelo://app?vid=b8d6bbc0-2e64-4f18-a84f-3b3d178c5659","ios":"levelo://app?vid=b8d6bbc0-2e64-4f18-a84f-3b3d178c5659"},"vehicle_type_id":"4","last_reported":1683410750,"current_range_meters":31200,"station_id":"","pricing_plan_id":"free"},{"bike_id":"50752b10-9ce0-4870-a63e-6307a1873e5e","system_id":"levelo_inurba_marseille","lat":43.28611,"lon":5.35101,"is_reserved":false,"is_disabled":false,"rental_uris":{"android":"levelo://app?vid=50752b10-9ce0-4870-a63e-6307a1873e5e","ios":"levelo://app?vid=50752b10-9ce0-4870-a63e-6307a1873e5e"},"vehicle_type_id":"4","last_reported":1683410750,"current_range_meters":31200,"station_id":"","pricing_plan_id":"free"},{"bike_id":"66d34194-e7eb-4d33-bb37-34affb3e7fb8","system_id":"levelo_inurba_marseille","lat":43.28609,"lon":5.35101,"is_reserved":false,"is_disabled":false,"rental_uris":{"android":"levelo://app?vid=66d34194-e7eb-4d33-bb37-34affb3e7fb8","ios":"levelo://app?vid=66d34194-e7eb-4d33-bb37-34affb3e7fb8"},"vehicle_type_id":"4","last_reported":1683410750,"current_range_meters":31200,"station_id":"","pricing_plan_id":"free"},{"bike_id":"3e3c3914-7a12-4151-9d90-9caa579a6dfa","system_id":"levelo_inurba_marseille","lat":43.285776,"lon":5.351924,"is_reserved":false,"is_disabled":false,"rental_uris":{"android":"levelo://app?vid=3e3c3914-7a12-4151-9d90-9caa579a6dfa","ios":"levelo://app?vid=3e3c3914-7a12-4151-9d90-9caa579a6dfa"},"vehicle_type_id":"4","last_reported":1683410750,"current_range_meters":11200,"station_id":"","pricing_plan_id":"free"},{"bike_id":"3bc7cb0b-33d5-4966-b5af-5b5459ce7ecb","system_id":"levelo_inurba_marseille","lat":43.295713,"lon":5.399639,"is_reserved":false,"is_disabled":false,"rental_uris":{"android":"levelo://app?vid=3bc7cb0b-33d5-4966-b5af-5b5459ce7ecb","ios":"levelo://app?vid=3bc7cb0b-33d5-4966-b5af-5b5459ce7ecb"},"vehicle_type_id":"4","last_reported":1683410750,"current_range_meters":4400,"station_id":"ce4bh312rcd13ifvqdj0","pricing_plan_id":"free"},{"bike_id":"68ce8205-e47b-411f-b476-6083e4445f6c","system_id":"levelo_inurba_marseille","lat":43.2957,"lon":5.39985,"is_reserved":false,"is_disabled":false,"rental_uris":{"android":"levelo://app?vid=68ce8205-e47b-411f-b476-6083e4445f6c","ios":"levelo://app?vid=68ce8205-e47b-411f-b476-6083e4445f6c"},"vehicle_type_id":"4","last_reported":1683410750,"current_range_meters":4400,"station_id":"ce4bh312rcd13ifvqdj0","pricing_plan_id":"free"},{"bike_id":"7b6c767e-f0a8-40cf-983b-a425f534a2ee","system_id":"levelo_inurba_marseille","lat":43.323464,"lon":5.406297,"is_reserved":false,"is_disabled":false,"rental_uris":{"android":"levelo://app?vid=7b6c767e-f0a8-40cf-983b-a425f534a2ee","ios":"levelo://app?vid=7b6c767e-f0a8-40cf-983b-a425f534a2ee"},"vehicle_type_id":"4","last_reported":1683410750,"current_range_meters":28400,"station_id":"ce4bhq92rcd13ifvqhjg","pricing_plan_id":"free"},{"bike_id":"8a7435d6-b67e-4181-9a55-ab790750a14c","system_id":"levelo_inurba_marseille","lat":43.276179,"lon":5.361009,"is_reserved":false,"is_disabled":false,"rental_uris":{"android":"levelo://app?vid=8a7435d6-b67e-4181-9a55-ab790750a14c","ios":"levelo://app?vid=8a7435d6-b67e-4181-9a55-ab790750a14c"},"vehicle_type_id":"4","last_reported":1683410750,"current_range_meters":2800,"station_id":"ce4bgj92rcd13ifvqbe0","pricing_plan_id":"free"},{"bike_id":"6a3e714f-16f2-45b5-b4d9-502da0f0bded","system_id":"levelo_inurba_marseille","lat":43.287154,"lon":5.399979,"is_reserved":false,"is_disabled":false,"rental_uris":{"android":"levelo://app?vid=6a3e714f-16f2-45b5-b4d9-502da0f0bded","ios":"levelo://app?vid=6a3e714f-16f2-45b5-b4d9-502da0f0bded"},"vehicle_type_id":"4","last_reported":1683410750,"current_range_meters":0,"station_id":"ce4bho92rcd13ifvqh3g","pricing_plan_id":"free"},{"bike_id":"f9b2e6fa-1568-4b31-8499-a12aee2ca3c0","system_id":"levelo_inurba_marseille","lat":43.33717,"lon":5.391857,"is_reserved":false,"is_disabled":false,"rental_uris":{"android":"levelo://app?vid=f9b2e6fa-1568-4b31-8499-a12aee2ca3c0","ios":"levelo://app?vid=f9b2e6fa-1568-4b31-8499-a12aee2ca3c0"},"vehicle_type_id":"4","last_reported":1683410750,"current_range_meters":23600,"station_id":"ce4bhr92rcd13ifvqhsg","pricing_plan_id":"free"},{"bike_id":"c02fb7ec-1fbd-4ea4-89f5-d9a6cd813577","system_id":"levelo_inurba_marseille","lat":43.323464,"lon":5.406297,"is_reserved":false,"is_disabled":false,"rental_uris":{"android":"levelo://app?vid=c02fb7ec-1fbd-4ea4-89f5-d9a6cd813577","ios":"levelo://app?vid=c02fb7ec-1fbd-4ea4-89f5-d9a6cd813577"},"vehicle_type_id":"4","last_reported":1683410750,"current_range_meters":27600,"station_id":"ce4bhq92rcd13ifvqhjg","pricing_plan_id":"free"},{"bike_id":"ad3cdfdb-0864-4cce-8a5d-05a05de94244","system_id":"levelo_inurba_marseille","lat":43.30083,"lon":5.4057,"is_reserved":false,"is_disabled":false,"rental_uris":{"android":"levelo://app?vid=ad3cdfdb-0864-4cce-8a5d-05a05de94244","ios":"levelo://app?vid=ad3cdfdb-0864-4cce-8a5d-05a05de94244"},"vehicle_type_id":"4","last_reported":1683410750,"current_range_meters":18800,"station_id":"","pricing_plan_id":"free"},{"bike_id":"229c700f-f9ac-4c3d-a788-596787be8b20","system_id":"levelo_inurba_marseille","lat":43.288497,"lon":5.393089,"is_reserved":false,"is_disabled":false,"rental_uris":{"android":"levelo://app?vid=229c700f-f9ac-4c3d-a788-596787be8b20","ios":"levelo://app?vid=229c700f-f9ac-4c3d-a788-596787be8b20"},