{"last_updated":1734988094,"ttl":60,"version":"2.2","data":{"bikes":[{"bike_id":"a37d4ae6-3b8f-4311-8a45-7b8e9d8cd47b","system_id":"levelo_inurba_marseille","lat":43.29803,"lon":5.3808,"is_reserved":false,"is_disabled":false,"rental_uris":{"android":"levelo://app?vid=a37d4ae6-3b8f-4311-8a45-7b8e9d8cd47b","ios":"levelo://app?vid=a37d4ae6-3b8f-4311-8a45-7b8e9d8cd47b"},"vehicle_type_id":"4","last_reported":1734988094,"current_range_meters":27600,"station_id":"ce4bgip2rcd13ifvqbb0","pricing_plan_id":"cebpf4jnsgd1na2vs0mg"},{"bike_id":"b0190d43-f866-40ac-9481-87078cf0e5c0","system_id":"levelo_inurba_marseille","lat":43.28273,"lon":5.35077,"is_reserved":false,"is_disabled":false,"rental_uris":{"android":"levelo://app?vid=b0190d43-f866-40ac-9481-87078cf0e5c0","ios":"levelo://app?vid=b0190d43-f866-40ac-9481-87078cf0e5c0"},"vehicle_type_id":"4","last_reported":1734988094,"current_range_meters":16000,"station_id":"ce4bhbp2rcd13ifvqerg","pricing_plan_id":"cebpf4jnsgd1na2vs0mg"},{"bike_id":"6ba11d38-94f5-4828-b395-0d6f9fdaab0c","system_id":"levelo_inurba_marseille","lat":43.29525,"lon":5.37506,"is_reserved":false,"is_disabled":false,"rental_uris":{"android":"levelo://app?vid=6ba11d38-94f5-4828-b395-0d6f9fdaab0c","ios":"levelo://app?vid=6ba11d38-94f5-4828-b395-0d6f9fdaab0c"},"vehicle_type_id":"4","last_reported":1734988094,"current_range_meters":37600,"station_id":"ce4bgkp2rcd13ifvqbmg","pricing_plan_id":"cebpf4jnsgd1na2vs0mg"},{"bike_id":"6c0e2fb5-015c-4176-b0bb-902f57d44214","system_id":"levelo_inurba_marseille","lat":43.28947,"lon":5.39636,"is_reserved":false,"is_disabled":true,"rental_uris":{"android":"levelo://app?vid=6c0e2fb5-015c-4176-b0bb-902f57d44214","ios":"levelo://app?vid=6c0e2fb5-015c-4176-b0bb-902f57d44214"},"vehicle_type_id":"4","last_reported":1734988094,"current_range_meters":23200,"station_id":"ce4bh3h2rcd13ifvqdn0","pricing_plan_id":"cebpf4jnsgd1na2vs0mg"},{"bike_id":"2a6357b0-9b42-4cd6-b4fc-7fa01001c56c","system_id":"levelo_inurba_marseille","lat":43.26077,"lon":5.39372,"is_reserved":false,"is_disabled":false,"rental_uris":{"android":"levelo://app?vid=2a6357b0-9b42-4cd6-b4fc-7fa01001c56c","ios":"levelo://app?vid=2a6357b0-9b42-4cd6-b4fc-7fa01001c56c"},"vehicle_type_id":"4","last_reported":1734988094,"current_range_meters":24400,"station_id":"ce4bhh92rcd13ifvqfj0","pricing_plan_id":"cebpf4jnsgd1na2vs0mg"},{"bike_id":"e80cda4a-ecb1-4513-84f7-24ca6f478899","system_id":"levelo_inurba_marseille","lat":43.29973,"lon":5.38484,"is_reserved":false,"is_disabled":false,"rental_uris":{"android":"levelo://app?vid=e80cda4a-ecb1-4513-84f7-24ca6f478899","ios":"levelo://app?vid=e80cda4a-ecb1-4513-84f7-24ca6f478899"},"vehicle_type_id":"4","last_reported":1734988094,"current_range_meters":22000,"station_id":"ce4bgj92rcd13ifvqbd0","pricing_plan_id":"cebpf4jnsgd1na2vs0mg"},{"bike_id":"309a87e9-9b5e-4e9a-8bc8-15574014cdc6","system_id":"levelo_inurba_marseille","lat":43.2439,"lon":5.37054,"is_reserved":false,"is_disabled":false,"rental_uris":{"android":"levelo://app?vid=309a87e9-9b5e-4e9a-8bc8-15574014cdc6","ios":"levelo://app?vid=309a87e9-9b5e-4e9a-8bc8-15574014cdc6"},"vehicle_type_id":"4","last_reported":1734988094,"current_range_meters":37600,"station_id":"ce4bhhh2rcd13ifvqfk0","pricing_plan_id":"cebpf4jnsgd1na2vs0mg"},{"bike_id":"195cd00e-a9a2-41ab-bb32-b6ae9f911685","system_id":"levelo_inurba_marseille","lat":43.29807,"lon":5.40406,"is_reserved":false,"is_disabled":false,"rental_uris":{"android":"levelo://app?vid=195cd00e-a9a2-41ab-bb32-b6ae9f911685","ios":"levelo://app?vid=195cd00e-a9a2-41ab-bb32-b6ae9f911685"},"vehicle_type_id":"4","last_reported":1734988094,"current_range_meters":37600,"station_id":"ce4bh112rcd13ifvqd90","pricing_plan_id":"cebpf4jnsgd1na2vs0mg"},{"bike_id":"f7e5e57a-9e67-4a34-8c87-f182c2d1ab80","system_id":"levelo_inurba_marseille","lat":43.27066,"lon":5.42273,"is_reserved":false,"is_disabled":false,"rental_uris":{"android":"levelo://app?vid=f7e5e57a-9e67-4a34-8c87-f182c2d1ab80","ios":"levelo://app?vid=f7e5e57a-9e67-4a34-8c87-f182c2d1ab80"},"vehicle_type_id":"4","last_reported":1734988094,"current_range_meters":30000,"station_id":"ce4bhk92rcd13ifvqgb0","pricing_plan_id":"cebpf4jnsgd1na2vs0mg"},{"bike_id":"3a044041-3464-470e-b37f-dbc05ff5c634","system_id":"levelo_inurba_marseille","lat":43.31709,"lon":5.43706,"is_reserved":false,"is_disabled":false,"rental_uris":{"android":"levelo://app?vid=3a044041-3464-470e-b37f-dbc05ff5c634","ios":"levelo://app?vid=3a044041-3464-470e-b37f-dbc05ff5c634"},"vehicle_type_id":"4","last_reported":1734988094,"current_range_meters":20800,"station_id":"ce4bhp92rcd13ifvqhcg","pricing_plan_id":"cebpf4jnsgd1na2vs0mg"},{"bike_id":"96f67906-c94f-4a78-ae6e-fdff28a17019","system_id":"levelo_inurba_marseille","lat":43.33753,"lon":5.37429,"is_reserved":false,"is_disabled":false,"rental_uris":{"android":"levelo://app?vid=96f67906-c94f-4a78-ae6e-fdff28a17019","ios":"levelo://app?vid=96f67906-c94f-4a78-ae6e-fdff28a17019"},"vehicle_type_id":"4","last_reported":1734988094,"current_range_meters":20000,"station_id":"","pricing_plan_id":"cebpf4jnsgd1na2vs0mg"},{"bike_id":"795076f9-83a5-46e4-979a-bed3b01d1ac4","system_id":"levelo_inurba_marseille","lat":43.28843,"lon":5.35846,"is_reserved":false,"is_disabled":false,"rental_uris":{"android":"levelo://app?vid=795076f9-83a5-46e4-979a-bed3b01d1ac4","ios":"levelo://app?vid=795076f9-83a5-46e4-979a-bed3b01d1ac4"},"vehicle_type_id":"4","last_reported":1734988094,"current_range_meters":11200,"station_id":"ce4bhb12rcd13ifvqem0","pricing_plan_id":"cebpf4jnsgd1na2vs0mg"},{"bike_id":"454a2917-bbfc-4010-a3c2-3e352c41d99d","system_id":"levelo_inurba_marseille","lat":43.292557,"lon":5.409172,"is_reserved":false,"is_disabled":false,"rental_uris":{"android":"levelo://app?vid=454a2917-bbfc-4010-a3c2-3e352c41d99d","ios":"levelo://app?vid=454a2917-bbfc-4010-a3c2-3e352c41d99d"},"vehicle_type_id":"4","last_reported":1734988094,"current_range_meters":38800,"station_id":"ce4bh192rcd13ifvqdc0","pricing_plan_id":"cebpf4jnsgd1na2vs0mg"},{"bike_id":"8ba84ccc-8626-48fe-9205-f75891433829","system_id":"levelo_inurba_marseille","lat":43.25499,"lon":5.37643,"is_reserved":false,"is_disabled":false,"rental_uris":{"android":"levelo://app?vid=8ba84ccc-8626-48fe-9205-f75891433829","ios":"levelo://app?vid=8ba84ccc-8626-48fe-9205-f75891433829"},"vehicle_type_id":"4","last_reported":1734988094,"current_range_meters":38800,"station_id":"ce4bhh12rcd13ifvqff0","pricing_plan_id":"cebpf4jnsgd1na2vs0mg"},{"bike_id":"13fd8ed7-3284-4d21-9372-d871d71d55dc","system_id":"levelo_inurba_marseille","lat":43.29625,"lon":5.3771,"is_reserved":false,"is_disabled":false,"rental_uris":{"android":"levelo://app?vid=13fd8ed7-3284-4d21-9372-d871d71d55dc","ios":"levelo://app?vid=13fd8ed7-3284-4d21-9372-d871d71d55dc"},"vehicle_type_id":"4","last_reported":1734988094,"current_range_meters":16800,"station_id":"ce4bgi92rcd13ifvqb90","pricing_plan_id":"cebpf4jnsgd1na2vs0mg"},{"bike_id":"4145cc2d-92bc-4c78-b685-0b853f2fbe6a","system_id":"levelo_inurba_marseille","lat":43.28861,"lon":5.39306,"is_reserved":false,"is_disabled":false,"rental_uris":{"android":"levelo://app?vid=4145cc2d-92bc-4c78-b685-0b853f2fbe6a","ios":"levelo://app?vid=4145cc2d-92bc-4c78-b685-0b853f2fbe6a"},"vehicle_type_id":"4","last_reported":1734988094,"current_range_meters":27200,"station_id":"ce4bh2p2rcd13ifvqdi0","pricing_plan_id":"cebpf4jnsgd1na2vs0mg"},{"bike_id":"be3040e9-6906-407e-a792-9696f53ac95d","system_id":"levelo_inurba_marseille","lat":43.29181,"lon":5.39324,"is_reserved":false,"is_disabled":false,"rental_uris":{"android":"levelo://app?vid=be3040e9-6906-407e-a792-9696f53ac95d","ios":"levelo://app?vid=be3040e9-6906-407e-a792-9696f53ac95d"},"vehicle_type_id":"4","last_reported":1734988094,"current_range_meters":37600,"station_id":"ce4bh192rcd13ifvqdd0","pricing_plan_id":"cebpf4jnsgd1na2vs0mg"},{"bike_id":"15546ba2-38ac-400d-b271-ae9b7236f8a7","system_id":"levelo_inurba_marseille","lat":43.27069,"lon":5.42281,"is_reserved":false,"is_disabled":true,"rental_uris":{"android":"levelo://app?vid=15546ba2-38ac-400d-b271-ae9b7236f8a7","ios":"levelo://app?vid=15546ba2-38ac-400d-b271-ae9b7236f8a7"},"vehicle_type_id":"4","last_reported":1734988094,"current_range_meters":38800,"station_id":"ce4bhk92rcd13ifvqgb0","pricing_plan_id":"cebpf4jnsgd1na2vs0mg"},{"bike_id":"c66abb8e-8df5-4273-a071-f5581230d15b","system_id":"levelo_inurba_marseille","lat":43.30135,"lon":5.37422,"is_reserved":false,"is_disabled":false,"rental_uris":{"android":"levelo://app?vid=c66abb8e-8df5-4273-a071-f5581230d15b","ios":"levelo://app?vid=c66abb8e-8df5-4273-a071-f5581230d15b"},"vehicle_type_id":"4","last_reported":1734988094,"current_range_meters":37600,"station_id":"ce4bgs92rcd13ifvqcc0","pricing_plan_id":"cebpf4jnsgd1na2vs0mg"},{"bike_id":"cc87633d-60fc-42c8-8d1b-1eadaf5d9adc","system_id":"levelo_inurba_marseille","lat":43.30248,"lon":5.4005,"is_reserved":false,"is_disabled":false,"rental_uris":{"android":"levelo://app?vid=cc87633d-60fc-42c8-8d1b-1eadaf5d9adc","ios":"levelo://app?vid=cc87633d-60fc-42c8-8d1b-1eadaf5d9adc"},"vehicle_type_id":"4","last_reported":1734988094,"current_range_meters":26000,"station_id":"ce4bgvh2rcd13ifvqcs0","pricing_plan_id":"cebpf4jnsgd1na2vs0mg"},{"bike_id":"483c1a88-3d76-4ce2-b8a0-18ab3d6306de","system_id":"levelo_inurba_marseille","lat":43.29943,"lon":5.36557,"is_reserved":false,"is_disabled":false,"rental_uris":{"android":"levelo://app?vid=483c1a88-3d76-4ce2-b8a0-18ab3d6306de","ios":"levelo://app?vid=483c1a88-3d76-4ce2-b8a0-18ab3d6306de"},"vehicle_type_id":"4","last_reported":1734988094,"current_range_meters":38800,"station_id":"ce4bgm92rcd13ifvqbr0","pricing_plan_id":"cebpf4jnsgd1na2vs0mg"},{"bike_id":"677767c6-7ea3-4173-ae5e-27b0074a22e9","system_id":"levelo_inurba_marseille","lat":43.28725,"lon":5.36085,"is_reserved":false,"is_disabled":false,"rental_uris":{"android":"levelo://app?vid=677767c6-7ea3-4173-ae5e-27b0074a22e9","ios":"levelo://app?vid=677767c6-7ea3-4173-ae5e-27b0074a22e9"},"vehicle_type_id":"4","last_reported":1734988094,"current_range_meters":38800,"station_id":"cki0cbj6b192h4jlfktg","pricing_plan_id":"cebpf4jnsgd1na2vs0mg"},{"bike_id":"b5305089-62ba-43a5-a181-d0cf47187869","system_id":"levelo_inurba_marseille","lat":43.26498,"lon":5.39554,"is_reserved":false,"is_disabled":false,"rental_uris":{"android":"levelo://app?vid=b5305089-62ba-43a5-a181-d0cf47187869","ios":"levelo://app?vid=b5305089-62ba-43a5-a181-d0cf47187869"},"vehicle_type_id":"4","last_reported":1734988094,"current_range_meters":24400,"station_id":"ce4bhi12rcd13ifvqfq0","pricing_plan_id":"cebpf4jnsgd1na2vs0mg"},{"bike_id":"671b6366-55bc-4b51-a3a4-65fbc5c39302","system_id":"levelo_inurba_marseille","lat":43.32038,"lon":5.4156,"is_reserved":false,"is_disabled":false,"rental_uris":{"android":"levelo://app?vid=671b6366-55bc-4b51-a3a4-65fbc5c39302","ios":"levelo://app?vid=671b6366-55bc-4b51-a3a4-65fbc5c39302"},"vehicle_type_id":"4","last_reported":1734988094,"current_range_meters":36000,"station_id":"ce4bhq92rcd13ifvqhkg","pricing_plan_id":"cebpf4jnsgd1na2vs0mg"},{"bike_id":"95b9273e-12e7-4d43-b1f1-91f605cb289e","system_id":"levelo_inurba_marseille","lat":43.27999,"lon":5.40012,"is_reserved":false,"is_disabled":false,"rental_uris":{"android":"levelo://app?vid=95b9273e-12e7-4d43-b1f1-91f605cb289e","ios":"levelo://app?vid=95b9273e-12e7-4d43-b1f1-91f605cb289e"},"vehicle_type_id":"4","last_reported":1734988094,"current_range_meters":34800,"station_id":"ce4bho92rcd13ifvqh4g","pricing_plan_id":"cebpf4jnsgd1na2vs0mg"},{"bike_id":"d2392b21-1a33-49fb-a89d-001f0092fb2c","system_id":"levelo_inurba_marseille","lat":43.30881,"lon":5.39638,"is_reserved":false,"is_disabled":false,"rental_uris":{"android":"levelo://app?vid=d2392b21-1a33-49fb-a89d-001f0092fb2c","ios":"levelo://app?vid=d2392b21-1a33-49fb-a89d-001f0092fb2c"},"vehicle_type_id":"4","last_reported":1734988094,"current_range_meters":35200,"station_id":"ce4bh012rcd13ifvqcv0","pricing_plan_id":"cebpf4jnsgd1na2vs0mg"},{"bike_id":"39076371-5d4c-42aa-82bc-3aa69939e51e","system_id":"levelo_inurba_marseille","lat":43.25715,"lon":5.41108,"is_reserved":false,"is_disabled":false,"rental_uris":{"android":"levelo://app?vid=39076371-5d4c-42aa-82bc-3aa69939e51e","ios":"levelo://app?vid=39076371-5d4c-42aa-82bc-3aa69939e51e"},"vehicle_type_id":"4","last_reported":1734988094,"current_range_meters":38800,"station_id":"ce4bhkp2rcd13ifvqgd0","pricing_plan_id":"cebpf4jnsgd1na2vs0mg"},{"bike_id":"3130a1e9-02dc-483e-bca9-c7faabf763a1","system_id":"levelo_inurba_marseille","lat":43.25507,"lon":5.3763,"is_reserved":false,"is_disabled":false,"rental_uris":{"android":"levelo://app?vid=3130a1e9-02dc-483e-bca9-c7faabf763a1","ios":"levelo://app?vid=3130a1e9-02dc-483e-bca9-c7faabf763a1"},"vehicle_type_id":"4","last_reported":1734988094,"current_range_meters":38800,"station_id":"ce4bhh12rcd13ifvqff0","pricing_plan_id":"cebpf4jnsgd1na2vs0mg"},{"bike_id":"ea8c40cc-174b-443f-b73d-f844c946648a","system_id":"levelo_inurba_marseille","lat":43.24644,"lon":5.38883,"is_reserved":false,"is_disabled":false,"rental_uris":{"android":"levelo://app?vid=ea8c40cc-174b-443f-b73d-f844c946648a","ios":"levelo://app?vid=ea8c40cc-174b-443f-b73d-f844c946648a"},"vehicle_type_id":"4","last_reported":1734988094,"current_range_meters":30800,"station_id":"ce4bhg12rcd13ifvqf60","pricing_plan_id":"cebpf4jnsgd1na2vs0mg"},{"bike_id":"b76cea7e-5025-4e14-a8c7-eebf31292c4c","system_id":"levelo_inurba_marseille","lat":43.26065,"lon":5.3939,"is_reserved":false,"is_disabled":true,"rental_uris":{"android":"levelo://app?vid=b76cea7e-5025-4e14-a8c7-eebf31292c4c","ios":"levelo://app?vid=b76cea7e-5025-4e14-a8c7-eebf31292c4c"},"vehicle_type_id":"4","last_reported":1734988094,"current_range_meters":27600,"station_id":"ce4bhh92rcd13ifvqfj0","pricing_plan_id":"cebpf4jnsgd1na2vs0mg"},{"bike_id":"e537e28b-1eb5-4fbb-94f3-b8d20ff59a9d","system_id":"levelo_inurba_marseille","lat":43.28938,"lon":5.36396,"is_reserved":false,"is_disabled":true,"rental_uris":{"android":"levelo://app?vid=e537e28b-1eb5-4fbb-94f3-b8d20ff59a9d","ios":"levelo://app?vid=e537e28b-1eb5-4fbb-94f3-b8d20ff59a9d"},"vehicle_type_id":"4","last_reported":1734988094,"current_range_meters":6800,"station_id":"ce4bhc92rcd13ifvqetg","pricing_plan_id":"cebpf4jnsgd1na2vs0mg"},{"bike_id":"4640efba-219d-4755-95ea-1eeb325bea3d","system_id":"levelo_inurba_marseille","lat":43.29007,"lon":5.35611,"is_reserved":false,"is_disabled":false,"rental_uris":{"android":"levelo://app?vid=4640efba-219d-4755-95ea-1eeb325bea3d","ios":"levelo://app?vid=4640efba-219d-4755-95ea-1eeb325bea3d"},"vehicle_type_id":"4","last_reported":1734988094,"current_range_meters":36800,"station_id":"ce4bhb92rcd13ifvqen0","pricing_plan_id":"cebpf4jnsgd1na2vs0mg"},{"bike_id":"f64237d5-46cf-42d8-870d-cc1e4d25f3e7","system_id":"levelo_inurba_marseille","lat":43.266949,"lon":5.382741,"is_reserved":false,"is_disabled":false,"rental_uris":{"android":"levelo://app?vid=f64237d5-46cf-42d8-870d-cc1e4d25f3e7","ios":"levelo://app?vid=f64237d5-46cf-42d8-870d-cc1e4d25f3e7"},"vehicle_type_id":"4","last_reported":1734988094,"current_range_meters":32400,"station_id":"ce4bhg92rcd13ifvqf90","pricing_plan_id":"cebpf4jnsgd1na2vs0mg"},{"bike_id":"5d29fc56-dbb2-4006-96bc-27e181f8d4f5","system_id":"levelo_inurba_marseille","lat":43.29851,"lon":5.36291,"is_reserved":false,"is_disabled":false,"rental_uris":{"android":"levelo://app?vid=5d29fc56-dbb2-4006-96bc-27e181f8d4f5","ios":"levelo://app?vid=5d29fc56-dbb2-4006-96bc-27e181f8d4f5"},"vehicle_type_id":"4","last_reported":1734988094,"current_range_meters":37600,"station_id":"ce4bgpp2rcd13ifvqc3g","pricing_plan_id":"cebpf4jnsgd1na2vs0mg"},{"bike_id":"bf0280ad-bda7-4529-a99f-08b28cf99de6","system_id":"levelo_inurba_marseille","lat":43.29935,"lon":5.36547,"is_reserved":false,"is_disabled":false,"rental_uris":{"android":"levelo://app?vid=bf0280ad-bda7-4529-a99f-08b28cf99de6","ios":"levelo://app?vid=bf0280ad-bda7-4529-a99f-08b28cf99de6"},"vehicle_type_id":"4","last_reported":1734988094,"current_range_meters":27200,"station_id":"ce4bgm92rcd13ifvqbr0","pricing_plan_id":"cebpf4jnsgd1na2vs0mg"},{"bike_id":"c23d9e31-ca67-4d79-99f6-0387bf9b7e4d","system_id":"levelo_inurba_marseille","lat":43.30909,"lon":5.36841,"is_reserved":false,"is_disabled":false,"rental_uris":{"android":"levelo://app?vid=c23d9e31-ca67-4d79-99f6-0387bf9b7e4d","ios":"levelo://app?vid=c23d9e31-ca67-4d79-99f6-0387bf9b7e4d"},"vehicle_type_id":"4","last_reported":1734988094,"current_range_meters":30400,"station_id":"ce4bgn92rcd13ifvqbvg","pricing_plan_id":"cebpf4jnsgd1na2vs0mg"},{"bike_id":"340bdf85-b70a-4fec-860b-4323592295f8","system_id":"levelo_inurba_marseille","lat":43.29577,"lon":5.37506,"is_reserved":false,"is_disabled":false,"rental_uris":{"android":"levelo://app?vid=340bdf85-b70a-4fec-860b-4323592295f8","ios":"levelo://app?vid=340bdf85-b70a-4fec-860b-4323592295f8"},"vehicle_type_id":"4","last_reported":1734988094,"current_range_meters":22400,"station_id":"ce4bgh92rcd13ifvqb50","pricing_plan_id":"cebpf4jnsgd1na2vs0mg"},{"bike_id":"e1a1fefb-6ade-46e6-98d6-844f07ab9872","system_id":"levelo_inurba_marseille","lat":43.292714,"lon":5.368413,"is_reserved":false,"is_disabled":false,"rental_uris":{"android":"levelo://app?vid=e1a1fefb-6ade-46e6-98d6-844f07ab9872","ios":"levelo://app?vid=e1a1fefb-6ade-46e6-98d6-844f07ab9872"},"vehicle_type_id":"4","last_reported":1734988094,"current_range_meters":18800,"station_id":"ce4bhbp2rcd13ifvqesg","pricing_plan_id":"cebpf4jnsgd1na2vs0mg"},{"bike_id":"13293698-cb8c-499c-9e51-e1c478f322d8","system_id":"levelo_inurba_marseille","lat":43.27828,"lon":5.39206,"is_reserved":false,"is_disabled":false,"rental_uris":{"android":"levelo://app?vid=13293698-cb8c-499c-9e51-e1c478f322d8","ios":"levelo://app?vid=13293698-cb8c-499c-9e51-e1c478f322d8"},"vehicle_type_id":"4","last_reported":1734988094,"current_range_meters":38000,"station_id":"ce4bhjp2rcd13ifvqga0","pricing_plan_id":"cebpf4jnsgd1na2vs0mg"},{"bike_id":"07ce0959-f9bb-4002-a63d-601e2430ec70","system_id":"levelo_inurba_marseille","lat":43.29915,"lon":5.3747,"is_reserved":false,"is_disabled":false,"rental_uris":{"android":"levelo://app?vid=07ce0959-f9bb-4002-a63d-601e2430ec70","ios":"levelo://app?vid=07ce0959-f9bb-4002-a63d-601e2430ec70"},"vehicle_type_id":"4","last_reported":1734988094,"current_range_meters":30400,"station_id":"ce4bgjh2rcd13ifvqbg0","pricing_plan_id":"cebpf4jnsgd1na2vs0mg"},{"bike_id":"a9ff51bf-86fb-4147-924f-72786fa8d2ae","system_id":"levelo_inurba_marseille","lat":43.2782,"lon":5.40699,"is_reserved":false,"is_disabled":false,"rental_uris":{"android":"levelo://app?vid=a9ff51bf-86fb-4147-924f-72786fa8d2ae","ios":"levelo://app?vid=a9ff51bf-86fb-4147-924f-72786fa8d2ae"},"vehicle_type_id":"4","last_reported":1734988094,"current_range_meters":38800,"station_id":"ce4bhnh2rcd13ifvqgtg","pricing_plan_id":"cebpf4jnsgd1na2vs0mg"},{"bike_id":"e0d9e2a1-6ad6-4c0b-8816-76abf756d424","system_id":"levelo_inurba_marseille","lat":43.30465,"lon":5.37901,"is_reserved":false,"is_disabled":false,"rental_uris":{"android":"levelo://app?vid=e0d9e2a1-6ad6-4c0b-8816-76abf756d424","ios":"levelo://app?vid=e0d9e2a1-6ad6-4c0b-8816-76abf756d424"},"vehicle_type_id":"4","last_reported":1734988094,"current_range_meters":37600,"station_id":"ce4bgup2rcd13ifvqcn0","pricing_plan_id":"cebpf4jnsgd1na2vs0mg"},{"bike_id":"41d0d9f5-bb31-41f6-8358-898df39bf21c","system_id":"levelo_inurba_marseille","lat":43.2586,"lon":5.39894,"is_reserved":false,"is_disabled":false,"rental_uris":{"android":"levelo://app?vid=41d0d9f5-bb31-41f6-8358-898df39bf21c","ios":"levelo://app?vid=41d0d9f5-bb31-41f6-8358-898df39bf21c"},"vehicle_type_id":"4","last_reported":1734988094,"current_range_meters":38800,"station_id":"ce4bhl92rcd13ifvqghg","pricing_plan_id":"cebpf4jnsgd1na2vs0mg"},{"bike_id":"7e211114-fd49-4399-8a81-09d040af8d46","system_id":"levelo_inurba_marseille","lat":43.24797,"lon":5.37444,"is_reserved":false,"is_disabled":false,"rental_uris":{"android":"levelo://app?vid=7e211114-fd49-4399-8a81-09d040af8d46","ios":"levelo://app?vid=7e211114-fd49-4399-8a81-09d040af8d46"},"vehicle_type_id":"4","last_reported":1734988094,"current_range_meters":38800,"station_id":"ce4bhgh2rcd13ifvqfb0","pricing_plan_id":"cebpf4jnsgd1na2vs0mg"},{"bike_id":"8fd4ed25-e7b3-49be-b1e0-521234d05b10","system_id":"levelo_inurba_marseille","lat":43.3248,"lon":5.36565,"is_reserved":false,"is_disabled":false,"rental_uris":{"android":"levelo://app?vid=8fd4ed25-e7b3-49be-b1e0-521234d05b10","ios":"levelo://app?vid=8fd4ed25-e7b3-49be-b1e0-521234d05b10"},"vehicle_type_id":"4","last_reported":1734988094,"current_range_meters":27600,"station_id":"ce4bhs12rcd13ifvqhvg","pricing_plan_id":"cebpf4jnsgd1na2vs0mg"},{"bike_id":"eaa93ee8-361b-4bd6-bc3c-a3486958f70d","system_id":"levelo_inurba_marseille","lat":43.29791,"lon":5.37105,"is_reserved":false,"is_disabled":false,"rental_uris":{"android":"levelo://app?vid=eaa93ee8-361b-4bd6-bc3c-a3486958f70d","ios":"levelo://app?vid=eaa93ee8-361b-4bd6-bc3c-a3486958f70d"},"vehicle_type_id":"4","last_reported":1734988094,"current_range_meters":38800,"station_id":"ce4bgop2rcd13ifvqc1g","pricing_plan_id":"cebpf4jnsgd1na2vs0mg"},{"bike_id":"8f2eb269-eb31-4395-be06-01c9454a3ad2","system_id":"levelo_inurba_marseille","lat":43.31171,"lon":5.38714,"is_reserved":false,"is_disabled":false,"rental_uris":{"android":"levelo://app?vid=8f2eb269-eb31-4395-be06-01c9454a3ad2","ios":"levelo://app?vid=8f2eb269-eb31-4395-be06-01c9454a3ad2"},"vehicle_type_id":"4","last_reported":1734988094,"current_range_meters":38800,"station_id":"ce4bgv12rcd13ifvqcp0","pricing_plan_id":"cebpf4jnsgd1na2vs0mg"},{"bike_id":"e724f4e5-0922-4e36-91f4-8a4c9d514ff5","system_id":"levelo_inurba_marseille","lat":43.29861,"lon":5.3626,"is_reserved":false,"is_disabled":false,"rental_uris":{"android":"levelo://app?vid=e724f4e5-0922-4e36-91f4-8a4c9d514ff5","ios":"levelo://app?vid=e724f4e5-0922-4e36-91f4-8a4c9d514ff5"},"vehicle_type_id":"4","last_reported":1734988094,"current_range_meters":38000,"station_id":"ce4bgpp2rcd13ifvqc3g","pricing_plan_id":"cebpf4jnsgd1na2vs0mg"},{"bike_id":"6450116a-f36a-43fc-bc52-2de76e4deeb8","system_id":"levelo_inurba_marseille","lat":43.30779,"lon":5.37647,"is_reserved":false,"is_disabled":false,"rental_uris":{"android":"levelo://app?vid=6450116a-f36a-43fc-bc52-2de76e4deeb8","ios":"levelo://app?vid=6450116a-f36a-43fc-bc52-2de76e4deeb8"},"vehicle_type_id":"4","last_reported":1734988094,"current_range_meters":37600,"station_id":"ce4bgv92rcd13ifvqcq0","pricing_plan_id":"cebpf4jnsgd1na2vs0mg"},{"bike_id":"d98f0b8a-1ef4-43b4-85a1-12b00b5f4de1","system_id":"levelo_inurba_marseille","lat":43.28415,"lon":5.35,"is_reserved":false,"is_disabled":false,"rental_uris":{"android":"levelo://app?vid=d98f0b8a-1ef4-43b4-85a1-12b00b5f4de1","ios":"levelo://app?vid=d98f0b8a-1ef4-43b4-85a1-12b00b5f4de1"},"vehicle_type_id":"4","last_reported":1734988094,"current_range_meters":28800,"station_id":"ce4bhbh2rcd13ifvqepg","pricing_plan_id":"cebpf4jnsgd1na2vs0mg"},{"bike_id":"dd3dbacf-347a-4a33-90ce-76bd61257750","system_id":"levelo_inurba_marseille","lat":43.32058,"lon":5.41537,"is_reserved":false,"is_disabled":true,"rental_uris":{"android":"levelo://app?vid=dd3dbacf-347a-4a33-90ce-76bd61257750","ios":"levelo://app?vid=dd3dbacf-347a-4a33-90ce-76bd61257750"},"vehicle_type_id":"4","last_reported":1734988094,"current_range_meters":38800,"station_id":"ce4bhq92rcd13ifvqhkg","pricing_plan_id":"cebpf4jnsgd1na2vs0mg"},{"bike_id":"fa7b6f51-07ff-4e1f-ba75-2880fb9ee1b2","system_id":"levelo_inurba_marseille","lat":43.24158,"lon":5.36409,"is_reserved":false,"is_disabled":false,"rental_uris":{"android":"levelo://app?vid=fa7b6f51-07ff-4e1f-ba75-2880fb9ee1b2","ios":"levelo://app?vid=fa7b6f51-07ff-4e1f-ba75-2880fb9ee1b2"},"vehicle_type_id":"4","last_reported":1734988094,"current_range_meters":38800,"station_id":"cpo36qri1sfpv3e86is0","pricing_plan_id":"cebpf4jnsgd1na2vs0mg"},{"bike_id":"71bbaaf0-30fa-412b-9088-f880a672af88","system_id":"levelo_inurba_marseille","lat":43.26025,"lon":5.37555,"is_reserved":false,"is_disabled":false,"rental_uris":{"android":"levelo://app?vid=71bbaaf0-30fa-412b-9088-f880a672af88","ios":"levelo://app?vid=71bbaaf0-30fa-412b-9088-f880a672af88"},"vehicle_type_id":"4","last_reported":1734988094,"current_range_meters":30400,"station_id":"ce4bhgh2rcd13ifvqfa0","pricing_plan_id":"cebpf4jnsgd1na2vs0mg"},{"bike_id":"b2f86a97-af08-41b2-8296-7e91d5858232","system_id":"levelo_inurba_marseille","lat":43.29007,"lon":5.35607,"is_reserved":false,"is_disabled":false,"rental_uris":{"android":"levelo://app?vid=b2f86a97-af08-41b2-8296-7e91d5858232","ios":"levelo://app?vid=b2f86a97-af08-41b2-8296-7e91d5858232"},"vehicle_type_id":"4","last_reported":1734988094,"current_range_meters":39200,"station_id":"ce4bhb92rcd13ifvqen0","pricing_plan_id":"cebpf4jnsgd1na2vs0mg"},{"bike_id":"a77224ad-3924-4a82-96f0-bfffbd9386b2","system_id":"levelo_inurba_marseille","lat":43.30589,"lon":5.37228,"is_reserved":false,"is_disabled":false,"rental_uris":{"android":"levelo://app?vid=a77224ad-3924-4a82-96f0-bfffbd9386b2","ios":"levelo://app?vid=a77224ad-3924-4a82-96f0-bfffbd9386b2"},"vehicle_type_id":"4","last_reported":1734988094,"current_range_meters":38800,"station_id":"ce4bgqh2rcd13ifvqc4g","pricing_plan_id":"cebpf4jnsgd1na2vs0mg"},{"bike_id":"980185bd-062a-4071-8686-3ad854900388","system_id":"levelo_inurba_marseille","lat":43.23185,"lon":5.39993,"is_reserved":false,"is_disabled":false,"rental_uris":{"android":"levelo://app?vid=980185bd-062a-4071-8686-3ad854900388","ios":"levelo://app?vid=980185bd-062a-4071-8686-3ad854900388"},"vehicle_type_id":"4","last_reported":1734988094,"current_range_meters":38000,"station_id":"ce4bhn12rcd13ifvqgqg","pricing_plan_id":"cebpf4jnsgd1na2vs0mg"},{"bike_id":"66564dc6-57ac-4647-881f-dfefbac5d8f4","system_id":"levelo_inurba_marseille","lat":43.28723,"lon":5.36092,"is_reserved":false,"is_disabled":false,"rental_uris":{"android":"levelo://app?vid=66564dc6-57ac-4647-881f-dfefbac5d8f4","ios":"levelo://app?vid=66564dc6-57ac-4647-881f-dfefbac5d8f4"},"vehicle_type_id":"4","last_reported":1734988094,"current_range_meters":35600,"station_id":"cki0cbj6b192h4jlfktg","pricing_plan_id":"cebpf4jnsgd1na2vs0mg"},{"bike_id":"acdc711f-0743-46ed-bcd0-b221ef49b1e8","system_id":"levelo_inurba_marseille","lat":43.26062,"lon":5.37543,"is_reserved":false,"is_disabled":false,"rental_uris":{"android":"levelo://app?vid=acdc711f-0743-46ed-bcd0-b221ef49b1e8","ios":"levelo://app?vid=acdc711f-0743-46ed-bcd0-b221ef49b1e8"},"vehicle_type_id":"4","last_reported":1734988094,"current_range_meters":39200,"station_id":"ce4bhgh2rcd13ifvqfa0","pricing_plan_id":"cebpf4jnsgd1na2vs0mg"},{"bike_id":"7cf473d8-21ed-437d-8fd8-af7d1a257998","system_id":"levelo_inurba_marseille","lat":43.30136,"lon":5.39874,"is_reserved":false,"is_disabled":false,"rental_uris":{"android":"levelo://app?vid=7cf473d8-21ed-437d-8fd8-af7d1a257998","ios":"levelo://app?vid=7cf473d8-21ed-437d-8fd8-af7d1a257998"},"vehicle_type_id":"4","last_reported":1734988094,"current_range_meters":38000,"station_id":"ce4bh0h2rcd13ifvqd40","pricing_plan_id":"cebpf4jnsgd1na2vs0mg"},{"bike_id":"f68d00f0-3148-454c-ba66-1d06594aedb3","system_id":"levelo_inurba_marseille","lat":43.299,"lon":5.38145,"is_reserved":false,"is_disabled":false,"rental_uris":{"android":"levelo://app?vid=f68d00f0-3148-454c-ba66-1d06594aedb3","ios":"levelo://app?vid=f68d00f0-3148-454c-ba66-1d06594aedb3"},"vehicle_type_id":"4","last_reported":1734988094,"current_range_meters":37600,"station_id":"ce4bgj12rcd13ifvqbc0","pricing_plan_id":"cebpf4jnsgd1na2vs0mg"},{"bike_id":"a87760bb-860a-41ff-af6f-797f55d9f68d","system_id":"levelo_inurba_marseille","lat":43.29789,"lon":5.39357,"is_reserved":false,"is_disabled":false,"rental_uris":{"android":"levelo://app?vid=a87760bb-860a-41ff-af6f-797f55d9f68d","ios":"levelo://app?vid=a87760bb-860a-41ff-af6f-797f55d9f68d"},"vehicle_type_id":"4","last_reported":1734988094,"current_range_meters":36000,"station_id":"chh1huq6cuj3fo74tm60","pricing_plan_id":"cebpf4jnsgd1na2vs0mg"},{"bike_id":"87ce7478-7bd4-452f-a986-b0c49c296f35","system_id":"levelo_inurba_marseille","lat":43.24649,"lon":5.38891,"is_reserved":false,"is_disabled":false,"rental_uris":{"android":"levelo://app?vid=87ce7478-7bd4-452f-a986-b0c49c296f35","ios":"levelo://app?vid=87ce7478-7bd4-452f-a986-b0c49c296f35"},"vehicle_type_id":"4","last_reported":1734988094,"current_range_meters":35600,"station_id":"ce4bhg12rcd13ifvqf60","pricing_plan_id":"cebpf4jnsgd1na2vs0mg"},{"bike_id":"370a5638-7ba2-4fb7-a94d-eb38ce88ddf9","system_id":"levelo_inurba_marseille","lat":43.31356,"lon":5.36716,"is_reserved":false,"is_disabled":false,"rental_uris":{"android":"levelo://app?vid=370a5638-7ba2-4fb7-a94d-eb38ce88ddf9","ios":"levelo://app?vid=370a5638-7ba2-4fb7-a94d-eb38ce88ddf9"},"vehicle_type_id":"4","last_reported":1734988094,"current_range_meters":38800,"station_id":"ce4bgr92rcd13ifvqc6g","pricing_plan_id":"cebpf4jnsgd1na2vs0mg"},{"bike_id":"1bff88cc-7e80-4f66-93cd-eccfe100465b","system_id":"levelo_inurba_marseille","lat":43.30548,"lon":5.36521,"is_reserved":false,"is_disabled":false,"rental_uris":{"android":"levelo://app?vid=1bff88cc-7e80-4f66-93cd-eccfe100465b","ios":"levelo://app?vid=1bff88cc-7e80-4f66-93cd-eccfe100465b"},"vehicle_type_id":"4","last_reported":1734988094,"current_range_meters":35600,"station_id":"ce4bgs12rcd13ifvqcag","pricing_plan_id":"cebpf4jnsgd1na2vs0mg"},{"bike_id":"fa27ee24-baf1-4edf-912c-c35c66d5d9f9","system_id":"levelo_inurba_marseille","lat":43.30536,"lon":5.36543,"is_reserved":false,"is_disabled":false,"rental_uris":{"android":"levelo://app?vid=fa27ee24-baf1-4edf-912c-c35c66d5d9f9","ios":"levelo://app?vid=fa27ee24-baf1-4edf-912c-c35c66d5d9f9"},"vehicle_type_id":"4","last_reported":1734988094,"current_range_meters":38800,"station_id":"ce4bgs12rcd13ifvqcag","pricing_plan_id":"cebpf4jnsgd1na2vs0mg"},{"bike_id":"eb493c73-faad-4c01-b4aa-27ac99a1af59","system_id":"levelo_inurba_marseille","lat":43.29646,"lon":5.37175,"is_reserved":false,"is_disabled":false,"rental_uris":{"android":"levelo://app?vid=eb493c73-faad-4c01-b4aa-27ac99a1af59","ios":"levelo://app?vid=eb493c73-faad-4c01-b4aa-27ac99a1af59"},"vehicle_type_id":"4","last_reported":1734988094,"current_range_meters":38400,"station_id":"ce4bgnh2rcd13ifvqc0g","pricing_plan_id":"cebpf4jnsgd1na2vs0mg"},{"bike_id":"cdfd034a-3e02-40a2-9d10-a134561ec453","system_id":"levelo_inurba_marseille","lat":43.29626,"lon":5.37178,"is_reserved":false,"is_disabled":false,"rental_uris":{"android":"levelo://app?vid=cdfd034a-3e02-40a2-9d10-a134561ec453","ios":"levelo://app?vid=cdfd034a-3e02-40a2-9d10-a134561ec453"},"vehicle_type_id":"4","last_reported":1734988094,"current_range_meters":24000,"station_id":"ce4bgnh2rcd13ifvqc0g","pricing_plan_id":"cebpf4jnsgd1na2vs0mg"},{"bike_id":"2e6b6039-feca-41e2-bdae-6f6fa5562f75","system_id":"levelo_inurba_marseille","lat":43.30646,"lon":5.401,"is_reserved":false,"is_disabled":false,"rental_uris":{"android":"levelo://app?vid=2e6b6039-feca-41e2-bdae-6f6fa5562f75","ios":"levelo://app?vid=2e6b6039-feca-41e2-bdae-6f6fa5562f75"},"vehicle_type_id":"4","last_reported":1734988094,"current_range_meters":28400,"station_id":"ce4bh112rcd13ifvqda0","pricing_plan_id":"cebpf4jnsgd1na2vs0mg"},{"bike_id":"875b2f8e-fb5f-468a-8ac6-218f77a44f01","system_id":"levelo_inurba_marseille","lat":43.31916,"lon":5.40751,"is_reserved":false,"is_disabled":false,"rental_uris":{"android":"levelo://app?vid=875b2f8e-fb5f-468a-8ac6-218f77a44f01","ios":"levelo://app?vid=875b2f8e-fb5f-468a-8ac6-218f77a44f01"},"vehicle_type_id":"4","last_reported":1734988094,"current_range_meters":39200,"station_id":"ce4bhq12rcd13ifvqhig","pricing_plan_id":"cebpf4jnsgd1na2vs0mg"},{"bike_id":"2633e9ba-ac8f-41eb-8615-a08e37b3083a","system_id":"levelo_inurba_marseille","lat":43.271909,"lon":5.409965,"is_reserved":false,"is_disabled":false,"rental_uris":{"android":"levelo://app?vid=2633e9ba-ac8f-41eb-8615-a08e37b3083a","ios":"levelo://app?vid=2633e9ba-ac8f-41eb-8615-a08e37b3083a"},"vehicle_type_id":"4","last_reported":1734988094,"current_range_meters":30800,"station_id":"ce4bhl12rcd13ifvqgf0","pricing_plan_id":"cebpf4jnsgd1na2vs0mg"},{"bike_id":"3c4e0256-f269-4ddf-b844-1164990fa822","system_id":"levelo_inurba_marseille","lat":43.25824,"lon":5.39424,"is_reserved":false,"is_disabled":false,"rental_uris":{"android":"levelo://app?vid=3c4e0256-f269-4ddf-b844-1164990fa822","ios":"levelo://app?vid=3c4e0256-f269-4ddf-b844-1164990fa822"},"vehicle_type_id":"4","last_reported":1734988094,"current_range_meters":39200,"station_id":"ce4bhip2rcd13ifvqft0","pricing_plan_id":"cebpf4jnsgd1na2vs0mg"},{"bike_id":"af1cd6cf-2562-434f-aa74-4bd775d99ddb","system_id":"levelo_inurba_marseille","lat":43.31076,"lon":5.38348,"is_reserved":false,"is_disabled":true,"rental_uris":{"android":"levelo://app?vid=af1cd6cf-2562-434f-aa74-4bd775d99ddb","ios":"levelo://app?vid=af1cd6cf-2562-434f-aa74-4bd775d99ddb"},"vehicle_type_id":"4","last_reported":1734988094,"current_range_meters":36000,"station_id":"ce4bgv92rcd13ifvqcr0","pricing_plan_id":"cebpf4jnsgd1na2vs0mg"},{"bike_id":"e73e6057-e6e9-407b-a17e-f4e119a96aba","system_id":"levelo_inurba_marseille","lat":43.32109,"lon":5.36783,"is_reserved":false,"is_disabled":false,"rental_uris":{"android":"levelo://app?vid=e73e6057-e6e9-407b-a17e-f4e119a96aba","ios":"levelo://app?vid=e73e6057-e6e9-407b-a17e-f4e119a96aba"},"vehicle_type_id":"4","last_reported":1734988094,"current_range_meters":38800,"station_id":"ce4bhrh2rcd13ifvqhug","pricing_plan_id":"cebpf4jnsgd1na2vs0mg"},{"bike_id":"8c23ca40-0769-4ca8-b1f0-68e8fb86c54b","system_id":"levelo_inurba_marseille","lat":43.25001,"lon":5.38922,"is_reserved":false,"is_disabled":false,"rental_uris":{"android":"levelo://app?vid=8c23ca40-0769-4ca8-b1f0-68e8fb86c54b","ios":"levelo://app?vid=8c23ca40-0769-4ca8-b1f0-68e8fb86c54b"},"vehicle_type_id":"4","last_reported":1734988094,"current_range_meters":37600,"station_id":"ce4bhgp2rcd13ifvqfd0","pricing_plan_id":"cebpf4jnsgd1na2vs0mg"},{"bike_id":"ff19ce84-10b6-4ffc-b9fc-1625914b166c","system_id":"levelo_inurba_marseille","lat":43.29715,"lon":5.3662,"is_reserved":false,"is_disabled":false,"rental_uris":{"android":"levelo://app?vid=ff19ce84-10b6-4ffc-b9fc-1625914b166c","ios":"levelo://app?vid=ff19ce84-10b6-4ffc-b9fc-1625914b166c"},"vehicle_type_id":"4","last_reported":1734988094,"current_range_meters":27600,"station_id":"ce4bgn12rcd13ifvqbt0","pricing_plan_id":"cebpf4jnsgd1na2vs0mg"},{"bike_id":"30dc2708-06a7-4c52-b828-80ac77ed829d","system_id":"levelo_inurba_marseille","lat":43.28848,"lon":5.35852,"is_reserved":false,"is_disabled":false,"rental_uris":{"android":"levelo://app?vid=30dc2708-06a7-4c52-b828-80ac77ed829d","ios":"levelo://app?vid=30dc2708-06a7-4c52-b828-80ac77ed829d"},"vehicle_type_id":"4","last_reported":1734988094,"current_range_meters":26000,"station_id":"ce4bhb12rcd13ifvqem0","pricing_plan_id":"cebpf4jnsgd1na2vs0mg"},{"bike_id":"9b6c26bf-24e1-432d-ac01-5d22d9d9f1b3","system_id":"levelo_inurba_marseille","lat":43.29986,"lon":5.37183,"is_reserved":false,"is_disabled":false,"rental_uris":{"android":"levelo://app?vid=9b6c26bf-24e1-432d-ac01-5d22d9d9f1b3","ios":"levelo://app?vid=9b6c26bf-24e1-432d-ac01-5d22d9d9f1b3"},"vehicle_type_id":"4","last_reported":1734988094,"current_range_meters":10800,"station_id":"ce4bgr92rcd13ifvqc7g","pricing_plan_id":"cebpf4jnsgd1na2vs0mg"},{"bike_id":"2ecd7a5c-6b03-4906-a193-c1bc16b7668c","system_id":"levelo_inurba_marseille","lat":43.30239,"lon":5.40052,"is_reserved":false,"is_disabled":true,"rental_uris":{"android":"levelo://app?vid=2ecd7a5c-6b03-4906-a193-c1bc16b7668c","ios":"levelo://app?vid=2ecd7a5c-6b03-4906-a193-c1bc16b7668c"},"vehicle_type_id":"4","last_reported":1734988094,"current_range_meters":31200,"station_id":"ce4bgvh2rcd13ifvqcs0","pricing_plan_id":"cebpf4jnsgd1na2vs0mg"},{"bike_id":"4bcb37c0-9249-499d-890c-0bbf93d29f8b","system_id":"levelo_inurba_marseille","lat":43.2319,"lon":5.35549,"is_reserved":false,"is_disabled":true,"rental_uris":{"android":"levelo://app?vid=4bcb37c0-9249-499d-890c-0bbf93d29f8b","ios":"levelo://app?vid=4bcb37c0-9249-499d-890c-0bbf93d29f8b"},"vehicle_type_id":"4","last_reported":1734988094,"current_range_meters":20000,"station_id":"ce4bhu92rcd13ifvqi70","pricing_plan_id":"cebpf4jnsgd1na2vs0mg"},{"bike_id":"189fde3f-1b8d-450e-81f4-06d723afc17c","system_id":"levelo_inurba_marseille","lat":43.28437,"lon":5.39186,"is_reserved":false,"is_disabled":false,"rental_uris":{"android":"levelo://app?vid=189fde3f-1b8d-450e-81f4-06d723afc17c","ios":"levelo://app?vid=189fde3f-1b8d-450e-81f4-06d723afc17c"},"vehicle_type_id":"4","last_reported":1734988094,"current_range_meters":12000,"station_id":"ce4bhoh2rcd13ifvqh5g","pricing_plan_id":"cebpf4jnsgd1na2vs0mg"},{"bike_id":"7c29b004-f06b-4fd4-9237-38913c6b1ebf","system_id":"levelo_inurba_marseille","lat":43.30147,"lon":5.38083,"is_reserved":false,"is_disabled":false,"rental_uris":{"android":"levelo://app?vid=7c29b004-f06b-4fd4-9237-38913c6b1ebf","ios":"levelo://app?vid=7c29b004-f06b-4fd4-9237-38913c6b1ebf"},"vehicle_type_id":"4","last_reported":1734988094,"current_range_meters":36400,"station_id":"ce4bgjp2rcd13ifvqbh0","pricing_plan_id":"cebpf4jnsgd1na2vs0mg"},{"bike_id":"4d70a3bf-a8e9-4395-92a9-3e1f7045a4b1","system_id":"levelo_inurba_marseille","lat":43.32046,"lon":5.41565,"is_reserved":false,"is_disabled":false,"rental_uris":{"android":"levelo://app?vid=4d70a3bf-a8e9-4395-92a9-3e1f7045a4b1","ios":"levelo://app?vid=4d70a3bf-a8e9-4395-92a9-3e1f7045a4b1"},"vehicle_type_id":"4","last_reported":1734988094,"current_range_meters":37600,"station_id":"ce4bhq92rcd13ifvqhkg","pricing_plan_id":"cebpf4jnsgd1na2vs0mg"},{"bike_id":"11eb5fb6-7917-45e5-9bf4-86173bd74b69","system_id":"levelo_inurba_marseille","lat":43.31363,"lon":5.38499,"is_reserved":false,"is_disabled":false,"rental_uris":{"android":"levelo://app?vid=11eb5fb6-7917-45e5-9bf4-86173bd74b69","ios":"levelo://app?vid=11eb5fb6-7917-45e5-9bf4-86173bd74b69"},"vehicle_type_id":"4","last_reported":1734988094,"current_range_meters":25600,"station_id":"ce4bgt92rcd13ifvqcf0","pricing_plan_id":"cebpf4jnsgd1na2vs0mg"},{"bike_id":"4c569ee4-45a5-4a73-a8ca-a9310a002da4","system_id":"levelo_inurba_marseille","lat":43.28368,"lon":5.38642,"is_reserved":false,"is_disabled":false,"rental_uris":{"android":"levelo://app?vid=4c569ee4-45a5-4a73-a8ca-a9310a002da4","ios":"levelo://app?vid=4c569ee4-45a5-4a73-a8ca-a9310a002da4"},"vehicle_type_id":"4","last_reported":1734988094,"current_range_meters":9600,"station_id":"ce4bh492rcd13ifvqdvg","pricing_plan_id":"cebpf4jnsgd1na2vs0mg"},{"bike_id":"fcb43cd2-aa2d-4084-9416-a240ac4d95bf","system_id":"levelo_inurba_marseille","lat":43.29276,"lon":5.40125,"is_reserved":false,"is_disabled":false,"rental_uris":{"android":"levelo://app?vid=fcb43cd2-aa2d-4084-9416-a240ac4d95bf","ios":"levelo://app?vid=fcb43cd2-aa2d-4084-9416-a240ac4d95bf"},"vehicle_type_id":"4","last_reported":1734988094,"current_range_meters":26000,"station_id":"ce4bh312rcd13ifvqdk0","pricing_plan_id":"cebpf4jnsgd1na2vs0mg"},{"bike_id":"a4f2a1ba-4c33-4d0d-8c83-eb221d73f773","system_id":"levelo_inurba_marseille","lat":43.2961,"lon":5.37724,"is_reserved":false,"is_disabled":false,"rental_uris":{"android":"levelo://app?vid=a4f2a1ba-4c33-4d0d-8c83-eb221d73f773","ios":"levelo://app?vid=a4f2a1ba-4c33-4d0d-8c83-eb221d73f773"},"vehicle_type_id":"4","last_reported":1734988094,"current_range_meters":37600,"station_id":"ce4bgi92rcd13ifvqb90","pricing_plan_id":"cebpf4jnsgd1na2vs0mg"},{"bike_id":"343bc065-3555-49ac-90b9-9f9335d87211","system_id":"levelo_inurba_marseille","lat":43.25822,"lon":5.39443,"is_reserved":false,"is_disabled":false,"rental_uris":{"android":"levelo://app?vid=343bc065-3555-49ac-90b9-9f9335d87211","ios":"levelo://app?vid=343bc065-3555-49ac-90b9-9f9335d87211"},"vehicle_type_id":"4","last_reported":1734988094,"current_range_meters":38800,"station_id":"ce4bhip2rcd13ifvqft0","pricing_plan_id":"cebpf4jnsgd1na2vs0mg"},{"bike_id":"64c87dc3-dd94-45ca-adb1-efb6545cec91","system_id":"levelo_inurba_marseille","lat":43.29201,"lon":5.39326,"is_reserved":false,"is_disabled":false,"rental_uris":{"android":"levelo://app?vid=64c87dc3-dd94-45ca-adb1-efb6545cec91","ios":"levelo://app?vid=64c87dc3-dd94-45ca-adb1-efb6545cec91"},"vehicle_type_id":"4","last_reported":1734988094,"current_range_meters":34000,"station_id":"ce4bh192rcd13ifvqdd0","pricing_plan_id":"cebpf4jnsgd1na2vs0mg"},{"bike_id":"ddbfce67-cbf8-4481-9917-3eaa981e7b2e","system_id":"levelo_inurba_marseille","lat":43.22935,"lon":5.35377,"is_reserved":false,"is_disabled":false,"rental_uris":{"android":"levelo://app?vid=ddbfce67-cbf8-4481-9917-3eaa981e7b2e","ios":"levelo://app?vid=ddbfce67-cbf8-4481-9917-3eaa981e7b2e"},"vehicle_type_id":"4","last_reported":1734988094,"current_range_meters":27200,"station_id":"cpo3532slgdg3j2ikp40","pricing_plan_id":"cebpf4jnsgd1na2vs0mg"},{"bike_id":"9acdbe5f-c369-45f2-a05a-bce0bc9126c2","system_id":"levelo_inurba_marseille","lat":43.2998,"lon":5.38484,"is_reserved":false,"is_disabled":false,"rental_uris":{"android":"levelo://app?vid=9acdbe5f-c369-45f2-a05a-bce0bc9126c2","ios":"levelo://app?vid=9acdbe5f-c369-45f2-a05a-bce0bc9126c2"},"vehicle_type_id":"4","last_reported":1734988094,"current_range_meters":17600,"station_id":"ce4bgj92rcd13ifvqbd0","pricing_plan_id":"cebpf4jnsgd1na2vs0mg"},{"bike_id":"d40f1e6c-dd7d-4a6b-9613-7314f471a7fe","system_id":"levelo_inurba_marseille","lat":43.30157,"lon":5.38085,"is_reserved":false,"is_disabled":false,"rental_uris":{"android":"levelo://app?vid=d40f1e6c-dd7d-4a6b-9613-7314f471a7fe","ios":"levelo://app?vid=d40f1e6c-dd7d-4a6b-9613-7314f471a7fe"},"vehicle_type_id":"4","last_reported":1734988094,"current_range_meters":32400,"station_id":"ce4bgjp2rcd13ifvqbh0","pricing_plan_id":"cebpf4jnsgd1na2vs0mg"},{"bike_id":"dad6db58-f5bc-4da2-b0b4-3d5d1002166b","system_id":"levelo_inurba_marseille","lat":43.32113,"lon":5.36771,"is_reserved":false,"is_disabled":false,"rental_uris":{"android":"levelo://app?vid=dad6db58-f5bc-4da2-b0b4-3d5d1002166b","ios":"levelo://app?vid=dad6db58-f5bc-4da2-b0b4-3d5d1002166b"},"vehicle_type_id":"4","last_reported":1734988094,"current_range_meters":35600,"station_id":"ce4bhrh2rcd13ifvqhug","pricing_plan_id":"cebpf4jnsgd1na2vs0mg"},{"bike_id":"d215e6a3-2dbb-4240-82c4-dbdd5ce5595f","system_id":"levelo_inurba_marseille","lat":43.299,"lon":5.38149,"is_reserved":false,"is_disabled":false,"rental_uris":{"android":"levelo://app?vid=d215e6a3-2dbb-4240-82c4-dbdd5ce5595f","ios":"levelo://app?vid=d215e6a3-2dbb-4240-82c4-dbdd5ce5595f"},"vehicle_type_id":"4","last_reported":1734988094,"current_range_meters":39200,"station_id":"ce4bgj12rcd13ifvqbc0","pricing_plan_id":"cebpf4jnsgd1na2vs0mg"},{"bike_id":"8012b3cc-4bd4-4932-86ba-5ae2367b6708","system_id":"levelo_inurba_marseille","lat":43.28574,"lon":5.39492,"is_reserved":false,"is_disabled":false,"rental_uris":{"android":"levelo://app?vid=8012b3cc-4bd4-4932-86ba-5ae2367b6708","ios":"levelo://app?vid=8012b3cc-4bd4-4932-86ba-5ae2367b6708"},"vehicle_type_id":"4","last_reported":1734988094,"current_range_meters":8000,"station_id":"ce4bh292rcd13ifvqdg0","pricing_plan_id":"cebpf4jnsgd1na2vs0mg"},{"bike_id":"32aec4c2-c981-45c7-9d24-bd95a20b96a1","system_id":"levelo_inurba_marseille","lat":43.29254,"lon":5.40906,"is_reserved":false,"is_disabled":false,"rental_uris":{"android":"levelo://app?vid=32aec4c2-c981-45c7-9d24-bd95a20b96a1","ios":"levelo://app?vid=32aec4c2-c981-45c7-9d24-bd95a20b96a1"},"vehicle_type_id":"4","last_reported":1734988094,"current_range_meters":38800,"station_id":"ce4bh192rcd13ifvqdc0","pricing_plan_id":"cebpf4jnsgd1na2vs0mg"},{"bike_id":"c08eade0-57f7-4ee0-8e50-3e2a31c47a42","system_id":"levelo_inurba_marseille","lat":43.29531,"lon":5.39028,"is_reserved":false,"is_disabled":false,"rental_uris":{"android":"levelo://app?vid=c08eade0-57f7-4ee0-8e50-3e2a31c47a42","ios":"levelo://app?vid=c08eade0-57f7-4ee0-8e50-3e2a31c47a42"},"vehicle_type_id":"4","last_reported":1734988094,"current_range_meters":38800,"station_id":"ce4bh3p2rcd13ifvqdp0","pricing_plan_id":"cebpf4jnsgd1na2vs0mg"},{"bike_id":"eca594cc-7507-4ca1-bb28-4c48aaa1a04a","system_id":"levelo_inurba_marseille","lat":43.31711,"lon":5.43703,"is_reserved":false,"is_disabled":false,"rental_uris":{"android":"levelo://app?vid=eca594cc-7507-4ca1-bb28-4c48aaa1a04a","ios":"levelo://app?vid=eca594cc-7507-4ca1-bb28-4c48aaa1a04a"},"vehicle_type_id":"4","last_reported":1734988094,"current_range_meters":37600,"station_id":"ce4bhp92rcd13ifvqhcg","pricing_plan_id":"cebpf4jnsgd1na2vs0mg"},{"bike_id":"2cc77ffc-36c4-48e0-9572-ee73f817d163","system_id":"levelo_inurba_marseille","lat":43.28933,"lon":5.39618,"is_reserved":false,"is_disabled":false,"rental_uris":{"android":"levelo://app?vid=2cc77ffc-36c4-48e0-9572-ee73f817d163","ios":"levelo://app?vid=2cc77ffc-36c4-48e0-9572-ee73f817d163"},"vehicle_type_id":"4","last_reported":1734988094,"current_range_meters":36400,"station_id":"ce4bh3h2rcd13ifvqdn0","pricing_plan_id":"cebpf4jnsgd1na2vs0mg"},{"bike_id":"a2b682e2-83ef-4b16-9d16-65839c162e95","system_id":"levelo_inurba_marseille","lat":43.30596,"lon":5.37225,"is_reserved":false,"is_disabled":false,"rental_uris":{"android":"levelo://app?vid=a2b682e2-83ef-4b16-9d16-65839c162e95","ios":"levelo://app?vid=a2b682e2-83ef-4b16-9d16-65839c162e95"},"vehicle_type_id":"4","last_reported":1734988094,"current_range_meters":38800,"station_id":"ce4bgqh2rcd13ifvqc4g","pricing_plan_id":"cebpf4jnsgd1na2vs0mg"},{"bike_id":"cf12c232-c3a3-4785-8fed-9cea9aa4f082","system_id":"levelo_inurba_marseille","lat":43.27679,"lon":5.38929,"is_reserved":false,"is_disabled":false,"rental_uris":{"android":"levelo://app?vid=cf12c232-c3a3-4785-8fed-9cea9aa4f082","ios":"levelo://app?vid=cf12c232-c3a3-4785-8fed-9cea9aa4f082"},"vehicle_type_id":"4","last_reported":1734988094,"current_range_meters":16000,"station_id":"ce4bhi12rcd13ifvqfo0","pricing_plan_id":"cebpf4jnsgd1na2vs0mg"},{"bike_id":"7d51f556-7ada-4233-9b93-03f8f492aa76","system_id":"levelo_inurba_marseille","lat":43.24551,"lon":5.39529,"is_reserved":false,"is_disabled":true,"rental_uris":{"android":"levelo://app?vid=7d51f556-7ada-4233-9b93-03f8f492aa76","ios":"levelo://app?vid=7d51f556-7ada-4233-9b93-03f8f492aa76"},"vehicle_type_id":"4","last_reported":1734988094,"current_range_meters":11200,"station_id":"ce4bhlp2rcd13ifvqgjg","pricing_plan_id":"cebpf4jnsgd1na2vs0mg"},{"bike_id":"8b3a78bd-cf3f-4762-94a0-beffb610263d","system_id":"levelo_inurba_marseille","lat":43.310745,"lon":5.38354,"is_reserved":false,"is_disabled":false,"rental_uris":{"android":"levelo://app?vid=8b3a78bd-cf3f-4762-94a0-beffb610263d","ios":"levelo://app?vid=8b3a78bd-cf3f-4762-94a0-beffb610263d"},"vehicle_type_id":"4","last_reported":1734988094,"current_range_meters":38800,"station_id":"ce4bgv92rcd13ifvqcr0","pricing_plan_id":"cebpf4jnsgd1na2vs0mg"},{"bike_id":"50ed8d09-e307-4804-8048-b331687ea0e6","system_id":"levelo_inurba_marseille","lat":43.246628,"lon":5.381652,"is_reserved":false,"is_disabled":false,"rental_uris":{"android":"levelo://app?vid=50ed8d09-e307-4804-8048-b331687ea0e6","ios":"levelo://app?vid=50ed8d09-e307-4804-8048-b331687ea0e6"},"vehicle_type_id":"4","last_reported":1734988094,"current_range_meters":38800,"station_id":"ce4bhih2rcd13ifvqfr0","pricing_plan_id":"cebpf4jnsgd1na2vs0mg"},{"bike_id":"2fc5bb46-54f4-4773-b48f-90ed6ba2cec9","system_id":"levelo_inurba_marseille","lat":43.30141,"lon":5.39872,"is_reserved":false,"is_disabled":false,"rental_uris":{"android":"levelo://app?vid=2fc5bb46-54f4-4773-b48f-90ed6ba2cec9","ios":"levelo://app?vid=2fc5bb46-54f4-4773-b48f-90ed6ba2cec9"},"vehicle_type_id":"4","last_reported":1734988094,"current_range_meters":38000,"station_id":"ce4bh0h2rcd13ifvqd40","pricing_plan_id":"cebpf4jnsgd1na2vs0mg"},{"bike_id":"213bc904-ac7f-4cc9-bb02-fc34c779e745","system_id":"levelo_inurba_marseille","lat":43.27951,"lon":5.41044,"is_reserved":false,"is_disabled":false,"rental_uris":{"android":"levelo://app?vid=213bc904-ac7f-4cc9-bb02-fc34c779e745","ios":"levelo://app?vid=213bc904-ac7f-4cc9-bb02-fc34c779e745"},"vehicle_type_id":"4","last_reported":1734988094,"current_range_meters":32800,"station_id":"ce4bhnp2rcd13ifvqh0g","pricing_plan_id":"cebpf4jnsgd1na2vs0mg"},{"bike_id":"c2b13e1f-27c5-4ff9-b780-21ce47c387ee","system_id":"levelo_inurba_marseille","lat":43.23196,"lon":5.39989,"is_reserved":false,"is_disabled":false,"rental_uris":{"android":"levelo://app?vid=c2b13e1f-27c5-4ff9-b780-21ce47c387ee","ios":"levelo://app?vid=c2b13e1f-27c5-4ff9-b780-21ce47c387ee"},"vehicle_type_id":"4","last_reported":1734988094,"current_range_meters":38800,"station_id":"ce4bhn12rcd13ifvqgqg","pricing_plan_id":"cebpf4jnsgd1na2vs0mg"},{"bike_id":"652f906c-5e25-4f51-a03b-6af6fb0d93fa","system_id":"levelo_inurba_marseille","lat":43.29585,"lon":5.36735,"is_reserved":false,"is_disabled":false,"rental_uris":{"android":"levelo://app?vid=652f906c-5e25-4f51-a03b-6af6fb0d93fa","ios":"levelo://app?vid=652f906c-5e25-4f51-a03b-6af6fb0d93fa"},"vehicle_type_id":"4","last_reported":1734988094,"current_range_meters":38000,"station_id":"ce4bgph2rcd13ifvqc2g","pricing_plan_id":"cebpf4jnsgd1na2vs0mg"},{"bike_id":"4c4857d7-70f5-4e5f-9880-b0ffae53456c","system_id":"levelo_inurba_marseille","lat":43.31234,"lon":5.36894,"is_reserved":false,"is_disabled":false,"rental_uris":{"android":"levelo://app?vid=4c4857d7-70f5-4e5f-9880-b0ffae53456c","ios":"levelo://app?vid=4c4857d7-70f5-4e5f-9880-b0ffae53456c"},"vehicle_type_id":"4","last_reported":1734988094,"current_range_meters":28800,"station_id":"ce4bgl92rcd13ifvqbq0","pricing_plan_id":"cebpf4jnsgd1na2vs0mg"},{"bike_id":"13c39096-92de-47dd-a9ee-5b5cda0c5bbc","system_id":"levelo_inurba_marseille","lat":43.2464,"lon":5.3891,"is_reserved":false,"is_disabled":false,"rental_uris":{"android":"levelo://app?vid=13c39096-92de-47dd-a9ee-5b5cda0c5bbc","ios":"levelo://app?vid=13c39096-92de-47dd-a9ee-5b5cda0c5bbc"},"vehicle_type_id":"4","last_reported":1734988094,"current_range_meters":33600,"station_id":"ce4bhg12rcd13ifvqf60","pricing_plan_id":"cebpf4jnsgd1na2vs0mg"},{"bike_id":"c787057b-d2c3-47cb-afbf-5583f193229c","system_id":"levelo_inurba_marseille","lat":43.24652,"lon":5.38901,"is_reserved":false,"is_disabled":false,"rental_uris":{"android":"levelo://app?vid=c787057b-d2c3-47cb-afbf-5583f193229c","ios":"levelo://app?vid=c787057b-d2c3-47cb-afbf-5583f193229c"},"vehicle_type_id":"4","last_reported":1734988094,"current_range_meters":38800,"station_id":"ce4bhg12rcd13ifvqf60","pricing_plan_id":"cebpf4jnsgd1na2vs0mg"},{"bike_id":"d1408c54-5d72-4a56-aaa4-4833cdef7353","system_id":"levelo_inurba_marseille","lat":43.29191,"lon":5.35782,"is_reserved":false,"is_disabled":false,"rental_uris":{"android":"levelo://app?vid=d1408c54-5d72-4a56-aaa4-4833cdef7353","ios":"levelo://app?vid=d1408c54-5d72-4a56-aaa4-4833cdef7353"},"vehicle_type_id":"4","last_reported":1734988094,"current_range_meters":36000,"station_id":"ce4bhb12rcd13ifvqel0","pricing_plan_id":"cebpf4jnsgd1na2vs0mg"},{"bike_id":"5329f495-98d5-4ee4-b53e-b98bd156a829","system_id":"levelo_inurba_marseille","lat":43.30138,"lon":5.3987,"is_reserved":false,"is_disabled":false,"rental_uris":{"android":"levelo://app?vid=5329f495-98d5-4ee4-b53e-b98bd156a829","ios":"levelo://app?vid=5329f495-98d5-4ee4-b53e-b98bd156a829"},"vehicle_type_id":"4","last_reported":1734988094,"current_range_meters":38000,"station_id":"ce4bh0h2rcd13ifvqd40","pricing_plan_id":"cebpf4jnsgd1na2vs0mg"},{"bike_id":"9c7eeb5b-f97e-4fc2-ab19-aaf7531bd9e2","system_id":"levelo_inurba_marseille","lat":43.301799,"lon":5.380786,"is_reserved":false,"is_disabled":false,"rental_uris":{"android":"levelo://app?vid=9c7eeb5b-f97e-4fc2-ab19-aaf7531bd9e2","ios":"levelo://app?vid=9c7eeb5b-f97e-4fc2-ab19-aaf7531bd9e2"},"vehicle_type_id":"4","last_reported":1734988094,"current_range_meters":28800,"station_id":"ce4bgjp2rcd13ifvqbh0","pricing_plan_id":"cebpf4jnsgd1na2vs0mg"},{"bike_id":"b7d3cdb3-4a74-4f21-b9ae-f381e76027e7","system_id":"levelo_inurba_marseille","lat":43.30128,"lon":5.38782,"is_reserved":false,"is_disabled":false,"rental_uris":{"android":"levelo://app?vid=b7d3cdb3-4a74-4f21-b9ae-f381e76027e7","ios":"levelo://app?vid=b7d3cdb3-4a74-4f21-b9ae-f381e76027e7"},"vehicle_type_id":"4","last_reported":1734988094,"current_range_meters":39200,"station_id":"ce4bghh2rcd13ifvqb60","pricing_plan_id":"cebpf4jnsgd1na2vs0mg"},{"bike_id":"b1d51ecc-32a3-43e5-abe1-febc589a9bb3","system_id":"levelo_inurba_marseille","lat":43.29882,"lon":5.38915,"is_reserved":false,"is_disabled":false,"rental_uris":{"android":"levelo://app?vid=b1d51ecc-32a3-43e5-abe1-febc589a9bb3","ios":"levelo://app?vid=b1d51ecc-32a3-43e5-abe1-febc589a9bb3"},"vehicle_type_id":"4","last_reported":1734988094,"current_range_meters":38000,"station_id":"ce4bh392rcd13ifvqdl0","pricing_plan_id":"cebpf4jnsgd1na2vs0mg"},{"bike_id":"2a6c7ac7-4bf1-4a8e-82c2-9458f66f73dc","system_id":"levelo_inurba_marseille","lat":43.28438,"lon":5.39186,"is_reserved":false,"is_disabled":false,"rental_uris":{"android":"levelo://app?vid=2a6c7ac7-4bf1-4a8e-82c2-9458f66f73dc","ios":"levelo://app?vid=2a6c7ac7-4bf1-4a8e-82c2-9458f66f73dc"},"vehicle_type_id":"4","last_reported":1734988094,"current_range_meters":27600,"station_id":"ce4bhoh2rcd13ifvqh5g","pricing_plan_id":"cebpf4jnsgd1na2vs0mg"},{"bike_id":"8066f755-db4c-4d64-90dc-1bd394e94fa2","system_id":"levelo_inurba_marseille","lat":43.33018,"lon":5.39041,"is_reserved":false,"is_disabled":false,"rental_uris":{"android":"levelo://app?vid=8066f755-db4c-4d64-90dc-1bd394e94fa2","ios":"levelo://app?vid=8066f755-db4c-4d64-90dc-1bd394e94fa2"},"vehicle_type_id":"4","last_reported":1734988094,"current_range_meters":38000,"station_id":"ce4bhr92rcd13ifvqhrg","pricing_plan_id":"cebpf4jnsgd1na2vs0mg"},{"bike_id":"4e6d0ca2-6374-490a-b48e-6cba90785a4f","system_id":"levelo_inurba_marseille","lat":43.24651,"lon":5.38887,"is_reserved":false,"is_disabled":false,"rental_uris":{"android":"levelo://app?vid=4e6d0ca2-6374-490a-b48e-6cba90785a4f","ios":"levelo://app?vid=4e6d0ca2-6374-490a-b48e-6cba90785a4f"},"vehicle_type_id":"4","last_reported":1734988094,"current_range_meters":25200,"station_id":"ce4bhg12rcd13ifvqf60","pricing_plan_id":"cebpf4jnsgd1na2vs0mg"},{"bike_id":"7530b7fa-2470-4a96-8350-8ef88aa02d45","system_id":"levelo_inurba_marseille","lat":43.28623,"lon":5.35099,"is_reserved":false,"is_disabled":false,"rental_uris":{"android":"levelo://app?vid=7530b7fa-2470-4a96-8350-8ef88aa02d45","ios":"levelo://app?vid=7530b7fa-2470-4a96-8350-8ef88aa02d45"},"vehicle_type_id":"4","last_reported":1734988094,"current_range_meters":32800,"station_id":"ce4bhch2rcd13ifvqeug","pricing_plan_id":"cebpf4jnsgd1na2vs0mg"},{"bike_id":"f956d62c-1dc2-41dd-b80f-de98aa147ea9","system_id":"levelo_inurba_marseille","lat":43.27813,"lon":5.40714,"is_reserved":false,"is_disabled":false,"rental_uris":{"android":"levelo://app?vid=f956d62c-1dc2-41dd-b80f-de98aa147ea9","ios":"levelo://app?vid=f956d62c-1dc2-41dd-b80f-de98aa147ea9"},"vehicle_type_id":"4","last_reported":1734988094,"current_range_meters":30400,"station_id":"ce4bhnh2rcd13ifvqgtg","pricing_plan_id":"cebpf4jnsgd1na2vs0mg"},{"bike_id":"c387ed0e-5769-4c33-af36-0f0bc7e04b24","system_id":"levelo_inurba_marseille","lat":43.26804,"lon":5.4028,"is_reserved":false,"is_disabled":false,"rental_uris":{"android":"levelo://app?vid=c387ed0e-5769-4c33-af36-0f0bc7e04b24","ios":"levelo://app?vid=c387ed0e-5769-4c33-af36-0f0bc7e04b24"},"vehicle_type_id":"4","last_reported":1734988094,"current_range_meters":29600,"station_id":"ce501612rcd8frsf0b60","pricing_plan_id":"cebpf4jnsgd1na2vs0mg"},{"bike_id":"89dde3a7-e099-423e-8e09-63b62753e8b9","system_id":"levelo_inurba_marseille","lat":43.25833,"lon":5.39425,"is_reserved":false,"is_disabled":false,"rental_uris":{"android":"levelo://app?vid=89dde3a7-e099-423e-8e09-63b62753e8b9","ios":"levelo://app?vid=89dde3a7-e099-423e-8e09-63b62753e8b9"},"vehicle_type_id":"4","last_reported":1734988094,"current_range_meters":32000,"station_id":"ce4bhip2rcd13ifvqft0","pricing_plan_id":"cebpf4jnsgd1na2vs0mg"},{"bike_id":"e6f255e7-c3a0-4128-a0b1-f18581ab0420","system_id":"levelo_inurba_marseille","lat":43.29902,"lon":5.38099,"is_reserved":false,"is_disabled":false,"rental_uris":{"android":"levelo://app?vid=e6f255e7-c3a0-4128-a0b1-f18581ab0420","ios":"levelo://app?vid=e6f255e7-c3a0-4128-a0b1-f18581ab0420"},"vehicle_type_id":"4","last_reported":1734988094,"current_range_meters":38800,"station_id":"ce4bgj12rcd13ifvqbc0","pricing_plan_id":"cebpf4jnsgd1na2vs0mg"},{"bike_id":"ba65d07a-204d-4be9-96e0-b91b2ca6d251","system_id":"levelo_inurba_marseille","lat":43.2694,"lon":5.40261,"is_reserved":false,"is_disabled":false,"rental_uris":{"android":"levelo://app?vid=ba65d07a-204d-4be9-96e0-b91b2ca6d251","ios":"levelo://app?vid=ba65d07a-204d-4be9-96e0-b91b2ca6d251"},"vehicle_type_id":"4","last_reported":1734988094,"current_range_meters":38800,"station_id":"cjm6bp8fraef2m0cb0m0","pricing_plan_id":"cebpf4jnsgd1na2vs0mg"},{"bike_id":"303b498d-56bc-4e31-9c6f-0c41d7dd6561","system_id":"levelo_inurba_marseille","lat":43.29611,"lon":5.37724,"is_reserved":false,"is_disabled":false,"rental_uris":{"android":"levelo://app?vid=303b498d-56bc-4e31-9c6f-0c41d7dd6561","ios":"levelo://app?vid=303b498d-56bc-4e31-9c6f-0c41d7dd6561"},"vehicle_type_id":"4","last_reported":1734988094,"current_range_meters":36000,"station_id":"ce4bgi92rcd13ifvqb90","pricing_plan_id":"cebpf4jnsgd1na2vs0mg"},{"bike_id":"43472636-57cd-411f-b3bd-d2bda7647d04","system_id":"levelo_inurba_marseille","lat":43.26936,"lon":5.40259,"is_reserved":false,"is_disabled":false,"rental_uris":{"android":"levelo://app?vid=43472636-57cd-411f-b3bd-d2bda7647d04","ios":"levelo://app?vid=43472636-57cd-411f-b3bd-d2bda7647d04"},"vehicle_type_id":"4","last_reported":1734988094,"current_range_meters":38000,"station_id":"cjm6bp8fraef2m0cb0m0","pricing_plan_id":"cebpf4jnsgd1na2vs0mg"},{"bike_id":"56c5b33c-c228-41ca-80c4-e4e2a1f7cb88","system_id":"levelo_inurba_marseille","lat":43.304371,"lon":5.388883,"is_reserved":false,"is_disabled":false,"rental_uris":{"android":"levelo://app?vid=56c5b33c-c228-41ca-80c4-e4e2a1f7cb88","ios":"levelo://app?vid=56c5b33c-c228-41ca-80c4-e4e2a1f7cb88"},"vehicle_type_id":"4","last_reported":1734988094,"current_range_meters":34000,"station_id":"ce4bgk12rcd13ifvqbi0","pricing_plan_id":"cebpf4jnsgd1na2vs0mg"},{"bike_id":"2558d0c0-8ff8-46ff-94a3-4d50dbd59c1c","system_id":"levelo_inurba_marseille","lat":43.2998,"lon":5.3719,"is_reserved":false,"is_disabled":false,"rental_uris":{"android":"levelo://app?vid=2558d0c0-8ff8-46ff-94a3-4d50dbd59c1c","ios":"levelo://app?vid=2558d0c0-8ff8-46ff-94a3-4d50dbd59c1c"},"vehicle_type_id":"4","last_reported":1734988094,"current_range_meters":34800,"station_id":"ce4bgr92rcd13ifvqc7g","pricing_plan_id":"cebpf4jnsgd1na2vs0mg"},{"bike_id":"83018152-5630-44de-83fd-2c686833736b","system_id":"levelo_inurba_marseille","lat":43.28618,"lon":5.35094,"is_reserved":false,"is_disabled":true,"rental_uris":{"android":"levelo://app?vid=83018152-5630-44de-83fd-2c686833736b","ios":"levelo://app?vid=83018152-5630-44de-83fd-2c686833736b"},"vehicle_type_id":"4","last_reported":1734988094,"current_range_meters":7200,"station_id":"ce4bhch2rcd13ifvqeug","pricing_plan_id":"cebpf4jnsgd1na2vs0mg"},{"bike_id":"58975c95-cbcc-4de2-ac6a-2c5c03741a00","system_id":"levelo_inurba_marseille","lat":43.27081,"lon":5.42271,"is_reserved":false,"is_disabled":false,"rental_uris":{"android":"levelo://app?vid=58975c95-cbcc-4de2-ac6a-2c5c03741a00","ios":"levelo://app?vid=58975c95-cbcc-4de2-ac6a-2c5c03741a00"},"vehicle_type_id":"4","last_reported":1734988094,"current_range_meters":38800,"station_id":"ce4bhk92rcd13ifvqgb0","pricing_plan_id":"cebpf4jnsgd1na2vs0mg"},{"bike_id":"dbf0bbb1-ae12-4a56-8df6-19b3f611ae3d","system_id":"levelo_inurba_marseille","lat":43.30262,"lon":5.40083,"is_reserved":false,"is_disabled":false,"rental_uris":{"android":"levelo://app?vid=dbf0bbb1-ae12-4a56-8df6-19b3f611ae3d","ios":"levelo://app?vid=dbf0bbb1-ae12-4a56-8df6-19b3f611ae3d"},"vehicle_type_id":"4","last_reported":1734988094,"current_range_meters":38800,"station_id":"ce4bgvh2rcd13ifvqcs0","pricing_plan_id":"cebpf4jnsgd1na2vs0mg"},{"bike_id":"e5b7f70e-d8e3-44d9-8582-413c5967227d","system_id":"levelo_inurba_marseille","lat":43.26486,"lon":5.39552,"is_reserved":false,"is_disabled":false,"rental_uris":{"android":"levelo://app?vid=e5b7f70e-d8e3-44d9-8582-413c5967227d","ios":"levelo://app?vid=e5b7f70e-d8e3-44d9-8582-413c5967227d"},"vehicle_type_id":"4","last_reported":1734988094,"current_range_meters":26000,"station_id":"ce4bhi12rcd13ifvqfq0","pricing_plan_id":"cebpf4jnsgd1na2vs0mg"},{"bike_id":"591e56d3-570f-4000-8104-235340497ab2","system_id":"levelo_inurba_marseille","lat":43.28039,"lon":5.36938,"is_reserved":false,"is_disabled":false,"rental_uris":{"android":"levelo://app?vid=591e56d3-570f-4000-8104-235340497ab2","ios":"levelo://app?vid=591e56d3-570f-4000-8104-235340497ab2"},"vehicle_type_id":"4","last_reported":1734988094,"current_range_meters":38800,"station_id":"ce4bha12rcd13ifvqef0","pricing_plan_id":"cebpf4jnsgd1na2vs0mg"},{"bike_id":"e69b1a15-ed5b-47d8-a307-67930b185ae6","system_id":"levelo_inurba_marseille","lat":43.25117,"lon":5.4032,"is_reserved":false,"is_disabled":false,"rental_uris":{"android":"levelo://app?vid=e69b1a15-ed5b-47d8-a307-67930b185ae6","ios":"levelo://app?vid=e69b1a15-ed5b-47d8-a307-67930b185ae6"},"vehicle_type_id":"4","last_reported":1734988094,"current_range_meters":38400,"station_id":"ce4bhlh2rcd13ifvqgig","pricing_plan_id":"cebpf4jnsgd1na2vs0mg"},{"bike_id":"8f270604-6b3f-436d-ae84-7e8b2641acb9","system_id":"levelo_inurba_marseille","lat":43.25088,"lon":5.39524,"is_reserved":false,"is_disabled":false,"rental_uris":{"android":"levelo://app?vid=8f270604-6b3f-436d-ae84-7e8b2641acb9","ios":"levelo://app?vid=8f270604-6b3f-436d-ae84-7e8b2641acb9"},"vehicle_type_id":"4","last_reported":1734988094,"current_range_meters":36000,"station_id":"ce4bhm12rcd13ifvqgkg","pricing_plan_id":"cebpf4jnsgd1na2vs0mg"},{"bike_id":"e99546a0-b289-48d7-96f5-5f2a5b9577f1","system_id":"levelo_inurba_marseille","lat":43.27367,"lon":5.36252,"is_reserved":false,"is_disabled":false,"rental_uris":{"android":"levelo://app?vid=e99546a0-b289-48d7-96f5-5f2a5b9577f1","ios":"levelo://app?vid=e99546a0-b289-48d7-96f5-5f2a5b9577f1"},"vehicle_type_id":"4","last_reported":1734988094,"current_range_meters":21600,"station_id":"ce4bhbh2rcd13ifvqeo0","pricing_plan_id":"cebpf4jnsgd1na2vs0mg"},{"bike_id":"9eccb0d6-48d8-4c3b-b85b-207069eb977d","system_id":"levelo_inurba_marseille","lat":43.25578,"lon":5.38228,"is_reserved":false,"is_disabled":false,"rental_uris":{"android":"levelo://app?vid=9eccb0d6-48d8-4c3b-b85b-207069eb977d","ios":"levelo://app?vid=9eccb0d6-48d8-4c3b-b85b-207069eb977d"},"vehicle_type_id":"4","last_reported":1734988094,"current_range_meters":36400,"station_id":"ce4bhih2rcd13ifvqfs0","pricing_plan_id":"cebpf4jnsgd1na2vs0mg"},{"bike_id":"92cab8d6-4690-40ad-8f79-472c2dcb3afb","system_id":"levelo_inurba_marseille","lat":43.29567,"lon":5.39977,"is_reserved":false,"is_disabled":false,"rental_uris":{"android":"levelo://app?vid=92cab8d6-4690-40ad-8f79-472c2dcb3afb","ios":"levelo://app?vid=92cab8d6-4690-40ad-8f79-472c2dcb3afb"},"vehicle_type_id":"4","last_reported":1734988094,"current_range_meters":38000,"station_id":"ce4bh312rcd13ifvqdj0","pricing_plan_id":"cebpf4jnsgd1na2vs0mg"},{"bike_id":"5783f472-7468-4bde-a8a4-e8699731eecc","system_id":"levelo_inurba_marseille","lat":43.320381,"lon":5.415644,"is_reserved":false,"is_disabled":false,"rental_uris":{"android":"levelo://app?vid=5783f472-7468-4bde-a8a4-e8699731eecc","ios":"levelo://app?vid=5783f472-7468-4bde-a8a4-e8699731eecc"},"vehicle_type_id":"4","last_reported":1734988094,"current_range_meters":34800,"station_id":"ce4bhq92rcd13ifvqhkg","pricing_plan_id":"cebpf4jnsgd1na2vs0mg"},{"bike_id":"1bfb59b3-5d70-4c84-8077-a6771e996a2b","system_id":"levelo_inurba_marseille","lat":43.29943,"lon":5.36533,"is_reserved":false,"is_disabled":false,"rental_uris":{"android":"levelo://app?vid=1bfb59b3-5d70-4c84-8077-a6771e996a2b","ios":"levelo://app?vid=1bfb59b3-5d70-4c84-8077-a6771e996a2b"},"vehicle_type_id":"4","last_reported":1734988094,"current_range_meters":38400,"station_id":"ce4bgm92rcd13ifvqbr0","pricing_plan_id":"cebpf4jnsgd1na2vs0mg"},{"bike_id":"373eb665-430d-4124-b86f-17fdd0ad9196","system_id":"levelo_inurba_marseille","lat":43.29806,"lon":5.38108,"is_reserved":false,"is_disabled":false,"rental_uris":{"android":"levelo://app?vid=373eb665-430d-4124-b86f-17fdd0ad9196","ios":"levelo://app?vid=373eb665-430d-4124-b86f-17fdd0ad9196"},"vehicle_type_id":"4","last_reported":1734988094,"current_range_meters":32000,"station_id":"ce4bgip2rcd13ifvqbb0","pricing_plan_id":"cebpf4jnsgd1na2vs0mg"},{"bike_id":"aa5d5d16-a2f6-4c81-8cd4-c9ee96949ae4","system_id":"levelo_inurba_marseille","lat":43.231889,"lon":5.399816,"is_reserved":false,"is_disabled":false,"rental_uris":{"android":"levelo://app?vid=aa5d5d16-a2f6-4c81-8cd4-c9ee96949ae4","ios":"levelo://app?vid=aa5d5d16-a2f6-4c81-8cd4-c9ee96949ae4"},"vehicle_type_id":"4","last_reported":1734988094,"current_range_meters":38400,"station_id":"ce4bhn12rcd13ifvqgqg","pricing_plan_id":"cebpf4jnsgd1na2vs0mg"},{"bike_id":"68db534e-0067-497a-971b-c0ac21bdd722","system_id":"levelo_inurba_marseille","lat":43.26222,"lon":5.37912,"is_reserved":false,"is_disabled":false,"rental_uris":{"android":"levelo://app?vid=68db534e-0067-497a-971b-c0ac21bdd722","ios":"levelo://app?vid=68db534e-0067-497a-971b-c0ac21bdd722"},"vehicle_type_id":"4","last_reported":1734988094,"current_range_meters":36000,"station_id":"ce4bhjp2rcd13ifvqg90","pricing_plan_id":"cebpf4jnsgd1na2vs0mg"},{"bike_id":"1e73c81f-7d8d-42c9-8216-05e0c8d2e4e9","system_id":"levelo_inurba_marseille","lat":43.29611,"lon":5.37713,"is_reserved":false,"is_disabled":false,"rental_uris":{"android":"levelo://app?vid=1e73c81f-7d8d-42c9-8216-05e0c8d2e4e9","ios":"levelo://app?vid=1e73c81f-7d8d-42c9-8216-05e0c8d2e4e9"},"vehicle_type_id":"4","last_reported":1734988094,"current_range_meters":38800,"station_id":"ce4bgi92rcd13ifvqb90","pricing_plan_id":"cebpf4jnsgd1na2vs0mg"},{"bike_id":"180c51e8-707b-4d3a-bce6-60033fd0e9cc","system_id":"levelo_inurba_marseille","lat":43.29919,"lon":5.38132,"is_reserved":false,"is_disabled":false,"rental_uris":{"android":"levelo://app?vid=180c51e8-707b-4d3a-bce6-60033fd0e9cc","ios":"levelo://app?vid=180c51e8-707b-4d3a-bce6-60033fd0e9cc"},"vehicle_type_id":"4","last_reported":1734988094,"current_range_meters":39200,"station_id":"ce4bgj12rcd13ifvqbc0","pricing_plan_id":"cebpf4jnsgd1na2vs0mg"},{"bike_id":"f94ee3ef-df1d-4f7a-a675-d07a56ae02be","system_id":"levelo_inurba_marseille","lat":43.33721,"lon":5.39188,"is_reserved":false,"is_disabled":false,"rental_uris":{"android":"levelo://app?vid=f94ee3ef-df1d-4f7a-a675-d07a56ae02be","ios":"levelo://app?vid=f94ee3ef-df1d-4f7a-a675-d07a56ae02be"},"vehicle_type_id":"4","last_reported":1734988094,"current_range_meters":18000,"station_id":"ce4bhr92rcd13ifvqhsg","pricing_plan_id":"cebpf4jnsgd1na2vs0mg"},{"bike_id":"18bc712f-05f8-4bfe-a81a-9b0f3911a5b1","system_id":"levelo_inurba_marseille","lat":43.27561,"lon":5.38432,"is_reserved":false,"is_disabled":false,"rental_uris":{"android":"levelo://app?vid=18bc712f-05f8-4bfe-a81a-9b0f3911a5b1","ios":"levelo://app?vid=18bc712f-05f8-4bfe-a81a-9b0f3911a5b1"},"vehicle_type_id":"4","last_reported":1734988094,"current_range_meters":38800,"station_id":"ce4bhh92rcd13ifvqfi0","pricing_plan_id":"cebpf4jnsgd1na2vs0mg"},{"bike_id":"17848132-9d0b-498e-939f-005e27afd85a","system_id":"levelo_inurba_marseille","lat":43.28998,"lon":5.3561,"is_reserved":false,"is_disabled":false,"rental_uris":{"android":"levelo://app?vid=17848132-9d0b-498e-939f-005e27afd85a","ios":"levelo://app?vid=17848132-9d0b-498e-939f-005e27afd85a"},"vehicle_type_id":"4","last_reported":1734988094,"current_range_meters":32000,"station_id":"ce4bhb92rcd13ifvqen0","pricing_plan_id":"cebpf4jnsgd1na2vs0mg"},{"bike_id":"2d995820-d040-480b-a897-bf9d5f03891e","system_id":"levelo_inurba_marseille","lat":43.29383,"lon":5.378591,"is_reserved":false,"is_disabled":true,"rental_uris":{"android":"levelo://app?vid=2d995820-d040-480b-a897-bf9d5f03891e","ios":"levelo://app?vid=2d995820-d040-480b-a897-bf9d5f03891e"},"vehicle_type_id":"4","last_reported":1734988094,"current_range_meters":28800,"station_id":"ce4bgjh2rcd13ifvqbf0","pricing_plan_id":"cebpf4jnsgd1na2vs0mg"},{"bike_id":"f47cc58d-9be1-465e-a2bb-aa65af959fc4","system_id":"levelo_inurba_marseille","lat":43.28648,"lon":5.35085,"is_reserved":false,"is_disabled":false,"rental_uris":{"android":"levelo://app?vid=f47cc58d-9be1-465e-a2bb-aa65af959fc4","ios":"levelo://app?vid=f47cc58d-9be1-465e-a2bb-aa65af959fc4"},"vehicle_type_id":"4","last_reported":1734988094,"current_range_meters":38800,"station_id":"ce4bhch2rcd13ifvqeug","pricing_plan_id":"cebpf4jnsgd1na2vs0mg"},{"bike_id":"83bf9c78-f394-4941-bb08-edfb79bc7309","system_id":"levelo_inurba_marseille","lat":43.29736,"lon":5.37693,"is_reserved":false,"is_disabled":false,"rental_uris":{"android":"levelo://app?vid=83bf9c78-f394-4941-bb08-edfb79bc7309","ios":"levelo://app?vid=83bf9c78-f394-4941-bb08-edfb79bc7309"},"vehicle_type_id":"4","last_reported":1734988094,"current_range_meters":11200,"station_id":"ce4bgkh2rcd13ifvqbl0","pricing_plan_id":"cebpf4jnsgd1na2vs0mg"},{"bike_id":"8aa29a25-71b0-47b4-8794-3774a275bf08","system_id":"levelo_inurba_marseille","lat":43.27172,"lon":5.4099,"is_reserved":false,"is_disabled":false,"rental_uris":{"android":"levelo://app?vid=8aa29a25-71b0-47b4-8794-3774a275bf08","ios":"levelo://app?vid=8aa29a25-71b0-47b4-8794-3774a275bf08"},"vehicle_type_id":"4","last_reported":1734988094,"current_range_meters":18000,"station_id":"ce4bhl12rcd13ifvqgf0","pricing_plan_id":"cebpf4jnsgd1na2vs0mg"},{"bike_id":"50771762-6294-492b-bae5-db8bd88e73ed","system_id":"levelo_inurba_marseille","lat":43.27433,"lon":5.39405,"is_reserved":false,"is_disabled":false,"rental_uris":{"android":"levelo://app?vid=50771762-6294-492b-bae5-db8bd88e73ed","ios":"levelo://app?vid=50771762-6294-492b-bae5-db8bd88e73ed"},"vehicle_type_id":"4","last_reported":1734988094,"current_range_meters":39200,"station_id":"ce4bhdp2rcd13ifvqf20","pricing_plan_id":"cebpf4jnsgd1na2vs0mg"},{"bike_id":"3c8b5ca7-a8a6-4b4b-8fee-7765b3f47c9c","system_id":"levelo_inurba_marseille","lat":43.30136,"lon":5.38781,"is_reserved":false,"is_disabled":true,"rental_uris":{"android":"levelo://app?vid=3c8b5ca7-a8a6-4b4b-8fee-7765b3f47c9c","ios":"levelo://app?vid=3c8b5ca7-a8a6-4b4b-8fee-7765b3f47c9c"},"vehicle_type_id":"4","last_reported":1734988094,"current_range_meters":0,"station_id":"ce4bhoh2rcd13ifvqh6g","pricing_plan_id":"cebpf4jnsgd1na2vs0mg"},{"bike_id":"b9248108-92a5-4b77-ba17-3289b105396b","system_id":"levelo_inurba_marseille","lat":43.31702,"lon":5.40461,"is_reserved":false,"is_disabled":true,"rental_uris":{"android":"levelo://app?vid=b9248108-92a5-4b77-ba17-3289b105396b","ios":"levelo://app?vid=b9248108-92a5-4b77-ba17-3289b105396b"},"vehicle_type_id":"4","last_reported":1734988094,"current_range_meters":6800,"station_id":"ce4bh012rcd13ifvqd00","pricing_plan_id":"cebpf4jnsgd1na2vs0mg"},{"bike_id":"0b1dbe83-06bc-4dd0-a526-062173db1059","system_id":"levelo_inurba_marseille","lat":43.29249,"lon":5.40915,"is_reserved":false,"is_disabled":false,"rental_uris":{"android":"levelo://app?vid=0b1dbe83-06bc-4dd0-a526-062173db1059","ios":"levelo://app?vid=0b1dbe83-06bc-4dd0-a526-062173db1059"},"vehicle_type_id":"4","last_reported":1734988094,"current_range_meters":25200,"station_id":"ce4bh192rcd13ifvqdc0","pricing_plan_id":"cebpf4jnsgd1na2vs0mg"},{"bike_id":"6fc06629-22a5-4a9c-9ff7-c08cb127b87d","system_id":"levelo_inurba_marseille","lat":43.30246,"lon":5.400698,"is_reserved":false,"is_disabled":true,"rental_uris":{"android":"levelo://app?vid=6fc06629-22a5-4a9c-9ff7-c08cb127b87d","ios":"levelo://app?vid=6fc06629-22a5-4a9c-9ff7-c08cb127b87d"},"vehicle_type_id":"4","last_reported":1734988094,"current_range_meters":20000,"station_id":"ce4bgvh2rcd13ifvqcs0","pricing_plan_id":"cebpf4jnsgd1na2vs0mg"},{"bike_id":"82719b16-0394-44a1-963a-3161d6b762b8","system_id":"levelo_inurba_marseille","lat":43.29633,"lon":5.37144,"is_reserved":false,"is_disabled":false,"rental_uris":{"android":"levelo://app?vid=82719b16-0394-44a1-963a-3161d6b762b8","ios":"levelo://app?vid=82719b16-0394-44a1-963a-3161d6b762b8"},"vehicle_type_id":"4","last_reported":1734988094,"current_range_meters":38800,"station_id":"ce4bgnh2rcd13ifvqc0g","pricing_plan_id":"cebpf4jnsgd1na2vs0mg"},{"bike_id":"3e3649be-3a5e-4e93-a90d-6c78054c506e","system_id":"levelo_inurba_marseille","lat":43.29188,"lon":5.39322,"is_reserved":false,"is_disabled":false,"rental_uris":{"android":"levelo://app?vid=3e3649be-3a5e-4e93-a90d-6c78054c506e","ios":"levelo://app?vid=3e3649be-3a5e-4e93-a90d-6c78054c506e"},"vehicle_type_id":"4","last_reported":1734988094,"current_range_meters":39200,"station_id":"ce4bh192rcd13ifvqdd0","pricing_plan_id":"cebpf4jnsgd1na2vs0mg"},{"bike_id":"fbf0ad52-c373-4f9a-a599-782a3acdac7a","system_id":"levelo_inurba_marseille","lat":43.27172,"lon":5.40992,"is_reserved":false,"is_disabled":false,"rental_uris":{"android":"levelo://app?vid=fbf0ad52-c373-4f9a-a599-782a3acdac7a","ios":"levelo://app?vid=fbf0ad52-c373-4f9a-a599-782a3acdac7a"},"vehicle_type_id":"4","last_reported":1734988094,"current_range_meters":32000,"station_id":"ce4bhl12rcd13ifvqgf0","pricing_plan_id":"cebpf4jnsgd1na2vs0mg"},{"bike_id":"8c00be79-a82d-421b-9f37-4d80b003f520","system_id":"levelo_inurba_marseille","lat":43.33611,"lon":5.4102,"is_reserved":false,"is_disabled":false,"rental_uris":{"android":"levelo://app?vid=8c00be79-a82d-421b-9f37-4d80b003f520","ios":"levelo://app?vid=8c00be79-a82d-421b-9f37-4d80b003f520"},"vehicle_type_id":"4","last_reported":1734988094,"current_range_meters":38800,"station_id":"ce4bhqh2rcd13ifvqhmg","pricing_plan_id":"cebpf4jnsgd1na2vs0mg"},{"bike_id":"019c9b52-1621-4bc1-9424-1debddea8678","system_id":"levelo_inurba_marseille","lat":43.26502,"lon":5.39545,"is_reserved":false,"is_disabled":false,"rental_uris":{"android":"levelo://app?vid=019c9b52-1621-4bc1-9424-1debddea8678","ios":"levelo://app?vid=019c9b52-1621-4bc1-9424-1debddea8678"},"vehicle_type_id":"4","last_reported":1734988094,"current_range_meters":38800,"station_id":"ce4bhi12rcd13ifvqfq0","pricing_plan_id":"cebpf4jnsgd1na2vs0mg"},{"bike_id":"3b89f562-511c-4f78-86db-08cd99e862da","system_id":"levelo_inurba_marseille","lat":43.29714,"lon":5.36611,"is_reserved":false,"is_disabled":false,"rental_uris":{"android":"levelo://app?vid=3b89f562-511c-4f78-86db-08cd99e862da","ios":"levelo://app?vid=3b89f562-511c-4f78-86db-08cd99e862da"},"vehicle_type_id":"4","last_reported":1734988094,"current_range_meters":36800,"station_id":"ce4bgn12rcd13ifvqbt0","pricing_plan_id":"cebpf4jnsgd1na2vs0mg"},{"bike_id":"89057091-688a-498f-af84-2f421360afdd","system_id":"levelo_inurba_marseille","lat":43.30535,"lon":5.36535,"is_reserved":false,"is_disabled":false,"rental_uris":{"android":"levelo://app?vid=89057091-688a-498f-af84-2f421360afdd","ios":"levelo://app?vid=89057091-688a-498f-af84-2f421360afdd"},"vehicle_type_id":"4","last_reported":1734988094,"current_range_meters":35200,"station_id":"ce4bgs12rcd13ifvqcag","pricing_plan_id":"cebpf4jnsgd1na2vs0mg"},{"bike_id":"25c94e1b-df58-4bad-bbf3-f0564c6ea360","system_id":"levelo_inurba_marseille","lat":43.23182,"lon":5.399841,"is_reserved":false,"is_disabled":false,"rental_uris":{"android":"levelo://app?vid=25c94e1b-df58-4bad-bbf3-f0564c6ea360","ios":"levelo://app?vid=25c94e1b-df58-4bad-bbf3-f0564c6ea360"},"vehicle_type_id":"4","last_reported":1734988094,"current_range_meters":35200,"station_id":"ce4bhn12rcd13ifvqgqg","pricing_plan_id":"cebpf4jnsgd1na2vs0mg"},{"bike_id":"91c3eac2-5ae5-4135-8452-cda55eedad16","system_id":"levelo_inurba_marseille","lat":43.28376,"lon":5.38106,"is_reserved":false,"is_disabled":false,"rental_uris":{"android":"levelo://app?vid=91c3eac2-5ae5-4135-8452-cda55eedad16","ios":"levelo://app?vid=91c3eac2-5ae5-4135-8452-cda55eedad16"},"vehicle_type_id":"4","last_reported":1734988094,"current_range_meters":22800,"station_id":"ce4bh412rcd13ifvqdr0","pricing_plan_id":"cebpf4jnsgd1na2vs0mg"},{"bike_id":"537ef1bf-3a78-45af-b334-3a2c52a599a8","system_id":"levelo_inurba_marseille","lat":43.3414,"lon":5.40905,"is_reserved":false,"is_disabled":false,"rental_uris":{"android":"levelo://app?vid=537ef1bf-3a78-45af-b334-3a2c52a599a8","ios":"levelo://app?vid=537ef1bf-3a78-45af-b334-3a2c52a599a8"},"vehicle_type_id":"4","last_reported":1734988094,"current_range_meters":35600,"station_id":"ce4bhqh2rcd13ifvqhlg","pricing_plan_id":"cebpf4jnsgd1na2vs0mg"},{"bike_id":"c59345d4-1e21-4d77-99bd-e0121b8e1fb8","system_id":"levelo_inurba_marseille","lat":43.24812,"lon":5.374576,"is_reserved":false,"is_disabled":false,"rental_uris":{"android":"levelo://app?vid=c59345d4-1e21-4d77-99bd-e0121b8e1fb8","ios":"levelo://app?vid=c59345d4-1e21-4d77-99bd-e0121b8e1fb8"},"vehicle_type_id":"4","last_reported":1734988094,"current_range_meters":38000,"station_id":"ce4bhgh2rcd13ifvqfb0","pricing_plan_id":"cebpf4jnsgd1na2vs0mg"},{"bike_id":"a170b636-b0bc-4d53-95d7-9e44ebc84f8e","system_id":"levelo_inurba_marseille","lat":43.30132,"lon":5.39872,"is_reserved":false,"is_disabled":false,"rental_uris":{"android":"levelo://app?vid=a170b636-b0bc-4d53-95d7-9e44ebc84f8e","ios":"levelo://app?vid=a170b636-b0bc-4d53-95d7-9e44ebc84f8e"},"vehicle_type_id":"4","last_reported":1734988094,"current_range_meters":16800,"station_id":"ce4bh0h2rcd13ifvqd40","pricing_plan_id":"cebpf4jnsgd1na2vs0mg"},{"bike_id":"362d2839-57c3-42f6-b58b-7d866da00fb5","system_id":"levelo_inurba_marseille","lat":43.32107,"lon":5.36783,"is_reserved":false,"is_disabled":false,"rental_uris":{"android":"levelo://app?vid=362d2839-57c3-42f6-b58b-7d866da00fb5","ios":"levelo://app?vid=362d2839-57c3-42f6-b58b-7d866da00fb5"},"vehicle_type_id":"4","last_reported":1734988094,"current_range_meters":23200,"station_id":"ce4bhrh2rcd13ifvqhug","pricing_plan_id":"cebpf4jnsgd1na2vs0mg"},{"bike_id":"b07e0204-2c57-49d1-a1f7-320de8610e25","system_id":"levelo_inurba_marseille","lat":43.29402,"lon":5.37344,"is_reserved":false,"is_disabled":true,"rental_uris":{"android":"levelo://app?vid=b07e0204-2c57-49d1-a1f7-320de8610e25","ios":"levelo://app?vid=b07e0204-2c57-49d1-a1f7-320de8610e25"},"vehicle_type_id":"4","last_reported":1734988094,"current_range_meters":22400,"station_id":"","pricing_plan_id":"cebpf4jnsgd1na2vs0mg"},{"bike_id":"b8cc7cd3-7ec4-46c2-8a1a-a10433eda7e1","system_id":"levelo_inurba_marseille","lat":43.3091,"lon":5.3685,"is_reserved":false,"is_disabled":false,"rental_uris":{"android":"levelo://app?vid=b8cc7cd3-7ec4-46c2-8a1a-a10433eda7e1","ios":"levelo://app?vid=b8cc7cd3-7ec4-46c2-8a1a-a10433eda7e1"},"vehicle_type_id":"4","last_reported":1734988094,"current_range_meters":32000,"station_id":"ce4bgn92rcd13ifvqbvg","pricing_plan_id":"cebpf4jnsgd1na2vs0mg"},{"bike_id":"f97162d8-ac35-4106-9dab-07f272349842","system_id":"levelo_inurba_marseille","lat":43.25829,"lon":5.39456,"is_reserved":false,"is_disabled":false,"rental_uris":{"android":"levelo://app?vid=f97162d8-ac35-4106-9dab-07f272349842","ios":"levelo://app?vid=f97162d8-ac35-4106-9dab-07f272349842"},"vehicle_type_id":"4","last_reported":1734988094,"current_range_meters":38800,"station_id":"ce4bhip2rcd13ifvqft0","pricing_plan_id":"cebpf4jnsgd1na2vs0mg"},{"bike_id":"a22c6c33-be0d-40b1-b535-b083076c3b73","system_id":"levelo_inurba_marseille","lat":43.29735,"lon":5.37674,"is_reserved":false,"is_disabled":false,"rental_uris":{"android":"levelo://app?vid=a22c6c33-be0d-40b1-b535-b083076c3b73","ios":"levelo://app?vid=a22c6c33-be0d-40b1-b535-b083076c3b73"},"vehicle_type_id":"4","last_reported":1734988094,"current_range_meters":26000,"station_id":"ce4bgkh2rcd13ifvqbl0","pricing_plan_id":"cebpf4jnsgd1na2vs0mg"},{"bike_id":"7befd885-7fc8-4dc1-b970-da31c9e46ce6","system_id":"levelo_inurba_marseille","lat":43.26034,"lon":5.37546,"is_reserved":false,"is_disabled":false,"rental_uris":{"android":"levelo://app?vid=7befd885-7fc8-4dc1-b970-da31c9e46ce6","ios":"levelo://app?vid=7befd885-7fc8-4dc1-b970-da31c9e46ce6"},"vehicle_type_id":"4","last_reported":1734988094,"current_range_meters":30400,"station_id":"ce4bhgh2rcd13ifvqfa0","pricing_plan_id":"cebpf4jnsgd1na2vs0mg"},{"bike_id":"5586d5ae-9d11-4603-819f-6b0fe0972d6d","system_id":"levelo_inurba_marseille","lat":43.29598,"lon":5.37721,"is_reserved":false,"is_disabled":false,"rental_uris":{"android":"levelo://app?vid=5586d5ae-9d11-4603-819f-6b0fe0972d6d","ios":"levelo://app?vid=5586d5ae-9d11-4603-819f-6b0fe0972d6d"},"vehicle_type_id":"4","last_reported":1734988094,"current_range_meters":33200,"station_id":"ce4bgi92rcd13ifvqb90","pricing_plan_id":"cebpf4jnsgd1na2vs0mg"},{"bike_id":"f3fe0314-8e40-4845-abe1-4c14c28f0999","system_id":"levelo_inurba_marseille","lat":43.29264,"lon":5.40904,"is_reserved":false,"is_disabled":false,"rental_uris":{"android":"levelo://app?vid=f3fe0314-8e40-4845-abe1-4c14c28f0999","ios":"levelo://app?vid=f3fe0314-8e40-4845-abe1-4c14c28f0999"},"vehicle_type_id":"4","last_reported":1734988094,"current_range_meters":39200,"station_id":"ce4bh192rcd13ifvqdc0","pricing_plan_id":"cebpf4jnsgd1na2vs0mg"},{"bike_id":"bd04cbb4-2402-4a18-87e1-831b8038bca8","system_id":"levelo_inurba_marseille","lat":43.30138,"lon":5.37417,"is_reserved":false,"is_disabled":false,"rental_uris":{"android":"levelo://app?vid=bd04cbb4-2402-4a18-87e1-831b8038bca8","ios":"levelo://app?vid=bd04cbb4-2402-4a18-87e1-831b8038bca8"},"vehicle_type_id":"4","last_reported":1734988094,"current_range_meters":32400,"station_id":"ce4bgs92rcd13ifvqcc0","pricing_plan_id":"cebpf4jnsgd1na2vs0mg"},{"bike_id":"a52b6a95-03b2-4a39-91a2-596fa5130c55","system_id":"levelo_inurba_marseille","lat":43.26935,"lon":5.38912,"is_reserved":false,"is_disabled":false,"rental_uris":{"android":"levelo://app?vid=a52b6a95-03b2-4a39-91a2-596fa5130c55","ios":"levelo://app?vid=a52b6a95-03b2-4a39-91a2-596fa5130c55"},"vehicle_type_id":"4","last_reported":1734988094,"current_range_meters":39200,"station_id":"ce4bhhh2rcd13ifvqfl0","pricing_plan_id":"cebpf4jnsgd1na2vs0mg"},{"bike_id":"47553130-a675-447c-a7a9-1a37879694db","system_id":"levelo_inurba_marseille","lat":43.30296,"lon":5.39218,"is_reserved":false,"is_disabled":false,"rental_uris":{"android":"levelo://app?vid=47553130-a675-447c-a7a9-1a37879694db","ios":"levelo://app?vid=47553130-a675-447c-a7a9-1a37879694db"},"vehicle_type_id":"4","last_reported":1734988094,"current_range_meters":28800,"station_id":"ce4bgkh2rcd13ifvqbk0","pricing_plan_id":"cebpf4jnsgd1na2vs0mg"},{"bike_id":"5eab5fd0-471d-45fb-8155-031855e25edc","system_id":"levelo_inurba_marseille","lat":43.29581,"lon":5.36736,"is_reserved":false,"is_disabled":false,"rental_uris":{"android":"levelo://app?vid=5eab5fd0-471d-45fb-8155-031855e25edc","ios":"levelo://app?vid=5eab5fd0-471d-45fb-8155-031855e25edc"},"vehicle_type_id":"4","last_reported":1734988094,"current_range_meters":38800,"station_id":"ce4bgph2rcd13ifvqc2g","pricing_plan_id":"cebpf4jnsgd1na2vs0mg"},{"bike_id":"0f9f1654-63fd-4b65-a8fb-a5beee04226f","system_id":"levelo_inurba_marseille","lat":43.29621,"lon":5.37154,"is_reserved":false,"is_disabled":false,"rental_uris":{"android":"levelo://app?vid=0f9f1654-63fd-4b65-a8fb-a5beee04226f","ios":"levelo://app?vid=0f9f1654-63fd-4b65-a8fb-a5beee04226f"},"vehicle_type_id":"4","last_reported":1734988094,"current_range_meters":38800,"station_id":"ce4bgnh2rcd13ifvqc0g","pricing_plan_id":"cebpf4jnsgd1na2vs0mg"},{"bike_id":"db4eb3f1-a618-4c48-a0e8-20afbaef5fd1","system_id":"levelo_inurba_marseille","lat":43.30914,"lon":5.36845,"is_reserved":false,"is_disabled":false,"rental_uris":{"android":"levelo://app?vid=db4eb3f1-a618-4c48-a0e8-20afbaef5fd1","ios":"levelo://app?vid=db4eb3f1-a618-4c48-a0e8-20afbaef5fd1"},"vehicle_type_id":"4","last_reported":1734988094,"current_range_meters":20800,"station_id":"ce4bgn92rcd13ifvqbvg","pricing_plan_id":"cebpf4jnsgd1na2vs0mg"},{"bike_id":"9e318394-f763-49f8-913e-df55ebc1e1e4","system_id":"levelo_inurba_marseille","lat":43.28423,"lon":5.35002,"is_reserved":false,"is_disabled":false,"rental_uris":{"android":"levelo://app?vid=9e318394-f763-49f8-913e-df55ebc1e1e4","ios":"levelo://app?vid=9e318394-f763-49f8-913e-df55ebc1e1e4"},"vehicle_type_id":"4","last_reported":1734988094,"current_range_meters":14400,"station_id":"ce4bhbh2rcd13ifvqepg","pricing_plan_id":"cebpf4jnsgd1na2vs0mg"},{"bike_id":"134f27d3-43ec-49d1-8f23-8a0ad1f5ee6c","system_id":"levelo_inurba_marseille","lat":43.32467,"lon":5.36528,"is_reserved":false,"is_disabled":false,"rental_uris":{"android":"levelo://app?vid=134f27d3-43ec-49d1-8f23-8a0ad1f5ee6c","ios":"levelo://app?vid=134f27d3-43ec-49d1-8f23-8a0ad1f5ee6c"},"vehicle_type_id":"4","last_reported":1734988094,"current_range_meters":28400,"station_id":"ce4bhs12rcd13ifvqhvg","pricing_plan_id":"cebpf4jnsgd1na2vs0mg"},{"bike_id":"adff23e0-79c3-4b85-b9f7-83eb59a4c169","system_id":"levelo_inurba_marseille","lat":43.30215,"lon":5.39461,"is_reserved":false,"is_disabled":false,"rental_uris":{"android":"levelo://app?vid=adff23e0-79c3-4b85-b9f7-83eb59a4c169","ios":"levelo://app?vid=adff23e0-79c3-4b85-b9f7-83eb59a4c169"},"vehicle_type_id":"4","last_reported":1734988094,"current_range_meters":36800,"station_id":"ce4bh0p2rcd13ifvqd70","pricing_plan_id":"cebpf4jnsgd1na2vs0mg"},{"bike_id":"af066aef-491f-4dfd-a92b-3d7fd222e99d","system_id":"levelo_inurba_marseille","lat":43.28105,"lon":5.37842,"is_reserved":false,"is_disabled":false,"rental_uris":{"android":"levelo://app?vid=af066aef-491f-4dfd-a92b-3d7fd222e99d","ios":"levelo://app?vid=af066aef-491f-4dfd-a92b-3d7fd222e99d"},"vehicle_type_id":"4","last_reported":1734988094,"current_range_meters":14800,"station_id":"ce4bha12rcd13ifvqee0","pricing_plan_id":"cebpf4jnsgd1na2vs0mg"},{"bike_id":"656324e5-3737-41fd-9508-156d10479bbf","system_id":"levelo_inurba_marseille","lat":43.30139,"lon":5.3877,"is_reserved":false,"is_disabled":false,"rental_uris":{"android":"levelo://app?vid=656324e5-3737-41fd-9508-156d10479bbf","ios":"levelo://app?vid=656324e5-3737-41fd-9508-156d10479bbf"},"vehicle_type_id":"4","last_reported":1734988094,"current_range_meters":37600,"station_id":"ce4bhoh2rcd13ifvqh6g","pricing_plan_id":"cebpf4jnsgd1na2vs0mg"},{"bike_id":"4094ac40-fe97-4483-91f4-bc4b6a97b4f3","system_id":"levelo_inurba_marseille","lat":43.25827,"lon":5.39416,"is_reserved":false,"is_disabled":true,"rental_uris":{"android":"levelo://app?vid=4094ac40-fe97-4483-91f4-bc4b6a97b4f3","ios":"levelo://app?vid=4094ac40-fe97-4483-91f4-bc4b6a97b4f3"},"vehicle_type_id":"4","last_reported":1734988094,"current_range_meters":0,"station_id":"ce4bhip2rcd13ifvqft0","pricing_plan_id":"cebpf4jnsgd1na2vs0mg"},{"bike_id":"717e0ade-0584-41f5-be38-508234eb6b2b","system_id":"levelo_inurba_marseille","lat":43.27423,"lon":5.39413,"is_reserved":false,"is_disabled":false,"rental_uris":{"android":"levelo://app?vid=717e0ade-0584-41f5-be38-508234eb6b2b","ios":"levelo://app?vid=717e0ade-0584-41f5-be38-508234eb6b2b"},"vehicle_type_id":"4","last_reported":1734988094,"current_range_meters":38400,"station_id":"ce4bhdp2rcd13ifvqf20","pricing_plan_id":"cebpf4jnsgd1na2vs0mg"},{"bike_id":"c7ff7852-d6c3-4d39-a37b-399e8a898ab1","system_id":"levelo_inurba_marseille","lat":43.29004,"lon":5.3561,"is_reserved":false,"is_disabled":false,"rental_uris":{"android":"levelo://app?vid=c7ff7852-d6c3-4d39-a37b-399e8a898ab1","ios":"levelo://app?vid=c7ff7852-d6c3-4d39-a37b-399e8a898ab1"},"vehicle_type_id":"4","last_reported":1734988094,"current_range_meters":32000,"station_id":"ce4bhb92rcd13ifvqen0","pricing_plan_id":"cebpf4jnsgd1na2vs0mg"},{"bike_id":"e05bf4ea-d74d-49ed-a7dc-94fa3a3cc350","system_id":"levelo_inurba_marseille","lat":43.32362,"lon":5.36755,"is_reserved":false,"is_disabled":false,"rental_uris":{"android":"levelo://app?vid=e05bf4ea-d74d-49ed-a7dc-94fa3a3cc350","ios":"levelo://app?vid=e05bf4ea-d74d-49ed-a7dc-94fa3a3cc350"},"vehicle_type_id":"4","last_reported":1734988094,"current_range_meters":11200,"station_id":"ce4bhsh2rcd13ifvqi2g","pricing_plan_id":"cebpf4jnsgd1na2vs0mg"},{"bike_id":"eba24a4d-a9c4-484e-b70f-439fb80e80b4","system_id":"levelo_inurba_marseille","lat":43.30593,"lon":5.39369,"is_reserved":false,"is_disabled":false,"rental_uris":{"android":"levelo://app?vid=eba24a4d-a9c4-484e-b70f-439fb80e80b4","ios":"levelo://app?vid=eba24a4d-a9c4-484e-b70f-439fb80e80b4"},"vehicle_type_id":"4","last_reported":1734988094,"current_range_meters":34000,"station_id":"ce4bh0p2rcd13ifvqd80","pricing_plan_id":"cebpf4jnsgd1na2vs0mg"},{"bike_id":"cdfc9c47-d2f0-4ded-bbe3-e1880f64dac7","system_id":"levelo_inurba_marseille","lat":43.30648,"lon":5.40074,"is_reserved":false,"is_disabled":false,"rental_uris":{"android":"levelo://app?vid=cdfc9c47-d2f0-4ded-bbe3-e1880f64dac7","ios":"levelo://app?vid=cdfc9c47-d2f0-4ded-bbe3-e1880f64dac7"},"vehicle_type_id":"4","last_reported":1734988094,"current_range_meters":38800,"station_id":"ce4bh112rcd13ifvqda0","pricing_plan_id":"cebpf4jnsgd1na2vs0mg"},{"bike_id":"d591ed7e-f6b1-4c2a-99af-0fb96c801503","system_id":"levelo_inurba_marseille","lat":43.28479,"lon":5.38421,"is_reserved":false,"is_disabled":true,"rental_uris":{"android":"levelo://app?vid=d591ed7e-f6b1-4c2a-99af-0fb96c801503","ios":"levelo://app?vid=d591ed7e-f6b1-4c2a-99af-0fb96c801503"},"vehicle_type_id":"4","last_reported":1734988094,"current_range_meters":23200,"station_id":"ce4bh512rcd13ifvqe3g","pricing_plan_id":"cebpf4jnsgd1na2vs0mg"},{"bike_id":"32ebf098-e002-4aa6-88f7-5b365ee05e11","system_id":"levelo_inurba_marseille","lat":43.24085,"lon":5.37745,"is_reserved":false,"is_disabled":true,"rental_uris":{"android":"levelo://app?vid=32ebf098-e002-4aa6-88f7-5b365ee05e11","ios":"levelo://app?vid=32ebf098-e002-4aa6-88f7-5b365ee05e11"},"vehicle_type_id":"4","last_reported":1734988094,"current_range_meters":0,"station_id":"ce4bhnp2rcd13ifvqgvg","pricing_plan_id":"cebpf4jnsgd1na2vs0mg"},{"bike_id":"4ee93c92-9880-47ce-bc8f-1615912a69b9","system_id":"levelo_inurba_marseille","lat":43.32339,"lon":5.40622,"is_reserved":false,"is_disabled":false,"rental_uris":{"android":"levelo://app?vid=4ee93c92-9880-47ce-bc8f-1615912a69b9","ios":"levelo://app?vid=4ee93c92-9880-47ce-bc8f-1615912a69b9"},"vehicle_type_id":"4","last_reported":1734988094,"current_range_meters":38800,"station_id":"ce4bhq92rcd13ifvqhjg","pricing_plan_id":"cebpf4jnsgd1na2vs0mg"},{"bike_id":"842888b9-0281-4137-8179-95fdfc851120","system_id":"levelo_inurba_marseille","lat":43.26945,"lon":5.40238,"is_reserved":false,"is_disabled":false,"rental_uris":{"android":"levelo://app?vid=842888b9-0281-4137-8179-95fdfc851120","ios":"levelo://app?vid=842888b9-0281-4137-8179-95fdfc851120"},"vehicle_type_id":"4","last_reported":1734988094,"current_range_meters":38800,"station_id":"cjm6bp8fraef2m0cb0m0","pricing_plan_id":"cebpf4jnsgd1na2vs0mg"},{"bike_id":"5af0d384-9a68-4517-82f0-e39af1ff8381","system_id":"levelo_inurba_marseille","lat":43.29789,"lon":5.39339,"is_reserved":false,"is_disabled":false,"rental_uris":{"android":"levelo://app?vid=5af0d384-9a68-4517-82f0-e39af1ff8381","ios":"levelo://app?vid=5af0d384-9a68-4517-82f0-e39af1ff8381"},"vehicle_type_id":"4","last_reported":1734988094,"current_range_meters":38800,"station_id":"chh1huq6cuj3fo74tm60","pricing_plan_id":"cebpf4jnsgd1na2vs0mg"},{"bike_id":"00f4c10a-164f-4cd6-9e41-11f80b9dea09","system_id":"levelo_inurba_marseille","lat":43.29197,"lon":5.39311,"is_reserved":false,"is_disabled":false,"rental_uris":{"android":"levelo://app?vid=00f4c10a-164f-4cd6-9e41-11f80b9dea09","ios":"levelo://app?vid=00f4c10a-164f-4cd6-9e41-11f80b9dea09"},"vehicle_type_id":"4","last_reported":1734988094,"current_range_meters":33600,"station_id":"ce4bh192rcd13ifvqdd0","pricing_plan_id":"cebpf4jnsgd1na2vs0mg"},{"bike_id":"85b80f61-13a5-4a12-a381-352d1429d14e","system_id":"levelo_inurba_marseille","lat":43.30147,"lon":5.38087,"is_reserved":false,"is_disabled":false,"rental_uris":{"android":"levelo://app?vid=85b80f61-13a5-4a12-a381-352d1429d14e","ios":"levelo://app?vid=85b80f61-13a5-4a12-a381-352d1429d14e"},"vehicle_type_id":"4","last_reported":1734988094,"current_range_meters":33200,"station_id":"ce4bgjp2rcd13ifvqbh0","pricing_plan_id":"cebpf4jnsgd1na2vs0mg"},{"bike_id":"ba623d7f-de4d-43e6-9a39-be19938e75fb","system_id":"levelo_inurba_marseille","lat":43.29369,"lon":5.37856,"is_reserved":false,"is_disabled":true,"rental_uris":{"android":"levelo://app?vid=ba623d7f-de4d-43e6-9a39-be19938e75fb","ios":"levelo://app?vid=ba623d7f-de4d-43e6-9a39-be19938e75fb"},"vehicle_type_id":"4","last_reported":1734988094,"current_range_meters":30800,"station_id":"","pricing_plan_id":"cebpf4jnsgd1na2vs0mg"},{"bike_id":"af7a8365-0aa8-48c2-85e3-e0dcc429b742","system_id":"levelo_inurba_marseille","lat":43.24553,"lon":5.39518,"is_reserved":false,"is_disabled":false,"rental_uris":{"android":"levelo://app?vid=af7a8365-0aa8-48c2-85e3-e0dcc429b742","ios":"levelo://app?vid=af7a8365-0aa8-48c2-85e3-e0dcc429b742"},"vehicle_type_id":"4","last_reported":1734988094,"current_range_meters":36400,"station_id":"ce4bhlp2rcd13ifvqgjg","pricing_plan_id":"cebpf4jnsgd1na2vs0mg"},{"bike_id":"50f17fe2-477a-4189-8008-39c21f61550e","system_id":"levelo_inurba_marseille","lat":43.3014,"lon":5.38784,"is_reserved":false,"is_disabled":false,"rental_uris":{"android":"levelo://app?vid=50f17fe2-477a-4189-8008-39c21f61550e","ios":"levelo://app?vid=50f17fe2-477a-4189-8008-39c21f61550e"},"vehicle_type_id":"4","last_reported":1734988094,"current_range_meters":39200,"station_id":"ce4bghh2rcd13ifvqb60","pricing_plan_id":"cebpf4jnsgd1na2vs0mg"},{"bike_id":"ff8d8fb1-9248-4ca9-a2f0-eef0ce001369","system_id":"levelo_inurba_marseille","lat":43.30144,"lon":5.38789,"is_reserved":false,"is_disabled":false,"rental_uris":{"android":"levelo://app?vid=ff8d8fb1-9248-4ca9-a2f0-eef0ce001369","ios":"levelo://app?vid=ff8d8fb1-9248-4ca9-a2f0-eef0ce001369"},"vehicle_type_id":"4","last_reported":1734988094,"current_range_meters":35600,"station_id":"ce4bhoh2rcd13ifvqh6g","pricing_plan_id":"cebpf4jnsgd1na2vs0mg"},{"bike_id":"36f06fa4-dbaf-4c6e-822c-51f0f8fb2bfa","system_id":"levelo_inurba_marseille","lat":43.30544,"lon":5.36708,"is_reserved":false,"is_disabled":false,"rental_uris":{"android":"levelo://app?vid=36f06fa4-dbaf-4c6e-822c-51f0f8fb2bfa","ios":"levelo://app?vid=36f06fa4-dbaf-4c6e-822c-51f0f8fb2bfa"},"vehicle_type_id":"4","last_reported":1734988094,"current_range_meters":38400,"station_id":"ce4bgrp2rcd13ifvqc9g","pricing_plan_id":"cebpf4jnsgd1na2vs0mg"},{"bike_id":"43acd082-bc23-4761-b45a-ec0922561ed0","system_id":"levelo_inurba_marseille","lat":43.29257,"lon":5.40905,"is_reserved":false,"is_disabled":false,"rental_uris":{"android":"levelo://app?vid=43acd082-bc23-4761-b45a-ec0922561ed0","ios":"levelo://app?vid=43acd082-bc23-4761-b45a-ec0922561ed0"},"vehicle_type_id":"4","last_reported":1734988094,"current_range_meters":26000,"station_id":"ce4bh192rcd13ifvqdc0","pricing_plan_id":"cebpf4jnsgd1na2vs0mg"},{"bike_id":"feaff7ea-9012-4e28-a181-e7ef187f9c66","system_id":"levelo_inurba_marseille","lat":43.28478,"lon":5.38435,"is_reserved":false,"is_disabled":true,"rental_uris":{"android":"levelo://app?vid=feaff7ea-9012-4e28-a181-e7ef187f9c66","ios":"levelo://app?vid=feaff7ea-9012-4e28-a181-e7ef187f9c66"},"vehicle_type_id":"4","last_reported":1734988094,"current_range_meters":38800,"station_id":"ce4bh512rcd13ifvqe3g","pricing_plan_id":"cebpf4jnsgd1na2vs0mg"},{"bike_id":"f8448348-5574-4b47-abf3-6a6fdc140e6b","system_id":"levelo_inurba_marseille","lat":43.26037,"lon":5.3755,"is_reserved":false,"is_disabled":false,"rental_uris":{"android":"levelo://app?vid=f8448348-5574-4b47-abf3-6a6fdc140e6b","ios":"levelo://app?vid=f8448348-5574-4b47-abf3-6a6fdc140e6b"},"vehicle_type_id":"4","last_reported":1734988094,"current_range_meters":38800,"station_id":"ce4bhgh2rcd13ifvqfa0","pricing_plan_id":"cebpf4jnsgd1na2vs0mg"},{"bike_id":"864c8c07-623f-46e0-a84e-8c24a90096f0","system_id":"levelo_inurba_marseille","lat":43.30602,"lon":5.36475,"is_reserved":false,"is_disabled":false,"rental_uris":{"android":"levelo://app?vid=864c8c07-623f-46e0-a84e-8c24a90096f0","ios":"levelo://app?vid=864c8c07-623f-46e0-a84e-8c24a90096f0"},"vehicle_type_id":"4","last_reported":1734988094,"current_range_meters":28000,"station_id":"ce4bgs12rcd13ifvqcag","pricing_plan_id":"cebpf4jnsgd1na2vs0mg"},{"bike_id":"b39883aa-395d-4d08-9cc6-4d670bc95440","system_id":"levelo_inurba_marseille","lat":43.32364,"lon":5.38882,"is_reserved":false,"is_disabled":false,"rental_uris":{"android":"levelo://app?vid=b39883aa-395d-4d08-9cc6-4d670bc95440","ios":"levelo://app?vid=b39883aa-395d-4d08-9cc6-4d670bc95440"},"vehicle_type_id":"4","last_reported":1734988094,"current_range_meters":27600,"station_id":"ce4bhqp2rcd13ifvqhog","pricing_plan_id":"cebpf4jnsgd1na2vs0mg"},{"bike_id":"d34e2855-ab7a-45da-868c-3c8a5ee14d3c","system_id":"levelo_inurba_marseille","lat":43.27967,"lon":5.38761,"is_reserved":false,"is_disabled":false,"rental_uris":{"android":"levelo://app?vid=d34e2855-ab7a-45da-868c-3c8a5ee14d3c","ios":"levelo://app?vid=d34e2855-ab7a-45da-868c-3c8a5ee14d3c"},"vehicle_type_id":"4","last_reported":1734988094,"current_range_meters":38000,"station_id":"ce4bhg12rcd13ifvqf80","pricing_plan_id":"cebpf4jnsgd1na2vs0mg"},{"bike_id":"9333fb60-bc09-462a-931a-9a6010ca0e15","system_id":"levelo_inurba_marseille","lat":43.27902,"lon":5.3801,"is_reserved":false,"is_disabled":false,"rental_uris":{"android":"levelo://app?vid=9333fb60-bc09-462a-931a-9a6010ca0e15","ios":"levelo://app?vid=9333fb60-bc09-462a-931a-9a6010ca0e15"},"vehicle_type_id":"4","last_reported":1734988094,"current_range_meters":38800,"station_id":"ce4bhf92rcd13ifvqf50","pricing_plan_id":"cebpf4jnsgd1na2vs0mg"},{"bike_id":"bd5c44c7-47b4-49bb-b83d-2354ade11583","system_id":"levelo_inurba_marseille","lat":43.25122,"lon":5.40317,"is_reserved":false,"is_disabled":false,"rental_uris":{"android":"levelo://app?vid=bd5c44c7-47b4-49bb-b83d-2354ade11583","ios":"levelo://app?vid=bd5c44c7-47b4-49bb-b83d-2354ade11583"},"vehicle_type_id":"4","last_reported":1734988094,"current_range_meters":38800,"station_id":"ce4bhlh2rcd13ifvqgig","pricing_plan_id":"cebpf4jnsgd1na2vs0mg"},{"bike_id":"ea807f8d-7062-425e-9f2f-32ec64619a49","system_id":"levelo_inurba_marseille","lat":43.29199,"lon":5.39327,"is_reserved":false,"is_disabled":false,"rental_uris":{"android":"levelo://app?vid=ea807f8d-7062-425e-9f2f-32ec64619a49","ios":"levelo://app?vid=ea807f8d-7062-425e-9f2f-32ec64619a49"},"vehicle_type_id":"4","last_reported":1734988094,"current_range_meters":21600,"station_id":"ce4bh192rcd13ifvqdd0","pricing_plan_id":"cebpf4jnsgd1na2vs0mg"},{"bike_id":"3399abc2-d911-4fce-bece-6f8024b14fdc","system_id":"levelo_inurba_marseille","lat":43.2784,"lon":5.392,"is_reserved":false,"is_disabled":true,"rental_uris":{"android":"levelo://app?vid=3399abc2-d911-4fce-bece-6f8024b14fdc","ios":"levelo://app?vid=3399abc2-d911-4fce-bece-6f8024b14fdc"},"vehicle_type_id":"4","last_reported":1734988094,"current_range_meters":2000,"station_id":"ce4bhjp2rcd13ifvqga0","pricing_plan_id":"cebpf4jnsgd1na2vs0mg"},{"bike_id":"d37c52a6-1787-4d06-a3a4-b3e1756aba73","system_id":"levelo_inurba_marseille","lat":43.33606,"lon":5.41027,"is_reserved":false,"is_disabled":false,"rental_uris":{"android":"levelo://app?vid=d37c52a6-1787-4d06-a3a4-b3e1756aba73","ios":"levelo://app?vid=d37c52a6-1787-4d06-a3a4-b3e1756aba73"},"vehicle_type_id":"4","last_reported":1734988094,"current_range_meters":39200,"station_id":"ce4bhqh2rcd13ifvqhmg","pricing_plan_id":"cebpf4jnsgd1na2vs0mg"},{"bike_id":"2a7394ab-8cbf-4ccf-82bf-da437f43e48e","system_id":"levelo_inurba_marseille","lat":43.31177,"lon":5.38698,"is_reserved":false,"is_disabled":false,"rental_uris":{"android":"levelo://app?vid=2a7394ab-8cbf-4ccf-82bf-da437f43e48e","ios":"levelo://app?vid=2a7394ab-8cbf-4ccf-82bf-da437f43e48e"},"vehicle_type_id":"4","last_reported":1734988094,"current_range_meters":16000,"station_id":"ce4bgv12rcd13ifvqcp0","pricing_plan_id":"cebpf4jnsgd1na2vs0mg"},{"bike_id":"3d62239e-0fa0-4bda-a8bb-c00dc1e716e9","system_id":"levelo_inurba_marseille","lat":43.29709,"lon":5.36626,"is_reserved":false,"is_disabled":false,"rental_uris":{"android":"levelo://app?vid=3d62239e-0fa0-4bda-a8bb-c00dc1e716e9","ios":"levelo://app?vid=3d62239e-0fa0-4bda-a8bb-c00dc1e716e9"},