{"last_updated":1686935152,"ttl":30,"version":"2.2","data":{"bikes":[{"bike_id":"874fa76c-8fb9-4c50-ac1c-8b616042ad6b","system_id":"levelo_inurba_marseille","lat":43.31225,"lon":5.36867,"is_reserved":false,"is_disabled":false,"rental_uris":{"android":"levelo://app?vid=874fa76c-8fb9-4c50-ac1c-8b616042ad6b","ios":"levelo://app?vid=874fa76c-8fb9-4c50-ac1c-8b616042ad6b"},"vehicle_type_id":"4","last_reported":1686935153,"current_range_meters":2800,"station_id":"ce4bgl92rcd13ifvqbq0","pricing_plan_id":"free"},{"bike_id":"35749d86-3d39-4e2f-93be-ee2eb3f18c42","system_id":"levelo_inurba_marseille","lat":43.30911,"lon":5.36845,"is_reserved":false,"is_disabled":false,"rental_uris":{"android":"levelo://app?vid=35749d86-3d39-4e2f-93be-ee2eb3f18c42","ios":"levelo://app?vid=35749d86-3d39-4e2f-93be-ee2eb3f18c42"},"vehicle_type_id":"4","last_reported":1686935153,"current_range_meters":0,"station_id":"ce4bgn92rcd13ifvqbvg","pricing_plan_id":"free"},{"bike_id":"bd33f2d1-ab9a-4d38-aeee-5debabcaf505","system_id":"levelo_inurba_marseille","lat":43.308606,"lon":5.372099,"is_reserved":false,"is_disabled":false,"rental_uris":{"android":"levelo://app?vid=bd33f2d1-ab9a-4d38-aeee-5debabcaf505","ios":"levelo://app?vid=bd33f2d1-ab9a-4d38-aeee-5debabcaf505"},"vehicle_type_id":"4","last_reported":1686935153,"current_range_meters":800,"station_id":"ce4bguh2rcd13ifvqckg","pricing_plan_id":"free"},{"bike_id":"503ed54e-b177-4e19-a6f9-36e5f1d490c0","system_id":"levelo_inurba_marseille","lat":43.305368,"lon":5.367343,"is_reserved":false,"is_disabled":false,"rental_uris":{"android":"levelo://app?vid=503ed54e-b177-4e19-a6f9-36e5f1d490c0","ios":"levelo://app?vid=503ed54e-b177-4e19-a6f9-36e5f1d490c0"},"vehicle_type_id":"4","last_reported":1686935153,"current_range_meters":15600,"station_id":"ce4bgrp2rcd13ifvqc9g","pricing_plan_id":"free"},{"bike_id":"c77c7f17-1602-4dc7-ab2a-e7ddd2c8794a","system_id":"levelo_inurba_marseille","lat":43.305706,"lon":5.365654,"is_reserved":false,"is_disabled":false,"rental_uris":{"android":"levelo://app?vid=c77c7f17-1602-4dc7-ab2a-e7ddd2c8794a","ios":"levelo://app?vid=c77c7f17-1602-4dc7-ab2a-e7ddd2c8794a"},"vehicle_type_id":"4","last_reported":1686935153,"current_range_meters":6000,"station_id":"ce4bgs12rcd13ifvqcag","pricing_plan_id":"free"},{"bike_id":"9bba5f9e-0c30-491a-929f-8e2c9be29ae4","system_id":"levelo_inurba_marseille","lat":43.305989,"lon":5.37225,"is_reserved":false,"is_disabled":false,"rental_uris":{"android":"levelo://app?vid=9bba5f9e-0c30-491a-929f-8e2c9be29ae4","ios":"levelo://app?vid=9bba5f9e-0c30-491a-929f-8e2c9be29ae4"},"vehicle_type_id":"4","last_reported":1686935153,"current_range_meters":4800,"station_id":"ce4bgqh2rcd13ifvqc4g","pricing_plan_id":"free"},{"bike_id":"9a34fddd-4f5c-491a-a753-6174af811711","system_id":"levelo_inurba_marseille","lat":43.305989,"lon":5.37225,"is_reserved":false,"is_disabled":false,"rental_uris":{"android":"levelo://app?vid=9a34fddd-4f5c-491a-a753-6174af811711","ios":"levelo://app?vid=9a34fddd-4f5c-491a-a753-6174af811711"},"vehicle_type_id":"4","last_reported":1686935153,"current_range_meters":18800,"station_id":"ce4bgqh2rcd13ifvqc4g","pricing_plan_id":"free"},{"bike_id":"7a53aca7-347f-44cc-848d-c72124d8d211","system_id":"levelo_inurba_marseille","lat":43.317075,"lon":5.377367,"is_reserved":false,"is_disabled":false,"rental_uris":{"android":"levelo://app?vid=7a53aca7-347f-44cc-848d-c72124d8d211","ios":"levelo://app?vid=7a53aca7-347f-44cc-848d-c72124d8d211"},"vehicle_type_id":"4","last_reported":1686935153,"current_range_meters":27200,"station_id":"ce4bgth2rcd13ifvqch0","pricing_plan_id":"free"},{"bike_id":"156d0da5-aaf7-4bd0-bb9e-79dc41a2d471","system_id":"levelo_inurba_marseille","lat":43.31709,"lon":5.37758,"is_reserved":false,"is_disabled":false,"rental_uris":{"android":"levelo://app?vid=156d0da5-aaf7-4bd0-bb9e-79dc41a2d471","ios":"levelo://app?vid=156d0da5-aaf7-4bd0-bb9e-79dc41a2d471"},"vehicle_type_id":"4","last_reported":1686935153,"current_range_meters":22800,"station_id":"ce4bgth2rcd13ifvqch0","pricing_plan_id":"free"},{"bike_id":"2424216c-0462-4ad0-b127-d0366c91b61c","system_id":"levelo_inurba_marseille","lat":43.3171,"lon":5.37762,"is_reserved":false,"is_disabled":false,"rental_uris":{"android":"levelo://app?vid=2424216c-0462-4ad0-b127-d0366c91b61c","ios":"levelo://app?vid=2424216c-0462-4ad0-b127-d0366c91b61c"},"vehicle_type_id":"4","last_reported":1686935153,"current_range_meters":29600,"station_id":"ce4bgth2rcd13ifvqch0","pricing_plan_id":"free"},{"bike_id":"9f56f170-facd-4077-b271-bd319c9f7da5","system_id":"levelo_inurba_marseille","lat":43.315289,"lon":5.380349,"is_reserved":false,"is_disabled":false,"rental_uris":{"android":"levelo://app?vid=9f56f170-facd-4077-b271-bd319c9f7da5","ios":"levelo://app?vid=9f56f170-facd-4077-b271-bd319c9f7da5"},"vehicle_type_id":"4","last_reported":1686935153,"current_range_meters":18400,"station_id":"ce4bhsp2rcd13ifvqi50","pricing_plan_id":"free"},{"bike_id":"ae33307b-fcd5-479b-9ae1-9002ed226c6e","system_id":"levelo_inurba_marseille","lat":43.308012,"lon":5.381511,"is_reserved":false,"is_disabled":false,"rental_uris":{"android":"levelo://app?vid=ae33307b-fcd5-479b-9ae1-9002ed226c6e","ios":"levelo://app?vid=ae33307b-fcd5-479b-9ae1-9002ed226c6e"},"vehicle_type_id":"4","last_reported":1686935153,"current_range_meters":14400,"station_id":"ce4bgt12rcd13ifvqce0","pricing_plan_id":"free"},{"bike_id":"fc4a69da-5dee-4c68-8631-20ee11bc487b","system_id":"levelo_inurba_marseille","lat":43.304606,"lon":5.379026,"is_reserved":false,"is_disabled":false,"rental_uris":{"android":"levelo://app?vid=fc4a69da-5dee-4c68-8631-20ee11bc487b","ios":"levelo://app?vid=fc4a69da-5dee-4c68-8631-20ee11bc487b"},"vehicle_type_id":"4","last_reported":1686935153,"current_range_meters":30400,"station_id":"ce4bgup2rcd13ifvqcn0","pricing_plan_id":"free"},{"bike_id":"32827146-2d6b-4fb1-b00e-6b2f535ca544","system_id":"levelo_inurba_marseille","lat":43.30489,"lon":5.37936,"is_reserved":false,"is_disabled":false,"rental_uris":{"android":"levelo://app?vid=32827146-2d6b-4fb1-b00e-6b2f535ca544","ios":"levelo://app?vid=32827146-2d6b-4fb1-b00e-6b2f535ca544"},"vehicle_type_id":"4","last_reported":1686935153,"current_range_meters":31200,"station_id":"","pricing_plan_id":"free"},{"bike_id":"43fc693e-f2a9-4aec-8fd9-d094bb02cb70","system_id":"levelo_inurba_marseille","lat":43.304606,"lon":5.379026,"is_reserved":false,"is_disabled":false,"rental_uris":{"android":"levelo://app?vid=43fc693e-f2a9-4aec-8fd9-d094bb02cb70","ios":"levelo://app?vid=43fc693e-f2a9-4aec-8fd9-d094bb02cb70"},"vehicle_type_id":"4","last_reported":1686935153,"current_range_meters":24400,"station_id":"ce4bgup2rcd13ifvqcn0","pricing_plan_id":"free"},{"bike_id":"cad03dfb-1b3c-4f48-8a44-b48d306aba3d","system_id":"levelo_inurba_marseille","lat":43.319935,"lon":5.381699,"is_reserved":false,"is_disabled":false,"rental_uris":{"android":"levelo://app?vid=cad03dfb-1b3c-4f48-8a44-b48d306aba3d","ios":"levelo://app?vid=cad03dfb-1b3c-4f48-8a44-b48d306aba3d"},"vehicle_type_id":"4","last_reported":1686935153,"current_range_meters":19600,"station_id":"ce4bhr12rcd13ifvqhpg","pricing_plan_id":"free"},{"bike_id":"2364d6e4-265b-4f5a-a82d-ed92b0593be1","system_id":"levelo_inurba_marseille","lat":43.299222,"lon":5.365554,"is_reserved":false,"is_disabled":false,"rental_uris":{"android":"levelo://app?vid=2364d6e4-265b-4f5a-a82d-ed92b0593be1","ios":"levelo://app?vid=2364d6e4-265b-4f5a-a82d-ed92b0593be1"},"vehicle_type_id":"4","last_reported":1686935153,"current_range_meters":0,"station_id":"ce4bgm92rcd13ifvqbr0","pricing_plan_id":"free"},{"bike_id":"d0e18fba-38f9-4807-9b99-5fab42216918","system_id":"levelo_inurba_marseille","lat":43.299222,"lon":5.365554,"is_reserved":false,"is_disabled":false,"rental_uris":{"android":"levelo://app?vid=d0e18fba-38f9-4807-9b99-5fab42216918","ios":"levelo://app?vid=d0e18fba-38f9-4807-9b99-5fab42216918"},"vehicle_type_id":"4","last_reported":1686935153,"current_range_meters":2800,"station_id":"ce4bgm92rcd13ifvqbr0","pricing_plan_id":"free"},{"bike_id":"330412da-b9eb-49fa-9ba0-9288ee9ddd31","system_id":"levelo_inurba_marseille","lat":43.30048,"lon":5.37514,"is_reserved":false,"is_disabled":false,"rental_uris":{"android":"levelo://app?vid=330412da-b9eb-49fa-9ba0-9288ee9ddd31","ios":"levelo://app?vid=330412da-b9eb-49fa-9ba0-9288ee9ddd31"},"vehicle_type_id":"4","last_reported":1686935153,"current_range_meters":22400,"station_id":"","pricing_plan_id":"free"},{"bike_id":"2711a4c3-40d8-4cbc-9da8-2743a60bf122","system_id":"levelo_inurba_marseille","lat":43.298433,"lon":5.362774,"is_reserved":false,"is_disabled":false,"rental_uris":{"android":"levelo://app?vid=2711a4c3-40d8-4cbc-9da8-2743a60bf122","ios":"levelo://app?vid=2711a4c3-40d8-4cbc-9da8-2743a60bf122"},"vehicle_type_id":"4","last_reported":1686935153,"current_range_meters":3600,"station_id":"ce4bgpp2rcd13ifvqc3g","pricing_plan_id":"free"},{"bike_id":"8a0dc360-5e91-4485-9aff-125d8e50c084","system_id":"levelo_inurba_marseille","lat":43.298433,"lon":5.362774,"is_reserved":false,"is_disabled":false,"rental_uris":{"android":"levelo://app?vid=8a0dc360-5e91-4485-9aff-125d8e50c084","ios":"levelo://app?vid=8a0dc360-5e91-4485-9aff-125d8e50c084"},"vehicle_type_id":"4","last_reported":1686935153,"current_range_meters":4400,"station_id":"ce4bgpp2rcd13ifvqc3g","pricing_plan_id":"free"},{"bike_id":"4c08912e-05c1-4d36-8827-85fed168451d","system_id":"levelo_inurba_marseille","lat":43.311722,"lon":5.387247,"is_reserved":false,"is_disabled":false,"rental_uris":{"android":"levelo://app?vid=4c08912e-05c1-4d36-8827-85fed168451d","ios":"levelo://app?vid=4c08912e-05c1-4d36-8827-85fed168451d"},"vehicle_type_id":"4","last_reported":1686935153,"current_range_meters":25200,"station_id":"ce4bgv12rcd13ifvqcp0","pricing_plan_id":"free"},{"bike_id":"ee8d9872-24f8-4a83-b8c0-bba20411db7a","system_id":"levelo_inurba_marseille","lat":43.311722,"lon":5.387247,"is_reserved":false,"is_disabled":false,"rental_uris":{"android":"levelo://app?vid=ee8d9872-24f8-4a83-b8c0-bba20411db7a","ios":"levelo://app?vid=ee8d9872-24f8-4a83-b8c0-bba20411db7a"},"vehicle_type_id":"4","last_reported":1686935153,"current_range_meters":31200,"station_id":"ce4bgv12rcd13ifvqcp0","pricing_plan_id":"free"},{"bike_id":"176f4894-d7fc-460e-aa5d-7c8c1e206dc3","system_id":"levelo_inurba_marseille","lat":43.297163,"lon":5.365866,"is_reserved":false,"is_disabled":false,"rental_uris":{"android":"levelo://app?vid=176f4894-d7fc-460e-aa5d-7c8c1e206dc3","ios":"levelo://app?vid=176f4894-d7fc-460e-aa5d-7c8c1e206dc3"},"vehicle_type_id":"4","last_reported":1686935153,"current_range_meters":20000,"station_id":"ce4bgn12rcd13ifvqbt0","pricing_plan_id":"free"},{"bike_id":"88d0330c-5bb0-4a19-9b65-d4683b42e015","system_id":"levelo_inurba_marseille","lat":43.29683,"lon":5.36046,"is_reserved":false,"is_disabled":false,"rental_uris":{"android":"levelo://app?vid=88d0330c-5bb0-4a19-9b65-d4683b42e015","ios":"levelo://app?vid=88d0330c-5bb0-4a19-9b65-d4683b42e015"},"vehicle_type_id":"4","last_reported":1686935153,"current_range_meters":9600,"station_id":"ce4bgpp2rcd13ifvqc3g","pricing_plan_id":"free"},{"bike_id":"1b077abc-30fa-48ef-9d70-0a94ac1793d6","system_id":"levelo_inurba_marseille","lat":43.296131,"lon":5.370791,"is_reserved":false,"is_disabled":false,"rental_uris":{"android":"levelo://app?vid=1b077abc-30fa-48ef-9d70-0a94ac1793d6","ios":"levelo://app?vid=1b077abc-30fa-48ef-9d70-0a94ac1793d6"},"vehicle_type_id":"4","last_reported":1686935153,"current_range_meters":6400,"station_id":"ce4bgnh2rcd13ifvqc0g","pricing_plan_id":"free"},{"bike_id":"fac4f19f-55a6-43eb-9a36-ed5ccf6e91aa","system_id":"levelo_inurba_marseille","lat":43.296131,"lon":5.370773,"is_reserved":false,"is_disabled":false,"rental_uris":{"android":"levelo://app?vid=fac4f19f-55a6-43eb-9a36-ed5ccf6e91aa","ios":"levelo://app?vid=fac4f19f-55a6-43eb-9a36-ed5ccf6e91aa"},"vehicle_type_id":"4","last_reported":1686935153,"current_range_meters":8400,"station_id":"ce4bgnh2rcd13ifvqc0g","pricing_plan_id":"free"},{"bike_id":"3b7f9cc1-4dff-4dc4-994a-11d86a2e101b","system_id":"levelo_inurba_marseille","lat":43.29573,"lon":5.367355,"is_reserved":false,"is_disabled":false,"rental_uris":{"android":"levelo://app?vid=3b7f9cc1-4dff-4dc4-994a-11d86a2e101b","ios":"levelo://app?vid=3b7f9cc1-4dff-4dc4-994a-11d86a2e101b"},"vehicle_type_id":"4","last_reported":1686935153,"current_range_meters":8400,"station_id":"ce4bgph2rcd13ifvqc2g","pricing_plan_id":"free"},{"bike_id":"24f41ca5-b432-4feb-a0c8-a15026b97306","system_id":"levelo_inurba_marseille","lat":43.296131,"lon":5.370773,"is_reserved":false,"is_disabled":false,"rental_uris":{"android":"levelo://app?vid=24f41ca5-b432-4feb-a0c8-a15026b97306","ios":"levelo://app?vid=24f41ca5-b432-4feb-a0c8-a15026b97306"},"vehicle_type_id":"4","last_reported":1686935153,"current_range_meters":19200,"station_id":"ce4bgnh2rcd13ifvqc0g","pricing_plan_id":"free"},{"bike_id":"ec36ce8e-9074-493c-9954-b18ef2d59ba2","system_id":"levelo_inurba_marseille","lat":43.296921,"lon":5.376579,"is_reserved":false,"is_disabled":false,"rental_uris":{"android":"levelo://app?vid=ec36ce8e-9074-493c-9954-b18ef2d59ba2","ios":"levelo://app?vid=ec36ce8e-9074-493c-9954-b18ef2d59ba2"},"vehicle_type_id":"4","last_reported":1686935153,"current_range_meters":0,"station_id":"ce4bgkh2rcd13ifvqbl0","pricing_plan_id":"free"},{"bike_id":"6e8e851b-601c-429e-9c24-eb2b00cb62b3","system_id":"levelo_inurba_marseille","lat":43.295748,"lon":5.37522,"is_reserved":false,"is_disabled":false,"rental_uris":{"android":"levelo://app?vid=6e8e851b-601c-429e-9c24-eb2b00cb62b3","ios":"levelo://app?vid=6e8e851b-601c-429e-9c24-eb2b00cb62b3"},"vehicle_type_id":"4","last_reported":1686935153,"current_range_meters":0,"station_id":"ce4bgh92rcd13ifvqb50","pricing_plan_id":"free"},{"bike_id":"ac43f100-b559-4c2d-9463-3803da725e62","system_id":"levelo_inurba_marseille","lat":43.295748,"lon":5.37522,"is_reserved":false,"is_disabled":false,"rental_uris":{"android":"levelo://app?vid=ac43f100-b559-4c2d-9463-3803da725e62","ios":"levelo://app?vid=ac43f100-b559-4c2d-9463-3803da725e62"},"vehicle_type_id":"4","last_reported":1686935153,"current_range_meters":0,"station_id":"ce4bgh92rcd13ifvqb50","pricing_plan_id":"free"},{"bike_id":"250c8a96-8498-4211-b8f3-1b00a8d1fbaf","system_id":"levelo_inurba_marseille","lat":43.296477,"lon":5.37768,"is_reserved":false,"is_disabled":false,"rental_uris":{"android":"levelo://app?vid=250c8a96-8498-4211-b8f3-1b00a8d1fbaf","ios":"levelo://app?vid=250c8a96-8498-4211-b8f3-1b00a8d1fbaf"},"vehicle_type_id":"4","last_reported":1686935153,"current_range_meters":19600,"station_id":"","pricing_plan_id":"free"},{"bike_id":"6004d4c1-67a3-4f71-b7ab-1d7f065228a4","system_id":"levelo_inurba_marseille","lat":43.299724,"lon":5.384848,"is_reserved":false,"is_disabled":false,"rental_uris":{"android":"levelo://app?vid=6004d4c1-67a3-4f71-b7ab-1d7f065228a4","ios":"levelo://app?vid=6004d4c1-67a3-4f71-b7ab-1d7f065228a4"},"vehicle_type_id":"4","last_reported":1686935153,"current_range_meters":31200,"station_id":"ce4bgj92rcd13ifvqbd0","pricing_plan_id":"free"},{"bike_id":"2c9ad911-25e0-4222-8751-d809dfadd582","system_id":"levelo_inurba_marseille","lat":43.32368,"lon":5.38863,"is_reserved":false,"is_disabled":false,"rental_uris":{"android":"levelo://app?vid=2c9ad911-25e0-4222-8751-d809dfadd582","ios":"levelo://app?vid=2c9ad911-25e0-4222-8751-d809dfadd582"},"vehicle_type_id":"4","last_reported":1686935153,"current_range_meters":30000,"station_id":"ce4bhqp2rcd13ifvqhog","pricing_plan_id":"free"},{"bike_id":"8ff43016-effc-4157-b871-584c11706f73","system_id":"levelo_inurba_marseille","lat":43.32361,"lon":5.38874,"is_reserved":false,"is_disabled":false,"rental_uris":{"android":"levelo://app?vid=8ff43016-effc-4157-b871-584c11706f73","ios":"levelo://app?vid=8ff43016-effc-4157-b871-584c11706f73"},"vehicle_type_id":"4","last_reported":1686935153,"current_range_meters":28400,"station_id":"ce4bhqp2rcd13ifvqhog","pricing_plan_id":"free"},{"bike_id":"78215555-c896-40a2-aa66-c1d318a07622","system_id":"levelo_inurba_marseille","lat":43.32366,"lon":5.38874,"is_reserved":false,"is_disabled":false,"rental_uris":{"android":"levelo://app?vid=78215555-c896-40a2-aa66-c1d318a07622","ios":"levelo://app?vid=78215555-c896-40a2-aa66-c1d318a07622"},"vehicle_type_id":"4","last_reported":1686935153,"current_range_meters":9600,"station_id":"ce4bhqp2rcd13ifvqhog","pricing_plan_id":"free"},{"bike_id":"ffb0609a-71c1-4e0d-9de0-762d87e5f155","system_id":"levelo_inurba_marseille","lat":43.32362,"lon":5.38886,"is_reserved":false,"is_disabled":false,"rental_uris":{"android":"levelo://app?vid=ffb0609a-71c1-4e0d-9de0-762d87e5f155","ios":"levelo://app?vid=ffb0609a-71c1-4e0d-9de0-762d87e5f155"},"vehicle_type_id":"4","last_reported":1686935153,"current_range_meters":17600,"station_id":"ce4bhqp2rcd13ifvqhog","pricing_plan_id":"free"},{"bike_id":"7ce3c88c-c5ae-4ddd-8dd7-e9b70a2056e4","system_id":"levelo_inurba_marseille","lat":43.29601,"lon":5.381084,"is_reserved":false,"is_disabled":false,"rental_uris":{"android":"levelo://app?vid=7ce3c88c-c5ae-4ddd-8dd7-e9b70a2056e4","ios":"levelo://app?vid=7ce3c88c-c5ae-4ddd-8dd7-e9b70a2056e4"},"vehicle_type_id":"4","last_reported":1686935153,"current_range_meters":28000,"station_id":"ce4bgl12rcd13ifvqbo0","pricing_plan_id":"free"},{"bike_id":"5d96d6d9-18e3-406d-ae3a-212894294800","system_id":"levelo_inurba_marseille","lat":43.29601,"lon":5.381084,"is_reserved":false,"is_disabled":false,"rental_uris":{"android":"levelo://app?vid=5d96d6d9-18e3-406d-ae3a-212894294800","ios":"levelo://app?vid=5d96d6d9-18e3-406d-ae3a-212894294800"},"vehicle_type_id":"4","last_reported":1686935153,"current_range_meters":400,"station_id":"ce4bgl12rcd13ifvqbo0","pricing_plan_id":"free"},{"bike_id":"55622d93-fc04-498a-ae2a-d225f9340bd8","system_id":"levelo_inurba_marseille","lat":43.3059,"lon":5.39358,"is_reserved":false,"is_disabled":false,"rental_uris":{"android":"levelo://app?vid=55622d93-fc04-498a-ae2a-d225f9340bd8","ios":"levelo://app?vid=55622d93-fc04-498a-ae2a-d225f9340bd8"},"vehicle_type_id":"4","last_reported":1686935153,"current_range_meters":800,"station_id":"ce4bh0p2rcd13ifvqd80","pricing_plan_id":"free"},{"bike_id":"6fbef9f1-0f02-47b7-b96a-a87292a430e0","system_id":"levelo_inurba_marseille","lat":43.2938,"lon":5.37884,"is_reserved":false,"is_disabled":false,"rental_uris":{"android":"levelo://app?vid=6fbef9f1-0f02-47b7-b96a-a87292a430e0","ios":"levelo://app?vid=6fbef9f1-0f02-47b7-b96a-a87292a430e0"},"vehicle_type_id":"4","last_reported":1686935153,"current_range_meters":14400,"station_id":"","pricing_plan_id":"free"},{"bike_id":"8b008e9c-20e6-4e43-bfbb-aa5c0f7bfc4b","system_id":"levelo_inurba_marseille","lat":43.29252,"lon":5.35967,"is_reserved":false,"is_disabled":false,"rental_uris":{"android":"levelo://app?vid=8b008e9c-20e6-4e43-bfbb-aa5c0f7bfc4b","ios":"levelo://app?vid=8b008e9c-20e6-4e43-bfbb-aa5c0f7bfc4b"},"vehicle_type_id":"4","last_reported":1686935153,"current_range_meters":13200,"station_id":"","pricing_plan_id":"free"},{"bike_id":"3f55f99b-de68-4803-9da5-312ae21698e6","system_id":"levelo_inurba_marseille","lat":43.292311,"lon":5.360731,"is_reserved":false,"is_disabled":false,"rental_uris":{"android":"levelo://app?vid=3f55f99b-de68-4803-9da5-312ae21698e6","ios":"levelo://app?vid=3f55f99b-de68-4803-9da5-312ae21698e6"},"vehicle_type_id":"4","last_reported":1686935153,"current_range_meters":6000,"station_id":"ce4bhbh2rcd13ifvqeqg","pricing_plan_id":"free"},{"bike_id":"16ce4379-9ffb-4bd0-8a68-112820a628fb","system_id":"levelo_inurba_marseille","lat":43.298764,"lon":5.388973,"is_reserved":false,"is_disabled":false,"rental_uris":{"android":"levelo://app?vid=16ce4379-9ffb-4bd0-8a68-112820a628fb","ios":"levelo://app?vid=16ce4379-9ffb-4bd0-8a68-112820a628fb"},"vehicle_type_id":"4","last_reported":1686935153,"current_range_meters":10400,"station_id":"ce4bh392rcd13ifvqdl0","pricing_plan_id":"free"},{"bike_id":"edd27ecf-5e8a-44a0-82e6-021137b2b9de","system_id":"levelo_inurba_marseille","lat":43.29283,"lon":5.35682,"is_reserved":false,"is_disabled":false,"rental_uris":{"android":"levelo://app?vid=edd27ecf-5e8a-44a0-82e6-021137b2b9de","ios":"levelo://app?vid=edd27ecf-5e8a-44a0-82e6-021137b2b9de"},"vehicle_type_id":"4","last_reported":1686935153,"current_range_meters":5600,"station_id":"","pricing_plan_id":"free"},{"bike_id":"ec01d3ad-7c9a-4b5f-9938-64dcd6b2c79c","system_id":"levelo_inurba_marseille","lat":43.29874,"lon":5.38901,"is_reserved":false,"is_disabled":false,"rental_uris":{"android":"levelo://app?vid=ec01d3ad-7c9a-4b5f-9938-64dcd6b2c79c","ios":"levelo://app?vid=ec01d3ad-7c9a-4b5f-9938-64dcd6b2c79c"},"vehicle_type_id":"4","last_reported":1686935153,"current_range_meters":2000,"station_id":"ce4bh392rcd13ifvqdl0","pricing_plan_id":"free"},{"bike_id":"d1e01742-0b50-406f-a55d-fbcef5f0c628","system_id":"levelo_inurba_marseille","lat":43.29877,"lon":5.38906,"is_reserved":false,"is_disabled":false,"rental_uris":{"android":"levelo://app?vid=d1e01742-0b50-406f-a55d-fbcef5f0c628","ios":"levelo://app?vid=d1e01742-0b50-406f-a55d-fbcef5f0c628"},"vehicle_type_id":"4","last_reported":1686935153,"current_range_meters":5200,"station_id":"ce4bh392rcd13ifvqdl0","pricing_plan_id":"free"},{"bike_id":"bb131be2-71cb-473f-88bf-f1bad680d9fb","system_id":"levelo_inurba_marseille","lat":43.29192,"lon":5.35802,"is_reserved":false,"is_disabled":false,"rental_uris":{"android":"levelo://app?vid=bb131be2-71cb-473f-88bf-f1bad680d9fb","ios":"levelo://app?vid=bb131be2-71cb-473f-88bf-f1bad680d9fb"},"vehicle_type_id":"4","last_reported":1686935153,"current_range_meters":0,"station_id":"ce4bhb12rcd13ifvqel0","pricing_plan_id":"free"},{"bike_id":"cd18d8e9-2b8e-43b3-b6a0-b6a1ac758020","system_id":"levelo_inurba_marseille","lat":43.291994,"lon":5.357886,"is_reserved":false,"is_disabled":false,"rental_uris":{"android":"levelo://app?vid=cd18d8e9-2b8e-43b3-b6a0-b6a1ac758020","ios":"levelo://app?vid=cd18d8e9-2b8e-43b3-b6a0-b6a1ac758020"},"vehicle_type_id":"4","last_reported":1686935153,"current_range_meters":0,"station_id":"ce4bhb12rcd13ifvqel0","pricing_plan_id":"free"},{"bike_id":"2ad9066e-cd45-4274-8f13-9efdcee01336","system_id":"levelo_inurba_marseille","lat":43.29529,"lon":5.385581,"is_reserved":false,"is_disabled":false,"rental_uris":{"android":"levelo://app?vid=2ad9066e-cd45-4274-8f13-9efdcee01336","ios":"levelo://app?vid=2ad9066e-cd45-4274-8f13-9efdcee01336"},"vehicle_type_id":"4","last_reported":1686935153,"current_range_meters":800,"station_id":"ce4bgih2rcd13ifvqba0","pricing_plan_id":"free"},{"bike_id":"4c5072aa-1444-4697-b894-0a62d072df9c","system_id":"levelo_inurba_marseille","lat":43.290631,"lon":5.359244,"is_reserved":false,"is_disabled":false,"rental_uris":{"android":"levelo://app?vid=4c5072aa-1444-4697-b894-0a62d072df9c","ios":"levelo://app?vid=4c5072aa-1444-4697-b894-0a62d072df9c"},"vehicle_type_id":"4","last_reported":1686935153,"current_range_meters":16800,"station_id":"ce4bha92rcd13ifvqeg0","pricing_plan_id":"free"},{"bike_id":"38eb09af-7166-42b9-865e-84246929498f","system_id":"levelo_inurba_marseille","lat":43.294153,"lon":5.386305,"is_reserved":false,"is_disabled":false,"rental_uris":{"android":"levelo://app?vid=38eb09af-7166-42b9-865e-84246929498f","ios":"levelo://app?vid=38eb09af-7166-42b9-865e-84246929498f"},"vehicle_type_id":"4","last_reported":1686935153,"current_range_meters":31200,"station_id":"ce4bh2h2rcd13ifvqdh0","pricing_plan_id":"free"},{"bike_id":"d19103d7-ff7e-40c5-8b9a-8746e55ad0ea","system_id":"levelo_inurba_marseille","lat":43.294162,"lon":5.386292,"is_reserved":false,"is_disabled":false,"rental_uris":{"android":"levelo://app?vid=d19103d7-ff7e-40c5-8b9a-8746e55ad0ea","ios":"levelo://app?vid=d19103d7-ff7e-40c5-8b9a-8746e55ad0ea"},"vehicle_type_id":"4","last_reported":1686935153,"current_range_meters":4800,"station_id":"ce4bh2h2rcd13ifvqdh0","pricing_plan_id":"free"},{"bike_id":"862942e5-7259-4baf-8599-d3c6fe0919d5","system_id":"levelo_inurba_marseille","lat":43.292642,"lon":5.384254,"is_reserved":false,"is_disabled":false,"rental_uris":{"android":"levelo://app?vid=862942e5-7259-4baf-8599-d3c6fe0919d5","ios":"levelo://app?vid=862942e5-7259-4baf-8599-d3c6fe0919d5"},"vehicle_type_id":"4","last_reported":1686935153,"current_range_meters":0,"station_id":"ce4bh692rcd13ifvqea0","pricing_plan_id":"free"},{"bike_id":"9f0557fb-59e7-4efc-9a7a-ea2e83f05add","system_id":"levelo_inurba_marseille","lat":43.292644,"lon":5.384257,"is_reserved":false,"is_disabled":false,"rental_uris":{"android":"levelo://app?vid=9f0557fb-59e7-4efc-9a7a-ea2e83f05add","ios":"levelo://app?vid=9f0557fb-59e7-4efc-9a7a-ea2e83f05add"},"vehicle_type_id":"4","last_reported":1686935153,"current_range_meters":0,"station_id":"ce4bh692rcd13ifvqea0","pricing_plan_id":"free"},{"bike_id":"137b2f8f-5f22-4886-8d8a-3ae628a39eae","system_id":"levelo_inurba_marseille","lat":43.292644,"lon":5.384257,"is_reserved":false,"is_disabled":false,"rental_uris":{"android":"levelo://app?vid=137b2f8f-5f22-4886-8d8a-3ae628a39eae","ios":"levelo://app?vid=137b2f8f-5f22-4886-8d8a-3ae628a39eae"},"vehicle_type_id":"4","last_reported":1686935153,"current_range_meters":0,"station_id":"ce4bh692rcd13ifvqea0","pricing_plan_id":"free"},{"bike_id":"a83e076c-c806-4569-b8ad-e911f4486bdf","system_id":"levelo_inurba_marseille","lat":43.292642,"lon":5.384254,"is_reserved":false,"is_disabled":false,"rental_uris":{"android":"levelo://app?vid=a83e076c-c806-4569-b8ad-e911f4486bdf","ios":"levelo://app?vid=a83e076c-c806-4569-b8ad-e911f4486bdf"},"vehicle_type_id":"4","last_reported":1686935153,"current_range_meters":16000,"station_id":"ce4bh692rcd13ifvqea0","pricing_plan_id":"free"},{"bike_id":"80364655-89a1-435e-9c92-3648f92b0682","system_id":"levelo_inurba_marseille","lat":43.29005,"lon":5.35618,"is_reserved":false,"is_disabled":false,"rental_uris":{"android":"levelo://app?vid=80364655-89a1-435e-9c92-3648f92b0682","ios":"levelo://app?vid=80364655-89a1-435e-9c92-3648f92b0682"},"vehicle_type_id":"4","last_reported":1686935153,"current_range_meters":29600,"station_id":"ce4bhb92rcd13ifvqen0","pricing_plan_id":"free"},{"bike_id":"85d5d023-d051-425f-8c39-d0b8c64f8fbd","system_id":"levelo_inurba_marseille","lat":43.33047,"lon":5.38921,"is_reserved":false,"is_disabled":false,"rental_uris":{"android":"levelo://app?vid=85d5d023-d051-425f-8c39-d0b8c64f8fbd","ios":"levelo://app?vid=85d5d023-d051-425f-8c39-d0b8c64f8fbd"},"vehicle_type_id":"4","last_reported":1686935153,"current_range_meters":29200,"station_id":"ce4bhr92rcd13ifvqhrg","pricing_plan_id":"free"},{"bike_id":"bde15270-3453-4abf-86ec-605095dc82d3","system_id":"levelo_inurba_marseille","lat":43.29097,"lon":5.38127,"is_reserved":false,"is_disabled":false,"rental_uris":{"android":"levelo://app?vid=bde15270-3453-4abf-86ec-605095dc82d3","ios":"levelo://app?vid=bde15270-3453-4abf-86ec-605095dc82d3"},"vehicle_type_id":"4","last_reported":1686935153,"current_range_meters":27600,"station_id":"ce4bh512rcd13ifvqe2g","pricing_plan_id":"free"},{"bike_id":"c0fb8083-e02d-4dec-b1b9-fa095e6c5b75","system_id":"levelo_inurba_marseille","lat":43.337396,"lon":5.374526,"is_reserved":false,"is_disabled":false,"rental_uris":{"android":"levelo://app?vid=c0fb8083-e02d-4dec-b1b9-fa095e6c5b75","ios":"levelo://app?vid=c0fb8083-e02d-4dec-b1b9-fa095e6c5b75"},"vehicle_type_id":"4","last_reported":1686935153,"current_range_meters":800,"station_id":"ce4bhp92rcd13ifvqhag","pricing_plan_id":"free"},{"bike_id":"bef0cfa9-6b01-4706-9c55-c17c3b9ce238","system_id":"levelo_inurba_marseille","lat":43.309371,"lon":5.401449,"is_reserved":false,"is_disabled":false,"rental_uris":{"android":"levelo://app?vid=bef0cfa9-6b01-4706-9c55-c17c3b9ce238","ios":"levelo://app?vid=bef0cfa9-6b01-4706-9c55-c17c3b9ce238"},"vehicle_type_id":"4","last_reported":1686935153,"current_range_meters":12000,"station_id":"ce4bgvp2rcd13ifvqct0","pricing_plan_id":"free"},{"bike_id":"ea71107b-8a8b-4fc2-95f1-4e0ad491e1b5","system_id":"levelo_inurba_marseille","lat":43.30642,"lon":5.401031,"is_reserved":false,"is_disabled":false,"rental_uris":{"android":"levelo://app?vid=ea71107b-8a8b-4fc2-95f1-4e0ad491e1b5","ios":"levelo://app?vid=ea71107b-8a8b-4fc2-95f1-4e0ad491e1b5"},"vehicle_type_id":"4","last_reported":1686935153,"current_range_meters":0,"station_id":"ce4bh112rcd13ifvqda0","pricing_plan_id":"free"},{"bike_id":"da86bf5f-320c-40d1-bf20-4965b4734599","system_id":"levelo_inurba_marseille","lat":43.33779,"lon":5.3742,"is_reserved":false,"is_disabled":false,"rental_uris":{"android":"levelo://app?vid=da86bf5f-320c-40d1-bf20-4965b4734599","ios":"levelo://app?vid=da86bf5f-320c-40d1-bf20-4965b4734599"},"vehicle_type_id":"4","last_reported":1686935153,"current_range_meters":31200,"station_id":"","pricing_plan_id":"free"},{"bike_id":"5c2d9871-5f32-420d-bb24-a0a4a6dd5f84","system_id":"levelo_inurba_marseille","lat":43.290345,"lon":5.38646,"is_reserved":false,"is_disabled":false,"rental_uris":{"android":"levelo://app?vid=5c2d9871-5f32-420d-bb24-a0a4a6dd5f84","ios":"levelo://app?vid=5c2d9871-5f32-420d-bb24-a0a4a6dd5f84"},"vehicle_type_id":"4","last_reported":1686935153,"current_range_meters":21200,"station_id":"ce4bh4p2rcd13ifvqe0g","pricing_plan_id":"free"},{"bike_id":"38b1a793-aeef-4132-9ece-5cd191f7aae6","system_id":"levelo_inurba_marseille","lat":43.287184,"lon":5.37937,"is_reserved":false,"is_disabled":false,"rental_uris":{"android":"levelo://app?vid=38b1a793-aeef-4132-9ece-5cd191f7aae6","ios":"levelo://app?vid=38b1a793-aeef-4132-9ece-5cd191f7aae6"},"vehicle_type_id":"4","last_reported":1686935153,"current_range_meters":27200,"station_id":"ce4bh9p2rcd13ifvqec0","pricing_plan_id":"free"},{"bike_id":"9ac79fe7-e387-48f9-b9fd-665cc9a0f726","system_id":"levelo_inurba_marseille","lat":43.316517,"lon":5.404375,"is_reserved":false,"is_disabled":false,"rental_uris":{"android":"levelo://app?vid=9ac79fe7-e387-48f9-b9fd-665cc9a0f726","ios":"levelo://app?vid=9ac79fe7-e387-48f9-b9fd-665cc9a0f726"},"vehicle_type_id":"4","last_reported":1686935153,"current_range_meters":26800,"station_id":"ce4bh012rcd13ifvqd00","pricing_plan_id":"free"},{"bike_id":"d5c4f22d-6f28-4845-b97a-c5d6c514de99","system_id":"levelo_inurba_marseille","lat":43.291994,"lon":5.392907,"is_reserved":false,"is_disabled":false,"rental_uris":{"android":"levelo://app?vid=d5c4f22d-6f28-4845-b97a-c5d6c514de99","ios":"levelo://app?vid=d5c4f22d-6f28-4845-b97a-c5d6c514de99"},"vehicle_type_id":"4","last_reported":1686935153,"current_range_meters":0,"station_id":"ce4bh192rcd13ifvqdd0","pricing_plan_id":"free"},{"bike_id":"d3590ae0-2515-41ad-94d9-51a11ac46a75","system_id":"levelo_inurba_marseille","lat":43.284599,"lon":5.358884,"is_reserved":false,"is_disabled":false,"rental_uris":{"android":"levelo://app?vid=d3590ae0-2515-41ad-94d9-51a11ac46a75","ios":"levelo://app?vid=d3590ae0-2515-41ad-94d9-51a11ac46a75"},"vehicle_type_id":"4","last_reported":1686935153,"current_range_meters":31200,"station_id":"ce4bhah2rcd13ifvqei0","pricing_plan_id":"free"},{"bike_id":"ab0d9cef-ce80-490d-811e-76696c567192","system_id":"levelo_inurba_marseille","lat":43.284534,"lon":5.358662,"is_reserved":false,"is_disabled":false,"rental_uris":{"android":"levelo://app?vid=ab0d9cef-ce80-490d-811e-76696c567192","ios":"levelo://app?vid=ab0d9cef-ce80-490d-811e-76696c567192"},"vehicle_type_id":"4","last_reported":1686935153,"current_range_meters":30800,"station_id":"ce4bhah2rcd13ifvqei0","pricing_plan_id":"free"},{"bike_id":"c97e403c-adbc-4c98-a9d8-8530e9f77b19","system_id":"levelo_inurba_marseille","lat":43.284534,"lon":5.358662,"is_reserved":false,"is_disabled":false,"rental_uris":{"android":"levelo://app?vid=c97e403c-adbc-4c98-a9d8-8530e9f77b19","ios":"levelo://app?vid=c97e403c-adbc-4c98-a9d8-8530e9f77b19"},"vehicle_type_id":"4","last_reported":1686935153,"current_range_meters":8800,"station_id":"ce4bhah2rcd13ifvqei0","pricing_plan_id":"free"},{"bike_id":"ecb4c989-dc91-41df-a738-c0b423935dfd","system_id":"levelo_inurba_marseille","lat":43.284591,"lon":5.358878,"is_reserved":false,"is_disabled":false,"rental_uris":{"android":"levelo://app?vid=ecb4c989-dc91-41df-a738-c0b423935dfd","ios":"levelo://app?vid=ecb4c989-dc91-41df-a738-c0b423935dfd"},"vehicle_type_id":"4","last_reported":1686935153,"current_range_meters":18400,"station_id":"ce4bhah2rcd13ifvqei0","pricing_plan_id":"free"},{"bike_id":"b09bfbf6-e740-4887-9157-76ef4f9797e3","system_id":"levelo_inurba_marseille","lat":43.294314,"lon":5.397498,"is_reserved":false,"is_disabled":false,"rental_uris":{"android":"levelo://app?vid=b09bfbf6-e740-4887-9157-76ef4f9797e3","ios":"levelo://app?vid=b09bfbf6-e740-4887-9157-76ef4f9797e3"},"vehicle_type_id":"4","last_reported":1686935153,"current_range_meters":0,"station_id":"ce4bh3h2rcd13ifvqdo0","pricing_plan_id":"free"},{"bike_id":"e2dc1bed-0658-417f-a46d-5a2870ab284b","system_id":"levelo_inurba_marseille","lat":43.285856,"lon":5.350771,"is_reserved":false,"is_disabled":false,"rental_uris":{"android":"levelo://app?vid=e2dc1bed-0658-417f-a46d-5a2870ab284b","ios":"levelo://app?vid=e2dc1bed-0658-417f-a46d-5a2870ab284b"},"vehicle_type_id":"4","last_reported":1686935153,"current_range_meters":0,"station_id":"ce4bhch2rcd13ifvqeug","pricing_plan_id":"free"},{"bike_id":"dabb05ff-0b10-401b-9294-481e2cf96f74","system_id":"levelo_inurba_marseille","lat":43.28619,"lon":5.35095,"is_reserved":false,"is_disabled":false,"rental_uris":{"android":"levelo://app?vid=dabb05ff-0b10-401b-9294-481e2cf96f74","ios":"levelo://app?vid=dabb05ff-0b10-401b-9294-481e2cf96f74"},"vehicle_type_id":"4","last_reported":1686935153,"current_range_meters":31200,"station_id":"ce4bhch2rcd13ifvqeug","pricing_plan_id":"free"},{"bike_id":"8358baf4-48ce-4526-98a0-1739f599f8c8","system_id":"levelo_inurba_marseille","lat":43.28614,"lon":5.35108,"is_reserved":false,"is_disabled":false,"rental_uris":{"android":"levelo://app?vid=8358baf4-48ce-4526-98a0-1739f599f8c8","ios":"levelo://app?vid=8358baf4-48ce-4526-98a0-1739f599f8c8"},"vehicle_type_id":"4","last_reported":1686935153,"current_range_meters":30000,"station_id":"ce4bhch2rcd13ifvqeug","pricing_plan_id":"free"},{"bike_id":"6efc7fcb-afe9-465f-a185-a3e5274f12e4","system_id":"levelo_inurba_marseille","lat":43.28614,"lon":5.35099,"is_reserved":false,"is_disabled":false,"rental_uris":{"android":"levelo://app?vid=6efc7fcb-afe9-465f-a185-a3e5274f12e4","ios":"levelo://app?vid=6efc7fcb-afe9-465f-a185-a3e5274f12e4"},"vehicle_type_id":"4","last_reported":1686935153,"current_range_meters":11200,"station_id":"ce4bhch2rcd13ifvqeug","pricing_plan_id":"free"},{"bike_id":"cc8ac4c2-e587-4471-9bbb-2066baeb5489","system_id":"levelo_inurba_marseille","lat":43.285856,"lon":5.350771,"is_reserved":false,"is_disabled":false,"rental_uris":{"android":"levelo://app?vid=cc8ac4c2-e587-4471-9bbb-2066baeb5489","ios":"levelo://app?vid=cc8ac4c2-e587-4471-9bbb-2066baeb5489"},"vehicle_type_id":"4","last_reported":1686935153,"current_range_meters":19600,"station_id":"ce4bhch2rcd13ifvqeug","pricing_plan_id":"free"},{"bike_id":"186ba2ce-50bd-4f8b-b121-e7bbe8220f77","system_id":"levelo_inurba_marseille","lat":43.295713,"lon":5.399639,"is_reserved":false,"is_disabled":false,"rental_uris":{"android":"levelo://app?vid=186ba2ce-50bd-4f8b-b121-e7bbe8220f77","ios":"levelo://app?vid=186ba2ce-50bd-4f8b-b121-e7bbe8220f77"},"vehicle_type_id":"4","last_reported":1686935153,"current_range_meters":4400,"station_id":"ce4bh312rcd13ifvqdj0","pricing_plan_id":"free"},{"bike_id":"c899e820-9521-4af1-a4fc-fb08e302f867","system_id":"levelo_inurba_marseille","lat":43.295713,"lon":5.399639,"is_reserved":false,"is_disabled":false,"rental_uris":{"android":"levelo://app?vid=c899e820-9521-4af1-a4fc-fb08e302f867","ios":"levelo://app?vid=c899e820-9521-4af1-a4fc-fb08e302f867"},"vehicle_type_id":"4","last_reported":1686935153,"current_range_meters":800,"station_id":"ce4bh312rcd13ifvqdj0","pricing_plan_id":"free"},{"bike_id":"290f7867-d53b-46e2-bcb1-d73eef2e292d","system_id":"levelo_inurba_marseille","lat":43.286595,"lon":5.386795,"is_reserved":false,"is_disabled":false,"rental_uris":{"android":"levelo://app?vid=290f7867-d53b-46e2-bcb1-d73eef2e292d","ios":"levelo://app?vid=290f7867-d53b-46e2-bcb1-d73eef2e292d"},"vehicle_type_id":"4","last_reported":1686935153,"current_range_meters":0,"station_id":"ce4bh492rcd13ifvqdug","pricing_plan_id":"free"},{"bike_id":"8bb0e2c0-2c32-4ec0-88c4-24d101d463bf","system_id":"levelo_inurba_marseille","lat":43.287909,"lon":5.390554,"is_reserved":false,"is_disabled":false,"rental_uris":{"android":"levelo://app?vid=8bb0e2c0-2c32-4ec0-88c4-24d101d463bf","ios":"levelo://app?vid=8bb0e2c0-2c32-4ec0-88c4-24d101d463bf"},"vehicle_type_id":"4","last_reported":1686935153,"current_range_meters":19600,"station_id":"","pricing_plan_id":"free"},{"bike_id":"16e5fedd-6e86-436a-a0a2-72c7cd60a6ea","system_id":"levelo_inurba_marseille","lat":43.323464,"lon":5.406297,"is_reserved":false,"is_disabled":false,"rental_uris":{"android":"levelo://app?vid=16e5fedd-6e86-436a-a0a2-72c7cd60a6ea","ios":"levelo://app?vid=16e5fedd-6e86-436a-a0a2-72c7cd60a6ea"},"vehicle_type_id":"4","last_reported":1686935153,"current_range_meters":31200,"station_id":"ce4bhq92rcd13ifvqhjg","pricing_plan_id":"free"},{"bike_id":"35d64bf5-3e81-46a3-8bca-6e22492b597e","system_id":"levelo_inurba_marseille","lat":43.288497,"lon":5.393089,"is_reserved":false,"is_disabled":false,"rental_uris":{"android":"levelo://app?vid=35d64bf5-3e81-46a3-8bca-6e22492b597e","ios":"levelo://app?vid=35d64bf5-3e81-46a3-8bca-6e22492b597e"},"vehicle_type_id":"4","last_reported":1686935153,"current_range_meters":0,"station_id":"ce4bh2p2rcd13ifvqdi0","pricing_plan_id":"free"},{"bike_id":"00b4d942-d645-4a17-a320-9c02b5ecca68","system_id":"levelo_inurba_marseille","lat":43.288497,"lon":5.393089,"is_reserved":false,"is_disabled":false,"rental_uris":{"android":"levelo://app?vid=00b4d942-d645-4a17-a320-9c02b5ecca68","ios":"levelo://app?vid=00b4d942-d645-4a17-a320-9c02b5ecca68"},"vehicle_type_id":"4","last_reported":1686935153,"current_range_meters":28800,"station_id":"ce4bh2p2rcd13ifvqdi0","pricing_plan_id":"free"},{"bike_id":"7be3ce42-203e-4113-a54e-f98ec4700616","system_id":"levelo_inurba_marseille","lat":43.284219,"lon":5.3497,"is_reserved":false,"is_disabled":false,"rental_uris":{"android":"levelo://app?vid=7be3ce42-203e-4113-a54e-f98ec4700616","ios":"levelo://app?vid=7be3ce42-203e-4113-a54e-f98ec4700616"},"vehicle_type_id":"4","last_reported":1686935153,"current_range_meters":16400,"station_id":"ce4bhbh2rcd13ifvqepg","pricing_plan_id":"free"},{"bike_id":"376baef1-e949-4271-ad2f-9090c81b0d43","system_id":"levelo_inurba_marseille","lat":43.284219,"lon":5.3497,"is_reserved":false,"is_disabled":false,"rental_uris":{"android":"levelo://app?vid=376baef1-e949-4271-ad2f-9090c81b0d43","ios":"levelo://app?vid=376baef1-e949-4271-ad2f-9090c81b0d43"},"vehicle_type_id":"4","last_reported":1686935153,"current_range_meters":23200,"station_id":"ce4bhbh2rcd13ifvqepg","pricing_plan_id":"free"},{"bike_id":"2f305d7e-101b-4ee4-a2ba-1e8e7752008d","system_id":"levelo_inurba_marseille","lat":43.284219,"lon":5.3497,"is_reserved":false,"is_disabled":false,"rental_uris":{"android":"levelo://app?vid=2f305d7e-101b-4ee4-a2ba-1e8e7752008d","ios":"levelo://app?vid=2f305d7e-101b-4ee4-a2ba-1e8e7752008d"},"vehicle_type_id":"4","last_reported":1686935153,"current_range_meters":31600,"station_id":"ce4bhbh2rcd13ifvqepg","pricing_plan_id":"free"},{"bike_id":"15e2ef3e-4187-4726-bb1d-bf352bfe260e","system_id":"levelo_inurba_marseille","lat":43.284219,"lon":5.3497,"is_reserved":false,"is_disabled":false,"rental_uris":{"android":"levelo://app?vid=15e2ef3e-4187-4726-bb1d-bf352bfe260e","ios":"levelo://app?vid=15e2ef3e-4187-4726-bb1d-bf352bfe260e"},"vehicle_type_id":"4","last_reported":1686935153,"current_range_meters":31600,"station_id":"ce4bhbh2rcd13ifvqepg","pricing_plan_id":"free"},{"bike_id":"2a40378d-37da-4f5e-9c38-bc15f80ad089","system_id":"levelo_inurba_marseille","lat":43.28417,"lon":5.34984,"is_reserved":false,"is_disabled":false,"rental_uris":{"android":"levelo://app?vid=2a40378d-37da-4f5e-9c38-bc15f80ad089","ios":"levelo://app?vid=2a40378d-37da-4f5e-9c38-bc15f80ad089"},"vehicle_type_id":"4","last_reported":1686935153,"current_range_meters":16000,"station_id":"ce4bhbh2rcd13ifvqepg","pricing_plan_id":"free"},{"bike_id":"23ba14be-d206-4148-bb57-4f365f439bb3","system_id":"levelo_inurba_marseille","lat":43.2842,"lon":5.34973,"is_reserved":false,"is_disabled":false,"rental_uris":{"android":"levelo://app?vid=23ba14be-d206-4148-bb57-4f365f439bb3","ios":"levelo://app?vid=23ba14be-d206-4148-bb57-4f365f439bb3"},"vehicle_type_id":"4","last_reported":1686935153,"current_range_meters":31600,"station_id":"ce4bhbh2rcd13ifvqepg","pricing_plan_id":"free"},{"bike_id":"d208f0a7-0245-443f-9f73-15c84cff68c2","system_id":"levelo_inurba_marseille","lat":43.284219,"lon":5.3497,"is_reserved":false,"is_disabled":false,"rental_uris":{"android":"levelo://app?vid=d208f0a7-0245-443f-9f73-15c84cff68c2","ios":"levelo://app?vid=d208f0a7-0245-443f-9f73-15c84cff68c2"},"vehicle_type_id":"4","last_reported":1686935153,"current_range_meters":17200,"station_id":"ce4bhbh2rcd13ifvqepg","pricing_plan_id":"free"},{"bike_id":"4b5d909d-7dc5-40f9-8389-f4cec4987c54","system_id":"levelo_inurba_marseille","lat":43.284219,"lon":5.3497,"is_reserved":false,"is_disabled":false,"rental_uris":{"android":"levelo://app?vid=4b5d909d-7dc5-40f9-8389-f4cec4987c54","ios":"levelo://app?vid=4b5d909d-7dc5-40f9-8389-f4cec4987c54"},"vehicle_type_id":"4","last_reported":1686935153,"current_range_meters":17600,"station_id":"ce4bhbh2rcd13ifvqepg","pricing_plan_id":"free"},{"bike_id":"2f2084ba-de7a-442b-8eb2-f78e2e3d4733","system_id":"levelo_inurba_marseille","lat":43.284219,"lon":5.3497,"is_reserved":false,"is_disabled":false,"rental_uris":{"android":"levelo://app?vid=2f2084ba-de7a-442b-8eb2-f78e2e3d4733","ios":"levelo://app?vid=2f2084ba-de7a-442b-8eb2-f78e2e3d4733"},"vehicle_type_id":"4","last_reported":1686935153,"current_range_meters":14400,"station_id":"ce4bhbh2rcd13ifvqepg","pricing_plan_id":"free"},{"bike_id":"bb0eea15-7450-450f-a695-50c4c8a035d2","system_id":"levelo_inurba_marseille","lat":43.284219,"lon":5.3497,"is_reserved":false,"is_disabled":false,"rental_uris":{"android":"levelo://app?vid=bb0eea15-7450-450f-a695-50c4c8a035d2","ios":"levelo://app?vid=bb0eea15-7450-450f-a695-50c4c8a035d2"},"vehicle_type_id":"4","last_reported":1686935153,"current_range_meters":4800,"station_id":"ce4bhbh2rcd13ifvqepg","pricing_plan_id":"free"},{"bike_id":"4e5d43c3-c5cb-42de-aeb2-d4ab3a9c5c51","system_id":"levelo_inurba_marseille","lat":43.284219,"lon":5.3497,"is_reserved":false,"is_disabled":false,"rental_uris":{"android":"levelo://app?vid=4e5d43c3-c5cb-42de-aeb2-d4ab3a9c5c51","ios":"levelo://app?vid=4e5d43c3-c5cb-42de-aeb2-d4ab3a9c5c51"},"vehicle_type_id":"4","last_reported":1686935153,"current_range_meters":10800,"station_id":"ce4bhbh2rcd13ifvqepg","pricing_plan_id":"free"},{"bike_id":"04003625-4d74-498f-9b32-4aaa3052de0b","system_id":"levelo_inurba_marseille","lat":43.28406,"lon":5.34988,"is_reserved":false,"is_disabled":false,"rental_uris":{"android":"levelo://app?vid=04003625-4d74-498f-9b32-4aaa3052de0b","ios":"levelo://app?vid=04003625-4d74-498f-9b32-4aaa3052de0b"},"vehicle_type_id":"4","last_reported":1686935153,"current_range_meters":31200,"station_id":"ce4bhbh2rcd13ifvqepg","pricing_plan_id":"free"},{"bike_id":"220ceb77-4984-49fe-b7c7-a3189b3f89b9","system_id":"levelo_inurba_marseille","lat":43.284217,"lon":5.349697,"is_reserved":false,"is_disabled":false,"rental_uris":{"android":"levelo://app?vid=220ceb77-4984-49fe-b7c7-a3189b3f89b9","ios":"levelo://app?vid=220ceb77-4984-49fe-b7c7-a3189b3f89b9"},"vehicle_type_id":"4","last_reported":1686935153,"current_range_meters":7200,"station_id":"ce4bhbh2rcd13ifvqepg","pricing_plan_id":"free"},{"bike_id":"6e222be7-9f6f-4975-b047-77a3f59264b0","system_id":"levelo_inurba_marseille","lat":43.292724,"lon":5.401131,"is_reserved":false,"is_disabled":false,"rental_uris":{"android":"levelo://app?vid=6e222be7-9f6f-4975-b047-77a3f59264b0","ios":"levelo://app?vid=6e222be7-9f6f-4975-b047-77a3f59264b0"},"vehicle_type_id":"4","last_reported":1686935153,"current_range_meters":4800,"station_id":"ce4bh312rcd13ifvqdk0","pricing_plan_id":"free"},{"bike_id":"9f819606-7133-46e8-b526-1d3ba1bd60d7","system_id":"levelo_inurba_marseille","lat":43.292724,"lon":5.401131,"is_reserved":false,"is_disabled":false,"rental_uris":{"android":"levelo://app?vid=9f819606-7133-46e8-b526-1d3ba1bd60d7","ios":"levelo://app?vid=9f819606-7133-46e8-b526-1d3ba1bd60d7"},"vehicle_type_id":"4","last_reported":1686935153,"current_range_meters":19200,"station_id":"ce4bh312rcd13ifvqdk0","pricing_plan_id":"free"},{"bike_id":"e2c3a0aa-7f22-492a-a04d-15e355466059","system_id":"levelo_inurba_marseille","lat":43.32879,"lon":5.40534,"is_reserved":false,"is_disabled":false,"rental_uris":{"android":"levelo://app?vid=e2c3a0aa-7f22-492a-a04d-15e355466059","ios":"levelo://app?vid=e2c3a0aa-7f22-492a-a04d-15e355466059"},"vehicle_type_id":"4","last_reported":1686935153,"current_range_meters":12400,"station_id":"","pricing_plan_id":"free"},{"bike_id":"f744612e-b7c8-4f01-ab56-0f237453011c","system_id":"levelo_inurba_marseille","lat":43.28272,"lon":5.35078,"is_reserved":false,"is_disabled":false,"rental_uris":{"android":"levelo://app?vid=f744612e-b7c8-4f01-ab56-0f237453011c","ios":"levelo://app?vid=f744612e-b7c8-4f01-ab56-0f237453011c"},"vehicle_type_id":"4","last_reported":1686935153,"current_range_meters":0,"station_id":"ce4bhbp2rcd13ifvqerg","pricing_plan_id":"free"},{"bike_id":"089701b8-5843-4ade-9833-599572a50ad7","system_id":"levelo_inurba_marseille","lat":43.2827,"lon":5.35071,"is_reserved":false,"is_disabled":false,"rental_uris":{"android":"levelo://app?vid=089701b8-5843-4ade-9833-599572a50ad7","ios":"levelo://app?vid=089701b8-5843-4ade-9833-599572a50ad7"},"vehicle_type_id":"4","last_reported":1686935153,"current_range_meters":31200,"station_id":"ce4bhbp2rcd13ifvqerg","pricing_plan_id":"free"},{"bike_id":"6abf9594-df7c-423f-9d2c-77c7f0a2f61c","system_id":"levelo_inurba_marseille","lat":43.2827,"lon":5.35069,"is_reserved":false,"is_disabled":false,"rental_uris":{"android":"levelo://app?vid=6abf9594-df7c-423f-9d2c-77c7f0a2f61c","ios":"levelo://app?vid=6abf9594-df7c-423f-9d2c-77c7f0a2f61c"},"vehicle_type_id":"4","last_reported":1686935153,"current_range_meters":31200,"station_id":"ce4bhbp2rcd13ifvqerg","pricing_plan_id":"free"},{"bike_id":"65ee18ae-1279-4701-b410-8223f773dd45","system_id":"levelo_inurba_marseille","lat":43.30928,"lon":5.41105,"is_reserved":false,"is_disabled":false,"rental_uris":{"android":"levelo://app?vid=65ee18ae-1279-4701-b410-8223f773dd45","ios":"levelo://app?vid=65ee18ae-1279-4701-b410-8223f773dd45"},"vehicle_type_id":"4","last_reported":1686935153,"current_range_meters":27600,"station_id":"","pricing_plan_id":"free"},{"bike_id":"3768201f-905b-4965-86f4-9da2fc209135","system_id":"levelo_inurba_marseille","lat":43.28269,"lon":5.35067,"is_reserved":false,"is_disabled":false,"rental_uris":{"android":"levelo://app?vid=3768201f-905b-4965-86f4-9da2fc209135","ios":"levelo://app?vid=3768201f-905b-4965-86f4-9da2fc209135"},"vehicle_type_id":"4","last_reported":1686935153,"current_range_meters":31200,"station_id":"ce4bhbp2rcd13ifvqerg","pricing_plan_id":"free"},{"bike_id":"db3aa805-ee96-4690-84a6-193bec02968e","system_id":"levelo_inurba_marseille","lat":43.28267,"lon":5.35073,"is_reserved":false,"is_disabled":false,"rental_uris":{"android":"levelo://app?vid=db3aa805-ee96-4690-84a6-193bec02968e","ios":"levelo://app?vid=db3aa805-ee96-4690-84a6-193bec02968e"},"vehicle_type_id":"4","last_reported":1686935153,"current_range_meters":31200,"station_id":"ce4bhbp2rcd13ifvqerg","pricing_plan_id":"free"},{"bike_id":"8764824d-425e-4e29-8a22-4e21f74a343c","system_id":"levelo_inurba_marseille","lat":43.283502,"lon":5.386471,"is_reserved":false,"is_disabled":false,"rental_uris":{"android":"levelo://app?vid=8764824d-425e-4e29-8a22-4e21f74a343c","ios":"levelo://app?vid=8764824d-425e-4e29-8a22-4e21f74a343c"},"vehicle_type_id":"4","last_reported":1686935153,"current_range_meters":23600,"station_id":"ce4bh492rcd13ifvqdvg","pricing_plan_id":"free"},{"bike_id":"500ff4b8-c1e2-41db-9c21-b9aa75885037","system_id":"levelo_inurba_marseille","lat":43.28039,"lon":5.369297,"is_reserved":false,"is_disabled":false,"rental_uris":{"android":"levelo://app?vid=500ff4b8-c1e2-41db-9c21-b9aa75885037","ios":"levelo://app?vid=500ff4b8-c1e2-41db-9c21-b9aa75885037"},"vehicle_type_id":"4","last_reported":1686935153,"current_range_meters":21600,"station_id":"ce4bha12rcd13ifvqef0","pricing_plan_id":"free"},{"bike_id":"71ba2417-38a8-4945-ac9a-7efd34d15781","system_id":"levelo_inurba_marseille","lat":43.296263,"lon":5.40601,"is_reserved":false,"is_disabled":false,"rental_uris":{"android":"levelo://app?vid=71ba2417-38a8-4945-ac9a-7efd34d15781","ios":"levelo://app?vid=71ba2417-38a8-4945-ac9a-7efd34d15781"},"vehicle_type_id":"4","last_reported":1686935153,"current_range_meters":800,"station_id":"ce4bh0h2rcd13ifvqd60","pricing_plan_id":"free"},{"bike_id":"901e47e9-270c-4d3e-9072-26b5a8ca4510","system_id":"levelo_inurba_marseille","lat":43.284462,"lon":5.392121,"is_reserved":false,"is_disabled":false,"rental_uris":{"android":"levelo://app?vid=901e47e9-270c-4d3e-9072-26b5a8ca4510","ios":"levelo://app?vid=901e47e9-270c-4d3e-9072-26b5a8ca4510"},"vehicle_type_id":"4","last_reported":1686935153,"current_range_meters":0,"station_id":"ce4bhoh2rcd13ifvqh5g","pricing_plan_id":"free"},{"bike_id":"63ac74cc-0937-4f8d-b034-559349763d95","system_id":"levelo_inurba_marseille","lat":43.326605,"lon":5.409903,"is_reserved":false,"is_disabled":false,"rental_uris":{"android":"levelo://app?vid=63ac74cc-0937-4f8d-b034-559349763d95","ios":"levelo://app?vid=63ac74cc-0937-4f8d-b034-559349763d95"},"vehicle_type_id":"4","last_reported":1686935153,"current_range_meters":7200,"station_id":"ce4bhpp2rcd13ifvqhgg","pricing_plan_id":"free"},{"bike_id":"74a59d6c-d6c7-460f-bba7-ce13812ac794","system_id":"levelo_inurba_marseille","lat":43.32664,"lon":5.40991,"is_reserved":false,"is_disabled":false,"rental_uris":{"android":"levelo://app?vid=74a59d6c-d6c7-460f-bba7-ce13812ac794","ios":"levelo://app?vid=74a59d6c-d6c7-460f-bba7-ce13812ac794"},"vehicle_type_id":"4","last_reported":1686935153,"current_range_meters":20400,"station_id":"ce4bhpp2rcd13ifvqhgg","pricing_plan_id":"free"},{"bike_id":"319acd4f-9666-4ac2-ae0b-2a10aac97fcd","system_id":"levelo_inurba_marseille","lat":43.326605,"lon":5.409903,"is_reserved":false,"is_disabled":false,"rental_uris":{"android":"levelo://app?vid=319acd4f-9666-4ac2-ae0b-2a10aac97fcd","ios":"levelo://app?vid=319acd4f-9666-4ac2-ae0b-2a10aac97fcd"},"vehicle_type_id":"4","last_reported":1686935153,"current_range_meters":21200,"station_id":"ce4bhpp2rcd13ifvqhgg","pricing_plan_id":"free"},{"bike_id":"7be9f628-a1dd-4275-9865-30860a3d0b49","system_id":"levelo_inurba_marseille","lat":43.3205,"lon":5.41535,"is_reserved":false,"is_disabled":false,"rental_uris":{"android":"levelo://app?vid=7be9f628-a1dd-4275-9865-30860a3d0b49","ios":"levelo://app?vid=7be9f628-a1dd-4275-9865-30860a3d0b49"},"vehicle_type_id":"4","last_reported":1686935153,"current_range_meters":23200,"station_id":"ce4bhq92rcd13ifvqhkg","pricing_plan_id":"free"},{"bike_id":"524bb7a9-71a5-4fdf-937d-ab0afcced769","system_id":"levelo_inurba_marseille","lat":43.32059,"lon":5.41545,"is_reserved":false,"is_disabled":false,"rental_uris":{"android":"levelo://app?vid=524bb7a9-71a5-4fdf-937d-ab0afcced769","ios":"levelo://app?vid=524bb7a9-71a5-4fdf-937d-ab0afcced769"},"vehicle_type_id":"4","last_reported":1686935153,"current_range_meters":0,"station_id":"ce4bhq92rcd13ifvqhkg","pricing_plan_id":"free"},{"bike_id":"8f714ab9-6f41-47b2-9284-97205b88934f","system_id":"levelo_inurba_marseille","lat":43.325233,"lon":5.414318,"is_reserved":false,"is_disabled":false,"rental_uris":{"android":"levelo://app?vid=8f714ab9-6f41-47b2-9284-97205b88934f","ios":"levelo://app?vid=8f714ab9-6f41-47b2-9284-97205b88934f"},"vehicle_type_id":"4","last_reported":1686935153,"current_range_meters":30000,"station_id":"ce4bhq12rcd13ifvqhhg","pricing_plan_id":"free"},{"bike_id":"105b359c-3662-41db-be59-5b265d3c9382","system_id":"levelo_inurba_marseille","lat":43.278399,"lon":5.392139,"is_reserved":false,"is_disabled":false,"rental_uris":{"android":"levelo://app?vid=105b359c-3662-41db-be59-5b265d3c9382","ios":"levelo://app?vid=105b359c-3662-41db-be59-5b265d3c9382"},"vehicle_type_id":"4","last_reported":1686935153,"current_range_meters":22800,"station_id":"ce4bhjp2rcd13ifvqga0","pricing_plan_id":"free"},{"bike_id":"309b70e8-aa59-4d0c-9891-d91454f8aee7","system_id":"levelo_inurba_marseille","lat":43.27383,"lon":5.36252,"is_reserved":false,"is_disabled":false,"rental_uris":{"android":"levelo://app?vid=309b70e8-aa59-4d0c-9891-d91454f8aee7","ios":"levelo://app?vid=309b70e8-aa59-4d0c-9891-d91454f8aee7"},"vehicle_type_id":"4","last_reported":1686935153,"current_range_meters":31200,"station_id":"","pricing_plan_id":"free"},{"bike_id":"969d5ff0-35fb-4dd1-ad5b-2a7228acd843","system_id":"levelo_inurba_marseille","lat":43.273609,"lon":5.362708,"is_reserved":false,"is_disabled":false,"rental_uris":{"android":"levelo://app?vid=969d5ff0-35fb-4dd1-ad5b-2a7228acd843","ios":"levelo://app?vid=969d5ff0-35fb-4dd1-ad5b-2a7228acd843"},"vehicle_type_id":"4","last_reported":1686935153,"current_range_meters":0,"station_id":"ce4bhbh2rcd13ifvqeo0","pricing_plan_id":"free"},{"bike_id":"3c9d0b4f-cd95-4a3c-8aaa-a37c239fb2e4","system_id":"levelo_inurba_marseille","lat":43.310785,"lon":5.424305,"is_reserved":false,"is_disabled":false,"rental_uris":{"android":"levelo://app?vid=3c9d0b4f-cd95-4a3c-8aaa-a37c239fb2e4","ios":"levelo://app?vid=3c9d0b4f-cd95-4a3c-8aaa-a37c239fb2e4"},"vehicle_type_id":"4","last_reported":1686935153,"current_range_meters":19200,"station_id":"ce4bhp92rcd13ifvqhag","pricing_plan_id":"free"},{"bike_id":"2bf68ed4-d662-490c-901e-9818bd9d939e","system_id":"levelo_inurba_marseille","lat":43.317121,"lon":5.423936,"is_reserved":false,"is_disabled":false,"rental_uris":{"android":"levelo://app?vid=2bf68ed4-d662-490c-901e-9818bd9d939e","ios":"levelo://app?vid=2bf68ed4-d662-490c-901e-9818bd9d939e"},"vehicle_type_id":"4","last_reported":1686935153,"current_range_meters":3200,"station_id":"ce4bhp92rcd13ifvqhbg","pricing_plan_id":"free"},{"bike_id":"f82c4e0b-ce86-4de4-962b-f266d6ba506e","system_id":"levelo_inurba_marseille","lat":43.273125,"lon":5.390731,"is_reserved":false,"is_disabled":false,"rental_uris":{"android":"levelo://app?vid=f82c4e0b-ce86-4de4-962b-f266d6ba506e","ios":"levelo://app?vid=f82c4e0b-ce86-4de4-962b-f266d6ba506e"},"vehicle_type_id":"4","last_reported":1686935153,"current_range_meters":26800,"station_id":"ce4bhgp2rcd13ifvqfe0","pricing_plan_id":"free"},{"bike_id":"396f21e3-c3dc-4eff-80ca-53986b4c7aca","system_id":"levelo_inurba_marseille","lat":43.304096,"lon":5.425385,"is_reserved":false,"is_disabled":false,"rental_uris":{"android":"levelo://app?vid=396f21e3-c3dc-4eff-80ca-53986b4c7aca","ios":"levelo://app?vid=396f21e3-c3dc-4eff-80ca-53986b4c7aca"},"vehicle_type_id":"4","last_reported":1686935153,"current_range_meters":4400,"station_id":"ce4bhoh2rcd13ifvqh6g","pricing_plan_id":"free"},{"bike_id":"2073da98-cb11-4237-bc27-838b419f344e","system_id":"levelo_inurba_marseille","lat":43.304096,"lon":5.425385,"is_reserved":false,"is_disabled":false,"rental_uris":{"android":"levelo://app?vid=2073da98-cb11-4237-bc27-838b419f344e","ios":"levelo://app?vid=2073da98-cb11-4237-bc27-838b419f344e"},"vehicle_type_id":"4","last_reported":1686935153,"current_range_meters":27600,"station_id":"ce4bhoh2rcd13ifvqh6g","pricing_plan_id":"free"},{"bike_id":"db738770-a4e6-4b9f-b60c-c3bced13f212","system_id":"levelo_inurba_marseille","lat":43.29551,"lon":5.42291,"is_reserved":false,"is_disabled":false,"rental_uris":{"android":"levelo://app?vid=db738770-a4e6-4b9f-b60c-c3bced13f212","ios":"levelo://app?vid=db738770-a4e6-4b9f-b60c-c3bced13f212"},"vehicle_type_id":"4","last_reported":1686935153,"current_range_meters":14000,"station_id":"ce4bhph2rcd13ifvqhdg","pricing_plan_id":"free"},{"bike_id":"e776a666-46bc-406a-af37-4894f05974ba","system_id":"levelo_inurba_marseille","lat":43.295511,"lon":5.422926,"is_reserved":false,"is_disabled":false,"rental_uris":{"android":"levelo://app?vid=e776a666-46bc-406a-af37-4894f05974ba","ios":"levelo://app?vid=e776a666-46bc-406a-af37-4894f05974ba"},"vehicle_type_id":"4","last_reported":1686935153,"current_range_meters":24400,"station_id":"ce4bhph2rcd13ifvqhdg","pricing_plan_id":"free"},{"bike_id":"bf9514b3-9aa7-40da-b546-16e91553ac3b","system_id":"levelo_inurba_marseille","lat":43.278128,"lon":5.407195,"is_reserved":false,"is_disabled":false,"rental_uris":{"android":"levelo://app?vid=bf9514b3-9aa7-40da-b546-16e91553ac3b","ios":"levelo://app?vid=bf9514b3-9aa7-40da-b546-16e91553ac3b"},"vehicle_type_id":"4","last_reported":1686935153,"current_range_meters":25200,"station_id":"ce4bhnh2rcd13ifvqgtg","pricing_plan_id":"free"},{"bike_id":"8a046e0c-04fe-446c-8d46-296c2fdd5cad","system_id":"levelo_inurba_marseille","lat":43.269467,"lon":5.386439,"is_reserved":false,"is_disabled":false,"rental_uris":{"android":"levelo://app?vid=8a046e0c-04fe-446c-8d46-296c2fdd5cad","ios":"levelo://app?vid=8a046e0c-04fe-446c-8d46-296c2fdd5cad"},"vehicle_type_id":"4","last_reported":1686935153,"current_range_meters":0,"station_id":"ce4bhh92rcd13ifvqfh0","pricing_plan_id":"free"},{"bike_id":"f568dca3-34c0-46f6-9312-7435fb412fa0","system_id":"levelo_inurba_marseille","lat":43.269319,"lon":5.389397,"is_reserved":false,"is_disabled":false,"rental_uris":{"android":"levelo://app?vid=f568dca3-34c0-46f6-9312-7435fb412fa0","ios":"levelo://app?vid=f568dca3-34c0-46f6-9312-7435fb412fa0"},"vehicle_type_id":"4","last_reported":1686935153,"current_range_meters":25200,"station_id":"ce4bhhh2rcd13ifvqfl0","pricing_plan_id":"free"},{"bike_id":"cfba2fbe-9ed5-423f-b411-8d6c38451715","system_id":"levelo_inurba_marseille","lat":43.26681,"lon":5.382694,"is_reserved":false,"is_disabled":false,"rental_uris":{"android":"levelo://app?vid=cfba2fbe-9ed5-423f-b411-8d6c38451715","ios":"levelo://app?vid=cfba2fbe-9ed5-423f-b411-8d6c38451715"},"vehicle_type_id":"4","last_reported":1686935153,"current_range_meters":31200,"station_id":"ce4bhg92rcd13ifvqf90","pricing_plan_id":"free"},{"bike_id":"74b870d7-dd65-49b2-af31-ed98dfb18a73","system_id":"levelo_inurba_marseille","lat":43.26681,"lon":5.382694,"is_reserved":false,"is_disabled":false,"rental_uris":{"android":"levelo://app?vid=74b870d7-dd65-49b2-af31-ed98dfb18a73","ios":"levelo://app?vid=74b870d7-dd65-49b2-af31-ed98dfb18a73"},"vehicle_type_id":"4","last_reported":1686935153,"current_range_meters":7200,"station_id":"ce4bhg92rcd13ifvqf90","pricing_plan_id":"free"},{"bike_id":"a86ce201-9582-41d3-a01e-66644086a8da","system_id":"levelo_inurba_marseille","lat":43.26679,"lon":5.38268,"is_reserved":false,"is_disabled":false,"rental_uris":{"android":"levelo://app?vid=a86ce201-9582-41d3-a01e-66644086a8da","ios":"levelo://app?vid=a86ce201-9582-41d3-a01e-66644086a8da"},"vehicle_type_id":"4","last_reported":1686935153,"current_range_meters":21600,"station_id":"ce4bhg92rcd13ifvqf90","pricing_plan_id":"free"},{"bike_id":"131412c0-90cc-45ab-bdac-a4f2b3a3bc1e","system_id":"levelo_inurba_marseille","lat":43.26681,"lon":5.382694,"is_reserved":false,"is_disabled":false,"rental_uris":{"android":"levelo://app?vid=131412c0-90cc-45ab-bdac-a4f2b3a3bc1e","ios":"levelo://app?vid=131412c0-90cc-45ab-bdac-a4f2b3a3bc1e"},"vehicle_type_id":"4","last_reported":1686935153,"current_range_meters":21200,"station_id":"ce4bhg92rcd13ifvqf90","pricing_plan_id":"free"},{"bike_id":"17794b87-fd6f-45bf-91de-b05d2fe333fb","system_id":"levelo_inurba_marseille","lat":43.26681,"lon":5.382694,"is_reserved":false,"is_disabled":false,"rental_uris":{"android":"levelo://app?vid=17794b87-fd6f-45bf-91de-b05d2fe333fb","ios":"levelo://app?vid=17794b87-fd6f-45bf-91de-b05d2fe333fb"},"vehicle_type_id":"4","last_reported":1686935153,"current_range_meters":20800,"station_id":"ce4bhg92rcd13ifvqf90","pricing_plan_id":"free"},{"bike_id":"6275aaca-a354-407f-be44-df40f2969d44","system_id":"levelo_inurba_marseille","lat":43.26681,"lon":5.382694,"is_reserved":false,"is_disabled":false,"rental_uris":{"android":"levelo://app?vid=6275aaca-a354-407f-be44-df40f2969d44","ios":"levelo://app?vid=6275aaca-a354-407f-be44-df40f2969d44"},"vehicle_type_id":"4","last_reported":1686935153,"current_range_meters":31600,"station_id":"ce4bhg92rcd13ifvqf90","pricing_plan_id":"free"},{"bike_id":"45fd3b3e-60cc-485d-9e79-70c5523b4573","system_id":"levelo_inurba_marseille","lat":43.26681,"lon":5.382694,"is_reserved":false,"is_disabled":false,"rental_uris":{"android":"levelo://app?vid=45fd3b3e-60cc-485d-9e79-70c5523b4573","ios":"levelo://app?vid=45fd3b3e-60cc-485d-9e79-70c5523b4573"},"vehicle_type_id":"4","last_reported":1686935153,"current_range_meters":7200,"station_id":"ce4bhg92rcd13ifvqf90","pricing_plan_id":"free"},{"bike_id":"c87552be-019e-4fa6-8396-f3a6aa6f91d9","system_id":"levelo_inurba_marseille","lat":43.27996,"lon":5.416624,"is_reserved":false,"is_disabled":false,"rental_uris":{"android":"levelo://app?vid=c87552be-019e-4fa6-8396-f3a6aa6f91d9","ios":"levelo://app?vid=c87552be-019e-4fa6-8396-f3a6aa6f91d9"},"vehicle_type_id":"4","last_reported":1686935153,"current_range_meters":800,"station_id":"ce4bho12rcd13ifvqh1g","pricing_plan_id":"free"},{"bike_id":"3987290e-fd4b-4f2b-81c0-57fca98f9cde","system_id":"levelo_inurba_marseille","lat":43.267966,"lon":5.393976,"is_reserved":false,"is_disabled":false,"rental_uris":{"android":"levelo://app?vid=3987290e-fd4b-4f2b-81c0-57fca98f9cde","ios":"levelo://app?vid=3987290e-fd4b-4f2b-81c0-57fca98f9cde"},"vehicle_type_id":"4","last_reported":1686935153,"current_range_meters":30000,"station_id":"ce4bhh12rcd13ifvqfg0","pricing_plan_id":"free"},{"bike_id":"ece0b1b2-6c98-4ad9-9ba8-edd9030d9e0d","system_id":"levelo_inurba_marseille","lat":43.261782,"lon":5.374515,"is_reserved":false,"is_disabled":false,"rental_uris":{"android":"levelo://app?vid=ece0b1b2-6c98-4ad9-9ba8-edd9030d9e0d","ios":"levelo://app?vid=ece0b1b2-6c98-4ad9-9ba8-edd9030d9e0d"},"vehicle_type_id":"4","last_reported":1686935153,"current_range_meters":2400,"station_id":"ce4bhgp2rcd13ifvqfc0","pricing_plan_id":"free"},{"bike_id":"32ae8ee1-44a5-4693-a912-f9e1881222c7","system_id":"levelo_inurba_marseille","lat":43.26191,"lon":5.37441,"is_reserved":false,"is_disabled":false,"rental_uris":{"android":"levelo://app?vid=32ae8ee1-44a5-4693-a912-f9e1881222c7","ios":"levelo://app?vid=32ae8ee1-44a5-4693-a912-f9e1881222c7"},"vehicle_type_id":"4","last_reported":1686935153,"current_range_meters":6000,"station_id":"ce4bhgp2rcd13ifvqfc0","pricing_plan_id":"free"},{"bike_id":"646cfaec-5876-425d-a605-598ab0cd3319","system_id":"levelo_inurba_marseille","lat":43.261782,"lon":5.374515,"is_reserved":false,"is_disabled":false,"rental_uris":{"android":"levelo://app?vid=646cfaec-5876-425d-a605-598ab0cd3319","ios":"levelo://app?vid=646cfaec-5876-425d-a605-598ab0cd3319"},"vehicle_type_id":"4","last_reported":1686935153,"current_range_meters":0,"station_id":"ce4bhgp2rcd13ifvqfc0","pricing_plan_id":"free"},{"bike_id":"ab2676ce-d711-43c0-97fd-c681e837a8c9","system_id":"levelo_inurba_marseille","lat":43.2619,"lon":5.37438,"is_reserved":false,"is_disabled":false,"rental_uris":{"android":"levelo://app?vid=ab2676ce-d711-43c0-97fd-c681e837a8c9","ios":"levelo://app?vid=ab2676ce-d711-43c0-97fd-c681e837a8c9"},"vehicle_type_id":"4","last_reported":1686935153,"current_range_meters":0,"station_id":"ce4bhgp2rcd13ifvqfc0","pricing_plan_id":"free"},{"bike_id":"ce10ea99-e4c3-4418-9cbd-dd69a5c0c605","system_id":"levelo_inurba_marseille","lat":43.261782,"lon":5.374515,"is_reserved":false,"is_disabled":false,"rental_uris":{"android":"levelo://app?vid=ce10ea99-e4c3-4418-9cbd-dd69a5c0c605","ios":"levelo://app?vid=ce10ea99-e4c3-4418-9cbd-dd69a5c0c605"},"vehicle_type_id":"4","last_reported":1686935153,"current_range_meters":11200,"station_id":"ce4bhgp2rcd13ifvqfc0","pricing_plan_id":"free"},{"bike_id":"b102bc94-d8cb-459f-a2af-812a1bf11581","system_id":"levelo_inurba_marseille","lat":43.261782,"lon":5.374515,"is_reserved":false,"is_disabled":false,"rental_uris":{"android":"levelo://app?vid=b102bc94-d8cb-459f-a2af-812a1bf11581","ios":"levelo://app?vid=b102bc94-d8cb-459f-a2af-812a1bf11581"},"vehicle_type_id":"4","last_reported":1686935153,"current_range_meters":4400,"station_id":"ce4bhgp2rcd13ifvqfc0","pricing_plan_id":"free"},{"bike_id":"c986f20f-5bf5-48cc-9726-647d8416715d","system_id":"levelo_inurba_marseille","lat":43.261782,"lon":5.374515,"is_reserved":false,"is_disabled":false,"rental_uris":{"android":"levelo://app?vid=c986f20f-5bf5-48cc-9726-647d8416715d","ios":"levelo://app?vid=c986f20f-5bf5-48cc-9726-647d8416715d"},"vehicle_type_id":"4","last_reported":1686935153,"current_range_meters":22800,"station_id":"ce4bhgp2rcd13ifvqfc0","pricing_plan_id":"free"},{"bike_id":"3c95ff38-d5db-4a2e-b5a6-5c99719e88e4","system_id":"levelo_inurba_marseille","lat":43.261782,"lon":5.374515,"is_reserved":false,"is_disabled":false,"rental_uris":{"android":"levelo://app?vid=3c95ff38-d5db-4a2e-b5a6-5c99719e88e4","ios":"levelo://app?vid=3c95ff38-d5db-4a2e-b5a6-5c99719e88e4"},"vehicle_type_id":"4","last_reported":1686935153,"current_range_meters":400,"station_id":"ce4bhgp2rcd13ifvqfc0","pricing_plan_id":"free"},{"bike_id":"d2683895-114c-454d-a9b9-69030f7ec07c","system_id":"levelo_inurba_marseille","lat":43.26189,"lon":5.37441,"is_reserved":false,"is_disabled":false,"rental_uris":{"android":"levelo://app?vid=d2683895-114c-454d-a9b9-69030f7ec07c","ios":"levelo://app?vid=d2683895-114c-454d-a9b9-69030f7ec07c"},"vehicle_type_id":"4","last_reported":1686935153,"current_range_meters":10000,"station_id":"ce4bhgp2rcd13ifvqfc0","pricing_plan_id":"free"},{"bike_id":"b50564c5-4dcf-4fbd-b0ac-70edc4f15fd8","system_id":"levelo_inurba_marseille","lat":43.261782,"lon":5.374515,"is_reserved":false,"is_disabled":false,"rental_uris":{"android":"levelo://app?vid=b50564c5-4dcf-4fbd-b0ac-70edc4f15fd8","ios":"levelo://app?vid=b50564c5-4dcf-4fbd-b0ac-70edc4f15fd8"},"vehicle_type_id":"4","last_reported":1686935153,"current_range_meters":31200,"station_id":"ce4bhgp2rcd13ifvqfc0","pricing_plan_id":"free"},{"bike_id":"3a67f873-511d-4b64-917b-fe8055a35e70","system_id":"levelo_inurba_marseille","lat":43.26188,"lon":5.37439,"is_reserved":false,"is_disabled":false,"rental_uris":{"android":"levelo://app?vid=3a67f873-511d-4b64-917b-fe8055a35e70","ios":"levelo://app?vid=3a67f873-511d-4b64-917b-fe8055a35e70"},"vehicle_type_id":"4","last_reported":1686935153,"current_range_meters":10800,"station_id":"ce4bhgp2rcd13ifvqfc0","pricing_plan_id":"free"},{"bike_id":"d4dd31c7-0ed8-48db-9484-218012c5c450","system_id":"levelo_inurba_marseille","lat":43.26187,"lon":5.37441,"is_reserved":false,"is_disabled":false,"rental_uris":{"android":"levelo://app?vid=d4dd31c7-0ed8-48db-9484-218012c5c450","ios":"levelo://app?vid=d4dd31c7-0ed8-48db-9484-218012c5c450"},"vehicle_type_id":"4","last_reported":1686935153,"current_range_meters":0,"station_id":"ce4bhgp2rcd13ifvqfc0","pricing_plan_id":"free"},{"bike_id":"0011c012-5f08-4eff-8733-a240351feb84","system_id":"levelo_inurba_marseille","lat":43.261782,"lon":5.374515,"is_reserved":false,"is_disabled":false,"rental_uris":{"android":"levelo://app?vid=0011c012-5f08-4eff-8733-a240351feb84","ios":"levelo://app?vid=0011c012-5f08-4eff-8733-a240351feb84"},"vehicle_type_id":"4","last_reported":1686935153,"current_range_meters":11200,"station_id":"ce4bhgp2rcd13ifvqfc0","pricing_plan_id":"free"},{"bike_id":"8160c2a8-cadb-4372-b210-8e02342a5471","system_id":"levelo_inurba_marseille","lat":43.261782,"lon":5.374515,"is_reserved":false,"is_disabled":false,"rental_uris":{"android":"levelo://app?vid=8160c2a8-cadb-4372-b210-8e02342a5471","ios":"levelo://app?vid=8160c2a8-cadb-4372-b210-8e02342a5471"},"vehicle_type_id":"4","last_reported":1686935153,"current_range_meters":1200,"station_id":"ce4bhgp2rcd13ifvqfc0","pricing_plan_id":"free"},{"bike_id":"ac41dcd8-4a9c-41f9-8115-61d062a79023","system_id":"levelo_inurba_marseille","lat":43.26186,"lon":5.37443,"is_reserved":false,"is_disabled":false,"rental_uris":{"android":"levelo://app?vid=ac41dcd8-4a9c-41f9-8115-61d062a79023","ios":"levelo://app?vid=ac41dcd8-4a9c-41f9-8115-61d062a79023"},"vehicle_type_id":"4","last_reported":1686935153,"current_range_meters":5200,"station_id":"","pricing_plan_id":"free"},{"bike_id":"7a2b5b61-7bf7-4029-910c-11a24702c094","system_id":"levelo_inurba_marseille","lat":43.26185,"lon":5.37441,"is_reserved":false,"is_disabled":false,"rental_uris":{"android":"levelo://app?vid=7a2b5b61-7bf7-4029-910c-11a24702c094","ios":"levelo://app?vid=7a2b5b61-7bf7-4029-910c-11a24702c094"},"vehicle_type_id":"4","last_reported":1686935153,"current_range_meters":18000,"station_id":"ce4bhgp2rcd13ifvqfc0","pricing_plan_id":"free"},{"bike_id":"1c8733a1-ad21-4284-a65b-6f6b8dda187d","system_id":"levelo_inurba_marseille","lat":43.26185,"lon":5.37444,"is_reserved":false,"is_disabled":false,"rental_uris":{"android":"levelo://app?vid=1c8733a1-ad21-4284-a65b-6f6b8dda187d","ios":"levelo://app?vid=1c8733a1-ad21-4284-a65b-6f6b8dda187d"},"vehicle_type_id":"4","last_reported":1686935153,"current_range_meters":16400,"station_id":"ce4bhgp2rcd13ifvqfc0","pricing_plan_id":"free"},{"bike_id":"088a0517-8f39-47d1-b625-26421c957b0f","system_id":"levelo_inurba_marseille","lat":43.261782,"lon":5.374515,"is_reserved":false,"is_disabled":false,"rental_uris":{"android":"levelo://app?vid=088a0517-8f39-47d1-b625-26421c957b0f","ios":"levelo://app?vid=088a0517-8f39-47d1-b625-26421c957b0f"},"vehicle_type_id":"4","last_reported":1686935153,"current_range_meters":0,"station_id":"ce4bhgp2rcd13ifvqfc0","pricing_plan_id":"free"},{"bike_id":"897dee5a-40a5-48e6-b2b9-285c5e8c02ec","system_id":"levelo_inurba_marseille","lat":43.261782,"lon":5.374515,"is_reserved":false,"is_disabled":false,"rental_uris":{"android":"levelo://app?vid=897dee5a-40a5-48e6-b2b9-285c5e8c02ec","ios":"levelo://app?vid=897dee5a-40a5-48e6-b2b9-285c5e8c02ec"},"vehicle_type_id":"4","last_reported":1686935153,"current_range_meters":2000,"station_id":"ce4bhgp2rcd13ifvqfc0","pricing_plan_id":"free"},{"bike_id":"e43c7382-d423-48c5-a297-7d63a392bcb6","system_id":"levelo_inurba_marseille","lat":43.26185,"lon":5.37447,"is_reserved":false,"is_disabled":false,"rental_uris":{"android":"levelo://app?vid=e43c7382-d423-48c5-a297-7d63a392bcb6","ios":"levelo://app?vid=e43c7382-d423-48c5-a297-7d63a392bcb6"},"vehicle_type_id":"4","last_reported":1686935153,"current_range_meters":3600,"station_id":"ce4bhgp2rcd13ifvqfc0","pricing_plan_id":"free"},{"bike_id":"2b57445f-58fd-4b38-a842-6a5af8b134c7","system_id":"levelo_inurba_marseille","lat":43.26184,"lon":5.37442,"is_reserved":false,"is_disabled":false,"rental_uris":{"android":"levelo://app?vid=2b57445f-58fd-4b38-a842-6a5af8b134c7","ios":"levelo://app?vid=2b57445f-58fd-4b38-a842-6a5af8b134c7"},"vehicle_type_id":"4","last_reported":1686935153,"current_range_meters":4400,"station_id":"ce4bhgp2rcd13ifvqfc0","pricing_plan_id":"free"},{"bike_id":"4a022212-eca9-492b-abf7-5e9285da37c6","system_id":"levelo_inurba_marseille","lat":43.26182,"lon":5.3744,"is_reserved":false,"is_disabled":false,"rental_uris":{"android":"levelo://app?vid=4a022212-eca9-492b-abf7-5e9285da37c6","ios":"levelo://app?vid=4a022212-eca9-492b-abf7-5e9285da37c6"},"vehicle_type_id":"4","last_reported":1686935153,"current_range_meters":21200,"station_id":"ce4bhgp2rcd13ifvqfc0","pricing_plan_id":"free"},{"bike_id":"5ddb55f6-3e92-4f9a-8e95-4d5880813dc9","system_id":"levelo_inurba_marseille","lat":43.26213,"lon":5.3792,"is_reserved":false,"is_disabled":false,"rental_uris":{"android":"levelo://app?vid=5ddb55f6-3e92-4f9a-8e95-4d5880813dc9","ios":"levelo://app?vid=5ddb55f6-3e92-4f9a-8e95-4d5880813dc9"},"vehicle_type_id":"4","last_reported":1686935153,"current_range_meters":1600,"station_id":"ce4bhjp2rcd13ifvqg90","pricing_plan_id":"free"},{"bike_id":"daac0333-dbfc-48a5-8160-31833bb5fd7c","system_id":"levelo_inurba_marseille","lat":43.26202,"lon":5.379299,"is_reserved":false,"is_disabled":false,"rental_uris":{"android":"levelo://app?vid=daac0333-dbfc-48a5-8160-31833bb5fd7c","ios":"levelo://app?vid=daac0333-dbfc-48a5-8160-31833bb5fd7c"},"vehicle_type_id":"4","last_reported":1686935153,"current_range_meters":27200,"station_id":"ce4bhjp2rcd13ifvqg90","pricing_plan_id":"free"},{"bike_id":"b4438a96-040d-4da3-8190-6e8427d21e32","system_id":"levelo_inurba_marseille","lat":43.26208,"lon":5.37923,"is_reserved":false,"is_disabled":false,"rental_uris":{"android":"levelo://app?vid=b4438a96-040d-4da3-8190-6e8427d21e32","ios":"levelo://app?vid=b4438a96-040d-4da3-8190-6e8427d21e32"},"vehicle_type_id":"4","last_reported":1686935153,"current_range_meters":9600,"station_id":"ce4bhjp2rcd13ifvqg90","pricing_plan_id":"free"},{"bike_id":"cd6b46fc-36aa-450c-9866-15273c092f71","system_id":"levelo_inurba_marseille","lat":43.26202,"lon":5.379299,"is_reserved":false,"is_disabled":false,"rental_uris":{"android":"levelo://app?vid=cd6b46fc-36aa-450c-9866-15273c092f71","ios":"levelo://app?vid=cd6b46fc-36aa-450c-9866-15273c092f71"},"vehicle_type_id":"4","last_reported":1686935153,"current_range_meters":0,"station_id":"ce4bhjp2rcd13ifvqg90","pricing_plan_id":"free"},{"bike_id":"af87371b-abc9-4142-abfc-17410517b812","system_id":"levelo_inurba_marseille","lat":43.26207,"lon":5.37918,"is_reserved":false,"is_disabled":false,"rental_uris":{"android":"levelo://app?vid=af87371b-abc9-4142-abfc-17410517b812","ios":"levelo://app?vid=af87371b-abc9-4142-abfc-17410517b812"},"vehicle_type_id":"4","last_reported":1686935153,"current_range_meters":2000,"station_id":"ce4bhjp2rcd13ifvqg90","pricing_plan_id":"free"},{"bike_id":"5ac085d7-8649-4990-8085-b600b60eb0d3","system_id":"levelo_inurba_marseille","lat":43.26207,"lon":5.37924,"is_reserved":false,"is_disabled":false,"rental_uris":{"android":"levelo://app?vid=5ac085d7-8649-4990-8085-b600b60eb0d3","ios":"levelo://app?vid=5ac085d7-8649-4990-8085-b600b60eb0d3"},"vehicle_type_id":"4","last_reported":1686935153,"current_range_meters":3600,"station_id":"ce4bhjp2rcd13ifvqg90","pricing_plan_id":"free"},{"bike_id":"d11b2b8a-fc3f-4a6e-a031-fca57f2a6dbe","system_id":"levelo_inurba_marseille","lat":43.26202,"lon":5.379299,"is_reserved":false,"is_disabled":false,"rental_uris":{"android":"levelo://app?vid=d11b2b8a-fc3f-4a6e-a031-fca57f2a6dbe","ios":"levelo://app?vid=d11b2b8a-fc3f-4a6e-a031-fca57f2a6dbe"},"vehicle_type_id":"4","last_reported":1686935153,"current_range_meters":26800,"station_id":"ce4bhjp2rcd13ifvqg90","pricing_plan_id":"free"},{"bike_id":"a017d87b-ebf2-4782-b843-25d585c6a6e2","system_id":"levelo_inurba_marseille","lat":43.26202,"lon":5.379299,"is_reserved":false,"is_disabled":false,"rental_uris":{"android":"levelo://app?vid=a017d87b-ebf2-4782-b843-25d585c6a6e2","ios":"levelo://app?vid=a017d87b-ebf2-4782-b843-25d585c6a6e2"},"vehicle_type_id":"4","last_reported":1686935153,"current_range_meters":19200,"station_id":"ce4bhjp2rcd13ifvqg90","pricing_plan_id":"free"},{"bike_id":"9c45573d-7e2a-4e16-a7ba-cfe7257710aa","system_id":"levelo_inurba_marseille","lat":43.26206,"lon":5.37924,"is_reserved":false,"is_disabled":false,"rental_uris":{"android":"levelo://app?vid=9c45573d-7e2a-4e16-a7ba-cfe7257710aa","ios":"levelo://app?vid=9c45573d-7e2a-4e16-a7ba-cfe7257710aa"},"vehicle_type_id":"4","last_reported":1686935153,"current_range_meters":17200,"station_id":"ce4bhjp2rcd13ifvqg90","pricing_plan_id":"free"},{"bike_id":"6345dde2-8be5-4b14-b554-75b467131e9d","system_id":"levelo_inurba_marseille","lat":43.26202,"lon":5.379299,"is_reserved":false,"is_disabled":false,"rental_uris":{"android":"levelo://app?vid=6345dde2-8be5-4b14-b554-75b467131e9d","ios":"levelo://app?vid=6345dde2-8be5-4b14-b554-75b467131e9d"},"vehicle_type_id":"4","last_reported":1686935153,"current_range_meters":22800,"station_id":"ce4bhjp2rcd13ifvqg90","pricing_plan_id":"free"},{"bike_id":"b52e203b-a3cd-44f4-97b3-a664966960fe","system_id":"levelo_inurba_marseille","lat":43.26202,"lon":5.379299,"is_reserved":false,"is_disabled":false,"rental_uris":{"android":"levelo://app?vid=b52e203b-a3cd-44f4-97b3-a664966960fe","ios":"levelo://app?vid=b52e203b-a3cd-44f4-97b3-a664966960fe"},"vehicle_type_id":"4","last_reported":1686935153,"current_range_meters":12800,"station_id":"ce4bhjp2rcd13ifvqg90","pricing_plan_id":"free"},{"bike_id":"3a142ae7-ef8c-48a8-8d04-e0bb2909522b","system_id":"levelo_inurba_marseille","lat":43.26204,"lon":5.37926,"is_reserved":false,"is_disabled":false,"rental_uris":{"android":"levelo://app?vid=3a142ae7-ef8c-48a8-8d04-e0bb2909522b","ios":"levelo://app?vid=3a142ae7-ef8c-48a8-8d04-e0bb2909522b"},"vehicle_type_id":"4","last_reported":1686935153,"current_range_meters":800,"station_id":"ce4bhjp2rcd13ifvqg90","pricing_plan_id":"free"},{"bike_id":"c622a3d2-c0d0-4fed-a4ef-52de91303c57","system_id":"levelo_inurba_marseille","lat":43.26204,"lon":5.37928,"is_reserved":false,"is_disabled":false,"rental_uris":{"android":"levelo://app?vid=c622a3d2-c0d0-4fed-a4ef-52de91303c57","ios":"levelo://app?vid=c622a3d2-c0d0-4fed-a4ef-52de91303c57"},"vehicle_type_id":"4","last_reported":1686935153,"current_range_meters":7200,"station_id":"ce4bhjp2rcd13ifvqg90","pricing_plan_id":"free"},{"bike_id":"fea41673-a085-442a-92a0-90fd61618e6f","system_id":"levelo_inurba_marseille","lat":43.262044,"lon":5.379317,"is_reserved":false,"is_disabled":false,"rental_uris":{"android":"levelo://app?vid=fea41673-a085-442a-92a0-90fd61618e6f","ios":"levelo://app?vid=fea41673-a085-442a-92a0-90fd61618e6f"},"vehicle_type_id":"4","last_reported":1686935153,"current_range_meters":3600,"station_id":"ce4bhjp2rcd13ifvqg90","pricing_plan_id":"free"},{"bike_id":"2a1b23f2-dabb-4511-ba16-c075d2484d5d","system_id":"levelo_inurba_marseille","lat":43.26202,"lon":5.379299,"is_reserved":false,"is_disabled":false,"rental_uris":{"android":"levelo://app?vid=2a1b23f2-dabb-4511-ba16-c075d2484d5d","ios":"levelo://app?vid=2a1b23f2-dabb-4511-ba16-c075d2484d5d"},"vehicle_type_id":"4","last_reported":1686935153,"current_range_meters":6000,"station_id":"ce4bhjp2rcd13ifvqg90","pricing_plan_id":"free"},{"bike_id":"6c9b2446-e41d-4f27-86ef-6b3d46ce64d4","system_id":"levelo_inurba_marseille","lat":43.262041,"lon":5.379325,"is_reserved":false,"is_disabled":false,"rental_uris":{"android":"levelo://app?vid=6c9b2446-e41d-4f27-86ef-6b3d46ce64d4","ios":"levelo://app?vid=6c9b2446-e41d-4f27-86ef-6b3d46ce64d4"},"vehicle_type_id":"4","last_reported":1686935153,"current_range_meters":2800,"station_id":"ce4bhjp2rcd13ifvqg90","pricing_plan_id":"free"},{"bike_id":"1c50530b-b2e4-4b41-ae0c-282e246b3ee9","system_id":"levelo_inurba_marseille","lat":43.26203,"lon":5.37925,"is_reserved":false,"is_disabled":false,"rental_uris":{"android":"levelo://app?vid=1c50530b-b2e4-4b41-ae0c-282e246b3ee9","ios":"levelo://app?vid=1c50530b-b2e4-4b41-ae0c-282e246b3ee9"},"vehicle_type_id":"4","last_reported":1686935153,"current_range_meters":26400,"station_id":"ce4bhjp2rcd13ifvqg90","pricing_plan_id":"free"},{"bike_id":"e572aed1-71e6-49ea-a174-5691c7cd1da6","system_id":"levelo_inurba_marseille","lat":43.262012,"lon":5.379307,"is_reserved":false,"is_disabled":false,"rental_uris":{"android":"levelo://app?vid=e572aed1-71e6-49ea-a174-5691c7cd1da6","ios":"levelo://app?vid=e572aed1-71e6-49ea-a174-5691c7cd1da6"},"vehicle_type_id":"4","last_reported":1686935153,"current_range_meters":0,"station_id":"ce4bhjp2rcd13ifvqg90","pricing_plan_id":"free"},{"bike_id":"c1852bfd-6840-44ca-b507-a10564223d89","system_id":"levelo_inurba_marseille","lat":43.262036,"lon":5.379318,"is_reserved":false,"is_disabled":false,"rental_uris":{"android":"levelo://app?vid=c1852bfd-6840-44ca-b507-a10564223d89","ios":"levelo://app?vid=c1852bfd-6840-44ca-b507-a10564223d89"},"vehicle_type_id":"4","last_reported":1686935153,"current_range_meters":4800,"station_id":"ce4bhjp2rcd13ifvqg90","pricing_plan_id":"free"},{"bike_id":"0e60e233-b07f-48cd-a83e-99e3950ea7ae","system_id":"levelo_inurba_marseille","lat":43.26202,"lon":5.379299,"is_reserved":false,"is_disabled":false,"rental_uris":{"android":"levelo://app?vid=0e60e233-b07f-48cd-a83e-99e3950ea7ae","ios":"levelo://app?vid=0e60e233-b07f-48cd-a83e-99e3950ea7ae"},"vehicle_type_id":"4","last_reported":1686935153,"current_range_meters":21600,"station_id":"ce4bhjp2rcd13ifvqg90","pricing_plan_id":"free"},{"bike_id":"1314fd1f-e069-4617-a027-826e7dc8f158","system_id":"levelo_inurba_marseille","lat":43.26202,"lon":5.379299,"is_reserved":false,"is_disabled":false,"rental_uris":{"android":"levelo://app?vid=1314fd1f-e069-4617-a027-826e7dc8f158","ios":"levelo://app?vid=1314fd1f-e069-4617-a027-826e7dc8f158"},"vehicle_type_id":"4","last_reported":1686935153,"current_range_meters":18000,"station_id":"ce4bhjp2rcd13ifvqg90","pricing_plan_id":"free"},{"bike_id":"02704997-86cc-46e2-8fe6-b9c9aa5373ce","system_id":"levelo_inurba_marseille","lat":43.26202,"lon":5.37926,"is_reserved":false,"is_disabled":false,"rental_uris":{"android":"levelo://app?vid=02704997-86cc-46e2-8fe6-b9c9aa5373ce","ios":"levelo://app?vid=02704997-86cc-46e2-8fe6-b9c9aa5373ce"},"vehicle_type_id":"4","last_reported":1686935153,"current_range_meters":16800,"station_id":"ce4bhjp2rcd13ifvqg90","pricing_plan_id":"free"},{"bike_id":"68339086-9a1e-40e3-b666-8b288940409f","system_id":"levelo_inurba_marseille","lat":43.262025,"lon":5.379312,"is_reserved":false,"is_disabled":false,"rental_uris":{"android":"levelo://app?vid=68339086-9a1e-40e3-b666-8b288940409f","ios":"levelo://app?vid=68339086-9a1e-40e3-b666-8b288940409f"},"vehicle_type_id":"4","last_reported":1686935153,"current_range_meters":19600,"station_id":"ce4bhjp2rcd13ifvqg90","pricing_plan_id":"free"},{"bike_id":"40a30b95-5688-45be-ac3d-11a6e4cadaac","system_id":"levelo_inurba_marseille","lat":43.262024,"lon":5.379333,"is_reserved":false,"is_disabled":false,"rental_uris":{"android":"levelo://app?vid=40a30b95-5688-45be-ac3d-11a6e4cadaac","ios":"levelo://app?vid=40a30b95-5688-45be-ac3d-11a6e4cadaac"},"vehicle_type_id":"4","last_reported":1686935153,"current_range_meters":0,"station_id":"ce4bhjp2rcd13ifvqg90","pricing_plan_id":"free"},{"bike_id":"6867bdb6-91aa-49c3-b63c-816c0b897b04","system_id":"levelo_inurba_marseille","lat":43.26202,"lon":5.37931,"is_reserved":false,"is_disabled":false,"rental_uris":{"android":"levelo://app?vid=6867bdb6-91aa-49c3-b63c-816c0b897b04","ios":"levelo://app?vid=6867bdb6-91aa-49c3-b63c-816c0b897b04"},"vehicle_type_id":"4","last_reported":1686935153,"current_range_meters":6400,"station_id":"ce4bhjp2rcd13ifvqg90","pricing_plan_id":"free"},{"bike_id":"fcc791b7-d7d6-431e-9e36-c8438d7a6101","system_id":"levelo_inurba_marseille","lat":43.262022,"lon":5.379329,"is_reserved":false,"is_disabled":false,"rental_uris":{"android":"levelo://app?vid=fcc791b7-d7d6-431e-9e36-c8438d7a6101","ios":"levelo://app?vid=fcc791b7-d7d6-431e-9e36-c8438d7a6101"},"vehicle_type_id":"4","last_reported":1686935153,"current_range_meters":27600,"station_id":"ce4bhjp2rcd13ifvqg90","pricing_plan_id":"free"},{"bike_id":"8ef504bb-10f5-48c3-a66c-c4ad68e3da58","system_id":"levelo_inurba_marseille","lat":43.262,"lon":5.37923,"is_reserved":false,"is_disabled":false,"rental_uris":{"android":"levelo://app?vid=8ef504bb-10f5-48c3-a66c-c4ad68e3da58","ios":"levelo://app?vid=8ef504bb-10f5-48c3-a66c-c4ad68e3da58"},"vehicle_type_id":"4","last_reported":1686935153,"current_range_meters":18400,"station_id":"ce4bhjp2rcd13ifvqg90","pricing_plan_id":"free"},{"bike_id":"d968640c-41ff-48e7-b790-82f7b592cd6f","system_id":"levelo_inurba_marseille","lat":43.262012,"lon":5.379307,"is_reserved":false,"is_disabled":false,"rental_uris":{"android":"levelo://app?vid=d968640c-41ff-48e7-b790-82f7b592cd6f","ios":"levelo://app?vid=d968640c-41ff-48e7-b790-82f7b592cd6f"},"vehicle_type_id":"4","last_reported":1686935153,"current_range_meters":15600,"station_id":"ce4bhjp2rcd13ifvqg90","pricing_plan_id":"free"},{"bike_id":"22bd9b3c-c84a-4ecb-9d3f-88b997ed2715","system_id":"levelo_inurba_marseille","lat":43.26199,"lon":5.37924,"is_reserved":false,"is_disabled":false,"rental_uris":{"android":"levelo://app?vid=22bd9b3c-c84a-4ecb-9d3f-88b997ed2715","ios":"levelo://app?vid=22bd9b3c-c84a-4ecb-9d3f-88b997ed2715"},"vehicle_type_id":"4","last_reported":1686935153,"current_range_meters":0,"station_id":"ce4bhjp2rcd13ifvqg90","pricing_plan_id":"free"},{"bike_id":"a43604cf-6338-465e-b30a-55c742f1264b","system_id":"levelo_inurba_marseille","lat":43.262,"lon":5.37933,"is_reserved":false,"is_disabled":false,"rental_uris":{"android":"levelo://app?vid=a43604cf-6338-465e-b30a-55c742f1264b","ios":"levelo://app?vid=a43604cf-6338-465e-b30a-55c742f1264b"},"vehicle_type_id":"4","last_reported":1686935153,"current_range_meters":22800,"station_id":"ce4bhjp2rcd13ifvqg90","pricing_plan_id":"free"},{"bike_id":"b9765a6f-f3d2-4480-a13b-28e90420ca3e","system_id":"levelo_inurba_marseille","lat":43.26197,"lon":5.37923,"is_reserved":false,"is_disabled":false,"rental_uris":{"android":"levelo://app?vid=b9765a6f-f3d2-4480-a13b-28e90420ca3e","ios":"levelo://app?vid=b9765a6f-f3d2-4480-a13b-28e90420ca3e"},"vehicle_type_id":"4","last_reported":1686935153,"current_range_meters":6000,"station_id":"ce4bhjp2rcd13ifvqg90","pricing_plan_id":"free"},{"bike_id":"89cc6f51-dbe7-4068-8900-baba62242625","system_id":"levelo_inurba_marseille","lat":43.271368,"lon":5.40928,"is_reserved":false,"is_disabled":false,"rental_uris":{"android":"levelo://app?vid=89cc6f51-dbe7-4068-8900-baba62242625","ios":"levelo://app?vid=89cc6f51-dbe7-4068-8900-baba62242625"},"vehicle_type_id":"4","last_reported":1686935153,"current_range_meters":16000,"station_id":"ce4bhl12rcd13ifvqgf0","pricing_plan_id":"free"},{"bike_id":"cd15df8c-5cdd-4d63-995f-8ebd6cb4d6b2","system_id":"levelo_inurba_marseille","lat":43.267959,"lon":5.402685,"is_reserved":false,"is_disabled":false,"rental_uris":{"android":"levelo://app?vid=cd15df8c-5cdd-4d63-995f-8ebd6cb4d6b2","ios":"levelo://app?vid=cd15df8c-5cdd-4d63-995f-8ebd6cb4d6b2"},"vehicle_type_id":"4","last_reported":1686935153,"current_range_meters":20000,"station_id":"ce501612rcd8frsf0b60","pricing_plan_id":"free"},{"bike_id":"3c98397e-87ee-4781-a5fb-26b63806bf93","system_id":"levelo_inurba_marseille","lat":43.267959,"lon":5.402685,"is_reserved":false,"is_disabled":false,"rental_uris":{"android":"levelo://app?vid=3c98397e-87ee-4781-a5fb-26b63806bf93","ios":"levelo://app?vid=3c98397e-87ee-4781-a5fb-26b63806bf93"},"vehicle_type_id":"4","last_reported":1686935153,"current_range_meters":4000,"station_id":"ce501612rcd8frsf0b60","pricing_plan_id":"free"},{"bike_id":"388a7721-7328-41ae-b2e5-7445ad431733","system_id":"levelo_inurba_marseille","lat":43.267959,"lon":5.402687,"is_reserved":false,"is_disabled":false,"rental_uris":{"android":"levelo://app?vid=388a7721-7328-41ae-b2e5-7445ad431733","ios":"levelo://app?vid=388a7721-7328-41ae-b2e5-7445ad431733"},"vehicle_type_id":"4","last_reported":1686935153,"current_range_meters":0,"station_id":"ce501612rcd8frsf0b60","pricing_plan_id":"free"},{"bike_id":"42fb1db2-3dfe-4d78-bad9-d0f97b06f2d5","system_id":"levelo_inurba_marseille","lat":43.298768,"lon":5.43643,"is_reserved":false,"is_disabled":false,"rental_uris":{"android":"levelo://app?vid=42fb1db2-3dfe-4d78-bad9-d0f97b06f2d5","ios":"levelo://app?vid=42fb1db2-3dfe-4d78-bad9-d0f97b06f2d5"},"vehicle_type_id":"4","last_reported":1686935153,"current_range_meters":12400,"station_id":"ce4bhpp2rcd13ifvqhfg","pricing_plan_id":"free"},{"bike_id":"fc6f6dd1-5daa-490a-b3ad-4f064d9c1cfe","system_id":"levelo_inurba_marseille","lat":43.260225,"lon":5.375455,"is_reserved":false,"is_disabled":false,"rental_uris":{"android":"levelo://app?vid=fc6f6dd1-5daa-490a-b3ad-4f064d9c1cfe","ios":"levelo://app?vid=fc6f6dd1-5daa-490a-b3ad-4f064d9c1cfe"},"vehicle_type_id":"4","last_reported":1686935153,"current_range_meters":24000,"station_id":"ce4bhgh2rcd13ifvqfa0","pricing_plan_id":"free"},{"bike_id":"5e548f9c-38cb-44b7-a781-7c0ec4c97953","system_id":"levelo_inurba_marseille","lat":43.260225,"lon":5.375455,"is_reserved":false,"is_disabled":false,"rental_uris":{"android":"levelo://app?vid=5e548f9c-38cb-44b7-a781-7c0ec4c97953","ios":"levelo://app?vid=5e548f9c-38cb-44b7-a781-7c0ec4c97953"},"vehicle_type_id":"4","last_reported":1686935153,"current_range_meters":16800,"station_id":"ce4bhgh2rcd13ifvqfa0","pricing_plan_id":"free"},{"bike_id":"0f76b100-c1f9-40de-9027-82d8a34d77da","system_id":"levelo_inurba_marseille","lat":43.260219,"lon":5.37546,"is_reserved":false,"is_disabled":false,"rental_uris":{"android":"levelo://app?vid=0f76b100-c1f9-40de-9027-82d8a34d77da","ios":"levelo://app?vid=0f76b100-c1f9-40de-9027-82d8a34d77da"},"vehicle_type_id":"4","last_reported":1686935153,"current_range_meters":20800,"station_id":"ce4bhgh2rcd13ifvqfa0","pricing_plan_id":"free"},{"bike_id":"48fd9ed1-66eb-4144-bf27-60a2848eeffd","system_id":"levelo_inurba_marseille","lat":43.26029,"lon":5.37548,"is_reserved":false,"is_disabled":false,"rental_uris":{"android":"levelo://app?vid=48fd9ed1-66eb-4144-bf27-60a2848eeffd","ios":"levelo://app?vid=48fd9ed1-66eb-4144-bf27-60a2848eeffd"},"vehicle_type_id":"4","last_reported":1686935153,"current_range_meters":27600,"station_id":"ce4bhgh2rcd13ifvqfa0","pricing_plan_id":"free"},{"bike_id":"34812181-475b-431f-9c2f-ba182cc9f568","system_id":"levelo_inurba_marseille","lat":43.260219,"lon":5.37546,"is_reserved":false,"is_disabled":false,"rental_uris":{"android":"levelo://app?vid=34812181-475b-431f-9c2f-ba182cc9f568","ios":"levelo://app?vid=34812181-475b-431f-9c2f-ba182cc9f568"},"vehicle_type_id":"4","last_reported":1686935153,"current_range_meters":10400,"station_id":"ce4bhgh2rcd13ifvqfa0","pricing_plan_id":"free"},{"bike_id":"4df57491-8958-4e80-8bd4-9018284dee07","system_id":"levelo_inurba_marseille","lat":43.26028,"lon":5.37548,"is_reserved":false,"is_disabled":false,"rental_uris":{"android":"levelo://app?vid=4df57491-8958-4e80-8bd4-9018284dee07","ios":"levelo://app?vid=4df57491-8958-4e80-8bd4-9018284dee07"},"vehicle_type_id":"4","last_reported":1686935153,"current_range_meters":24000,"station_id":"ce4bhgh2rcd13ifvqfa0","pricing_plan_id":"free"},{"bike_id":"d7770252-b51b-43aa-b334-07af4b388e5c","system_id":"levelo_inurba_marseille","lat":43.260219,"lon":5.37546,"is_reserved":false,"is_disabled":false,"rental_uris":{"android":"levelo://app?vid=d7770252-b51b-43aa-b334-07af4b388e5c","ios":"levelo://app?vid=d7770252-b51b-43aa-b334-07af4b388e5c"},"vehicle_type_id":"4","last_reported":1686935153,"current_range_meters":0,"station_id":"ce4bhgh2rcd13ifvqfa0","pricing_plan_id":"free"},{"bike_id":"a54eab0a-876b-453c-bbe5-7b8fc8c8fa20","system_id":"levelo_inurba_marseille","lat":43.26027,"lon":5.37552,"is_reserved":false,"is_disabled":false,"rental_uris":{"android":"levelo://app?vid=a54eab0a-876b-453c-bbe5-7b8fc8c8fa20","ios":"levelo://app?vid=a54eab0a-876b-453c-bbe5-7b8fc8c8fa20"},"vehicle_type_id":"4","last_reported":1686935153,"current_range_meters":23600,"station_id":"ce4bhgh2rcd13ifvqfa0","pricing_plan_id":"free"},{"bike_id":"21976541-3449-42cc-93be-7ed696943734","system_id":"levelo_inurba_marseille","lat":43.260219,"lon":5.37546,"is_reserved":false,"is_disabled":false,"rental_uris":{"android":"levelo://app?vid=21976541-3449-42cc-93be-7ed696943734","ios":"levelo://app?vid=21976541-3449-42cc-93be-7ed696943734"},"vehicle_type_id":"4","last_reported":1686935153,"current_range_meters":16000,"station_id":"ce4bhgh2rcd13ifvqfa0","pricing_plan_id":"free"},{"bike_id":"b336399c-5e3a-4505-9cbf-13db8665887d","system_id":"levelo_inurba_marseille","lat":43.260219,"lon":5.37546,"is_reserved":false,"is_disabled":false,"rental_uris":{"android":"levelo://app?vid=b336399c-5e3a-4505-9cbf-13db8665887d","ios":"levelo://app?vid=b336399c-5e3a-4505-9cbf-13db8665887d"},"vehicle_type_id":"4","last_reported":1686935153,"current_range_meters":10800,"station_id":"ce4bhgh2rcd13ifvqfa0","pricing_plan_id":"free"},{"bike_id":"7e4e4f89-fab9-4e8a-9112-52798112a820","system_id":"levelo_inurba_marseille","lat":43.26023,"lon":5.37553,"is_reserved":false,"is_disabled":false,"rental_uris":{"android":"levelo://app?vid=7e4e4f89-fab9-4e8a-9112-52798112a820","ios":"levelo://app?vid=7e4e4f89-fab9-4e8a-9112-52798112a820"},"vehicle_type_id":"4","last_reported":1686935153,"current_range_meters":31200,"station_id":"ce4bhgh2rcd13ifvqfa0","pricing_plan_id":"free"},{"bike_id":"6f86d618-2929-4a05-8847-3b16c14efad8","system_id":"levelo_inurba_marseille","lat":43.275028,"lon":5.424534,"is_reserved":false,"is_disabled":false,"rental_uris":{"android":"levelo://app?vid=6f86d618-2929-4a05-8847-3b16c14efad8","ios":"levelo://app?vid=6f86d618-2929-4a05-8847-3b16c14efad8"},"vehicle_type_id":"4","last_reported":1686935153,"current_range_meters":16000,"station_id":"ce4bhn92rcd13ifvqgrg","pricing_plan_id":"free"},{"bike_id":"23f369bd-e515-4b78-acd1-21be7fff7af8","system_id":"levelo_inurba_marseille","lat":43.255756,"lon":5.382303,"is_reserved":false,"is_disabled":false,"rental_uris":{"android":"levelo://app?vid=23f369bd-e515-4b78-acd1-21be7fff7af8","ios":"levelo://app?vid=23f369bd-e515-4b78-acd1-21be7fff7af8"},"vehicle_type_id":"4","last_reported":1686935153,"current_range_meters":24000,"station_id":"ce4bhih2rcd13ifvqfs0","pricing_plan_id":"free"},{"bike_id":"85fb57de-6467-4d05-9b82-e0c392034aa7","system_id":"levelo_inurba_marseille","lat":43.255756,"lon":5.382303,"is_reserved":false,"is_disabled":false,"rental_uris":{"android":"levelo://app?vid=85fb57de-6467-4d05-9b82-e0c392034aa7","ios":"levelo://app?vid=85fb57de-6467-4d05-9b82-e0c392034aa7"},"vehicle_type_id":"4","last_reported":1686935153,"current_range_meters":3200,"station_id":"ce4bhih2rcd13ifvqfs0","pricing_plan_id":"free"},{"bike_id":"b5406617-6a2d-468e-a648-0f89ce8828af","system_id":"levelo_inurba_marseille","lat":43.255756,"lon":5.382303,"is_reserved":false,"is_disabled":false,"rental_uris":{"android":"levelo://app?vid=b5406617-6a2d-468e-a648-0f89ce8828af","ios":"levelo://app?vid=b5406617-6a2d-468e-a648-0f89ce8828af"},"vehicle_type_id":"4","last_reported":1686935153,"current_range_meters":26400,"station_id":"ce4bhih2rcd13ifvqfs0","pricing_plan_id":"free"},{"bike_id":"70e875ec-decd-4b9b-99d9-6bc27f58a053","system_id":"levelo_inurba_marseille","lat":43.255756,"lon":5.382303,"is_reserved":false,"is_disabled":false,"rental_uris":{"android":"levelo://app?vid=70e875ec-decd-4b9b-99d9-6bc27f58a053","ios":"levelo://app?vid=70e875ec-decd-4b9b-99d9-6bc27f58a053"},"vehicle_type_id":"4","last_reported":1686935153,"current_range_meters":27200,"station_id":"ce4bhih2rcd13ifvqfs0","pricing_plan_id":"free"},{"bike_id":"e4db9544-a629-432c-a7fc-2f2907b6a959","system_id":"levelo_inurba_marseille","lat":43.255756,"lon":5.382303,"is_reserved":false,"is_disabled":false,"rental_uris":{"android":"levelo://app?vid=e4db9544-a629-432c-a7fc-2f2907b6a959","ios":"levelo://app?vid=e4db9544-a629-432c-a7fc-2f2907b6a959"},"vehicle_type_id":"4","last_reported":1686935153,"current_range_meters":22400,"station_id":"ce4bhih2rcd13ifvqfs0","pricing_plan_id":"free"},{"bike_id":"8f5e4c16-0bf5-460e-8f08-688259810ac3","system_id":"levelo_inurba_marseille","lat":43.255756,"lon":5.382303,"is_reserved":false,"is_disabled":false,"rental_uris":{"android":"levelo://app?vid=8f5e4c16-0bf5-460e-8f08-688259810ac3","ios":"levelo://app?vid=8f5e4c16-0bf5-460e-8f08-688259810ac3"},"vehicle_type_id":"4","last_reported":1686935153,"current_range_meters":19200,"station_id":"ce4bhih2rcd13ifvqfs0","pricing_plan_id":"free"},{"bike_id":"78a58486-e006-4970-ac31-4d8c0ea1a1e1","system_id":"levelo_inurba_marseille","lat":43.255756,"lon":5.382303,"is_reserved":false,"is_disabled":false,"rental_uris":{"android":"levelo://app?vid=78a58486-e006-4970-ac31-4d8c0ea1a1e1","ios":"levelo://app?vid=78a58486-e006-4970-ac31-4d8c0ea1a1e1"},"vehicle_type_id":"4","last_reported":1686935153,"current_range_meters":18800,"station_id":"ce4bhih2rcd13ifvqfs0","pricing_plan_id":"free"},{"bike_id":"6b429598-12f9-4054-b16b-c7f7be488ba7","system_id":"levelo_inurba_marseille","lat":43.255756,"lon":5.382303,"is_reserved":false,"is_disabled":false,"rental_uris":{"android":"levelo://app?vid=6b429598-12f9-4054-b16b-c7f7be488ba7","ios":"levelo://app?vid=6b429598-12f9-4054-b16b-c7f7be488ba7"},"vehicle_type_id":"4","last_reported":1686935153,"current_range_meters":22400,"station_id":"ce4bhih2rcd13ifvqfs0","pricing_plan_id":"free"},{"bike_id":"b1fc6454-acb9-449b-b65b-56ae6a31f12b","system_id":"levelo_inurba_marseille","lat":43.255756,"lon":5.382303,"is_reserved":false,"is_disabled":false,"rental_uris":{"android":"levelo://app?vid=b1fc6454-acb9-449b-b65b-56ae6a31f12b","ios":"levelo://app?vid=b1fc6454-acb9-449b-b65b-56ae6a31f12b"},"vehicle_type_id":"4","last_reported":1686935153,"current_range_meters":18000,"station_id":"ce4bhih2rcd13ifvqfs0","pricing_plan_id":"free"},{"bike_id":"65f9c38c-38e8-4503-8826-72b6b37ee70b","system_id":"levelo_inurba_marseille","lat":43.255756,"lon":5.382303,"is_reserved":false,"is_disabled":false,"rental_uris":{"android":"levelo://app?vid=65f9c38c-38e8-4503-8826-72b6b37ee70b","ios":"levelo://app?vid=65f9c38c-38e8-4503-8826-72b6b37ee70b"},"vehicle_type_id":"4","last_reported":1686935153,"current_range_meters":11600,"station_id":"ce4bhih2rcd13ifvqfs0","pricing_plan_id":"free"},{"bike_id":"5b747b69-9617-413b-98d6-6e93b11efe2f","system_id":"levelo_inurba_marseille","lat":43.255756,"lon":5.382303,"is_reserved":false,"is_disabled":false,"rental_uris":{"android":"levelo://app?vid=5b747b69-9617-413b-98d6-6e93b11efe2f","ios":"levelo://app?vid=5b747b69-9617-413b-98d6-6e93b11efe2f"},"vehicle_type_id":"4","last_reported":1686935153,"current_range_meters":18800,"station_id":"ce4bhih2rcd13ifvqfs0","pricing_plan_id":"free"},{"bike_id":"2f2241c9-f27f-4035-930c-a3ccd4416647","system_id":"levelo_inurba_marseille","lat":43.255756,"lon":5.382303,"is_reserved":false,"is_disabled":false,"rental_uris":{"android":"levelo://app?vid=2f2241c9-f27f-4035-930c-a3ccd4416647","ios":"levelo://app?vid=2f2241c9-f27f-4035-930c-a3ccd4416647"},"vehicle_type_id":"4","last_reported":1686935153,"current_range_meters":24000,"station_id":"ce4bhih2rcd13ifvqfs0","pricing_plan_id":"free"},{"bike_id":"17cf7591-3bc5-47fd-920b-966908fbce89","system_id":"levelo_inurba_marseille","lat":43.255756,"lon":5.382303,"is_reserved":false,"is_disabled":false,"rental_uris":{"android":"levelo://app?vid=17cf7591-3bc5-47fd-920b-966908fbce89","ios":"levelo://app?vid=17cf7591-3bc5-47fd-920b-966908fbce89"},"vehicle_type_id":"4","last_reported":1686935153,"current_range_meters":19200,"station_id":"ce4bhih2rcd13ifvqfs0","pricing_plan_id":"free"},{"bike_id":"db84fb89-befd-4743-a960-236728fd0b4f","system_id":"levelo_inurba_marseille","lat":43.254947,"lon":5.376454,"is_reserved":false,"is_disabled":false,"rental_uris":{"android":"levelo://app?vid=db84fb89-befd-4743-a960-236728fd0b4f","ios":"levelo://app?vid=db84fb89-befd-4743-a960-236728fd0b4f"},"vehicle_type_id":"4","last_reported":1686935153,"current_range_meters":24000,"station_id":"ce4bhh12rcd13ifvqff0","pricing_plan_id":"free"},{"bike_id":"179901aa-f4e1-4002-9738-262f274fa0d8","system_id":"levelo_inurba_marseille","lat":43.254945,"lon":5.376454,"is_reserved":false,"is_disabled":false,"rental_uris":{"android":"levelo://app?vid=179901aa-f4e1-4002-9738-262f274fa0d8","ios":"levelo://app?vid=179901aa-f4e1-4002-9738-262f274fa0d8"},"vehicle_type_id":"4","last_reported":1686935153,"current_range_meters":0,"station_id":"ce4bhh12rcd13ifvqff0","pricing_plan_id":"free"},{"bike_id":"6428ca09-d0b9-43ff-ada6-78f8480338ea","system_id":"levelo_inurba_marseille","lat":43.254947,"lon":5.376454,"is_reserved":false,"is_disabled":false,"rental_uris":{"android":"levelo://app?vid=6428ca09-d0b9-43ff-ada6-78f8480338ea","ios":"levelo://app?vid=6428ca09-d0b9-43ff-ada6-78f8480338ea"},"vehicle_type_id":"4","last_reported":1686935153,"current_range_meters":11600,"station_id":"ce4bhh12rcd13ifvqff0","pricing_plan_id":"free"},{"bike_id":"31284e21-b023-4bbe-b63f-4709c9123b05","system_id":"levelo_inurba_marseille","lat":43.250009,"lon":5.389195,"is_reserved":false,"is_disabled":false,"rental_uris":{"android":"levelo://app?vid=31284e21-b023-4bbe-b63f-4709c9123b05","ios":"levelo://app?vid=31284e21-b023-4bbe-b63f-4709c9123b05"},"vehicle_type_id":"4","last_reported":1686935153,"current_range_meters":22800,"station_id":"ce4bhgp2rcd13ifvqfd0","pricing_plan_id":"free"},