{"last_updated":1703261303,"ttl":30,"version":"2.2","data":{"bikes":[{"bike_id":"2e2ceee1-ebc2-4cb9-a8bf-14fc4852ebf1","system_id":"levelo_inurba_marseille","lat":43.309447,"lon":5.36879,"is_reserved":false,"is_disabled":false,"rental_uris":{"android":"levelo://app?vid=2e2ceee1-ebc2-4cb9-a8bf-14fc4852ebf1","ios":"levelo://app?vid=2e2ceee1-ebc2-4cb9-a8bf-14fc4852ebf1"},"vehicle_type_id":"4","last_reported":1703261303,"current_range_meters":8000,"station_id":"ce4bgn92rcd13ifvqbvg","pricing_plan_id":"free"},{"bike_id":"6d30adbb-f8ba-44ae-8cda-4392aeea3189","system_id":"levelo_inurba_marseille","lat":43.314811,"lon":5.373103,"is_reserved":false,"is_disabled":false,"rental_uris":{"android":"levelo://app?vid=6d30adbb-f8ba-44ae-8cda-4392aeea3189","ios":"levelo://app?vid=6d30adbb-f8ba-44ae-8cda-4392aeea3189"},"vehicle_type_id":"4","last_reported":1703261303,"current_range_meters":31200,"station_id":"ce4bgt12rcd13ifvqcd0","pricing_plan_id":"free"},{"bike_id":"0bd51d16-b080-42c2-91c6-b490a0762caf","system_id":"levelo_inurba_marseille","lat":43.314811,"lon":5.373103,"is_reserved":false,"is_disabled":false,"rental_uris":{"android":"levelo://app?vid=0bd51d16-b080-42c2-91c6-b490a0762caf","ios":"levelo://app?vid=0bd51d16-b080-42c2-91c6-b490a0762caf"},"vehicle_type_id":"4","last_reported":1703261303,"current_range_meters":24400,"station_id":"ce4bgt12rcd13ifvqcd0","pricing_plan_id":"free"},{"bike_id":"96d11d44-ceb8-409b-8d5f-2dc94730f686","system_id":"levelo_inurba_marseille","lat":43.309039,"lon":5.371797,"is_reserved":false,"is_disabled":false,"rental_uris":{"android":"levelo://app?vid=96d11d44-ceb8-409b-8d5f-2dc94730f686","ios":"levelo://app?vid=96d11d44-ceb8-409b-8d5f-2dc94730f686"},"vehicle_type_id":"4","last_reported":1703261303,"current_range_meters":24000,"station_id":"ce4bguh2rcd13ifvqckg","pricing_plan_id":"free"},{"bike_id":"15d60dda-641c-4b9f-bbca-126805b8343d","system_id":"levelo_inurba_marseille","lat":43.305706,"lon":5.365654,"is_reserved":false,"is_disabled":false,"rental_uris":{"android":"levelo://app?vid=15d60dda-641c-4b9f-bbca-126805b8343d","ios":"levelo://app?vid=15d60dda-641c-4b9f-bbca-126805b8343d"},"vehicle_type_id":"4","last_reported":1703261303,"current_range_meters":0,"station_id":"ce4bgs12rcd13ifvqcag","pricing_plan_id":"free"},{"bike_id":"7b52ba03-5ad1-43f4-897c-535cbadb387c","system_id":"levelo_inurba_marseille","lat":43.30546,"lon":5.36541,"is_reserved":false,"is_disabled":false,"rental_uris":{"android":"levelo://app?vid=7b52ba03-5ad1-43f4-897c-535cbadb387c","ios":"levelo://app?vid=7b52ba03-5ad1-43f4-897c-535cbadb387c"},"vehicle_type_id":"4","last_reported":1703261303,"current_range_meters":400,"station_id":"ce4bgs12rcd13ifvqcag","pricing_plan_id":"free"},{"bike_id":"d0e1669e-c15e-43e8-ad27-d2763c5c06ce","system_id":"levelo_inurba_marseille","lat":43.305714,"lon":5.365633,"is_reserved":false,"is_disabled":false,"rental_uris":{"android":"levelo://app?vid=d0e1669e-c15e-43e8-ad27-d2763c5c06ce","ios":"levelo://app?vid=d0e1669e-c15e-43e8-ad27-d2763c5c06ce"},"vehicle_type_id":"4","last_reported":1703261303,"current_range_meters":24400,"station_id":"ce4bgs12rcd13ifvqcag","pricing_plan_id":"free"},{"bike_id":"6a0fc5cc-0f09-4176-b6a3-98e67dd74aaf","system_id":"levelo_inurba_marseille","lat":43.30538,"lon":5.36535,"is_reserved":false,"is_disabled":false,"rental_uris":{"android":"levelo://app?vid=6a0fc5cc-0f09-4176-b6a3-98e67dd74aaf","ios":"levelo://app?vid=6a0fc5cc-0f09-4176-b6a3-98e67dd74aaf"},"vehicle_type_id":"4","last_reported":1703261303,"current_range_meters":24000,"station_id":"ce4bgs12rcd13ifvqcag","pricing_plan_id":"free"},{"bike_id":"c57ff592-3a19-4151-a286-d48ee8197341","system_id":"levelo_inurba_marseille","lat":43.30533,"lon":5.3656,"is_reserved":false,"is_disabled":false,"rental_uris":{"android":"levelo://app?vid=c57ff592-3a19-4151-a286-d48ee8197341","ios":"levelo://app?vid=c57ff592-3a19-4151-a286-d48ee8197341"},"vehicle_type_id":"4","last_reported":1703261303,"current_range_meters":17600,"station_id":"ce4bgs12rcd13ifvqcag","pricing_plan_id":"free"},{"bike_id":"660aff04-8d02-4cb3-a3ef-e156aa6a2731","system_id":"levelo_inurba_marseille","lat":43.305989,"lon":5.37225,"is_reserved":false,"is_disabled":false,"rental_uris":{"android":"levelo://app?vid=660aff04-8d02-4cb3-a3ef-e156aa6a2731","ios":"levelo://app?vid=660aff04-8d02-4cb3-a3ef-e156aa6a2731"},"vehicle_type_id":"4","last_reported":1703261303,"current_range_meters":17200,"station_id":"ce4bgqh2rcd13ifvqc4g","pricing_plan_id":"free"},{"bike_id":"6ec674f4-2af7-4f46-b2af-935d3167dfe2","system_id":"levelo_inurba_marseille","lat":43.311125,"lon":5.377624,"is_reserved":false,"is_disabled":false,"rental_uris":{"android":"levelo://app?vid=6ec674f4-2af7-4f46-b2af-935d3167dfe2","ios":"levelo://app?vid=6ec674f4-2af7-4f46-b2af-935d3167dfe2"},"vehicle_type_id":"4","last_reported":1703261303,"current_range_meters":28400,"station_id":"ce4bgt92rcd13ifvqcg0","pricing_plan_id":"free"},{"bike_id":"b7082b18-a3c4-4b3c-a605-b25ccf563fab","system_id":"levelo_inurba_marseille","lat":43.311125,"lon":5.377624,"is_reserved":false,"is_disabled":false,"rental_uris":{"android":"levelo://app?vid=b7082b18-a3c4-4b3c-a605-b25ccf563fab","ios":"levelo://app?vid=b7082b18-a3c4-4b3c-a605-b25ccf563fab"},"vehicle_type_id":"4","last_reported":1703261303,"current_range_meters":5600,"station_id":"ce4bgt92rcd13ifvqcg0","pricing_plan_id":"free"},{"bike_id":"99f8f273-776e-42d9-bcea-603dca2786dd","system_id":"levelo_inurba_marseille","lat":43.30785,"lon":5.37654,"is_reserved":false,"is_disabled":false,"rental_uris":{"android":"levelo://app?vid=99f8f273-776e-42d9-bcea-603dca2786dd","ios":"levelo://app?vid=99f8f273-776e-42d9-bcea-603dca2786dd"},"vehicle_type_id":"4","last_reported":1703261303,"current_range_meters":26800,"station_id":"ce4bgv92rcd13ifvqcq0","pricing_plan_id":"free"},{"bike_id":"e621f788-e0b8-4fda-933f-4b10808ea0de","system_id":"levelo_inurba_marseille","lat":43.307796,"lon":5.37649,"is_reserved":false,"is_disabled":false,"rental_uris":{"android":"levelo://app?vid=e621f788-e0b8-4fda-933f-4b10808ea0de","ios":"levelo://app?vid=e621f788-e0b8-4fda-933f-4b10808ea0de"},"vehicle_type_id":"4","last_reported":1703261303,"current_range_meters":31200,"station_id":"ce4bgv92rcd13ifvqcq0","pricing_plan_id":"free"},{"bike_id":"e3d412e6-d75e-499f-9b12-871b89eb61ea","system_id":"levelo_inurba_marseille","lat":43.307945,"lon":5.376487,"is_reserved":false,"is_disabled":false,"rental_uris":{"android":"levelo://app?vid=e3d412e6-d75e-499f-9b12-871b89eb61ea","ios":"levelo://app?vid=e3d412e6-d75e-499f-9b12-871b89eb61ea"},"vehicle_type_id":"4","last_reported":1703261303,"current_range_meters":25200,"station_id":"ce4bgv92rcd13ifvqcq0","pricing_plan_id":"free"},{"bike_id":"69f2df28-8153-4d1b-8e7c-1cb8b7f05d35","system_id":"levelo_inurba_marseille","lat":43.317075,"lon":5.377367,"is_reserved":false,"is_disabled":false,"rental_uris":{"android":"levelo://app?vid=69f2df28-8153-4d1b-8e7c-1cb8b7f05d35","ios":"levelo://app?vid=69f2df28-8153-4d1b-8e7c-1cb8b7f05d35"},"vehicle_type_id":"4","last_reported":1703261303,"current_range_meters":30400,"station_id":"ce4bgth2rcd13ifvqch0","pricing_plan_id":"free"},{"bike_id":"29a28086-cf80-4bef-a9e0-034885330057","system_id":"levelo_inurba_marseille","lat":43.317075,"lon":5.377367,"is_reserved":false,"is_disabled":false,"rental_uris":{"android":"levelo://app?vid=29a28086-cf80-4bef-a9e0-034885330057","ios":"levelo://app?vid=29a28086-cf80-4bef-a9e0-034885330057"},"vehicle_type_id":"4","last_reported":1703261303,"current_range_meters":30800,"station_id":"ce4bgth2rcd13ifvqch0","pricing_plan_id":"free"},{"bike_id":"dc0f6af5-c02c-4610-baea-e5c6ca16f530","system_id":"levelo_inurba_marseille","lat":43.31992,"lon":5.38159,"is_reserved":false,"is_disabled":false,"rental_uris":{"android":"levelo://app?vid=dc0f6af5-c02c-4610-baea-e5c6ca16f530","ios":"levelo://app?vid=dc0f6af5-c02c-4610-baea-e5c6ca16f530"},"vehicle_type_id":"4","last_reported":1703261303,"current_range_meters":28800,"station_id":"ce4bhr12rcd13ifvqhpg","pricing_plan_id":"free"},{"bike_id":"b64a3b97-7ba6-4c96-9b55-a2d79f9d2499","system_id":"levelo_inurba_marseille","lat":43.320005,"lon":5.381601,"is_reserved":false,"is_disabled":false,"rental_uris":{"android":"levelo://app?vid=b64a3b97-7ba6-4c96-9b55-a2d79f9d2499","ios":"levelo://app?vid=b64a3b97-7ba6-4c96-9b55-a2d79f9d2499"},"vehicle_type_id":"4","last_reported":1703261303,"current_range_meters":6000,"station_id":"ce4bhr12rcd13ifvqhpg","pricing_plan_id":"free"},{"bike_id":"ed660456-a596-45b8-a914-8505f2fb7745","system_id":"levelo_inurba_marseille","lat":43.299724,"lon":5.371829,"is_reserved":false,"is_disabled":false,"rental_uris":{"android":"levelo://app?vid=ed660456-a596-45b8-a914-8505f2fb7745","ios":"levelo://app?vid=ed660456-a596-45b8-a914-8505f2fb7745"},"vehicle_type_id":"4","last_reported":1703261303,"current_range_meters":400,"station_id":"ce4bgr92rcd13ifvqc7g","pricing_plan_id":"free"},{"bike_id":"b5f3ef53-b9e4-4ffb-b0fd-7f5a22c64df8","system_id":"levelo_inurba_marseille","lat":43.305364,"lon":5.384119,"is_reserved":false,"is_disabled":false,"rental_uris":{"android":"levelo://app?vid=b5f3ef53-b9e4-4ffb-b0fd-7f5a22c64df8","ios":"levelo://app?vid=b5f3ef53-b9e4-4ffb-b0fd-7f5a22c64df8"},"vehicle_type_id":"4","last_reported":1703261303,"current_range_meters":9200,"station_id":"ce4bgg92rcd13ifvqb30","pricing_plan_id":"free"},{"bike_id":"6f00089d-c7f3-4cfb-ab36-e7831ccce3db","system_id":"levelo_inurba_marseille","lat":43.292311,"lon":5.360731,"is_reserved":false,"is_disabled":false,"rental_uris":{"android":"levelo://app?vid=6f00089d-c7f3-4cfb-ab36-e7831ccce3db","ios":"levelo://app?vid=6f00089d-c7f3-4cfb-ab36-e7831ccce3db"},"vehicle_type_id":"4","last_reported":1703261303,"current_range_meters":8000,"station_id":"ce4bhbh2rcd13ifvqeqg","pricing_plan_id":"free"},{"bike_id":"433f0661-0ff6-444d-bdb3-700cb63f16af","system_id":"levelo_inurba_marseille","lat":43.298433,"lon":5.362774,"is_reserved":false,"is_disabled":false,"rental_uris":{"android":"levelo://app?vid=433f0661-0ff6-444d-bdb3-700cb63f16af","ios":"levelo://app?vid=433f0661-0ff6-444d-bdb3-700cb63f16af"},"vehicle_type_id":"4","last_reported":1703261303,"current_range_meters":20000,"station_id":"ce4bgpp2rcd13ifvqc3g","pricing_plan_id":"free"},{"bike_id":"c2f8f5c7-7215-4dd1-849d-bbcfa53aefb7","system_id":"levelo_inurba_marseille","lat":43.298433,"lon":5.362774,"is_reserved":false,"is_disabled":false,"rental_uris":{"android":"levelo://app?vid=c2f8f5c7-7215-4dd1-849d-bbcfa53aefb7","ios":"levelo://app?vid=c2f8f5c7-7215-4dd1-849d-bbcfa53aefb7"},"vehicle_type_id":"4","last_reported":1703261303,"current_range_meters":16000,"station_id":"ce4bgpp2rcd13ifvqc3g","pricing_plan_id":"free"},{"bike_id":"dcc2b367-52fe-4bdc-a725-8ba9fe805c2d","system_id":"levelo_inurba_marseille","lat":43.298433,"lon":5.362774,"is_reserved":false,"is_disabled":false,"rental_uris":{"android":"levelo://app?vid=dcc2b367-52fe-4bdc-a725-8ba9fe805c2d","ios":"levelo://app?vid=dcc2b367-52fe-4bdc-a725-8ba9fe805c2d"},"vehicle_type_id":"4","last_reported":1703261303,"current_range_meters":2400,"station_id":"ce4bgpp2rcd13ifvqc3g","pricing_plan_id":"free"},{"bike_id":"223ca2bf-84c4-4ea1-8116-afe4af7aa62c","system_id":"levelo_inurba_marseille","lat":43.299243,"lon":5.374807,"is_reserved":false,"is_disabled":false,"rental_uris":{"android":"levelo://app?vid=223ca2bf-84c4-4ea1-8116-afe4af7aa62c","ios":"levelo://app?vid=223ca2bf-84c4-4ea1-8116-afe4af7aa62c"},"vehicle_type_id":"4","last_reported":1703261303,"current_range_meters":4400,"station_id":"ce4bgjh2rcd13ifvqbg0","pricing_plan_id":"free"},{"bike_id":"73d289e9-57f1-474b-aa9b-6b34fbf11491","system_id":"levelo_inurba_marseille","lat":43.299243,"lon":5.37481,"is_reserved":false,"is_disabled":false,"rental_uris":{"android":"levelo://app?vid=73d289e9-57f1-474b-aa9b-6b34fbf11491","ios":"levelo://app?vid=73d289e9-57f1-474b-aa9b-6b34fbf11491"},"vehicle_type_id":"4","last_reported":1703261303,"current_range_meters":0,"station_id":"ce4bgjh2rcd13ifvqbg0","pricing_plan_id":"free"},{"bike_id":"5d624b8a-c698-4af2-87c4-5d4dc3cfc4d0","system_id":"levelo_inurba_marseille","lat":43.311722,"lon":5.387247,"is_reserved":false,"is_disabled":false,"rental_uris":{"android":"levelo://app?vid=5d624b8a-c698-4af2-87c4-5d4dc3cfc4d0","ios":"levelo://app?vid=5d624b8a-c698-4af2-87c4-5d4dc3cfc4d0"},"vehicle_type_id":"4","last_reported":1703261303,"current_range_meters":10800,"station_id":"ce4bgv12rcd13ifvqcp0","pricing_plan_id":"free"},{"bike_id":"8cffe5fe-3a7d-4114-835b-113b44835eff","system_id":"levelo_inurba_marseille","lat":43.297774,"lon":5.370875,"is_reserved":false,"is_disabled":false,"rental_uris":{"android":"levelo://app?vid=8cffe5fe-3a7d-4114-835b-113b44835eff","ios":"levelo://app?vid=8cffe5fe-3a7d-4114-835b-113b44835eff"},"vehicle_type_id":"4","last_reported":1703261303,"current_range_meters":5200,"station_id":"ce4bgop2rcd13ifvqc1g","pricing_plan_id":"free"},{"bike_id":"62a0e181-56c1-4aad-a05b-240ecf27baec","system_id":"levelo_inurba_marseille","lat":43.322872,"lon":5.382756,"is_reserved":false,"is_disabled":false,"rental_uris":{"android":"levelo://app?vid=62a0e181-56c1-4aad-a05b-240ecf27baec","ios":"levelo://app?vid=62a0e181-56c1-4aad-a05b-240ecf27baec"},"vehicle_type_id":"4","last_reported":1703261303,"current_range_meters":17600,"station_id":"ce4bhr12rcd13ifvqhqg","pricing_plan_id":"free"},{"bike_id":"f5987233-1d3e-4901-8b4d-56e1ca83344b","system_id":"levelo_inurba_marseille","lat":43.322872,"lon":5.382756,"is_reserved":false,"is_disabled":false,"rental_uris":{"android":"levelo://app?vid=f5987233-1d3e-4901-8b4d-56e1ca83344b","ios":"levelo://app?vid=f5987233-1d3e-4901-8b4d-56e1ca83344b"},"vehicle_type_id":"4","last_reported":1703261303,"current_range_meters":18000,"station_id":"ce4bhr12rcd13ifvqhqg","pricing_plan_id":"free"},{"bike_id":"525f6ec1-c089-48ad-8216-d8e073aa768d","system_id":"levelo_inurba_marseille","lat":43.32829,"lon":5.36675,"is_reserved":false,"is_disabled":false,"rental_uris":{"android":"levelo://app?vid=525f6ec1-c089-48ad-8216-d8e073aa768d","ios":"levelo://app?vid=525f6ec1-c089-48ad-8216-d8e073aa768d"},"vehicle_type_id":"4","last_reported":1703261303,"current_range_meters":7200,"station_id":"ce4bhs92rcd13ifvqi0g","pricing_plan_id":"free"},{"bike_id":"b93b01f5-604a-4a62-8b31-422a7e058281","system_id":"levelo_inurba_marseille","lat":43.3283,"lon":5.36678,"is_reserved":false,"is_disabled":false,"rental_uris":{"android":"levelo://app?vid=b93b01f5-604a-4a62-8b31-422a7e058281","ios":"levelo://app?vid=b93b01f5-604a-4a62-8b31-422a7e058281"},"vehicle_type_id":"4","last_reported":1703261303,"current_range_meters":5200,"station_id":"ce4bhs92rcd13ifvqi0g","pricing_plan_id":"free"},{"bike_id":"b0e9f638-ab13-449f-9ae7-49222855315a","system_id":"levelo_inurba_marseille","lat":43.297163,"lon":5.365866,"is_reserved":false,"is_disabled":false,"rental_uris":{"android":"levelo://app?vid=b0e9f638-ab13-449f-9ae7-49222855315a","ios":"levelo://app?vid=b0e9f638-ab13-449f-9ae7-49222855315a"},"vehicle_type_id":"4","last_reported":1703261303,"current_range_meters":8800,"station_id":"ce4bgn12rcd13ifvqbt0","pricing_plan_id":"free"},{"bike_id":"11914dde-91de-4fdf-ab24-de472b689ba3","system_id":"levelo_inurba_marseille","lat":43.32835,"lon":5.36677,"is_reserved":false,"is_disabled":false,"rental_uris":{"android":"levelo://app?vid=11914dde-91de-4fdf-ab24-de472b689ba3","ios":"levelo://app?vid=11914dde-91de-4fdf-ab24-de472b689ba3"},"vehicle_type_id":"4","last_reported":1703261303,"current_range_meters":0,"station_id":"ce4bhs92rcd13ifvqi0g","pricing_plan_id":"free"},{"bike_id":"558ec63f-134c-4e7a-9858-e5ff95d1d8fa","system_id":"levelo_inurba_marseille","lat":43.295973,"lon":5.367927,"is_reserved":false,"is_disabled":false,"rental_uris":{"android":"levelo://app?vid=558ec63f-134c-4e7a-9858-e5ff95d1d8fa","ios":"levelo://app?vid=558ec63f-134c-4e7a-9858-e5ff95d1d8fa"},"vehicle_type_id":"4","last_reported":1703261303,"current_range_meters":14000,"station_id":"","pricing_plan_id":"free"},{"bike_id":"732a19ca-ab3c-4141-9bb4-1be3f6b42df5","system_id":"levelo_inurba_marseille","lat":43.299028,"lon":5.381509,"is_reserved":false,"is_disabled":false,"rental_uris":{"android":"levelo://app?vid=732a19ca-ab3c-4141-9bb4-1be3f6b42df5","ios":"levelo://app?vid=732a19ca-ab3c-4141-9bb4-1be3f6b42df5"},"vehicle_type_id":"4","last_reported":1703261303,"current_range_meters":22800,"station_id":"ce4bgj12rcd13ifvqbc0","pricing_plan_id":"free"},{"bike_id":"25af6981-5307-4b4c-88ca-1d89059dd27e","system_id":"levelo_inurba_marseille","lat":43.299028,"lon":5.381509,"is_reserved":false,"is_disabled":false,"rental_uris":{"android":"levelo://app?vid=25af6981-5307-4b4c-88ca-1d89059dd27e","ios":"levelo://app?vid=25af6981-5307-4b4c-88ca-1d89059dd27e"},"vehicle_type_id":"4","last_reported":1703261303,"current_range_meters":22800,"station_id":"ce4bgj12rcd13ifvqbc0","pricing_plan_id":"free"},{"bike_id":"89c65efa-d597-44ab-aa5a-c07d956def70","system_id":"levelo_inurba_marseille","lat":43.299028,"lon":5.381509,"is_reserved":false,"is_disabled":false,"rental_uris":{"android":"levelo://app?vid=89c65efa-d597-44ab-aa5a-c07d956def70","ios":"levelo://app?vid=89c65efa-d597-44ab-aa5a-c07d956def70"},"vehicle_type_id":"4","last_reported":1703261303,"current_range_meters":2400,"station_id":"ce4bgj12rcd13ifvqbc0","pricing_plan_id":"free"},{"bike_id":"2c556f4b-3838-46e6-abf0-915be4e603ec","system_id":"levelo_inurba_marseille","lat":43.317557,"lon":5.390173,"is_reserved":false,"is_disabled":false,"rental_uris":{"android":"levelo://app?vid=2c556f4b-3838-46e6-abf0-915be4e603ec","ios":"levelo://app?vid=2c556f4b-3838-46e6-abf0-915be4e603ec"},"vehicle_type_id":"4","last_reported":1703261303,"current_range_meters":10000,"station_id":"ce4bhqp2rcd13ifvqhng","pricing_plan_id":"free"},{"bike_id":"43855516-4c02-494d-aefa-3c215dbc6b85","system_id":"levelo_inurba_marseille","lat":43.317557,"lon":5.390173,"is_reserved":false,"is_disabled":false,"rental_uris":{"android":"levelo://app?vid=43855516-4c02-494d-aefa-3c215dbc6b85","ios":"levelo://app?vid=43855516-4c02-494d-aefa-3c215dbc6b85"},"vehicle_type_id":"4","last_reported":1703261303,"current_range_meters":2400,"station_id":"ce4bhqp2rcd13ifvqhng","pricing_plan_id":"free"},{"bike_id":"da78bae2-be5e-497c-a796-1ac46ea031a9","system_id":"levelo_inurba_marseille","lat":43.298037,"lon":5.381066,"is_reserved":false,"is_disabled":false,"rental_uris":{"android":"levelo://app?vid=da78bae2-be5e-497c-a796-1ac46ea031a9","ios":"levelo://app?vid=da78bae2-be5e-497c-a796-1ac46ea031a9"},"vehicle_type_id":"4","last_reported":1703261303,"current_range_meters":30400,"station_id":"ce4bgip2rcd13ifvqbb0","pricing_plan_id":"free"},{"bike_id":"4366e01f-8c4f-4b01-9adb-f9450f1e5fc5","system_id":"levelo_inurba_marseille","lat":43.304278,"lon":5.388868,"is_reserved":false,"is_disabled":false,"rental_uris":{"android":"levelo://app?vid=4366e01f-8c4f-4b01-9adb-f9450f1e5fc5","ios":"levelo://app?vid=4366e01f-8c4f-4b01-9adb-f9450f1e5fc5"},"vehicle_type_id":"4","last_reported":1703261303,"current_range_meters":10400,"station_id":"ce4bgk12rcd13ifvqbi0","pricing_plan_id":"free"},{"bike_id":"5bb73d84-3f7e-4b32-b835-93cf07b844e9","system_id":"levelo_inurba_marseille","lat":43.304278,"lon":5.388868,"is_reserved":false,"is_disabled":false,"rental_uris":{"android":"levelo://app?vid=5bb73d84-3f7e-4b32-b835-93cf07b844e9","ios":"levelo://app?vid=5bb73d84-3f7e-4b32-b835-93cf07b844e9"},"vehicle_type_id":"4","last_reported":1703261303,"current_range_meters":0,"station_id":"ce4bgk12rcd13ifvqbi0","pricing_plan_id":"free"},{"bike_id":"7efedb10-2198-4aaf-a452-b49afaab5623","system_id":"levelo_inurba_marseille","lat":43.273129,"lon":5.390725,"is_reserved":false,"is_disabled":false,"rental_uris":{"android":"levelo://app?vid=7efedb10-2198-4aaf-a452-b49afaab5623","ios":"levelo://app?vid=7efedb10-2198-4aaf-a452-b49afaab5623"},"vehicle_type_id":"4","last_reported":1703261303,"current_range_meters":10400,"station_id":"ce4bhgp2rcd13ifvqfe0","pricing_plan_id":"free"},{"bike_id":"4e0e9f17-5dac-4b44-8fbf-02019e09abb6","system_id":"levelo_inurba_marseille","lat":43.295748,"lon":5.37522,"is_reserved":false,"is_disabled":false,"rental_uris":{"android":"levelo://app?vid=4e0e9f17-5dac-4b44-8fbf-02019e09abb6","ios":"levelo://app?vid=4e0e9f17-5dac-4b44-8fbf-02019e09abb6"},"vehicle_type_id":"4","last_reported":1703261303,"current_range_meters":29200,"station_id":"ce4bgh92rcd13ifvqb50","pricing_plan_id":"free"},{"bike_id":"68144955-15a4-4ef8-a3ba-9e4465b4c3d2","system_id":"levelo_inurba_marseille","lat":43.298037,"lon":5.381066,"is_reserved":false,"is_disabled":false,"rental_uris":{"android":"levelo://app?vid=68144955-15a4-4ef8-a3ba-9e4465b4c3d2","ios":"levelo://app?vid=68144955-15a4-4ef8-a3ba-9e4465b4c3d2"},"vehicle_type_id":"4","last_reported":1703261303,"current_range_meters":16400,"station_id":"ce4bgip2rcd13ifvqbb0","pricing_plan_id":"free"},{"bike_id":"1378810b-812d-44e5-847a-1b7aeb90e4c4","system_id":"levelo_inurba_marseille","lat":43.299,"lon":5.38357,"is_reserved":false,"is_disabled":false,"rental_uris":{"android":"levelo://app?vid=1378810b-812d-44e5-847a-1b7aeb90e4c4","ios":"levelo://app?vid=1378810b-812d-44e5-847a-1b7aeb90e4c4"},"vehicle_type_id":"4","last_reported":1703261303,"current_range_meters":3200,"station_id":"","pricing_plan_id":"free"},{"bike_id":"6f0076ee-4ffa-42e8-9ea1-225345a9acf3","system_id":"levelo_inurba_marseille","lat":43.29609,"lon":5.37745,"is_reserved":false,"is_disabled":false,"rental_uris":{"android":"levelo://app?vid=6f0076ee-4ffa-42e8-9ea1-225345a9acf3","ios":"levelo://app?vid=6f0076ee-4ffa-42e8-9ea1-225345a9acf3"},"vehicle_type_id":"4","last_reported":1703261303,"current_range_meters":1600,"station_id":"ce4bgi92rcd13ifvqb90","pricing_plan_id":"free"},{"bike_id":"cc304029-17e3-415f-9ea9-6ba606aaf856","system_id":"levelo_inurba_marseille","lat":43.295279,"lon":5.375048,"is_reserved":false,"is_disabled":false,"rental_uris":{"android":"levelo://app?vid=cc304029-17e3-415f-9ea9-6ba606aaf856","ios":"levelo://app?vid=cc304029-17e3-415f-9ea9-6ba606aaf856"},"vehicle_type_id":"4","last_reported":1703261303,"current_range_meters":7600,"station_id":"ce4bgkp2rcd13ifvqbmg","pricing_plan_id":"free"},{"bike_id":"dc43bc2e-f3d2-4faa-8607-d6370cf86e01","system_id":"levelo_inurba_marseille","lat":43.322872,"lon":5.382756,"is_reserved":false,"is_disabled":false,"rental_uris":{"android":"levelo://app?vid=dc43bc2e-f3d2-4faa-8607-d6370cf86e01","ios":"levelo://app?vid=dc43bc2e-f3d2-4faa-8607-d6370cf86e01"},"vehicle_type_id":"4","last_reported":1703261303,"current_range_meters":7600,"station_id":"ce4bhr12rcd13ifvqhqg","pricing_plan_id":"free"},{"bike_id":"7b8c0bab-aa36-4ca7-b91b-8fdfbcf0792a","system_id":"levelo_inurba_marseille","lat":43.32367,"lon":5.388836,"is_reserved":false,"is_disabled":false,"rental_uris":{"android":"levelo://app?vid=7b8c0bab-aa36-4ca7-b91b-8fdfbcf0792a","ios":"levelo://app?vid=7b8c0bab-aa36-4ca7-b91b-8fdfbcf0792a"},"vehicle_type_id":"4","last_reported":1703261303,"current_range_meters":10800,"station_id":"ce4bhqp2rcd13ifvqhog","pricing_plan_id":"free"},{"bike_id":"035ba96c-8560-4c70-973e-f7eb3e99c40c","system_id":"levelo_inurba_marseille","lat":43.32367,"lon":5.388836,"is_reserved":false,"is_disabled":false,"rental_uris":{"android":"levelo://app?vid=035ba96c-8560-4c70-973e-f7eb3e99c40c","ios":"levelo://app?vid=035ba96c-8560-4c70-973e-f7eb3e99c40c"},"vehicle_type_id":"4","last_reported":1703261303,"current_range_meters":20800,"station_id":"ce4bhqp2rcd13ifvqhog","pricing_plan_id":"free"},{"bike_id":"cc7743c4-385c-403d-859e-14ff6c38e121","system_id":"levelo_inurba_marseille","lat":43.32367,"lon":5.388836,"is_reserved":false,"is_disabled":false,"rental_uris":{"android":"levelo://app?vid=cc7743c4-385c-403d-859e-14ff6c38e121","ios":"levelo://app?vid=cc7743c4-385c-403d-859e-14ff6c38e121"},"vehicle_type_id":"4","last_reported":1703261303,"current_range_meters":18400,"station_id":"ce4bhqp2rcd13ifvqhog","pricing_plan_id":"free"},{"bike_id":"8ed55650-0f5e-44f5-9f94-676f0de7c119","system_id":"levelo_inurba_marseille","lat":43.29601,"lon":5.381084,"is_reserved":false,"is_disabled":false,"rental_uris":{"android":"levelo://app?vid=8ed55650-0f5e-44f5-9f94-676f0de7c119","ios":"levelo://app?vid=8ed55650-0f5e-44f5-9f94-676f0de7c119"},"vehicle_type_id":"4","last_reported":1703261303,"current_range_meters":19200,"station_id":"ce4bgl12rcd13ifvqbo0","pricing_plan_id":"free"},{"bike_id":"b22ba784-8dbf-4f59-bb78-9ff7bff42bee","system_id":"levelo_inurba_marseille","lat":43.293259,"lon":5.371586,"is_reserved":false,"is_disabled":false,"rental_uris":{"android":"levelo://app?vid=b22ba784-8dbf-4f59-bb78-9ff7bff42bee","ios":"levelo://app?vid=b22ba784-8dbf-4f59-bb78-9ff7bff42bee"},"vehicle_type_id":"4","last_reported":1703261303,"current_range_meters":23600,"station_id":"ce4bgh92rcd13ifvqb40","pricing_plan_id":"free"},{"bike_id":"7eada8fb-8c59-41ea-ae15-1164bd9fc1af","system_id":"levelo_inurba_marseille","lat":43.324039,"lon":5.389664,"is_reserved":false,"is_disabled":false,"rental_uris":{"android":"levelo://app?vid=7eada8fb-8c59-41ea-ae15-1164bd9fc1af","ios":"levelo://app?vid=7eada8fb-8c59-41ea-ae15-1164bd9fc1af"},"vehicle_type_id":"4","last_reported":1703261303,"current_range_meters":30400,"station_id":"","pricing_plan_id":"free"},{"bike_id":"3ae6684c-01f8-4050-be88-566dbace8a44","system_id":"levelo_inurba_marseille","lat":43.30094,"lon":5.39075,"is_reserved":false,"is_disabled":false,"rental_uris":{"android":"levelo://app?vid=3ae6684c-01f8-4050-be88-566dbace8a44","ios":"levelo://app?vid=3ae6684c-01f8-4050-be88-566dbace8a44"},"vehicle_type_id":"4","last_reported":1703261303,"current_range_meters":18000,"station_id":"ce4bh192rcd13ifvqdb0","pricing_plan_id":"free"},{"bike_id":"557000a1-02d5-45c6-b20c-951b70bf4f82","system_id":"levelo_inurba_marseille","lat":43.30097,"lon":5.39091,"is_reserved":false,"is_disabled":false,"rental_uris":{"android":"levelo://app?vid=557000a1-02d5-45c6-b20c-951b70bf4f82","ios":"levelo://app?vid=557000a1-02d5-45c6-b20c-951b70bf4f82"},"vehicle_type_id":"4","last_reported":1703261303,"current_range_meters":0,"station_id":"","pricing_plan_id":"free"},{"bike_id":"121ae05a-62ef-4bb7-b643-7d275ee7b1e3","system_id":"levelo_inurba_marseille","lat":43.300852,"lon":5.390859,"is_reserved":false,"is_disabled":false,"rental_uris":{"android":"levelo://app?vid=121ae05a-62ef-4bb7-b643-7d275ee7b1e3","ios":"levelo://app?vid=121ae05a-62ef-4bb7-b643-7d275ee7b1e3"},"vehicle_type_id":"4","last_reported":1703261303,"current_range_meters":24400,"station_id":"ce4bh192rcd13ifvqdb0","pricing_plan_id":"free"},{"bike_id":"a88983e0-4730-4fa9-b9c4-4d11216054ae","system_id":"levelo_inurba_marseille","lat":43.29869,"lon":5.38907,"is_reserved":false,"is_disabled":false,"rental_uris":{"android":"levelo://app?vid=a88983e0-4730-4fa9-b9c4-4d11216054ae","ios":"levelo://app?vid=a88983e0-4730-4fa9-b9c4-4d11216054ae"},"vehicle_type_id":"4","last_reported":1703261303,"current_range_meters":13200,"station_id":"","pricing_plan_id":"free"},{"bike_id":"a4176ca6-6a77-4576-b3e1-4b48d82d5abb","system_id":"levelo_inurba_marseille","lat":43.298653,"lon":5.38905,"is_reserved":false,"is_disabled":false,"rental_uris":{"android":"levelo://app?vid=a4176ca6-6a77-4576-b3e1-4b48d82d5abb","ios":"levelo://app?vid=a4176ca6-6a77-4576-b3e1-4b48d82d5abb"},"vehicle_type_id":"4","last_reported":1703261303,"current_range_meters":12400,"station_id":"","pricing_plan_id":"free"},{"bike_id":"258abae2-17fa-4eee-b86e-156b51912c4b","system_id":"levelo_inurba_marseille","lat":43.309038,"lon":5.396546,"is_reserved":false,"is_disabled":false,"rental_uris":{"android":"levelo://app?vid=258abae2-17fa-4eee-b86e-156b51912c4b","ios":"levelo://app?vid=258abae2-17fa-4eee-b86e-156b51912c4b"},"vehicle_type_id":"4","last_reported":1703261303,"current_range_meters":5600,"station_id":"ce4bh012rcd13ifvqcv0","pricing_plan_id":"free"},{"bike_id":"fa38fcc7-ca87-4463-a289-03c7cd4e6723","system_id":"levelo_inurba_marseille","lat":43.313291,"lon":5.396838,"is_reserved":false,"is_disabled":false,"rental_uris":{"android":"levelo://app?vid=fa38fcc7-ca87-4463-a289-03c7cd4e6723","ios":"levelo://app?vid=fa38fcc7-ca87-4463-a289-03c7cd4e6723"},"vehicle_type_id":"4","last_reported":1703261303,"current_range_meters":9600,"station_id":"ce4bgvp2rcd13ifvqcu0","pricing_plan_id":"free"},{"bike_id":"78b06166-cd33-40c0-8742-ca216db153b4","system_id":"levelo_inurba_marseille","lat":43.313291,"lon":5.396838,"is_reserved":false,"is_disabled":false,"rental_uris":{"android":"levelo://app?vid=78b06166-cd33-40c0-8742-ca216db153b4","ios":"levelo://app?vid=78b06166-cd33-40c0-8742-ca216db153b4"},"vehicle_type_id":"4","last_reported":1703261303,"current_range_meters":22800,"station_id":"ce4bgvp2rcd13ifvqcu0","pricing_plan_id":"free"},{"bike_id":"a90b8b83-e596-4fc1-8b62-b201f740b064","system_id":"levelo_inurba_marseille","lat":43.313291,"lon":5.396838,"is_reserved":false,"is_disabled":false,"rental_uris":{"android":"levelo://app?vid=a90b8b83-e596-4fc1-8b62-b201f740b064","ios":"levelo://app?vid=a90b8b83-e596-4fc1-8b62-b201f740b064"},"vehicle_type_id":"4","last_reported":1703261303,"current_range_meters":7200,"station_id":"ce4bgvp2rcd13ifvqcu0","pricing_plan_id":"free"},{"bike_id":"aa1515ce-3b18-4e6b-bbc3-2711bb0277cf","system_id":"levelo_inurba_marseille","lat":43.309038,"lon":5.396546,"is_reserved":false,"is_disabled":false,"rental_uris":{"android":"levelo://app?vid=aa1515ce-3b18-4e6b-bbc3-2711bb0277cf","ios":"levelo://app?vid=aa1515ce-3b18-4e6b-bbc3-2711bb0277cf"},"vehicle_type_id":"4","last_reported":1703261303,"current_range_meters":30000,"station_id":"ce4bh012rcd13ifvqcv0","pricing_plan_id":"free"},{"bike_id":"c4b5c253-f844-42fd-82a6-50cb9b8a64cd","system_id":"levelo_inurba_marseille","lat":43.313291,"lon":5.396838,"is_reserved":false,"is_disabled":false,"rental_uris":{"android":"levelo://app?vid=c4b5c253-f844-42fd-82a6-50cb9b8a64cd","ios":"levelo://app?vid=c4b5c253-f844-42fd-82a6-50cb9b8a64cd"},"vehicle_type_id":"4","last_reported":1703261303,"current_range_meters":28000,"station_id":"ce4bgvp2rcd13ifvqcu0","pricing_plan_id":"free"},{"bike_id":"b3bf45f1-3276-4b91-9449-947e6b2cd781","system_id":"levelo_inurba_marseille","lat":43.309038,"lon":5.396546,"is_reserved":false,"is_disabled":false,"rental_uris":{"android":"levelo://app?vid=b3bf45f1-3276-4b91-9449-947e6b2cd781","ios":"levelo://app?vid=b3bf45f1-3276-4b91-9449-947e6b2cd781"},"vehicle_type_id":"4","last_reported":1703261303,"current_range_meters":24800,"station_id":"ce4bh012rcd13ifvqcv0","pricing_plan_id":"free"},{"bike_id":"34ec1529-fd5c-4bdc-b780-a4dedf7cf38b","system_id":"levelo_inurba_marseille","lat":43.308767,"lon":5.39655,"is_reserved":false,"is_disabled":false,"rental_uris":{"android":"levelo://app?vid=34ec1529-fd5c-4bdc-b780-a4dedf7cf38b","ios":"levelo://app?vid=34ec1529-fd5c-4bdc-b780-a4dedf7cf38b"},"vehicle_type_id":"4","last_reported":1703261303,"current_range_meters":20800,"station_id":"ce4bh012rcd13ifvqcv0","pricing_plan_id":"free"},{"bike_id":"2eeb46fa-9103-43ed-b0e1-3992c2d8087e","system_id":"levelo_inurba_marseille","lat":43.309038,"lon":5.396546,"is_reserved":false,"is_disabled":false,"rental_uris":{"android":"levelo://app?vid=2eeb46fa-9103-43ed-b0e1-3992c2d8087e","ios":"levelo://app?vid=2eeb46fa-9103-43ed-b0e1-3992c2d8087e"},"vehicle_type_id":"4","last_reported":1703261303,"current_range_meters":0,"station_id":"ce4bh012rcd13ifvqcv0","pricing_plan_id":"free"},{"bike_id":"72885cf5-a00c-4fc7-9c42-7fb773c43672","system_id":"levelo_inurba_marseille","lat":43.29529,"lon":5.385581,"is_reserved":false,"is_disabled":false,"rental_uris":{"android":"levelo://app?vid=72885cf5-a00c-4fc7-9c42-7fb773c43672","ios":"levelo://app?vid=72885cf5-a00c-4fc7-9c42-7fb773c43672"},"vehicle_type_id":"4","last_reported":1703261303,"current_range_meters":23200,"station_id":"ce4bgih2rcd13ifvqba0","pricing_plan_id":"free"},{"bike_id":"c2ba99d3-cd67-4d23-a02a-bfd529bf1b8c","system_id":"levelo_inurba_marseille","lat":43.29529,"lon":5.385581,"is_reserved":false,"is_disabled":false,"rental_uris":{"android":"levelo://app?vid=c2ba99d3-cd67-4d23-a02a-bfd529bf1b8c","ios":"levelo://app?vid=c2ba99d3-cd67-4d23-a02a-bfd529bf1b8c"},"vehicle_type_id":"4","last_reported":1703261303,"current_range_meters":12000,"station_id":"ce4bgih2rcd13ifvqba0","pricing_plan_id":"free"},{"bike_id":"da948328-0fcf-46eb-b630-c2e60b82d880","system_id":"levelo_inurba_marseille","lat":43.302008,"lon":5.394694,"is_reserved":false,"is_disabled":false,"rental_uris":{"android":"levelo://app?vid=da948328-0fcf-46eb-b630-c2e60b82d880","ios":"levelo://app?vid=da948328-0fcf-46eb-b630-c2e60b82d880"},"vehicle_type_id":"4","last_reported":1703261303,"current_range_meters":18000,"station_id":"ce4bh0p2rcd13ifvqd70","pricing_plan_id":"free"},{"bike_id":"e157206e-50d5-412c-937a-1828bb101e2e","system_id":"levelo_inurba_marseille","lat":43.302008,"lon":5.394694,"is_reserved":false,"is_disabled":false,"rental_uris":{"android":"levelo://app?vid=e157206e-50d5-412c-937a-1828bb101e2e","ios":"levelo://app?vid=e157206e-50d5-412c-937a-1828bb101e2e"},"vehicle_type_id":"4","last_reported":1703261303,"current_range_meters":13200,"station_id":"ce4bh0p2rcd13ifvqd70","pricing_plan_id":"free"},{"bike_id":"0004734d-40cc-450b-9fcc-8495b59476fb","system_id":"levelo_inurba_marseille","lat":43.29041,"lon":5.35919,"is_reserved":false,"is_disabled":false,"rental_uris":{"android":"levelo://app?vid=0004734d-40cc-450b-9fcc-8495b59476fb","ios":"levelo://app?vid=0004734d-40cc-450b-9fcc-8495b59476fb"},"vehicle_type_id":"4","last_reported":1703261303,"current_range_meters":0,"station_id":"ce4bha92rcd13ifvqeg0","pricing_plan_id":"free"},{"bike_id":"96d71995-961d-4264-9ed9-03bc3fa13199","system_id":"levelo_inurba_marseille","lat":43.313291,"lon":5.396838,"is_reserved":false,"is_disabled":false,"rental_uris":{"android":"levelo://app?vid=96d71995-961d-4264-9ed9-03bc3fa13199","ios":"levelo://app?vid=96d71995-961d-4264-9ed9-03bc3fa13199"},"vehicle_type_id":"4","last_reported":1703261303,"current_range_meters":12000,"station_id":"ce4bgvp2rcd13ifvqcu0","pricing_plan_id":"free"},{"bike_id":"3453fa74-3b40-464f-994d-5f1377e60fb6","system_id":"levelo_inurba_marseille","lat":43.294153,"lon":5.386305,"is_reserved":false,"is_disabled":false,"rental_uris":{"android":"levelo://app?vid=3453fa74-3b40-464f-994d-5f1377e60fb6","ios":"levelo://app?vid=3453fa74-3b40-464f-994d-5f1377e60fb6"},"vehicle_type_id":"4","last_reported":1703261303,"current_range_meters":14000,"station_id":"ce4bh2h2rcd13ifvqdh0","pricing_plan_id":"free"},{"bike_id":"01c517f0-ed8b-4324-b0f0-2372dae252ff","system_id":"levelo_inurba_marseille","lat":43.289184,"lon":5.366408,"is_reserved":false,"is_disabled":false,"rental_uris":{"android":"levelo://app?vid=01c517f0-ed8b-4324-b0f0-2372dae252ff","ios":"levelo://app?vid=01c517f0-ed8b-4324-b0f0-2372dae252ff"},"vehicle_type_id":"4","last_reported":1703261303,"current_range_meters":10000,"station_id":"ce4bhap2rcd13ifvqek0","pricing_plan_id":"free"},{"bike_id":"9f601e83-56bf-4374-841e-2c5d85aeea39","system_id":"levelo_inurba_marseille","lat":43.28942,"lon":5.36425,"is_reserved":false,"is_disabled":false,"rental_uris":{"android":"levelo://app?vid=9f601e83-56bf-4374-841e-2c5d85aeea39","ios":"levelo://app?vid=9f601e83-56bf-4374-841e-2c5d85aeea39"},"vehicle_type_id":"4","last_reported":1703261303,"current_range_meters":24400,"station_id":"","pricing_plan_id":"free"},{"bike_id":"4e857a10-bef2-47cf-944e-f0195981743f","system_id":"levelo_inurba_marseille","lat":43.292644,"lon":5.384257,"is_reserved":false,"is_disabled":false,"rental_uris":{"android":"levelo://app?vid=4e857a10-bef2-47cf-944e-f0195981743f","ios":"levelo://app?vid=4e857a10-bef2-47cf-944e-f0195981743f"},"vehicle_type_id":"4","last_reported":1703261303,"current_range_meters":4800,"station_id":"ce4bh692rcd13ifvqea0","pricing_plan_id":"free"},{"bike_id":"07106a3f-7f61-47d6-83a0-ecd2ae007ad3","system_id":"levelo_inurba_marseille","lat":43.290103,"lon":5.356114,"is_reserved":false,"is_disabled":false,"rental_uris":{"android":"levelo://app?vid=07106a3f-7f61-47d6-83a0-ecd2ae007ad3","ios":"levelo://app?vid=07106a3f-7f61-47d6-83a0-ecd2ae007ad3"},"vehicle_type_id":"4","last_reported":1703261303,"current_range_meters":23600,"station_id":"ce4bhb92rcd13ifvqen0","pricing_plan_id":"free"},{"bike_id":"f12ff21c-52a4-4eaf-9b16-b28bde30bfde","system_id":"levelo_inurba_marseille","lat":43.295169,"lon":5.390426,"is_reserved":false,"is_disabled":false,"rental_uris":{"android":"levelo://app?vid=f12ff21c-52a4-4eaf-9b16-b28bde30bfde","ios":"levelo://app?vid=f12ff21c-52a4-4eaf-9b16-b28bde30bfde"},"vehicle_type_id":"4","last_reported":1703261303,"current_range_meters":0,"station_id":"ce4bh3p2rcd13ifvqdp0","pricing_plan_id":"free"},{"bike_id":"72e94945-4886-46f2-8100-190a890b4262","system_id":"levelo_inurba_marseille","lat":43.33742,"lon":5.37453,"is_reserved":false,"is_disabled":false,"rental_uris":{"android":"levelo://app?vid=72e94945-4886-46f2-8100-190a890b4262","ios":"levelo://app?vid=72e94945-4886-46f2-8100-190a890b4262"},"vehicle_type_id":"4","last_reported":1703261303,"current_range_meters":29200,"station_id":"","pricing_plan_id":"free"},{"bike_id":"2f08b99a-372d-4bdb-ac22-98ca5d6b6c70","system_id":"levelo_inurba_marseille","lat":43.312609,"lon":5.401662,"is_reserved":false,"is_disabled":false,"rental_uris":{"android":"levelo://app?vid=2f08b99a-372d-4bdb-ac22-98ca5d6b6c70","ios":"levelo://app?vid=2f08b99a-372d-4bdb-ac22-98ca5d6b6c70"},"vehicle_type_id":"4","last_reported":1703261303,"current_range_meters":14800,"station_id":"ce4bh092rcd13ifvqd30","pricing_plan_id":"free"},{"bike_id":"7c32f5f2-2d2d-4184-8aa0-19eeffe3a491","system_id":"levelo_inurba_marseille","lat":43.309371,"lon":5.401449,"is_reserved":false,"is_disabled":false,"rental_uris":{"android":"levelo://app?vid=7c32f5f2-2d2d-4184-8aa0-19eeffe3a491","ios":"levelo://app?vid=7c32f5f2-2d2d-4184-8aa0-19eeffe3a491"},"vehicle_type_id":"4","last_reported":1703261303,"current_range_meters":2400,"station_id":"ce4bgvp2rcd13ifvqct0","pricing_plan_id":"free"},{"bike_id":"8ed93715-ec1e-4703-acb2-7183fed943a4","system_id":"levelo_inurba_marseille","lat":43.33755,"lon":5.37428,"is_reserved":false,"is_disabled":false,"rental_uris":{"android":"levelo://app?vid=8ed93715-ec1e-4703-acb2-7183fed943a4","ios":"levelo://app?vid=8ed93715-ec1e-4703-acb2-7183fed943a4"},"vehicle_type_id":"4","last_reported":1703261303,"current_range_meters":8400,"station_id":"","pricing_plan_id":"free"},{"bike_id":"4dfd2fe6-d396-45fe-a9f3-2cf80069454a","system_id":"levelo_inurba_marseille","lat":43.33754,"lon":5.3744,"is_reserved":false,"is_disabled":false,"rental_uris":{"android":"levelo://app?vid=4dfd2fe6-d396-45fe-a9f3-2cf80069454a","ios":"levelo://app?vid=4dfd2fe6-d396-45fe-a9f3-2cf80069454a"},"vehicle_type_id":"4","last_reported":1703261303,"current_range_meters":12800,"station_id":"","pricing_plan_id":"free"},{"bike_id":"41c046a6-7cba-49c2-8c7a-f269d8a6e461","system_id":"levelo_inurba_marseille","lat":43.337568,"lon":5.374277,"is_reserved":false,"is_disabled":false,"rental_uris":{"android":"levelo://app?vid=41c046a6-7cba-49c2-8c7a-f269d8a6e461","ios":"levelo://app?vid=41c046a6-7cba-49c2-8c7a-f269d8a6e461"},"vehicle_type_id":"4","last_reported":1703261303,"current_range_meters":14400,"station_id":"ce4rr2p2rcd13i802rgg","pricing_plan_id":"free"},{"bike_id":"e3b05bb2-3bf6-4e93-a935-8d00a3036fa0","system_id":"levelo_inurba_marseille","lat":43.33763,"lon":5.37433,"is_reserved":false,"is_disabled":false,"rental_uris":{"android":"levelo://app?vid=e3b05bb2-3bf6-4e93-a935-8d00a3036fa0","ios":"levelo://app?vid=e3b05bb2-3bf6-4e93-a935-8d00a3036fa0"},"vehicle_type_id":"4","last_reported":1703261303,"current_range_meters":6000,"station_id":"","pricing_plan_id":"free"},{"bike_id":"af782aaf-55ff-4275-9a35-1eaf63c3c50f","system_id":"levelo_inurba_marseille","lat":43.337615,"lon":5.374443,"is_reserved":false,"is_disabled":false,"rental_uris":{"android":"levelo://app?vid=af782aaf-55ff-4275-9a35-1eaf63c3c50f","ios":"levelo://app?vid=af782aaf-55ff-4275-9a35-1eaf63c3c50f"},"vehicle_type_id":"4","last_reported":1703261303,"current_range_meters":14000,"station_id":"ce4rr2p2rcd13i802rgg","pricing_plan_id":"free"},{"bike_id":"1663d2aa-0874-4792-bf2b-5726f881d721","system_id":"levelo_inurba_marseille","lat":43.30642,"lon":5.401031,"is_reserved":false,"is_disabled":false,"rental_uris":{"android":"levelo://app?vid=1663d2aa-0874-4792-bf2b-5726f881d721","ios":"levelo://app?vid=1663d2aa-0874-4792-bf2b-5726f881d721"},"vehicle_type_id":"4","last_reported":1703261303,"current_range_meters":27600,"station_id":"ce4bh112rcd13ifvqda0","pricing_plan_id":"free"},{"bike_id":"043d641d-63e5-413a-baa4-7b018f665793","system_id":"levelo_inurba_marseille","lat":43.306412,"lon":5.401035,"is_reserved":false,"is_disabled":false,"rental_uris":{"android":"levelo://app?vid=043d641d-63e5-413a-baa4-7b018f665793","ios":"levelo://app?vid=043d641d-63e5-413a-baa4-7b018f665793"},"vehicle_type_id":"4","last_reported":1703261303,"current_range_meters":29200,"station_id":"ce4bh112rcd13ifvqda0","pricing_plan_id":"free"},{"bike_id":"cdff7ce3-2449-4d87-8415-ec6ba9b3ce0e","system_id":"levelo_inurba_marseille","lat":43.309371,"lon":5.401449,"is_reserved":false,"is_disabled":false,"rental_uris":{"android":"levelo://app?vid=cdff7ce3-2449-4d87-8415-ec6ba9b3ce0e","ios":"levelo://app?vid=cdff7ce3-2449-4d87-8415-ec6ba9b3ce0e"},"vehicle_type_id":"4","last_reported":1703261303,"current_range_meters":22800,"station_id":"ce4bgvp2rcd13ifvqct0","pricing_plan_id":"free"},{"bike_id":"5f6df711-5c47-41c8-b2e0-ca21db0773eb","system_id":"levelo_inurba_marseille","lat":43.337646,"lon":5.374389,"is_reserved":false,"is_disabled":false,"rental_uris":{"android":"levelo://app?vid=5f6df711-5c47-41c8-b2e0-ca21db0773eb","ios":"levelo://app?vid=5f6df711-5c47-41c8-b2e0-ca21db0773eb"},"vehicle_type_id":"4","last_reported":1703261303,"current_range_meters":20400,"station_id":"ce4rr2p2rcd13i802rgg","pricing_plan_id":"free"},{"bike_id":"248036c1-af81-4d27-9242-6593b46581d0","system_id":"levelo_inurba_marseille","lat":43.33766,"lon":5.3743,"is_reserved":false,"is_disabled":false,"rental_uris":{"android":"levelo://app?vid=248036c1-af81-4d27-9242-6593b46581d0","ios":"levelo://app?vid=248036c1-af81-4d27-9242-6593b46581d0"},"vehicle_type_id":"4","last_reported":1703261303,"current_range_meters":31200,"station_id":"","pricing_plan_id":"free"},{"bike_id":"48361e8a-6fad-43b0-9b77-4696a50c3aea","system_id":"levelo_inurba_marseille","lat":43.33766,"lon":5.3743,"is_reserved":false,"is_disabled":false,"rental_uris":{"android":"levelo://app?vid=48361e8a-6fad-43b0-9b77-4696a50c3aea","ios":"levelo://app?vid=48361e8a-6fad-43b0-9b77-4696a50c3aea"},"vehicle_type_id":"4","last_reported":1703261303,"current_range_meters":7200,"station_id":"","pricing_plan_id":"free"},{"bike_id":"3f440d73-86c5-42c2-8d2e-d3027a493fe7","system_id":"levelo_inurba_marseille","lat":43.30642,"lon":5.401031,"is_reserved":false,"is_disabled":false,"rental_uris":{"android":"levelo://app?vid=3f440d73-86c5-42c2-8d2e-d3027a493fe7","ios":"levelo://app?vid=3f440d73-86c5-42c2-8d2e-d3027a493fe7"},"vehicle_type_id":"4","last_reported":1703261303,"current_range_meters":6000,"station_id":"ce4bh112rcd13ifvqda0","pricing_plan_id":"free"},{"bike_id":"9d63ec34-a717-4441-af12-6bc0c7340a20","system_id":"levelo_inurba_marseille","lat":43.30642,"lon":5.401031,"is_reserved":false,"is_disabled":false,"rental_uris":{"android":"levelo://app?vid=9d63ec34-a717-4441-af12-6bc0c7340a20","ios":"levelo://app?vid=9d63ec34-a717-4441-af12-6bc0c7340a20"},"vehicle_type_id":"4","last_reported":1703261303,"current_range_meters":20400,"station_id":"ce4bh112rcd13ifvqda0","pricing_plan_id":"free"},{"bike_id":"b9c8fefe-fcf2-4e1c-95c9-c0ffed42221d","system_id":"levelo_inurba_marseille","lat":43.33766,"lon":5.37435,"is_reserved":false,"is_disabled":false,"rental_uris":{"android":"levelo://app?vid=b9c8fefe-fcf2-4e1c-95c9-c0ffed42221d","ios":"levelo://app?vid=b9c8fefe-fcf2-4e1c-95c9-c0ffed42221d"},"vehicle_type_id":"4","last_reported":1703261303,"current_range_meters":3200,"station_id":"","pricing_plan_id":"free"},{"bike_id":"aa2bb981-e08f-448f-a65e-a15a6461a4f7","system_id":"levelo_inurba_marseille","lat":43.33767,"lon":5.37437,"is_reserved":false,"is_disabled":false,"rental_uris":{"android":"levelo://app?vid=aa2bb981-e08f-448f-a65e-a15a6461a4f7","ios":"levelo://app?vid=aa2bb981-e08f-448f-a65e-a15a6461a4f7"},"vehicle_type_id":"4","last_reported":1703261303,"current_range_meters":15200,"station_id":"","pricing_plan_id":"free"},{"bike_id":"db5ccab8-7a8a-4751-a062-0c2ba2bfc08b","system_id":"levelo_inurba_marseille","lat":43.337686,"lon":5.374328,"is_reserved":false,"is_disabled":false,"rental_uris":{"android":"levelo://app?vid=db5ccab8-7a8a-4751-a062-0c2ba2bfc08b","ios":"levelo://app?vid=db5ccab8-7a8a-4751-a062-0c2ba2bfc08b"},"vehicle_type_id":"4","last_reported":1703261303,"current_range_meters":12400,"station_id":"ce4rr2p2rcd13i802rgg","pricing_plan_id":"free"},{"bike_id":"ed03c11c-b2f2-4071-b320-8aa881128fb4","system_id":"levelo_inurba_marseille","lat":43.33772,"lon":5.37434,"is_reserved":false,"is_disabled":false,"rental_uris":{"android":"levelo://app?vid=ed03c11c-b2f2-4071-b320-8aa881128fb4","ios":"levelo://app?vid=ed03c11c-b2f2-4071-b320-8aa881128fb4"},"vehicle_type_id":"4","last_reported":1703261303,"current_range_meters":29200,"station_id":"","pricing_plan_id":"free"},{"bike_id":"8516412d-ed1b-43c4-bd1e-951e035510a0","system_id":"levelo_inurba_marseille","lat":43.33774,"lon":5.37444,"is_reserved":false,"is_disabled":false,"rental_uris":{"android":"levelo://app?vid=8516412d-ed1b-43c4-bd1e-951e035510a0","ios":"levelo://app?vid=8516412d-ed1b-43c4-bd1e-951e035510a0"},"vehicle_type_id":"4","last_reported":1703261303,"current_range_meters":11200,"station_id":"","pricing_plan_id":"free"},{"bike_id":"dcb0b084-98b5-47a4-9576-33c3e80e4865","system_id":"levelo_inurba_marseille","lat":43.30642,"lon":5.401031,"is_reserved":false,"is_disabled":false,"rental_uris":{"android":"levelo://app?vid=dcb0b084-98b5-47a4-9576-33c3e80e4865","ios":"levelo://app?vid=dcb0b084-98b5-47a4-9576-33c3e80e4865"},"vehicle_type_id":"4","last_reported":1703261303,"current_range_meters":14400,"station_id":"ce4bh112rcd13ifvqda0","pricing_plan_id":"free"},{"bike_id":"f596c9da-fdae-4f93-912a-ad842b1b965e","system_id":"levelo_inurba_marseille","lat":43.301117,"lon":5.398795,"is_reserved":false,"is_disabled":false,"rental_uris":{"android":"levelo://app?vid=f596c9da-fdae-4f93-912a-ad842b1b965e","ios":"levelo://app?vid=f596c9da-fdae-4f93-912a-ad842b1b965e"},"vehicle_type_id":"4","last_reported":1703261303,"current_range_meters":12800,"station_id":"ce4bh0h2rcd13ifvqd40","pricing_plan_id":"free"},{"bike_id":"2b4dac74-6a3b-4503-9d63-c4a459942a44","system_id":"levelo_inurba_marseille","lat":43.28727,"lon":5.36078,"is_reserved":false,"is_disabled":false,"rental_uris":{"android":"levelo://app?vid=2b4dac74-6a3b-4503-9d63-c4a459942a44","ios":"levelo://app?vid=2b4dac74-6a3b-4503-9d63-c4a459942a44"},"vehicle_type_id":"4","last_reported":1703261303,"current_range_meters":24400,"station_id":"cki0cbj6b192h4jlfktg","pricing_plan_id":"free"},{"bike_id":"eb0f90f1-9ba7-40de-872e-0e8fcf9cc0c0","system_id":"levelo_inurba_marseille","lat":43.286591,"lon":5.363346,"is_reserved":false,"is_disabled":false,"rental_uris":{"android":"levelo://app?vid=eb0f90f1-9ba7-40de-872e-0e8fcf9cc0c0","ios":"levelo://app?vid=eb0f90f1-9ba7-40de-872e-0e8fcf9cc0c0"},"vehicle_type_id":"4","last_reported":1703261303,"current_range_meters":20800,"station_id":"ce4bhah2rcd13ifvqej0","pricing_plan_id":"free"},{"bike_id":"87fe6ed6-5ff5-4095-bc1c-5f2f657b0204","system_id":"levelo_inurba_marseille","lat":43.287001,"lon":5.373853,"is_reserved":false,"is_disabled":false,"rental_uris":{"android":"levelo://app?vid=87fe6ed6-5ff5-4095-bc1c-5f2f657b0204","ios":"levelo://app?vid=87fe6ed6-5ff5-4095-bc1c-5f2f657b0204"},"vehicle_type_id":"4","last_reported":1703261303,"current_range_meters":6000,"station_id":"","pricing_plan_id":"free"},{"bike_id":"29121033-4c68-4cb7-b25f-e5becfe7c528","system_id":"levelo_inurba_marseille","lat":43.28659,"lon":5.36345,"is_reserved":false,"is_disabled":false,"rental_uris":{"android":"levelo://app?vid=29121033-4c68-4cb7-b25f-e5becfe7c528","ios":"levelo://app?vid=29121033-4c68-4cb7-b25f-e5becfe7c528"},"vehicle_type_id":"4","last_reported":1703261303,"current_range_meters":0,"station_id":"ce4bhah2rcd13ifvqej0","pricing_plan_id":"free"},{"bike_id":"2c1d37dc-96e9-4039-a40e-ef9737d647b3","system_id":"levelo_inurba_marseille","lat":43.286593,"lon":5.363346,"is_reserved":false,"is_disabled":false,"rental_uris":{"android":"levelo://app?vid=2c1d37dc-96e9-4039-a40e-ef9737d647b3","ios":"levelo://app?vid=2c1d37dc-96e9-4039-a40e-ef9737d647b3"},"vehicle_type_id":"4","last_reported":1703261303,"current_range_meters":0,"station_id":"ce4bhah2rcd13ifvqej0","pricing_plan_id":"free"},{"bike_id":"68c7d980-5a76-4417-87bd-643fa064eb78","system_id":"levelo_inurba_marseille","lat":43.302759,"lon":5.400793,"is_reserved":false,"is_disabled":false,"rental_uris":{"android":"levelo://app?vid=68c7d980-5a76-4417-87bd-643fa064eb78","ios":"levelo://app?vid=68c7d980-5a76-4417-87bd-643fa064eb78"},"vehicle_type_id":"4","last_reported":1703261303,"current_range_meters":6000,"station_id":"ce4bgvh2rcd13ifvqcs0","pricing_plan_id":"free"},{"bike_id":"2b3cfb8c-4d8c-4177-b288-b0363e78636b","system_id":"levelo_inurba_marseille","lat":43.302759,"lon":5.400793,"is_reserved":false,"is_disabled":false,"rental_uris":{"android":"levelo://app?vid=2b3cfb8c-4d8c-4177-b288-b0363e78636b","ios":"levelo://app?vid=2b3cfb8c-4d8c-4177-b288-b0363e78636b"},"vehicle_type_id":"4","last_reported":1703261303,"current_range_meters":14800,"station_id":"ce4bgvh2rcd13ifvqcs0","pricing_plan_id":"free"},{"bike_id":"6cc67d45-9165-4fa1-93ee-02ee1f3528f7","system_id":"levelo_inurba_marseille","lat":43.286039,"lon":5.370679,"is_reserved":false,"is_disabled":false,"rental_uris":{"android":"levelo://app?vid=6cc67d45-9165-4fa1-93ee-02ee1f3528f7","ios":"levelo://app?vid=6cc67d45-9165-4fa1-93ee-02ee1f3528f7"},"vehicle_type_id":"4","last_reported":1703261303,"current_range_meters":5600,"station_id":"ce4bht12rcd13ifvqi60","pricing_plan_id":"free"},{"bike_id":"9fb5e2c9-99c8-4825-87a2-86c24a7329a3","system_id":"levelo_inurba_marseille","lat":43.302759,"lon":5.400793,"is_reserved":false,"is_disabled":false,"rental_uris":{"android":"levelo://app?vid=9fb5e2c9-99c8-4825-87a2-86c24a7329a3","ios":"levelo://app?vid=9fb5e2c9-99c8-4825-87a2-86c24a7329a3"},"vehicle_type_id":"4","last_reported":1703261303,"current_range_meters":23600,"station_id":"ce4bgvh2rcd13ifvqcs0","pricing_plan_id":"free"},{"bike_id":"b14d0a9e-90e2-466b-9404-4198fb5bd878","system_id":"levelo_inurba_marseille","lat":43.302759,"lon":5.400793,"is_reserved":false,"is_disabled":false,"rental_uris":{"android":"levelo://app?vid=b14d0a9e-90e2-466b-9404-4198fb5bd878","ios":"levelo://app?vid=b14d0a9e-90e2-466b-9404-4198fb5bd878"},"vehicle_type_id":"4","last_reported":1703261303,"current_range_meters":1200,"station_id":"ce4bgvh2rcd13ifvqcs0","pricing_plan_id":"free"},{"bike_id":"bd47936f-b6f5-43be-8b8a-493195892060","system_id":"levelo_inurba_marseille","lat":43.286039,"lon":5.370679,"is_reserved":false,"is_disabled":false,"rental_uris":{"android":"levelo://app?vid=bd47936f-b6f5-43be-8b8a-493195892060","ios":"levelo://app?vid=bd47936f-b6f5-43be-8b8a-493195892060"},"vehicle_type_id":"4","last_reported":1703261303,"current_range_meters":19200,"station_id":"ce4bht12rcd13ifvqi60","pricing_plan_id":"free"},{"bike_id":"e2adfa7c-882e-48a1-9ee4-b36e6186ebbf","system_id":"levelo_inurba_marseille","lat":43.330912,"lon":5.396935,"is_reserved":false,"is_disabled":false,"rental_uris":{"android":"levelo://app?vid=e2adfa7c-882e-48a1-9ee4-b36e6186ebbf","ios":"levelo://app?vid=e2adfa7c-882e-48a1-9ee4-b36e6186ebbf"},"vehicle_type_id":"4","last_reported":1703261303,"current_range_meters":18000,"station_id":"","pricing_plan_id":"free"},{"bike_id":"df618aa9-fcc3-4fee-ad1b-036f9791cd9c","system_id":"levelo_inurba_marseille","lat":43.284538,"lon":5.358657,"is_reserved":false,"is_disabled":false,"rental_uris":{"android":"levelo://app?vid=df618aa9-fcc3-4fee-ad1b-036f9791cd9c","ios":"levelo://app?vid=df618aa9-fcc3-4fee-ad1b-036f9791cd9c"},"vehicle_type_id":"4","last_reported":1703261303,"current_range_meters":20000,"station_id":"ce4bhah2rcd13ifvqei0","pricing_plan_id":"free"},{"bike_id":"c4917dc1-345c-4f72-936b-fc63911f55b0","system_id":"levelo_inurba_marseille","lat":43.284534,"lon":5.358662,"is_reserved":false,"is_disabled":false,"rental_uris":{"android":"levelo://app?vid=c4917dc1-345c-4f72-936b-fc63911f55b0","ios":"levelo://app?vid=c4917dc1-345c-4f72-936b-fc63911f55b0"},"vehicle_type_id":"4","last_reported":1703261303,"current_range_meters":15600,"station_id":"ce4bhah2rcd13ifvqei0","pricing_plan_id":"free"},{"bike_id":"116f5a49-86cd-4201-b72b-02493325c701","system_id":"levelo_inurba_marseille","lat":43.284534,"lon":5.358662,"is_reserved":false,"is_disabled":false,"rental_uris":{"android":"levelo://app?vid=116f5a49-86cd-4201-b72b-02493325c701","ios":"levelo://app?vid=116f5a49-86cd-4201-b72b-02493325c701"},"vehicle_type_id":"4","last_reported":1703261303,"current_range_meters":1600,"station_id":"ce4bhah2rcd13ifvqei0","pricing_plan_id":"free"},{"bike_id":"c7135c5d-c16b-4785-917d-d24d5db22e01","system_id":"levelo_inurba_marseille","lat":43.284538,"lon":5.358657,"is_reserved":false,"is_disabled":false,"rental_uris":{"android":"levelo://app?vid=c7135c5d-c16b-4785-917d-d24d5db22e01","ios":"levelo://app?vid=c7135c5d-c16b-4785-917d-d24d5db22e01"},"vehicle_type_id":"4","last_reported":1703261303,"current_range_meters":14400,"station_id":"ce4bhah2rcd13ifvqei0","pricing_plan_id":"free"},{"bike_id":"462e3507-2c93-43e7-bb58-f171f77afc8d","system_id":"levelo_inurba_marseille","lat":43.294314,"lon":5.397498,"is_reserved":false,"is_disabled":false,"rental_uris":{"android":"levelo://app?vid=462e3507-2c93-43e7-bb58-f171f77afc8d","ios":"levelo://app?vid=462e3507-2c93-43e7-bb58-f171f77afc8d"},"vehicle_type_id":"4","last_reported":1703261303,"current_range_meters":14400,"station_id":"ce4bh3h2rcd13ifvqdo0","pricing_plan_id":"free"},{"bike_id":"6681f091-8cae-40db-82be-2afedc79afec","system_id":"levelo_inurba_marseille","lat":43.297905,"lon":5.401069,"is_reserved":false,"is_disabled":false,"rental_uris":{"android":"levelo://app?vid=6681f091-8cae-40db-82be-2afedc79afec","ios":"levelo://app?vid=6681f091-8cae-40db-82be-2afedc79afec"},"vehicle_type_id":"4","last_reported":1703261303,"current_range_meters":5600,"station_id":"","pricing_plan_id":"free"},{"bike_id":"1ae14056-e359-486a-95e5-9e3709f8fed0","system_id":"levelo_inurba_marseille","lat":43.285856,"lon":5.350771,"is_reserved":false,"is_disabled":false,"rental_uris":{"android":"levelo://app?vid=1ae14056-e359-486a-95e5-9e3709f8fed0","ios":"levelo://app?vid=1ae14056-e359-486a-95e5-9e3709f8fed0"},"vehicle_type_id":"4","last_reported":1703261303,"current_range_meters":31200,"station_id":"ce4bhch2rcd13ifvqeug","pricing_plan_id":"free"},{"bike_id":"4cbba94f-0f8a-459d-bdb8-04d7c647e90b","system_id":"levelo_inurba_marseille","lat":43.285856,"lon":5.350771,"is_reserved":false,"is_disabled":false,"rental_uris":{"android":"levelo://app?vid=4cbba94f-0f8a-459d-bdb8-04d7c647e90b","ios":"levelo://app?vid=4cbba94f-0f8a-459d-bdb8-04d7c647e90b"},"vehicle_type_id":"4","last_reported":1703261303,"current_range_meters":31200,"station_id":"ce4bhch2rcd13ifvqeug","pricing_plan_id":"free"},{"bike_id":"173bda84-9c7c-4377-bd9a-2f3d840898c7","system_id":"levelo_inurba_marseille","lat":43.273613,"lon":5.362705,"is_reserved":false,"is_disabled":false,"rental_uris":{"android":"levelo://app?vid=173bda84-9c7c-4377-bd9a-2f3d840898c7","ios":"levelo://app?vid=173bda84-9c7c-4377-bd9a-2f3d840898c7"},"vehicle_type_id":"4","last_reported":1703261303,"current_range_meters":22000,"station_id":"ce4bhbh2rcd13ifvqeo0","pricing_plan_id":"free"},{"bike_id":"8da98ad8-f13e-473a-ad21-49afea089131","system_id":"levelo_inurba_marseille","lat":43.286595,"lon":5.386795,"is_reserved":false,"is_disabled":false,"rental_uris":{"android":"levelo://app?vid=8da98ad8-f13e-473a-ad21-49afea089131","ios":"levelo://app?vid=8da98ad8-f13e-473a-ad21-49afea089131"},"vehicle_type_id":"4","last_reported":1703261303,"current_range_meters":12800,"station_id":"ce4bh492rcd13ifvqdug","pricing_plan_id":"free"},{"bike_id":"b5d8175d-d9fe-4c40-99bc-002ccb55dc44","system_id":"levelo_inurba_marseille","lat":43.28735,"lon":5.38902,"is_reserved":false,"is_disabled":false,"rental_uris":{"android":"levelo://app?vid=b5d8175d-d9fe-4c40-99bc-002ccb55dc44","ios":"levelo://app?vid=b5d8175d-d9fe-4c40-99bc-002ccb55dc44"},"vehicle_type_id":"4","last_reported":1703261303,"current_range_meters":1200,"station_id":"","pricing_plan_id":"free"},{"bike_id":"3b7e3ec0-988e-4aeb-bcf3-3017c628b5d3","system_id":"levelo_inurba_marseille","lat":43.33717,"lon":5.391857,"is_reserved":false,"is_disabled":false,"rental_uris":{"android":"levelo://app?vid=3b7e3ec0-988e-4aeb-bcf3-3017c628b5d3","ios":"levelo://app?vid=3b7e3ec0-988e-4aeb-bcf3-3017c628b5d3"},"vehicle_type_id":"4","last_reported":1703261303,"current_range_meters":23200,"station_id":"ce4bhr92rcd13ifvqhsg","pricing_plan_id":"free"},{"bike_id":"e4558259-d634-4f02-b1ac-ed5d44525078","system_id":"levelo_inurba_marseille","lat":43.323464,"lon":5.406297,"is_reserved":false,"is_disabled":false,"rental_uris":{"android":"levelo://app?vid=e4558259-d634-4f02-b1ac-ed5d44525078","ios":"levelo://app?vid=e4558259-d634-4f02-b1ac-ed5d44525078"},"vehicle_type_id":"4","last_reported":1703261303,"current_range_meters":29200,"station_id":"ce4bhq92rcd13ifvqhjg","pricing_plan_id":"free"},{"bike_id":"5ad55e51-8336-4728-a42d-2bd45b903efc","system_id":"levelo_inurba_marseille","lat":43.284787,"lon":5.384116,"is_reserved":false,"is_disabled":false,"rental_uris":{"android":"levelo://app?vid=5ad55e51-8336-4728-a42d-2bd45b903efc","ios":"levelo://app?vid=5ad55e51-8336-4728-a42d-2bd45b903efc"},"vehicle_type_id":"4","last_reported":1703261303,"current_range_meters":400,"station_id":"ce4bh512rcd13ifvqe3g","pricing_plan_id":"free"},{"bike_id":"0268a442-dc0b-46a5-ac58-3d45264055ad","system_id":"levelo_inurba_marseille","lat":43.297946,"lon":5.404063,"is_reserved":false,"is_disabled":false,"rental_uris":{"android":"levelo://app?vid=0268a442-dc0b-46a5-ac58-3d45264055ad","ios":"levelo://app?vid=0268a442-dc0b-46a5-ac58-3d45264055ad"},"vehicle_type_id":"4","last_reported":1703261303,"current_range_meters":21600,"station_id":"ce4bh112rcd13ifvqd90","pricing_plan_id":"free"},{"bike_id":"e5145a44-688c-421a-9e99-b1d2f4d16973","system_id":"levelo_inurba_marseille","lat":43.29795,"lon":5.404086,"is_reserved":false,"is_disabled":false,"rental_uris":{"android":"levelo://app?vid=e5145a44-688c-421a-9e99-b1d2f4d16973","ios":"levelo://app?vid=e5145a44-688c-421a-9e99-b1d2f4d16973"},"vehicle_type_id":"4","last_reported":1703261303,"current_range_meters":13600,"station_id":"ce4bh112rcd13ifvqd90","pricing_plan_id":"free"},{"bike_id":"9ec10e24-24ed-4255-874d-b5cab2b57223","system_id":"levelo_inurba_marseille","lat":43.284217,"lon":5.349697,"is_reserved":false,"is_disabled":false,"rental_uris":{"android":"levelo://app?vid=9ec10e24-24ed-4255-874d-b5cab2b57223","ios":"levelo://app?vid=9ec10e24-24ed-4255-874d-b5cab2b57223"},"vehicle_type_id":"4","last_reported":1703261303,"current_range_meters":15600,"station_id":"ce4bhbh2rcd13ifvqepg","pricing_plan_id":"free"},{"bike_id":"5dfbda82-9999-48e9-9779-7781fbf040e2","system_id":"levelo_inurba_marseille","lat":43.282706,"lon":5.350756,"is_reserved":false,"is_disabled":false,"rental_uris":{"android":"levelo://app?vid=5dfbda82-9999-48e9-9779-7781fbf040e2","ios":"levelo://app?vid=5dfbda82-9999-48e9-9779-7781fbf040e2"},"vehicle_type_id":"4","last_reported":1703261303,"current_range_meters":11200,"station_id":"ce4bhbp2rcd13ifvqerg","pricing_plan_id":"free"},{"bike_id":"cafe9907-7d49-4973-9e8c-95f9ef61f63a","system_id":"levelo_inurba_marseille","lat":43.28274,"lon":5.35063,"is_reserved":false,"is_disabled":false,"rental_uris":{"android":"levelo://app?vid=cafe9907-7d49-4973-9e8c-95f9ef61f63a","ios":"levelo://app?vid=cafe9907-7d49-4973-9e8c-95f9ef61f63a"},"vehicle_type_id":"4","last_reported":1703261303,"current_range_meters":19200,"station_id":"ce4bhbp2rcd13ifvqerg","pricing_plan_id":"free"},{"bike_id":"9055ca72-0b15-41da-abc1-0d01dd44c2f7","system_id":"levelo_inurba_marseille","lat":43.282729,"lon":5.350625,"is_reserved":false,"is_disabled":false,"rental_uris":{"android":"levelo://app?vid=9055ca72-0b15-41da-abc1-0d01dd44c2f7","ios":"levelo://app?vid=9055ca72-0b15-41da-abc1-0d01dd44c2f7"},"vehicle_type_id":"4","last_reported":1703261303,"current_range_meters":25600,"station_id":"ce4bhbp2rcd13ifvqerg","pricing_plan_id":"free"},{"bike_id":"d332ec10-17d6-45fe-968e-61437c93c8fc","system_id":"levelo_inurba_marseille","lat":43.282744,"lon":5.350533,"is_reserved":false,"is_disabled":false,"rental_uris":{"android":"levelo://app?vid=d332ec10-17d6-45fe-968e-61437c93c8fc","ios":"levelo://app?vid=d332ec10-17d6-45fe-968e-61437c93c8fc"},"vehicle_type_id":"4","last_reported":1703261303,"current_range_meters":10400,"station_id":"ce4bhbp2rcd13ifvqerg","pricing_plan_id":"free"},{"bike_id":"d29569d6-958c-42dd-a3f7-1778cb3b629b","system_id":"levelo_inurba_marseille","lat":43.28269,"lon":5.35058,"is_reserved":false,"is_disabled":false,"rental_uris":{"android":"levelo://app?vid=d29569d6-958c-42dd-a3f7-1778cb3b629b","ios":"levelo://app?vid=d29569d6-958c-42dd-a3f7-1778cb3b629b"},"vehicle_type_id":"4","last_reported":1703261303,"current_range_meters":7600,"station_id":"ce4bhbp2rcd13ifvqerg","pricing_plan_id":"free"},{"bike_id":"37e49337-b5c5-4637-94e5-4810e011d8a4","system_id":"levelo_inurba_marseille","lat":43.2826,"lon":5.35075,"is_reserved":false,"is_disabled":false,"rental_uris":{"android":"levelo://app?vid=37e49337-b5c5-4637-94e5-4810e011d8a4","ios":"levelo://app?vid=37e49337-b5c5-4637-94e5-4810e011d8a4"},"vehicle_type_id":"4","last_reported":1703261303,"current_range_meters":0,"station_id":"ce4bhbp2rcd13ifvqerg","pricing_plan_id":"free"},{"bike_id":"7054a930-e9e7-4d41-9e2b-41f0a98eceda","system_id":"levelo_inurba_marseille","lat":43.28259,"lon":5.35069,"is_reserved":false,"is_disabled":false,"rental_uris":{"android":"levelo://app?vid=7054a930-e9e7-4d41-9e2b-41f0a98eceda","ios":"levelo://app?vid=7054a930-e9e7-4d41-9e2b-41f0a98eceda"},"vehicle_type_id":"4","last_reported":1703261303,"current_range_meters":8800,"station_id":"ce4bhbp2rcd13ifvqerg","pricing_plan_id":"free"},{"bike_id":"3ca65f8e-271b-42fc-b05d-08b2bc4c4857","system_id":"levelo_inurba_marseille","lat":43.283502,"lon":5.386471,"is_reserved":false,"is_disabled":false,"rental_uris":{"android":"levelo://app?vid=3ca65f8e-271b-42fc-b05d-08b2bc4c4857","ios":"levelo://app?vid=3ca65f8e-271b-42fc-b05d-08b2bc4c4857"},"vehicle_type_id":"4","last_reported":1703261303,"current_range_meters":16000,"station_id":"ce4bh492rcd13ifvqdvg","pricing_plan_id":"free"},{"bike_id":"295022a2-b62b-439f-8d2f-095ea33652c6","system_id":"levelo_inurba_marseille","lat":43.296263,"lon":5.40601,"is_reserved":false,"is_disabled":false,"rental_uris":{"android":"levelo://app?vid=295022a2-b62b-439f-8d2f-095ea33652c6","ios":"levelo://app?vid=295022a2-b62b-439f-8d2f-095ea33652c6"},"vehicle_type_id":"4","last_reported":1703261303,"current_range_meters":2400,"station_id":"ce4bh0h2rcd13ifvqd60","pricing_plan_id":"free"},{"bike_id":"2dce41b4-f1e9-4565-979b-d206af37124f","system_id":"levelo_inurba_marseille","lat":43.326605,"lon":5.409903,"is_reserved":false,"is_disabled":false,"rental_uris":{"android":"levelo://app?vid=2dce41b4-f1e9-4565-979b-d206af37124f","ios":"levelo://app?vid=2dce41b4-f1e9-4565-979b-d206af37124f"},"vehicle_type_id":"4","last_reported":1703261303,"current_range_meters":29200,"station_id":"ce4bhpp2rcd13ifvqhgg","pricing_plan_id":"free"},{"bike_id":"7f89473b-4ee2-4ba8-86bf-bc53e18d4702","system_id":"levelo_inurba_marseille","lat":43.30419,"lon":5.4128,"is_reserved":false,"is_disabled":false,"rental_uris":{"android":"levelo://app?vid=7f89473b-4ee2-4ba8-86bf-bc53e18d4702","ios":"levelo://app?vid=7f89473b-4ee2-4ba8-86bf-bc53e18d4702"},"vehicle_type_id":"4","last_reported":1703261303,"current_range_meters":4000,"station_id":"ce4bhop2rcd13ifvqh8g","pricing_plan_id":"free"},{"bike_id":"2994219f-f282-434d-a4a5-dcac2f9151e5","system_id":"levelo_inurba_marseille","lat":43.30411,"lon":5.41285,"is_reserved":false,"is_disabled":false,"rental_uris":{"android":"levelo://app?vid=2994219f-f282-434d-a4a5-dcac2f9151e5","ios":"levelo://app?vid=2994219f-f282-434d-a4a5-dcac2f9151e5"},"vehicle_type_id":"4","last_reported":1703261303,"current_range_meters":15200,"station_id":"ce4bhop2rcd13ifvqh8g","pricing_plan_id":"free"},{"bike_id":"f2a735b9-b183-4b03-acbe-8b823bd40b24","system_id":"levelo_inurba_marseille","lat":43.30418,"lon":5.41288,"is_reserved":false,"is_disabled":false,"rental_uris":{"android":"levelo://app?vid=f2a735b9-b183-4b03-acbe-8b823bd40b24","ios":"levelo://app?vid=f2a735b9-b183-4b03-acbe-8b823bd40b24"},"vehicle_type_id":"4","last_reported":1703261303,"current_range_meters":31200,"station_id":"ce4bhop2rcd13ifvqh8g","pricing_plan_id":"free"},{"bike_id":"7db706b8-3ca4-41d0-ac9d-c1d14c673b6f","system_id":"levelo_inurba_marseille","lat":43.279087,"lon":5.380114,"is_reserved":false,"is_disabled":false,"rental_uris":{"android":"levelo://app?vid=7db706b8-3ca4-41d0-ac9d-c1d14c673b6f","ios":"levelo://app?vid=7db706b8-3ca4-41d0-ac9d-c1d14c673b6f"},"vehicle_type_id":"4","last_reported":1703261303,"current_range_meters":25200,"station_id":"ce4bhf92rcd13ifvqf50","pricing_plan_id":"free"},{"bike_id":"22808c7a-9b5f-4cf9-bebd-60b27e55d85f","system_id":"levelo_inurba_marseille","lat":43.28713,"lon":5.39997,"is_reserved":false,"is_disabled":false,"rental_uris":{"android":"levelo://app?vid=22808c7a-9b5f-4cf9-bebd-60b27e55d85f","ios":"levelo://app?vid=22808c7a-9b5f-4cf9-bebd-60b27e55d85f"},"vehicle_type_id":"4","last_reported":1703261303,"current_range_meters":0,"station_id":"ce4bho92rcd13ifvqh3g","pricing_plan_id":"free"},{"bike_id":"2e5d963d-1185-4f2d-88f4-e4b8f26c6849","system_id":"levelo_inurba_marseille","lat":43.320045,"lon":5.415046,"is_reserved":false,"is_disabled":false,"rental_uris":{"android":"levelo://app?vid=2e5d963d-1185-4f2d-88f4-e4b8f26c6849","ios":"levelo://app?vid=2e5d963d-1185-4f2d-88f4-e4b8f26c6849"},"vehicle_type_id":"4","last_reported":1703261303,"current_range_meters":21600,"station_id":"ce4bhq92rcd13ifvqhkg","pricing_plan_id":"free"},{"bike_id":"4ecc0af2-5f3a-471a-9173-ae691584c4db","system_id":"levelo_inurba_marseille","lat":43.320045,"lon":5.415046,"is_reserved":false,"is_disabled":false,"rental_uris":{"android":"levelo://app?vid=4ecc0af2-5f3a-471a-9173-ae691584c4db","ios":"levelo://app?vid=4ecc0af2-5f3a-471a-9173-ae691584c4db"},"vehicle_type_id":"4","last_reported":1703261303,"current_range_meters":22400,"station_id":"ce4bhq92rcd13ifvqhkg","pricing_plan_id":"free"},{"bike_id":"e9b2f136-dc7d-466b-bb90-1dd1c496eec9","system_id":"levelo_inurba_marseille","lat":43.320045,"lon":5.415048,"is_reserved":false,"is_disabled":false,"rental_uris":{"android":"levelo://app?vid=e9b2f136-dc7d-466b-bb90-1dd1c496eec9","ios":"levelo://app?vid=e9b2f136-dc7d-466b-bb90-1dd1c496eec9"},"vehicle_type_id":"4","last_reported":1703261303,"current_range_meters":3600,"station_id":"ce4bhq92rcd13ifvqhkg","pricing_plan_id":"free"},{"bike_id":"623f8c50-51de-4d7c-9abd-c4d7a3b44d05","system_id":"levelo_inurba_marseille","lat":43.292569,"lon":5.409107,"is_reserved":false,"is_disabled":false,"rental_uris":{"android":"levelo://app?vid=623f8c50-51de-4d7c-9abd-c4d7a3b44d05","ios":"levelo://app?vid=623f8c50-51de-4d7c-9abd-c4d7a3b44d05"},"vehicle_type_id":"4","last_reported":1703261303,"current_range_meters":25200,"station_id":"ce4bh192rcd13ifvqdc0","pricing_plan_id":"free"},{"bike_id":"8b5591c9-b8e9-447c-a437-9a29081582b8","system_id":"levelo_inurba_marseille","lat":43.292569,"lon":5.409107,"is_reserved":false,"is_disabled":false,"rental_uris":{"android":"levelo://app?vid=8b5591c9-b8e9-447c-a437-9a29081582b8","ios":"levelo://app?vid=8b5591c9-b8e9-447c-a437-9a29081582b8"},"vehicle_type_id":"4","last_reported":1703261303,"current_range_meters":5600,"station_id":"ce4bh192rcd13ifvqdc0","pricing_plan_id":"free"},{"bike_id":"eb26abdb-ac67-4e71-9bbe-40464da5665c","system_id":"levelo_inurba_marseille","lat":43.276179,"lon":5.361009,"is_reserved":false,"is_disabled":false,"rental_uris":{"android":"levelo://app?vid=eb26abdb-ac67-4e71-9bbe-40464da5665c","ios":"levelo://app?vid=eb26abdb-ac67-4e71-9bbe-40464da5665c"},"vehicle_type_id":"4","last_reported":1703261303,"current_range_meters":0,"station_id":"ce4bgj92rcd13ifvqbe0","pricing_plan_id":"free"},{"bike_id":"06d3ff84-b9e2-4386-9d7f-761c181f7861","system_id":"levelo_inurba_marseille","lat":43.303837,"lon":5.418724,"is_reserved":false,"is_disabled":false,"rental_uris":{"android":"levelo://app?vid=06d3ff84-b9e2-4386-9d7f-761c181f7861","ios":"levelo://app?vid=06d3ff84-b9e2-4386-9d7f-761c181f7861"},"vehicle_type_id":"4","last_reported":1703261303,"current_range_meters":18000,"station_id":"ce4bhop2rcd13ifvqh7g","pricing_plan_id":"free"},{"bike_id":"cafd7df8-1267-44c1-9887-35e34b5b33da","system_id":"levelo_inurba_marseille","lat":43.278399,"lon":5.392139,"is_reserved":false,"is_disabled":false,"rental_uris":{"android":"levelo://app?vid=cafd7df8-1267-44c1-9887-35e34b5b33da","ios":"levelo://app?vid=cafd7df8-1267-44c1-9887-35e34b5b33da"},"vehicle_type_id":"4","last_reported":1703261303,"current_range_meters":30000,"station_id":"ce4bhjp2rcd13ifvqga0","pricing_plan_id":"free"},{"bike_id":"fd05e688-09b5-4208-bce6-d99b826dd41b","system_id":"levelo_inurba_marseille","lat":43.275625,"lon":5.384392,"is_reserved":false,"is_disabled":false,"rental_uris":{"android":"levelo://app?vid=fd05e688-09b5-4208-bce6-d99b826dd41b","ios":"levelo://app?vid=fd05e688-09b5-4208-bce6-d99b826dd41b"},"vehicle_type_id":"4","last_reported":1703261303,"current_range_meters":8000,"station_id":"ce4bhh92rcd13ifvqfi0","pricing_plan_id":"free"},{"bike_id":"61cc9edf-fb9f-4d0f-ab9b-7d2db52407ae","system_id":"levelo_inurba_marseille","lat":43.278401,"lon":5.392152,"is_reserved":false,"is_disabled":false,"rental_uris":{"android":"levelo://app?vid=61cc9edf-fb9f-4d0f-ab9b-7d2db52407ae","ios":"levelo://app?vid=61cc9edf-fb9f-4d0f-ab9b-7d2db52407ae"},"vehicle_type_id":"4","last_reported":1703261303,"current_range_meters":27200,"station_id":"ce4bhjp2rcd13ifvqga0","pricing_plan_id":"free"},{"bike_id":"843de36b-095c-4afd-830d-de0e9d07ea09","system_id":"levelo_inurba_marseille","lat":43.273613,"lon":5.362705,"is_reserved":false,"is_disabled":false,"rental_uris":{"android":"levelo://app?vid=843de36b-095c-4afd-830d-de0e9d07ea09","ios":"levelo://app?vid=843de36b-095c-4afd-830d-de0e9d07ea09"},"vehicle_type_id":"4","last_reported":1703261303,"current_range_meters":6400,"station_id":"ce4bhbh2rcd13ifvqeo0","pricing_plan_id":"free"},{"bike_id":"48cb72d6-5769-46dd-a4f2-54dfd0bfb283","system_id":"levelo_inurba_marseille","lat":43.273613,"lon":5.362705,"is_reserved":false,"is_disabled":false,"rental_uris":{"android":"levelo://app?vid=48cb72d6-5769-46dd-a4f2-54dfd0bfb283","ios":"levelo://app?vid=48cb72d6-5769-46dd-a4f2-54dfd0bfb283"},"vehicle_type_id":"4","last_reported":1703261303,"current_range_meters":16800,"station_id":"ce4bhbh2rcd13ifvqeo0","pricing_plan_id":"free"},{"bike_id":"e09a6d18-e62b-45bc-ba72-f8db6df2fcf5","system_id":"levelo_inurba_marseille","lat":43.273609,"lon":5.362708,"is_reserved":false,"is_disabled":false,"rental_uris":{"android":"levelo://app?vid=e09a6d18-e62b-45bc-ba72-f8db6df2fcf5","ios":"levelo://app?vid=e09a6d18-e62b-45bc-ba72-f8db6df2fcf5"},"vehicle_type_id":"4","last_reported":1703261303,"current_range_meters":23600,"station_id":"ce4bhbh2rcd13ifvqeo0","pricing_plan_id":"free"},{"bike_id":"babb8aa9-a7ee-4380-9bbf-18a6a9d87f5d","system_id":"levelo_inurba_marseille","lat":43.336134,"lon":5.410341,"is_reserved":false,"is_disabled":false,"rental_uris":{"android":"levelo://app?vid=babb8aa9-a7ee-4380-9bbf-18a6a9d87f5d","ios":"levelo://app?vid=babb8aa9-a7ee-4380-9bbf-18a6a9d87f5d"},"vehicle_type_id":"4","last_reported":1703261303,"current_range_meters":2000,"station_id":"ce4bhqh2rcd13ifvqhmg","pricing_plan_id":"free"},{"bike_id":"9561766a-b9fe-49b7-a411-df681ec1e796","system_id":"levelo_inurba_marseille","lat":43.276769,"lon":5.388787,"is_reserved":false,"is_disabled":false,"rental_uris":{"android":"levelo://app?vid=9561766a-b9fe-49b7-a411-df681ec1e796","ios":"levelo://app?vid=9561766a-b9fe-49b7-a411-df681ec1e796"},"vehicle_type_id":"4","last_reported":1703261303,"current_range_meters":29200,"station_id":"ce4bhi12rcd13ifvqfo0","pricing_plan_id":"free"},{"bike_id":"dbc47944-bc59-4ad2-b48a-d2f7f1ade040","system_id":"levelo_inurba_marseille","lat":43.275625,"lon":5.384392,"is_reserved":false,"is_disabled":false,"rental_uris":{"android":"levelo://app?vid=dbc47944-bc59-4ad2-b48a-d2f7f1ade040","ios":"levelo://app?vid=dbc47944-bc59-4ad2-b48a-d2f7f1ade040"},"vehicle_type_id":"4","last_reported":1703261303,"current_range_meters":2800,"station_id":"ce4bhh92rcd13ifvqfi0","pricing_plan_id":"free"},{"bike_id":"86f60880-2cc4-4972-8f34-dbd2810c17b1","system_id":"levelo_inurba_marseille","lat":43.276771,"lon":5.388799,"is_reserved":false,"is_disabled":false,"rental_uris":{"android":"levelo://app?vid=86f60880-2cc4-4972-8f34-dbd2810c17b1","ios":"levelo://app?vid=86f60880-2cc4-4972-8f34-dbd2810c17b1"},"vehicle_type_id":"4","last_reported":1703261303,"current_range_meters":26000,"station_id":"ce4bhi12rcd13ifvqfo0","pricing_plan_id":"free"},{"bike_id":"2cf5175b-c321-4c60-82d1-e63e1317c4be","system_id":"levelo_inurba_marseille","lat":43.279952,"lon":5.400085,"is_reserved":false,"is_disabled":false,"rental_uris":{"android":"levelo://app?vid=2cf5175b-c321-4c60-82d1-e63e1317c4be","ios":"levelo://app?vid=2cf5175b-c321-4c60-82d1-e63e1317c4be"},"vehicle_type_id":"4","last_reported":1703261303,"current_range_meters":23200,"station_id":"ce4bho92rcd13ifvqh4g","pricing_plan_id":"free"},{"bike_id":"5af98da2-262b-4ffd-b8c9-b85b7f8f200a","system_id":"levelo_inurba_marseille","lat":43.279975,"lon":5.40009,"is_reserved":false,"is_disabled":false,"rental_uris":{"android":"levelo://app?vid=5af98da2-262b-4ffd-b8c9-b85b7f8f200a","ios":"levelo://app?vid=5af98da2-262b-4ffd-b8c9-b85b7f8f200a"},"vehicle_type_id":"4","last_reported":1703261303,"current_range_meters":16400,"station_id":"ce4bho92rcd13ifvqh4g","pricing_plan_id":"free"},{"bike_id":"2cfb94d1-1add-47bd-a2bb-87f133153862","system_id":"levelo_inurba_marseille","lat":43.279952,"lon":5.400085,"is_reserved":false,"is_disabled":false,"rental_uris":{"android":"levelo://app?vid=2cfb94d1-1add-47bd-a2bb-87f133153862","ios":"levelo://app?vid=2cfb94d1-1add-47bd-a2bb-87f133153862"},"vehicle_type_id":"4","last_reported":1703261303,"current_range_meters":4000,"station_id":"ce4bho92rcd13ifvqh4g","pricing_plan_id":"free"},{"bike_id":"a87b7446-c44d-45e5-ac41-c44475125cf3","system_id":"levelo_inurba_marseille","lat":43.279975,"lon":5.40009,"is_reserved":false,"is_disabled":false,"rental_uris":{"android":"levelo://app?vid=a87b7446-c44d-45e5-ac41-c44475125cf3","ios":"levelo://app?vid=a87b7446-c44d-45e5-ac41-c44475125cf3"},"vehicle_type_id":"4","last_reported":1703261303,"current_range_meters":20000,"station_id":"ce4bho92rcd13ifvqh4g","pricing_plan_id":"free"},{"bike_id":"b7c5dcdd-eb29-4c4c-a14a-03283d1eb28d","system_id":"levelo_inurba_marseille","lat":43.274099,"lon":5.394019,"is_reserved":false,"is_disabled":false,"rental_uris":{"android":"levelo://app?vid=b7c5dcdd-eb29-4c4c-a14a-03283d1eb28d","ios":"levelo://app?vid=b7c5dcdd-eb29-4c4c-a14a-03283d1eb28d"},"vehicle_type_id":"4","last_reported":1703261303,"current_range_meters":31200,"station_id":"ce4bhdp2rcd13ifvqf20","pricing_plan_id":"free"},{"bike_id":"ac050049-5ce5-4a73-b30b-c94d104dc65a","system_id":"levelo_inurba_marseille","lat":43.274099,"lon":5.394019,"is_reserved":false,"is_disabled":false,"rental_uris":{"android":"levelo://app?vid=ac050049-5ce5-4a73-b30b-c94d104dc65a","ios":"levelo://app?vid=ac050049-5ce5-4a73-b30b-c94d104dc65a"},"vehicle_type_id":"4","last_reported":1703261303,"current_range_meters":26000,"station_id":"ce4bhdp2rcd13ifvqf20","pricing_plan_id":"free"},{"bike_id":"96939607-2741-4089-ba93-703e03251f9d","system_id":"levelo_inurba_marseille","lat":43.274099,"lon":5.394019,"is_reserved":false,"is_disabled":false,"rental_uris":{"android":"levelo://app?vid=96939607-2741-4089-ba93-703e03251f9d","ios":"levelo://app?vid=96939607-2741-4089-ba93-703e03251f9d"},"vehicle_type_id":"4","last_reported":1703261303,"current_range_meters":30400,"station_id":"ce4bhdp2rcd13ifvqf20","pricing_plan_id":"free"},{"bike_id":"a660e4bd-042b-410a-bc3a-0bc0376d00bd","system_id":"levelo_inurba_marseille","lat":43.274103,"lon":5.394016,"is_reserved":false,"is_disabled":false,"rental_uris":{"android":"levelo://app?vid=a660e4bd-042b-410a-bc3a-0bc0376d00bd","ios":"levelo://app?vid=a660e4bd-042b-410a-bc3a-0bc0376d00bd"},"vehicle_type_id":"4","last_reported":1703261303,"current_range_meters":6400,"station_id":"ce4bhdp2rcd13ifvqf20","pricing_plan_id":"free"},{"bike_id":"d4e5d302-8f9c-4bc6-aaae-12dbdd729d08","system_id":"levelo_inurba_marseille","lat":43.304096,"lon":5.425385,"is_reserved":false,"is_disabled":false,"rental_uris":{"android":"levelo://app?vid=d4e5d302-8f9c-4bc6-aaae-12dbdd729d08","ios":"levelo://app?vid=d4e5d302-8f9c-4bc6-aaae-12dbdd729d08"},"vehicle_type_id":"4","last_reported":1703261303,"current_range_meters":6800,"station_id":"ce4bhoh2rcd13ifvqh6g","pricing_plan_id":"free"},{"bike_id":"9a6fa246-0003-4a31-902b-93c8b62311d7","system_id":"levelo_inurba_marseille","lat":43.31016,"lon":5.42711,"is_reserved":false,"is_disabled":false,"rental_uris":{"android":"levelo://app?vid=9a6fa246-0003-4a31-902b-93c8b62311d7","ios":"levelo://app?vid=9a6fa246-0003-4a31-902b-93c8b62311d7"},"vehicle_type_id":"4","last_reported":1703261303,"current_range_meters":1600,"station_id":"","pricing_plan_id":"free"},{"bike_id":"a80c78b0-54bd-4c06-a456-7ff9cb5fb92c","system_id":"levelo_inurba_marseille","lat":43.295523,"lon":5.422926,"is_reserved":false,"is_disabled":false,"rental_uris":{"android":"levelo://app?vid=a80c78b0-54bd-4c06-a456-7ff9cb5fb92c","ios":"levelo://app?vid=a80c78b0-54bd-4c06-a456-7ff9cb5fb92c"},"vehicle_type_id":"4","last_reported":1703261303,"current_range_meters":31200,"station_id":"ce4bhph2rcd13ifvqhdg","pricing_plan_id":"free"},{"bike_id":"8bfa8eb4-f929-4eee-853c-7f7816617529","system_id":"levelo_inurba_marseille","lat":43.295523,"lon":5.422926,"is_reserved":false,"is_disabled":false,"rental_uris":{"android":"levelo://app?vid=8bfa8eb4-f929-4eee-853c-7f7816617529","ios":"levelo://app?vid=8bfa8eb4-f929-4eee-853c-7f7816617529"},"vehicle_type_id":"4","last_reported":1703261303,"current_range_meters":11600,"station_id":"ce4bhph2rcd13ifvqhdg","pricing_plan_id":"free"},{"bike_id":"b55db1a0-b820-479b-9929-7610c21584c5","system_id":"levelo_inurba_marseille","lat":43.295511,"lon":5.422926,"is_reserved":false,"is_disabled":false,"rental_uris":{"android":"levelo://app?vid=b55db1a0-b820-479b-9929-7610c21584c5","ios":"levelo://app?vid=b55db1a0-b820-479b-9929-7610c21584c5"},"vehicle_type_id":"4","last_reported":1703261303,"current_range_meters":25200,"station_id":"ce4bhph2rcd13ifvqhdg","pricing_plan_id":"free"},{"bike_id":"0c9e044c-999f-41fa-9e0a-b4af47f20111","system_id":"levelo_inurba_marseille","lat":43.272116,"lon":5.391763,"is_reserved":false,"is_disabled":false,"rental_uris":{"android":"levelo://app?vid=0c9e044c-999f-41fa-9e0a-b4af47f20111","ios":"levelo://app?vid=0c9e044c-999f-41fa-9e0a-b4af47f20111"},"vehicle_type_id":"4","last_reported":1703261303,"current_range_meters":18000,"station_id":"ce4bhhp2rcd13ifvqfm0","pricing_plan_id":"free"},{"bike_id":"a24d475b-1fa7-4396-a4da-4cdb17697f26","system_id":"levelo_inurba_marseille","lat":43.278128,"lon":5.407195,"is_reserved":false,"is_disabled":false,"rental_uris":{"android":"levelo://app?vid=a24d475b-1fa7-4396-a4da-4cdb17697f26","ios":"levelo://app?vid=a24d475b-1fa7-4396-a4da-4cdb17697f26"},"vehicle_type_id":"4","last_reported":1703261303,"current_range_meters":4400,"station_id":"ce4bhnh2rcd13ifvqgtg","pricing_plan_id":"free"},{"bike_id":"c4e644ca-69b4-410a-8a4b-b6e9451611fe","system_id":"levelo_inurba_marseille","lat":43.279549,"lon":5.41053,"is_reserved":false,"is_disabled":false,"rental_uris":{"android":"levelo://app?vid=c4e644ca-69b4-410a-8a4b-b6e9451611fe","ios":"levelo://app?vid=c4e644ca-69b4-410a-8a4b-b6e9451611fe"},"vehicle_type_id":"4","last_reported":1703261303,"current_range_meters":0,"station_id":"","pricing_plan_id":"free"},{"bike_id":"eeb89425-c79e-4406-8f5f-1b8056778650","system_id":"levelo_inurba_marseille","lat":43.269319,"lon":5.389397,"is_reserved":false,"is_disabled":false,"rental_uris":{"android":"levelo://app?vid=eeb89425-c79e-4406-8f5f-1b8056778650","ios":"levelo://app?vid=eeb89425-c79e-4406-8f5f-1b8056778650"},"vehicle_type_id":"4","last_reported":1703261303,"current_range_meters":0,"station_id":"ce4bhhh2rcd13ifvqfl0","pricing_plan_id":"free"},{"bike_id":"87ac76f9-991e-46b3-9e02-de7493f45ae2","system_id":"levelo_inurba_marseille","lat":43.269319,"lon":5.389397,"is_reserved":false,"is_disabled":false,"rental_uris":{"android":"levelo://app?vid=87ac76f9-991e-46b3-9e02-de7493f45ae2","ios":"levelo://app?vid=87ac76f9-991e-46b3-9e02-de7493f45ae2"},"vehicle_type_id":"4","last_reported":1703261303,"current_range_meters":29200,"station_id":"ce4bhhh2rcd13ifvqfl0","pricing_plan_id":"free"},{"bike_id":"b9d9f0e2-6615-4c59-b7b4-9031b88d49df","system_id":"levelo_inurba_marseille","lat":43.265714,"lon":5.372891,"is_reserved":false,"is_disabled":false,"rental_uris":{"android":"levelo://app?vid=b9d9f0e2-6615-4c59-b7b4-9031b88d49df","ios":"levelo://app?vid=b9d9f0e2-6615-4c59-b7b4-9031b88d49df"},"vehicle_type_id":"4","last_reported":1703261303,"current_range_meters":16400,"station_id":"ce4bhg12rcd13ifvqf70","pricing_plan_id":"free"},{"bike_id":"f37ef895-5115-4df2-8316-aa6df246e09a","system_id":"levelo_inurba_marseille","lat":43.27996,"lon":5.416624,"is_reserved":false,"is_disabled":false,"rental_uris":{"android":"levelo://app?vid=f37ef895-5115-4df2-8316-aa6df246e09a","ios":"levelo://app?vid=f37ef895-5115-4df2-8316-aa6df246e09a"},"vehicle_type_id":"4","last_reported":1703261303,"current_range_meters":23600,"station_id":"ce4bho12rcd13ifvqh1g","pricing_plan_id":"free"},{"bike_id":"cb09364d-fc2a-4a67-a6f8-d5db20af41ff","system_id":"levelo_inurba_marseille","lat":43.267966,"lon":5.393976,"is_reserved":false,"is_disabled":false,"rental_uris":{"android":"levelo://app?vid=cb09364d-fc2a-4a67-a6f8-d5db20af41ff","ios":"levelo://app?vid=cb09364d-fc2a-4a67-a6f8-d5db20af41ff"},"vehicle_type_id":"4","last_reported":1703261303,"current_range_meters":0,"station_id":"ce4bhh12rcd13ifvqfg0","pricing_plan_id":"free"},{"bike_id":"30658107-0655-48af-9fbc-8c29d3e69e2c","system_id":"levelo_inurba_marseille","lat":43.265569,"lon":5.390047,"is_reserved":false,"is_disabled":false,"rental_uris":{"android":"levelo://app?vid=30658107-0655-48af-9fbc-8c29d3e69e2c","ios":"levelo://app?vid=30658107-0655-48af-9fbc-8c29d3e69e2c"},"vehicle_type_id":"4","last_reported":1703261303,"current_range_meters":0,"station_id":"ce4bhe12rcd13ifvqf30","pricing_plan_id":"free"},{"bike_id":"be5d8f32-460d-4292-b557-437d0e06f53d","system_id":"levelo_inurba_marseille","lat":43.26949,"lon":5.40262,"is_reserved":false,"is_disabled":false,"rental_uris":{"android":"levelo://app?vid=be5d8f32-460d-4292-b557-437d0e06f53d","ios":"levelo://app?vid=be5d8f32-460d-4292-b557-437d0e06f53d"},"vehicle_type_id":"4","last_reported":1703261303,"current_range_meters":30800,"station_id":"cjm6bp8fraef2m0cb0m0","pricing_plan_id":"free"},{"bike_id":"f1fa39bb-95bb-4828-a45b-2b3931f2efaf","system_id":"levelo_inurba_marseille","lat":43.261782,"lon":5.374515,"is_reserved":false,"is_disabled":false,"rental_uris":{"android":"levelo://app?vid=f1fa39bb-95bb-4828-a45b-2b3931f2efaf","ios":"levelo://app?vid=f1fa39bb-95bb-4828-a45b-2b3931f2efaf"},"vehicle_type_id":"4","last_reported":1703261303,"current_range_meters":12400,"station_id":"ce4bhgp2rcd13ifvqfc0","pricing_plan_id":"free"},{"bike_id":"94377deb-5162-4e20-9957-39d9568c1191","system_id":"levelo_inurba_marseille","lat":43.261782,"lon":5.374515,"is_reserved":false,"is_disabled":false,"rental_uris":{"android":"levelo://app?vid=94377deb-5162-4e20-9957-39d9568c1191","ios":"levelo://app?vid=94377deb-5162-4e20-9957-39d9568c1191"},"vehicle_type_id":"4","last_reported":1703261303,"current_range_meters":5200,"station_id":"ce4bhgp2rcd13ifvqfc0","pricing_plan_id":"free"},{"bike_id":"894c3335-bf4d-4234-8953-92bc12cfe6a4","system_id":"levelo_inurba_marseille","lat":43.261782,"lon":5.374515,"is_reserved":false,"is_disabled":false,"rental_uris":{"android":"levelo://app?vid=894c3335-bf4d-4234-8953-92bc12cfe6a4","ios":"levelo://app?vid=894c3335-bf4d-4234-8953-92bc12cfe6a4"},"vehicle_type_id":"4","last_reported":1703261303,"current_range_meters":0,"station_id":"ce4bhgp2rcd13ifvqfc0","pricing_plan_id":"free"},{"bike_id":"368547d8-794b-4fd8-a43a-f1d6f9011837","system_id":"levelo_inurba_marseille","lat":43.261782,"lon":5.374515,"is_reserved":false,"is_disabled":false,"rental_uris":{"android":"levelo://app?vid=368547d8-794b-4fd8-a43a-f1d6f9011837","ios":"levelo://app?vid=368547d8-794b-4fd8-a43a-f1d6f9011837"},"vehicle_type_id":"4","last_reported":1703261303,"current_range_meters":25600,"station_id":"ce4bhgp2rcd13ifvqfc0","pricing_plan_id":"free"},{"bike_id":"13ee86d5-b251-4785-bec2-edb8e3116370","system_id":"levelo_inurba_marseille","lat":43.261782,"lon":5.374515,"is_reserved":false,"is_disabled":false,"rental_uris":{"android":"levelo://app?vid=13ee86d5-b251-4785-bec2-edb8e3116370","ios":"levelo://app?vid=13ee86d5-b251-4785-bec2-edb8e3116370"},"vehicle_type_id":"4","last_reported":1703261303,"current_range_meters":23200,"station_id":"ce4bhgp2rcd13ifvqfc0","pricing_plan_id":"free"},{"bike_id":"6dd92280-12a3-4c39-a3c0-2c58171bfddd","system_id":"levelo_inurba_marseille","lat":43.261782,"lon":5.374515,"is_reserved":false,"is_disabled":false,"rental_uris":{"android":"levelo://app?vid=6dd92280-12a3-4c39-a3c0-2c58171bfddd","ios":"levelo://app?vid=6dd92280-12a3-4c39-a3c0-2c58171bfddd"},"vehicle_type_id":"4","last_reported":1703261303,"current_range_meters":400,"station_id":"ce4bhgp2rcd13ifvqfc0","pricing_plan_id":"free"},{"bike_id":"a8025d0c-bf1e-4296-a49d-f7c5b2532d40","system_id":"levelo_inurba_marseille","lat":43.317104,"lon":5.436818,"is_reserved":false,"is_disabled":false,"rental_uris":{"android":"levelo://app?vid=a8025d0c-bf1e-4296-a49d-f7c5b2532d40","ios":"levelo://app?vid=a8025d0c-bf1e-4296-a49d-f7c5b2532d40"},"vehicle_type_id":"4","last_reported":1703261303,"current_range_meters":10000,"station_id":"ce4bhp92rcd13ifvqhcg","pricing_plan_id":"free"},{"bike_id":"e2f906b9-4900-4323-a725-ce67202b06b7","system_id":"levelo_inurba_marseille","lat":43.261782,"lon":5.374515,"is_reserved":false,"is_disabled":false,"rental_uris":{"android":"levelo://app?vid=e2f906b9-4900-4323-a725-ce67202b06b7","ios":"levelo://app?vid=e2f906b9-4900-4323-a725-ce67202b06b7"},"vehicle_type_id":"4","last_reported":1703261303,"current_range_meters":19200,"station_id":"ce4bhgp2rcd13ifvqfc0","pricing_plan_id":"free"},{"bike_id":"ee706f35-17b4-4910-8051-f6f7efc00c64","system_id":"levelo_inurba_marseille","lat":43.267959,"lon":5.402687,"is_reserved":false,"is_disabled":false,"rental_uris":{"android":"levelo://app?vid=ee706f35-17b4-4910-8051-f6f7efc00c64","ios":"levelo://app?vid=ee706f35-17b4-4910-8051-f6f7efc00c64"},"vehicle_type_id":"4","last_reported":1703261303,"current_range_meters":3200,"station_id":"ce501612rcd8frsf0b60","pricing_plan_id":"free"},{"bike_id":"ed515ca5-d8bf-4ab8-896b-6c9ca2b46c7c","system_id":"levelo_inurba_marseille","lat":43.264977,"lon":5.39543,"is_reserved":false,"is_disabled":false,"rental_uris":{"android":"levelo://app?vid=ed515ca5-d8bf-4ab8-896b-6c9ca2b46c7c","ios":"levelo://app?vid=ed515ca5-d8bf-4ab8-896b-6c9ca2b46c7c"},"vehicle_type_id":"4","last_reported":1703261303,"current_range_meters":0,"station_id":"","pricing_plan_id":"free"},{"bike_id":"0499e6e1-9f94-4f8b-92c6-1a91118730fb","system_id":"levelo_inurba_marseille","lat":43.2651,"lon":5.39469,"is_reserved":false,"is_disabled":false,"rental_uris":{"android":"levelo://app?vid=0499e6e1-9f94-4f8b-92c6-1a91118730fb","ios":"levelo://app?vid=0499e6e1-9f94-4f8b-92c6-1a91118730fb"},"vehicle_type_id":"4","last_reported":1703261303,"current_range_meters":6000,"station_id":"ce4bhi12rcd13ifvqfq0","pricing_plan_id":"free"},{"bike_id":"d92de13b-4182-4332-b67f-e1bb4b612478","system_id":"levelo_inurba_marseille","lat":43.281548,"lon":5.42643,"is_reserved":false,"is_disabled":false,"rental_uris":{"android":"levelo://app?vid=d92de13b-4182-4332-b67f-e1bb4b612478","ios":"levelo://app?vid=d92de13b-4182-4332-b67f-e1bb4b612478"},"vehicle_type_id":"4","last_reported":1703261303,"current_range_meters":30800,"station_id":"ce4bhnh2rcd13ifvqgug","pricing_plan_id":"free"},{"bike_id":"955fb9eb-73a4-47a7-9a05-983b8f583212","system_id":"levelo_inurba_marseille","lat":43.2607,"lon":5.393983,"is_reserved":false,"is_disabled":false,"rental_uris":{"android":"levelo://app?vid=955fb9eb-73a4-47a7-9a05-983b8f583212","ios":"levelo://app?vid=955fb9eb-73a4-47a7-9a05-983b8f583212"},"vehicle_type_id":"4","last_reported":1703261303,"current_range_meters":15200,"station_id":"ce4bhh92rcd13ifvqfj0","pricing_plan_id":"free"},{"bike_id":"e22ef5a2-6a2f-4045-8944-2165f7e6c1a3","system_id":"levelo_inurba_marseille","lat":43.255756,"lon":5.382303,"is_reserved":false,"is_disabled":false,"rental_uris":{"android":"levelo://app?vid=e22ef5a2-6a2f-4045-8944-2165f7e6c1a3","ios":"levelo://app?vid=e22ef5a2-6a2f-4045-8944-2165f7e6c1a3"},"vehicle_type_id":"4","last_reported":1703261303,"current_range_meters":31200,"station_id":"ce4bhih2rcd13ifvqfs0","pricing_plan_id":"free"},{"bike_id":"9e31705f-4f0a-4cb9-b231-21e465b6e902","system_id":"levelo_inurba_marseille","lat":43.25583,"lon":5.38233,"is_reserved":false,"is_disabled":false,"rental_uris":{"android":"levelo://app?vid=9e31705f-4f0a-4cb9-b231-21e465b6e902","ios":"levelo://app?vid=9e31705f-4f0a-4cb9-b231-21e465b6e902"},"vehicle_type_id":"4","last_reported":1703261303,"current_range_meters":21600,"station_id":"ce4bhih2rcd13ifvqfs0","pricing_plan_id":"free"},{"bike_id":"929c2a11-b2be-4db0-bd1d-434a52dc5f1f","system_id":"levelo_inurba_marseille","lat":43.258224,"lon":5.394369,"is_reserved":false,"is_disabled":false,"rental_uris":{"android":"levelo://app?vid=929c2a11-b2be-4db0-bd1d-434a52dc5f1f","ios":"levelo://app?vid=929c2a11-b2be-4db0-bd1d-434a52dc5f1f"},"vehicle_type_id":"4","last_reported":1703261303,"current_range_meters":27200,"station_id":"ce4bhip2rcd13ifvqft0","pricing_plan_id":"free"},{"bike_id":"8cf99fad-2807-4e32-8919-6e0625ab5b56","system_id":"levelo_inurba_marseille","lat":43.25578,"lon":5.38234,"is_reserved":false,"is_disabled":false,"rental_uris":{"android":"levelo://app?vid=8cf99fad-2807-4e32-8919-6e0625ab5b56","ios":"levelo://app?vid=8cf99fad-2807-4e32-8919-6e0625ab5b56"},"vehicle_type_id":"4","last_reported":1703261303,"current_range_meters":0,"station_id":"ce4bhih2rcd13ifvqfs0","pricing_plan_id":"free"},{"bike_id":"c4909379-288b-44cd-8464-73dc9c6b0243","system_id":"levelo_inurba_marseille","lat":43.260225,"lon":5.375455,"is_reserved":false,"is_disabled":false,"rental_uris":{"android":"levelo://app?vid=c4909379-288b-44cd-8464-73dc9c6b0243","ios":"levelo://app?vid=c4909379-288b-44cd-8464-73dc9c6b0243"},"vehicle_type_id":"4","last_reported":1703261303,"current_range_meters":22800,"station_id":"ce4bhgh2rcd13ifvqfa0","pricing_plan_id":"free"},{"bike_id":"7eefd1dd-abec-4c28-8052-61285c8ef5b5","system_id":"levelo_inurba_marseille","lat":43.254947,"lon":5.376454,"is_reserved":false,"is_disabled":false,"rental_uris":{"android":"levelo://app?vid=7eefd1dd-abec-4c28-8052-61285c8ef5b5","ios":"levelo://app?vid=7eefd1dd-abec-4c28-8052-61285c8ef5b5"},"vehicle_type_id":"4","last_reported":1703261303,"current_range_meters":2000,"station_id":"ce4bhh12rcd13ifvqff0","pricing_plan_id":"free"},{"bike_id":"dce19283-415e-46a3-ab2c-7c6100ac6d16","system_id":"levelo_inurba_marseille","lat":43.258658,"lon":5.398935,"is_reserved":false,"is_disabled":false,"rental_uris":{"android":"levelo://app?vid=dce19283-415e-46a3-ab2c-7c6100ac6d16","ios":"levelo://app?vid=dce19283-415e-46a3-ab2c-7c6100ac6d16"},"vehicle_type_id":"4","last_reported":1703261303,"current_range_meters":21600,"station_id":"ce4bhl92rcd13ifvqghg","pricing_plan_id":"free"},{"bike_id":"80bcefb3-f63c-416e-a76e-774691cf2f54","system_id":"levelo_inurba_marseille","lat":43.258658,"lon":5.398935,"is_reserved":false,"is_disabled":false,"rental_uris":{"android":"levelo://app?vid=80bcefb3-f63c-416e-a76e-774691cf2f54","ios":"levelo://app?vid=80bcefb3-f63c-416e-a76e-774691cf2f54"},"vehicle_type_id":"4","last_reported":1703261303,"current_range_meters":28000,"station_id":"ce4bhl92rcd13ifvqghg","pricing_plan_id":"free"},{"bike_id":"5c3cd156-5215-48a2-93cc-27960ea01fa0","system_id":"levelo_inurba_marseille","lat":43.257079,"lon":5.411051,"is_reserved":false,"is_disabled":false,"rental_uris":{"android":"levelo://app?vid=5c3cd156-5215-48a2-93cc-27960ea01fa0","ios":"levelo://app?vid=5c3cd156-5215-48a2-93cc-27960ea01fa0"},"vehicle_type_id":"4","last_reported":1703261303,"current_range_meters":29200,"station_id":"ce4bhkp2rcd13ifvqgd0","pricing_plan_id":"free"},{"bike_id":"38eec2ee-d5ca-4d53-9ffc-8abb56d23b3c","system_id":"levelo_inurba_marseille","lat":43.257079,"lon":5.411051,"is_reserved":false,"is_disabled":false,"rental_uris":{"android":"levelo://app?vid=38eec2ee-d5ca-4d53-9ffc-8abb56d23b3c","ios":"levelo://app?vid=38eec2ee-d5ca-4d53-9ffc-8abb56d23b3c"},"vehicle_type_id":"4","last_reported":1703261303,"current_range_meters":30000,"station_id":"ce4bhkp2rcd13ifvqgd0","pricing_plan_id":"free"},{"bike_id":"4c09004f-2e83-41eb-9ad5-f442b6c4bf89","system_id":"levelo_inurba_marseille","lat":43.250966,"lon":5.395186,"is_reserved":false,"is_disabled":false,"rental_uris":{"android":"levelo://app?vid=4c09004f-2e83-41eb-9ad5-f442b6c4bf89","ios":"levelo://app?vid=4c09004f-2e83-41eb-9ad5-f442b6c4bf89"},"vehicle_type_id":"4","last_reported":1703261303,"current_range_meters":20800,"station_id":"ce4bhm12rcd13ifvqgkg","pricing_plan_id":"free"},{"bike_id":"fe993f93-ebcb-445f-ac0a-8bca530bddc6","system_id":"levelo_inurba_marseille","lat":43.24693,"lon":5.382096,"is_reserved":false,"is_disabled":false,"rental_uris":{"android":"levelo://app?vid=fe993f93-ebcb-445f-ac0a-8bca530bddc6","ios":"levelo://app?vid=fe993f93-ebcb-445f-ac0a-8bca530bddc6"},"vehicle_type_id":"4","last_reported":1703261303,"current_range_meters":9600,"station_id":"ce4bhih2rcd13ifvqfr0","pricing_plan_id":"free"},{"bike_id":"a9b84526-bfbb-4e02-b9b9-cf44e344c738","system_id":"levelo_inurba_marseille","lat":43.25101,"lon":5.40328,"is_reserved":false,"is_disabled":false,"rental_uris":{"android":"levelo://app?vid=a9b84526-bfbb-4e02-b9b9-cf44e344c738","ios":"levelo://app?vid=a9b84526-bfbb-4e02-b9b9-cf44e344c738"},"vehicle_type_id":"4","last_reported":1703261303,"current_range_meters":16000,"station_id":"ce4bhlh2rcd13ifvqgig","pricing_plan_id":"free"},{"bike_id":"550968e4-1c1f-4b92-9f4f-37ad2b156290","system_id":"levelo_inurba_marseille","lat":43.246461,"lon":5.389014,"is_reserved":false,"is_disabled":false,"rental_uris":{"android":"levelo://app?vid=550968e4-1c1f-4b92-9f4f-37ad2b156290","ios":"levelo://app?vid=550968e4-1c1f-4b92-9f4f-37ad2b156290"},"vehicle_type_id":"4","last_reported":1703261303,"current_range_meters":15600,"station_id":"ce4bhg12rcd13ifvqf60","pricing_plan_id":"free"},{"bike_id":"b10c0282-8bcb-4b70-b53b-db93aebee1fc","system_id":"levelo_inurba_marseille","lat":43.243884,"lon":5.370736,"is_reserved":false,"is_disabled":false,"rental_uris":{"android":"levelo://app?vid=b10c0282-8bcb-4b70-b53b-db93aebee1fc","ios":"levelo://app?vid=b10c0282-8bcb-4b70-b53b-db93aebee1fc"},"vehicle_type_id":"4","last_reported":1703261303,"current_range_meters":20800,"station_id":"ce4bhhh2rcd13ifvqfk0","pricing_plan_id":"free"},{"bike_id":"be9491a5-4fe7-474e-a11d-e44c5d952bac","system_id":"levelo_inurba_marseille","lat":43.239588,"lon":5.366238,"is_reserved":false,"is_disabled":false,"rental_uris":{"android":"levelo://app?vid=be9491a5-4fe7-474e-a11d-e44c5d952bac","ios":"levelo://app?vid=be9491a5-4fe7-474e-a11d-e44c5d952bac"},"vehicle_type_id":"4","last_reported":1703261303,"current_range_meters":5200,"station_id":"ce4bhi12rcd13ifvqfp0","pricing_plan_id":"free"},{"bike_id":"d12fbeb8-f7df-46d5-8df6-eef9bb3f0361","system_id":"levelo_inurba_marseille","lat":43.23959,"lon":5.36637,"is_reserved":false,"is_disabled":false,"rental_uris":{"android":"levelo://app?vid=d12fbeb8-f7df-46d5-8df6-eef9bb3f0361","ios":"levelo://app?vid=d12fbeb8-f7df-46d5-8df6-eef9bb3f0361"},"vehicle_type_id":"4","last_reported":1703261303,"current_range_meters":30400,"station_id":"ce4bhi12rcd13ifvqfp0","pricing_plan_id":"free"},{"bike_id":"eaf7b397-cc2d-4ba5-8487-243450934d31","system_id":"levelo_inurba_marseille","lat":43.23959,"lon":5.36635,"is_reserved":false,"is_disabled":false,"rental_uris":{"android":"levelo://app?vid=eaf7b397-cc2d-4ba5-8487-243450934d31","ios":"levelo://app?vid=eaf7b397-cc2d-4ba5-8487-243450934d31"},"vehicle_type_id":"4","last_reported":1703261303,"current_range_meters":27600,"station_id":"ce4bhi12rcd13ifvqfp0","pricing_plan_id":"free"},{"bike_id":"66fbe264-3dfc-46f0-9705-d6f9aa6184e4","system_id":"levelo_inurba_marseille","lat":43.24183,"lon":5.39724,"is_reserved":false,"is_disabled":false,"rental_uris":{"android":"levelo://app?vid=66fbe264-3dfc-46f0-9705-d6f9aa6184e4","ios":"levelo://app?vid=66fbe264-3dfc-46f0-9705-d6f9aa6184e4"},"vehicle_type_id":"4","last_reported":1703261303,"current_range_meters":0,"station_id":"ce4bhn12rcd13ifvqgpg","pricing_plan_id":"free"},{"bike_id":"ad7b2b48-5bf8-4a10-be0d-c47f3bfd9784","system_id":"levelo_inurba_marseille","lat":43.241782,"lon":5.397261,"is_reserved":false,"is_disabled":false,"rental_uris":{"android":"levelo://app?vid=ad7b2b48-5bf8-4a10-be0d-c47f3bfd9784","ios":"levelo://app?vid=ad7b2b48-5bf8-4a10-be0d-c47f3bfd9784"},"vehicle_type_id":"4","last_reported":1703261303,"current_range_meters":13600,"station_id":"ce4bhn12rcd13ifvqgpg","pricing_plan_id":"free"},{"bike_id":"27223b2b-5abb-4fa9-b684-9f049997440f","system_id":"levelo_inurba_marseille","lat":43.241782,"lon":5.397261,"is_reserved":false,"is_disabled":false,"rental_uris":{"android":"levelo://app?vid=27223b2b-5abb-4fa9-b684-9f049997440f","ios":"levelo://app?vid=27223b2b-5abb-4fa9-b684-9f049997440f"},"vehicle_type_id":"4","last_reported":1703261303,"current_range_meters":5600,"station_id":"ce4bhn12rcd13ifvqgpg","pricing_plan_id":"free"},{"bike_id":"02874223-f790-4426-a3a7-6bd2a1bdec00","system_id":"levelo_inurba_marseille","lat":43.241782,"lon":5.397261,"is_reserved":false,"is_disabled":false,"rental_uris":{"android":"levelo://app?vid=02874223-f790-4426-a3a7-6bd2a1bdec00","ios":"levelo://app?vid=02874223-f790-4426-a3a7-6bd2a1bdec00"},"vehicle_type_id":"4","last_reported":1703261303,"current_range_meters":27200,"station_id":"ce4bhn12rcd13ifvqgpg","pricing_plan_id":"free"},{"bike_id":"4a32802e-1da4-4b50-a910-b01bfec939fd","system_id":"levelo_inurba_marseille","lat":43.241782,"lon":5.397261,"is_reserved":false,"is_disabled":false,"rental_uris":{"android":"levelo://app?vid=4a32802e-1da4-4b50-a910-b01bfec939fd","ios":"levelo://app?vid=4a32802e-1da4-4b50-a910-b01bfec939fd"},"vehicle_type_id":"4","last_reported":1703261303,"current_range_meters":15200,"station_id":"ce4bhn12rcd13ifvqgpg","pricing_plan_id":"free"},{"bike_id":"cde652fc-ee89-4796-b8bb-93b551156ab6","system_id":"levelo_inurba_marseille","lat":43.241782,"lon":5.397261,"is_reserved":false,"is_disabled":false,"rental_uris":{"android":"levelo://app?vid=cde652fc-ee89-4796-b8bb-93b551156ab6","ios":"levelo://app?vid=cde652fc-ee89-4796-b8bb-93b551156ab6"},"vehicle_type_id":"4","last_reported":1703261303,"current_range_meters":17200,"station_id":"ce4bhn12rcd13ifvqgpg","pricing_plan_id":"free"},