{"last_updated":1745309642,"ttl":60,"version":"2.2","data":{"bikes":[{"bike_id":"f1559c3a-92ff-4028-a1f0-8eeac54e1a9c","system_id":"levelo_inurba_marseille","lat":43.29633,"lon":5.40594,"is_reserved":false,"is_disabled":false,"rental_uris":{"android":"levelo://app?vid=f1559c3a-92ff-4028-a1f0-8eeac54e1a9c","ios":"levelo://app?vid=f1559c3a-92ff-4028-a1f0-8eeac54e1a9c"},"vehicle_type_id":"4","last_reported":1745309642,"current_range_meters":2800,"station_id":"ce4bh0h2rcd13ifvqd60","pricing_plan_id":"cebpf4jnsgd1na2vs0mg"},{"bike_id":"9b587bb1-d7e7-4a17-af8d-4e268be3f074","system_id":"levelo_inurba_marseille","lat":43.30256,"lon":5.4007,"is_reserved":false,"is_disabled":false,"rental_uris":{"android":"levelo://app?vid=9b587bb1-d7e7-4a17-af8d-4e268be3f074","ios":"levelo://app?vid=9b587bb1-d7e7-4a17-af8d-4e268be3f074"},"vehicle_type_id":"4","last_reported":1745309642,"current_range_meters":2800,"station_id":"ce4bgvh2rcd13ifvqcs0","pricing_plan_id":"cebpf4jnsgd1na2vs0mg"},{"bike_id":"2bdde4a3-7509-460a-b2c7-d172c5297380","system_id":"levelo_inurba_marseille","lat":43.21202,"lon":5.35069,"is_reserved":false,"is_disabled":true,"rental_uris":{"android":"levelo://app?vid=2bdde4a3-7509-460a-b2c7-d172c5297380","ios":"levelo://app?vid=2bdde4a3-7509-460a-b2c7-d172c5297380"},"vehicle_type_id":"4","last_reported":1745309642,"current_range_meters":3200,"station_id":"st_cvj6sg6p6f1abm77japg","pricing_plan_id":"cebpf4jnsgd1na2vs0mg"},{"bike_id":"ffa11fd6-7af7-47e1-a7df-7da8f876561a","system_id":"levelo_inurba_marseille","lat":43.30949,"lon":5.39028,"is_reserved":false,"is_disabled":false,"rental_uris":{"android":"levelo://app?vid=ffa11fd6-7af7-47e1-a7df-7da8f876561a","ios":"levelo://app?vid=ffa11fd6-7af7-47e1-a7df-7da8f876561a"},"vehicle_type_id":"4","last_reported":1745309642,"current_range_meters":3200,"station_id":"ce4bgup2rcd13ifvqco0","pricing_plan_id":"cebpf4jnsgd1na2vs0mg"},{"bike_id":"6eaf0f3f-0f95-4669-b2c4-3dd1f913f968","system_id":"levelo_inurba_marseille","lat":43.33716,"lon":5.39177,"is_reserved":false,"is_disabled":false,"rental_uris":{"android":"levelo://app?vid=6eaf0f3f-0f95-4669-b2c4-3dd1f913f968","ios":"levelo://app?vid=6eaf0f3f-0f95-4669-b2c4-3dd1f913f968"},"vehicle_type_id":"4","last_reported":1745309642,"current_range_meters":2800,"station_id":"ce4bhr92rcd13ifvqhsg","pricing_plan_id":"cebpf4jnsgd1na2vs0mg"},{"bike_id":"bfefb57c-154e-4cbc-90d7-24ac4b95745f","system_id":"levelo_inurba_marseille","lat":43.31035,"lon":5.37107,"is_reserved":false,"is_disabled":false,"rental_uris":{"android":"levelo://app?vid=bfefb57c-154e-4cbc-90d7-24ac4b95745f","ios":"levelo://app?vid=bfefb57c-154e-4cbc-90d7-24ac4b95745f"},"vehicle_type_id":"4","last_reported":1745309642,"current_range_meters":3200,"station_id":"","pricing_plan_id":"cebpf4jnsgd1na2vs0mg"},{"bike_id":"29efe1e8-3a55-4151-b72a-9e46356b5204","system_id":"levelo_inurba_marseille","lat":43.29504,"lon":5.39043,"is_reserved":false,"is_disabled":false,"rental_uris":{"android":"levelo://app?vid=29efe1e8-3a55-4151-b72a-9e46356b5204","ios":"levelo://app?vid=29efe1e8-3a55-4151-b72a-9e46356b5204"},"vehicle_type_id":"4","last_reported":1745309642,"current_range_meters":3200,"station_id":"ce4bh3p2rcd13ifvqdp0","pricing_plan_id":"cebpf4jnsgd1na2vs0mg"},{"bike_id":"6d0b1e09-0778-4875-a9ec-ebd4ab3c5c71","system_id":"levelo_inurba_marseille","lat":43.21193,"lon":5.35078,"is_reserved":false,"is_disabled":true,"rental_uris":{"android":"levelo://app?vid=6d0b1e09-0778-4875-a9ec-ebd4ab3c5c71","ios":"levelo://app?vid=6d0b1e09-0778-4875-a9ec-ebd4ab3c5c71"},"vehicle_type_id":"4","last_reported":1745309642,"current_range_meters":3600,"station_id":"","pricing_plan_id":"cebpf4jnsgd1na2vs0mg"},{"bike_id":"722287b9-9f57-4067-8bad-174fa01c1b39","system_id":"levelo_inurba_marseille","lat":43.30968,"lon":5.39045,"is_reserved":false,"is_disabled":false,"rental_uris":{"android":"levelo://app?vid=722287b9-9f57-4067-8bad-174fa01c1b39","ios":"levelo://app?vid=722287b9-9f57-4067-8bad-174fa01c1b39"},"vehicle_type_id":"4","last_reported":1745309642,"current_range_meters":3600,"station_id":"ce4bgup2rcd13ifvqco0","pricing_plan_id":"cebpf4jnsgd1na2vs0mg"},{"bike_id":"abf7db10-872f-4680-b251-1e0b85f5da23","system_id":"levelo_inurba_marseille","lat":43.31269,"lon":5.36847,"is_reserved":false,"is_disabled":false,"rental_uris":{"android":"levelo://app?vid=abf7db10-872f-4680-b251-1e0b85f5da23","ios":"levelo://app?vid=abf7db10-872f-4680-b251-1e0b85f5da23"},"vehicle_type_id":"4","last_reported":1745309642,"current_range_meters":4000,"station_id":"ce4bgl92rcd13ifvqbq0","pricing_plan_id":"cebpf4jnsgd1na2vs0mg"},{"bike_id":"f62e0e5e-e1ec-4e7e-8cc3-98dcad83fa90","system_id":"levelo_inurba_marseille","lat":43.29025,"lon":5.3865,"is_reserved":false,"is_disabled":false,"rental_uris":{"android":"levelo://app?vid=f62e0e5e-e1ec-4e7e-8cc3-98dcad83fa90","ios":"levelo://app?vid=f62e0e5e-e1ec-4e7e-8cc3-98dcad83fa90"},"vehicle_type_id":"4","last_reported":1745309642,"current_range_meters":4400,"station_id":"ce4bh4p2rcd13ifvqe0g","pricing_plan_id":"cebpf4jnsgd1na2vs0mg"},{"bike_id":"9b05a036-ff30-4b3e-a978-ede4f47e67c0","system_id":"levelo_inurba_marseille","lat":43.26559,"lon":5.39007,"is_reserved":false,"is_disabled":true,"rental_uris":{"android":"levelo://app?vid=9b05a036-ff30-4b3e-a978-ede4f47e67c0","ios":"levelo://app?vid=9b05a036-ff30-4b3e-a978-ede4f47e67c0"},"vehicle_type_id":"4","last_reported":1745309642,"current_range_meters":4400,"station_id":"ce4bhe12rcd13ifvqf30","pricing_plan_id":"cebpf4jnsgd1na2vs0mg"},{"bike_id":"b052ef0c-d0c2-401c-ba89-42f7f5e25ea3","system_id":"levelo_inurba_marseille","lat":43.31342,"lon":5.36712,"is_reserved":false,"is_disabled":false,"rental_uris":{"android":"levelo://app?vid=b052ef0c-d0c2-401c-ba89-42f7f5e25ea3","ios":"levelo://app?vid=b052ef0c-d0c2-401c-ba89-42f7f5e25ea3"},"vehicle_type_id":"4","last_reported":1745309642,"current_range_meters":4800,"station_id":"ce4bgr92rcd13ifvqc6g","pricing_plan_id":"cebpf4jnsgd1na2vs0mg"},{"bike_id":"c323d574-0ab5-4582-a054-717ede87c6f2","system_id":"levelo_inurba_marseille","lat":43.305297,"lon":5.36706,"is_reserved":false,"is_disabled":false,"rental_uris":{"android":"levelo://app?vid=c323d574-0ab5-4582-a054-717ede87c6f2","ios":"levelo://app?vid=c323d574-0ab5-4582-a054-717ede87c6f2"},"vehicle_type_id":"4","last_reported":1745309642,"current_range_meters":4800,"station_id":"ce4bgrp2rcd13ifvqc9g","pricing_plan_id":"cebpf4jnsgd1na2vs0mg"},{"bike_id":"dd27922d-4b8c-4657-beeb-eefa896c6684","system_id":"levelo_inurba_marseille","lat":43.30943,"lon":5.39048,"is_reserved":false,"is_disabled":false,"rental_uris":{"android":"levelo://app?vid=dd27922d-4b8c-4657-beeb-eefa896c6684","ios":"levelo://app?vid=dd27922d-4b8c-4657-beeb-eefa896c6684"},"vehicle_type_id":"4","last_reported":1745309642,"current_range_meters":5600,"station_id":"ce4bgup2rcd13ifvqco0","pricing_plan_id":"cebpf4jnsgd1na2vs0mg"},{"bike_id":"70400263-09d2-43e6-95e6-29aae871c9b4","system_id":"levelo_inurba_marseille","lat":43.29277,"lon":5.40114,"is_reserved":false,"is_disabled":false,"rental_uris":{"android":"levelo://app?vid=70400263-09d2-43e6-95e6-29aae871c9b4","ios":"levelo://app?vid=70400263-09d2-43e6-95e6-29aae871c9b4"},"vehicle_type_id":"4","last_reported":1745309642,"current_range_meters":5600,"station_id":"ce4bh312rcd13ifvqdk0","pricing_plan_id":"cebpf4jnsgd1na2vs0mg"},{"bike_id":"2c240fbb-bf5c-47bf-af92-6c6572a2d06c","system_id":"levelo_inurba_marseille","lat":43.2955,"lon":5.42291,"is_reserved":false,"is_disabled":false,"rental_uris":{"android":"levelo://app?vid=2c240fbb-bf5c-47bf-af92-6c6572a2d06c","ios":"levelo://app?vid=2c240fbb-bf5c-47bf-af92-6c6572a2d06c"},"vehicle_type_id":"4","last_reported":1745309642,"current_range_meters":5600,"station_id":"ce4bhph2rcd13ifvqhdg","pricing_plan_id":"cebpf4jnsgd1na2vs0mg"},{"bike_id":"2eae6397-3f35-48cb-91a4-97f36e4dda21","system_id":"levelo_inurba_marseille","lat":43.217442,"lon":5.346066,"is_reserved":false,"is_disabled":false,"rental_uris":{"android":"levelo://app?vid=2eae6397-3f35-48cb-91a4-97f36e4dda21","ios":"levelo://app?vid=2eae6397-3f35-48cb-91a4-97f36e4dda21"},"vehicle_type_id":"4","last_reported":1745309642,"current_range_meters":6000,"station_id":"st_cvj6r9ubvosntc0bgbag","pricing_plan_id":"cebpf4jnsgd1na2vs0mg"},{"bike_id":"4b5bfac3-00ce-45ca-b8ac-84bcfac634da","system_id":"levelo_inurba_marseille","lat":43.26565,"lon":5.39002,"is_reserved":false,"is_disabled":false,"rental_uris":{"android":"levelo://app?vid=4b5bfac3-00ce-45ca-b8ac-84bcfac634da","ios":"levelo://app?vid=4b5bfac3-00ce-45ca-b8ac-84bcfac634da"},"vehicle_type_id":"4","last_reported":1745309642,"current_range_meters":6000,"station_id":"ce4bhe12rcd13ifvqf30","pricing_plan_id":"cebpf4jnsgd1na2vs0mg"},{"bike_id":"9debd51d-93a8-42bc-a1c8-6388e573dade","system_id":"levelo_inurba_marseille","lat":43.3146,"lon":5.37291,"is_reserved":false,"is_disabled":false,"rental_uris":{"android":"levelo://app?vid=9debd51d-93a8-42bc-a1c8-6388e573dade","ios":"levelo://app?vid=9debd51d-93a8-42bc-a1c8-6388e573dade"},"vehicle_type_id":"4","last_reported":1745309642,"current_range_meters":6000,"station_id":"ce4bgt12rcd13ifvqcd0","pricing_plan_id":"cebpf4jnsgd1na2vs0mg"},{"bike_id":"233c1f3c-9603-452b-9ace-3428d0af39d5","system_id":"levelo_inurba_marseille","lat":43.25956,"lon":5.40886,"is_reserved":false,"is_disabled":true,"rental_uris":{"android":"levelo://app?vid=233c1f3c-9603-452b-9ace-3428d0af39d5","ios":"levelo://app?vid=233c1f3c-9603-452b-9ace-3428d0af39d5"},"vehicle_type_id":"4","last_reported":1745309642,"current_range_meters":6400,"station_id":"ce4bhm92rcd13ifvqglg","pricing_plan_id":"cebpf4jnsgd1na2vs0mg"},{"bike_id":"8cf0b5a1-cb23-4bf0-b9f9-534dbb2d6a09","system_id":"levelo_inurba_marseille","lat":43.25576,"lon":5.38215,"is_reserved":false,"is_disabled":false,"rental_uris":{"android":"levelo://app?vid=8cf0b5a1-cb23-4bf0-b9f9-534dbb2d6a09","ios":"levelo://app?vid=8cf0b5a1-cb23-4bf0-b9f9-534dbb2d6a09"},"vehicle_type_id":"4","last_reported":1745309642,"current_range_meters":6400,"station_id":"ce4bhih2rcd13ifvqfs0","pricing_plan_id":"cebpf4jnsgd1na2vs0mg"},{"bike_id":"08adba7b-eac3-4cfc-9923-2ccf0cc4ffef","system_id":"levelo_inurba_marseille","lat":43.24528,"lon":5.41336,"is_reserved":false,"is_disabled":false,"rental_uris":{"android":"levelo://app?vid=08adba7b-eac3-4cfc-9923-2ccf0cc4ffef","ios":"levelo://app?vid=08adba7b-eac3-4cfc-9923-2ccf0cc4ffef"},"vehicle_type_id":"4","last_reported":1745309642,"current_range_meters":6400,"station_id":"","pricing_plan_id":"cebpf4jnsgd1na2vs0mg"},{"bike_id":"14814e23-e7ca-4cbd-ab62-fe28199760a7","system_id":"levelo_inurba_marseille","lat":43.31218,"lon":5.36856,"is_reserved":false,"is_disabled":false,"rental_uris":{"android":"levelo://app?vid=14814e23-e7ca-4cbd-ab62-fe28199760a7","ios":"levelo://app?vid=14814e23-e7ca-4cbd-ab62-fe28199760a7"},"vehicle_type_id":"4","last_reported":1745309642,"current_range_meters":6400,"station_id":"ce4bgl92rcd13ifvqbq0","pricing_plan_id":"cebpf4jnsgd1na2vs0mg"},{"bike_id":"b025dbf8-36e8-483d-ad6b-b558d54b86cc","system_id":"levelo_inurba_marseille","lat":43.26227,"lon":5.40456,"is_reserved":false,"is_disabled":false,"rental_uris":{"android":"levelo://app?vid=b025dbf8-36e8-483d-ad6b-b558d54b86cc","ios":"levelo://app?vid=b025dbf8-36e8-483d-ad6b-b558d54b86cc"},"vehicle_type_id":"4","last_reported":1745309642,"current_range_meters":6800,"station_id":"ce4bhmh2rcd13ifvqgmg","pricing_plan_id":"cebpf4jnsgd1na2vs0mg"},{"bike_id":"56605c12-7875-4515-82be-ea402efc8854","system_id":"levelo_inurba_marseille","lat":43.29272,"lon":5.36846,"is_reserved":false,"is_disabled":false,"rental_uris":{"android":"levelo://app?vid=56605c12-7875-4515-82be-ea402efc8854","ios":"levelo://app?vid=56605c12-7875-4515-82be-ea402efc8854"},"vehicle_type_id":"4","last_reported":1745309642,"current_range_meters":400,"station_id":"ce4bhbp2rcd13ifvqesg","pricing_plan_id":"cebpf4jnsgd1na2vs0mg"},{"bike_id":"2f4bf41e-be46-4fda-a8bb-bb236b8a0f57","system_id":"levelo_inurba_marseille","lat":43.31219,"lon":5.36848,"is_reserved":false,"is_disabled":false,"rental_uris":{"android":"levelo://app?vid=2f4bf41e-be46-4fda-a8bb-bb236b8a0f57","ios":"levelo://app?vid=2f4bf41e-be46-4fda-a8bb-bb236b8a0f57"},"vehicle_type_id":"4","last_reported":1745309642,"current_range_meters":6800,"station_id":"ce4bgl92rcd13ifvqbq0","pricing_plan_id":"cebpf4jnsgd1na2vs0mg"},{"bike_id":"6fd03af9-7c6e-4b0a-b29f-3c73b47dd294","system_id":"levelo_inurba_marseille","lat":43.28735,"lon":5.40006,"is_reserved":false,"is_disabled":true,"rental_uris":{"android":"levelo://app?vid=6fd03af9-7c6e-4b0a-b29f-3c73b47dd294","ios":"levelo://app?vid=6fd03af9-7c6e-4b0a-b29f-3c73b47dd294"},"vehicle_type_id":"4","last_reported":1745309642,"current_range_meters":7200,"station_id":"ce4bho92rcd13ifvqh3g","pricing_plan_id":"cebpf4jnsgd1na2vs0mg"},{"bike_id":"37f66532-476c-464f-b7a0-59d9725e1bdc","system_id":"levelo_inurba_marseille","lat":43.27418,"lon":5.39417,"is_reserved":false,"is_disabled":false,"rental_uris":{"android":"levelo://app?vid=37f66532-476c-464f-b7a0-59d9725e1bdc","ios":"levelo://app?vid=37f66532-476c-464f-b7a0-59d9725e1bdc"},"vehicle_type_id":"4","last_reported":1745309642,"current_range_meters":6800,"station_id":"ce4bhdp2rcd13ifvqf20","pricing_plan_id":"cebpf4jnsgd1na2vs0mg"},{"bike_id":"1eefdb70-f50e-4ba8-a3c9-f275b947e40e","system_id":"levelo_inurba_marseille","lat":43.27506,"lon":5.42449,"is_reserved":false,"is_disabled":false,"rental_uris":{"android":"levelo://app?vid=1eefdb70-f50e-4ba8-a3c9-f275b947e40e","ios":"levelo://app?vid=1eefdb70-f50e-4ba8-a3c9-f275b947e40e"},"vehicle_type_id":"4","last_reported":1745309642,"current_range_meters":7200,"station_id":"ce4bhn92rcd13ifvqgrg","pricing_plan_id":"cebpf4jnsgd1na2vs0mg"},{"bike_id":"39fa0447-b915-4d32-b1c5-df324dda8a4b","system_id":"levelo_inurba_marseille","lat":43.27492,"lon":5.42458,"is_reserved":false,"is_disabled":false,"rental_uris":{"android":"levelo://app?vid=39fa0447-b915-4d32-b1c5-df324dda8a4b","ios":"levelo://app?vid=39fa0447-b915-4d32-b1c5-df324dda8a4b"},"vehicle_type_id":"4","last_reported":1745309642,"current_range_meters":7200,"station_id":"ce4bhn92rcd13ifvqgrg","pricing_plan_id":"cebpf4jnsgd1na2vs0mg"},{"bike_id":"89cfd28b-0c7c-4079-955f-194e937acbb9","system_id":"levelo_inurba_marseille","lat":43.29851,"lon":5.36269,"is_reserved":false,"is_disabled":false,"rental_uris":{"android":"levelo://app?vid=89cfd28b-0c7c-4079-955f-194e937acbb9","ios":"levelo://app?vid=89cfd28b-0c7c-4079-955f-194e937acbb9"},"vehicle_type_id":"4","last_reported":1745309642,"current_range_meters":7200,"station_id":"ce4bgpp2rcd13ifvqc3g","pricing_plan_id":"cebpf4jnsgd1na2vs0mg"},{"bike_id":"ee71aa5d-9dec-428a-9deb-3aff77c95756","system_id":"levelo_inurba_marseille","lat":43.30952,"lon":5.39027,"is_reserved":false,"is_disabled":false,"rental_uris":{"android":"levelo://app?vid=ee71aa5d-9dec-428a-9deb-3aff77c95756","ios":"levelo://app?vid=ee71aa5d-9dec-428a-9deb-3aff77c95756"},"vehicle_type_id":"4","last_reported":1745309642,"current_range_meters":6800,"station_id":"ce4bgup2rcd13ifvqco0","pricing_plan_id":"cebpf4jnsgd1na2vs0mg"},{"bike_id":"80349d4c-4a0e-48a3-a927-7fee52468c5c","system_id":"levelo_inurba_marseille","lat":43.323598,"lon":5.367365,"is_reserved":false,"is_disabled":false,"rental_uris":{"android":"levelo://app?vid=80349d4c-4a0e-48a3-a927-7fee52468c5c","ios":"levelo://app?vid=80349d4c-4a0e-48a3-a927-7fee52468c5c"},"vehicle_type_id":"4","last_reported":1745309642,"current_range_meters":8000,"station_id":"ce4bhsh2rcd13ifvqi2g","pricing_plan_id":"cebpf4jnsgd1na2vs0mg"},{"bike_id":"38daedf0-4693-42fc-ad76-25dc9bb06e44","system_id":"levelo_inurba_marseille","lat":43.288369,"lon":5.393094,"is_reserved":false,"is_disabled":false,"rental_uris":{"android":"levelo://app?vid=38daedf0-4693-42fc-ad76-25dc9bb06e44","ios":"levelo://app?vid=38daedf0-4693-42fc-ad76-25dc9bb06e44"},"vehicle_type_id":"4","last_reported":1745309642,"current_range_meters":8000,"station_id":"ce4bh2p2rcd13ifvqdi0","pricing_plan_id":"cebpf4jnsgd1na2vs0mg"},{"bike_id":"9a6fbe1e-9073-4388-8638-0a9e7b51f89f","system_id":"levelo_inurba_marseille","lat":43.29164,"lon":5.37161,"is_reserved":false,"is_disabled":false,"rental_uris":{"android":"levelo://app?vid=9a6fbe1e-9073-4388-8638-0a9e7b51f89f","ios":"levelo://app?vid=9a6fbe1e-9073-4388-8638-0a9e7b51f89f"},"vehicle_type_id":"4","last_reported":1745309642,"current_range_meters":8000,"station_id":"ce4bha92rcd13ifvqeh0","pricing_plan_id":"cebpf4jnsgd1na2vs0mg"},{"bike_id":"b9dca5bb-da7a-4595-b834-d5572efaa78c","system_id":"levelo_inurba_marseille","lat":43.270628,"lon":5.422793,"is_reserved":false,"is_disabled":true,"rental_uris":{"android":"levelo://app?vid=b9dca5bb-da7a-4595-b834-d5572efaa78c","ios":"levelo://app?vid=b9dca5bb-da7a-4595-b834-d5572efaa78c"},"vehicle_type_id":"4","last_reported":1745309642,"current_range_meters":8000,"station_id":"ce4bhk92rcd13ifvqgb0","pricing_plan_id":"cebpf4jnsgd1na2vs0mg"},{"bike_id":"34166cb2-24d1-48d4-88e5-65264e3a037d","system_id":"levelo_inurba_marseille","lat":43.31027,"lon":5.37087,"is_reserved":false,"is_disabled":false,"rental_uris":{"android":"levelo://app?vid=34166cb2-24d1-48d4-88e5-65264e3a037d","ios":"levelo://app?vid=34166cb2-24d1-48d4-88e5-65264e3a037d"},"vehicle_type_id":"4","last_reported":1745309642,"current_range_meters":8000,"station_id":"","pricing_plan_id":"cebpf4jnsgd1na2vs0mg"},{"bike_id":"255eaf96-5067-4c5c-a992-5999c2c43f09","system_id":"levelo_inurba_marseille","lat":43.32041,"lon":5.41548,"is_reserved":false,"is_disabled":false,"rental_uris":{"android":"levelo://app?vid=255eaf96-5067-4c5c-a992-5999c2c43f09","ios":"levelo://app?vid=255eaf96-5067-4c5c-a992-5999c2c43f09"},"vehicle_type_id":"4","last_reported":1745309642,"current_range_meters":8000,"station_id":"ce4bhq92rcd13ifvqhkg","pricing_plan_id":"cebpf4jnsgd1na2vs0mg"},{"bike_id":"8143c4c4-4b27-4dec-b206-ee057e1b64c5","system_id":"levelo_inurba_marseille","lat":43.26719,"lon":5.38276,"is_reserved":false,"is_disabled":false,"rental_uris":{"android":"levelo://app?vid=8143c4c4-4b27-4dec-b206-ee057e1b64c5","ios":"levelo://app?vid=8143c4c4-4b27-4dec-b206-ee057e1b64c5"},"vehicle_type_id":"4","last_reported":1745309642,"current_range_meters":8000,"station_id":"ce4bhg92rcd13ifvqf90","pricing_plan_id":"cebpf4jnsgd1na2vs0mg"},{"bike_id":"97289f02-f39a-4953-b9db-e2f8c34ba04f","system_id":"levelo_inurba_marseille","lat":43.25933,"lon":5.40888,"is_reserved":false,"is_disabled":false,"rental_uris":{"android":"levelo://app?vid=97289f02-f39a-4953-b9db-e2f8c34ba04f","ios":"levelo://app?vid=97289f02-f39a-4953-b9db-e2f8c34ba04f"},"vehicle_type_id":"4","last_reported":1745309642,"current_range_meters":8000,"station_id":"ce4bhm92rcd13ifvqglg","pricing_plan_id":"cebpf4jnsgd1na2vs0mg"},{"bike_id":"c542201a-7b6a-426f-a19c-60c9894534b2","system_id":"levelo_inurba_marseille","lat":43.30277,"lon":5.37711,"is_reserved":false,"is_disabled":false,"rental_uris":{"android":"levelo://app?vid=c542201a-7b6a-426f-a19c-60c9894534b2","ios":"levelo://app?vid=c542201a-7b6a-426f-a19c-60c9894534b2"},"vehicle_type_id":"4","last_reported":1745309642,"current_range_meters":12000,"station_id":"ce4bguh2rcd13ifvqcj0","pricing_plan_id":"cebpf4jnsgd1na2vs0mg"},{"bike_id":"48cfa898-d64d-49b5-921d-25b62cd45fe0","system_id":"levelo_inurba_marseille","lat":43.29517,"lon":5.3904,"is_reserved":false,"is_disabled":false,"rental_uris":{"android":"levelo://app?vid=48cfa898-d64d-49b5-921d-25b62cd45fe0","ios":"levelo://app?vid=48cfa898-d64d-49b5-921d-25b62cd45fe0"},"vehicle_type_id":"4","last_reported":1745309642,"current_range_meters":8400,"station_id":"ce4bh3p2rcd13ifvqdp0","pricing_plan_id":"cebpf4jnsgd1na2vs0mg"},{"bike_id":"f84aeb92-bc88-468c-8e91-798d331a8e11","system_id":"levelo_inurba_marseille","lat":43.32484,"lon":5.36552,"is_reserved":false,"is_disabled":false,"rental_uris":{"android":"levelo://app?vid=f84aeb92-bc88-468c-8e91-798d331a8e11","ios":"levelo://app?vid=f84aeb92-bc88-468c-8e91-798d331a8e11"},"vehicle_type_id":"4","last_reported":1745309642,"current_range_meters":8400,"station_id":"ce4bhs12rcd13ifvqhvg","pricing_plan_id":"cebpf4jnsgd1na2vs0mg"},{"bike_id":"afedb4a2-2d4c-48b8-ab87-145e4a55df0f","system_id":"levelo_inurba_marseille","lat":43.27485,"lon":5.42455,"is_reserved":false,"is_disabled":true,"rental_uris":{"android":"levelo://app?vid=afedb4a2-2d4c-48b8-ab87-145e4a55df0f","ios":"levelo://app?vid=afedb4a2-2d4c-48b8-ab87-145e4a55df0f"},"vehicle_type_id":"4","last_reported":1745309642,"current_range_meters":8400,"station_id":"ce4bhn92rcd13ifvqgrg","pricing_plan_id":"cebpf4jnsgd1na2vs0mg"},{"bike_id":"e4c6b87b-eb88-4940-a92a-12c20f4641be","system_id":"levelo_inurba_marseille","lat":43.30292,"lon":5.369,"is_reserved":false,"is_disabled":false,"rental_uris":{"android":"levelo://app?vid=e4c6b87b-eb88-4940-a92a-12c20f4641be","ios":"levelo://app?vid=e4c6b87b-eb88-4940-a92a-12c20f4641be"},"vehicle_type_id":"4","last_reported":1745309642,"current_range_meters":8400,"station_id":"ce4bgqh2rcd13ifvqc5g","pricing_plan_id":"cebpf4jnsgd1na2vs0mg"},{"bike_id":"4daf293c-27fa-4fd3-9732-b781377f0dd2","system_id":"levelo_inurba_marseille","lat":43.31544,"lon":5.38041,"is_reserved":false,"is_disabled":true,"rental_uris":{"android":"levelo://app?vid=4daf293c-27fa-4fd3-9732-b781377f0dd2","ios":"levelo://app?vid=4daf293c-27fa-4fd3-9732-b781377f0dd2"},"vehicle_type_id":"4","last_reported":1745309642,"current_range_meters":8400,"station_id":"ce4bhsp2rcd13ifvqi50","pricing_plan_id":"cebpf4jnsgd1na2vs0mg"},{"bike_id":"69a49d1e-07d6-41dc-b445-5aab8db94609","system_id":"levelo_inurba_marseille","lat":43.290293,"lon":5.386421,"is_reserved":false,"is_disabled":false,"rental_uris":{"android":"levelo://app?vid=69a49d1e-07d6-41dc-b445-5aab8db94609","ios":"levelo://app?vid=69a49d1e-07d6-41dc-b445-5aab8db94609"},"vehicle_type_id":"4","last_reported":1745309642,"current_range_meters":8400,"station_id":"ce4bh4p2rcd13ifvqe0g","pricing_plan_id":"cebpf4jnsgd1na2vs0mg"},{"bike_id":"5691a631-5c29-413f-96ef-f62e6bc485f3","system_id":"levelo_inurba_marseille","lat":43.24069,"lon":5.3776,"is_reserved":false,"is_disabled":false,"rental_uris":{"android":"levelo://app?vid=5691a631-5c29-413f-96ef-f62e6bc485f3","ios":"levelo://app?vid=5691a631-5c29-413f-96ef-f62e6bc485f3"},"vehicle_type_id":"4","last_reported":1745309642,"current_range_meters":8800,"station_id":"ce4bhnp2rcd13ifvqgvg","pricing_plan_id":"cebpf4jnsgd1na2vs0mg"},{"bike_id":"8375cd84-8776-4dbf-a2fd-f21a6066ce8d","system_id":"levelo_inurba_marseille","lat":43.25949,"lon":5.40884,"is_reserved":false,"is_disabled":false,"rental_uris":{"android":"levelo://app?vid=8375cd84-8776-4dbf-a2fd-f21a6066ce8d","ios":"levelo://app?vid=8375cd84-8776-4dbf-a2fd-f21a6066ce8d"},"vehicle_type_id":"4","last_reported":1745309642,"current_range_meters":8800,"station_id":"ce4bhm92rcd13ifvqglg","pricing_plan_id":"cebpf4jnsgd1na2vs0mg"},{"bike_id":"1c755526-7610-4241-9257-348acde561d3","system_id":"levelo_inurba_marseille","lat":43.24856,"lon":5.38208,"is_reserved":false,"is_disabled":false,"rental_uris":{"android":"levelo://app?vid=1c755526-7610-4241-9257-348acde561d3","ios":"levelo://app?vid=1c755526-7610-4241-9257-348acde561d3"},"vehicle_type_id":"4","last_reported":1745309642,"current_range_meters":8800,"station_id":"","pricing_plan_id":"cebpf4jnsgd1na2vs0mg"},{"bike_id":"5cc37f91-e773-46ed-afdc-044c90fd62c6","system_id":"levelo_inurba_marseille","lat":43.29039,"lon":5.35912,"is_reserved":false,"is_disabled":false,"rental_uris":{"android":"levelo://app?vid=5cc37f91-e773-46ed-afdc-044c90fd62c6","ios":"levelo://app?vid=5cc37f91-e773-46ed-afdc-044c90fd62c6"},"vehicle_type_id":"4","last_reported":1745309642,"current_range_meters":8400,"station_id":"ce4bha92rcd13ifvqeg0","pricing_plan_id":"cebpf4jnsgd1na2vs0mg"},{"bike_id":"6efbea2d-5eb1-4a4a-8c84-47a375f78190","system_id":"levelo_inurba_marseille","lat":43.29865,"lon":5.38908,"is_reserved":false,"is_disabled":true,"rental_uris":{"android":"levelo://app?vid=6efbea2d-5eb1-4a4a-8c84-47a375f78190","ios":"levelo://app?vid=6efbea2d-5eb1-4a4a-8c84-47a375f78190"},"vehicle_type_id":"4","last_reported":1745309642,"current_range_meters":8800,"station_id":"ce4bh392rcd13ifvqdl0","pricing_plan_id":"cebpf4jnsgd1na2vs0mg"},{"bike_id":"0cc7f4c1-0369-4594-8a37-765d15da624f","system_id":"levelo_inurba_marseille","lat":43.27485,"lon":5.42447,"is_reserved":false,"is_disabled":false,"rental_uris":{"android":"levelo://app?vid=0cc7f4c1-0369-4594-8a37-765d15da624f","ios":"levelo://app?vid=0cc7f4c1-0369-4594-8a37-765d15da624f"},"vehicle_type_id":"4","last_reported":1745309642,"current_range_meters":8800,"station_id":"ce4bhn92rcd13ifvqgrg","pricing_plan_id":"cebpf4jnsgd1na2vs0mg"},{"bike_id":"244b935e-066c-44b1-a7ef-a86d596a004b","system_id":"levelo_inurba_marseille","lat":43.336,"lon":5.40976,"is_reserved":false,"is_disabled":false,"rental_uris":{"android":"levelo://app?vid=244b935e-066c-44b1-a7ef-a86d596a004b","ios":"levelo://app?vid=244b935e-066c-44b1-a7ef-a86d596a004b"},"vehicle_type_id":"4","last_reported":1745309642,"current_range_meters":8800,"station_id":"ce4bhqh2rcd13ifvqhmg","pricing_plan_id":"cebpf4jnsgd1na2vs0mg"},{"bike_id":"7263f4d9-5c0f-4bef-a6e0-70962d6ebd84","system_id":"levelo_inurba_marseille","lat":43.26226,"lon":5.40453,"is_reserved":false,"is_disabled":false,"rental_uris":{"android":"levelo://app?vid=7263f4d9-5c0f-4bef-a6e0-70962d6ebd84","ios":"levelo://app?vid=7263f4d9-5c0f-4bef-a6e0-70962d6ebd84"},"vehicle_type_id":"4","last_reported":1745309642,"current_range_meters":8800,"station_id":"ce4bhmh2rcd13ifvqgmg","pricing_plan_id":"cebpf4jnsgd1na2vs0mg"},{"bike_id":"f99dedf3-c0f0-4da2-9cbb-930d5712eb4d","system_id":"levelo_inurba_marseille","lat":43.28426,"lon":5.39186,"is_reserved":false,"is_disabled":false,"rental_uris":{"android":"levelo://app?vid=f99dedf3-c0f0-4da2-9cbb-930d5712eb4d","ios":"levelo://app?vid=f99dedf3-c0f0-4da2-9cbb-930d5712eb4d"},"vehicle_type_id":"4","last_reported":1745309642,"current_range_meters":9200,"station_id":"ce4bhoh2rcd13ifvqh5g","pricing_plan_id":"cebpf4jnsgd1na2vs0mg"},{"bike_id":"03ff22c4-a470-43be-b0d5-92904830eb89","system_id":"levelo_inurba_marseille","lat":43.27496,"lon":5.4245,"is_reserved":false,"is_disabled":false,"rental_uris":{"android":"levelo://app?vid=03ff22c4-a470-43be-b0d5-92904830eb89","ios":"levelo://app?vid=03ff22c4-a470-43be-b0d5-92904830eb89"},"vehicle_type_id":"4","last_reported":1745309642,"current_range_meters":9200,"station_id":"ce4bhn92rcd13ifvqgrg","pricing_plan_id":"cebpf4jnsgd1na2vs0mg"},{"bike_id":"c48400a6-1446-495a-8b96-ab305ce2422b","system_id":"levelo_inurba_marseille","lat":43.31482,"lon":5.37302,"is_reserved":false,"is_disabled":false,"rental_uris":{"android":"levelo://app?vid=c48400a6-1446-495a-8b96-ab305ce2422b","ios":"levelo://app?vid=c48400a6-1446-495a-8b96-ab305ce2422b"},"vehicle_type_id":"4","last_reported":1745309642,"current_range_meters":9200,"station_id":"ce4bgt12rcd13ifvqcd0","pricing_plan_id":"cebpf4jnsgd1na2vs0mg"},{"bike_id":"872567da-6df5-4909-bf90-ab9d5731ea49","system_id":"levelo_inurba_marseille","lat":43.29967,"lon":5.37182,"is_reserved":false,"is_disabled":false,"rental_uris":{"android":"levelo://app?vid=872567da-6df5-4909-bf90-ab9d5731ea49","ios":"levelo://app?vid=872567da-6df5-4909-bf90-ab9d5731ea49"},"vehicle_type_id":"4","last_reported":1745309642,"current_range_meters":9200,"station_id":"ce4bgr92rcd13ifvqc7g","pricing_plan_id":"cebpf4jnsgd1na2vs0mg"},{"bike_id":"db650f16-b47c-4347-8a80-a802a1a8895f","system_id":"levelo_inurba_marseille","lat":43.31113,"lon":5.37767,"is_reserved":false,"is_disabled":false,"rental_uris":{"android":"levelo://app?vid=db650f16-b47c-4347-8a80-a802a1a8895f","ios":"levelo://app?vid=db650f16-b47c-4347-8a80-a802a1a8895f"},"vehicle_type_id":"4","last_reported":1745309642,"current_range_meters":9200,"station_id":"ce4bgt92rcd13ifvqcg0","pricing_plan_id":"cebpf4jnsgd1na2vs0mg"},{"bike_id":"cdc75fe3-e215-4265-b8a6-c2bab71cf972","system_id":"levelo_inurba_marseille","lat":43.29075,"lon":5.37179,"is_reserved":false,"is_disabled":false,"rental_uris":{"android":"levelo://app?vid=cdc75fe3-e215-4265-b8a6-c2bab71cf972","ios":"levelo://app?vid=cdc75fe3-e215-4265-b8a6-c2bab71cf972"},"vehicle_type_id":"4","last_reported":1745309642,"current_range_meters":9200,"station_id":"ce4bh5p2rcd13ifvqe4g","pricing_plan_id":"cebpf4jnsgd1na2vs0mg"},{"bike_id":"58b8e843-94bc-453b-a0e9-95c06589ab0c","system_id":"levelo_inurba_marseille","lat":43.31344,"lon":5.36727,"is_reserved":false,"is_disabled":false,"rental_uris":{"android":"levelo://app?vid=58b8e843-94bc-453b-a0e9-95c06589ab0c","ios":"levelo://app?vid=58b8e843-94bc-453b-a0e9-95c06589ab0c"},"vehicle_type_id":"4","last_reported":1745309642,"current_range_meters":9600,"station_id":"ce4bgr92rcd13ifvqc6g","pricing_plan_id":"cebpf4jnsgd1na2vs0mg"},{"bike_id":"8fdf5fd2-8aef-455b-9451-dca460979d2b","system_id":"levelo_inurba_marseille","lat":43.2826,"lon":5.3506,"is_reserved":false,"is_disabled":false,"rental_uris":{"android":"levelo://app?vid=8fdf5fd2-8aef-455b-9451-dca460979d2b","ios":"levelo://app?vid=8fdf5fd2-8aef-455b-9451-dca460979d2b"},"vehicle_type_id":"4","last_reported":1745309642,"current_range_meters":9600,"station_id":"ce4bhbp2rcd13ifvqerg","pricing_plan_id":"cebpf4jnsgd1na2vs0mg"},{"bike_id":"26c36a85-b7a6-4b79-acea-78a0d98d73d3","system_id":"levelo_inurba_marseille","lat":43.32485,"lon":5.36564,"is_reserved":false,"is_disabled":false,"rental_uris":{"android":"levelo://app?vid=26c36a85-b7a6-4b79-acea-78a0d98d73d3","ios":"levelo://app?vid=26c36a85-b7a6-4b79-acea-78a0d98d73d3"},"vehicle_type_id":"4","last_reported":1745309642,"current_range_meters":9600,"station_id":"ce4bhs12rcd13ifvqhvg","pricing_plan_id":"cebpf4jnsgd1na2vs0mg"},{"bike_id":"8d752f18-25a3-477c-ab63-d81aa9dc395d","system_id":"levelo_inurba_marseille","lat":43.25908,"lon":5.40886,"is_reserved":false,"is_disabled":false,"rental_uris":{"android":"levelo://app?vid=8d752f18-25a3-477c-ab63-d81aa9dc395d","ios":"levelo://app?vid=8d752f18-25a3-477c-ab63-d81aa9dc395d"},"vehicle_type_id":"4","last_reported":1745309642,"current_range_meters":9600,"station_id":"ce4bhm92rcd13ifvqglg","pricing_plan_id":"cebpf4jnsgd1na2vs0mg"},{"bike_id":"22ad8cd8-448d-4f6e-b2fe-740f8d592dd7","system_id":"levelo_inurba_marseille","lat":43.33773,"lon":5.37421,"is_reserved":false,"is_disabled":false,"rental_uris":{"android":"levelo://app?vid=22ad8cd8-448d-4f6e-b2fe-740f8d592dd7","ios":"levelo://app?vid=22ad8cd8-448d-4f6e-b2fe-740f8d592dd7"},"vehicle_type_id":"4","last_reported":1745309642,"current_range_meters":10000,"station_id":"","pricing_plan_id":"cebpf4jnsgd1na2vs0mg"},{"bike_id":"ea8dd40d-d1c9-495b-acb7-79fe81df74e2","system_id":"levelo_inurba_marseille","lat":43.28716,"lon":5.40026,"is_reserved":false,"is_disabled":true,"rental_uris":{"android":"levelo://app?vid=ea8dd40d-d1c9-495b-acb7-79fe81df74e2","ios":"levelo://app?vid=ea8dd40d-d1c9-495b-acb7-79fe81df74e2"},"vehicle_type_id":"4","last_reported":1745309642,"current_range_meters":10000,"station_id":"ce4bho92rcd13ifvqh3g","pricing_plan_id":"cebpf4jnsgd1na2vs0mg"},{"bike_id":"4fae2384-2bd8-4ff3-af9e-72e43c04fc41","system_id":"levelo_inurba_marseille","lat":43.26795,"lon":5.39419,"is_reserved":false,"is_disabled":false,"rental_uris":{"android":"levelo://app?vid=4fae2384-2bd8-4ff3-af9e-72e43c04fc41","ios":"levelo://app?vid=4fae2384-2bd8-4ff3-af9e-72e43c04fc41"},"vehicle_type_id":"4","last_reported":1745309642,"current_range_meters":9600,"station_id":"ce4bhh12rcd13ifvqfg0","pricing_plan_id":"cebpf4jnsgd1na2vs0mg"},{"bike_id":"60233ea3-89a8-4189-a4a0-776d2e44aa03","system_id":"levelo_inurba_marseille","lat":43.2747,"lon":5.42412,"is_reserved":false,"is_disabled":false,"rental_uris":{"android":"levelo://app?vid=60233ea3-89a8-4189-a4a0-776d2e44aa03","ios":"levelo://app?vid=60233ea3-89a8-4189-a4a0-776d2e44aa03"},"vehicle_type_id":"4","last_reported":1745309642,"current_range_meters":10000,"station_id":"","pricing_plan_id":"cebpf4jnsgd1na2vs0mg"},{"bike_id":"2dc4e79a-33a8-48b0-bf03-f6328f1dc1f6","system_id":"levelo_inurba_marseille","lat":43.32395,"lon":5.38948,"is_reserved":false,"is_disabled":true,"rental_uris":{"android":"levelo://app?vid=2dc4e79a-33a8-48b0-bf03-f6328f1dc1f6","ios":"levelo://app?vid=2dc4e79a-33a8-48b0-bf03-f6328f1dc1f6"},"vehicle_type_id":"4","last_reported":1745309642,"current_range_meters":10800,"station_id":"ce4bhqp2rcd13ifvqhog","pricing_plan_id":"cebpf4jnsgd1na2vs0mg"},{"bike_id":"24b83e9a-0b75-4521-bbfd-a9470de71a92","system_id":"levelo_inurba_marseille","lat":43.3014,"lon":5.37412,"is_reserved":false,"is_disabled":false,"rental_uris":{"android":"levelo://app?vid=24b83e9a-0b75-4521-bbfd-a9470de71a92","ios":"levelo://app?vid=24b83e9a-0b75-4521-bbfd-a9470de71a92"},"vehicle_type_id":"4","last_reported":1745309642,"current_range_meters":10800,"station_id":"ce4bgs92rcd13ifvqcc0","pricing_plan_id":"cebpf4jnsgd1na2vs0mg"},{"bike_id":"d5a5c146-93aa-42b6-9c81-07e9be505adb","system_id":"levelo_inurba_marseille","lat":43.29039,"lon":5.37566,"is_reserved":false,"is_disabled":false,"rental_uris":{"android":"levelo://app?vid=d5a5c146-93aa-42b6-9c81-07e9be505adb","ios":"levelo://app?vid=d5a5c146-93aa-42b6-9c81-07e9be505adb"},"vehicle_type_id":"4","last_reported":1745309642,"current_range_meters":10000,"station_id":"ce4bh692rcd13ifvqe90","pricing_plan_id":"cebpf4jnsgd1na2vs0mg"},{"bike_id":"1325bcb3-a3d2-4b70-b7c3-893c54e2de8d","system_id":"levelo_inurba_marseille","lat":43.25586,"lon":5.38228,"is_reserved":false,"is_disabled":false,"rental_uris":{"android":"levelo://app?vid=1325bcb3-a3d2-4b70-b7c3-893c54e2de8d","ios":"levelo://app?vid=1325bcb3-a3d2-4b70-b7c3-893c54e2de8d"},"vehicle_type_id":"4","last_reported":1745309642,"current_range_meters":11200,"station_id":"ce4bhih2rcd13ifvqfs0","pricing_plan_id":"cebpf4jnsgd1na2vs0mg"},{"bike_id":"f3d54f26-7c13-40aa-82cc-2bbd4c41b26b","system_id":"levelo_inurba_marseille","lat":43.28844,"lon":5.39332,"is_reserved":false,"is_disabled":false,"rental_uris":{"android":"levelo://app?vid=f3d54f26-7c13-40aa-82cc-2bbd4c41b26b","ios":"levelo://app?vid=f3d54f26-7c13-40aa-82cc-2bbd4c41b26b"},"vehicle_type_id":"4","last_reported":1745309642,"current_range_meters":11200,"station_id":"ce4bh2p2rcd13ifvqdi0","pricing_plan_id":"cebpf4jnsgd1na2vs0mg"},{"bike_id":"1d6ab563-1cc8-43d6-804a-8a5a13169c44","system_id":"levelo_inurba_marseille","lat":43.2955,"lon":5.39978,"is_reserved":false,"is_disabled":false,"rental_uris":{"android":"levelo://app?vid=1d6ab563-1cc8-43d6-804a-8a5a13169c44","ios":"levelo://app?vid=1d6ab563-1cc8-43d6-804a-8a5a13169c44"},"vehicle_type_id":"4","last_reported":1745309642,"current_range_meters":11200,"station_id":"ce4bh312rcd13ifvqdj0","pricing_plan_id":"cebpf4jnsgd1na2vs0mg"},{"bike_id":"fdaa5725-ca39-49a7-a9cd-96b6eb72b7e3","system_id":"levelo_inurba_marseille","lat":43.32468,"lon":5.36564,"is_reserved":false,"is_disabled":false,"rental_uris":{"android":"levelo://app?vid=fdaa5725-ca39-49a7-a9cd-96b6eb72b7e3","ios":"levelo://app?vid=fdaa5725-ca39-49a7-a9cd-96b6eb72b7e3"},"vehicle_type_id":"4","last_reported":1745309642,"current_range_meters":11200,"station_id":"ce4bhs12rcd13ifvqhvg","pricing_plan_id":"cebpf4jnsgd1na2vs0mg"},{"bike_id":"15ee9b68-5b8d-4ba9-9fcb-2f0ac9b54f62","system_id":"levelo_inurba_marseille","lat":43.27064,"lon":5.42277,"is_reserved":false,"is_disabled":false,"rental_uris":{"android":"levelo://app?vid=15ee9b68-5b8d-4ba9-9fcb-2f0ac9b54f62","ios":"levelo://app?vid=15ee9b68-5b8d-4ba9-9fcb-2f0ac9b54f62"},"vehicle_type_id":"4","last_reported":1745309642,"current_range_meters":10800,"station_id":"ce4bhk92rcd13ifvqgb0","pricing_plan_id":"cebpf4jnsgd1na2vs0mg"},{"bike_id":"01c939f1-fb13-4874-8489-670f4b4c8d41","system_id":"levelo_inurba_marseille","lat":43.29324,"lon":5.37172,"is_reserved":false,"is_disabled":false,"rental_uris":{"android":"levelo://app?vid=01c939f1-fb13-4874-8489-670f4b4c8d41","ios":"levelo://app?vid=01c939f1-fb13-4874-8489-670f4b4c8d41"},"vehicle_type_id":"4","last_reported":1745309642,"current_range_meters":11200,"station_id":"ce4bgh92rcd13ifvqb40","pricing_plan_id":"cebpf4jnsgd1na2vs0mg"},{"bike_id":"57f7b582-4b24-4c71-b7c7-b6f27f52f117","system_id":"levelo_inurba_marseille","lat":43.27501,"lon":5.42457,"is_reserved":false,"is_disabled":false,"rental_uris":{"android":"levelo://app?vid=57f7b582-4b24-4c71-b7c7-b6f27f52f117","ios":"levelo://app?vid=57f7b582-4b24-4c71-b7c7-b6f27f52f117"},"vehicle_type_id":"4","last_reported":1745309642,"current_range_meters":11600,"station_id":"ce4bhn92rcd13ifvqgrg","pricing_plan_id":"cebpf4jnsgd1na2vs0mg"},{"bike_id":"b373a9fc-b19f-49e6-9414-e3e614041e34","system_id":"levelo_inurba_marseille","lat":43.2708,"lon":5.42268,"is_reserved":false,"is_disabled":true,"rental_uris":{"android":"levelo://app?vid=b373a9fc-b19f-49e6-9414-e3e614041e34","ios":"levelo://app?vid=b373a9fc-b19f-49e6-9414-e3e614041e34"},"vehicle_type_id":"4","last_reported":1745309642,"current_range_meters":11600,"station_id":"ce4bhk92rcd13ifvqgb0","pricing_plan_id":"cebpf4jnsgd1na2vs0mg"},{"bike_id":"0cc8691f-a082-4a9b-944f-91ae0092fb38","system_id":"levelo_inurba_marseille","lat":43.2932,"lon":5.40115,"is_reserved":false,"is_disabled":false,"rental_uris":{"android":"levelo://app?vid=0cc8691f-a082-4a9b-944f-91ae0092fb38","ios":"levelo://app?vid=0cc8691f-a082-4a9b-944f-91ae0092fb38"},"vehicle_type_id":"4","last_reported":1745309642,"current_range_meters":11600,"station_id":"","pricing_plan_id":"cebpf4jnsgd1na2vs0mg"},{"bike_id":"1420ae0a-478c-45d3-acf8-ecf48fd39435","system_id":"levelo_inurba_marseille","lat":43.29514,"lon":5.39041,"is_reserved":false,"is_disabled":false,"rental_uris":{"android":"levelo://app?vid=1420ae0a-478c-45d3-acf8-ecf48fd39435","ios":"levelo://app?vid=1420ae0a-478c-45d3-acf8-ecf48fd39435"},"vehicle_type_id":"4","last_reported":1745309642,"current_range_meters":11600,"station_id":"ce4bh3p2rcd13ifvqdp0","pricing_plan_id":"cebpf4jnsgd1na2vs0mg"},{"bike_id":"40caaaec-7592-4cee-98e1-c4b4d48c5e49","system_id":"levelo_inurba_marseille","lat":43.32044,"lon":5.41544,"is_reserved":false,"is_disabled":false,"rental_uris":{"android":"levelo://app?vid=40caaaec-7592-4cee-98e1-c4b4d48c5e49","ios":"levelo://app?vid=40caaaec-7592-4cee-98e1-c4b4d48c5e49"},"vehicle_type_id":"4","last_reported":1745309642,"current_range_meters":11600,"station_id":"ce4bhq92rcd13ifvqhkg","pricing_plan_id":"cebpf4jnsgd1na2vs0mg"},{"bike_id":"efd800b7-45c9-41a2-89e0-14e5cad55dc7","system_id":"levelo_inurba_marseille","lat":43.33804,"lon":5.37466,"is_reserved":false,"is_disabled":false,"rental_uris":{"android":"levelo://app?vid=efd800b7-45c9-41a2-89e0-14e5cad55dc7","ios":"levelo://app?vid=efd800b7-45c9-41a2-89e0-14e5cad55dc7"},"vehicle_type_id":"4","last_reported":1745309642,"current_range_meters":12000,"station_id":"","pricing_plan_id":"cebpf4jnsgd1na2vs0mg"},{"bike_id":"d81c0952-8263-491b-837b-bfde7a45a4f3","system_id":"levelo_inurba_marseille","lat":43.29515,"lon":5.39033,"is_reserved":false,"is_disabled":false,"rental_uris":{"android":"levelo://app?vid=d81c0952-8263-491b-837b-bfde7a45a4f3","ios":"levelo://app?vid=d81c0952-8263-491b-837b-bfde7a45a4f3"},"vehicle_type_id":"4","last_reported":1745309642,"current_range_meters":12000,"station_id":"ce4bh3p2rcd13ifvqdp0","pricing_plan_id":"cebpf4jnsgd1na2vs0mg"},{"bike_id":"998962b5-e87a-4aff-9b11-bfc8782aa762","system_id":"levelo_inurba_marseille","lat":43.23166,"lon":5.43701,"is_reserved":false,"is_disabled":false,"rental_uris":{"android":"levelo://app?vid=998962b5-e87a-4aff-9b11-bfc8782aa762","ios":"levelo://app?vid=998962b5-e87a-4aff-9b11-bfc8782aa762"},"vehicle_type_id":"4","last_reported":1745309642,"current_range_meters":12000,"station_id":"ce4bhmp2rcd13ifvqgog","pricing_plan_id":"cebpf4jnsgd1na2vs0mg"},{"bike_id":"38e840b0-1863-4991-b2ae-6a86f3dbf488","system_id":"levelo_inurba_marseille","lat":43.25566,"lon":5.38237,"is_reserved":false,"is_disabled":false,"rental_uris":{"android":"levelo://app?vid=38e840b0-1863-4991-b2ae-6a86f3dbf488","ios":"levelo://app?vid=38e840b0-1863-4991-b2ae-6a86f3dbf488"},"vehicle_type_id":"4","last_reported":1745309642,"current_range_meters":12400,"station_id":"ce4bhih2rcd13ifvqfs0","pricing_plan_id":"cebpf4jnsgd1na2vs0mg"},{"bike_id":"a7aa4f0d-dbae-40db-a193-3ad158f70ff8","system_id":"levelo_inurba_marseille","lat":43.31036,"lon":5.37077,"is_reserved":false,"is_disabled":false,"rental_uris":{"android":"levelo://app?vid=a7aa4f0d-dbae-40db-a193-3ad158f70ff8","ios":"levelo://app?vid=a7aa4f0d-dbae-40db-a193-3ad158f70ff8"},"vehicle_type_id":"4","last_reported":1745309642,"current_range_meters":12400,"station_id":"","pricing_plan_id":"cebpf4jnsgd1na2vs0mg"},{"bike_id":"ffcfde42-5d1a-4ae8-ac3f-b66eb40a682d","system_id":"levelo_inurba_marseille","lat":43.2928,"lon":5.36843,"is_reserved":false,"is_disabled":false,"rental_uris":{"android":"levelo://app?vid=ffcfde42-5d1a-4ae8-ac3f-b66eb40a682d","ios":"levelo://app?vid=ffcfde42-5d1a-4ae8-ac3f-b66eb40a682d"},"vehicle_type_id":"4","last_reported":1745309642,"current_range_meters":12400,"station_id":"ce4bhbp2rcd13ifvqesg","pricing_plan_id":"cebpf4jnsgd1na2vs0mg"},{"bike_id":"3768a8e4-8cab-464d-ab41-fe4d603d3c96","system_id":"levelo_inurba_marseille","lat":43.2957,"lon":5.39978,"is_reserved":false,"is_disabled":false,"rental_uris":{"android":"levelo://app?vid=3768a8e4-8cab-464d-ab41-fe4d603d3c96","ios":"levelo://app?vid=3768a8e4-8cab-464d-ab41-fe4d603d3c96"},"vehicle_type_id":"4","last_reported":1745309642,"current_range_meters":12800,"station_id":"ce4bh312rcd13ifvqdj0","pricing_plan_id":"cebpf4jnsgd1na2vs0mg"},{"bike_id":"331183ba-2c2a-45a7-b62b-43e889609f36","system_id":"levelo_inurba_marseille","lat":43.27368,"lon":5.36258,"is_reserved":false,"is_disabled":false,"rental_uris":{"android":"levelo://app?vid=331183ba-2c2a-45a7-b62b-43e889609f36","ios":"levelo://app?vid=331183ba-2c2a-45a7-b62b-43e889609f36"},"vehicle_type_id":"4","last_reported":1745309642,"current_range_meters":12800,"station_id":"ce4bhbh2rcd13ifvqeo0","pricing_plan_id":"cebpf4jnsgd1na2vs0mg"},{"bike_id":"84d53afc-570e-4710-be21-8912352f92df","system_id":"levelo_inurba_marseille","lat":43.30872,"lon":5.36738,"is_reserved":false,"is_disabled":false,"rental_uris":{"android":"levelo://app?vid=84d53afc-570e-4710-be21-8912352f92df","ios":"levelo://app?vid=84d53afc-570e-4710-be21-8912352f92df"},"vehicle_type_id":"4","last_reported":1745309642,"current_range_meters":12800,"station_id":"","pricing_plan_id":"cebpf4jnsgd1na2vs0mg"},{"bike_id":"e8d5d107-35b9-418d-88a3-5114daa1d261","system_id":"levelo_inurba_marseille","lat":43.29046,"lon":5.3996,"is_reserved":false,"is_disabled":false,"rental_uris":{"android":"levelo://app?vid=e8d5d107-35b9-418d-88a3-5114daa1d261","ios":"levelo://app?vid=e8d5d107-35b9-418d-88a3-5114daa1d261"},"vehicle_type_id":"4","last_reported":1745309642,"current_range_meters":13600,"station_id":"ce4bh392rcd13ifvqdm0","pricing_plan_id":"cebpf4jnsgd1na2vs0mg"},{"bike_id":"2a35ab10-f416-439f-a4fa-784873cd587f","system_id":"levelo_inurba_marseille","lat":43.2695,"lon":5.38643,"is_reserved":false,"is_disabled":true,"rental_uris":{"android":"levelo://app?vid=2a35ab10-f416-439f-a4fa-784873cd587f","ios":"levelo://app?vid=2a35ab10-f416-439f-a4fa-784873cd587f"},"vehicle_type_id":"4","last_reported":1745309642,"current_range_meters":13600,"station_id":"","pricing_plan_id":"cebpf4jnsgd1na2vs0mg"},{"bike_id":"773d5a14-0d25-4040-9d3e-890cb00c2515","system_id":"levelo_inurba_marseille","lat":43.27305,"lon":5.39087,"is_reserved":false,"is_disabled":false,"rental_uris":{"android":"levelo://app?vid=773d5a14-0d25-4040-9d3e-890cb00c2515","ios":"levelo://app?vid=773d5a14-0d25-4040-9d3e-890cb00c2515"},"vehicle_type_id":"4","last_reported":1745309642,"current_range_meters":13600,"station_id":"ce4bhgp2rcd13ifvqfe0","pricing_plan_id":"cebpf4jnsgd1na2vs0mg"},{"bike_id":"12505a0a-b14f-4f59-9be1-55ce43130db1","system_id":"levelo_inurba_marseille","lat":43.2959,"lon":5.38104,"is_reserved":false,"is_disabled":true,"rental_uris":{"android":"levelo://app?vid=12505a0a-b14f-4f59-9be1-55ce43130db1","ios":"levelo://app?vid=12505a0a-b14f-4f59-9be1-55ce43130db1"},"vehicle_type_id":"4","last_reported":1745309642,"current_range_meters":13600,"station_id":"ce4bgl12rcd13ifvqbo0","pricing_plan_id":"cebpf4jnsgd1na2vs0mg"},{"bike_id":"47768a28-4fff-4fc1-b4c4-b5ec8d452deb","system_id":"levelo_inurba_marseille","lat":43.295502,"lon":5.380643,"is_reserved":false,"is_disabled":true,"rental_uris":{"android":"levelo://app?vid=47768a28-4fff-4fc1-b4c4-b5ec8d452deb","ios":"levelo://app?vid=47768a28-4fff-4fc1-b4c4-b5ec8d452deb"},"vehicle_type_id":"4","last_reported":1745309642,"current_range_meters":13600,"station_id":"ce4bgl12rcd13ifvqbo0","pricing_plan_id":"cebpf4jnsgd1na2vs0mg"},{"bike_id":"52f2cd5e-235d-4815-a03a-1901a7beec2b","system_id":"levelo_inurba_marseille","lat":43.3053,"lon":5.36711,"is_reserved":false,"is_disabled":false,"rental_uris":{"android":"levelo://app?vid=52f2cd5e-235d-4815-a03a-1901a7beec2b","ios":"levelo://app?vid=52f2cd5e-235d-4815-a03a-1901a7beec2b"},"vehicle_type_id":"4","last_reported":1745309642,"current_range_meters":14000,"station_id":"ce4bgrp2rcd13ifvqc9g","pricing_plan_id":"cebpf4jnsgd1na2vs0mg"},{"bike_id":"d26aecca-5b94-4bac-9927-82be229216f1","system_id":"levelo_inurba_marseille","lat":43.32121,"lon":5.36762,"is_reserved":false,"is_disabled":false,"rental_uris":{"android":"levelo://app?vid=d26aecca-5b94-4bac-9927-82be229216f1","ios":"levelo://app?vid=d26aecca-5b94-4bac-9927-82be229216f1"},"vehicle_type_id":"4","last_reported":1745309642,"current_range_meters":14000,"station_id":"ce4bhrh2rcd13ifvqhug","pricing_plan_id":"cebpf4jnsgd1na2vs0mg"},{"bike_id":"2fdec07d-a50d-44f0-b80e-4c88a9a4aa2f","system_id":"levelo_inurba_marseille","lat":43.26956,"lon":5.3863,"is_reserved":false,"is_disabled":false,"rental_uris":{"android":"levelo://app?vid=2fdec07d-a50d-44f0-b80e-4c88a9a4aa2f","ios":"levelo://app?vid=2fdec07d-a50d-44f0-b80e-4c88a9a4aa2f"},"vehicle_type_id":"4","last_reported":1745309642,"current_range_meters":14000,"station_id":"ce4bhh92rcd13ifvqfh0","pricing_plan_id":"cebpf4jnsgd1na2vs0mg"},{"bike_id":"6cf0e61b-d89b-44af-a005-4cd617382554","system_id":"levelo_inurba_marseille","lat":43.30951,"lon":5.39049,"is_reserved":false,"is_disabled":false,"rental_uris":{"android":"levelo://app?vid=6cf0e61b-d89b-44af-a005-4cd617382554","ios":"levelo://app?vid=6cf0e61b-d89b-44af-a005-4cd617382554"},"vehicle_type_id":"4","last_reported":1745309642,"current_range_meters":14000,"station_id":"ce4bgup2rcd13ifvqco0","pricing_plan_id":"cebpf4jnsgd1na2vs0mg"},{"bike_id":"f25d8672-7640-4033-8cc4-f80944c4dd44","system_id":"levelo_inurba_marseille","lat":43.2726,"lon":5.40178,"is_reserved":false,"is_disabled":false,"rental_uris":{"android":"levelo://app?vid=f25d8672-7640-4033-8cc4-f80944c4dd44","ios":"levelo://app?vid=f25d8672-7640-4033-8cc4-f80944c4dd44"},"vehicle_type_id":"4","last_reported":1745309642,"current_range_meters":14400,"station_id":"","pricing_plan_id":"cebpf4jnsgd1na2vs0mg"},{"bike_id":"a756bae3-49c1-4d6c-89e8-fcb7b0e7d2e2","system_id":"levelo_inurba_marseille","lat":43.29019,"lon":5.35924,"is_reserved":false,"is_disabled":true,"rental_uris":{"android":"levelo://app?vid=a756bae3-49c1-4d6c-89e8-fcb7b0e7d2e2","ios":"levelo://app?vid=a756bae3-49c1-4d6c-89e8-fcb7b0e7d2e2"},"vehicle_type_id":"4","last_reported":1745309642,"current_range_meters":14400,"station_id":"ce4bha92rcd13ifvqeg0","pricing_plan_id":"cebpf4jnsgd1na2vs0mg"},{"bike_id":"41cd4d50-3bdd-4fa7-b5d1-d715f5a540e6","system_id":"levelo_inurba_marseille","lat":43.323624,"lon":5.367758,"is_reserved":false,"is_disabled":false,"rental_uris":{"android":"levelo://app?vid=41cd4d50-3bdd-4fa7-b5d1-d715f5a540e6","ios":"levelo://app?vid=41cd4d50-3bdd-4fa7-b5d1-d715f5a540e6"},"vehicle_type_id":"4","last_reported":1745309642,"current_range_meters":14400,"station_id":"ce4bhsh2rcd13ifvqi2g","pricing_plan_id":"cebpf4jnsgd1na2vs0mg"},{"bike_id":"46c7040a-90d9-471e-9741-4cd0b5916360","system_id":"levelo_inurba_marseille","lat":43.33615,"lon":5.41003,"is_reserved":false,"is_disabled":false,"rental_uris":{"android":"levelo://app?vid=46c7040a-90d9-471e-9741-4cd0b5916360","ios":"levelo://app?vid=46c7040a-90d9-471e-9741-4cd0b5916360"},"vehicle_type_id":"4","last_reported":1745309642,"current_range_meters":14800,"station_id":"ce4bhqh2rcd13ifvqhmg","pricing_plan_id":"cebpf4jnsgd1na2vs0mg"},{"bike_id":"45f0087c-c08a-41bc-a438-62ad4ddee080","system_id":"levelo_inurba_marseille","lat":43.28464,"lon":5.38418,"is_reserved":false,"is_disabled":false,"rental_uris":{"android":"levelo://app?vid=45f0087c-c08a-41bc-a438-62ad4ddee080","ios":"levelo://app?vid=45f0087c-c08a-41bc-a438-62ad4ddee080"},"vehicle_type_id":"4","last_reported":1745309642,"current_range_meters":14400,"station_id":"ce4bh512rcd13ifvqe3g","pricing_plan_id":"cebpf4jnsgd1na2vs0mg"},{"bike_id":"013b0bba-3a8e-4176-aec5-9b030be1a006","system_id":"levelo_inurba_marseille","lat":43.31731,"lon":5.37776,"is_reserved":false,"is_disabled":false,"rental_uris":{"android":"levelo://app?vid=013b0bba-3a8e-4176-aec5-9b030be1a006","ios":"levelo://app?vid=013b0bba-3a8e-4176-aec5-9b030be1a006"},"vehicle_type_id":"4","last_reported":1745309642,"current_range_meters":14800,"station_id":"ce4bgth2rcd13ifvqch0","pricing_plan_id":"cebpf4jnsgd1na2vs0mg"},{"bike_id":"8a4d7d49-48b0-4249-b360-81a357a9a5a8","system_id":"levelo_inurba_marseille","lat":43.27076,"lon":5.42277,"is_reserved":false,"is_disabled":false,"rental_uris":{"android":"levelo://app?vid=8a4d7d49-48b0-4249-b360-81a357a9a5a8","ios":"levelo://app?vid=8a4d7d49-48b0-4249-b360-81a357a9a5a8"},"vehicle_type_id":"4","last_reported":1745309642,"current_range_meters":14800,"station_id":"ce4bhk92rcd13ifvqgb0","pricing_plan_id":"cebpf4jnsgd1na2vs0mg"},{"bike_id":"41d03cd2-6a58-4c01-bf53-d961b3e4484b","system_id":"levelo_inurba_marseille","lat":43.23196,"lon":5.35553,"is_reserved":false,"is_disabled":false,"rental_uris":{"android":"levelo://app?vid=41d03cd2-6a58-4c01-bf53-d961b3e4484b","ios":"levelo://app?vid=41d03cd2-6a58-4c01-bf53-d961b3e4484b"},"vehicle_type_id":"4","last_reported":1745309642,"current_range_meters":14400,"station_id":"ce4bhu92rcd13ifvqi70","pricing_plan_id":"cebpf4jnsgd1na2vs0mg"},{"bike_id":"1d917504-d08a-4f98-98c4-f2a7e4b4c735","system_id":"levelo_inurba_marseille","lat":43.30934,"lon":5.36854,"is_reserved":false,"is_disabled":false,"rental_uris":{"android":"levelo://app?vid=1d917504-d08a-4f98-98c4-f2a7e4b4c735","ios":"levelo://app?vid=1d917504-d08a-4f98-98c4-f2a7e4b4c735"},"vehicle_type_id":"4","last_reported":1745309642,"current_range_meters":15200,"station_id":"ce4bgn92rcd13ifvqbvg","pricing_plan_id":"cebpf4jnsgd1na2vs0mg"},{"bike_id":"a984ea8e-a8ac-4ec0-9030-3de3f678c5fd","system_id":"levelo_inurba_marseille","lat":43.309118,"lon":5.368403,"is_reserved":false,"is_disabled":false,"rental_uris":{"android":"levelo://app?vid=a984ea8e-a8ac-4ec0-9030-3de3f678c5fd","ios":"levelo://app?vid=a984ea8e-a8ac-4ec0-9030-3de3f678c5fd"},"vehicle_type_id":"4","last_reported":1745309642,"current_range_meters":15200,"station_id":"ce4bgn92rcd13ifvqbvg","pricing_plan_id":"cebpf4jnsgd1na2vs0mg"},{"bike_id":"ce8c0d5b-0765-487a-afe2-22fa8827beca","system_id":"levelo_inurba_marseille","lat":43.23151,"lon":5.43719,"is_reserved":false,"is_disabled":false,"rental_uris":{"android":"levelo://app?vid=ce8c0d5b-0765-487a-afe2-22fa8827beca","ios":"levelo://app?vid=ce8c0d5b-0765-487a-afe2-22fa8827beca"},"vehicle_type_id":"4","last_reported":1745309642,"current_range_meters":14800,"station_id":"ce4bhmp2rcd13ifvqgog","pricing_plan_id":"cebpf4jnsgd1na2vs0mg"},{"bike_id":"073666a2-3ea3-4eb3-a124-3b5c40d3d495","system_id":"levelo_inurba_marseille","lat":43.25926,"lon":5.40864,"is_reserved":false,"is_disabled":true,"rental_uris":{"android":"levelo://app?vid=073666a2-3ea3-4eb3-a124-3b5c40d3d495","ios":"levelo://app?vid=073666a2-3ea3-4eb3-a124-3b5c40d3d495"},"vehicle_type_id":"4","last_reported":1745309642,"current_range_meters":16000,"station_id":"ce4bhm92rcd13ifvqglg","pricing_plan_id":"cebpf4jnsgd1na2vs0mg"},{"bike_id":"de9704f9-bc65-4f5a-9c6b-e4c83851fc93","system_id":"levelo_inurba_marseille","lat":43.217437,"lon":5.346078,"is_reserved":false,"is_disabled":false,"rental_uris":{"android":"levelo://app?vid=de9704f9-bc65-4f5a-9c6b-e4c83851fc93","ios":"levelo://app?vid=de9704f9-bc65-4f5a-9c6b-e4c83851fc93"},"vehicle_type_id":"4","last_reported":1745309642,"current_range_meters":16000,"station_id":"st_cvj6r9ubvosntc0bgbag","pricing_plan_id":"cebpf4jnsgd1na2vs0mg"},{"bike_id":"087846f4-ae41-4819-8cae-fe7e20519068","system_id":"levelo_inurba_marseille","lat":43.30373,"lon":5.42488,"is_reserved":false,"is_disabled":false,"rental_uris":{"android":"levelo://app?vid=087846f4-ae41-4819-8cae-fe7e20519068","ios":"levelo://app?vid=087846f4-ae41-4819-8cae-fe7e20519068"},"vehicle_type_id":"4","last_reported":1745309642,"current_range_meters":16000,"station_id":"ce4bhoh2rcd13ifvqh6g","pricing_plan_id":"cebpf4jnsgd1na2vs0mg"},{"bike_id":"44a84265-4645-43d8-b725-4f07a84a1534","system_id":"levelo_inurba_marseille","lat":43.305419,"lon":5.365632,"is_reserved":false,"is_disabled":false,"rental_uris":{"android":"levelo://app?vid=44a84265-4645-43d8-b725-4f07a84a1534","ios":"levelo://app?vid=44a84265-4645-43d8-b725-4f07a84a1534"},"vehicle_type_id":"4","last_reported":1745309642,"current_range_meters":16000,"station_id":"ce4bgs12rcd13ifvqcag","pricing_plan_id":"cebpf4jnsgd1na2vs0mg"},{"bike_id":"088cb720-872a-45c0-8967-bc98d0ab579b","system_id":"levelo_inurba_marseille","lat":43.29026,"lon":5.38639,"is_reserved":false,"is_disabled":false,"rental_uris":{"android":"levelo://app?vid=088cb720-872a-45c0-8967-bc98d0ab579b","ios":"levelo://app?vid=088cb720-872a-45c0-8967-bc98d0ab579b"},"vehicle_type_id":"4","last_reported":1745309642,"current_range_meters":16400,"station_id":"ce4bh4p2rcd13ifvqe0g","pricing_plan_id":"cebpf4jnsgd1na2vs0mg"},{"bike_id":"0ad7e774-d44d-449d-9880-22d195209d1a","system_id":"levelo_inurba_marseille","lat":43.3014,"lon":5.37401,"is_reserved":false,"is_disabled":false,"rental_uris":{"android":"levelo://app?vid=0ad7e774-d44d-449d-9880-22d195209d1a","ios":"levelo://app?vid=0ad7e774-d44d-449d-9880-22d195209d1a"},"vehicle_type_id":"4","last_reported":1745309642,"current_range_meters":16400,"station_id":"ce4bgs92rcd13ifvqcc0","pricing_plan_id":"cebpf4jnsgd1na2vs0mg"},{"bike_id":"a19fbbb9-ae21-4945-93a3-20e688218926","system_id":"levelo_inurba_marseille","lat":43.25935,"lon":5.40893,"is_reserved":false,"is_disabled":false,"rental_uris":{"android":"levelo://app?vid=a19fbbb9-ae21-4945-93a3-20e688218926","ios":"levelo://app?vid=a19fbbb9-ae21-4945-93a3-20e688218926"},"vehicle_type_id":"4","last_reported":1745309642,"current_range_meters":16400,"station_id":"ce4bhm92rcd13ifvqglg","pricing_plan_id":"cebpf4jnsgd1na2vs0mg"},{"bike_id":"5006eed0-582b-4314-90a9-368091d67387","system_id":"levelo_inurba_marseille","lat":43.29413,"lon":5.3863,"is_reserved":false,"is_disabled":false,"rental_uris":{"android":"levelo://app?vid=5006eed0-582b-4314-90a9-368091d67387","ios":"levelo://app?vid=5006eed0-582b-4314-90a9-368091d67387"},"vehicle_type_id":"4","last_reported":1745309642,"current_range_meters":16000,"station_id":"ce4bh2h2rcd13ifvqdh0","pricing_plan_id":"cebpf4jnsgd1na2vs0mg"},{"bike_id":"d5fa6a7e-ae6f-48cd-8dc8-6ec1473fc099","system_id":"levelo_inurba_marseille","lat":43.31324,"lon":5.36727,"is_reserved":false,"is_disabled":true,"rental_uris":{"android":"levelo://app?vid=d5fa6a7e-ae6f-48cd-8dc8-6ec1473fc099","ios":"levelo://app?vid=d5fa6a7e-ae6f-48cd-8dc8-6ec1473fc099"},"vehicle_type_id":"4","last_reported":1745309642,"current_range_meters":16400,"station_id":"ce4bgr92rcd13ifvqc6g","pricing_plan_id":"cebpf4jnsgd1na2vs0mg"},{"bike_id":"58829fb0-21d0-42c1-83c7-37d9278bdc14","system_id":"levelo_inurba_marseille","lat":43.301422,"lon":5.374205,"is_reserved":false,"is_disabled":false,"rental_uris":{"android":"levelo://app?vid=58829fb0-21d0-42c1-83c7-37d9278bdc14","ios":"levelo://app?vid=58829fb0-21d0-42c1-83c7-37d9278bdc14"},"vehicle_type_id":"4","last_reported":1745309642,"current_range_meters":16800,"station_id":"ce4bgs92rcd13ifvqcc0","pricing_plan_id":"cebpf4jnsgd1na2vs0mg"},{"bike_id":"8a24f70c-ae05-4d58-b067-1c0737cd9e8f","system_id":"levelo_inurba_marseille","lat":43.27498,"lon":5.424572,"is_reserved":false,"is_disabled":false,"rental_uris":{"android":"levelo://app?vid=8a24f70c-ae05-4d58-b067-1c0737cd9e8f","ios":"levelo://app?vid=8a24f70c-ae05-4d58-b067-1c0737cd9e8f"},"vehicle_type_id":"4","last_reported":1745309642,"current_range_meters":16800,"station_id":"ce4bhn92rcd13ifvqgrg","pricing_plan_id":"cebpf4jnsgd1na2vs0mg"},{"bike_id":"b227795e-65e6-436f-a36c-00826f159524","system_id":"levelo_inurba_marseille","lat":43.33608,"lon":5.410308,"is_reserved":false,"is_disabled":false,"rental_uris":{"android":"levelo://app?vid=b227795e-65e6-436f-a36c-00826f159524","ios":"levelo://app?vid=b227795e-65e6-436f-a36c-00826f159524"},"vehicle_type_id":"4","last_reported":1745309642,"current_range_meters":16800,"station_id":"ce4bhqh2rcd13ifvqhmg","pricing_plan_id":"cebpf4jnsgd1na2vs0mg"},{"bike_id":"263ba10a-c520-436b-8d0f-9dd268a7cb60","system_id":"levelo_inurba_marseille","lat":43.25121,"lon":5.40315,"is_reserved":false,"is_disabled":false,"rental_uris":{"android":"levelo://app?vid=263ba10a-c520-436b-8d0f-9dd268a7cb60","ios":"levelo://app?vid=263ba10a-c520-436b-8d0f-9dd268a7cb60"},"vehicle_type_id":"4","last_reported":1745309642,"current_range_meters":16400,"station_id":"ce4bhlh2rcd13ifvqgig","pricing_plan_id":"cebpf4jnsgd1na2vs0mg"},{"bike_id":"eddf388e-8873-45ba-ad33-881fd27c608c","system_id":"levelo_inurba_marseille","lat":43.29298,"lon":5.37443,"is_reserved":false,"is_disabled":true,"rental_uris":{"android":"levelo://app?vid=eddf388e-8873-45ba-ad33-881fd27c608c","ios":"levelo://app?vid=eddf388e-8873-45ba-ad33-881fd27c608c"},"vehicle_type_id":"4","last_reported":1745309642,"current_range_meters":16800,"station_id":"ce4bgi12rcd13ifvqb70","pricing_plan_id":"cebpf4jnsgd1na2vs0mg"},{"bike_id":"36e786ae-5820-4f77-ac74-341e04cdedaf","system_id":"levelo_inurba_marseille","lat":43.30918,"lon":5.3685,"is_reserved":false,"is_disabled":false,"rental_uris":{"android":"levelo://app?vid=36e786ae-5820-4f77-ac74-341e04cdedaf","ios":"levelo://app?vid=36e786ae-5820-4f77-ac74-341e04cdedaf"},"vehicle_type_id":"4","last_reported":1745309642,"current_range_meters":16800,"station_id":"ce4bgn92rcd13ifvqbvg","pricing_plan_id":"cebpf4jnsgd1na2vs0mg"},{"bike_id":"0ddec75f-fc8b-441e-bca0-14696acf7b2a","system_id":"levelo_inurba_marseille","lat":43.26774,"lon":5.3942,"is_reserved":false,"is_disabled":false,"rental_uris":{"android":"levelo://app?vid=0ddec75f-fc8b-441e-bca0-14696acf7b2a","ios":"levelo://app?vid=0ddec75f-fc8b-441e-bca0-14696acf7b2a"},"vehicle_type_id":"4","last_reported":1745309642,"current_range_meters":16800,"station_id":"ce4bhh12rcd13ifvqfg0","pricing_plan_id":"cebpf4jnsgd1na2vs0mg"},{"bike_id":"09a8d94b-03f7-48a3-a45c-a6fd62f61570","system_id":"levelo_inurba_marseille","lat":43.27485,"lon":5.42459,"is_reserved":false,"is_disabled":false,"rental_uris":{"android":"levelo://app?vid=09a8d94b-03f7-48a3-a45c-a6fd62f61570","ios":"levelo://app?vid=09a8d94b-03f7-48a3-a45c-a6fd62f61570"},"vehicle_type_id":"4","last_reported":1745309642,"current_range_meters":16800,"station_id":"ce4bhn92rcd13ifvqgrg","pricing_plan_id":"cebpf4jnsgd1na2vs0mg"},{"bike_id":"1fed10e7-019a-49f7-bb66-0da068e6b313","system_id":"levelo_inurba_marseille","lat":43.29171,"lon":5.37164,"is_reserved":false,"is_disabled":false,"rental_uris":{"android":"levelo://app?vid=1fed10e7-019a-49f7-bb66-0da068e6b313","ios":"levelo://app?vid=1fed10e7-019a-49f7-bb66-0da068e6b313"},"vehicle_type_id":"4","last_reported":1745309642,"current_range_meters":17200,"station_id":"ce4bha92rcd13ifvqeh0","pricing_plan_id":"cebpf4jnsgd1na2vs0mg"},{"bike_id":"2674ef51-adc1-4cbf-a302-ee86124520f1","system_id":"levelo_inurba_marseille","lat":43.285431,"lon":5.384315,"is_reserved":false,"is_disabled":false,"rental_uris":{"android":"levelo://app?vid=2674ef51-adc1-4cbf-a302-ee86124520f1","ios":"levelo://app?vid=2674ef51-adc1-4cbf-a302-ee86124520f1"},"vehicle_type_id":"4","last_reported":1745309642,"current_range_meters":16800,"station_id":"ce4bh8p2rcd13ifvqeb0","pricing_plan_id":"cebpf4jnsgd1na2vs0mg"},{"bike_id":"584387b4-187d-4f80-b338-fcdc107989ef","system_id":"levelo_inurba_marseille","lat":43.24765,"lon":5.41225,"is_reserved":false,"is_disabled":false,"rental_uris":{"android":"levelo://app?vid=584387b4-187d-4f80-b338-fcdc107989ef","ios":"levelo://app?vid=584387b4-187d-4f80-b338-fcdc107989ef"},"vehicle_type_id":"4","last_reported":1745309642,"current_range_meters":17200,"station_id":"","pricing_plan_id":"cebpf4jnsgd1na2vs0mg"},{"bike_id":"474e75d9-5b25-47d0-ad39-8f955aeb1b08","system_id":"levelo_inurba_marseille","lat":43.24998,"lon":5.38926,"is_reserved":false,"is_disabled":false,"rental_uris":{"android":"levelo://app?vid=474e75d9-5b25-47d0-ad39-8f955aeb1b08","ios":"levelo://app?vid=474e75d9-5b25-47d0-ad39-8f955aeb1b08"},"vehicle_type_id":"4","last_reported":1745309642,"current_range_meters":17200,"station_id":"ce4bhgp2rcd13ifvqfd0","pricing_plan_id":"cebpf4jnsgd1na2vs0mg"},{"bike_id":"27166011-9659-43f9-9d49-c158ddc3e57c","system_id":"levelo_inurba_marseille","lat":43.24183,"lon":5.3973,"is_reserved":false,"is_disabled":false,"rental_uris":{"android":"levelo://app?vid=27166011-9659-43f9-9d49-c158ddc3e57c","ios":"levelo://app?vid=27166011-9659-43f9-9d49-c158ddc3e57c"},"vehicle_type_id":"4","last_reported":1745309642,"current_range_meters":17600,"station_id":"ce4bhn12rcd13ifvqgpg","pricing_plan_id":"cebpf4jnsgd1na2vs0mg"},{"bike_id":"a5c99c9d-cb6f-49dc-8e56-818e702b00a0","system_id":"levelo_inurba_marseille","lat":43.30916,"lon":5.36848,"is_reserved":false,"is_disabled":true,"rental_uris":{"android":"levelo://app?vid=a5c99c9d-cb6f-49dc-8e56-818e702b00a0","ios":"levelo://app?vid=a5c99c9d-cb6f-49dc-8e56-818e702b00a0"},"vehicle_type_id":"4","last_reported":1745309642,"current_range_meters":17600,"station_id":"ce4bgn92rcd13ifvqbvg","pricing_plan_id":"cebpf4jnsgd1na2vs0mg"},{"bike_id":"0cb1b248-1f98-43ae-ae61-47f28312adb2","system_id":"levelo_inurba_marseille","lat":43.286743,"lon":5.363437,"is_reserved":false,"is_disabled":false,"rental_uris":{"android":"levelo://app?vid=0cb1b248-1f98-43ae-ae61-47f28312adb2","ios":"levelo://app?vid=0cb1b248-1f98-43ae-ae61-47f28312adb2"},"vehicle_type_id":"4","last_reported":1745309642,"current_range_meters":18000,"station_id":"ce4bhah2rcd13ifvqei0","pricing_plan_id":"cebpf4jnsgd1na2vs0mg"},{"bike_id":"d37576a5-149e-4ac1-8dff-bc45c64b206b","system_id":"levelo_inurba_marseille","lat":43.27824,"lon":5.39204,"is_reserved":false,"is_disabled":false,"rental_uris":{"android":"levelo://app?vid=d37576a5-149e-4ac1-8dff-bc45c64b206b","ios":"levelo://app?vid=d37576a5-149e-4ac1-8dff-bc45c64b206b"},"vehicle_type_id":"4","last_reported":1745309642,"current_range_meters":17600,"station_id":"ce4bhjp2rcd13ifvqga0","pricing_plan_id":"cebpf4jnsgd1na2vs0mg"},{"bike_id":"7b2dc864-a4e9-468c-9cee-f3075a20977d","system_id":"levelo_inurba_marseille","lat":43.31455,"lon":5.37365,"is_reserved":false,"is_disabled":false,"rental_uris":{"android":"levelo://app?vid=7b2dc864-a4e9-468c-9cee-f3075a20977d","ios":"levelo://app?vid=7b2dc864-a4e9-468c-9cee-f3075a20977d"},"vehicle_type_id":"4","last_reported":1745309642,"current_range_meters":18000,"station_id":"","pricing_plan_id":"cebpf4jnsgd1na2vs0mg"},{"bike_id":"abd226a8-d003-4133-b9d2-b7c952b7ead1","system_id":"levelo_inurba_marseille","lat":43.23081,"lon":5.35504,"is_reserved":false,"is_disabled":false,"rental_uris":{"android":"levelo://app?vid=abd226a8-d003-4133-b9d2-b7c952b7ead1","ios":"levelo://app?vid=abd226a8-d003-4133-b9d2-b7c952b7ead1"},"vehicle_type_id":"4","last_reported":1745309642,"current_range_meters":18000,"station_id":"cpo3342slgdg3j2ifvpg","pricing_plan_id":"cebpf4jnsgd1na2vs0mg"},{"bike_id":"8e0ba4e0-2c8c-44ef-ba5a-e08066595875","system_id":"levelo_inurba_marseille","lat":43.240728,"lon":5.377601,"is_reserved":false,"is_disabled":false,"rental_uris":{"android":"levelo://app?vid=8e0ba4e0-2c8c-44ef-ba5a-e08066595875","ios":"levelo://app?vid=8e0ba4e0-2c8c-44ef-ba5a-e08066595875"},"vehicle_type_id":"4","last_reported":1745309642,"current_range_meters":18000,"station_id":"ce4bhnp2rcd13ifvqgvg","pricing_plan_id":"cebpf4jnsgd1na2vs0mg"},{"bike_id":"bfb6a197-fb29-40f0-a2e8-984f700e18b4","system_id":"levelo_inurba_marseille","lat":43.34207,"lon":5.4089,"is_reserved":false,"is_disabled":true,"rental_uris":{"android":"levelo://app?vid=bfb6a197-fb29-40f0-a2e8-984f700e18b4","ios":"levelo://app?vid=bfb6a197-fb29-40f0-a2e8-984f700e18b4"},"vehicle_type_id":"4","last_reported":1745309642,"current_range_meters":18000,"station_id":"ce4bhqh2rcd13ifvqhlg","pricing_plan_id":"cebpf4jnsgd1na2vs0mg"},{"bike_id":"3eeaa5ee-7282-4572-8d60-4d266c5d718f","system_id":"levelo_inurba_marseille","lat":43.21196,"lon":5.35082,"is_reserved":false,"is_disabled":false,"rental_uris":{"android":"levelo://app?vid=3eeaa5ee-7282-4572-8d60-4d266c5d718f","ios":"levelo://app?vid=3eeaa5ee-7282-4572-8d60-4d266c5d718f"},"vehicle_type_id":"4","last_reported":1745309642,"current_range_meters":18000,"station_id":"","pricing_plan_id":"cebpf4jnsgd1na2vs0mg"},{"bike_id":"1b903b38-38de-4714-9a2c-59836acfa168","system_id":"levelo_inurba_marseille","lat":43.31722,"lon":5.43725,"is_reserved":false,"is_disabled":true,"rental_uris":{"android":"levelo://app?vid=1b903b38-38de-4714-9a2c-59836acfa168","ios":"levelo://app?vid=1b903b38-38de-4714-9a2c-59836acfa168"},"vehicle_type_id":"4","last_reported":1745309642,"current_range_meters":18000,"station_id":"ce4bhp92rcd13ifvqhcg","pricing_plan_id":"cebpf4jnsgd1na2vs0mg"},{"bike_id":"95c8d072-4839-405f-ab92-73b94ca6168e","system_id":"levelo_inurba_marseille","lat":43.3137,"lon":5.36687,"is_reserved":false,"is_disabled":false,"rental_uris":{"android":"levelo://app?vid=95c8d072-4839-405f-ab92-73b94ca6168e","ios":"levelo://app?vid=95c8d072-4839-405f-ab92-73b94ca6168e"},"vehicle_type_id":"4","last_reported":1745309642,"current_range_meters":18800,"station_id":"ce4bgr92rcd13ifvqc6g","pricing_plan_id":"cebpf4jnsgd1na2vs0mg"},{"bike_id":"940d522f-7f70-40c6-9d6e-f7a050c317db","system_id":"levelo_inurba_marseille","lat":43.331225,"lon":5.409827,"is_reserved":false,"is_disabled":false,"rental_uris":{"android":"levelo://app?vid=940d522f-7f70-40c6-9d6e-f7a050c317db","ios":"levelo://app?vid=940d522f-7f70-40c6-9d6e-f7a050c317db"},"vehicle_type_id":"4","last_reported":1745309642,"current_range_meters":18800,"station_id":"ce4bhqh2rcd13ifvqhmg","pricing_plan_id":"cebpf4jnsgd1na2vs0mg"},{"bike_id":"7f420013-0055-40e6-87de-97d531f236c6","system_id":"levelo_inurba_marseille","lat":43.30914,"lon":5.36856,"is_reserved":false,"is_disabled":false,"rental_uris":{"android":"levelo://app?vid=7f420013-0055-40e6-87de-97d531f236c6","ios":"levelo://app?vid=7f420013-0055-40e6-87de-97d531f236c6"},"vehicle_type_id":"4","last_reported":1745309642,"current_range_meters":18800,"station_id":"ce4bgn92rcd13ifvqbvg","pricing_plan_id":"cebpf4jnsgd1na2vs0mg"},{"bike_id":"4be80251-3406-4a87-a2f9-be97ef5382c2","system_id":"levelo_inurba_marseille","lat":43.290761,"lon":5.385978,"is_reserved":false,"is_disabled":false,"rental_uris":{"android":"levelo://app?vid=4be80251-3406-4a87-a2f9-be97ef5382c2","ios":"levelo://app?vid=4be80251-3406-4a87-a2f9-be97ef5382c2"},"vehicle_type_id":"4","last_reported":1745309642,"current_range_meters":18800,"station_id":"ce4bgup2rcd13ifvqco0","pricing_plan_id":"cebpf4jnsgd1na2vs0mg"},{"bike_id":"ed28e0fd-dd61-4452-b4d5-e1fa062cb087","system_id":"levelo_inurba_marseille","lat":43.312236,"lon":5.368588,"is_reserved":false,"is_disabled":false,"rental_uris":{"android":"levelo://app?vid=ed28e0fd-dd61-4452-b4d5-e1fa062cb087","ios":"levelo://app?vid=ed28e0fd-dd61-4452-b4d5-e1fa062cb087"},"vehicle_type_id":"4","last_reported":1745309642,"current_range_meters":18800,"station_id":"ce4bgl92rcd13ifvqbq0","pricing_plan_id":"cebpf4jnsgd1na2vs0mg"},{"bike_id":"f9467f08-e826-4ecf-8c0b-3632795c6fc9","system_id":"levelo_inurba_marseille","lat":43.32543,"lon":5.41436,"is_reserved":false,"is_disabled":false,"rental_uris":{"android":"levelo://app?vid=f9467f08-e826-4ecf-8c0b-3632795c6fc9","ios":"levelo://app?vid=f9467f08-e826-4ecf-8c0b-3632795c6fc9"},"vehicle_type_id":"4","last_reported":1745309642,"current_range_meters":18800,"station_id":"ce4bhq12rcd13ifvqhhg","pricing_plan_id":"cebpf4jnsgd1na2vs0mg"},{"bike_id":"d974400f-ebe7-401e-8521-1085388dcb5a","system_id":"levelo_inurba_marseille","lat":43.313744,"lon":5.367004,"is_reserved":false,"is_disabled":false,"rental_uris":{"android":"levelo://app?vid=d974400f-ebe7-401e-8521-1085388dcb5a","ios":"levelo://app?vid=d974400f-ebe7-401e-8521-1085388dcb5a"},"vehicle_type_id":"4","last_reported":1745309642,"current_range_meters":18800,"station_id":"ce4bgr92rcd13ifvqc6g","pricing_plan_id":"cebpf4jnsgd1na2vs0mg"},{"bike_id":"82f06212-192b-498b-ac16-35868e95f3f7","system_id":"levelo_inurba_marseille","lat":43.29576,"lon":5.36736,"is_reserved":false,"is_disabled":false,"rental_uris":{"android":"levelo://app?vid=82f06212-192b-498b-ac16-35868e95f3f7","ios":"levelo://app?vid=82f06212-192b-498b-ac16-35868e95f3f7"},"vehicle_type_id":"4","last_reported":1745309642,"current_range_meters":18000,"station_id":"ce4bgph2rcd13ifvqc2g","pricing_plan_id":"cebpf4jnsgd1na2vs0mg"},{"bike_id":"fed5d872-a190-4a9e-9cbb-cb28755be28e","system_id":"levelo_inurba_marseille","lat":43.25707,"lon":5.41106,"is_reserved":false,"is_disabled":false,"rental_uris":{"android":"levelo://app?vid=fed5d872-a190-4a9e-9cbb-cb28755be28e","ios":"levelo://app?vid=fed5d872-a190-4a9e-9cbb-cb28755be28e"},"vehicle_type_id":"4","last_reported":1745309642,"current_range_meters":18000,"station_id":"ce4bhkp2rcd13ifvqgd0","pricing_plan_id":"cebpf4jnsgd1na2vs0mg"},{"bike_id":"3f5fab28-6a75-4a4a-8b2b-8b086db694c9","system_id":"levelo_inurba_marseille","lat":43.30537,"lon":5.36542,"is_reserved":false,"is_disabled":false,"rental_uris":{"android":"levelo://app?vid=3f5fab28-6a75-4a4a-8b2b-8b086db694c9","ios":"levelo://app?vid=3f5fab28-6a75-4a4a-8b2b-8b086db694c9"},"vehicle_type_id":"4","last_reported":1745309642,"current_range_meters":18800,"station_id":"ce4bgs12rcd13ifvqcag","pricing_plan_id":"cebpf4jnsgd1na2vs0mg"},{"bike_id":"26cd5f79-9cc0-439a-b94c-eae90f40f5ff","system_id":"levelo_inurba_marseille","lat":43.29305,"lon":5.3744,"is_reserved":false,"is_disabled":false,"rental_uris":{"android":"levelo://app?vid=26cd5f79-9cc0-439a-b94c-eae90f40f5ff","ios":"levelo://app?vid=26cd5f79-9cc0-439a-b94c-eae90f40f5ff"},"vehicle_type_id":"4","last_reported":1745309642,"current_range_meters":18800,"station_id":"ce4bgi12rcd13ifvqb70","pricing_plan_id":"cebpf4jnsgd1na2vs0mg"},{"bike_id":"dcd16c10-01d4-425b-bf0f-1d962adb14dd","system_id":"levelo_inurba_marseille","lat":43.29026,"lon":5.38632,"is_reserved":false,"is_disabled":false,"rental_uris":{"android":"levelo://app?vid=dcd16c10-01d4-425b-bf0f-1d962adb14dd","ios":"levelo://app?vid=dcd16c10-01d4-425b-bf0f-1d962adb14dd"},"vehicle_type_id":"4","last_reported":1745309642,"current_range_meters":18800,"station_id":"ce4bh4p2rcd13ifvqe0g","pricing_plan_id":"cebpf4jnsgd1na2vs0mg"},{"bike_id":"cb15f50a-d5cb-4017-b40b-b28b66eacf43","system_id":"levelo_inurba_marseille","lat":43.31249,"lon":5.36852,"is_reserved":false,"is_disabled":false,"rental_uris":{"android":"levelo://app?vid=cb15f50a-d5cb-4017-b40b-b28b66eacf43","ios":"levelo://app?vid=cb15f50a-d5cb-4017-b40b-b28b66eacf43"},"vehicle_type_id":"4","last_reported":1745309642,"current_range_meters":19200,"station_id":"ce4bgl92rcd13ifvqbq0","pricing_plan_id":"cebpf4jnsgd1na2vs0mg"},{"bike_id":"2b18e606-8d1d-4aa3-be39-d788fce19fbe","system_id":"levelo_inurba_marseille","lat":43.30531,"lon":5.38419,"is_reserved":false,"is_disabled":false,"rental_uris":{"android":"levelo://app?vid=2b18e606-8d1d-4aa3-be39-d788fce19fbe","ios":"levelo://app?vid=2b18e606-8d1d-4aa3-be39-d788fce19fbe"},"vehicle_type_id":"4","last_reported":1745309642,"current_range_meters":18800,"station_id":"ce4bgg92rcd13ifvqb30","pricing_plan_id":"cebpf4jnsgd1na2vs0mg"},{"bike_id":"5bde05e7-9c34-4bb8-b1b4-72876eb4fd51","system_id":"levelo_inurba_marseille","lat":43.27492,"lon":5.42454,"is_reserved":false,"is_disabled":false,"rental_uris":{"android":"levelo://app?vid=5bde05e7-9c34-4bb8-b1b4-72876eb4fd51","ios":"levelo://app?vid=5bde05e7-9c34-4bb8-b1b4-72876eb4fd51"},"vehicle_type_id":"4","last_reported":1745309642,"current_range_meters":19200,"station_id":"ce4bhn92rcd13ifvqgrg","pricing_plan_id":"cebpf4jnsgd1na2vs0mg"},{"bike_id":"5a6d4366-b2a3-43a7-b46a-cb703ab2d310","system_id":"levelo_inurba_marseille","lat":43.29029,"lon":5.38643,"is_reserved":false,"is_disabled":false,"rental_uris":{"android":"levelo://app?vid=5a6d4366-b2a3-43a7-b46a-cb703ab2d310","ios":"levelo://app?vid=5a6d4366-b2a3-43a7-b46a-cb703ab2d310"},"vehicle_type_id":"4","last_reported":1745309642,"current_range_meters":19200,"station_id":"ce4bh4p2rcd13ifvqe0g","pricing_plan_id":"cebpf4jnsgd1na2vs0mg"},{"bike_id":"e35c5785-1951-4916-a3e3-c6c2d741b904","system_id":"levelo_inurba_marseille","lat":43.23151,"lon":5.43708,"is_reserved":false,"is_disabled":false,"rental_uris":{"android":"levelo://app?vid=e35c5785-1951-4916-a3e3-c6c2d741b904","ios":"levelo://app?vid=e35c5785-1951-4916-a3e3-c6c2d741b904"},"vehicle_type_id":"4","last_reported":1745309642,"current_range_meters":19200,"station_id":"ce4bhmp2rcd13ifvqgog","pricing_plan_id":"cebpf4jnsgd1na2vs0mg"},{"bike_id":"d72fd532-1e6c-4b07-a045-8fc071ce191c","system_id":"levelo_inurba_marseille","lat":43.2315,"lon":5.43711,"is_reserved":false,"is_disabled":false,"rental_uris":{"android":"levelo://app?vid=d72fd532-1e6c-4b07-a045-8fc071ce191c","ios":"levelo://app?vid=d72fd532-1e6c-4b07-a045-8fc071ce191c"},"vehicle_type_id":"4","last_reported":1745309642,"current_range_meters":19200,"station_id":"ce4bhmp2rcd13ifvqgog","pricing_plan_id":"cebpf4jnsgd1na2vs0mg"},{"bike_id":"db1a99be-270d-41a8-9b61-d2a09d7cff71","system_id":"levelo_inurba_marseille","lat":43.284724,"lon":5.384226,"is_reserved":false,"is_disabled":false,"rental_uris":{"android":"levelo://app?vid=db1a99be-270d-41a8-9b61-d2a09d7cff71","ios":"levelo://app?vid=db1a99be-270d-41a8-9b61-d2a09d7cff71"},"vehicle_type_id":"4","last_reported":1745309642,"current_range_meters":19200,"station_id":"ce4bh512rcd13ifvqe3g","pricing_plan_id":"cebpf4jnsgd1na2vs0mg"},{"bike_id":"3b8b0bee-2f8a-438c-bf8a-e5f258f2f8a6","system_id":"levelo_inurba_marseille","lat":43.29553,"lon":5.42292,"is_reserved":false,"is_disabled":false,"rental_uris":{"android":"levelo://app?vid=3b8b0bee-2f8a-438c-bf8a-e5f258f2f8a6","ios":"levelo://app?vid=3b8b0bee-2f8a-438c-bf8a-e5f258f2f8a6"},"vehicle_type_id":"4","last_reported":1745309642,"current_range_meters":19600,"station_id":"ce4bhph2rcd13ifvqhdg","pricing_plan_id":"cebpf4jnsgd1na2vs0mg"},{"bike_id":"427f805e-cfba-4025-b510-ca1d8419f957","system_id":"levelo_inurba_marseille","lat":43.314957,"lon":5.37294,"is_reserved":false,"is_disabled":false,"rental_uris":{"android":"levelo://app?vid=427f805e-cfba-4025-b510-ca1d8419f957","ios":"levelo://app?vid=427f805e-cfba-4025-b510-ca1d8419f957"},"vehicle_type_id":"4","last_reported":1745309642,"current_range_meters":19600,"station_id":"ce4bgt12rcd13ifvqcd0","pricing_plan_id":"cebpf4jnsgd1na2vs0mg"},{"bike_id":"bd4b0ad8-e536-4ee6-a0b4-d692b2aed9d5","system_id":"levelo_inurba_marseille","lat":43.29224,"lon":5.36076,"is_reserved":false,"is_disabled":false,"rental_uris":{"android":"levelo://app?vid=bd4b0ad8-e536-4ee6-a0b4-d692b2aed9d5","ios":"levelo://app?vid=bd4b0ad8-e536-4ee6-a0b4-d692b2aed9d5"},"vehicle_type_id":"4","last_reported":1745309642,"current_range_meters":19200,"station_id":"ce4bhbh2rcd13ifvqeqg","pricing_plan_id":"cebpf4jnsgd1na2vs0mg"},{"bike_id":"97d4a06e-d298-4fb1-97e5-37e8b2ec4731","system_id":"levelo_inurba_marseille","lat":43.28411,"lon":5.34973,"is_reserved":false,"is_disabled":false,"rental_uris":{"android":"levelo://app?vid=97d4a06e-d298-4fb1-97e5-37e8b2ec4731","ios":"levelo://app?vid=97d4a06e-d298-4fb1-97e5-37e8b2ec4731"},"vehicle_type_id":"4","last_reported":1745309642,"current_range_meters":19600,"station_id":"ce4bhbh2rcd13ifvqepg","pricing_plan_id":"cebpf4jnsgd1na2vs0mg"},{"bike_id":"4e5fe83b-ed3b-47ee-8cd9-e06e7c95b489","system_id":"levelo_inurba_marseille","lat":43.2804,"lon":5.36942,"is_reserved":false,"is_disabled":false,"rental_uris":{"android":"levelo://app?vid=4e5fe83b-ed3b-47ee-8cd9-e06e7c95b489","ios":"levelo://app?vid=4e5fe83b-ed3b-47ee-8cd9-e06e7c95b489"},"vehicle_type_id":"4","last_reported":1745309642,"current_range_meters":19600,"station_id":"ce4bha12rcd13ifvqef0","pricing_plan_id":"cebpf4jnsgd1na2vs0mg"},{"bike_id":"ef9c97cb-41d7-4536-933b-c5d32818f131","system_id":"levelo_inurba_marseille","lat":43.24808,"lon":5.37456,"is_reserved":false,"is_disabled":false,"rental_uris":{"android":"levelo://app?vid=ef9c97cb-41d7-4536-933b-c5d32818f131","ios":"levelo://app?vid=ef9c97cb-41d7-4536-933b-c5d32818f131"},"vehicle_type_id":"4","last_reported":1745309642,"current_range_meters":19600,"station_id":"ce4bhgh2rcd13ifvqfb0","pricing_plan_id":"cebpf4jnsgd1na2vs0mg"},{"bike_id":"3b823fab-22a8-4c02-9ac2-9d77227daa1a","system_id":"levelo_inurba_marseille","lat":43.2594,"lon":5.40881,"is_reserved":false,"is_disabled":false,"rental_uris":{"android":"levelo://app?vid=3b823fab-22a8-4c02-9ac2-9d77227daa1a","ios":"levelo://app?vid=3b823fab-22a8-4c02-9ac2-9d77227daa1a"},"vehicle_type_id":"4","last_reported":1745309642,"current_range_meters":19600,"station_id":"ce4bhm92rcd13ifvqglg","pricing_plan_id":"cebpf4jnsgd1na2vs0mg"},{"bike_id":"b0f7c99e-9fc5-4cd3-a40b-9030936d2935","system_id":"levelo_inurba_marseille","lat":43.312408,"lon":5.369406,"is_reserved":false,"is_disabled":false,"rental_uris":{"android":"levelo://app?vid=b0f7c99e-9fc5-4cd3-a40b-9030936d2935","ios":"levelo://app?vid=b0f7c99e-9fc5-4cd3-a40b-9030936d2935"},"vehicle_type_id":"4","last_reported":1745309642,"current_range_meters":19600,"station_id":"","pricing_plan_id":"cebpf4jnsgd1na2vs0mg"},{"bike_id":"5292f775-aa53-42a8-a3e0-c63e6f16af9d","system_id":"levelo_inurba_marseille","lat":43.31485,"lon":5.373,"is_reserved":false,"is_disabled":false,"rental_uris":{"android":"levelo://app?vid=5292f775-aa53-42a8-a3e0-c63e6f16af9d","ios":"levelo://app?vid=5292f775-aa53-42a8-a3e0-c63e6f16af9d"},"vehicle_type_id":"4","last_reported":1745309642,"current_range_meters":20000,"station_id":"ce4bgt12rcd13ifvqcd0","pricing_plan_id":"cebpf4jnsgd1na2vs0mg"},{"bike_id":"a382bc37-13a2-49d0-8cb9-9f0b4596bddd","system_id":"levelo_inurba_marseille","lat":43.292635,"lon":5.38431,"is_reserved":false,"is_disabled":false,"rental_uris":{"android":"levelo://app?vid=a382bc37-13a2-49d0-8cb9-9f0b4596bddd","ios":"levelo://app?vid=a382bc37-13a2-49d0-8cb9-9f0b4596bddd"},"vehicle_type_id":"4","last_reported":1745309642,"current_range_meters":20000,"station_id":"ce4bh692rcd13ifvqea0","pricing_plan_id":"cebpf4jnsgd1na2vs0mg"},{"bike_id":"f6652ec5-10c0-4a05-b3af-513570447e80","system_id":"levelo_inurba_marseille","lat":43.29027,"lon":5.38647,"is_reserved":false,"is_disabled":false,"rental_uris":{"android":"levelo://app?vid=f6652ec5-10c0-4a05-b3af-513570447e80","ios":"levelo://app?vid=f6652ec5-10c0-4a05-b3af-513570447e80"},"vehicle_type_id":"4","last_reported":1745309642,"current_range_meters":20000,"station_id":"ce4bh4p2rcd13ifvqe0g","pricing_plan_id":"cebpf4jnsgd1na2vs0mg"},{"bike_id":"b141732b-2352-4556-9388-1706db944f8c","system_id":"levelo_inurba_marseille","lat":43.29371,"lon":5.37834,"is_reserved":false,"is_disabled":false,"rental_uris":{"android":"levelo://app?vid=b141732b-2352-4556-9388-1706db944f8c","ios":"levelo://app?vid=b141732b-2352-4556-9388-1706db944f8c"},"vehicle_type_id":"4","last_reported":1745309642,"current_range_meters":20000,"station_id":"ce4bgjh2rcd13ifvqbf0","pricing_plan_id":"cebpf4jnsgd1na2vs0mg"},{"bike_id":"6f3cc2d5-e1ec-4e33-b221-79513900b667","system_id":"levelo_inurba_marseille","lat":43.30619,"lon":5.36732,"is_reserved":false,"is_disabled":false,"rental_uris":{"android":"levelo://app?vid=6f3cc2d5-e1ec-4e33-b221-79513900b667","ios":"levelo://app?vid=6f3cc2d5-e1ec-4e33-b221-79513900b667"},"vehicle_type_id":"4","last_reported":1745309642,"current_range_meters":20000,"station_id":"ce4bgrp2rcd13ifvqc9g","pricing_plan_id":"cebpf4jnsgd1na2vs0mg"},{"bike_id":"b6c61333-252c-4f7c-a05d-5fd57cd257d2","system_id":"levelo_inurba_marseille","lat":43.28834,"lon":5.39306,"is_reserved":false,"is_disabled":false,"rental_uris":{"android":"levelo://app?vid=b6c61333-252c-4f7c-a05d-5fd57cd257d2","ios":"levelo://app?vid=b6c61333-252c-4f7c-a05d-5fd57cd257d2"},"vehicle_type_id":"4","last_reported":1745309642,"current_range_meters":20000,"station_id":"ce4bh2p2rcd13ifvqdi0","pricing_plan_id":"cebpf4jnsgd1na2vs0mg"},{"bike_id":"1b86126d-8c65-49ae-b089-90304bfc56fd","system_id":"levelo_inurba_marseille","lat":43.2791,"lon":5.39575,"is_reserved":false,"is_disabled":false,"rental_uris":{"android":"levelo://app?vid=1b86126d-8c65-49ae-b089-90304bfc56fd","ios":"levelo://app?vid=1b86126d-8c65-49ae-b089-90304bfc56fd"},"vehicle_type_id":"4","last_reported":1745309642,"current_range_meters":20400,"station_id":"ce4bhf92rcd13ifvqf40","pricing_plan_id":"cebpf4jnsgd1na2vs0mg"},{"bike_id":"43f69d8d-df5e-425e-b41d-bcc37ca62603","system_id":"levelo_inurba_marseille","lat":43.27506,"lon":5.42468,"is_reserved":false,"is_disabled":true,"rental_uris":{"android":"levelo://app?vid=43f69d8d-df5e-425e-b41d-bcc37ca62603","ios":"levelo://app?vid=43f69d8d-df5e-425e-b41d-bcc37ca62603"},"vehicle_type_id":"4","last_reported":1745309642,"current_range_meters":20400,"station_id":"ce4bhn92rcd13ifvqgrg","pricing_plan_id":"cebpf4jnsgd1na2vs0mg"},{"bike_id":"6382d094-23f2-4d1e-9fc5-0b03894a7c4d","system_id":"levelo_inurba_marseille","lat":43.30414,"lon":5.39746,"is_reserved":false,"is_disabled":true,"rental_uris":{"android":"levelo://app?vid=6382d094-23f2-4d1e-9fc5-0b03894a7c4d","ios":"levelo://app?vid=6382d094-23f2-4d1e-9fc5-0b03894a7c4d"},"vehicle_type_id":"4","last_reported":1745309642,"current_range_meters":20400,"station_id":"ce4bh092rcd13ifvqd20","pricing_plan_id":"cebpf4jnsgd1na2vs0mg"},{"bike_id":"20ede925-27e6-407f-8bf5-4c244f8341b4","system_id":"levelo_inurba_marseille","lat":43.24172,"lon":5.36414,"is_reserved":false,"is_disabled":false,"rental_uris":{"android":"levelo://app?vid=20ede925-27e6-407f-8bf5-4c244f8341b4","ios":"levelo://app?vid=20ede925-27e6-407f-8bf5-4c244f8341b4"},"vehicle_type_id":"4","last_reported":1745309642,"current_range_meters":20800,"station_id":"cpo36qri1sfpv3e86is0","pricing_plan_id":"cebpf4jnsgd1na2vs0mg"},{"bike_id":"1784771a-6439-4f63-9d1f-4b07dfa22c24","system_id":"levelo_inurba_marseille","lat":43.26001,"lon":5.393792,"is_reserved":false,"is_disabled":false,"rental_uris":{"android":"levelo://app?vid=1784771a-6439-4f63-9d1f-4b07dfa22c24","ios":"levelo://app?vid=1784771a-6439-4f63-9d1f-4b07dfa22c24"},"vehicle_type_id":"4","last_reported":1745309642,"current_range_meters":20800,"station_id":"ce4bhh92rcd13ifvqfj0","pricing_plan_id":"cebpf4jnsgd1na2vs0mg"},{"bike_id":"b4c9b5b6-5bb9-4046-8859-7fe66099343a","system_id":"levelo_inurba_marseille","lat":43.32529,"lon":5.41441,"is_reserved":false,"is_disabled":false,"rental_uris":{"android":"levelo://app?vid=b4c9b5b6-5bb9-4046-8859-7fe66099343a","ios":"levelo://app?vid=b4c9b5b6-5bb9-4046-8859-7fe66099343a"},"vehicle_type_id":"4","last_reported":1745309642,"current_range_meters":20800,"station_id":"ce4bhq12rcd13ifvqhhg","pricing_plan_id":"cebpf4jnsgd1na2vs0mg"},{"bike_id":"5d6ce0cf-9f03-41a4-849f-504bf29dfe65","system_id":"levelo_inurba_marseille","lat":43.217452,"lon":5.346057,"is_reserved":false,"is_disabled":false,"rental_uris":{"android":"levelo://app?vid=5d6ce0cf-9f03-41a4-849f-504bf29dfe65","ios":"levelo://app?vid=5d6ce0cf-9f03-41a4-849f-504bf29dfe65"},"vehicle_type_id":"4","last_reported":1745309642,"current_range_meters":20800,"station_id":"","pricing_plan_id":"cebpf4jnsgd1na2vs0mg"},{"bike_id":"6aaf1c7e-acf8-4915-aa13-ba679f2935d4","system_id":"levelo_inurba_marseille","lat":43.24083,"lon":5.37743,"is_reserved":false,"is_disabled":false,"rental_uris":{"android":"levelo://app?vid=6aaf1c7e-acf8-4915-aa13-ba679f2935d4","ios":"levelo://app?vid=6aaf1c7e-acf8-4915-aa13-ba679f2935d4"},"vehicle_type_id":"4","last_reported":1745309642,"current_range_meters":20800,"station_id":"ce4bhnp2rcd13ifvqgvg","pricing_plan_id":"cebpf4jnsgd1na2vs0mg"},{"bike_id":"e18867e9-b560-4572-acfb-39ccb30f19d4","system_id":"levelo_inurba_marseille","lat":43.31362,"lon":5.38487,"is_reserved":false,"is_disabled":false,"rental_uris":{"android":"levelo://app?vid=e18867e9-b560-4572-acfb-39ccb30f19d4","ios":"levelo://app?vid=e18867e9-b560-4572-acfb-39ccb30f19d4"},"vehicle_type_id":"4","last_reported":1745309642,"current_range_meters":20800,"station_id":"ce4bgt92rcd13ifvqcf0","pricing_plan_id":"cebpf4jnsgd1na2vs0mg"},{"bike_id":"3ea5e673-9ef4-4de7-8435-403cba4dc51e","system_id":"levelo_inurba_marseille","lat":43.29979,"lon":5.3718,"is_reserved":false,"is_disabled":false,"rental_uris":{"android":"levelo://app?vid=3ea5e673-9ef4-4de7-8435-403cba4dc51e","ios":"levelo://app?vid=3ea5e673-9ef4-4de7-8435-403cba4dc51e"},"vehicle_type_id":"4","last_reported":1745309642,"current_range_meters":20800,"station_id":"ce4bgr92rcd13ifvqc7g","pricing_plan_id":"cebpf4jnsgd1na2vs0mg"},{"bike_id":"5710ae20-d914-4c2e-880b-c042da09cd54","system_id":"levelo_inurba_marseille","lat":43.31346,"lon":5.36727,"is_reserved":false,"is_disabled":false,"rental_uris":{"android":"levelo://app?vid=5710ae20-d914-4c2e-880b-c042da09cd54","ios":"levelo://app?vid=5710ae20-d914-4c2e-880b-c042da09cd54"},"vehicle_type_id":"4","last_reported":1745309642,"current_range_meters":20800,"station_id":"ce4bgr92rcd13ifvqc6g","pricing_plan_id":"cebpf4jnsgd1na2vs0mg"},{"bike_id":"2b59a03b-8bdf-4a5c-a1d2-9dea24219ead","system_id":"levelo_inurba_marseille","lat":43.259335,"lon":5.40903,"is_reserved":false,"is_disabled":true,"rental_uris":{"android":"levelo://app?vid=2b59a03b-8bdf-4a5c-a1d2-9dea24219ead","ios":"levelo://app?vid=2b59a03b-8bdf-4a5c-a1d2-9dea24219ead"},"vehicle_type_id":"4","last_reported":1745309642,"current_range_meters":20800,"station_id":"ce4bhm92rcd13ifvqglg","pricing_plan_id":"cebpf4jnsgd1na2vs0mg"},{"bike_id":"46374c49-3adc-4c5a-8966-e00f056c0d57","system_id":"levelo_inurba_marseille","lat":43.27846,"lon":5.35442,"is_reserved":false,"is_disabled":false,"rental_uris":{"android":"levelo://app?vid=46374c49-3adc-4c5a-8966-e00f056c0d57","ios":"levelo://app?vid=46374c49-3adc-4c5a-8966-e00f056c0d57"},"vehicle_type_id":"4","last_reported":1745309642,"current_range_meters":21600,"station_id":"","pricing_plan_id":"cebpf4jnsgd1na2vs0mg"},{"bike_id":"6385a227-2d49-4c08-9011-e5cc35a52cb8","system_id":"levelo_inurba_marseille","lat":43.29624,"lon":5.37162,"is_reserved":false,"is_disabled":false,"rental_uris":{"android":"levelo://app?vid=6385a227-2d49-4c08-9011-e5cc35a52cb8","ios":"levelo://app?vid=6385a227-2d49-4c08-9011-e5cc35a52cb8"},"vehicle_type_id":"4","last_reported":1745309642,"current_range_meters":20800,"station_id":"ce4bgnh2rcd13ifvqc0g","pricing_plan_id":"cebpf4jnsgd1na2vs0mg"},{"bike_id":"e7a535f8-ed78-40de-8cdc-f8a1d2d90b31","system_id":"levelo_inurba_marseille","lat":43.24807,"lon":5.37461,"is_reserved":false,"is_disabled":true,"rental_uris":{"android":"levelo://app?vid=e7a535f8-ed78-40de-8cdc-f8a1d2d90b31","ios":"levelo://app?vid=e7a535f8-ed78-40de-8cdc-f8a1d2d90b31"},"vehicle_type_id":"4","last_reported":1745309642,"current_range_meters":21600,"station_id":"ce4bhgh2rcd13ifvqfb0","pricing_plan_id":"cebpf4jnsgd1na2vs0mg"},{"bike_id":"1b7a8bfb-c292-4b8c-9b9a-6f723c7d2347","system_id":"levelo_inurba_marseille","lat":43.27503,"lon":5.42457,"is_reserved":false,"is_disabled":false,"rental_uris":{"android":"levelo://app?vid=1b7a8bfb-c292-4b8c-9b9a-6f723c7d2347","ios":"levelo://app?vid=1b7a8bfb-c292-4b8c-9b9a-6f723c7d2347"},"vehicle_type_id":"4","last_reported":1745309642,"current_range_meters":22000,"station_id":"ce4bhn92rcd13ifvqgrg","pricing_plan_id":"cebpf4jnsgd1na2vs0mg"},{"bike_id":"b5d609bf-0c9b-49e3-9426-ce02cb8383b8","system_id":"levelo_inurba_marseille","lat":43.34181,"lon":5.40949,"is_reserved":false,"is_disabled":true,"rental_uris":{"android":"levelo://app?vid=b5d609bf-0c9b-49e3-9426-ce02cb8383b8","ios":"levelo://app?vid=b5d609bf-0c9b-49e3-9426-ce02cb8383b8"},"vehicle_type_id":"4","last_reported":1745309642,"current_range_meters":22000,"station_id":"ce4bhqh2rcd13ifvqhlg","pricing_plan_id":"cebpf4jnsgd1na2vs0mg"},{"bike_id":"b6765041-4316-4033-85c8-3f340c1596d9","system_id":"levelo_inurba_marseille","lat":43.29055,"lon":5.39949,"is_reserved":false,"is_disabled":false,"rental_uris":{"android":"levelo://app?vid=b6765041-4316-4033-85c8-3f340c1596d9","ios":"levelo://app?vid=b6765041-4316-4033-85c8-3f340c1596d9"},"vehicle_type_id":"4","last_reported":1745309642,"current_range_meters":22000,"station_id":"ce4bh392rcd13ifvqdm0","pricing_plan_id":"cebpf4jnsgd1na2vs0mg"},{"bike_id":"9f732c84-5b1e-438e-b9c2-4347d35d7fb0","system_id":"levelo_inurba_marseille","lat":43.29513,"lon":5.39048,"is_reserved":false,"is_disabled":false,"rental_uris":{"android":"levelo://app?vid=9f732c84-5b1e-438e-b9c2-4347d35d7fb0","ios":"levelo://app?vid=9f732c84-5b1e-438e-b9c2-4347d35d7fb0"},"vehicle_type_id":"4","last_reported":1745309642,"current_range_meters":22000,"station_id":"ce4bh3p2rcd13ifvqdp0","pricing_plan_id":"cebpf4jnsgd1na2vs0mg"},{"bike_id":"904b0a72-c5d4-4b8c-8d39-6c80519f6fdc","system_id":"levelo_inurba_marseille","lat":43.28839,"lon":5.39304,"is_reserved":false,"is_disabled":false,"rental_uris":{"android":"levelo://app?vid=904b0a72-c5d4-4b8c-8d39-6c80519f6fdc","ios":"levelo://app?vid=904b0a72-c5d4-4b8c-8d39-6c80519f6fdc"},"vehicle_type_id":"4","last_reported":1745309642,"current_range_meters":21600,"station_id":"ce4bh2p2rcd13ifvqdi0","pricing_plan_id":"cebpf4jnsgd1na2vs0mg"},{"bike_id":"0db7ac0d-23d6-49e8-9453-fcdfbae7e6a5","system_id":"levelo_inurba_marseille","lat":43.24649,"lon":5.38892,"is_reserved":false,"is_disabled":false,"rental_uris":{"android":"levelo://app?vid=0db7ac0d-23d6-49e8-9453-fcdfbae7e6a5","ios":"levelo://app?vid=0db7ac0d-23d6-49e8-9453-fcdfbae7e6a5"},"vehicle_type_id":"4","last_reported":1745309642,"current_range_meters":22000,"station_id":"ce4bhg12rcd13ifvqf60","pricing_plan_id":"cebpf4jnsgd1na2vs0mg"},{"bike_id":"06e0bcc9-ed28-4c26-a6e9-2713c37e868b","system_id":"levelo_inurba_marseille","lat":43.25922,"lon":5.40861,"is_reserved":false,"is_disabled":false,"rental_uris":{"android":"levelo://app?vid=06e0bcc9-ed28-4c26-a6e9-2713c37e868b","ios":"levelo://app?vid=06e0bcc9-ed28-4c26-a6e9-2713c37e868b"},"vehicle_type_id":"4","last_reported":1745309642,"current_range_meters":22000,"station_id":"ce4bhm92rcd13ifvqglg","pricing_plan_id":"cebpf4jnsgd1na2vs0mg"},{"bike_id":"a24f16c7-0749-45d9-9cc7-dc26dac3c5c1","system_id":"levelo_inurba_marseille","lat":43.33586,"lon":5.40978,"is_reserved":false,"is_disabled":false,"rental_uris":{"android":"levelo://app?vid=a24f16c7-0749-45d9-9cc7-dc26dac3c5c1","ios":"levelo://app?vid=a24f16c7-0749-45d9-9cc7-dc26dac3c5c1"},"vehicle_type_id":"4","last_reported":1745309642,"current_range_meters":22000,"station_id":"ce4bhqh2rcd13ifvqhmg","pricing_plan_id":"cebpf4jnsgd1na2vs0mg"},{"bike_id":"72230011-10be-4bc5-b812-e255d2e856f3","system_id":"levelo_inurba_marseille","lat":43.27369,"lon":5.36255,"is_reserved":false,"is_disabled":false,"rental_uris":{"android":"levelo://app?vid=72230011-10be-4bc5-b812-e255d2e856f3","ios":"levelo://app?vid=72230011-10be-4bc5-b812-e255d2e856f3"},"vehicle_type_id":"4","last_reported":1745309642,"current_range_meters":22400,"station_id":"","pricing_plan_id":"cebpf4jnsgd1na2vs0mg"},{"bike_id":"e29fec81-e8b2-48ac-afe8-cf4e3508d749","system_id":"levelo_inurba_marseille","lat":43.29552,"lon":5.3998,"is_reserved":false,"is_disabled":false,"rental_uris":{"android":"levelo://app?vid=e29fec81-e8b2-48ac-afe8-cf4e3508d749","ios":"levelo://app?vid=e29fec81-e8b2-48ac-afe8-cf4e3508d749"},"vehicle_type_id":"4","last_reported":1745309642,"current_range_meters":22000,"station_id":"ce4bh312rcd13ifvqdj0","pricing_plan_id":"cebpf4jnsgd1na2vs0mg"},{"bike_id":"75400e05-e26d-4767-833b-29124dc8f1b8","system_id":"levelo_inurba_marseille","lat":43.2749,"lon":5.42446,"is_reserved":false,"is_disabled":false,"rental_uris":{"android":"levelo://app?vid=75400e05-e26d-4767-833b-29124dc8f1b8","ios":"levelo://app?vid=75400e05-e26d-4767-833b-29124dc8f1b8"},"vehicle_type_id":"4","last_reported":1745309642,"current_range_meters":22400,"station_id":"ce4bhn92rcd13ifvqgrg","pricing_plan_id":"cebpf4jnsgd1na2vs0mg"},{"bike_id":"be9e6c03-8166-4327-947f-183fcc7cebf1","system_id":"levelo_inurba_marseille","lat":43.231807,"lon":5.399849,"is_reserved":false,"is_disabled":false,"rental_uris":{"android":"levelo://app?vid=be9e6c03-8166-4327-947f-183fcc7cebf1","ios":"levelo://app?vid=be9e6c03-8166-4327-947f-183fcc7cebf1"},"vehicle_type_id":"4","last_reported":1745309642,"current_range_meters":22400,"station_id":"ce4bhn12rcd13ifvqgqg","pricing_plan_id":"cebpf4jnsgd1na2vs0mg"},{"bike_id":"fa29dfd6-13db-44df-ba49-cf732146b122","system_id":"levelo_inurba_marseille","lat":43.30541,"lon":5.3653,"is_reserved":false,"is_disabled":false,"rental_uris":{"android":"levelo://app?vid=fa29dfd6-13db-44df-ba49-cf732146b122","ios":"levelo://app?vid=fa29dfd6-13db-44df-ba49-cf732146b122"},"vehicle_type_id":"4","last_reported":1745309642,"current_range_meters":22400,"station_id":"ce4bgs12rcd13ifvqcag","pricing_plan_id":"cebpf4jnsgd1na2vs0mg"},{"bike_id":"97a1af6b-b232-4c2f-9e7b-6a58940921ce","system_id":"levelo_inurba_marseille","lat":43.275,"lon":5.42467,"is_reserved":false,"is_disabled":false,"rental_uris":{"android":"levelo://app?vid=97a1af6b-b232-4c2f-9e7b-6a58940921ce","ios":"levelo://app?vid=97a1af6b-b232-4c2f-9e7b-6a58940921ce"},"vehicle_type_id":"4","last_reported":1745309642,"current_range_meters":22400,"station_id":"ce4bhn92rcd13ifvqgrg","pricing_plan_id":"cebpf4jnsgd1na2vs0mg"},{"bike_id":"f9d6e2e6-9be0-49a5-bbdb-abfa59585624","system_id":"levelo_inurba_marseille","lat":43.27526,"lon":5.42462,"is_reserved":false,"is_disabled":false,"rental_uris":{"android":"levelo://app?vid=f9d6e2e6-9be0-49a5-bbdb-abfa59585624","ios":"levelo://app?vid=f9d6e2e6-9be0-49a5-bbdb-abfa59585624"},"vehicle_type_id":"4","last_reported":1745309642,"current_range_meters":22400,"station_id":"ce4bhn92rcd13ifvqgrg","pricing_plan_id":"cebpf4jnsgd1na2vs0mg"},{"bike_id":"0c449902-68c7-4277-b163-d9de83486881","system_id":"levelo_inurba_marseille","lat":43.29024,"lon":5.3864,"is_reserved":false,"is_disabled":false,"rental_uris":{"android":"levelo://app?vid=0c449902-68c7-4277-b163-d9de83486881","ios":"levelo://app?vid=0c449902-68c7-4277-b163-d9de83486881"},"vehicle_type_id":"4","last_reported":1745309642,"current_range_meters":22400,"station_id":"ce4bh4p2rcd13ifvqe0g","pricing_plan_id":"cebpf4jnsgd1na2vs0mg"},{"bike_id":"cc640db6-7206-4936-bb79-e499f2d7a5d5","system_id":"levelo_inurba_marseille","lat":43.29801,"lon":5.38081,"is_reserved":false,"is_disabled":false,"rental_uris":{"android":"levelo://app?vid=cc640db6-7206-4936-bb79-e499f2d7a5d5","ios":"levelo://app?vid=cc640db6-7206-4936-bb79-e499f2d7a5d5"},"vehicle_type_id":"4","last_reported":1745309642,"current_range_meters":22400,"station_id":"ce4bgip2rcd13ifvqbb0","pricing_plan_id":"cebpf4jnsgd1na2vs0mg"},{"bike_id":"5630f52d-0448-4fa0-94dd-5eaa69c05d03","system_id":"levelo_inurba_marseille","lat":43.27044,"lon":5.42271,"is_reserved":false,"is_disabled":false,"rental_uris":{"android":"levelo://app?vid=5630f52d-0448-4fa0-94dd-5eaa69c05d03","ios":"levelo://app?vid=5630f52d-0448-4fa0-94dd-5eaa69c05d03"},"vehicle_type_id":"4","last_reported":1745309642,"current_range_meters":22800,"station_id":"ce4bhk92rcd13ifvqgb0","pricing_plan_id":"cebpf4jnsgd1na2vs0mg"},{"bike_id":"34d2c59c-0396-4e7e-a7f7-dec50229f609","system_id":"levelo_inurba_marseille","lat":43.29799,"lon":5.38126,"is_reserved":false,"is_disabled":false,"rental_uris":{"android":"levelo://app?vid=34d2c59c-0396-4e7e-a7f7-dec50229f609","ios":"levelo://app?vid=34d2c59c-0396-4e7e-a7f7-dec50229f609"},"vehicle_type_id":"4","last_reported":1745309642,"current_range_meters":22800,"station_id":"ce4bgip2rcd13ifvqbb0","pricing_plan_id":"cebpf4jnsgd1na2vs0mg"},{"bike_id":"36c078e8-06ee-4b6f-a720-e2b8d5b2efaf","system_id":"levelo_inurba_marseille","lat":43.29277,"lon":5.36843,"is_reserved":false,"is_disabled":true,"rental_uris":{"android":"levelo://app?vid=36c078e8-06ee-4b6f-a720-e2b8d5b2efaf","ios":"levelo://app?vid=36c078e8-06ee-4b6f-a720-e2b8d5b2efaf"},"vehicle_type_id":"4","last_reported":1745309642,"current_range_meters":22800,"station_id":"ce4bhbp2rcd13ifvqesg","pricing_plan_id":"cebpf4jnsgd1na2vs0mg"},{"bike_id":"b4a8f4f9-a4f8-402e-a3aa-075c45da72e5","system_id":"levelo_inurba_marseille","lat":43.26566,"lon":5.39001,"is_reserved":false,"is_disabled":false,"rental_uris":{"android":"levelo://app?vid=b4a8f4f9-a4f8-402e-a3aa-075c45da72e5","ios":"levelo://app?vid=b4a8f4f9-a4f8-402e-a3aa-075c45da72e5"},"vehicle_type_id":"4","last_reported":1745309642,"current_range_meters":22800,"station_id":"ce4bhe12rcd13ifvqf30","pricing_plan_id":"cebpf4jnsgd1na2vs0mg"},{"bike_id":"725a3f47-b6fd-403b-9c72-3171b609395a","system_id":"levelo_inurba_marseille","lat":43.26936,"lon":5.40259,"is_reserved":false,"is_disabled":false,"rental_uris":{"android":"levelo://app?vid=725a3f47-b6fd-403b-9c72-3171b609395a","ios":"levelo://app?vid=725a3f47-b6fd-403b-9c72-3171b609395a"},"vehicle_type_id":"4","last_reported":1745309642,"current_range_meters":22800,"station_id":"cjm6bp8fraef2m0cb0m0","pricing_plan_id":"cebpf4jnsgd1na2vs0mg"},{"bike_id":"fe761fd9-d781-4e61-a550-ed5c9fffae85","system_id":"levelo_inurba_marseille","lat":43.2797,"lon":5.38748,"is_reserved":false,"is_disabled":false,"rental_uris":{"android":"levelo://app?vid=fe761fd9-d781-4e61-a550-ed5c9fffae85","ios":"levelo://app?vid=fe761fd9-d781-4e61-a550-ed5c9fffae85"},"vehicle_type_id":"4","last_reported":1745309642,"current_range_meters":23200,"station_id":"ce4bhg12rcd13ifvqf80","pricing_plan_id":"cebpf4jnsgd1na2vs0mg"},{"bike_id":"c6e022e1-e997-4893-922a-f03624fea0ba","system_id":"levelo_inurba_marseille","lat":43.29565,"lon":5.382345,"is_reserved":false,"is_disabled":false,"rental_uris":{"android":"levelo://app?vid=c6e022e1-e997-4893-922a-f03624fea0ba","ios":"levelo://app?vid=c6e022e1-e997-4893-922a-f03624fea0ba"},"vehicle_type_id":"4","last_reported":1745309642,"current_range_meters":23200,"station_id":"ce4bha92rcd13ifvqeg0","pricing_plan_id":"cebpf4jnsgd1na2vs0mg"},{"bike_id":"9181a354-49fa-45e3-b5c1-b7dca6746d38","system_id":"levelo_inurba_marseille","lat":43.25929,"lon":5.40868,"is_reserved":false,"is_disabled":false,"rental_uris":{"android":"levelo://app?vid=9181a354-49fa-45e3-b5c1-b7dca6746d38","ios":"levelo://app?vid=9181a354-49fa-45e3-b5c1-b7dca6746d38"},"vehicle_type_id":"4","last_reported":1745309642,"current_range_meters":23200,"station_id":"ce4bhm92rcd13ifvqglg","pricing_plan_id":"cebpf4jnsgd1na2vs0mg"},{"bike_id":"74f8a141-9d34-4dce-9416-bcc73538203a","system_id":"levelo_inurba_marseille","lat":43.32483,"lon":5.36565,"is_reserved":false,"is_disabled":false,"rental_uris":{"android":"levelo://app?vid=74f8a141-9d34-4dce-9416-bcc73538203a","ios":"levelo://app?vid=74f8a141-9d34-4dce-9416-bcc73538203a"},"vehicle_type_id":"4","last_reported":1745309642,"current_range_meters":23200,"station_id":"ce4bhs12rcd13ifvqhvg","pricing_plan_id":"cebpf4jnsgd1na2vs0mg"},{"bike_id":"3d7a9f3c-3192-437d-b408-4635533c6ad3","system_id":"levelo_inurba_marseille","lat":43.28464,"lon":5.39208,"is_reserved":false,"is_disabled":false,"rental_uris":{"android":"levelo://app?vid=3d7a9f3c-3192-437d-b408-4635533c6ad3","ios":"levelo://app?vid=3d7a9f3c-3192-437d-b408-4635533c6ad3"},"vehicle_type_id":"4","last_reported":1745309642,"current_range_meters":22800,"station_id":"ce4bhoh2rcd13ifvqh5g","pricing_plan_id":"cebpf4jnsgd1na2vs0mg"},{"bike_id":"03a96841-7565-4621-906d-8c41b776a9f9","system_id":"levelo_inurba_marseille","lat":43.29797,"lon":5.40393,"is_reserved":false,"is_disabled":false,"rental_uris":{"android":"levelo://app?vid=03a96841-7565-4621-906d-8c41b776a9f9","ios":"levelo://app?vid=03a96841-7565-4621-906d-8c41b776a9f9"},