{"last_updated":1750166754,"ttl":60,"version":"2.2","data":{"bikes":[{"bike_id":"3da29fb8-fc97-44c6-b9ac-31dd456b2fd4","system_id":"levelo_inurba_marseille","lat":43.33771,"lon":5.37424,"is_reserved":false,"is_disabled":true,"rental_uris":{"android":"levelo://app?vid=3da29fb8-fc97-44c6-b9ac-31dd456b2fd4","ios":"levelo://app?vid=3da29fb8-fc97-44c6-b9ac-31dd456b2fd4"},"vehicle_type_id":"4","last_reported":1750166754,"current_range_meters":0,"station_id":"","pricing_plan_id":"cebpf4jnsgd1na2vs0mg"},{"bike_id":"01861ad8-a8d7-4be6-816e-651927c87584","system_id":"levelo_inurba_marseille","lat":43.33751,"lon":5.37456,"is_reserved":false,"is_disabled":true,"rental_uris":{"android":"levelo://app?vid=01861ad8-a8d7-4be6-816e-651927c87584","ios":"levelo://app?vid=01861ad8-a8d7-4be6-816e-651927c87584"},"vehicle_type_id":"4","last_reported":1750166754,"current_range_meters":0,"station_id":"","pricing_plan_id":"cebpf4jnsgd1na2vs0mg"},{"bike_id":"b81ba2bd-624d-43c3-b702-6c0cdad38ab2","system_id":"levelo_inurba_marseille","lat":43.31076,"lon":5.39271,"is_reserved":false,"is_disabled":true,"rental_uris":{"android":"levelo://app?vid=b81ba2bd-624d-43c3-b702-6c0cdad38ab2","ios":"levelo://app?vid=b81ba2bd-624d-43c3-b702-6c0cdad38ab2"},"vehicle_type_id":"4","last_reported":1750166754,"current_range_meters":0,"station_id":"","pricing_plan_id":"cebpf4jnsgd1na2vs0mg"},{"bike_id":"d2bd57c8-6b64-48db-ad24-5398eb3fd9d6","system_id":"levelo_inurba_marseille","lat":43.337444,"lon":5.374475,"is_reserved":false,"is_disabled":true,"rental_uris":{"android":"levelo://app?vid=d2bd57c8-6b64-48db-ad24-5398eb3fd9d6","ios":"levelo://app?vid=d2bd57c8-6b64-48db-ad24-5398eb3fd9d6"},"vehicle_type_id":"4","last_reported":1750166754,"current_range_meters":0,"station_id":"","pricing_plan_id":"cebpf4jnsgd1na2vs0mg"},{"bike_id":"62a493c7-4534-4419-ad43-0582de34a72a","system_id":"levelo_inurba_marseille","lat":43.21366,"lon":5.355183,"is_reserved":false,"is_disabled":true,"rental_uris":{"android":"levelo://app?vid=62a493c7-4534-4419-ad43-0582de34a72a","ios":"levelo://app?vid=62a493c7-4534-4419-ad43-0582de34a72a"},"vehicle_type_id":"4","last_reported":1750166754,"current_range_meters":0,"station_id":"","pricing_plan_id":"cebpf4jnsgd1na2vs0mg"},{"bike_id":"16ff64da-77bb-4f5a-9681-d4bb414fe829","system_id":"levelo_inurba_marseille","lat":43.23149,"lon":5.43759,"is_reserved":false,"is_disabled":true,"rental_uris":{"android":"levelo://app?vid=16ff64da-77bb-4f5a-9681-d4bb414fe829","ios":"levelo://app?vid=16ff64da-77bb-4f5a-9681-d4bb414fe829"},"vehicle_type_id":"4","last_reported":1750166754,"current_range_meters":0,"station_id":"","pricing_plan_id":"cebpf4jnsgd1na2vs0mg"},{"bike_id":"93af304b-67b5-47b8-a3fd-e0775f7cde8c","system_id":"levelo_inurba_marseille","lat":43.21539,"lon":5.34756,"is_reserved":false,"is_disabled":true,"rental_uris":{"android":"levelo://app?vid=93af304b-67b5-47b8-a3fd-e0775f7cde8c","ios":"levelo://app?vid=93af304b-67b5-47b8-a3fd-e0775f7cde8c"},"vehicle_type_id":"4","last_reported":1750166754,"current_range_meters":0,"station_id":"","pricing_plan_id":"cebpf4jnsgd1na2vs0mg"},{"bike_id":"d6609b4f-333b-43c1-9ebe-8726f5e76e88","system_id":"levelo_inurba_marseille","lat":43.337444,"lon":5.374475,"is_reserved":false,"is_disabled":true,"rental_uris":{"android":"levelo://app?vid=d6609b4f-333b-43c1-9ebe-8726f5e76e88","ios":"levelo://app?vid=d6609b4f-333b-43c1-9ebe-8726f5e76e88"},"vehicle_type_id":"4","last_reported":1750166754,"current_range_meters":0,"station_id":"","pricing_plan_id":"cebpf4jnsgd1na2vs0mg"},{"bike_id":"57c83ce1-960e-466a-b6c5-d93bc130c53a","system_id":"levelo_inurba_marseille","lat":43.248953,"lon":5.389487,"is_reserved":false,"is_disabled":true,"rental_uris":{"android":"levelo://app?vid=57c83ce1-960e-466a-b6c5-d93bc130c53a","ios":"levelo://app?vid=57c83ce1-960e-466a-b6c5-d93bc130c53a"},"vehicle_type_id":"4","last_reported":1750166754,"current_range_meters":0,"station_id":"","pricing_plan_id":"cebpf4jnsgd1na2vs0mg"},{"bike_id":"6d25d62b-066d-4dda-9876-2eb9c7d39a68","system_id":"levelo_inurba_marseille","lat":43.26127,"lon":5.39364,"is_reserved":false,"is_disabled":true,"rental_uris":{"android":"levelo://app?vid=6d25d62b-066d-4dda-9876-2eb9c7d39a68","ios":"levelo://app?vid=6d25d62b-066d-4dda-9876-2eb9c7d39a68"},"vehicle_type_id":"4","last_reported":1750166754,"current_range_meters":0,"station_id":"","pricing_plan_id":"cebpf4jnsgd1na2vs0mg"},{"bike_id":"73fd97e7-5a47-4fd9-95d7-ebb5b687bc21","system_id":"levelo_inurba_marseille","lat":43.28354,"lon":5.3864,"is_reserved":false,"is_disabled":true,"rental_uris":{"android":"levelo://app?vid=73fd97e7-5a47-4fd9-95d7-ebb5b687bc21","ios":"levelo://app?vid=73fd97e7-5a47-4fd9-95d7-ebb5b687bc21"},"vehicle_type_id":"4","last_reported":1750166754,"current_range_meters":0,"station_id":"ce4bh492rcd13ifvqdvg","pricing_plan_id":"cebpf4jnsgd1na2vs0mg"},{"bike_id":"aac0fc11-191e-42ff-91e6-143cca72b34b","system_id":"levelo_inurba_marseille","lat":43.23179,"lon":5.35591,"is_reserved":false,"is_disabled":true,"rental_uris":{"android":"levelo://app?vid=aac0fc11-191e-42ff-91e6-143cca72b34b","ios":"levelo://app?vid=aac0fc11-191e-42ff-91e6-143cca72b34b"},"vehicle_type_id":"4","last_reported":1750166754,"current_range_meters":400,"station_id":"ce4bhu92rcd13ifvqi70","pricing_plan_id":"cebpf4jnsgd1na2vs0mg"},{"bike_id":"dbfce7a3-3423-4296-b193-a177dea644ac","system_id":"levelo_inurba_marseille","lat":43.27279,"lon":5.41611,"is_reserved":false,"is_disabled":true,"rental_uris":{"android":"levelo://app?vid=dbfce7a3-3423-4296-b193-a177dea644ac","ios":"levelo://app?vid=dbfce7a3-3423-4296-b193-a177dea644ac"},"vehicle_type_id":"4","last_reported":1750166754,"current_range_meters":800,"station_id":"","pricing_plan_id":"cebpf4jnsgd1na2vs0mg"},{"bike_id":"bd6fb4c7-bf38-44cb-90ff-dbf5e23b146e","system_id":"levelo_inurba_marseille","lat":43.29039,"lon":5.39959,"is_reserved":false,"is_disabled":true,"rental_uris":{"android":"levelo://app?vid=bd6fb4c7-bf38-44cb-90ff-dbf5e23b146e","ios":"levelo://app?vid=bd6fb4c7-bf38-44cb-90ff-dbf5e23b146e"},"vehicle_type_id":"4","last_reported":1750166754,"current_range_meters":800,"station_id":"ce4bh392rcd13ifvqdm0","pricing_plan_id":"cebpf4jnsgd1na2vs0mg"},{"bike_id":"fea55674-c2ee-468f-8384-ec15a076e63d","system_id":"levelo_inurba_marseille","lat":43.28856,"lon":5.35842,"is_reserved":false,"is_disabled":true,"rental_uris":{"android":"levelo://app?vid=fea55674-c2ee-468f-8384-ec15a076e63d","ios":"levelo://app?vid=fea55674-c2ee-468f-8384-ec15a076e63d"},"vehicle_type_id":"4","last_reported":1750166754,"current_range_meters":800,"station_id":"ce4bhb12rcd13ifvqem0","pricing_plan_id":"cebpf4jnsgd1na2vs0mg"},{"bike_id":"6d3cd767-d2a3-45cd-9394-19d39262360d","system_id":"levelo_inurba_marseille","lat":43.25107,"lon":5.40325,"is_reserved":false,"is_disabled":true,"rental_uris":{"android":"levelo://app?vid=6d3cd767-d2a3-45cd-9394-19d39262360d","ios":"levelo://app?vid=6d3cd767-d2a3-45cd-9394-19d39262360d"},"vehicle_type_id":"4","last_reported":1750166754,"current_range_meters":800,"station_id":"ce4bhlh2rcd13ifvqgig","pricing_plan_id":"cebpf4jnsgd1na2vs0mg"},{"bike_id":"2561b5be-5324-47ea-9b68-bc83800f2407","system_id":"levelo_inurba_marseille","lat":43.23178,"lon":5.43737,"is_reserved":false,"is_disabled":true,"rental_uris":{"android":"levelo://app?vid=2561b5be-5324-47ea-9b68-bc83800f2407","ios":"levelo://app?vid=2561b5be-5324-47ea-9b68-bc83800f2407"},"vehicle_type_id":"4","last_reported":1750166754,"current_range_meters":1200,"station_id":"ce4bhmp2rcd13ifvqgog","pricing_plan_id":"cebpf4jnsgd1na2vs0mg"},{"bike_id":"96dd46f9-423e-4ec4-bd23-285933fee203","system_id":"levelo_inurba_marseille","lat":43.2938,"lon":5.3786,"is_reserved":false,"is_disabled":true,"rental_uris":{"android":"levelo://app?vid=96dd46f9-423e-4ec4-bd23-285933fee203","ios":"levelo://app?vid=96dd46f9-423e-4ec4-bd23-285933fee203"},"vehicle_type_id":"4","last_reported":1750166754,"current_range_meters":1600,"station_id":"ce4bgjh2rcd13ifvqbf0","pricing_plan_id":"cebpf4jnsgd1na2vs0mg"},{"bike_id":"e8208d99-eaa0-49f3-8388-e7f040bc9af7","system_id":"levelo_inurba_marseille","lat":43.30892,"lon":5.39653,"is_reserved":false,"is_disabled":true,"rental_uris":{"android":"levelo://app?vid=e8208d99-eaa0-49f3-8388-e7f040bc9af7","ios":"levelo://app?vid=e8208d99-eaa0-49f3-8388-e7f040bc9af7"},"vehicle_type_id":"4","last_reported":1750166754,"current_range_meters":1600,"station_id":"ce4bh012rcd13ifvqcv0","pricing_plan_id":"cebpf4jnsgd1na2vs0mg"},{"bike_id":"b9e37238-9abe-4b8b-b932-edaee33a7e59","system_id":"levelo_inurba_marseille","lat":43.2747,"lon":5.39004,"is_reserved":false,"is_disabled":true,"rental_uris":{"android":"levelo://app?vid=b9e37238-9abe-4b8b-b932-edaee33a7e59","ios":"levelo://app?vid=b9e37238-9abe-4b8b-b932-edaee33a7e59"},"vehicle_type_id":"4","last_reported":1750166754,"current_range_meters":2000,"station_id":"","pricing_plan_id":"cebpf4jnsgd1na2vs0mg"},{"bike_id":"4c4e7923-c3c3-4e5e-9c62-086ca35686da","system_id":"levelo_inurba_marseille","lat":43.29527,"lon":5.38555,"is_reserved":false,"is_disabled":false,"rental_uris":{"android":"levelo://app?vid=4c4e7923-c3c3-4e5e-9c62-086ca35686da","ios":"levelo://app?vid=4c4e7923-c3c3-4e5e-9c62-086ca35686da"},"vehicle_type_id":"4","last_reported":1750166754,"current_range_meters":2000,"station_id":"ce4bgih2rcd13ifvqba0","pricing_plan_id":"cebpf4jnsgd1na2vs0mg"},{"bike_id":"f011ad0d-6563-427c-b322-b8b1a27ac442","system_id":"levelo_inurba_marseille","lat":43.2954,"lon":5.39403,"is_reserved":false,"is_disabled":true,"rental_uris":{"android":"levelo://app?vid=f011ad0d-6563-427c-b322-b8b1a27ac442","ios":"levelo://app?vid=f011ad0d-6563-427c-b322-b8b1a27ac442"},"vehicle_type_id":"4","last_reported":1750166754,"current_range_meters":2000,"station_id":"ce4bh292rcd13ifvqdf0","pricing_plan_id":"cebpf4jnsgd1na2vs0mg"},{"bike_id":"e17ebbf2-4d39-46dd-bedc-53221d949c26","system_id":"levelo_inurba_marseille","lat":43.2693,"lon":5.38918,"is_reserved":false,"is_disabled":false,"rental_uris":{"android":"levelo://app?vid=e17ebbf2-4d39-46dd-bedc-53221d949c26","ios":"levelo://app?vid=e17ebbf2-4d39-46dd-bedc-53221d949c26"},"vehicle_type_id":"4","last_reported":1750166754,"current_range_meters":2000,"station_id":"ce4bhhh2rcd13ifvqfl0","pricing_plan_id":"cebpf4jnsgd1na2vs0mg"},{"bike_id":"75dad30d-a80e-463a-b94f-58c375560c1f","system_id":"levelo_inurba_marseille","lat":43.24085,"lon":5.37772,"is_reserved":false,"is_disabled":true,"rental_uris":{"android":"levelo://app?vid=75dad30d-a80e-463a-b94f-58c375560c1f","ios":"levelo://app?vid=75dad30d-a80e-463a-b94f-58c375560c1f"},"vehicle_type_id":"4","last_reported":1750166754,"current_range_meters":2000,"station_id":"ce4bhnp2rcd13ifvqgvg","pricing_plan_id":"cebpf4jnsgd1na2vs0mg"},{"bike_id":"a885d2c7-8471-4bf8-867e-a8021f6b5178","system_id":"levelo_inurba_marseille","lat":43.28034,"lon":5.36937,"is_reserved":false,"is_disabled":false,"rental_uris":{"android":"levelo://app?vid=a885d2c7-8471-4bf8-867e-a8021f6b5178","ios":"levelo://app?vid=a885d2c7-8471-4bf8-867e-a8021f6b5178"},"vehicle_type_id":"4","last_reported":1750166754,"current_range_meters":3200,"station_id":"ce4bha12rcd13ifvqef0","pricing_plan_id":"cebpf4jnsgd1na2vs0mg"},{"bike_id":"9e04d4a1-cbac-4d91-aa65-6e476ad819d4","system_id":"levelo_inurba_marseille","lat":43.28859,"lon":5.35857,"is_reserved":false,"is_disabled":false,"rental_uris":{"android":"levelo://app?vid=9e04d4a1-cbac-4d91-aa65-6e476ad819d4","ios":"levelo://app?vid=9e04d4a1-cbac-4d91-aa65-6e476ad819d4"},"vehicle_type_id":"4","last_reported":1750166754,"current_range_meters":3200,"station_id":"ce4bhb12rcd13ifvqem0","pricing_plan_id":"cebpf4jnsgd1na2vs0mg"},{"bike_id":"e5b08a61-9029-423a-87d9-602d65ebeb23","system_id":"levelo_inurba_marseille","lat":43.32369,"lon":5.38889,"is_reserved":false,"is_disabled":false,"rental_uris":{"android":"levelo://app?vid=e5b08a61-9029-423a-87d9-602d65ebeb23","ios":"levelo://app?vid=e5b08a61-9029-423a-87d9-602d65ebeb23"},"vehicle_type_id":"4","last_reported":1750166754,"current_range_meters":3200,"station_id":"ce4bhqp2rcd13ifvqhog","pricing_plan_id":"cebpf4jnsgd1na2vs0mg"},{"bike_id":"8d297b38-f666-4a46-9dee-0132f800019c","system_id":"levelo_inurba_marseille","lat":43.32209,"lon":5.38647,"is_reserved":false,"is_disabled":false,"rental_uris":{"android":"levelo://app?vid=8d297b38-f666-4a46-9dee-0132f800019c","ios":"levelo://app?vid=8d297b38-f666-4a46-9dee-0132f800019c"},"vehicle_type_id":"4","last_reported":1750166754,"current_range_meters":3600,"station_id":"","pricing_plan_id":"cebpf4jnsgd1na2vs0mg"},{"bike_id":"186a9269-6eb4-40e4-aa01-e44453bc6f48","system_id":"levelo_inurba_marseille","lat":43.3019,"lon":5.36635,"is_reserved":false,"is_disabled":false,"rental_uris":{"android":"levelo://app?vid=186a9269-6eb4-40e4-aa01-e44453bc6f48","ios":"levelo://app?vid=186a9269-6eb4-40e4-aa01-e44453bc6f48"},"vehicle_type_id":"4","last_reported":1750166754,"current_range_meters":3600,"station_id":"ce4bgrh2rcd13ifvqc8g","pricing_plan_id":"cebpf4jnsgd1na2vs0mg"},{"bike_id":"37685d7c-2700-4146-adc9-257d10f34b81","system_id":"levelo_inurba_marseille","lat":43.24076,"lon":5.37741,"is_reserved":false,"is_disabled":false,"rental_uris":{"android":"levelo://app?vid=37685d7c-2700-4146-adc9-257d10f34b81","ios":"levelo://app?vid=37685d7c-2700-4146-adc9-257d10f34b81"},"vehicle_type_id":"4","last_reported":1750166754,"current_range_meters":3600,"station_id":"ce4bhnp2rcd13ifvqgvg","pricing_plan_id":"cebpf4jnsgd1na2vs0mg"},{"bike_id":"69af7404-5ec1-4810-9e8f-2b24aa559381","system_id":"levelo_inurba_marseille","lat":43.29344,"lon":5.3838,"is_reserved":false,"is_disabled":false,"rental_uris":{"android":"levelo://app?vid=69af7404-5ec1-4810-9e8f-2b24aa559381","ios":"levelo://app?vid=69af7404-5ec1-4810-9e8f-2b24aa559381"},"vehicle_type_id":"4","last_reported":1750166754,"current_range_meters":4400,"station_id":"","pricing_plan_id":"cebpf4jnsgd1na2vs0mg"},{"bike_id":"37ae53ad-087e-4c40-892b-8b52c67a901f","system_id":"levelo_inurba_marseille","lat":43.31078,"lon":5.38343,"is_reserved":false,"is_disabled":false,"rental_uris":{"android":"levelo://app?vid=37ae53ad-087e-4c40-892b-8b52c67a901f","ios":"levelo://app?vid=37ae53ad-087e-4c40-892b-8b52c67a901f"},"vehicle_type_id":"4","last_reported":1750166754,"current_range_meters":4400,"station_id":"ce4bgv92rcd13ifvqcr0","pricing_plan_id":"cebpf4jnsgd1na2vs0mg"},{"bike_id":"361a0bd2-b608-4d45-b730-cd3e6a50e4a4","system_id":"levelo_inurba_marseille","lat":43.28932,"lon":5.36635,"is_reserved":false,"is_disabled":false,"rental_uris":{"android":"levelo://app?vid=361a0bd2-b608-4d45-b730-cd3e6a50e4a4","ios":"levelo://app?vid=361a0bd2-b608-4d45-b730-cd3e6a50e4a4"},"vehicle_type_id":"4","last_reported":1750166754,"current_range_meters":4400,"station_id":"ce4bhap2rcd13ifvqek0","pricing_plan_id":"cebpf4jnsgd1na2vs0mg"},{"bike_id":"7e146663-dce5-461a-9f94-5daf76a911ca","system_id":"levelo_inurba_marseille","lat":43.282636,"lon":5.350644,"is_reserved":false,"is_disabled":false,"rental_uris":{"android":"levelo://app?vid=7e146663-dce5-461a-9f94-5daf76a911ca","ios":"levelo://app?vid=7e146663-dce5-461a-9f94-5daf76a911ca"},"vehicle_type_id":"4","last_reported":1750166754,"current_range_meters":4400,"station_id":"ce4bhbp2rcd13ifvqerg","pricing_plan_id":"cebpf4jnsgd1na2vs0mg"},{"bike_id":"8b63a877-de15-43a9-9e81-7a9816da9fcf","system_id":"levelo_inurba_marseille","lat":43.29314,"lon":5.37175,"is_reserved":false,"is_disabled":false,"rental_uris":{"android":"levelo://app?vid=8b63a877-de15-43a9-9e81-7a9816da9fcf","ios":"levelo://app?vid=8b63a877-de15-43a9-9e81-7a9816da9fcf"},"vehicle_type_id":"4","last_reported":1750166754,"current_range_meters":4800,"station_id":"ce4bgh92rcd13ifvqb40","pricing_plan_id":"cebpf4jnsgd1na2vs0mg"},{"bike_id":"1838e0f7-51ae-4358-9148-eecc106adb45","system_id":"levelo_inurba_marseille","lat":43.29564,"lon":5.37529,"is_reserved":false,"is_disabled":false,"rental_uris":{"android":"levelo://app?vid=1838e0f7-51ae-4358-9148-eecc106adb45","ios":"levelo://app?vid=1838e0f7-51ae-4358-9148-eecc106adb45"},"vehicle_type_id":"4","last_reported":1750166754,"current_range_meters":4800,"station_id":"ce4bgh92rcd13ifvqb50","pricing_plan_id":"cebpf4jnsgd1na2vs0mg"},{"bike_id":"cc954312-3bfa-408c-a68b-e78ee5999a19","system_id":"levelo_inurba_marseille","lat":43.217403,"lon":5.345974,"is_reserved":false,"is_disabled":false,"rental_uris":{"android":"levelo://app?vid=cc954312-3bfa-408c-a68b-e78ee5999a19","ios":"levelo://app?vid=cc954312-3bfa-408c-a68b-e78ee5999a19"},"vehicle_type_id":"4","last_reported":1750166754,"current_range_meters":4800,"station_id":"ce4bgup2rcd13ifvqco0","pricing_plan_id":"cebpf4jnsgd1na2vs0mg"},{"bike_id":"c03c3b97-f680-4f6a-a7cf-8f8918b04de7","system_id":"levelo_inurba_marseille","lat":43.31056,"lon":5.38346,"is_reserved":false,"is_disabled":false,"rental_uris":{"android":"levelo://app?vid=c03c3b97-f680-4f6a-a7cf-8f8918b04de7","ios":"levelo://app?vid=c03c3b97-f680-4f6a-a7cf-8f8918b04de7"},"vehicle_type_id":"4","last_reported":1750166754,"current_range_meters":4800,"station_id":"ce4bgv92rcd13ifvqcr0","pricing_plan_id":"cebpf4jnsgd1na2vs0mg"},{"bike_id":"fe3af8f1-f663-4272-ab3a-ec40b2968017","system_id":"levelo_inurba_marseille","lat":43.28944,"lon":5.36638,"is_reserved":false,"is_disabled":false,"rental_uris":{"android":"levelo://app?vid=fe3af8f1-f663-4272-ab3a-ec40b2968017","ios":"levelo://app?vid=fe3af8f1-f663-4272-ab3a-ec40b2968017"},"vehicle_type_id":"4","last_reported":1750166754,"current_range_meters":4800,"station_id":"ce4bhap2rcd13ifvqek0","pricing_plan_id":"cebpf4jnsgd1na2vs0mg"},{"bike_id":"7b60ab4e-8780-4fbb-b5f1-5ef288a37cbd","system_id":"levelo_inurba_marseille","lat":43.27372,"lon":5.36255,"is_reserved":false,"is_disabled":false,"rental_uris":{"android":"levelo://app?vid=7b60ab4e-8780-4fbb-b5f1-5ef288a37cbd","ios":"levelo://app?vid=7b60ab4e-8780-4fbb-b5f1-5ef288a37cbd"},"vehicle_type_id":"4","last_reported":1750166754,"current_range_meters":4800,"station_id":"ce4bhbh2rcd13ifvqeo0","pricing_plan_id":"cebpf4jnsgd1na2vs0mg"},{"bike_id":"1e938209-a928-465d-a694-144b7f768390","system_id":"levelo_inurba_marseille","lat":43.27811,"lon":5.40708,"is_reserved":false,"is_disabled":false,"rental_uris":{"android":"levelo://app?vid=1e938209-a928-465d-a694-144b7f768390","ios":"levelo://app?vid=1e938209-a928-465d-a694-144b7f768390"},"vehicle_type_id":"4","last_reported":1750166754,"current_range_meters":4800,"station_id":"ce4bhnh2rcd13ifvqgtg","pricing_plan_id":"cebpf4jnsgd1na2vs0mg"},{"bike_id":"298dd2d4-ccac-4c0b-b27d-38b9dd7b527a","system_id":"levelo_inurba_marseille","lat":43.30785,"lon":5.38153,"is_reserved":false,"is_disabled":false,"rental_uris":{"android":"levelo://app?vid=298dd2d4-ccac-4c0b-b27d-38b9dd7b527a","ios":"levelo://app?vid=298dd2d4-ccac-4c0b-b27d-38b9dd7b527a"},"vehicle_type_id":"4","last_reported":1750166754,"current_range_meters":5600,"station_id":"ce4bgt12rcd13ifvqce0","pricing_plan_id":"cebpf4jnsgd1na2vs0mg"},{"bike_id":"b4f2f63c-3172-46ea-bc0e-3b4c6491007d","system_id":"levelo_inurba_marseille","lat":43.29271,"lon":5.38436,"is_reserved":false,"is_disabled":false,"rental_uris":{"android":"levelo://app?vid=b4f2f63c-3172-46ea-bc0e-3b4c6491007d","ios":"levelo://app?vid=b4f2f63c-3172-46ea-bc0e-3b4c6491007d"},"vehicle_type_id":"4","last_reported":1750166754,"current_range_meters":5600,"station_id":"ce4bh692rcd13ifvqea0","pricing_plan_id":"cebpf4jnsgd1na2vs0mg"},{"bike_id":"b56f6be0-17e5-4132-9013-9bba34ea7944","system_id":"levelo_inurba_marseille","lat":43.28418,"lon":5.34974,"is_reserved":false,"is_disabled":false,"rental_uris":{"android":"levelo://app?vid=b56f6be0-17e5-4132-9013-9bba34ea7944","ios":"levelo://app?vid=b56f6be0-17e5-4132-9013-9bba34ea7944"},"vehicle_type_id":"4","last_reported":1750166754,"current_range_meters":5600,"station_id":"ce4bhbh2rcd13ifvqepg","pricing_plan_id":"cebpf4jnsgd1na2vs0mg"},{"bike_id":"dcb87a9a-18f8-41c6-9134-949f31e21b42","system_id":"levelo_inurba_marseille","lat":43.27002,"lon":5.39983,"is_reserved":false,"is_disabled":false,"rental_uris":{"android":"levelo://app?vid=dcb87a9a-18f8-41c6-9134-949f31e21b42","ios":"levelo://app?vid=dcb87a9a-18f8-41c6-9134-949f31e21b42"},"vehicle_type_id":"4","last_reported":1750166754,"current_range_meters":6000,"station_id":"","pricing_plan_id":"cebpf4jnsgd1na2vs0mg"},{"bike_id":"b4b25978-fc1a-44a3-9817-31b65a9f0ddc","system_id":"levelo_inurba_marseille","lat":43.26503,"lon":5.39561,"is_reserved":false,"is_disabled":false,"rental_uris":{"android":"levelo://app?vid=b4b25978-fc1a-44a3-9817-31b65a9f0ddc","ios":"levelo://app?vid=b4b25978-fc1a-44a3-9817-31b65a9f0ddc"},"vehicle_type_id":"4","last_reported":1750166754,"current_range_meters":6400,"station_id":"ce4bhi12rcd13ifvqfq0","pricing_plan_id":"cebpf4jnsgd1na2vs0mg"},{"bike_id":"b94ad41f-3cd1-4a81-9863-922080040a44","system_id":"levelo_inurba_marseille","lat":43.22518,"lon":5.34809,"is_reserved":false,"is_disabled":false,"rental_uris":{"android":"levelo://app?vid=b94ad41f-3cd1-4a81-9863-922080040a44","ios":"levelo://app?vid=b94ad41f-3cd1-4a81-9863-922080040a44"},"vehicle_type_id":"4","last_reported":1750166754,"current_range_meters":6800,"station_id":"","pricing_plan_id":"cebpf4jnsgd1na2vs0mg"},{"bike_id":"26aa89e5-4320-44f5-a74a-4f70d672cae2","system_id":"levelo_inurba_marseille","lat":43.29571,"lon":5.37535,"is_reserved":false,"is_disabled":false,"rental_uris":{"android":"levelo://app?vid=26aa89e5-4320-44f5-a74a-4f70d672cae2","ios":"levelo://app?vid=26aa89e5-4320-44f5-a74a-4f70d672cae2"},"vehicle_type_id":"4","last_reported":1750166754,"current_range_meters":6800,"station_id":"ce4bgh92rcd13ifvqb50","pricing_plan_id":"cebpf4jnsgd1na2vs0mg"},{"bike_id":"9a5cc7a8-b0f1-420d-9d83-3deea26aa91b","system_id":"levelo_inurba_marseille","lat":43.29006,"lon":5.38122,"is_reserved":false,"is_disabled":false,"rental_uris":{"android":"levelo://app?vid=9a5cc7a8-b0f1-420d-9d83-3deea26aa91b","ios":"levelo://app?vid=9a5cc7a8-b0f1-420d-9d83-3deea26aa91b"},"vehicle_type_id":"4","last_reported":1750166754,"current_range_meters":6800,"station_id":"ce4bh4p2rcd13ifvqe1g","pricing_plan_id":"cebpf4jnsgd1na2vs0mg"},{"bike_id":"0163dfcf-cf17-4f5b-99a4-35a41c7244d1","system_id":"levelo_inurba_marseille","lat":43.24805,"lon":5.37458,"is_reserved":false,"is_disabled":false,"rental_uris":{"android":"levelo://app?vid=0163dfcf-cf17-4f5b-99a4-35a41c7244d1","ios":"levelo://app?vid=0163dfcf-cf17-4f5b-99a4-35a41c7244d1"},"vehicle_type_id":"4","last_reported":1750166754,"current_range_meters":6800,"station_id":"ce4bhgh2rcd13ifvqfb0","pricing_plan_id":"cebpf4jnsgd1na2vs0mg"},{"bike_id":"b519ae5b-0b89-4515-8c33-7df77434803f","system_id":"levelo_inurba_marseille","lat":43.23152,"lon":5.43722,"is_reserved":false,"is_disabled":false,"rental_uris":{"android":"levelo://app?vid=b519ae5b-0b89-4515-8c33-7df77434803f","ios":"levelo://app?vid=b519ae5b-0b89-4515-8c33-7df77434803f"},"vehicle_type_id":"4","last_reported":1750166754,"current_range_meters":6800,"station_id":"ce4bhmp2rcd13ifvqgog","pricing_plan_id":"cebpf4jnsgd1na2vs0mg"},{"bike_id":"396e4c9c-946e-4824-8bab-5fbd6d2dd704","system_id":"levelo_inurba_marseille","lat":43.30967,"lon":5.39059,"is_reserved":false,"is_disabled":false,"rental_uris":{"android":"levelo://app?vid=396e4c9c-946e-4824-8bab-5fbd6d2dd704","ios":"levelo://app?vid=396e4c9c-946e-4824-8bab-5fbd6d2dd704"},"vehicle_type_id":"4","last_reported":1750166754,"current_range_meters":7200,"station_id":"ce4bgup2rcd13ifvqco0","pricing_plan_id":"cebpf4jnsgd1na2vs0mg"},{"bike_id":"e29d0b83-9727-4c52-ab1f-436b5db7843c","system_id":"levelo_inurba_marseille","lat":43.30306,"lon":5.40444,"is_reserved":false,"is_disabled":false,"rental_uris":{"android":"levelo://app?vid=e29d0b83-9727-4c52-ab1f-436b5db7843c","ios":"levelo://app?vid=e29d0b83-9727-4c52-ab1f-436b5db7843c"},"vehicle_type_id":"4","last_reported":1750166754,"current_range_meters":7200,"station_id":"ce4bh012rcd13ifvqd10","pricing_plan_id":"cebpf4jnsgd1na2vs0mg"},{"bike_id":"fc22c538-d796-4b9e-9539-738ec38eb9f0","system_id":"levelo_inurba_marseille","lat":43.29208,"lon":5.39322,"is_reserved":false,"is_disabled":false,"rental_uris":{"android":"levelo://app?vid=fc22c538-d796-4b9e-9539-738ec38eb9f0","ios":"levelo://app?vid=fc22c538-d796-4b9e-9539-738ec38eb9f0"},"vehicle_type_id":"4","last_reported":1750166754,"current_range_meters":7200,"station_id":"ce4bh192rcd13ifvqdd0","pricing_plan_id":"cebpf4jnsgd1na2vs0mg"},{"bike_id":"e81f5f20-bd7f-4e33-a133-d32c270f1228","system_id":"levelo_inurba_marseille","lat":43.28937,"lon":5.36641,"is_reserved":false,"is_disabled":false,"rental_uris":{"android":"levelo://app?vid=e81f5f20-bd7f-4e33-a133-d32c270f1228","ios":"levelo://app?vid=e81f5f20-bd7f-4e33-a133-d32c270f1228"},"vehicle_type_id":"4","last_reported":1750166754,"current_range_meters":7200,"station_id":"ce4bhap2rcd13ifvqek0","pricing_plan_id":"cebpf4jnsgd1na2vs0mg"},{"bike_id":"412512db-2e27-49c3-b0be-aec2036ca6b0","system_id":"levelo_inurba_marseille","lat":43.291969,"lon":5.358008,"is_reserved":false,"is_disabled":false,"rental_uris":{"android":"levelo://app?vid=412512db-2e27-49c3-b0be-aec2036ca6b0","ios":"levelo://app?vid=412512db-2e27-49c3-b0be-aec2036ca6b0"},"vehicle_type_id":"4","last_reported":1750166754,"current_range_meters":7200,"station_id":"ce4bhb12rcd13ifvqel0","pricing_plan_id":"cebpf4jnsgd1na2vs0mg"},{"bike_id":"ee996a5b-7af2-4689-bf66-c6ef45af994d","system_id":"levelo_inurba_marseille","lat":43.288613,"lon":5.3585,"is_reserved":false,"is_disabled":false,"rental_uris":{"android":"levelo://app?vid=ee996a5b-7af2-4689-bf66-c6ef45af994d","ios":"levelo://app?vid=ee996a5b-7af2-4689-bf66-c6ef45af994d"},"vehicle_type_id":"4","last_reported":1750166754,"current_range_meters":7200,"station_id":"ce4bhb12rcd13ifvqem0","pricing_plan_id":"cebpf4jnsgd1na2vs0mg"},{"bike_id":"782c1d29-9253-4b37-ab73-90a8dca0e58d","system_id":"levelo_inurba_marseille","lat":43.27373,"lon":5.36261,"is_reserved":false,"is_disabled":false,"rental_uris":{"android":"levelo://app?vid=782c1d29-9253-4b37-ab73-90a8dca0e58d","ios":"levelo://app?vid=782c1d29-9253-4b37-ab73-90a8dca0e58d"},"vehicle_type_id":"4","last_reported":1750166754,"current_range_meters":7200,"station_id":"ce4bhbh2rcd13ifvqeo0","pricing_plan_id":"cebpf4jnsgd1na2vs0mg"},{"bike_id":"79432cbf-5422-4aa4-9f64-8751bfa25c39","system_id":"levelo_inurba_marseille","lat":43.31075,"lon":5.38361,"is_reserved":false,"is_disabled":false,"rental_uris":{"android":"levelo://app?vid=79432cbf-5422-4aa4-9f64-8751bfa25c39","ios":"levelo://app?vid=79432cbf-5422-4aa4-9f64-8751bfa25c39"},"vehicle_type_id":"4","last_reported":1750166754,"current_range_meters":8000,"station_id":"ce4bgv92rcd13ifvqcr0","pricing_plan_id":"cebpf4jnsgd1na2vs0mg"},{"bike_id":"7e19f0d7-a5fd-4fb5-a406-f4c7f5e0ac8a","system_id":"levelo_inurba_marseille","lat":43.295491,"lon":5.397932,"is_reserved":false,"is_disabled":false,"rental_uris":{"android":"levelo://app?vid=7e19f0d7-a5fd-4fb5-a406-f4c7f5e0ac8a","ios":"levelo://app?vid=7e19f0d7-a5fd-4fb5-a406-f4c7f5e0ac8a"},"vehicle_type_id":"4","last_reported":1750166754,"current_range_meters":8000,"station_id":"ce4bh3h2rcd13ifvqdo0","pricing_plan_id":"cebpf4jnsgd1na2vs0mg"},{"bike_id":"e144f1ac-c236-4904-9497-d062668c777e","system_id":"levelo_inurba_marseille","lat":43.286621,"lon":5.363419,"is_reserved":false,"is_disabled":false,"rental_uris":{"android":"levelo://app?vid=e144f1ac-c236-4904-9497-d062668c777e","ios":"levelo://app?vid=e144f1ac-c236-4904-9497-d062668c777e"},"vehicle_type_id":"4","last_reported":1750166754,"current_range_meters":8000,"station_id":"ce4bhah2rcd13ifvqej0","pricing_plan_id":"cebpf4jnsgd1na2vs0mg"},{"bike_id":"58da91b3-3d7f-426d-aa4c-997ab0da1b6e","system_id":"levelo_inurba_marseille","lat":43.28264,"lon":5.35084,"is_reserved":false,"is_disabled":false,"rental_uris":{"android":"levelo://app?vid=58da91b3-3d7f-426d-aa4c-997ab0da1b6e","ios":"levelo://app?vid=58da91b3-3d7f-426d-aa4c-997ab0da1b6e"},"vehicle_type_id":"4","last_reported":1750166754,"current_range_meters":8000,"station_id":"ce4bhbp2rcd13ifvqerg","pricing_plan_id":"cebpf4jnsgd1na2vs0mg"},{"bike_id":"52f443ac-a8fd-4eb1-8f0e-571f0071a52c","system_id":"levelo_inurba_marseille","lat":43.282672,"lon":5.350608,"is_reserved":false,"is_disabled":false,"rental_uris":{"android":"levelo://app?vid=52f443ac-a8fd-4eb1-8f0e-571f0071a52c","ios":"levelo://app?vid=52f443ac-a8fd-4eb1-8f0e-571f0071a52c"},"vehicle_type_id":"4","last_reported":1750166754,"current_range_meters":8000,"station_id":"ce4bhbp2rcd13ifvqerg","pricing_plan_id":"cebpf4jnsgd1na2vs0mg"},{"bike_id":"ba527b9c-acdd-4831-a5ea-42c971aa0888","system_id":"levelo_inurba_marseille","lat":43.26033,"lon":5.37569,"is_reserved":false,"is_disabled":false,"rental_uris":{"android":"levelo://app?vid=ba527b9c-acdd-4831-a5ea-42c971aa0888","ios":"levelo://app?vid=ba527b9c-acdd-4831-a5ea-42c971aa0888"},"vehicle_type_id":"4","last_reported":1750166754,"current_range_meters":8000,"station_id":"ce4bhgh2rcd13ifvqfa0","pricing_plan_id":"cebpf4jnsgd1na2vs0mg"},{"bike_id":"6afc644c-08c3-42de-8619-3f94e2ba41cd","system_id":"levelo_inurba_marseille","lat":43.29895,"lon":5.43669,"is_reserved":false,"is_disabled":false,"rental_uris":{"android":"levelo://app?vid=6afc644c-08c3-42de-8619-3f94e2ba41cd","ios":"levelo://app?vid=6afc644c-08c3-42de-8619-3f94e2ba41cd"},"vehicle_type_id":"4","last_reported":1750166754,"current_range_meters":8000,"station_id":"ce4bhpp2rcd13ifvqhfg","pricing_plan_id":"cebpf4jnsgd1na2vs0mg"},{"bike_id":"032feac8-f566-4924-b0a9-49cf829f8ba6","system_id":"levelo_inurba_marseille","lat":43.31062,"lon":5.3835,"is_reserved":false,"is_disabled":false,"rental_uris":{"android":"levelo://app?vid=032feac8-f566-4924-b0a9-49cf829f8ba6","ios":"levelo://app?vid=032feac8-f566-4924-b0a9-49cf829f8ba6"},"vehicle_type_id":"4","last_reported":1750166754,"current_range_meters":8400,"station_id":"ce4bgv92rcd13ifvqcr0","pricing_plan_id":"cebpf4jnsgd1na2vs0mg"},{"bike_id":"237486e5-444b-418c-ae5a-1043be82455b","system_id":"levelo_inurba_marseille","lat":43.24382,"lon":5.37053,"is_reserved":false,"is_disabled":false,"rental_uris":{"android":"levelo://app?vid=237486e5-444b-418c-ae5a-1043be82455b","ios":"levelo://app?vid=237486e5-444b-418c-ae5a-1043be82455b"},"vehicle_type_id":"4","last_reported":1750166754,"current_range_meters":8400,"station_id":"ce4bhhh2rcd13ifvqfk0","pricing_plan_id":"cebpf4jnsgd1na2vs0mg"},{"bike_id":"9aaadade-2bc8-41de-ac54-abb2883cca27","system_id":"levelo_inurba_marseille","lat":43.290409,"lon":5.399572,"is_reserved":false,"is_disabled":false,"rental_uris":{"android":"levelo://app?vid=9aaadade-2bc8-41de-ac54-abb2883cca27","ios":"levelo://app?vid=9aaadade-2bc8-41de-ac54-abb2883cca27"},"vehicle_type_id":"4","last_reported":1750166754,"current_range_meters":8800,"station_id":"ce4bh392rcd13ifvqdm0","pricing_plan_id":"cebpf4jnsgd1na2vs0mg"},{"bike_id":"da3e1724-606c-4f9a-9130-d56dd48e22e0","system_id":"levelo_inurba_marseille","lat":43.32961,"lon":5.40609,"is_reserved":false,"is_disabled":false,"rental_uris":{"android":"levelo://app?vid=da3e1724-606c-4f9a-9130-d56dd48e22e0","ios":"levelo://app?vid=da3e1724-606c-4f9a-9130-d56dd48e22e0"},"vehicle_type_id":"4","last_reported":1750166754,"current_range_meters":9200,"station_id":"","pricing_plan_id":"cebpf4jnsgd1na2vs0mg"},{"bike_id":"b86dff87-b6e8-4a22-b120-c506c0a6289f","system_id":"levelo_inurba_marseille","lat":43.22508,"lon":5.3479,"is_reserved":false,"is_disabled":false,"rental_uris":{"android":"levelo://app?vid=b86dff87-b6e8-4a22-b120-c506c0a6289f","ios":"levelo://app?vid=b86dff87-b6e8-4a22-b120-c506c0a6289f"},"vehicle_type_id":"4","last_reported":1750166754,"current_range_meters":9200,"station_id":"","pricing_plan_id":"cebpf4jnsgd1na2vs0mg"},{"bike_id":"64c6d212-acc6-47e3-9e04-fbaf04a7ed4e","system_id":"levelo_inurba_marseille","lat":43.27006,"lon":5.38791,"is_reserved":false,"is_disabled":false,"rental_uris":{"android":"levelo://app?vid=64c6d212-acc6-47e3-9e04-fbaf04a7ed4e","ios":"levelo://app?vid=64c6d212-acc6-47e3-9e04-fbaf04a7ed4e"},"vehicle_type_id":"4","last_reported":1750166754,"current_range_meters":9200,"station_id":"","pricing_plan_id":"cebpf4jnsgd1na2vs0mg"},{"bike_id":"2f8457c6-be62-4c79-80c4-b834ece15758","system_id":"levelo_inurba_marseille","lat":43.30418,"lon":5.41292,"is_reserved":false,"is_disabled":false,"rental_uris":{"android":"levelo://app?vid=2f8457c6-be62-4c79-80c4-b834ece15758","ios":"levelo://app?vid=2f8457c6-be62-4c79-80c4-b834ece15758"},"vehicle_type_id":"4","last_reported":1750166754,"current_range_meters":9200,"station_id":"ce4bhop2rcd13ifvqh8g","pricing_plan_id":"cebpf4jnsgd1na2vs0mg"},{"bike_id":"495ed5a6-10f8-4ae0-9798-3eec6b4ecf2c","system_id":"levelo_inurba_marseille","lat":43.26236,"lon":5.39326,"is_reserved":false,"is_disabled":false,"rental_uris":{"android":"levelo://app?vid=495ed5a6-10f8-4ae0-9798-3eec6b4ecf2c","ios":"levelo://app?vid=495ed5a6-10f8-4ae0-9798-3eec6b4ecf2c"},"vehicle_type_id":"4","last_reported":1750166754,"current_range_meters":9600,"station_id":"","pricing_plan_id":"cebpf4jnsgd1na2vs0mg"},{"bike_id":"356258c8-0ad6-493b-b5a4-77e865070f65","system_id":"levelo_inurba_marseille","lat":43.32602,"lon":5.42011,"is_reserved":false,"is_disabled":false,"rental_uris":{"android":"levelo://app?vid=356258c8-0ad6-493b-b5a4-77e865070f65","ios":"levelo://app?vid=356258c8-0ad6-493b-b5a4-77e865070f65"},"vehicle_type_id":"4","last_reported":1750166754,"current_range_meters":9600,"station_id":"","pricing_plan_id":"cebpf4jnsgd1na2vs0mg"},{"bike_id":"a6848296-16d5-44dd-ad8e-03a5a141ae33","system_id":"levelo_inurba_marseille","lat":43.28977,"lon":5.37829,"is_reserved":false,"is_disabled":false,"rental_uris":{"android":"levelo://app?vid=a6848296-16d5-44dd-ad8e-03a5a141ae33","ios":"levelo://app?vid=a6848296-16d5-44dd-ad8e-03a5a141ae33"},"vehicle_type_id":"4","last_reported":1750166754,"current_range_meters":9600,"station_id":"ce4bh9p2rcd13ifvqed0","pricing_plan_id":"cebpf4jnsgd1na2vs0mg"},{"bike_id":"db5b0368-46db-4347-b457-a5eb62e1e97d","system_id":"levelo_inurba_marseille","lat":43.30312,"lon":5.36908,"is_reserved":false,"is_disabled":false,"rental_uris":{"android":"levelo://app?vid=db5b0368-46db-4347-b457-a5eb62e1e97d","ios":"levelo://app?vid=db5b0368-46db-4347-b457-a5eb62e1e97d"},"vehicle_type_id":"4","last_reported":1750166754,"current_range_meters":10000,"station_id":"ce4bgqh2rcd13ifvqc5g","pricing_plan_id":"cebpf4jnsgd1na2vs0mg"},{"bike_id":"7db2dafb-5c52-41eb-95fb-ee667194c9d2","system_id":"levelo_inurba_marseille","lat":43.309598,"lon":5.390689,"is_reserved":false,"is_disabled":false,"rental_uris":{"android":"levelo://app?vid=7db2dafb-5c52-41eb-95fb-ee667194c9d2","ios":"levelo://app?vid=7db2dafb-5c52-41eb-95fb-ee667194c9d2"},"vehicle_type_id":"4","last_reported":1750166754,"current_range_meters":10000,"station_id":"ce4bgup2rcd13ifvqco0","pricing_plan_id":"cebpf4jnsgd1na2vs0mg"},{"bike_id":"cda6d52c-65ad-44d3-947b-fde68995222b","system_id":"levelo_inurba_marseille","lat":43.28875,"lon":5.35866,"is_reserved":false,"is_disabled":false,"rental_uris":{"android":"levelo://app?vid=cda6d52c-65ad-44d3-947b-fde68995222b","ios":"levelo://app?vid=cda6d52c-65ad-44d3-947b-fde68995222b"},"vehicle_type_id":"4","last_reported":1750166754,"current_range_meters":10000,"station_id":"ce4bhb12rcd13ifvqem0","pricing_plan_id":"cebpf4jnsgd1na2vs0mg"},{"bike_id":"467e5a22-f604-479b-b06f-e5e66a93a582","system_id":"levelo_inurba_marseille","lat":43.24168,"lon":5.36397,"is_reserved":false,"is_disabled":false,"rental_uris":{"android":"levelo://app?vid=467e5a22-f604-479b-b06f-e5e66a93a582","ios":"levelo://app?vid=467e5a22-f604-479b-b06f-e5e66a93a582"},"vehicle_type_id":"4","last_reported":1750166754,"current_range_meters":10000,"station_id":"cpo36qri1sfpv3e86is0","pricing_plan_id":"cebpf4jnsgd1na2vs0mg"},{"bike_id":"25960fd9-8509-4555-9b23-fa4fae1e21d0","system_id":"levelo_inurba_marseille","lat":43.29039,"lon":5.38224,"is_reserved":false,"is_disabled":false,"rental_uris":{"android":"levelo://app?vid=25960fd9-8509-4555-9b23-fa4fae1e21d0","ios":"levelo://app?vid=25960fd9-8509-4555-9b23-fa4fae1e21d0"},"vehicle_type_id":"4","last_reported":1750166754,"current_range_meters":10800,"station_id":"","pricing_plan_id":"cebpf4jnsgd1na2vs0mg"},{"bike_id":"4b3d76b3-a593-49ca-881a-b9f510ce40dc","system_id":"levelo_inurba_marseille","lat":43.31231,"lon":5.36868,"is_reserved":false,"is_disabled":false,"rental_uris":{"android":"levelo://app?vid=4b3d76b3-a593-49ca-881a-b9f510ce40dc","ios":"levelo://app?vid=4b3d76b3-a593-49ca-881a-b9f510ce40dc"},"vehicle_type_id":"4","last_reported":1750166754,"current_range_meters":10800,"station_id":"ce4bgl92rcd13ifvqbq0","pricing_plan_id":"cebpf4jnsgd1na2vs0mg"},{"bike_id":"77a9a812-731c-4a1a-807e-660c31f7fec1","system_id":"levelo_inurba_marseille","lat":43.30869,"lon":5.3719,"is_reserved":false,"is_disabled":false,"rental_uris":{"android":"levelo://app?vid=77a9a812-731c-4a1a-807e-660c31f7fec1","ios":"levelo://app?vid=77a9a812-731c-4a1a-807e-660c31f7fec1"},"vehicle_type_id":"4","last_reported":1750166754,"current_range_meters":10800,"station_id":"ce4bguh2rcd13ifvqckg","pricing_plan_id":"cebpf4jnsgd1na2vs0mg"},{"bike_id":"caff9461-825e-4eec-9c12-4ca61d2dde3b","system_id":"levelo_inurba_marseille","lat":43.27362,"lon":5.36221,"is_reserved":false,"is_disabled":false,"rental_uris":{"android":"levelo://app?vid=caff9461-825e-4eec-9c12-4ca61d2dde3b","ios":"levelo://app?vid=caff9461-825e-4eec-9c12-4ca61d2dde3b"},"vehicle_type_id":"4","last_reported":1750166754,"current_range_meters":10800,"station_id":"ce4bhbh2rcd13ifvqeo0","pricing_plan_id":"cebpf4jnsgd1na2vs0mg"},{"bike_id":"de55b4a8-f2ef-49b9-b961-660d2bd518e1","system_id":"levelo_inurba_marseille","lat":43.28266,"lon":5.35057,"is_reserved":false,"is_disabled":false,"rental_uris":{"android":"levelo://app?vid=de55b4a8-f2ef-49b9-b961-660d2bd518e1","ios":"levelo://app?vid=de55b4a8-f2ef-49b9-b961-660d2bd518e1"},"vehicle_type_id":"4","last_reported":1750166754,"current_range_meters":10800,"station_id":"ce4bhbp2rcd13ifvqerg","pricing_plan_id":"cebpf4jnsgd1na2vs0mg"},{"bike_id":"444696eb-21a9-4952-9bdd-9d430834f05f","system_id":"levelo_inurba_marseille","lat":43.281507,"lon":5.426392,"is_reserved":false,"is_disabled":false,"rental_uris":{"android":"levelo://app?vid=444696eb-21a9-4952-9bdd-9d430834f05f","ios":"levelo://app?vid=444696eb-21a9-4952-9bdd-9d430834f05f"},"vehicle_type_id":"4","last_reported":1750166754,"current_range_meters":10800,"station_id":"ce4bhnh2rcd13ifvqgug","pricing_plan_id":"cebpf4jnsgd1na2vs0mg"},{"bike_id":"3b136301-d892-4bf1-aa15-695ec30464ca","system_id":"levelo_inurba_marseille","lat":43.32081,"lon":5.36797,"is_reserved":false,"is_disabled":false,"rental_uris":{"android":"levelo://app?vid=3b136301-d892-4bf1-aa15-695ec30464ca","ios":"levelo://app?vid=3b136301-d892-4bf1-aa15-695ec30464ca"},"vehicle_type_id":"4","last_reported":1750166754,"current_range_meters":10800,"station_id":"ce4bhrh2rcd13ifvqhug","pricing_plan_id":"cebpf4jnsgd1na2vs0mg"},{"bike_id":"de984505-74c1-4076-9a29-c0f8b4e3a098","system_id":"levelo_inurba_marseille","lat":43.30144,"lon":5.37389,"is_reserved":false,"is_disabled":false,"rental_uris":{"android":"levelo://app?vid=de984505-74c1-4076-9a29-c0f8b4e3a098","ios":"levelo://app?vid=de984505-74c1-4076-9a29-c0f8b4e3a098"},"vehicle_type_id":"4","last_reported":1750166754,"current_range_meters":11200,"station_id":"ce4bgs92rcd13ifvqcc0","pricing_plan_id":"cebpf4jnsgd1na2vs0mg"},{"bike_id":"ce1796c7-4724-4615-98b7-c788952f45f8","system_id":"levelo_inurba_marseille","lat":43.28269,"lon":5.35088,"is_reserved":false,"is_disabled":false,"rental_uris":{"android":"levelo://app?vid=ce1796c7-4724-4615-98b7-c788952f45f8","ios":"levelo://app?vid=ce1796c7-4724-4615-98b7-c788952f45f8"},"vehicle_type_id":"4","last_reported":1750166754,"current_range_meters":11200,"station_id":"ce4bhbp2rcd13ifvqerg","pricing_plan_id":"cebpf4jnsgd1na2vs0mg"},{"bike_id":"c43bc47b-a41e-493c-846e-c200bc5e09ab","system_id":"levelo_inurba_marseille","lat":43.24818,"lon":5.37473,"is_reserved":false,"is_disabled":false,"rental_uris":{"android":"levelo://app?vid=c43bc47b-a41e-493c-846e-c200bc5e09ab","ios":"levelo://app?vid=c43bc47b-a41e-493c-846e-c200bc5e09ab"},"vehicle_type_id":"4","last_reported":1750166754,"current_range_meters":11200,"station_id":"ce4bhgh2rcd13ifvqfb0","pricing_plan_id":"cebpf4jnsgd1na2vs0mg"},{"bike_id":"f43f2d4b-7022-47e7-9d02-0f666a989515","system_id":"levelo_inurba_marseille","lat":43.231973,"lon":5.355457,"is_reserved":false,"is_disabled":false,"rental_uris":{"android":"levelo://app?vid=f43f2d4b-7022-47e7-9d02-0f666a989515","ios":"levelo://app?vid=f43f2d4b-7022-47e7-9d02-0f666a989515"},"vehicle_type_id":"4","last_reported":1750166754,"current_range_meters":11200,"station_id":"ce4bhu92rcd13ifvqi70","pricing_plan_id":"cebpf4jnsgd1na2vs0mg"},{"bike_id":"d15e97b3-501f-458f-810d-aadce744705f","system_id":"levelo_inurba_marseille","lat":43.31297,"lon":5.36838,"is_reserved":false,"is_disabled":false,"rental_uris":{"android":"levelo://app?vid=d15e97b3-501f-458f-810d-aadce744705f","ios":"levelo://app?vid=d15e97b3-501f-458f-810d-aadce744705f"},"vehicle_type_id":"4","last_reported":1750166754,"current_range_meters":11600,"station_id":"ce4bgl92rcd13ifvqbq0","pricing_plan_id":"cebpf4jnsgd1na2vs0mg"},{"bike_id":"17292c3d-c1c3-43f3-b939-859b09613c29","system_id":"levelo_inurba_marseille","lat":43.28932,"lon":5.36638,"is_reserved":false,"is_disabled":false,"rental_uris":{"android":"levelo://app?vid=17292c3d-c1c3-43f3-b939-859b09613c29","ios":"levelo://app?vid=17292c3d-c1c3-43f3-b939-859b09613c29"},"vehicle_type_id":"4","last_reported":1750166754,"current_range_meters":11600,"station_id":"ce4bhap2rcd13ifvqek0","pricing_plan_id":"cebpf4jnsgd1na2vs0mg"},{"bike_id":"5aecd506-2140-4b5b-b2d7-a7220caa1805","system_id":"levelo_inurba_marseille","lat":43.24094,"lon":5.37765,"is_reserved":false,"is_disabled":false,"rental_uris":{"android":"levelo://app?vid=5aecd506-2140-4b5b-b2d7-a7220caa1805","ios":"levelo://app?vid=5aecd506-2140-4b5b-b2d7-a7220caa1805"},"vehicle_type_id":"4","last_reported":1750166754,"current_range_meters":11600,"station_id":"ce4bhnp2rcd13ifvqgvg","pricing_plan_id":"cebpf4jnsgd1na2vs0mg"},{"bike_id":"c7a06562-cd0a-4ce3-9c99-6876f6925b3f","system_id":"levelo_inurba_marseille","lat":43.24028,"lon":5.37748,"is_reserved":false,"is_disabled":false,"rental_uris":{"android":"levelo://app?vid=c7a06562-cd0a-4ce3-9c99-6876f6925b3f","ios":"levelo://app?vid=c7a06562-cd0a-4ce3-9c99-6876f6925b3f"},"vehicle_type_id":"4","last_reported":1750166754,"current_range_meters":11600,"station_id":"ce4bhnp2rcd13ifvqgvg","pricing_plan_id":"cebpf4jnsgd1na2vs0mg"},{"bike_id":"f9722adf-2faf-40e3-ad50-c0c10985c29a","system_id":"levelo_inurba_marseille","lat":43.27997,"lon":5.40015,"is_reserved":false,"is_disabled":false,"rental_uris":{"android":"levelo://app?vid=f9722adf-2faf-40e3-ad50-c0c10985c29a","ios":"levelo://app?vid=f9722adf-2faf-40e3-ad50-c0c10985c29a"},"vehicle_type_id":"4","last_reported":1750166754,"current_range_meters":11600,"station_id":"ce4bho92rcd13ifvqh4g","pricing_plan_id":"cebpf4jnsgd1na2vs0mg"},{"bike_id":"222abc74-91c7-44a6-88b6-c71afabef20f","system_id":"levelo_inurba_marseille","lat":43.32505,"lon":5.36589,"is_reserved":false,"is_disabled":false,"rental_uris":{"android":"levelo://app?vid=222abc74-91c7-44a6-88b6-c71afabef20f","ios":"levelo://app?vid=222abc74-91c7-44a6-88b6-c71afabef20f"},"vehicle_type_id":"4","last_reported":1750166754,"current_range_meters":11600,"station_id":"ce4bhs12rcd13ifvqhvg","pricing_plan_id":"cebpf4jnsgd1na2vs0mg"},{"bike_id":"7e38f2dd-0252-4bc8-bf90-bf93970faaac","system_id":"levelo_inurba_marseille","lat":43.3031,"lon":5.392,"is_reserved":false,"is_disabled":false,"rental_uris":{"android":"levelo://app?vid=7e38f2dd-0252-4bc8-bf90-bf93970faaac","ios":"levelo://app?vid=7e38f2dd-0252-4bc8-bf90-bf93970faaac"},"vehicle_type_id":"4","last_reported":1750166754,"current_range_meters":12000,"station_id":"ce4bgkh2rcd13ifvqbk0","pricing_plan_id":"cebpf4jnsgd1na2vs0mg"},{"bike_id":"5d1a3ed1-70f0-4deb-899c-75c1b0d6c2fe","system_id":"levelo_inurba_marseille","lat":43.24386,"lon":5.37074,"is_reserved":false,"is_disabled":false,"rental_uris":{"android":"levelo://app?vid=5d1a3ed1-70f0-4deb-899c-75c1b0d6c2fe","ios":"levelo://app?vid=5d1a3ed1-70f0-4deb-899c-75c1b0d6c2fe"},"vehicle_type_id":"4","last_reported":1750166754,"current_range_meters":12000,"station_id":"ce4bhhh2rcd13ifvqfk0","pricing_plan_id":"cebpf4jnsgd1na2vs0mg"},{"bike_id":"9433400b-5753-4bb8-acbb-b0c5ea82dac2","system_id":"levelo_inurba_marseille","lat":43.25914,"lon":5.40853,"is_reserved":false,"is_disabled":false,"rental_uris":{"android":"levelo://app?vid=9433400b-5753-4bb8-acbb-b0c5ea82dac2","ios":"levelo://app?vid=9433400b-5753-4bb8-acbb-b0c5ea82dac2"},"vehicle_type_id":"4","last_reported":1750166754,"current_range_meters":12000,"station_id":"ce4bhm92rcd13ifvqglg","pricing_plan_id":"cebpf4jnsgd1na2vs0mg"},{"bike_id":"1e373418-986e-4d3c-9ff7-c37dd7c7a214","system_id":"levelo_inurba_marseille","lat":43.29919,"lon":5.43668,"is_reserved":false,"is_disabled":false,"rental_uris":{"android":"levelo://app?vid=1e373418-986e-4d3c-9ff7-c37dd7c7a214","ios":"levelo://app?vid=1e373418-986e-4d3c-9ff7-c37dd7c7a214"},"vehicle_type_id":"4","last_reported":1750166754,"current_range_meters":12000,"station_id":"ce4bhpp2rcd13ifvqhfg","pricing_plan_id":"cebpf4jnsgd1na2vs0mg"},{"bike_id":"68b69c32-2076-4a85-9793-aa4899be2f55","system_id":"levelo_inurba_marseille","lat":43.21195,"lon":5.35099,"is_reserved":false,"is_disabled":false,"rental_uris":{"android":"levelo://app?vid=68b69c32-2076-4a85-9793-aa4899be2f55","ios":"levelo://app?vid=68b69c32-2076-4a85-9793-aa4899be2f55"},"vehicle_type_id":"4","last_reported":1750166754,"current_range_meters":12000,"station_id":"st_cvj6sg6p6f1abm77japg","pricing_plan_id":"cebpf4jnsgd1na2vs0mg"},{"bike_id":"0e27dafc-21df-4fb1-bd36-2450a7866702","system_id":"levelo_inurba_marseille","lat":43.27148,"lon":5.40018,"is_reserved":false,"is_disabled":false,"rental_uris":{"android":"levelo://app?vid=0e27dafc-21df-4fb1-bd36-2450a7866702","ios":"levelo://app?vid=0e27dafc-21df-4fb1-bd36-2450a7866702"},"vehicle_type_id":"4","last_reported":1750166754,"current_range_meters":12400,"station_id":"","pricing_plan_id":"cebpf4jnsgd1na2vs0mg"},{"bike_id":"21db6be8-f2e2-48de-81b0-b885d32bca75","system_id":"levelo_inurba_marseille","lat":43.30604,"lon":5.372023,"is_reserved":false,"is_disabled":false,"rental_uris":{"android":"levelo://app?vid=21db6be8-f2e2-48de-81b0-b885d32bca75","ios":"levelo://app?vid=21db6be8-f2e2-48de-81b0-b885d32bca75"},"vehicle_type_id":"4","last_reported":1750166754,"current_range_meters":12400,"station_id":"ce4bgqh2rcd13ifvqc4g","pricing_plan_id":"cebpf4jnsgd1na2vs0mg"},{"bike_id":"90f6986c-16e3-4eb6-8f80-acf5c75eda02","system_id":"levelo_inurba_marseille","lat":43.24387,"lon":5.37058,"is_reserved":false,"is_disabled":false,"rental_uris":{"android":"levelo://app?vid=90f6986c-16e3-4eb6-8f80-acf5c75eda02","ios":"levelo://app?vid=90f6986c-16e3-4eb6-8f80-acf5c75eda02"},"vehicle_type_id":"4","last_reported":1750166754,"current_range_meters":12400,"station_id":"ce4bhhh2rcd13ifvqfk0","pricing_plan_id":"cebpf4jnsgd1na2vs0mg"},{"bike_id":"baf64c31-4f1a-4275-b51a-b84e4310f740","system_id":"levelo_inurba_marseille","lat":43.30878,"lon":5.39651,"is_reserved":false,"is_disabled":false,"rental_uris":{"android":"levelo://app?vid=baf64c31-4f1a-4275-b51a-b84e4310f740","ios":"levelo://app?vid=baf64c31-4f1a-4275-b51a-b84e4310f740"},"vehicle_type_id":"4","last_reported":1750166754,"current_range_meters":12800,"station_id":"ce4bh012rcd13ifvqcv0","pricing_plan_id":"cebpf4jnsgd1na2vs0mg"},{"bike_id":"4893d39c-0338-4b5b-acd0-ceccc633d738","system_id":"levelo_inurba_marseille","lat":43.29099,"lon":5.38146,"is_reserved":false,"is_disabled":false,"rental_uris":{"android":"levelo://app?vid=4893d39c-0338-4b5b-acd0-ceccc633d738","ios":"levelo://app?vid=4893d39c-0338-4b5b-acd0-ceccc633d738"},"vehicle_type_id":"4","last_reported":1750166754,"current_range_meters":12800,"station_id":"ce4bh512rcd13ifvqe2g","pricing_plan_id":"cebpf4jnsgd1na2vs0mg"},{"bike_id":"c35e519f-7955-4397-8ec5-76b886046075","system_id":"levelo_inurba_marseille","lat":43.27055,"lon":5.40255,"is_reserved":false,"is_disabled":false,"rental_uris":{"android":"levelo://app?vid=c35e519f-7955-4397-8ec5-76b886046075","ios":"levelo://app?vid=c35e519f-7955-4397-8ec5-76b886046075"},"vehicle_type_id":"4","last_reported":1750166754,"current_range_meters":12800,"station_id":"ce4bhk92rcd13ifvqgc0","pricing_plan_id":"cebpf4jnsgd1na2vs0mg"},{"bike_id":"eca25bd6-1b44-4388-a7b0-074a85a4f502","system_id":"levelo_inurba_marseille","lat":43.31101,"lon":5.39741,"is_reserved":false,"is_disabled":false,"rental_uris":{"android":"levelo://app?vid=eca25bd6-1b44-4388-a7b0-074a85a4f502","ios":"levelo://app?vid=eca25bd6-1b44-4388-a7b0-074a85a4f502"},"vehicle_type_id":"4","last_reported":1750166754,"current_range_meters":13600,"station_id":"","pricing_plan_id":"cebpf4jnsgd1na2vs0mg"},{"bike_id":"ff4a6762-0a61-4bfe-9612-6b446191dc8f","system_id":"levelo_inurba_marseille","lat":43.27615,"lon":5.36112,"is_reserved":false,"is_disabled":false,"rental_uris":{"android":"levelo://app?vid=ff4a6762-0a61-4bfe-9612-6b446191dc8f","ios":"levelo://app?vid=ff4a6762-0a61-4bfe-9612-6b446191dc8f"},"vehicle_type_id":"4","last_reported":1750166754,"current_range_meters":13600,"station_id":"ce4bgj92rcd13ifvqbe0","pricing_plan_id":"cebpf4jnsgd1na2vs0mg"},{"bike_id":"858a1276-8f9c-4641-ac0f-93ad7463830a","system_id":"levelo_inurba_marseille","lat":43.29914,"lon":5.37482,"is_reserved":false,"is_disabled":false,"rental_uris":{"android":"levelo://app?vid=858a1276-8f9c-4641-ac0f-93ad7463830a","ios":"levelo://app?vid=858a1276-8f9c-4641-ac0f-93ad7463830a"},"vehicle_type_id":"4","last_reported":1750166754,"current_range_meters":13600,"station_id":"ce4bgjh2rcd13ifvqbg0","pricing_plan_id":"cebpf4jnsgd1na2vs0mg"},{"bike_id":"ec1dd85b-7938-41f5-bdc5-efa8944d2eb9","system_id":"levelo_inurba_marseille","lat":43.30883,"lon":5.37197,"is_reserved":false,"is_disabled":false,"rental_uris":{"android":"levelo://app?vid=ec1dd85b-7938-41f5-bdc5-efa8944d2eb9","ios":"levelo://app?vid=ec1dd85b-7938-41f5-bdc5-efa8944d2eb9"},"vehicle_type_id":"4","last_reported":1750166754,"current_range_meters":13600,"station_id":"ce4bguh2rcd13ifvqckg","pricing_plan_id":"cebpf4jnsgd1na2vs0mg"},{"bike_id":"94556628-72cd-4618-b5b6-25b5cfa4141b","system_id":"levelo_inurba_marseille","lat":43.21196,"lon":5.35101,"is_reserved":false,"is_disabled":false,"rental_uris":{"android":"levelo://app?vid=94556628-72cd-4618-b5b6-25b5cfa4141b","ios":"levelo://app?vid=94556628-72cd-4618-b5b6-25b5cfa4141b"},"vehicle_type_id":"4","last_reported":1750166754,"current_range_meters":13600,"station_id":"st_cvj6sg6p6f1abm77japg","pricing_plan_id":"cebpf4jnsgd1na2vs0mg"},{"bike_id":"a6e98eea-c705-4206-89d6-68648478a828","system_id":"levelo_inurba_marseille","lat":43.28617,"lon":5.36049,"is_reserved":false,"is_disabled":false,"rental_uris":{"android":"levelo://app?vid=a6e98eea-c705-4206-89d6-68648478a828","ios":"levelo://app?vid=a6e98eea-c705-4206-89d6-68648478a828"},"vehicle_type_id":"4","last_reported":1750166754,"current_range_meters":14000,"station_id":"","pricing_plan_id":"cebpf4jnsgd1na2vs0mg"},{"bike_id":"8ad9234e-001a-4549-8bba-9baf2ef98804","system_id":"levelo_inurba_marseille","lat":43.26495,"lon":5.40367,"is_reserved":false,"is_disabled":false,"rental_uris":{"android":"levelo://app?vid=8ad9234e-001a-4549-8bba-9baf2ef98804","ios":"levelo://app?vid=8ad9234e-001a-4549-8bba-9baf2ef98804"},"vehicle_type_id":"4","last_reported":1750166754,"current_range_meters":14000,"station_id":"","pricing_plan_id":"cebpf4jnsgd1na2vs0mg"},{"bike_id":"6d392914-420e-49a0-9a62-e1c19d840639","system_id":"levelo_inurba_marseille","lat":43.30379,"lon":5.42502,"is_reserved":false,"is_disabled":false,"rental_uris":{"android":"levelo://app?vid=6d392914-420e-49a0-9a62-e1c19d840639","ios":"levelo://app?vid=6d392914-420e-49a0-9a62-e1c19d840639"},"vehicle_type_id":"4","last_reported":1750166754,"current_range_meters":14000,"station_id":"ce4bhoh2rcd13ifvqh6g","pricing_plan_id":"cebpf4jnsgd1na2vs0mg"},{"bike_id":"7c5d0588-82b8-4608-9bdc-83ca6f35ab3a","system_id":"levelo_inurba_marseille","lat":43.32488,"lon":5.36585,"is_reserved":false,"is_disabled":false,"rental_uris":{"android":"levelo://app?vid=7c5d0588-82b8-4608-9bdc-83ca6f35ab3a","ios":"levelo://app?vid=7c5d0588-82b8-4608-9bdc-83ca6f35ab3a"},"vehicle_type_id":"4","last_reported":1750166754,"current_range_meters":14000,"station_id":"ce4bhs12rcd13ifvqhvg","pricing_plan_id":"cebpf4jnsgd1na2vs0mg"},{"bike_id":"83cfee7d-980d-496a-98c8-745c7e44c68d","system_id":"levelo_inurba_marseille","lat":43.32916,"lon":5.39061,"is_reserved":false,"is_disabled":false,"rental_uris":{"android":"levelo://app?vid=83cfee7d-980d-496a-98c8-745c7e44c68d","ios":"levelo://app?vid=83cfee7d-980d-496a-98c8-745c7e44c68d"},"vehicle_type_id":"4","last_reported":1750166754,"current_range_meters":14400,"station_id":"","pricing_plan_id":"cebpf4jnsgd1na2vs0mg"},{"bike_id":"358cc827-d2cf-489d-a9b7-299f2a14172c","system_id":"levelo_inurba_marseille","lat":43.27371,"lon":5.36262,"is_reserved":false,"is_disabled":false,"rental_uris":{"android":"levelo://app?vid=358cc827-d2cf-489d-a9b7-299f2a14172c","ios":"levelo://app?vid=358cc827-d2cf-489d-a9b7-299f2a14172c"},"vehicle_type_id":"4","last_reported":1750166754,"current_range_meters":14400,"station_id":"ce4bhbh2rcd13ifvqeo0","pricing_plan_id":"cebpf4jnsgd1na2vs0mg"},{"bike_id":"7ee4fe0f-93e2-4277-a4e1-4c5f386196e2","system_id":"levelo_inurba_marseille","lat":43.26672,"lon":5.38268,"is_reserved":false,"is_disabled":false,"rental_uris":{"android":"levelo://app?vid=7ee4fe0f-93e2-4277-a4e1-4c5f386196e2","ios":"levelo://app?vid=7ee4fe0f-93e2-4277-a4e1-4c5f386196e2"},"vehicle_type_id":"4","last_reported":1750166754,"current_range_meters":14400,"station_id":"ce4bhg92rcd13ifvqf90","pricing_plan_id":"cebpf4jnsgd1na2vs0mg"},{"bike_id":"0c4a988b-d617-4a75-b0db-7028aea1889b","system_id":"levelo_inurba_marseille","lat":43.24056,"lon":5.37729,"is_reserved":false,"is_disabled":false,"rental_uris":{"android":"levelo://app?vid=0c4a988b-d617-4a75-b0db-7028aea1889b","ios":"levelo://app?vid=0c4a988b-d617-4a75-b0db-7028aea1889b"},"vehicle_type_id":"4","last_reported":1750166754,"current_range_meters":14400,"station_id":"ce4bhnp2rcd13ifvqgvg","pricing_plan_id":"cebpf4jnsgd1na2vs0mg"},{"bike_id":"ef97c21d-8fe6-4986-ab60-2827b445ae6f","system_id":"levelo_inurba_marseille","lat":43.29005,"lon":5.35612,"is_reserved":false,"is_disabled":false,"rental_uris":{"android":"levelo://app?vid=ef97c21d-8fe6-4986-ab60-2827b445ae6f","ios":"levelo://app?vid=ef97c21d-8fe6-4986-ab60-2827b445ae6f"},"vehicle_type_id":"4","last_reported":1750166754,"current_range_meters":14800,"station_id":"ce4bhb92rcd13ifvqen0","pricing_plan_id":"cebpf4jnsgd1na2vs0mg"},{"bike_id":"1a463d5b-88a1-42ab-a337-d8c627a0d36f","system_id":"levelo_inurba_marseille","lat":43.275603,"lon":5.38437,"is_reserved":false,"is_disabled":false,"rental_uris":{"android":"levelo://app?vid=1a463d5b-88a1-42ab-a337-d8c627a0d36f","ios":"levelo://app?vid=1a463d5b-88a1-42ab-a337-d8c627a0d36f"},"vehicle_type_id":"4","last_reported":1750166754,"current_range_meters":14800,"station_id":"ce4bhh92rcd13ifvqfi0","pricing_plan_id":"cebpf4jnsgd1na2vs0mg"},{"bike_id":"40b67ebd-bca5-45ed-8fee-8ab930828df5","system_id":"levelo_inurba_marseille","lat":43.24165,"lon":5.36396,"is_reserved":false,"is_disabled":false,"rental_uris":{"android":"levelo://app?vid=40b67ebd-bca5-45ed-8fee-8ab930828df5","ios":"levelo://app?vid=40b67ebd-bca5-45ed-8fee-8ab930828df5"},"vehicle_type_id":"4","last_reported":1750166754,"current_range_meters":14800,"station_id":"cpo36qri1sfpv3e86is0","pricing_plan_id":"cebpf4jnsgd1na2vs0mg"},{"bike_id":"f98d73dc-d8dd-478b-a0d1-53da1db344db","system_id":"levelo_inurba_marseille","lat":43.31354,"lon":5.38494,"is_reserved":false,"is_disabled":false,"rental_uris":{"android":"levelo://app?vid=f98d73dc-d8dd-478b-a0d1-53da1db344db","ios":"levelo://app?vid=f98d73dc-d8dd-478b-a0d1-53da1db344db"},"vehicle_type_id":"4","last_reported":1750166754,"current_range_meters":15200,"station_id":"ce4bgt92rcd13ifvqcf0","pricing_plan_id":"cebpf4jnsgd1na2vs0mg"},{"bike_id":"747e9be3-894a-44b0-bbb5-efd1f4a277a5","system_id":"levelo_inurba_marseille","lat":43.298719,"lon":5.397429,"is_reserved":false,"is_disabled":false,"rental_uris":{"android":"levelo://app?vid=747e9be3-894a-44b0-bbb5-efd1f4a277a5","ios":"levelo://app?vid=747e9be3-894a-44b0-bbb5-efd1f4a277a5"},"vehicle_type_id":"4","last_reported":1750166754,"current_range_meters":15200,"station_id":"ce4bh0h2rcd13ifvqd50","pricing_plan_id":"cebpf4jnsgd1na2vs0mg"},{"bike_id":"a305b754-32de-4968-8747-7e5ba2923a93","system_id":"levelo_inurba_marseille","lat":43.27497,"lon":5.42459,"is_reserved":false,"is_disabled":false,"rental_uris":{"android":"levelo://app?vid=a305b754-32de-4968-8747-7e5ba2923a93","ios":"levelo://app?vid=a305b754-32de-4968-8747-7e5ba2923a93"},"vehicle_type_id":"4","last_reported":1750166754,"current_range_meters":15200,"station_id":"ce4bhn92rcd13ifvqgrg","pricing_plan_id":"cebpf4jnsgd1na2vs0mg"},{"bike_id":"c5f2f299-7e0f-4ea2-abcd-aaa65ae3837f","system_id":"levelo_inurba_marseille","lat":43.30418,"lon":5.41301,"is_reserved":false,"is_disabled":false,"rental_uris":{"android":"levelo://app?vid=c5f2f299-7e0f-4ea2-abcd-aaa65ae3837f","ios":"levelo://app?vid=c5f2f299-7e0f-4ea2-abcd-aaa65ae3837f"},"vehicle_type_id":"4","last_reported":1750166754,"current_range_meters":15200,"station_id":"ce4bhop2rcd13ifvqh8g","pricing_plan_id":"cebpf4jnsgd1na2vs0mg"},{"bike_id":"2090556a-ebe6-4fcd-b60b-df67d7c8e4f7","system_id":"levelo_inurba_marseille","lat":43.299036,"lon":5.436676,"is_reserved":false,"is_disabled":false,"rental_uris":{"android":"levelo://app?vid=2090556a-ebe6-4fcd-b60b-df67d7c8e4f7","ios":"levelo://app?vid=2090556a-ebe6-4fcd-b60b-df67d7c8e4f7"},"vehicle_type_id":"4","last_reported":1750166754,"current_range_meters":15200,"station_id":"ce4bhpp2rcd13ifvqhfg","pricing_plan_id":"cebpf4jnsgd1na2vs0mg"},{"bike_id":"a25e9f69-1c1f-41ad-9790-fbbdb77fb782","system_id":"levelo_inurba_marseille","lat":43.299189,"lon":5.374732,"is_reserved":false,"is_disabled":false,"rental_uris":{"android":"levelo://app?vid=a25e9f69-1c1f-41ad-9790-fbbdb77fb782","ios":"levelo://app?vid=a25e9f69-1c1f-41ad-9790-fbbdb77fb782"},"vehicle_type_id":"4","last_reported":1750166754,"current_range_meters":16000,"station_id":"ce4bgjh2rcd13ifvqbg0","pricing_plan_id":"cebpf4jnsgd1na2vs0mg"},{"bike_id":"fdd44788-80d3-41aa-a83c-3c48b01597b8","system_id":"levelo_inurba_marseille","lat":43.288504,"lon":5.393173,"is_reserved":false,"is_disabled":false,"rental_uris":{"android":"levelo://app?vid=fdd44788-80d3-41aa-a83c-3c48b01597b8","ios":"levelo://app?vid=fdd44788-80d3-41aa-a83c-3c48b01597b8"},"vehicle_type_id":"4","last_reported":1750166754,"current_range_meters":16000,"station_id":"ce4bh2p2rcd13ifvqdi0","pricing_plan_id":"cebpf4jnsgd1na2vs0mg"},{"bike_id":"adf6c9ae-2afd-4a13-aae2-6e51b051194d","system_id":"levelo_inurba_marseille","lat":43.284881,"lon":5.385654,"is_reserved":false,"is_disabled":false,"rental_uris":{"android":"levelo://app?vid=adf6c9ae-2afd-4a13-aae2-6e51b051194d","ios":"levelo://app?vid=adf6c9ae-2afd-4a13-aae2-6e51b051194d"},"vehicle_type_id":"4","last_reported":1750166754,"current_range_meters":16000,"station_id":"ce4bh8p2rcd13ifvqeb0","pricing_plan_id":"cebpf4jnsgd1na2vs0mg"},{"bike_id":"8294296b-2596-40bf-ac83-56912bf5277b","system_id":"levelo_inurba_marseille","lat":43.24075,"lon":5.37762,"is_reserved":false,"is_disabled":false,"rental_uris":{"android":"levelo://app?vid=8294296b-2596-40bf-ac83-56912bf5277b","ios":"levelo://app?vid=8294296b-2596-40bf-ac83-56912bf5277b"},"vehicle_type_id":"4","last_reported":1750166754,"current_range_meters":16000,"station_id":"ce4bhnp2rcd13ifvqgvg","pricing_plan_id":"cebpf4jnsgd1na2vs0mg"},{"bike_id":"4a66c4d4-63d6-40ee-b1c4-f00ecf2c7feb","system_id":"levelo_inurba_marseille","lat":43.28002,"lon":5.40017,"is_reserved":false,"is_disabled":false,"rental_uris":{"android":"levelo://app?vid=4a66c4d4-63d6-40ee-b1c4-f00ecf2c7feb","ios":"levelo://app?vid=4a66c4d4-63d6-40ee-b1c4-f00ecf2c7feb"},"vehicle_type_id":"4","last_reported":1750166754,"current_range_meters":16000,"station_id":"ce4bho92rcd13ifvqh4g","pricing_plan_id":"cebpf4jnsgd1na2vs0mg"},{"bike_id":"2af05e90-a669-4038-9243-e89e12ec2b4f","system_id":"levelo_inurba_marseille","lat":43.28713,"lon":5.37943,"is_reserved":false,"is_disabled":false,"rental_uris":{"android":"levelo://app?vid=2af05e90-a669-4038-9243-e89e12ec2b4f","ios":"levelo://app?vid=2af05e90-a669-4038-9243-e89e12ec2b4f"},"vehicle_type_id":"4","last_reported":1750166754,"current_range_meters":16400,"station_id":"ce4bh9p2rcd13ifvqec0","pricing_plan_id":"cebpf4jnsgd1na2vs0mg"},{"bike_id":"655a3052-bd15-4b2c-8ee7-e6f1f7ea8bef","system_id":"levelo_inurba_marseille","lat":43.28406,"lon":5.34992,"is_reserved":false,"is_disabled":false,"rental_uris":{"android":"levelo://app?vid=655a3052-bd15-4b2c-8ee7-e6f1f7ea8bef","ios":"levelo://app?vid=655a3052-bd15-4b2c-8ee7-e6f1f7ea8bef"},"vehicle_type_id":"4","last_reported":1750166754,"current_range_meters":16400,"station_id":"ce4bhbh2rcd13ifvqepg","pricing_plan_id":"cebpf4jnsgd1na2vs0mg"},{"bike_id":"1dca189b-e58d-407e-91a0-5d0b482c7bd9","system_id":"levelo_inurba_marseille","lat":43.28269,"lon":5.35075,"is_reserved":false,"is_disabled":false,"rental_uris":{"android":"levelo://app?vid=1dca189b-e58d-407e-91a0-5d0b482c7bd9","ios":"levelo://app?vid=1dca189b-e58d-407e-91a0-5d0b482c7bd9"},"vehicle_type_id":"4","last_reported":1750166754,"current_range_meters":16400,"station_id":"ce4bhbp2rcd13ifvqerg","pricing_plan_id":"cebpf4jnsgd1na2vs0mg"},{"bike_id":"29b617ef-b795-4967-a25e-bff2a1f23848","system_id":"levelo_inurba_marseille","lat":43.29277,"lon":5.36844,"is_reserved":false,"is_disabled":false,"rental_uris":{"android":"levelo://app?vid=29b617ef-b795-4967-a25e-bff2a1f23848","ios":"levelo://app?vid=29b617ef-b795-4967-a25e-bff2a1f23848"},"vehicle_type_id":"4","last_reported":1750166754,"current_range_meters":16400,"station_id":"ce4bhbp2rcd13ifvqesg","pricing_plan_id":"cebpf4jnsgd1na2vs0mg"},{"bike_id":"c2bf09cd-b75a-4610-98ab-fa3dfca7c82c","system_id":"levelo_inurba_marseille","lat":43.27055,"lon":5.4026,"is_reserved":false,"is_disabled":false,"rental_uris":{"android":"levelo://app?vid=c2bf09cd-b75a-4610-98ab-fa3dfca7c82c","ios":"levelo://app?vid=c2bf09cd-b75a-4610-98ab-fa3dfca7c82c"},"vehicle_type_id":"4","last_reported":1750166754,"current_range_meters":16400,"station_id":"ce4bhk92rcd13ifvqgc0","pricing_plan_id":"cebpf4jnsgd1na2vs0mg"},{"bike_id":"dab6fb6d-3e6d-412b-a0e1-f672326dbd00","system_id":"levelo_inurba_marseille","lat":43.24167,"lon":5.39762,"is_reserved":false,"is_disabled":false,"rental_uris":{"android":"levelo://app?vid=dab6fb6d-3e6d-412b-a0e1-f672326dbd00","ios":"levelo://app?vid=dab6fb6d-3e6d-412b-a0e1-f672326dbd00"},"vehicle_type_id":"4","last_reported":1750166754,"current_range_meters":16400,"station_id":"ce4bhn12rcd13ifvqgpg","pricing_plan_id":"cebpf4jnsgd1na2vs0mg"},{"bike_id":"8469e2ef-3e4e-4f00-ba05-ea79638981d3","system_id":"levelo_inurba_marseille","lat":43.32334,"lon":5.40616,"is_reserved":false,"is_disabled":false,"rental_uris":{"android":"levelo://app?vid=8469e2ef-3e4e-4f00-ba05-ea79638981d3","ios":"levelo://app?vid=8469e2ef-3e4e-4f00-ba05-ea79638981d3"},"vehicle_type_id":"4","last_reported":1750166754,"current_range_meters":16400,"station_id":"ce4bhq92rcd13ifvqhjg","pricing_plan_id":"cebpf4jnsgd1na2vs0mg"},{"bike_id":"f2d7187c-2c35-4e1f-a438-d4f498ebcbd2","system_id":"levelo_inurba_marseille","lat":43.29028,"lon":5.38625,"is_reserved":false,"is_disabled":false,"rental_uris":{"android":"levelo://app?vid=f2d7187c-2c35-4e1f-a438-d4f498ebcbd2","ios":"levelo://app?vid=f2d7187c-2c35-4e1f-a438-d4f498ebcbd2"},"vehicle_type_id":"4","last_reported":1750166754,"current_range_meters":16800,"station_id":"","pricing_plan_id":"cebpf4jnsgd1na2vs0mg"},{"bike_id":"3518210a-6d90-482f-a11b-11cb7c94acd1","system_id":"levelo_inurba_marseille","lat":43.26472,"lon":5.392,"is_reserved":false,"is_disabled":false,"rental_uris":{"android":"levelo://app?vid=3518210a-6d90-482f-a11b-11cb7c94acd1","ios":"levelo://app?vid=3518210a-6d90-482f-a11b-11cb7c94acd1"},"vehicle_type_id":"4","last_reported":1750166754,"current_range_meters":16800,"station_id":"","pricing_plan_id":"cebpf4jnsgd1na2vs0mg"},{"bike_id":"de0f7c2b-5974-4035-a240-8ed367c0e3f3","system_id":"levelo_inurba_marseille","lat":43.31974,"lon":5.37621,"is_reserved":false,"is_disabled":false,"rental_uris":{"android":"levelo://app?vid=de0f7c2b-5974-4035-a240-8ed367c0e3f3","ios":"levelo://app?vid=de0f7c2b-5974-4035-a240-8ed367c0e3f3"},"vehicle_type_id":"4","last_reported":1750166754,"current_range_meters":16800,"station_id":"","pricing_plan_id":"cebpf4jnsgd1na2vs0mg"},{"bike_id":"62e20e2e-7158-4c5c-bf36-2eae98d8d405","system_id":"levelo_inurba_marseille","lat":43.28405,"lon":5.34986,"is_reserved":false,"is_disabled":false,"rental_uris":{"android":"levelo://app?vid=62e20e2e-7158-4c5c-bf36-2eae98d8d405","ios":"levelo://app?vid=62e20e2e-7158-4c5c-bf36-2eae98d8d405"},"vehicle_type_id":"4","last_reported":1750166754,"current_range_meters":16800,"station_id":"ce4bhbh2rcd13ifvqepg","pricing_plan_id":"cebpf4jnsgd1na2vs0mg"},{"bike_id":"b43f8f9c-da3d-4788-b5dc-d2a4b8a125ab","system_id":"levelo_inurba_marseille","lat":43.28265,"lon":5.35065,"is_reserved":false,"is_disabled":false,"rental_uris":{"android":"levelo://app?vid=b43f8f9c-da3d-4788-b5dc-d2a4b8a125ab","ios":"levelo://app?vid=b43f8f9c-da3d-4788-b5dc-d2a4b8a125ab"},"vehicle_type_id":"4","last_reported":1750166754,"current_range_meters":16800,"station_id":"ce4bhbp2rcd13ifvqerg","pricing_plan_id":"cebpf4jnsgd1na2vs0mg"},{"bike_id":"f6f31aa3-e91d-4bf1-9fdd-d2b77a513e1c","system_id":"levelo_inurba_marseille","lat":43.24067,"lon":5.37725,"is_reserved":false,"is_disabled":false,"rental_uris":{"android":"levelo://app?vid=f6f31aa3-e91d-4bf1-9fdd-d2b77a513e1c","ios":"levelo://app?vid=f6f31aa3-e91d-4bf1-9fdd-d2b77a513e1c"},"vehicle_type_id":"4","last_reported":1750166754,"current_range_meters":16800,"station_id":"ce4bhnp2rcd13ifvqgvg","pricing_plan_id":"cebpf4jnsgd1na2vs0mg"},{"bike_id":"e991e578-1c68-444e-adf6-750dbdb4649e","system_id":"levelo_inurba_marseille","lat":43.30407,"lon":5.41291,"is_reserved":false,"is_disabled":false,"rental_uris":{"android":"levelo://app?vid=e991e578-1c68-444e-adf6-750dbdb4649e","ios":"levelo://app?vid=e991e578-1c68-444e-adf6-750dbdb4649e"},"vehicle_type_id":"4","last_reported":1750166754,"current_range_meters":16800,"station_id":"ce4bhop2rcd13ifvqh8g","pricing_plan_id":"cebpf4jnsgd1na2vs0mg"},{"bike_id":"2f0f7865-53e4-4955-8eb9-1bb98bf95595","system_id":"levelo_inurba_marseille","lat":43.31777,"lon":5.37576,"is_reserved":false,"is_disabled":false,"rental_uris":{"android":"levelo://app?vid=2f0f7865-53e4-4955-8eb9-1bb98bf95595","ios":"levelo://app?vid=2f0f7865-53e4-4955-8eb9-1bb98bf95595"},"vehicle_type_id":"4","last_reported":1750166754,"current_range_meters":17200,"station_id":"","pricing_plan_id":"cebpf4jnsgd1na2vs0mg"},{"bike_id":"a7ea856f-21b3-4b56-a423-5d121a696bc3","system_id":"levelo_inurba_marseille","lat":43.28658,"lon":5.36363,"is_reserved":false,"is_disabled":false,"rental_uris":{"android":"levelo://app?vid=a7ea856f-21b3-4b56-a423-5d121a696bc3","ios":"levelo://app?vid=a7ea856f-21b3-4b56-a423-5d121a696bc3"},"vehicle_type_id":"4","last_reported":1750166754,"current_range_meters":17200,"station_id":"ce4bhah2rcd13ifvqej0","pricing_plan_id":"cebpf4jnsgd1na2vs0mg"},{"bike_id":"bb448a52-ed97-4551-b9bc-c436e30fbe47","system_id":"levelo_inurba_marseille","lat":43.27357,"lon":5.36228,"is_reserved":false,"is_disabled":false,"rental_uris":{"android":"levelo://app?vid=bb448a52-ed97-4551-b9bc-c436e30fbe47","ios":"levelo://app?vid=bb448a52-ed97-4551-b9bc-c436e30fbe47"},"vehicle_type_id":"4","last_reported":1750166754,"current_range_meters":17200,"station_id":"ce4bhbh2rcd13ifvqeo0","pricing_plan_id":"cebpf4jnsgd1na2vs0mg"},{"bike_id":"1afbb558-89f8-49a0-8da0-a8c055138e16","system_id":"levelo_inurba_marseille","lat":43.24649,"lon":5.38892,"is_reserved":false,"is_disabled":false,"rental_uris":{"android":"levelo://app?vid=1afbb558-89f8-49a0-8da0-a8c055138e16","ios":"levelo://app?vid=1afbb558-89f8-49a0-8da0-a8c055138e16"},"vehicle_type_id":"4","last_reported":1750166754,"current_range_meters":17200,"station_id":"ce4bhg12rcd13ifvqf60","pricing_plan_id":"cebpf4jnsgd1na2vs0mg"},{"bike_id":"2a66c5d6-2b92-4fd4-9f33-6c2256ab8544","system_id":"levelo_inurba_marseille","lat":43.26031,"lon":5.37556,"is_reserved":false,"is_disabled":false,"rental_uris":{"android":"levelo://app?vid=2a66c5d6-2b92-4fd4-9f33-6c2256ab8544","ios":"levelo://app?vid=2a66c5d6-2b92-4fd4-9f33-6c2256ab8544"},"vehicle_type_id":"4","last_reported":1750166754,"current_range_meters":17200,"station_id":"ce4bhgh2rcd13ifvqfa0","pricing_plan_id":"cebpf4jnsgd1na2vs0mg"},{"bike_id":"3b5bef65-703d-46ed-91c9-7cec3ff7ccb3","system_id":"levelo_inurba_marseille","lat":43.23952,"lon":5.36641,"is_reserved":false,"is_disabled":false,"rental_uris":{"android":"levelo://app?vid=3b5bef65-703d-46ed-91c9-7cec3ff7ccb3","ios":"levelo://app?vid=3b5bef65-703d-46ed-91c9-7cec3ff7ccb3"},"vehicle_type_id":"4","last_reported":1750166754,"current_range_meters":17200,"station_id":"ce4bhi12rcd13ifvqfp0","pricing_plan_id":"cebpf4jnsgd1na2vs0mg"},{"bike_id":"99e77f60-a771-44ec-bd4c-544b62356f64","system_id":"levelo_inurba_marseille","lat":43.24041,"lon":5.37717,"is_reserved":false,"is_disabled":false,"rental_uris":{"android":"levelo://app?vid=99e77f60-a771-44ec-bd4c-544b62356f64","ios":"levelo://app?vid=99e77f60-a771-44ec-bd4c-544b62356f64"},"vehicle_type_id":"4","last_reported":1750166754,"current_range_meters":17200,"station_id":"ce4bhnp2rcd13ifvqgvg","pricing_plan_id":"cebpf4jnsgd1na2vs0mg"},{"bike_id":"de0bda34-41a6-4231-8ed4-c93e07fc3176","system_id":"levelo_inurba_marseille","lat":43.32665,"lon":5.37549,"is_reserved":false,"is_disabled":false,"rental_uris":{"android":"levelo://app?vid=de0bda34-41a6-4231-8ed4-c93e07fc3176","ios":"levelo://app?vid=de0bda34-41a6-4231-8ed4-c93e07fc3176"},"vehicle_type_id":"4","last_reported":1750166754,"current_range_meters":17600,"station_id":"","pricing_plan_id":"cebpf4jnsgd1na2vs0mg"},{"bike_id":"f58e1ec7-e1ad-43d4-af1f-b8815e23863c","system_id":"levelo_inurba_marseille","lat":43.30324,"lon":5.40434,"is_reserved":false,"is_disabled":false,"rental_uris":{"android":"levelo://app?vid=f58e1ec7-e1ad-43d4-af1f-b8815e23863c","ios":"levelo://app?vid=f58e1ec7-e1ad-43d4-af1f-b8815e23863c"},"vehicle_type_id":"4","last_reported":1750166754,"current_range_meters":17600,"station_id":"ce4bh012rcd13ifvqd10","pricing_plan_id":"cebpf4jnsgd1na2vs0mg"},{"bike_id":"ae480d58-9295-4f50-a8a0-8e6b32aaa904","system_id":"levelo_inurba_marseille","lat":43.24544,"lon":5.39524,"is_reserved":false,"is_disabled":false,"rental_uris":{"android":"levelo://app?vid=ae480d58-9295-4f50-a8a0-8e6b32aaa904","ios":"levelo://app?vid=ae480d58-9295-4f50-a8a0-8e6b32aaa904"},"vehicle_type_id":"4","last_reported":1750166754,"current_range_meters":17600,"station_id":"ce4bhlp2rcd13ifvqgjg","pricing_plan_id":"cebpf4jnsgd1na2vs0mg"},{"bike_id":"4cda9327-46c6-426e-87dd-c291d5dc5ff7","system_id":"levelo_inurba_marseille","lat":43.211911,"lon":5.350749,"is_reserved":false,"is_disabled":false,"rental_uris":{"android":"levelo://app?vid=4cda9327-46c6-426e-87dd-c291d5dc5ff7","ios":"levelo://app?vid=4cda9327-46c6-426e-87dd-c291d5dc5ff7"},"vehicle_type_id":"4","last_reported":1750166754,"current_range_meters":17600,"station_id":"st_cvj6sg6p6f1abm77japg","pricing_plan_id":"cebpf4jnsgd1na2vs0mg"},{"bike_id":"4b8da722-ee9e-48a4-a5e5-3a8a10364708","system_id":"levelo_inurba_marseille","lat":43.31219,"lon":5.37801,"is_reserved":false,"is_disabled":false,"rental_uris":{"android":"levelo://app?vid=4b8da722-ee9e-48a4-a5e5-3a8a10364708","ios":"levelo://app?vid=4b8da722-ee9e-48a4-a5e5-3a8a10364708"},"vehicle_type_id":"4","last_reported":1750166754,"current_range_meters":18000,"station_id":"","pricing_plan_id":"cebpf4jnsgd1na2vs0mg"},{"bike_id":"4ce5b165-f22d-40cf-abd3-1cb294861955","system_id":"levelo_inurba_marseille","lat":43.21199,"lon":5.350814,"is_reserved":false,"is_disabled":false,"rental_uris":{"android":"levelo://app?vid=4ce5b165-f22d-40cf-abd3-1cb294861955","ios":"levelo://app?vid=4ce5b165-f22d-40cf-abd3-1cb294861955"},"vehicle_type_id":"4","last_reported":1750166754,"current_range_meters":18000,"station_id":"","pricing_plan_id":"cebpf4jnsgd1na2vs0mg"},{"bike_id":"4044121f-8112-4080-985e-ba2a383fbd39","system_id":"levelo_inurba_marseille","lat":43.31203,"lon":5.3684,"is_reserved":false,"is_disabled":false,"rental_uris":{"android":"levelo://app?vid=4044121f-8112-4080-985e-ba2a383fbd39","ios":"levelo://app?vid=4044121f-8112-4080-985e-ba2a383fbd39"},"vehicle_type_id":"4","last_reported":1750166754,"current_range_meters":18000,"station_id":"ce4bgl92rcd13ifvqbq0","pricing_plan_id":"cebpf4jnsgd1na2vs0mg"},{"bike_id":"d67a8f7b-218d-4103-9374-0d54677b86a4","system_id":"levelo_inurba_marseille","lat":43.29272,"lon":5.36837,"is_reserved":false,"is_disabled":false,"rental_uris":{"android":"levelo://app?vid=d67a8f7b-218d-4103-9374-0d54677b86a4","ios":"levelo://app?vid=d67a8f7b-218d-4103-9374-0d54677b86a4"},"vehicle_type_id":"4","last_reported":1750166754,"current_range_meters":18000,"station_id":"ce4bhbp2rcd13ifvqesg","pricing_plan_id":"cebpf4jnsgd1na2vs0mg"},{"bike_id":"a19a9f31-1f31-4268-8484-22ff57209050","system_id":"levelo_inurba_marseille","lat":43.26568,"lon":5.390084,"is_reserved":false,"is_disabled":false,"rental_uris":{"android":"levelo://app?vid=a19a9f31-1f31-4268-8484-22ff57209050","ios":"levelo://app?vid=a19a9f31-1f31-4268-8484-22ff57209050"},"vehicle_type_id":"4","last_reported":1750166754,"current_range_meters":18000,"station_id":"ce4bhe12rcd13ifvqf30","pricing_plan_id":"cebpf4jnsgd1na2vs0mg"},{"bike_id":"39d783d5-e80e-41bc-a1c5-a99fa0c8d2f4","system_id":"levelo_inurba_marseille","lat":43.25085,"lon":5.39505,"is_reserved":false,"is_disabled":false,"rental_uris":{"android":"levelo://app?vid=39d783d5-e80e-41bc-a1c5-a99fa0c8d2f4","ios":"levelo://app?vid=39d783d5-e80e-41bc-a1c5-a99fa0c8d2f4"},"vehicle_type_id":"4","last_reported":1750166754,"current_range_meters":18000,"station_id":"ce4bhm12rcd13ifvqgkg","pricing_plan_id":"cebpf4jnsgd1na2vs0mg"},{"bike_id":"5cbdd979-131e-4b0a-a5c9-96ef156802c9","system_id":"levelo_inurba_marseille","lat":43.28432,"lon":5.39233,"is_reserved":false,"is_disabled":false,"rental_uris":{"android":"levelo://app?vid=5cbdd979-131e-4b0a-a5c9-96ef156802c9","ios":"levelo://app?vid=5cbdd979-131e-4b0a-a5c9-96ef156802c9"},"vehicle_type_id":"4","last_reported":1750166754,"current_range_meters":18000,"station_id":"ce4bhoh2rcd13ifvqh5g","pricing_plan_id":"cebpf4jnsgd1na2vs0mg"},{"bike_id":"cc8086c3-023b-4662-b7ba-91199240f1a1","system_id":"levelo_inurba_marseille","lat":43.23054,"lon":5.354839,"is_reserved":false,"is_disabled":false,"rental_uris":{"android":"levelo://app?vid=cc8086c3-023b-4662-b7ba-91199240f1a1","ios":"levelo://app?vid=cc8086c3-023b-4662-b7ba-91199240f1a1"},"vehicle_type_id":"4","last_reported":1750166754,"current_range_meters":18000,"station_id":"cpo3342slgdg3j2ifvpg","pricing_plan_id":"cebpf4jnsgd1na2vs0mg"},{"bike_id":"0fdc182e-0b16-455d-a406-68b7efeb0a33","system_id":"levelo_inurba_marseille","lat":43.21752,"lon":5.34611,"is_reserved":false,"is_disabled":false,"rental_uris":{"android":"levelo://app?vid=0fdc182e-0b16-455d-a406-68b7efeb0a33","ios":"levelo://app?vid=0fdc182e-0b16-455d-a406-68b7efeb0a33"},"vehicle_type_id":"4","last_reported":1750166754,"current_range_meters":18000,"station_id":"st_cvj6r9ubvosntc0bgbag","pricing_plan_id":"cebpf4jnsgd1na2vs0mg"},{"bike_id":"653a05d9-205d-420f-b0c9-a638667f0917","system_id":"levelo_inurba_marseille","lat":43.21191,"lon":5.35075,"is_reserved":false,"is_disabled":false,"rental_uris":{"android":"levelo://app?vid=653a05d9-205d-420f-b0c9-a638667f0917","ios":"levelo://app?vid=653a05d9-205d-420f-b0c9-a638667f0917"},"vehicle_type_id":"4","last_reported":1750166754,"current_range_meters":18000,"station_id":"st_cvj6sg6p6f1abm77japg","pricing_plan_id":"cebpf4jnsgd1na2vs0mg"},{"bike_id":"3a556026-c701-4f37-9192-c33892476639","system_id":"levelo_inurba_marseille","lat":43.217517,"lon":5.345973,"is_reserved":false,"is_disabled":false,"rental_uris":{"android":"levelo://app?vid=3a556026-c701-4f37-9192-c33892476639","ios":"levelo://app?vid=3a556026-c701-4f37-9192-c33892476639"},"vehicle_type_id":"4","last_reported":1750166754,"current_range_meters":18800,"station_id":"","pricing_plan_id":"cebpf4jnsgd1na2vs0mg"},{"bike_id":"15c8ae02-8e99-4704-aa0b-0b411ebbfdc4","system_id":"levelo_inurba_marseille","lat":43.30535,"lon":5.36555,"is_reserved":false,"is_disabled":false,"rental_uris":{"android":"levelo://app?vid=15c8ae02-8e99-4704-aa0b-0b411ebbfdc4","ios":"levelo://app?vid=15c8ae02-8e99-4704-aa0b-0b411ebbfdc4"},"vehicle_type_id":"4","last_reported":1750166754,"current_range_meters":18800,"station_id":"ce4bgs12rcd13ifvqcag","pricing_plan_id":"cebpf4jnsgd1na2vs0mg"},{"bike_id":"fe159277-59b2-42da-8954-7cfd36a9bcaf","system_id":"levelo_inurba_marseille","lat":43.25499,"lon":5.37654,"is_reserved":false,"is_disabled":false,"rental_uris":{"android":"levelo://app?vid=fe159277-59b2-42da-8954-7cfd36a9bcaf","ios":"levelo://app?vid=fe159277-59b2-42da-8954-7cfd36a9bcaf"},"vehicle_type_id":"4","last_reported":1750166754,"current_range_meters":18800,"station_id":"ce4bhh12rcd13ifvqff0","pricing_plan_id":"cebpf4jnsgd1na2vs0mg"},{"bike_id":"2a977167-669d-4e13-bcb2-d7bdb4c33fc6","system_id":"levelo_inurba_marseille","lat":43.24398,"lon":5.37091,"is_reserved":false,"is_disabled":false,"rental_uris":{"android":"levelo://app?vid=2a977167-669d-4e13-bcb2-d7bdb4c33fc6","ios":"levelo://app?vid=2a977167-669d-4e13-bcb2-d7bdb4c33fc6"},"vehicle_type_id":"4","last_reported":1750166754,"current_range_meters":18800,"station_id":"ce4bhhh2rcd13ifvqfk0","pricing_plan_id":"cebpf4jnsgd1na2vs0mg"},{"bike_id":"b5df771f-0292-4acc-afde-88c7e4fb1865","system_id":"levelo_inurba_marseille","lat":43.24168,"lon":5.39763,"is_reserved":false,"is_disabled":false,"rental_uris":{"android":"levelo://app?vid=b5df771f-0292-4acc-afde-88c7e4fb1865","ios":"levelo://app?vid=b5df771f-0292-4acc-afde-88c7e4fb1865"},"vehicle_type_id":"4","last_reported":1750166754,"current_range_meters":18800,"station_id":"ce4bhn12rcd13ifvqgpg","pricing_plan_id":"cebpf4jnsgd1na2vs0mg"},{"bike_id":"43c9ec49-f42d-4b26-bd27-97128f401b71","system_id":"levelo_inurba_marseille","lat":43.24081,"lon":5.37767,"is_reserved":false,"is_disabled":false,"rental_uris":{"android":"levelo://app?vid=43c9ec49-f42d-4b26-bd27-97128f401b71","ios":"levelo://app?vid=43c9ec49-f42d-4b26-bd27-97128f401b71"},"vehicle_type_id":"4","last_reported":1750166754,"current_range_meters":18800,"station_id":"ce4bhnp2rcd13ifvqgvg","pricing_plan_id":"cebpf4jnsgd1na2vs0mg"},{"bike_id":"8196fa73-344f-42fc-9223-ebf7722c68b9","system_id":"levelo_inurba_marseille","lat":43.2407,"lon":5.37756,"is_reserved":false,"is_disabled":false,"rental_uris":{"android":"levelo://app?vid=8196fa73-344f-42fc-9223-ebf7722c68b9","ios":"levelo://app?vid=8196fa73-344f-42fc-9223-ebf7722c68b9"},"vehicle_type_id":"4","last_reported":1750166754,"current_range_meters":18800,"station_id":"ce4bhnp2rcd13ifvqgvg","pricing_plan_id":"cebpf4jnsgd1na2vs0mg"},{"bike_id":"9af4b8d2-de6a-44de-9ad5-3bfdfd393c70","system_id":"levelo_inurba_marseille","lat":43.29891,"lon":5.4367,"is_reserved":false,"is_disabled":false,"rental_uris":{"android":"levelo://app?vid=9af4b8d2-de6a-44de-9ad5-3bfdfd393c70","ios":"levelo://app?vid=9af4b8d2-de6a-44de-9ad5-3bfdfd393c70"},"vehicle_type_id":"4","last_reported":1750166754,"current_range_meters":18800,"station_id":"ce4bhpp2rcd13ifvqhfg","pricing_plan_id":"cebpf4jnsgd1na2vs0mg"},{"bike_id":"268aafb4-1331-426c-97bc-a7d6564caeb6","system_id":"levelo_inurba_marseille","lat":43.32906,"lon":5.37926,"is_reserved":false,"is_disabled":false,"rental_uris":{"android":"levelo://app?vid=268aafb4-1331-426c-97bc-a7d6564caeb6","ios":"levelo://app?vid=268aafb4-1331-426c-97bc-a7d6564caeb6"},"vehicle_type_id":"4","last_reported":1750166754,"current_range_meters":19200,"station_id":"","pricing_plan_id":"cebpf4jnsgd1na2vs0mg"},{"bike_id":"e79d164f-81b6-4c5d-86e7-2d0153cd3fa5","system_id":"levelo_inurba_marseille","lat":43.29905,"lon":5.38145,"is_reserved":false,"is_disabled":false,"rental_uris":{"android":"levelo://app?vid=e79d164f-81b6-4c5d-86e7-2d0153cd3fa5","ios":"levelo://app?vid=e79d164f-81b6-4c5d-86e7-2d0153cd3fa5"},"vehicle_type_id":"4","last_reported":1750166754,"current_range_meters":19200,"station_id":"ce4bgj12rcd13ifvqbc0","pricing_plan_id":"cebpf4jnsgd1na2vs0mg"},{"bike_id":"7d637ca4-a634-42d1-9b45-120b1ec61cc1","system_id":"levelo_inurba_marseille","lat":43.31225,"lon":5.36843,"is_reserved":false,"is_disabled":false,"rental_uris":{"android":"levelo://app?vid=7d637ca4-a634-42d1-9b45-120b1ec61cc1","ios":"levelo://app?vid=7d637ca4-a634-42d1-9b45-120b1ec61cc1"},"vehicle_type_id":"4","last_reported":1750166754,"current_range_meters":19200,"station_id":"ce4bgl92rcd13ifvqbq0","pricing_plan_id":"cebpf4jnsgd1na2vs0mg"},{"bike_id":"5541522a-0cd5-4d85-bb90-3c83d83ded1b","system_id":"levelo_inurba_marseille","lat":43.305434,"lon":5.365499,"is_reserved":false,"is_disabled":false,"rental_uris":{"android":"levelo://app?vid=5541522a-0cd5-4d85-bb90-3c83d83ded1b","ios":"levelo://app?vid=5541522a-0cd5-4d85-bb90-3c83d83ded1b"},"vehicle_type_id":"4","last_reported":1750166754,"current_range_meters":19200,"station_id":"ce4bgs12rcd13ifvqcag","pricing_plan_id":"cebpf4jnsgd1na2vs0mg"},{"bike_id":"57117bae-ce6f-4cbe-9145-73f11ab5ce45","system_id":"levelo_inurba_marseille","lat":43.31094,"lon":5.38364,"is_reserved":false,"is_disabled":false,"rental_uris":{"android":"levelo://app?vid=57117bae-ce6f-4cbe-9145-73f11ab5ce45","ios":"levelo://app?vid=57117bae-ce6f-4cbe-9145-73f11ab5ce45"},"vehicle_type_id":"4","last_reported":1750166754,"current_range_meters":19200,"station_id":"ce4bgv92rcd13ifvqcr0","pricing_plan_id":"cebpf4jnsgd1na2vs0mg"},{"bike_id":"32ac2a5d-d9ab-4dda-a7ba-d7e0323fe8dd","system_id":"levelo_inurba_marseille","lat":43.3033,"lon":5.404283,"is_reserved":false,"is_disabled":false,"rental_uris":{"android":"levelo://app?vid=32ac2a5d-d9ab-4dda-a7ba-d7e0323fe8dd","ios":"levelo://app?vid=32ac2a5d-d9ab-4dda-a7ba-d7e0323fe8dd"},"vehicle_type_id":"4","last_reported":1750166754,"current_range_meters":19200,"station_id":"ce4bh012rcd13ifvqd10","pricing_plan_id":"cebpf4jnsgd1na2vs0mg"},{"bike_id":"02f83d33-fc6c-48a9-ad18-39ab68318158","system_id":"levelo_inurba_marseille","lat":43.29283,"lon":5.40125,"is_reserved":false,"is_disabled":false,"rental_uris":{"android":"levelo://app?vid=02f83d33-fc6c-48a9-ad18-39ab68318158","ios":"levelo://app?vid=02f83d33-fc6c-48a9-ad18-39ab68318158"},"vehicle_type_id":"4","last_reported":1750166754,"current_range_meters":19200,"station_id":"ce4bh312rcd13ifvqdk0","pricing_plan_id":"cebpf4jnsgd1na2vs0mg"},{"bike_id":"8d8672f5-a668-4c19-82b4-1aa3c6e3959d","system_id":"levelo_inurba_marseille","lat":43.2843,"lon":5.35011,"is_reserved":false,"is_disabled":false,"rental_uris":{"android":"levelo://app?vid=8d8672f5-a668-4c19-82b4-1aa3c6e3959d","ios":"levelo://app?vid=8d8672f5-a668-4c19-82b4-1aa3c6e3959d"},"vehicle_type_id":"4","last_reported":1750166754,"current_range_meters":19200,"station_id":"ce4bhbh2rcd13ifvqepg","pricing_plan_id":"cebpf4jnsgd1na2vs0mg"},{"bike_id":"34011965-7337-4c76-bc6d-833dad6810be","system_id":"levelo_inurba_marseille","lat":43.26213,"lon":5.37434,"is_reserved":false,"is_disabled":false,"rental_uris":{"android":"levelo://app?vid=34011965-7337-4c76-bc6d-833dad6810be","ios":"levelo://app?vid=34011965-7337-4c76-bc6d-833dad6810be"},"vehicle_type_id":"4","last_reported":1750166754,"current_range_meters":19200,"station_id":"ce4bhgp2rcd13ifvqfc0","pricing_plan_id":"cebpf4jnsgd1na2vs0mg"},{"bike_id":"474a3637-4a55-4703-82a2-4e819d9b9b9d","system_id":"levelo_inurba_marseille","lat":43.25501,"lon":5.3765,"is_reserved":false,"is_disabled":false,"rental_uris":{"android":"levelo://app?vid=474a3637-4a55-4703-82a2-4e819d9b9b9d","ios":"levelo://app?vid=474a3637-4a55-4703-82a2-4e819d9b9b9d"},"vehicle_type_id":"4","last_reported":1750166754,"current_range_meters":19200,"station_id":"ce4bhh12rcd13ifvqff0","pricing_plan_id":"cebpf4jnsgd1na2vs0mg"},{"bike_id":"42875eea-4546-4ebd-a8cc-d21576c27df8","system_id":"levelo_inurba_marseille","lat":43.269679,"lon":5.386318,"is_reserved":false,"is_disabled":false,"rental_uris":{"android":"levelo://app?vid=42875eea-4546-4ebd-a8cc-d21576c27df8","ios":"levelo://app?vid=42875eea-4546-4ebd-a8cc-d21576c27df8"},"vehicle_type_id":"4","last_reported":1750166754,"current_range_meters":19200,"station_id":"ce4bhh92rcd13ifvqfh0","pricing_plan_id":"cebpf4jnsgd1na2vs0mg"},{"bike_id":"84572544-f4dd-4a42-b6da-0c73609fe888","system_id":"levelo_inurba_marseille","lat":43.24084,"lon":5.37756,"is_reserved":false,"is_disabled":false,"rental_uris":{"android":"levelo://app?vid=84572544-f4dd-4a42-b6da-0c73609fe888","ios":"levelo://app?vid=84572544-f4dd-4a42-b6da-0c73609fe888"},"vehicle_type_id":"4","last_reported":1750166754,"current_range_meters":19200,"station_id":"ce4bhnp2rcd13ifvqgvg","pricing_plan_id":"cebpf4jnsgd1na2vs0mg"},{"bike_id":"ad7c45b4-ea82-47a7-8ab6-48240eb3728d","system_id":"levelo_inurba_marseille","lat":43.320275,"lon":5.415625,"is_reserved":false,"is_disabled":false,"rental_uris":{"android":"levelo://app?vid=ad7c45b4-ea82-47a7-8ab6-48240eb3728d","ios":"levelo://app?vid=ad7c45b4-ea82-47a7-8ab6-48240eb3728d"},"vehicle_type_id":"4","last_reported":1750166754,"current_range_meters":19200,"station_id":"ce4bhq92rcd13ifvqhkg","pricing_plan_id":"cebpf4jnsgd1na2vs0mg"},{"bike_id":"b9815013-3dad-4bfa-a326-645bdd88c031","system_id":"levelo_inurba_marseille","lat":43.29776,"lon":5.39338,"is_reserved":false,"is_disabled":false,"rental_uris":{"android":"levelo://app?vid=b9815013-3dad-4bfa-a326-645bdd88c031","ios":"levelo://app?vid=b9815013-3dad-4bfa-a326-645bdd88c031"},"vehicle_type_id":"4","last_reported":1750166754,"current_range_meters":19200,"station_id":"chh1huq6cuj3fo74tm60","pricing_plan_id":"cebpf4jnsgd1na2vs0mg"},{"bike_id":"3556a47d-bdf3-4d01-a839-926e276e4d02","system_id":"levelo_inurba_marseille","lat":43.31988,"lon":5.41581,"is_reserved":false,"is_disabled":false,"rental_uris":{"android":"levelo://app?vid=3556a47d-bdf3-4d01-a839-926e276e4d02","ios":"levelo://app?vid=3556a47d-bdf3-4d01-a839-926e276e4d02"},"vehicle_type_id":"4","last_reported":1750166754,"current_range_meters":19600,"station_id":"","pricing_plan_id":"cebpf4jnsgd1na2vs0mg"},{"bike_id":"3eaf5d76-7bdb-454a-8e3f-54f986b432e6","system_id":"levelo_inurba_marseille","lat":43.31371,"lon":5.36748,"is_reserved":false,"is_disabled":false,"rental_uris":{"android":"levelo://app?vid=3eaf5d76-7bdb-454a-8e3f-54f986b432e6","ios":"levelo://app?vid=3eaf5d76-7bdb-454a-8e3f-54f986b432e6"},"vehicle_type_id":"4","last_reported":1750166754,"current_range_meters":19600,"station_id":"ce4bgr92rcd13ifvqc6g","pricing_plan_id":"cebpf4jnsgd1na2vs0mg"},{"bike_id":"bea5595f-dc4e-4787-a000-3ba86a97e39d","system_id":"levelo_inurba_marseille","lat":43.31358,"lon":5.36745,"is_reserved":false,"is_disabled":false,"rental_uris":{"android":"levelo://app?vid=bea5595f-dc4e-4787-a000-3ba86a97e39d","ios":"levelo://app?vid=bea5595f-dc4e-4787-a000-3ba86a97e39d"},"vehicle_type_id":"4","last_reported":1750166754,"current_range_meters":19600,"station_id":"ce4bgr92rcd13ifvqc6g","pricing_plan_id":"cebpf4jnsgd1na2vs0mg"},{"bike_id":"34c35739-fc1f-4155-82ab-254409f27986","system_id":"levelo_inurba_marseille","lat":43.3089,"lon":5.39656,"is_reserved":false,"is_disabled":false,"rental_uris":{"android":"levelo://app?vid=34c35739-fc1f-4155-82ab-254409f27986","ios":"levelo://app?vid=34c35739-fc1f-4155-82ab-254409f27986"},"vehicle_type_id":"4","last_reported":1750166754,"current_range_meters":19600,"station_id":"ce4bh012rcd13ifvqcv0","pricing_plan_id":"cebpf4jnsgd1na2vs0mg"},{"bike_id":"d781838d-bbf5-445a-b6c5-2dc37458052b","system_id":"levelo_inurba_marseille","lat":43.28929,"lon":5.3664,"is_reserved":false,"is_disabled":false,"rental_uris":{"android":"levelo://app?vid=d781838d-bbf5-445a-b6c5-2dc37458052b","ios":"levelo://app?vid=d781838d-bbf5-445a-b6c5-2dc37458052b"},"vehicle_type_id":"4","last_reported":1750166754,"current_range_meters":19600,"station_id":"ce4bhap2rcd13ifvqek0","pricing_plan_id":"cebpf4jnsgd1na2vs0mg"},{"bike_id":"36bfb65b-8d91-43a9-9384-420e7d5a9c9b","system_id":"levelo_inurba_marseille","lat":43.25087,"lon":5.39493,"is_reserved":false,"is_disabled":false,"rental_uris":{"android":"levelo://app?vid=36bfb65b-8d91-43a9-9384-420e7d5a9c9b","ios":"levelo://app?vid=36bfb65b-8d91-43a9-9384-420e7d5a9c9b"},"vehicle_type_id":"4","last_reported":1750166754,"current_range_meters":19600,"station_id":"ce4bhm12rcd13ifvqgkg","pricing_plan_id":"cebpf4jnsgd1na2vs0mg"},{"bike_id":"a42bea11-7204-4721-bc75-a9d0581d59cf","system_id":"levelo_inurba_marseille","lat":43.24084,"lon":5.37783,"is_reserved":false,"is_disabled":false,"rental_uris":{"android":"levelo://app?vid=a42bea11-7204-4721-bc75-a9d0581d59cf","ios":"levelo://app?vid=a42bea11-7204-4721-bc75-a9d0581d59cf"},"vehicle_type_id":"4","last_reported":1750166754,"current_range_meters":19600,"station_id":"ce4bhnp2rcd13ifvqgvg","pricing_plan_id":"cebpf4jnsgd1na2vs0mg"},{"bike_id":"efcf1964-4596-4feb-9bfd-3bf2be371be7","system_id":"levelo_inurba_marseille","lat":43.31725,"lon":5.42395,"is_reserved":false,"is_disabled":false,"rental_uris":{"android":"levelo://app?vid=efcf1964-4596-4feb-9bfd-3bf2be371be7","ios":"levelo://app?vid=efcf1964-4596-4feb-9bfd-3bf2be371be7"},"vehicle_type_id":"4","last_reported":1750166754,"current_range_meters":19600,"station_id":"ce4bhp92rcd13ifvqhbg","pricing_plan_id":"cebpf4jnsgd1na2vs0mg"},{"bike_id":"d2ae5a21-bf30-451b-ae54-2705a00a8384","system_id":"levelo_inurba_marseille","lat":43.3093,"lon":5.40135,"is_reserved":false,"is_disabled":false,"rental_uris":{"android":"levelo://app?vid=d2ae5a21-bf30-451b-ae54-2705a00a8384","ios":"levelo://app?vid=d2ae5a21-bf30-451b-ae54-2705a00a8384"},"vehicle_type_id":"4","last_reported":1750166754,"current_range_meters":20000,"station_id":"ce4bgvp2rcd13ifvqct0","pricing_plan_id":"cebpf4jnsgd1na2vs0mg"},{"bike_id":"3a9fa05c-aca2-4dd3-b031-c1ac91d54044","system_id":"levelo_inurba_marseille","lat":43.28261,"lon":5.35064,"is_reserved":false,"is_disabled":false,"rental_uris":{"android":"levelo://app?vid=3a9fa05c-aca2-4dd3-b031-c1ac91d54044","ios":"levelo://app?vid=3a9fa05c-aca2-4dd3-b031-c1ac91d54044"},"vehicle_type_id":"4","last_reported":1750166754,"current_range_meters":20000,"station_id":"ce4bhbp2rcd13ifvqerg","pricing_plan_id":"cebpf4jnsgd1na2vs0mg"},{"bike_id":"2473aa0a-0653-441a-9af1-7b26280aec60","system_id":"levelo_inurba_marseille","lat":43.27209,"lon":5.39169,"is_reserved":false,"is_disabled":false,"rental_uris":{"android":"levelo://app?vid=2473aa0a-0653-441a-9af1-7b26280aec60","ios":"levelo://app?vid=2473aa0a-0653-441a-9af1-7b26280aec60"},"vehicle_type_id":"4","last_reported":1750166754,"current_range_meters":20000,"station_id":"ce4bhhp2rcd13ifvqfm0","pricing_plan_id":"cebpf4jnsgd1na2vs0mg"},{"bike_id":"ddf43291-3446-4c30-ac49-f68f00abf0df","system_id":"levelo_inurba_marseille","lat":43.27674,"lon":5.38892,"is_reserved":false,"is_disabled":false,"rental_uris":{"android":"levelo://app?vid=ddf43291-3446-4c30-ac49-f68f00abf0df","ios":"levelo://app?vid=ddf43291-3446-4c30-ac49-f68f00abf0df"},"vehicle_type_id":"4","last_reported":1750166754,"current_range_meters":20000,"station_id":"ce4bhi12rcd13ifvqfo0","pricing_plan_id":"cebpf4jnsgd1na2vs0mg"},{"bike_id":"9eedb966-ed93-45f8-85ec-d3285e8b6316","system_id":"levelo_inurba_marseille","lat":43.23151,"lon":5.43735,"is_reserved":false,"is_disabled":false,"rental_uris":{"android":"levelo://app?vid=9eedb966-ed93-45f8-85ec-d3285e8b6316","ios":"levelo://app?vid=9eedb966-ed93-45f8-85ec-d3285e8b6316"},"vehicle_type_id":"4","last_reported":1750166754,"current_range_meters":20000,"station_id":"ce4bhmp2rcd13ifvqgog","pricing_plan_id":"cebpf4jnsgd1na2vs0mg"},{"bike_id":"456e3e01-d483-4af3-ad8c-fac20db5c110","system_id":"levelo_inurba_marseille","lat":43.24187,"lon":5.39746,"is_reserved":false,"is_disabled":false,"rental_uris":{"android":"levelo://app?vid=456e3e01-d483-4af3-ad8c-fac20db5c110","ios":"levelo://app?vid=456e3e01-d483-4af3-ad8c-fac20db5c110"},"vehicle_type_id":"4","last_reported":1750166754,"current_range_meters":20000,"station_id":"ce4bhn12rcd13ifvqgpg","pricing_plan_id":"cebpf4jnsgd1na2vs0mg"},{"bike_id":"28701354-04db-4ccd-965d-529bbc82fcd5","system_id":"levelo_inurba_marseille","lat":43.21189,"lon":5.35054,"is_reserved":false,"is_disabled":false,"rental_uris":{"android":"levelo://app?vid=28701354-04db-4ccd-965d-529bbc82fcd5","ios":"levelo://app?vid=28701354-04db-4ccd-965d-529bbc82fcd5"},"vehicle_type_id":"4","last_reported":1750166754,"current_range_meters":20000,"station_id":"st_cvj6sg6p6f1abm77japg","pricing_plan_id":"cebpf4jnsgd1na2vs0mg"},{"bike_id":"95d73ec8-1995-4e53-bcd3-94df36e9714b","system_id":"levelo_inurba_marseille","lat":43.32457,"lon":5.38403,"is_reserved":false,"is_disabled":false,"rental_uris":{"android":"levelo://app?vid=95d73ec8-1995-4e53-bcd3-94df36e9714b","ios":"levelo://app?vid=95d73ec8-1995-4e53-bcd3-94df36e9714b"},"vehicle_type_id":"4","last_reported":1750166754,"current_range_meters":20400,"station_id":"","pricing_plan_id":"cebpf4jnsgd1na2vs0mg"},{"bike_id":"744cf4fa-bb14-4576-929f-2f6effc633c9","system_id":"levelo_inurba_marseille","lat":43.29402,"lon":5.43291,"is_reserved":false,"is_disabled":false,"rental_uris":{"android":"levelo://app?vid=744cf4fa-bb14-4576-929f-2f6effc633c9","ios":"levelo://app?vid=744cf4fa-bb14-4576-929f-2f6effc633c9"},"vehicle_type_id":"4","last_reported":1750166754,"current_range_meters":20400,"station_id":"","pricing_plan_id":"cebpf4jnsgd1na2vs0mg"},{"bike_id":"546a93d7-26fc-46c9-9fc4-c887892e2b89","system_id":"levelo_inurba_marseille","lat":43.29176,"lon":5.39319,"is_reserved":false,"is_disabled":false,"rental_uris":{"android":"levelo://app?vid=546a93d7-26fc-46c9-9fc4-c887892e2b89","ios":"levelo://app?vid=546a93d7-26fc-46c9-9fc4-c887892e2b89"},"vehicle_type_id":"4","last_reported":1750166754,"current_range_meters":20400,"station_id":"ce4bh192rcd13ifvqdd0","pricing_plan_id":"cebpf4jnsgd1na2vs0mg"},{"bike_id":"329fa638-5cae-4d80-84a0-f7375cb03d86","system_id":"levelo_inurba_marseille","lat":43.28423,"lon":5.34992,"is_reserved":false,"is_disabled":false,"rental_uris":{"android":"levelo://app?vid=329fa638-5cae-4d80-84a0-f7375cb03d86","ios":"levelo://app?vid=329fa638-5cae-4d80-84a0-f7375cb03d86"},"vehicle_type_id":"4","last_reported":1750166754,"current_range_meters":20400,"station_id":"ce4bhbh2rcd13ifvqepg","pricing_plan_id":"cebpf4jnsgd1na2vs0mg"},{"bike_id":"775f36ec-389a-4ac6-a38a-8bcf71b1e7b3","system_id":"levelo_inurba_marseille","lat":43.2827,"lon":5.35077,"is_reserved":false,"is_disabled":false,"rental_uris":{"android":"levelo://app?vid=775f36ec-389a-4ac6-a38a-8bcf71b1e7b3","ios":"levelo://app?vid=775f36ec-389a-4ac6-a38a-8bcf71b1e7b3"},"vehicle_type_id":"4","last_reported":1750166754,"current_range_meters":20400,"station_id":"ce4bhbp2rcd13ifvqerg","pricing_plan_id":"cebpf4jnsgd1na2vs0mg"},{"bike_id":"1e0ee69a-bee8-46a0-864c-d35a91c2b92f","system_id":"levelo_inurba_marseille","lat":43.33023,"lon":5.39037,"is_reserved":false,"is_disabled":false,"rental_uris":{"android":"levelo://app?vid=1e0ee69a-bee8-46a0-864c-d35a91c2b92f","ios":"levelo://app?vid=1e0ee69a-bee8-46a0-864c-d35a91c2b92f"},"vehicle_type_id":"4","last_reported":1750166754,"current_range_meters":20400,"station_id":"ce4bhr92rcd13ifvqhrg","pricing_plan_id":"cebpf4jnsgd1na2vs0mg"},{"bike_id":"61185e51-def2-4557-89b9-f06c340ff2e2","system_id":"levelo_inurba_marseille","lat":43.21216,"lon":5.35081,"is_reserved":false,"is_disabled":false,"rental_uris":{"android":"levelo://app?vid=61185e51-def2-4557-89b9-f06c340ff2e2","ios":"levelo://app?vid=61185e51-def2-4557-89b9-f06c340ff2e2"},"vehicle_type_id":"4","last_reported":1750166754,"current_range_meters":20400,"station_id":"st_cvj6sg6p6f1abm77japg","pricing_plan_id":"cebpf4jnsgd1na2vs0mg"},{"bike_id":"c1f010d4-2315-444e-bea5-8917443da6cd","system_id":"levelo_inurba_marseille","lat":43.2842,"lon":5.34988,"is_reserved":false,"is_disabled":false,"rental_uris":{"android":"levelo://app?vid=c1f010d4-2315-444e-bea5-8917443da6cd","ios":"levelo://app?vid=c1f010d4-2315-444e-bea5-8917443da6cd"},"vehicle_type_id":"4","last_reported":1750166754,"current_range_meters":20800,"station_id":"ce4bhbh2rcd13ifvqepg","pricing_plan_id":"cebpf4jnsgd1na2vs0mg"},{"bike_id":"6b85fdb1-7a36-4647-bb2c-7aabc1a51c8c","system_id":"levelo_inurba_marseille","lat":43.23964,"lon":5.3664,"is_reserved":false,"is_disabled":false,"rental_uris":{"android":"levelo://app?vid=6b85fdb1-7a36-4647-bb2c-7aabc1a51c8c","ios":"levelo://app?vid=6b85fdb1-7a36-4647-bb2c-7aabc1a51c8c"},"vehicle_type_id":"4","last_reported":1750166754,"current_range_meters":20800,"station_id":"ce4bhi12rcd13ifvqfp0","pricing_plan_id":"cebpf4jnsgd1na2vs0mg"},{"bike_id":"ab441150-186c-4e1b-8122-702d76c85399","system_id":"levelo_inurba_marseille","lat":43.31061,"lon":5.38343,"is_reserved":false,"is_disabled":false,"rental_uris":{"android":"levelo://app?vid=ab441150-186c-4e1b-8122-702d76c85399","ios":"levelo://app?vid=ab441150-186c-4e1b-8122-702d76c85399"},"vehicle_type_id":"4","last_reported":1750166754,"current_range_meters":21600,"station_id":"ce4bgv92rcd13ifvqcr0","pricing_plan_id":"cebpf4jnsgd1na2vs0mg"},{"bike_id":"501216f8-8a76-4055-b73d-f2f0fbcde2c4","system_id":"levelo_inurba_marseille","lat":43.30937,"lon":5.40146,"is_reserved":false,"is_disabled":false,"rental_uris":{"android":"levelo://app?vid=501216f8-8a76-4055-b73d-f2f0fbcde2c4","ios":"levelo://app?vid=501216f8-8a76-4055-b73d-f2f0fbcde2c4"},"vehicle_type_id":"4","last_reported":1750166754,"current_range_meters":21600,"station_id":"ce4bgvp2rcd13ifvqct0","pricing_plan_id":"cebpf4jnsgd1na2vs0mg"},{"bike_id":"942d2523-f425-4f70-89ad-3c9f10f19756","system_id":"levelo_inurba_marseille","lat":43.3014,"lon":5.39868,"is_reserved":false,"is_disabled":false,"rental_uris":{"android":"levelo://app?vid=942d2523-f425-4f70-89ad-3c9f10f19756","ios":"levelo://app?vid=942d2523-f425-4f70-89ad-3c9f10f19756"},"vehicle_type_id":"4","last_reported":1750166754,"current_range_meters":21600,"station_id":"ce4bh0h2rcd13ifvqd40","pricing_plan_id":"cebpf4jnsgd1na2vs0mg"},{"bike_id":"9b9946a7-6b7b-4105-9f0b-efa2ca3af91d","system_id":"levelo_inurba_marseille","lat":43.2886,"lon":5.35857,"is_reserved":false,"is_disabled":false,"rental_uris":{"android":"levelo://app?vid=9b9946a7-6b7b-4105-9f0b-efa2ca3af91d","ios":"levelo://app?vid=9b9946a7-6b7b-4105-9f0b-efa2ca3af91d"},"vehicle_type_id":"4","last_reported":1750166754,"current_range_meters":21600,"station_id":"ce4bhb12rcd13ifvqem0","pricing_plan_id":"cebpf4jnsgd1na2vs0mg"},{"bike_id":"2d011489-3a50-4137-8707-13a2dba13148","system_id":"levelo_inurba_marseille","lat":43.25954,"lon":5.40893,"is_reserved":false,"is_disabled":false,"rental_uris":{"android":"levelo://app?vid=2d011489-3a50-4137-8707-13a2dba13148","ios":"levelo://app?vid=2d011489-3a50-4137-8707-13a2dba13148"},"vehicle_type_id":"4","last_reported":1750166754,"current_range_meters":21600,"station_id":"ce4bhm92rcd13ifvqglg","pricing_plan_id":"cebpf4jnsgd1na2vs0mg"},{"bike_id":"aebd12da-766f-4242-a9f6-9430df140b4c","system_id":"levelo_inurba_marseille","lat":43.24193,"lon":5.39737,"is_reserved":false,"is_disabled":false,"rental_uris":{"android":"levelo://app?vid=aebd12da-766f-4242-a9f6-9430df140b4c","ios":"levelo://app?vid=aebd12da-766f-4242-a9f6-9430df140b4c"},"vehicle_type_id":"4","last_reported":1750166754,"current_range_meters":21600,"station_id":"ce4bhn12rcd13ifvqgpg","pricing_plan_id":"cebpf4jnsgd1na2vs0mg"},