{"last_updated":1776949206,"ttl":60,"version":"2.2","data":{"bikes":[{"bike_id":"97aa55f3-b395-4ffc-9a9e-35d6914463e4","system_id":"levelo_inurba_marseille","lat":43.311567,"lon":5.396131,"is_reserved":false,"is_disabled":false,"rental_uris":{"android":"levelo://app?vid=97aa55f3-b395-4ffc-9a9e-35d6914463e4","ios":"levelo://app?vid=97aa55f3-b395-4ffc-9a9e-35d6914463e4"},"vehicle_type_id":"4","last_reported":1776949207,"current_range_meters":0,"station_id":"","pricing_plan_id":"cebpf4jnsgd1na2vs0mg"},{"bike_id":"73d436be-8bb5-400c-b5b8-edfd7e8d5913","system_id":"levelo_inurba_marseille","lat":43.337444,"lon":5.374475,"is_reserved":false,"is_disabled":false,"rental_uris":{"android":"levelo://app?vid=73d436be-8bb5-400c-b5b8-edfd7e8d5913","ios":"levelo://app?vid=73d436be-8bb5-400c-b5b8-edfd7e8d5913"},"vehicle_type_id":"4","last_reported":1776949207,"current_range_meters":2800,"station_id":"ce4bhgp2rcd13ifvqfc0","pricing_plan_id":"cebpf4jnsgd1na2vs0mg"},{"bike_id":"b03d1d29-2f1f-4b9c-b3b6-0acc1d859b2b","system_id":"levelo_inurba_marseille","lat":43.23165,"lon":5.43683,"is_reserved":false,"is_disabled":false,"rental_uris":{"android":"levelo://app?vid=b03d1d29-2f1f-4b9c-b3b6-0acc1d859b2b","ios":"levelo://app?vid=b03d1d29-2f1f-4b9c-b3b6-0acc1d859b2b"},"vehicle_type_id":"4","last_reported":1776949207,"current_range_meters":2800,"station_id":"ce4bhmp2rcd13ifvqgog","pricing_plan_id":"cebpf4jnsgd1na2vs0mg"},{"bike_id":"94dd750c-b803-4852-8849-ece161b19e86","system_id":"levelo_inurba_marseille","lat":43.28485,"lon":5.48388,"is_reserved":false,"is_disabled":false,"rental_uris":{"android":"levelo://app?vid=94dd750c-b803-4852-8849-ece161b19e86","ios":"levelo://app?vid=94dd750c-b803-4852-8849-ece161b19e86"},"vehicle_type_id":"4","last_reported":1776949207,"current_range_meters":2800,"station_id":"st_d3svhcjqgbts73a3dn0g","pricing_plan_id":"cebpf4jnsgd1na2vs0mg"},{"bike_id":"3ba35096-bfdc-44a9-bbfe-7c0ca475acd5","system_id":"levelo_inurba_marseille","lat":43.27365,"lon":5.36252,"is_reserved":false,"is_disabled":false,"rental_uris":{"android":"levelo://app?vid=3ba35096-bfdc-44a9-bbfe-7c0ca475acd5","ios":"levelo://app?vid=3ba35096-bfdc-44a9-bbfe-7c0ca475acd5"},"vehicle_type_id":"4","last_reported":1776949207,"current_range_meters":3200,"station_id":"ce4bhbh2rcd13ifvqeo0","pricing_plan_id":"cebpf4jnsgd1na2vs0mg"},{"bike_id":"04257b95-4499-46e1-a4e3-88ab526291ba","system_id":"levelo_inurba_marseille","lat":43.28484,"lon":5.48394,"is_reserved":false,"is_disabled":false,"rental_uris":{"android":"levelo://app?vid=04257b95-4499-46e1-a4e3-88ab526291ba","ios":"levelo://app?vid=04257b95-4499-46e1-a4e3-88ab526291ba"},"vehicle_type_id":"4","last_reported":1776949207,"current_range_meters":3200,"station_id":"","pricing_plan_id":"cebpf4jnsgd1na2vs0mg"},{"bike_id":"903d2315-6567-4bbd-b887-98d60e64c401","system_id":"levelo_inurba_marseille","lat":43.29021,"lon":5.38633,"is_reserved":false,"is_disabled":false,"rental_uris":{"android":"levelo://app?vid=903d2315-6567-4bbd-b887-98d60e64c401","ios":"levelo://app?vid=903d2315-6567-4bbd-b887-98d60e64c401"},"vehicle_type_id":"4","last_reported":1776949207,"current_range_meters":3200,"station_id":"ce4bh4p2rcd13ifvqe0g","pricing_plan_id":"cebpf4jnsgd1na2vs0mg"},{"bike_id":"f01d500d-617f-458b-a119-1676466bce0e","system_id":"levelo_inurba_marseille","lat":43.29601,"lon":5.36715,"is_reserved":false,"is_disabled":true,"rental_uris":{"android":"levelo://app?vid=f01d500d-617f-458b-a119-1676466bce0e","ios":"levelo://app?vid=f01d500d-617f-458b-a119-1676466bce0e"},"vehicle_type_id":"4","last_reported":1776949207,"current_range_meters":3200,"station_id":"ce4bgph2rcd13ifvqc2g","pricing_plan_id":"cebpf4jnsgd1na2vs0mg"},{"bike_id":"53ac9b94-d2b8-401a-8133-9009372f217e","system_id":"levelo_inurba_marseille","lat":43.28478,"lon":5.48397,"is_reserved":false,"is_disabled":false,"rental_uris":{"android":"levelo://app?vid=53ac9b94-d2b8-401a-8133-9009372f217e","ios":"levelo://app?vid=53ac9b94-d2b8-401a-8133-9009372f217e"},"vehicle_type_id":"4","last_reported":1776949207,"current_range_meters":3200,"station_id":"","pricing_plan_id":"cebpf4jnsgd1na2vs0mg"},{"bike_id":"7fac8b1f-203e-4fb3-94a5-3d2aaef8e658","system_id":"levelo_inurba_marseille","lat":43.26552,"lon":5.37279,"is_reserved":false,"is_disabled":false,"rental_uris":{"android":"levelo://app?vid=7fac8b1f-203e-4fb3-94a5-3d2aaef8e658","ios":"levelo://app?vid=7fac8b1f-203e-4fb3-94a5-3d2aaef8e658"},"vehicle_type_id":"4","last_reported":1776949207,"current_range_meters":3200,"station_id":"ce4bhg12rcd13ifvqf70","pricing_plan_id":"cebpf4jnsgd1na2vs0mg"},{"bike_id":"bd6cde2b-404b-4635-ba5b-f3801dad1c70","system_id":"levelo_inurba_marseille","lat":43.24389,"lon":5.37056,"is_reserved":false,"is_disabled":false,"rental_uris":{"android":"levelo://app?vid=bd6cde2b-404b-4635-ba5b-f3801dad1c70","ios":"levelo://app?vid=bd6cde2b-404b-4635-ba5b-f3801dad1c70"},"vehicle_type_id":"4","last_reported":1776949207,"current_range_meters":3200,"station_id":"ce4bhhh2rcd13ifvqfk0","pricing_plan_id":"cebpf4jnsgd1na2vs0mg"},{"bike_id":"1c4db81e-e54e-450a-b910-a202dc639503","system_id":"levelo_inurba_marseille","lat":43.28472,"lon":5.48392,"is_reserved":false,"is_disabled":false,"rental_uris":{"android":"levelo://app?vid=1c4db81e-e54e-450a-b910-a202dc639503","ios":"levelo://app?vid=1c4db81e-e54e-450a-b910-a202dc639503"},"vehicle_type_id":"4","last_reported":1776949207,"current_range_meters":3600,"station_id":"","pricing_plan_id":"cebpf4jnsgd1na2vs0mg"},{"bike_id":"fc83597b-c92a-4d6b-9ec3-85cccb5b70a7","system_id":"levelo_inurba_marseille","lat":43.31953,"lon":5.3682,"is_reserved":false,"is_disabled":false,"rental_uris":{"android":"levelo://app?vid=fc83597b-c92a-4d6b-9ec3-85cccb5b70a7","ios":"levelo://app?vid=fc83597b-c92a-4d6b-9ec3-85cccb5b70a7"},"vehicle_type_id":"4","last_reported":1776949207,"current_range_meters":3600,"station_id":"","pricing_plan_id":"cebpf4jnsgd1na2vs0mg"},{"bike_id":"46fcd30c-c87b-4d27-8e72-a965b5215561","system_id":"levelo_inurba_marseille","lat":43.30382,"lon":5.42485,"is_reserved":false,"is_disabled":false,"rental_uris":{"android":"levelo://app?vid=46fcd30c-c87b-4d27-8e72-a965b5215561","ios":"levelo://app?vid=46fcd30c-c87b-4d27-8e72-a965b5215561"},"vehicle_type_id":"4","last_reported":1776949207,"current_range_meters":3600,"station_id":"ce4bhoh2rcd13ifvqh6g","pricing_plan_id":"cebpf4jnsgd1na2vs0mg"},{"bike_id":"fd090187-b3cd-49e0-82c6-b3817cf3be1b","system_id":"levelo_inurba_marseille","lat":43.29861,"lon":5.38572,"is_reserved":false,"is_disabled":false,"rental_uris":{"android":"levelo://app?vid=fd090187-b3cd-49e0-82c6-b3817cf3be1b","ios":"levelo://app?vid=fd090187-b3cd-49e0-82c6-b3817cf3be1b"},"vehicle_type_id":"4","last_reported":1776949207,"current_range_meters":3600,"station_id":"","pricing_plan_id":"cebpf4jnsgd1na2vs0mg"},{"bike_id":"1eba0cf7-6196-4053-8008-a14cd3518b61","system_id":"levelo_inurba_marseille","lat":43.30114,"lon":5.374,"is_reserved":false,"is_disabled":false,"rental_uris":{"android":"levelo://app?vid=1eba0cf7-6196-4053-8008-a14cd3518b61","ios":"levelo://app?vid=1eba0cf7-6196-4053-8008-a14cd3518b61"},"vehicle_type_id":"4","last_reported":1776949207,"current_range_meters":3600,"station_id":"ce4bgs92rcd13ifvqcc0","pricing_plan_id":"cebpf4jnsgd1na2vs0mg"},{"bike_id":"97640678-22eb-456e-8a6b-8940edbd10ca","system_id":"levelo_inurba_marseille","lat":43.2392,"lon":5.41478,"is_reserved":false,"is_disabled":false,"rental_uris":{"android":"levelo://app?vid=97640678-22eb-456e-8a6b-8940edbd10ca","ios":"levelo://app?vid=97640678-22eb-456e-8a6b-8940edbd10ca"},"vehicle_type_id":"4","last_reported":1776949207,"current_range_meters":3600,"station_id":"","pricing_plan_id":"cebpf4jnsgd1na2vs0mg"},{"bike_id":"f1fd5ad5-e63e-421d-b9a2-a31398ef08e4","system_id":"levelo_inurba_marseille","lat":43.23965,"lon":5.36634,"is_reserved":false,"is_disabled":false,"rental_uris":{"android":"levelo://app?vid=f1fd5ad5-e63e-421d-b9a2-a31398ef08e4","ios":"levelo://app?vid=f1fd5ad5-e63e-421d-b9a2-a31398ef08e4"},"vehicle_type_id":"4","last_reported":1776949207,"current_range_meters":3600,"station_id":"ce4bhi12rcd13ifvqfp0","pricing_plan_id":"cebpf4jnsgd1na2vs0mg"},{"bike_id":"e9d8fce9-a5b1-47db-ba7d-e68cf8fcb5c2","system_id":"levelo_inurba_marseille","lat":43.21199,"lon":5.35051,"is_reserved":false,"is_disabled":false,"rental_uris":{"android":"levelo://app?vid=e9d8fce9-a5b1-47db-ba7d-e68cf8fcb5c2","ios":"levelo://app?vid=e9d8fce9-a5b1-47db-ba7d-e68cf8fcb5c2"},"vehicle_type_id":"4","last_reported":1776949207,"current_range_meters":3600,"station_id":"st_cvj6sg6p6f1abm77japg","pricing_plan_id":"cebpf4jnsgd1na2vs0mg"},{"bike_id":"7890c4dc-8244-4ddd-88cb-746f0f6e39f6","system_id":"levelo_inurba_marseille","lat":43.24811,"lon":5.37452,"is_reserved":false,"is_disabled":true,"rental_uris":{"android":"levelo://app?vid=7890c4dc-8244-4ddd-88cb-746f0f6e39f6","ios":"levelo://app?vid=7890c4dc-8244-4ddd-88cb-746f0f6e39f6"},"vehicle_type_id":"4","last_reported":1776949207,"current_range_meters":4000,"station_id":"ce4bhgh2rcd13ifvqfb0","pricing_plan_id":"cebpf4jnsgd1na2vs0mg"},{"bike_id":"0abdcc11-6585-4919-85b4-bfc2cefd3284","system_id":"levelo_inurba_marseille","lat":43.26029,"lon":5.3753,"is_reserved":false,"is_disabled":false,"rental_uris":{"android":"levelo://app?vid=0abdcc11-6585-4919-85b4-bfc2cefd3284","ios":"levelo://app?vid=0abdcc11-6585-4919-85b4-bfc2cefd3284"},"vehicle_type_id":"4","last_reported":1776949207,"current_range_meters":4000,"station_id":"ce4bhgh2rcd13ifvqfa0","pricing_plan_id":"cebpf4jnsgd1na2vs0mg"},{"bike_id":"2b967b43-9361-4028-b0c4-1a23686df791","system_id":"levelo_inurba_marseille","lat":43.25938,"lon":5.40889,"is_reserved":false,"is_disabled":false,"rental_uris":{"android":"levelo://app?vid=2b967b43-9361-4028-b0c4-1a23686df791","ios":"levelo://app?vid=2b967b43-9361-4028-b0c4-1a23686df791"},"vehicle_type_id":"4","last_reported":1776949207,"current_range_meters":4000,"station_id":"ce4bhm92rcd13ifvqglg","pricing_plan_id":"cebpf4jnsgd1na2vs0mg"},{"bike_id":"b0292b57-bc6e-4d3d-855f-2c85d8c85123","system_id":"levelo_inurba_marseille","lat":43.29321,"lon":5.36256,"is_reserved":false,"is_disabled":false,"rental_uris":{"android":"levelo://app?vid=b0292b57-bc6e-4d3d-855f-2c85d8c85123","ios":"levelo://app?vid=b0292b57-bc6e-4d3d-855f-2c85d8c85123"},"vehicle_type_id":"4","last_reported":1776949207,"current_range_meters":4000,"station_id":"","pricing_plan_id":"cebpf4jnsgd1na2vs0mg"},{"bike_id":"98e26014-ac24-4d7d-a5fa-d78708df50ac","system_id":"levelo_inurba_marseille","lat":43.23155,"lon":5.43692,"is_reserved":false,"is_disabled":true,"rental_uris":{"android":"levelo://app?vid=98e26014-ac24-4d7d-a5fa-d78708df50ac","ios":"levelo://app?vid=98e26014-ac24-4d7d-a5fa-d78708df50ac"},"vehicle_type_id":"4","last_reported":1776949207,"current_range_meters":4000,"station_id":"ce4bhmp2rcd13ifvqgog","pricing_plan_id":"cebpf4jnsgd1na2vs0mg"},{"bike_id":"44a8ad8e-789f-48db-af03-ad048db70c81","system_id":"levelo_inurba_marseille","lat":43.30948,"lon":5.39029,"is_reserved":false,"is_disabled":false,"rental_uris":{"android":"levelo://app?vid=44a8ad8e-789f-48db-af03-ad048db70c81","ios":"levelo://app?vid=44a8ad8e-789f-48db-af03-ad048db70c81"},"vehicle_type_id":"4","last_reported":1776949207,"current_range_meters":4000,"station_id":"ce4bgup2rcd13ifvqco0","pricing_plan_id":"cebpf4jnsgd1na2vs0mg"},{"bike_id":"b31dcf29-c59f-4a8c-956d-3fa94c9099c6","system_id":"levelo_inurba_marseille","lat":43.29236,"lon":5.36042,"is_reserved":false,"is_disabled":false,"rental_uris":{"android":"levelo://app?vid=b31dcf29-c59f-4a8c-956d-3fa94c9099c6","ios":"levelo://app?vid=b31dcf29-c59f-4a8c-956d-3fa94c9099c6"},"vehicle_type_id":"4","last_reported":1776949207,"current_range_meters":4000,"station_id":"ce4bhbh2rcd13ifvqeqg","pricing_plan_id":"cebpf4jnsgd1na2vs0mg"},{"bike_id":"5f22ce49-804f-48df-a104-e12cca738c16","system_id":"levelo_inurba_marseille","lat":43.27206,"lon":5.39177,"is_reserved":false,"is_disabled":false,"rental_uris":{"android":"levelo://app?vid=5f22ce49-804f-48df-a104-e12cca738c16","ios":"levelo://app?vid=5f22ce49-804f-48df-a104-e12cca738c16"},"vehicle_type_id":"4","last_reported":1776949207,"current_range_meters":4000,"station_id":"ce4bhhp2rcd13ifvqfm0","pricing_plan_id":"cebpf4jnsgd1na2vs0mg"},{"bike_id":"1920230f-cceb-4ecb-946a-b5363e0e586f","system_id":"levelo_inurba_marseille","lat":43.21201,"lon":5.35049,"is_reserved":false,"is_disabled":true,"rental_uris":{"android":"levelo://app?vid=1920230f-cceb-4ecb-946a-b5363e0e586f","ios":"levelo://app?vid=1920230f-cceb-4ecb-946a-b5363e0e586f"},"vehicle_type_id":"4","last_reported":1776949207,"current_range_meters":4000,"station_id":"st_cvj6sg6p6f1abm77japg","pricing_plan_id":"cebpf4jnsgd1na2vs0mg"},{"bike_id":"059b4ad8-665d-46df-9a3f-e9b9a20a1c99","system_id":"levelo_inurba_marseille","lat":43.33542,"lon":5.37465,"is_reserved":false,"is_disabled":false,"rental_uris":{"android":"levelo://app?vid=059b4ad8-665d-46df-9a3f-e9b9a20a1c99","ios":"levelo://app?vid=059b4ad8-665d-46df-9a3f-e9b9a20a1c99"},"vehicle_type_id":"4","last_reported":1776949207,"current_range_meters":4000,"station_id":"st_d46tts09ee8s73dlu43g","pricing_plan_id":"cebpf4jnsgd1na2vs0mg"},{"bike_id":"9b83de7e-627c-4b6a-97f2-e9456822b44d","system_id":"levelo_inurba_marseille","lat":43.26327,"lon":5.41109,"is_reserved":false,"is_disabled":false,"rental_uris":{"android":"levelo://app?vid=9b83de7e-627c-4b6a-97f2-e9456822b44d","ios":"levelo://app?vid=9b83de7e-627c-4b6a-97f2-e9456822b44d"},"vehicle_type_id":"4","last_reported":1776949207,"current_range_meters":4400,"station_id":"st_d4e5ca6na9uc73bfl5fg","pricing_plan_id":"cebpf4jnsgd1na2vs0mg"},{"bike_id":"cf1194ff-3577-4201-8e73-dd020d6aa1c0","system_id":"levelo_inurba_marseille","lat":43.28857,"lon":5.35847,"is_reserved":false,"is_disabled":false,"rental_uris":{"android":"levelo://app?vid=cf1194ff-3577-4201-8e73-dd020d6aa1c0","ios":"levelo://app?vid=cf1194ff-3577-4201-8e73-dd020d6aa1c0"},"vehicle_type_id":"4","last_reported":1776949207,"current_range_meters":4400,"station_id":"ce4bhb12rcd13ifvqem0","pricing_plan_id":"cebpf4jnsgd1na2vs0mg"},{"bike_id":"0d8738c8-efd5-4f83-bedf-81eb9a1d6096","system_id":"levelo_inurba_marseille","lat":43.33166,"lon":5.36172,"is_reserved":false,"is_disabled":false,"rental_uris":{"android":"levelo://app?vid=0d8738c8-efd5-4f83-bedf-81eb9a1d6096","ios":"levelo://app?vid=0d8738c8-efd5-4f83-bedf-81eb9a1d6096"},"vehicle_type_id":"4","last_reported":1776949207,"current_range_meters":4400,"station_id":"","pricing_plan_id":"cebpf4jnsgd1na2vs0mg"},{"bike_id":"2f98c3a8-4cbd-455b-a0ac-71eea290945b","system_id":"levelo_inurba_marseille","lat":43.21208,"lon":5.35055,"is_reserved":false,"is_disabled":false,"rental_uris":{"android":"levelo://app?vid=2f98c3a8-4cbd-455b-a0ac-71eea290945b","ios":"levelo://app?vid=2f98c3a8-4cbd-455b-a0ac-71eea290945b"},"vehicle_type_id":"4","last_reported":1776949207,"current_range_meters":4400,"station_id":"st_cvj6sg6p6f1abm77japg","pricing_plan_id":"cebpf4jnsgd1na2vs0mg"},{"bike_id":"ae16422a-94b0-4918-bfab-517dc8703cd8","system_id":"levelo_inurba_marseille","lat":43.28442,"lon":5.35015,"is_reserved":false,"is_disabled":false,"rental_uris":{"android":"levelo://app?vid=ae16422a-94b0-4918-bfab-517dc8703cd8","ios":"levelo://app?vid=ae16422a-94b0-4918-bfab-517dc8703cd8"},"vehicle_type_id":"4","last_reported":1776949207,"current_range_meters":4400,"station_id":"ce4bhbh2rcd13ifvqepg","pricing_plan_id":"cebpf4jnsgd1na2vs0mg"},{"bike_id":"09012acd-7e2a-4e46-b00e-3df38d87fafc","system_id":"levelo_inurba_marseille","lat":43.24841,"lon":5.40659,"is_reserved":false,"is_disabled":false,"rental_uris":{"android":"levelo://app?vid=09012acd-7e2a-4e46-b00e-3df38d87fafc","ios":"levelo://app?vid=09012acd-7e2a-4e46-b00e-3df38d87fafc"},"vehicle_type_id":"4","last_reported":1776949207,"current_range_meters":4800,"station_id":"","pricing_plan_id":"cebpf4jnsgd1na2vs0mg"},{"bike_id":"55f585b9-cb27-49d4-ab67-b14346195d8c","system_id":"levelo_inurba_marseille","lat":43.2871,"lon":5.46678,"is_reserved":false,"is_disabled":false,"rental_uris":{"android":"levelo://app?vid=55f585b9-cb27-49d4-ab67-b14346195d8c","ios":"levelo://app?vid=55f585b9-cb27-49d4-ab67-b14346195d8c"},"vehicle_type_id":"4","last_reported":1776949207,"current_range_meters":4800,"station_id":"st_d6tc3vkotcvc738tfjhg","pricing_plan_id":"cebpf4jnsgd1na2vs0mg"},{"bike_id":"b0936f8e-a2ee-4926-83f8-c09cbc215038","system_id":"levelo_inurba_marseille","lat":43.30564,"lon":5.42448,"is_reserved":false,"is_disabled":false,"rental_uris":{"android":"levelo://app?vid=b0936f8e-a2ee-4926-83f8-c09cbc215038","ios":"levelo://app?vid=b0936f8e-a2ee-4926-83f8-c09cbc215038"},"vehicle_type_id":"4","last_reported":1776949207,"current_range_meters":4800,"station_id":"","pricing_plan_id":"cebpf4jnsgd1na2vs0mg"},{"bike_id":"15f00e49-fb76-42ac-bd38-c1b452afe7e5","system_id":"levelo_inurba_marseille","lat":43.25581,"lon":5.38257,"is_reserved":false,"is_disabled":true,"rental_uris":{"android":"levelo://app?vid=15f00e49-fb76-42ac-bd38-c1b452afe7e5","ios":"levelo://app?vid=15f00e49-fb76-42ac-bd38-c1b452afe7e5"},"vehicle_type_id":"4","last_reported":1776949207,"current_range_meters":4800,"station_id":"ce4bhih2rcd13ifvqfs0","pricing_plan_id":"cebpf4jnsgd1na2vs0mg"},{"bike_id":"f8d46f57-68ae-42a5-9479-ae67d8834276","system_id":"levelo_inurba_marseille","lat":43.30019,"lon":5.37041,"is_reserved":false,"is_disabled":false,"rental_uris":{"android":"levelo://app?vid=f8d46f57-68ae-42a5-9479-ae67d8834276","ios":"levelo://app?vid=f8d46f57-68ae-42a5-9479-ae67d8834276"},"vehicle_type_id":"4","last_reported":1776949207,"current_range_meters":4800,"station_id":"","pricing_plan_id":"cebpf4jnsgd1na2vs0mg"},{"bike_id":"e5b524df-38d6-4ce5-91b7-c73e8b3ed6c5","system_id":"levelo_inurba_marseille","lat":43.30179,"lon":5.38129,"is_reserved":false,"is_disabled":false,"rental_uris":{"android":"levelo://app?vid=e5b524df-38d6-4ce5-91b7-c73e8b3ed6c5","ios":"levelo://app?vid=e5b524df-38d6-4ce5-91b7-c73e8b3ed6c5"},"vehicle_type_id":"4","last_reported":1776949207,"current_range_meters":4800,"station_id":"","pricing_plan_id":"cebpf4jnsgd1na2vs0mg"},{"bike_id":"3e798b8c-cf2e-4145-bc55-0ac9df4a8973","system_id":"levelo_inurba_marseille","lat":43.28078,"lon":5.39641,"is_reserved":false,"is_disabled":false,"rental_uris":{"android":"levelo://app?vid=3e798b8c-cf2e-4145-bc55-0ac9df4a8973","ios":"levelo://app?vid=3e798b8c-cf2e-4145-bc55-0ac9df4a8973"},"vehicle_type_id":"4","last_reported":1776949207,"current_range_meters":4800,"station_id":"ce4bho12rcd13ifvqh2g","pricing_plan_id":"cebpf4jnsgd1na2vs0mg"},{"bike_id":"7435c0bc-5621-4191-86ee-d49c11c23978","system_id":"levelo_inurba_marseille","lat":43.29039,"lon":5.39962,"is_reserved":false,"is_disabled":false,"rental_uris":{"android":"levelo://app?vid=7435c0bc-5621-4191-86ee-d49c11c23978","ios":"levelo://app?vid=7435c0bc-5621-4191-86ee-d49c11c23978"},"vehicle_type_id":"4","last_reported":1776949207,"current_range_meters":5600,"station_id":"ce4bh392rcd13ifvqdm0","pricing_plan_id":"cebpf4jnsgd1na2vs0mg"},{"bike_id":"196f939e-e3e1-4585-b82a-397e3cc7869c","system_id":"levelo_inurba_marseille","lat":43.28075,"lon":5.39658,"is_reserved":false,"is_disabled":false,"rental_uris":{"android":"levelo://app?vid=196f939e-e3e1-4585-b82a-397e3cc7869c","ios":"levelo://app?vid=196f939e-e3e1-4585-b82a-397e3cc7869c"},"vehicle_type_id":"4","last_reported":1776949207,"current_range_meters":5600,"station_id":"ce4bho12rcd13ifvqh2g","pricing_plan_id":"cebpf4jnsgd1na2vs0mg"},{"bike_id":"d5c77ed1-6ea1-4998-aea0-e9a1dcb59dd3","system_id":"levelo_inurba_marseille","lat":43.33159,"lon":5.37688,"is_reserved":false,"is_disabled":false,"rental_uris":{"android":"levelo://app?vid=d5c77ed1-6ea1-4998-aea0-e9a1dcb59dd3","ios":"levelo://app?vid=d5c77ed1-6ea1-4998-aea0-e9a1dcb59dd3"},"vehicle_type_id":"4","last_reported":1776949207,"current_range_meters":5600,"station_id":"st_d46cu089ee8s73dldbu0","pricing_plan_id":"cebpf4jnsgd1na2vs0mg"},{"bike_id":"38faa45c-f006-4208-bfe7-6b1fa1dc5097","system_id":"levelo_inurba_marseille","lat":43.21763,"lon":5.34603,"is_reserved":false,"is_disabled":true,"rental_uris":{"android":"levelo://app?vid=38faa45c-f006-4208-bfe7-6b1fa1dc5097","ios":"levelo://app?vid=38faa45c-f006-4208-bfe7-6b1fa1dc5097"},"vehicle_type_id":"4","last_reported":1776949207,"current_range_meters":5600,"station_id":"st_cvj6r9ubvosntc0bgbag","pricing_plan_id":"cebpf4jnsgd1na2vs0mg"},{"bike_id":"21aee7f9-1cf5-4ea6-81eb-de967af2988d","system_id":"levelo_inurba_marseille","lat":43.29708,"lon":5.37679,"is_reserved":false,"is_disabled":false,"rental_uris":{"android":"levelo://app?vid=21aee7f9-1cf5-4ea6-81eb-de967af2988d","ios":"levelo://app?vid=21aee7f9-1cf5-4ea6-81eb-de967af2988d"},"vehicle_type_id":"4","last_reported":1776949207,"current_range_meters":5600,"station_id":"ce4bgkh2rcd13ifvqbl0","pricing_plan_id":"cebpf4jnsgd1na2vs0mg"},{"bike_id":"e8c9d71a-afbc-4c59-af4d-6ad77f1ebe3b","system_id":"levelo_inurba_marseille","lat":43.32717,"lon":5.36297,"is_reserved":false,"is_disabled":false,"rental_uris":{"android":"levelo://app?vid=e8c9d71a-afbc-4c59-af4d-6ad77f1ebe3b","ios":"levelo://app?vid=e8c9d71a-afbc-4c59-af4d-6ad77f1ebe3b"},"vehicle_type_id":"4","last_reported":1776949207,"current_range_meters":5600,"station_id":"","pricing_plan_id":"cebpf4jnsgd1na2vs0mg"},{"bike_id":"2d769192-573b-46a8-aca6-ae5254ab0cdf","system_id":"levelo_inurba_marseille","lat":43.28709,"lon":5.37915,"is_reserved":false,"is_disabled":false,"rental_uris":{"android":"levelo://app?vid=2d769192-573b-46a8-aca6-ae5254ab0cdf","ios":"levelo://app?vid=2d769192-573b-46a8-aca6-ae5254ab0cdf"},"vehicle_type_id":"4","last_reported":1776949207,"current_range_meters":6000,"station_id":"ce4bh9p2rcd13ifvqec0","pricing_plan_id":"cebpf4jnsgd1na2vs0mg"},{"bike_id":"2e2bce0c-31ae-4bce-a1f6-fd288ae8e98c","system_id":"levelo_inurba_marseille","lat":43.30956,"lon":5.39038,"is_reserved":false,"is_disabled":false,"rental_uris":{"android":"levelo://app?vid=2e2bce0c-31ae-4bce-a1f6-fd288ae8e98c","ios":"levelo://app?vid=2e2bce0c-31ae-4bce-a1f6-fd288ae8e98c"},"vehicle_type_id":"4","last_reported":1776949207,"current_range_meters":6000,"station_id":"ce4bgup2rcd13ifvqco0","pricing_plan_id":"cebpf4jnsgd1na2vs0mg"},{"bike_id":"97563811-de7e-4fb9-bbc8-59c1cb66a0eb","system_id":"levelo_inurba_marseille","lat":43.243839,"lon":5.370514,"is_reserved":false,"is_disabled":false,"rental_uris":{"android":"levelo://app?vid=97563811-de7e-4fb9-bbc8-59c1cb66a0eb","ios":"levelo://app?vid=97563811-de7e-4fb9-bbc8-59c1cb66a0eb"},"vehicle_type_id":"4","last_reported":1776949207,"current_range_meters":6000,"station_id":"ce4bhhh2rcd13ifvqfk0","pricing_plan_id":"cebpf4jnsgd1na2vs0mg"},{"bike_id":"469c197f-dddb-4a7a-88bb-6164f7480f75","system_id":"levelo_inurba_marseille","lat":43.29942,"lon":5.36529,"is_reserved":false,"is_disabled":false,"rental_uris":{"android":"levelo://app?vid=469c197f-dddb-4a7a-88bb-6164f7480f75","ios":"levelo://app?vid=469c197f-dddb-4a7a-88bb-6164f7480f75"},"vehicle_type_id":"4","last_reported":1776949207,"current_range_meters":6000,"station_id":"ce4bgm92rcd13ifvqbr0","pricing_plan_id":"cebpf4jnsgd1na2vs0mg"},{"bike_id":"ea083661-be03-4b0e-9bad-3ca8ee7ea298","system_id":"levelo_inurba_marseille","lat":43.24997,"lon":5.38931,"is_reserved":false,"is_disabled":false,"rental_uris":{"android":"levelo://app?vid=ea083661-be03-4b0e-9bad-3ca8ee7ea298","ios":"levelo://app?vid=ea083661-be03-4b0e-9bad-3ca8ee7ea298"},"vehicle_type_id":"4","last_reported":1776949207,"current_range_meters":6000,"station_id":"ce4bhgp2rcd13ifvqfd0","pricing_plan_id":"cebpf4jnsgd1na2vs0mg"},{"bike_id":"fb25bc7e-f5b7-431f-81cf-643c142ddfcf","system_id":"levelo_inurba_marseille","lat":43.23956,"lon":5.36634,"is_reserved":false,"is_disabled":false,"rental_uris":{"android":"levelo://app?vid=fb25bc7e-f5b7-431f-81cf-643c142ddfcf","ios":"levelo://app?vid=fb25bc7e-f5b7-431f-81cf-643c142ddfcf"},"vehicle_type_id":"4","last_reported":1776949207,"current_range_meters":6000,"station_id":"ce4bhi12rcd13ifvqfp0","pricing_plan_id":"cebpf4jnsgd1na2vs0mg"},{"bike_id":"5bab2a6a-1dca-42e7-a0e2-160af5917ea8","system_id":"levelo_inurba_marseille","lat":43.28272,"lon":5.35075,"is_reserved":false,"is_disabled":false,"rental_uris":{"android":"levelo://app?vid=5bab2a6a-1dca-42e7-a0e2-160af5917ea8","ios":"levelo://app?vid=5bab2a6a-1dca-42e7-a0e2-160af5917ea8"},"vehicle_type_id":"4","last_reported":1776949207,"current_range_meters":6000,"station_id":"ce4bhbp2rcd13ifvqerg","pricing_plan_id":"cebpf4jnsgd1na2vs0mg"},{"bike_id":"772652df-39a3-4a7d-ab76-86683fdc6511","system_id":"levelo_inurba_marseille","lat":43.28908,"lon":5.36873,"is_reserved":false,"is_disabled":false,"rental_uris":{"android":"levelo://app?vid=772652df-39a3-4a7d-ab76-86683fdc6511","ios":"levelo://app?vid=772652df-39a3-4a7d-ab76-86683fdc6511"},"vehicle_type_id":"4","last_reported":1776949207,"current_range_meters":6000,"station_id":"","pricing_plan_id":"cebpf4jnsgd1na2vs0mg"},{"bike_id":"d69e3f92-6ac2-4953-a29c-24ebc1d4d17a","system_id":"levelo_inurba_marseille","lat":43.259338,"lon":5.40912,"is_reserved":false,"is_disabled":false,"rental_uris":{"android":"levelo://app?vid=d69e3f92-6ac2-4953-a29c-24ebc1d4d17a","ios":"levelo://app?vid=d69e3f92-6ac2-4953-a29c-24ebc1d4d17a"},"vehicle_type_id":"4","last_reported":1776949207,"current_range_meters":6000,"station_id":"ce4bhm92rcd13ifvqglg","pricing_plan_id":"cebpf4jnsgd1na2vs0mg"},{"bike_id":"799adbb7-386e-421f-becc-4f1ba55645eb","system_id":"levelo_inurba_marseille","lat":43.30343,"lon":5.40416,"is_reserved":false,"is_disabled":false,"rental_uris":{"android":"levelo://app?vid=799adbb7-386e-421f-becc-4f1ba55645eb","ios":"levelo://app?vid=799adbb7-386e-421f-becc-4f1ba55645eb"},"vehicle_type_id":"4","last_reported":1776949207,"current_range_meters":6400,"station_id":"ce4bh012rcd13ifvqd10","pricing_plan_id":"cebpf4jnsgd1na2vs0mg"},{"bike_id":"4b8819bd-ccb3-4c6d-bc27-721fcf9f9ad9","system_id":"levelo_inurba_marseille","lat":43.23965,"lon":5.36623,"is_reserved":false,"is_disabled":false,"rental_uris":{"android":"levelo://app?vid=4b8819bd-ccb3-4c6d-bc27-721fcf9f9ad9","ios":"levelo://app?vid=4b8819bd-ccb3-4c6d-bc27-721fcf9f9ad9"},"vehicle_type_id":"4","last_reported":1776949207,"current_range_meters":6400,"station_id":"ce4bhi12rcd13ifvqfp0","pricing_plan_id":"cebpf4jnsgd1na2vs0mg"},{"bike_id":"27147d8c-7099-4438-9d63-ffd2de2fe1fa","system_id":"levelo_inurba_marseille","lat":43.23969,"lon":5.36612,"is_reserved":false,"is_disabled":false,"rental_uris":{"android":"levelo://app?vid=27147d8c-7099-4438-9d63-ffd2de2fe1fa","ios":"levelo://app?vid=27147d8c-7099-4438-9d63-ffd2de2fe1fa"},"vehicle_type_id":"4","last_reported":1776949207,"current_range_meters":6400,"station_id":"ce4bhi12rcd13ifvqfp0","pricing_plan_id":"cebpf4jnsgd1na2vs0mg"},{"bike_id":"137bb92b-25d3-4fd1-83b2-2c4d5cd75fe8","system_id":"levelo_inurba_marseille","lat":43.29232,"lon":5.3602,"is_reserved":false,"is_disabled":false,"rental_uris":{"android":"levelo://app?vid=137bb92b-25d3-4fd1-83b2-2c4d5cd75fe8","ios":"levelo://app?vid=137bb92b-25d3-4fd1-83b2-2c4d5cd75fe8"},"vehicle_type_id":"4","last_reported":1776949207,"current_range_meters":6400,"station_id":"ce4bhbh2rcd13ifvqeqg","pricing_plan_id":"cebpf4jnsgd1na2vs0mg"},{"bike_id":"205eefac-f379-49f9-b02e-ad048a493b05","system_id":"levelo_inurba_marseille","lat":43.27123,"lon":5.42536,"is_reserved":false,"is_disabled":false,"rental_uris":{"android":"levelo://app?vid=205eefac-f379-49f9-b02e-ad048a493b05","ios":"levelo://app?vid=205eefac-f379-49f9-b02e-ad048a493b05"},"vehicle_type_id":"4","last_reported":1776949207,"current_range_meters":6400,"station_id":"","pricing_plan_id":"cebpf4jnsgd1na2vs0mg"},{"bike_id":"25658cf4-6b6c-4049-9ce5-53e6d2772253","system_id":"levelo_inurba_marseille","lat":43.31332,"lon":5.39686,"is_reserved":false,"is_disabled":false,"rental_uris":{"android":"levelo://app?vid=25658cf4-6b6c-4049-9ce5-53e6d2772253","ios":"levelo://app?vid=25658cf4-6b6c-4049-9ce5-53e6d2772253"},"vehicle_type_id":"4","last_reported":1776949207,"current_range_meters":6400,"station_id":"ce4bgvp2rcd13ifvqcu0","pricing_plan_id":"cebpf4jnsgd1na2vs0mg"},{"bike_id":"4546b1c6-bacb-4ed7-82ca-09a35652258f","system_id":"levelo_inurba_marseille","lat":43.28332,"lon":5.42663,"is_reserved":false,"is_disabled":false,"rental_uris":{"android":"levelo://app?vid=4546b1c6-bacb-4ed7-82ca-09a35652258f","ios":"levelo://app?vid=4546b1c6-bacb-4ed7-82ca-09a35652258f"},"vehicle_type_id":"4","last_reported":1776949207,"current_range_meters":6400,"station_id":"","pricing_plan_id":"cebpf4jnsgd1na2vs0mg"},{"bike_id":"b4a633d6-0d70-4d53-b37a-e3c75dc3a02d","system_id":"levelo_inurba_marseille","lat":43.21191,"lon":5.35061,"is_reserved":false,"is_disabled":false,"rental_uris":{"android":"levelo://app?vid=b4a633d6-0d70-4d53-b37a-e3c75dc3a02d","ios":"levelo://app?vid=b4a633d6-0d70-4d53-b37a-e3c75dc3a02d"},"vehicle_type_id":"4","last_reported":1776949207,"current_range_meters":6400,"station_id":"st_cvj6sg6p6f1abm77japg","pricing_plan_id":"cebpf4jnsgd1na2vs0mg"},{"bike_id":"1fa15214-207f-4811-afa7-433f68cda0b8","system_id":"levelo_inurba_marseille","lat":43.26556,"lon":5.37296,"is_reserved":false,"is_disabled":false,"rental_uris":{"android":"levelo://app?vid=1fa15214-207f-4811-afa7-433f68cda0b8","ios":"levelo://app?vid=1fa15214-207f-4811-afa7-433f68cda0b8"},"vehicle_type_id":"4","last_reported":1776949207,"current_range_meters":6400,"station_id":"ce4bhg12rcd13ifvqf70","pricing_plan_id":"cebpf4jnsgd1na2vs0mg"},{"bike_id":"1c21b5e4-18ba-4d77-b990-0019b8294ddb","system_id":"levelo_inurba_marseille","lat":43.26585,"lon":5.3963,"is_reserved":false,"is_disabled":false,"rental_uris":{"android":"levelo://app?vid=1c21b5e4-18ba-4d77-b990-0019b8294ddb","ios":"levelo://app?vid=1c21b5e4-18ba-4d77-b990-0019b8294ddb"},"vehicle_type_id":"4","last_reported":1776949207,"current_range_meters":6400,"station_id":"","pricing_plan_id":"cebpf4jnsgd1na2vs0mg"},{"bike_id":"3af037fa-22a8-420c-9857-482037f1e044","system_id":"levelo_inurba_marseille","lat":43.27339,"lon":5.39104,"is_reserved":false,"is_disabled":false,"rental_uris":{"android":"levelo://app?vid=3af037fa-22a8-420c-9857-482037f1e044","ios":"levelo://app?vid=3af037fa-22a8-420c-9857-482037f1e044"},"vehicle_type_id":"4","last_reported":1776949207,"current_range_meters":6400,"station_id":"ce4bhgp2rcd13ifvqfe0","pricing_plan_id":"cebpf4jnsgd1na2vs0mg"},{"bike_id":"56527f9f-c6c0-4afd-90df-c0c2e628955b","system_id":"levelo_inurba_marseille","lat":43.24468,"lon":5.42531,"is_reserved":false,"is_disabled":false,"rental_uris":{"android":"levelo://app?vid=56527f9f-c6c0-4afd-90df-c0c2e628955b","ios":"levelo://app?vid=56527f9f-c6c0-4afd-90df-c0c2e628955b"},"vehicle_type_id":"4","last_reported":1776949207,"current_range_meters":6400,"station_id":"st_d4a3vfp97mjs738cd8kg","pricing_plan_id":"cebpf4jnsgd1na2vs0mg"},{"bike_id":"44802263-bf04-4e59-a917-0da2c7d90855","system_id":"levelo_inurba_marseille","lat":43.21197,"lon":5.35067,"is_reserved":false,"is_disabled":false,"rental_uris":{"android":"levelo://app?vid=44802263-bf04-4e59-a917-0da2c7d90855","ios":"levelo://app?vid=44802263-bf04-4e59-a917-0da2c7d90855"},"vehicle_type_id":"4","last_reported":1776949207,"current_range_meters":6400,"station_id":"st_cvj6sg6p6f1abm77japg","pricing_plan_id":"cebpf4jnsgd1na2vs0mg"},{"bike_id":"1ff7b28a-7444-4cb8-b392-7113887e4212","system_id":"levelo_inurba_marseille","lat":43.25513,"lon":5.37653,"is_reserved":false,"is_disabled":false,"rental_uris":{"android":"levelo://app?vid=1ff7b28a-7444-4cb8-b392-7113887e4212","ios":"levelo://app?vid=1ff7b28a-7444-4cb8-b392-7113887e4212"},"vehicle_type_id":"4","last_reported":1776949207,"current_range_meters":6800,"station_id":"ce4bhh12rcd13ifvqff0","pricing_plan_id":"cebpf4jnsgd1na2vs0mg"},{"bike_id":"98cf7b7e-14c7-47a7-bf8a-99a341e6bc39","system_id":"levelo_inurba_marseille","lat":43.29317,"lon":5.3683,"is_reserved":false,"is_disabled":false,"rental_uris":{"android":"levelo://app?vid=98cf7b7e-14c7-47a7-bf8a-99a341e6bc39","ios":"levelo://app?vid=98cf7b7e-14c7-47a7-bf8a-99a341e6bc39"},"vehicle_type_id":"4","last_reported":1776949207,"current_range_meters":6800,"station_id":"ce4bhbp2rcd13ifvqesg","pricing_plan_id":"cebpf4jnsgd1na2vs0mg"},{"bike_id":"fa01097f-8880-4771-9b78-1f0d5b9be756","system_id":"levelo_inurba_marseille","lat":43.26029,"lon":5.37537,"is_reserved":false,"is_disabled":false,"rental_uris":{"android":"levelo://app?vid=fa01097f-8880-4771-9b78-1f0d5b9be756","ios":"levelo://app?vid=fa01097f-8880-4771-9b78-1f0d5b9be756"},"vehicle_type_id":"4","last_reported":1776949207,"current_range_meters":6800,"station_id":"ce4bhgh2rcd13ifvqfa0","pricing_plan_id":"cebpf4jnsgd1na2vs0mg"},{"bike_id":"a0e38a6e-b23a-4042-8ab3-4968d6020be8","system_id":"levelo_inurba_marseille","lat":43.23163,"lon":5.43698,"is_reserved":false,"is_disabled":false,"rental_uris":{"android":"levelo://app?vid=a0e38a6e-b23a-4042-8ab3-4968d6020be8","ios":"levelo://app?vid=a0e38a6e-b23a-4042-8ab3-4968d6020be8"},"vehicle_type_id":"4","last_reported":1776949207,"current_range_meters":6800,"station_id":"ce4bhmp2rcd13ifvqgog","pricing_plan_id":"cebpf4jnsgd1na2vs0mg"},{"bike_id":"b076ddf3-5e32-4188-aa56-bd51a7313e1d","system_id":"levelo_inurba_marseille","lat":43.30491,"lon":5.379,"is_reserved":false,"is_disabled":false,"rental_uris":{"android":"levelo://app?vid=b076ddf3-5e32-4188-aa56-bd51a7313e1d","ios":"levelo://app?vid=b076ddf3-5e32-4188-aa56-bd51a7313e1d"},"vehicle_type_id":"4","last_reported":1776949207,"current_range_meters":6800,"station_id":"ce4bgup2rcd13ifvqcn0","pricing_plan_id":"cebpf4jnsgd1na2vs0mg"},{"bike_id":"e1554ed5-3692-4031-b2fa-088b8c9c8fe7","system_id":"levelo_inurba_marseille","lat":43.26215,"lon":5.37443,"is_reserved":false,"is_disabled":false,"rental_uris":{"android":"levelo://app?vid=e1554ed5-3692-4031-b2fa-088b8c9c8fe7","ios":"levelo://app?vid=e1554ed5-3692-4031-b2fa-088b8c9c8fe7"},"vehicle_type_id":"4","last_reported":1776949207,"current_range_meters":6800,"station_id":"ce4bhgp2rcd13ifvqfc0","pricing_plan_id":"cebpf4jnsgd1na2vs0mg"},{"bike_id":"f2944932-2b87-4c97-b473-fbb5f8b6c3d3","system_id":"levelo_inurba_marseille","lat":43.28617,"lon":5.39889,"is_reserved":false,"is_disabled":false,"rental_uris":{"android":"levelo://app?vid=f2944932-2b87-4c97-b473-fbb5f8b6c3d3","ios":"levelo://app?vid=f2944932-2b87-4c97-b473-fbb5f8b6c3d3"},"vehicle_type_id":"4","last_reported":1776949207,"current_range_meters":6800,"station_id":"st_d4a7ka997mjs738ck50g","pricing_plan_id":"cebpf4jnsgd1na2vs0mg"},{"bike_id":"a381adf1-7cfa-4d12-8b64-9fe3ec77b50e","system_id":"levelo_inurba_marseille","lat":43.28864,"lon":5.4252,"is_reserved":false,"is_disabled":false,"rental_uris":{"android":"levelo://app?vid=a381adf1-7cfa-4d12-8b64-9fe3ec77b50e","ios":"levelo://app?vid=a381adf1-7cfa-4d12-8b64-9fe3ec77b50e"},"vehicle_type_id":"4","last_reported":1776949207,"current_range_meters":6800,"station_id":"st_d3b462108ojc7389ooeg","pricing_plan_id":"cebpf4jnsgd1na2vs0mg"},{"bike_id":"2346fd01-4d76-4904-a7c8-8e15290cb065","system_id":"levelo_inurba_marseille","lat":43.29285,"lon":5.36837,"is_reserved":false,"is_disabled":false,"rental_uris":{"android":"levelo://app?vid=2346fd01-4d76-4904-a7c8-8e15290cb065","ios":"levelo://app?vid=2346fd01-4d76-4904-a7c8-8e15290cb065"},"vehicle_type_id":"4","last_reported":1776949207,"current_range_meters":6800,"station_id":"ce4bhbp2rcd13ifvqesg","pricing_plan_id":"cebpf4jnsgd1na2vs0mg"},{"bike_id":"7bcf589d-1485-482c-947e-3b81d1633d3f","system_id":"levelo_inurba_marseille","lat":43.26385,"lon":5.41087,"is_reserved":false,"is_disabled":false,"rental_uris":{"android":"levelo://app?vid=7bcf589d-1485-482c-947e-3b81d1633d3f","ios":"levelo://app?vid=7bcf589d-1485-482c-947e-3b81d1633d3f"},"vehicle_type_id":"4","last_reported":1776949207,"current_range_meters":6800,"station_id":"st_d4e5ca6na9uc73bfl5fg","pricing_plan_id":"cebpf4jnsgd1na2vs0mg"},{"bike_id":"eaa56526-29a5-4cc4-abc0-c621dd30f9a4","system_id":"levelo_inurba_marseille","lat":43.29262,"lon":5.4268,"is_reserved":false,"is_disabled":false,"rental_uris":{"android":"levelo://app?vid=eaa56526-29a5-4cc4-abc0-c621dd30f9a4","ios":"levelo://app?vid=eaa56526-29a5-4cc4-abc0-c621dd30f9a4"},"vehicle_type_id":"4","last_reported":1776949207,"current_range_meters":7200,"station_id":"","pricing_plan_id":"cebpf4jnsgd1na2vs0mg"},{"bike_id":"aa0aa667-2794-4045-b276-ac3b2591be18","system_id":"levelo_inurba_marseille","lat":43.24552,"lon":5.39529,"is_reserved":false,"is_disabled":false,"rental_uris":{"android":"levelo://app?vid=aa0aa667-2794-4045-b276-ac3b2591be18","ios":"levelo://app?vid=aa0aa667-2794-4045-b276-ac3b2591be18"},"vehicle_type_id":"4","last_reported":1776949207,"current_range_meters":7200,"station_id":"ce4bhlp2rcd13ifvqgjg","pricing_plan_id":"cebpf4jnsgd1na2vs0mg"},{"bike_id":"8c77e1df-cfea-4298-b98a-d82c3d1b995f","system_id":"levelo_inurba_marseille","lat":43.30087,"lon":5.39071,"is_reserved":false,"is_disabled":false,"rental_uris":{"android":"levelo://app?vid=8c77e1df-cfea-4298-b98a-d82c3d1b995f","ios":"levelo://app?vid=8c77e1df-cfea-4298-b98a-d82c3d1b995f"},"vehicle_type_id":"4","last_reported":1776949207,"current_range_meters":7200,"station_id":"ce4bh192rcd13ifvqdb0","pricing_plan_id":"cebpf4jnsgd1na2vs0mg"},{"bike_id":"0923929c-d272-4fa1-a3d9-8f4c7a6f830d","system_id":"levelo_inurba_marseille","lat":43.30827,"lon":5.38197,"is_reserved":false,"is_disabled":false,"rental_uris":{"android":"levelo://app?vid=0923929c-d272-4fa1-a3d9-8f4c7a6f830d","ios":"levelo://app?vid=0923929c-d272-4fa1-a3d9-8f4c7a6f830d"},"vehicle_type_id":"4","last_reported":1776949207,"current_range_meters":7200,"station_id":"ce4bgt12rcd13ifvqce0","pricing_plan_id":"cebpf4jnsgd1na2vs0mg"},{"bike_id":"f7f551e1-e4de-432b-8499-625f44ef4d79","system_id":"levelo_inurba_marseille","lat":43.28967,"lon":5.37834,"is_reserved":false,"is_disabled":false,"rental_uris":{"android":"levelo://app?vid=f7f551e1-e4de-432b-8499-625f44ef4d79","ios":"levelo://app?vid=f7f551e1-e4de-432b-8499-625f44ef4d79"},"vehicle_type_id":"4","last_reported":1776949207,"current_range_meters":7200,"station_id":"ce4bh9p2rcd13ifvqed0","pricing_plan_id":"cebpf4jnsgd1na2vs0mg"},{"bike_id":"150dfd24-ad53-44d8-a454-937d2631c502","system_id":"levelo_inurba_marseille","lat":43.31903,"lon":5.36791,"is_reserved":false,"is_disabled":false,"rental_uris":{"android":"levelo://app?vid=150dfd24-ad53-44d8-a454-937d2631c502","ios":"levelo://app?vid=150dfd24-ad53-44d8-a454-937d2631c502"},"vehicle_type_id":"4","last_reported":1776949207,"current_range_meters":7200,"station_id":"st_d6o2h0d0559c73evc1b0","pricing_plan_id":"cebpf4jnsgd1na2vs0mg"},{"bike_id":"500638d0-cf5c-4061-b413-99b5dc6f2377","system_id":"levelo_inurba_marseille","lat":43.27454,"lon":5.42466,"is_reserved":false,"is_disabled":false,"rental_uris":{"android":"levelo://app?vid=500638d0-cf5c-4061-b413-99b5dc6f2377","ios":"levelo://app?vid=500638d0-cf5c-4061-b413-99b5dc6f2377"},"vehicle_type_id":"4","last_reported":1776949207,"current_range_meters":7200,"station_id":"","pricing_plan_id":"cebpf4jnsgd1na2vs0mg"},{"bike_id":"74c10f11-4b6a-4e16-81bf-bd1df3b5dcd2","system_id":"levelo_inurba_marseille","lat":43.21195,"lon":5.35064,"is_reserved":false,"is_disabled":false,"rental_uris":{"android":"levelo://app?vid=74c10f11-4b6a-4e16-81bf-bd1df3b5dcd2","ios":"levelo://app?vid=74c10f11-4b6a-4e16-81bf-bd1df3b5dcd2"},"vehicle_type_id":"4","last_reported":1776949207,"current_range_meters":7200,"station_id":"st_cvj6sg6p6f1abm77japg","pricing_plan_id":"cebpf4jnsgd1na2vs0mg"},{"bike_id":"44f2edab-edc8-4eec-9a9f-93c54f56caf1","system_id":"levelo_inurba_marseille","lat":43.3136,"lon":5.36672,"is_reserved":false,"is_disabled":false,"rental_uris":{"android":"levelo://app?vid=44f2edab-edc8-4eec-9a9f-93c54f56caf1","ios":"levelo://app?vid=44f2edab-edc8-4eec-9a9f-93c54f56caf1"},"vehicle_type_id":"4","last_reported":1776949207,"current_range_meters":7200,"station_id":"ce4bgr92rcd13ifvqc6g","pricing_plan_id":"cebpf4jnsgd1na2vs0mg"},{"bike_id":"4b5c9616-03fc-4148-9a82-6312937be70d","system_id":"levelo_inurba_marseille","lat":43.24381,"lon":5.37039,"is_reserved":false,"is_disabled":false,"rental_uris":{"android":"levelo://app?vid=4b5c9616-03fc-4148-9a82-6312937be70d","ios":"levelo://app?vid=4b5c9616-03fc-4148-9a82-6312937be70d"},"vehicle_type_id":"4","last_reported":1776949207,"current_range_meters":7200,"station_id":"ce4bhhh2rcd13ifvqfk0","pricing_plan_id":"cebpf4jnsgd1na2vs0mg"},{"bike_id":"ba156626-0682-41f4-8bc7-429f1880484c","system_id":"levelo_inurba_marseille","lat":43.29175,"lon":5.37153,"is_reserved":false,"is_disabled":false,"rental_uris":{"android":"levelo://app?vid=ba156626-0682-41f4-8bc7-429f1880484c","ios":"levelo://app?vid=ba156626-0682-41f4-8bc7-429f1880484c"},"vehicle_type_id":"4","last_reported":1776949207,"current_range_meters":7200,"station_id":"ce4bha92rcd13ifvqeh0","pricing_plan_id":"cebpf4jnsgd1na2vs0mg"},{"bike_id":"af9962a9-d0d5-4bde-8e56-1ff345066744","system_id":"levelo_inurba_marseille","lat":43.31359,"lon":5.36705,"is_reserved":false,"is_disabled":false,"rental_uris":{"android":"levelo://app?vid=af9962a9-d0d5-4bde-8e56-1ff345066744","ios":"levelo://app?vid=af9962a9-d0d5-4bde-8e56-1ff345066744"},"vehicle_type_id":"4","last_reported":1776949207,"current_range_meters":7200,"station_id":"ce4bgr92rcd13ifvqc6g","pricing_plan_id":"cebpf4jnsgd1na2vs0mg"},{"bike_id":"9c3677d0-627f-49f8-bd9c-64ba96ef4fce","system_id":"levelo_inurba_marseille","lat":43.28476,"lon":5.4839,"is_reserved":false,"is_disabled":false,"rental_uris":{"android":"levelo://app?vid=9c3677d0-627f-49f8-bd9c-64ba96ef4fce","ios":"levelo://app?vid=9c3677d0-627f-49f8-bd9c-64ba96ef4fce"},"vehicle_type_id":"4","last_reported":1776949207,"current_range_meters":7200,"station_id":"","pricing_plan_id":"cebpf4jnsgd1na2vs0mg"},{"bike_id":"5ffcf573-e1dc-4f63-a31b-04781cc66d0d","system_id":"levelo_inurba_marseille","lat":43.32343,"lon":5.36729,"is_reserved":false,"is_disabled":false,"rental_uris":{"android":"levelo://app?vid=5ffcf573-e1dc-4f63-a31b-04781cc66d0d","ios":"levelo://app?vid=5ffcf573-e1dc-4f63-a31b-04781cc66d0d"},"vehicle_type_id":"4","last_reported":1776949207,"current_range_meters":7200,"station_id":"ce4bhsh2rcd13ifvqi2g","pricing_plan_id":"cebpf4jnsgd1na2vs0mg"},{"bike_id":"c366be47-591a-4881-84b3-6ecaca0c6af3","system_id":"levelo_inurba_marseille","lat":43.330238,"lon":5.390502,"is_reserved":false,"is_disabled":false,"rental_uris":{"android":"levelo://app?vid=c366be47-591a-4881-84b3-6ecaca0c6af3","ios":"levelo://app?vid=c366be47-591a-4881-84b3-6ecaca0c6af3"},"vehicle_type_id":"4","last_reported":1776949207,"current_range_meters":7200,"station_id":"","pricing_plan_id":"cebpf4jnsgd1na2vs0mg"},{"bike_id":"25931435-472d-4946-9b9a-fc67e50f018d","system_id":"levelo_inurba_marseille","lat":43.23028,"lon":5.44462,"is_reserved":false,"is_disabled":false,"rental_uris":{"android":"levelo://app?vid=25931435-472d-4946-9b9a-fc67e50f018d","ios":"levelo://app?vid=25931435-472d-4946-9b9a-fc67e50f018d"},"vehicle_type_id":"4","last_reported":1776949207,"current_range_meters":7200,"station_id":"","pricing_plan_id":"cebpf4jnsgd1na2vs0mg"},{"bike_id":"3fa28e00-709c-4d55-8f19-f92832f7b17b","system_id":"levelo_inurba_marseille","lat":43.29232,"lon":5.36071,"is_reserved":false,"is_disabled":false,"rental_uris":{"android":"levelo://app?vid=3fa28e00-709c-4d55-8f19-f92832f7b17b","ios":"levelo://app?vid=3fa28e00-709c-4d55-8f19-f92832f7b17b"},"vehicle_type_id":"4","last_reported":1776949207,"current_range_meters":7200,"station_id":"ce4bhbh2rcd13ifvqeqg","pricing_plan_id":"cebpf4jnsgd1na2vs0mg"},{"bike_id":"7db8e5f3-3982-4808-8fb4-746a2f23f4b1","system_id":"levelo_inurba_marseille","lat":43.29342,"lon":5.4389,"is_reserved":false,"is_disabled":false,"rental_uris":{"android":"levelo://app?vid=7db8e5f3-3982-4808-8fb4-746a2f23f4b1","ios":"levelo://app?vid=7db8e5f3-3982-4808-8fb4-746a2f23f4b1"},"vehicle_type_id":"4","last_reported":1776949207,"current_range_meters":8000,"station_id":"","pricing_plan_id":"cebpf4jnsgd1na2vs0mg"},{"bike_id":"3c539bf6-dc5a-4c92-8626-087bf2294d28","system_id":"levelo_inurba_marseille","lat":43.23146,"lon":5.43699,"is_reserved":false,"is_disabled":false,"rental_uris":{"android":"levelo://app?vid=3c539bf6-dc5a-4c92-8626-087bf2294d28","ios":"levelo://app?vid=3c539bf6-dc5a-4c92-8626-087bf2294d28"},"vehicle_type_id":"4","last_reported":1776949207,"current_range_meters":8000,"station_id":"ce4bhmp2rcd13ifvqgog","pricing_plan_id":"cebpf4jnsgd1na2vs0mg"},{"bike_id":"a6f89826-abc6-4fe1-ba22-d2b759c0b4f1","system_id":"levelo_inurba_marseille","lat":43.30147,"lon":5.37423,"is_reserved":false,"is_disabled":false,"rental_uris":{"android":"levelo://app?vid=a6f89826-abc6-4fe1-ba22-d2b759c0b4f1","ios":"levelo://app?vid=a6f89826-abc6-4fe1-ba22-d2b759c0b4f1"},"vehicle_type_id":"4","last_reported":1776949207,"current_range_meters":8000,"station_id":"ce4bgs92rcd13ifvqcc0","pricing_plan_id":"cebpf4jnsgd1na2vs0mg"},{"bike_id":"2ed2dd64-f49a-4e00-82f9-73efb1b2c0fa","system_id":"levelo_inurba_marseille","lat":43.29212,"lon":5.36064,"is_reserved":false,"is_disabled":false,"rental_uris":{"android":"levelo://app?vid=2ed2dd64-f49a-4e00-82f9-73efb1b2c0fa","ios":"levelo://app?vid=2ed2dd64-f49a-4e00-82f9-73efb1b2c0fa"},"vehicle_type_id":"4","last_reported":1776949207,"current_range_meters":8000,"station_id":"ce4bhbh2rcd13ifvqeqg","pricing_plan_id":"cebpf4jnsgd1na2vs0mg"},{"bike_id":"d3459eb4-e536-4ed2-be6c-562e04af8a58","system_id":"levelo_inurba_marseille","lat":43.26231,"lon":5.37434,"is_reserved":false,"is_disabled":false,"rental_uris":{"android":"levelo://app?vid=d3459eb4-e536-4ed2-be6c-562e04af8a58","ios":"levelo://app?vid=d3459eb4-e536-4ed2-be6c-562e04af8a58"},"vehicle_type_id":"4","last_reported":1776949207,"current_range_meters":8000,"station_id":"","pricing_plan_id":"cebpf4jnsgd1na2vs0mg"},{"bike_id":"8f975cf4-69f4-4fd4-8c34-d7df8df21514","system_id":"levelo_inurba_marseille","lat":43.33789,"lon":5.37455,"is_reserved":false,"is_disabled":false,"rental_uris":{"android":"levelo://app?vid=8f975cf4-69f4-4fd4-8c34-d7df8df21514","ios":"levelo://app?vid=8f975cf4-69f4-4fd4-8c34-d7df8df21514"},"vehicle_type_id":"4","last_reported":1776949207,"current_range_meters":8000,"station_id":"st_d46cu089ee8s73dldbu0","pricing_plan_id":"cebpf4jnsgd1na2vs0mg"},{"bike_id":"99666f73-3925-4efa-a448-04df59936711","system_id":"levelo_inurba_marseille","lat":43.27377,"lon":5.36256,"is_reserved":false,"is_disabled":false,"rental_uris":{"android":"levelo://app?vid=99666f73-3925-4efa-a448-04df59936711","ios":"levelo://app?vid=99666f73-3925-4efa-a448-04df59936711"},"vehicle_type_id":"4","last_reported":1776949207,"current_range_meters":8000,"station_id":"ce4bhbh2rcd13ifvqeo0","pricing_plan_id":"cebpf4jnsgd1na2vs0mg"},{"bike_id":"16d99947-0c7a-4b8c-8b99-eb4a7ba89842","system_id":"levelo_inurba_marseille","lat":43.2862,"lon":5.35104,"is_reserved":false,"is_disabled":false,"rental_uris":{"android":"levelo://app?vid=16d99947-0c7a-4b8c-8b99-eb4a7ba89842","ios":"levelo://app?vid=16d99947-0c7a-4b8c-8b99-eb4a7ba89842"},"vehicle_type_id":"4","last_reported":1776949207,"current_range_meters":8000,"station_id":"ce4bhch2rcd13ifvqeug","pricing_plan_id":"cebpf4jnsgd1na2vs0mg"},{"bike_id":"9ea3893b-c18b-427f-9144-26b035b23afd","system_id":"levelo_inurba_marseille","lat":43.31166,"lon":5.38721,"is_reserved":false,"is_disabled":false,"rental_uris":{"android":"levelo://app?vid=9ea3893b-c18b-427f-9144-26b035b23afd","ios":"levelo://app?vid=9ea3893b-c18b-427f-9144-26b035b23afd"},"vehicle_type_id":"4","last_reported":1776949207,"current_range_meters":8000,"station_id":"ce4bgv12rcd13ifvqcp0","pricing_plan_id":"cebpf4jnsgd1na2vs0mg"},{"bike_id":"26f1d95d-f23c-4bf5-8015-d02a0d889cf7","system_id":"levelo_inurba_marseille","lat":43.31347,"lon":5.36722,"is_reserved":false,"is_disabled":false,"rental_uris":{"android":"levelo://app?vid=26f1d95d-f23c-4bf5-8015-d02a0d889cf7","ios":"levelo://app?vid=26f1d95d-f23c-4bf5-8015-d02a0d889cf7"},"vehicle_type_id":"4","last_reported":1776949207,"current_range_meters":8000,"station_id":"ce4bgr92rcd13ifvqc6g","pricing_plan_id":"cebpf4jnsgd1na2vs0mg"},{"bike_id":"a356025f-d09e-4fe9-9fbf-36abeac47052","system_id":"levelo_inurba_marseille","lat":43.29308,"lon":5.37457,"is_reserved":false,"is_disabled":false,"rental_uris":{"android":"levelo://app?vid=a356025f-d09e-4fe9-9fbf-36abeac47052","ios":"levelo://app?vid=a356025f-d09e-4fe9-9fbf-36abeac47052"},"vehicle_type_id":"4","last_reported":1776949207,"current_range_meters":8000,"station_id":"ce4bgi12rcd13ifvqb70","pricing_plan_id":"cebpf4jnsgd1na2vs0mg"},{"bike_id":"9c338bc8-6b26-453c-aa74-7770d16d292b","system_id":"levelo_inurba_marseille","lat":43.26547,"lon":5.37286,"is_reserved":false,"is_disabled":false,"rental_uris":{"android":"levelo://app?vid=9c338bc8-6b26-453c-aa74-7770d16d292b","ios":"levelo://app?vid=9c338bc8-6b26-453c-aa74-7770d16d292b"},"vehicle_type_id":"4","last_reported":1776949207,"current_range_meters":8000,"station_id":"ce4bhg12rcd13ifvqf70","pricing_plan_id":"cebpf4jnsgd1na2vs0mg"},{"bike_id":"7185d8ec-9dc6-41c8-947f-9d3b0aaeb86b","system_id":"levelo_inurba_marseille","lat":43.23904,"lon":5.37433,"is_reserved":false,"is_disabled":true,"rental_uris":{"android":"levelo://app?vid=7185d8ec-9dc6-41c8-947f-9d3b0aaeb86b","ios":"levelo://app?vid=7185d8ec-9dc6-41c8-947f-9d3b0aaeb86b"},"vehicle_type_id":"4","last_reported":1776949207,"current_range_meters":8000,"station_id":"st_d6sm7csbq4hs73f8fpjg","pricing_plan_id":"cebpf4jnsgd1na2vs0mg"},{"bike_id":"a2142f21-835d-4f83-99fc-7639c16230bd","system_id":"levelo_inurba_marseille","lat":43.29013,"lon":5.35603,"is_reserved":false,"is_disabled":false,"rental_uris":{"android":"levelo://app?vid=a2142f21-835d-4f83-99fc-7639c16230bd","ios":"levelo://app?vid=a2142f21-835d-4f83-99fc-7639c16230bd"},"vehicle_type_id":"4","last_reported":1776949207,"current_range_meters":8000,"station_id":"ce4bhb92rcd13ifvqen0","pricing_plan_id":"cebpf4jnsgd1na2vs0mg"},{"bike_id":"f82739a7-e7b1-4a6e-803d-39bdc01a08c4","system_id":"levelo_inurba_marseille","lat":43.21193,"lon":5.35061,"is_reserved":false,"is_disabled":false,"rental_uris":{"android":"levelo://app?vid=f82739a7-e7b1-4a6e-803d-39bdc01a08c4","ios":"levelo://app?vid=f82739a7-e7b1-4a6e-803d-39bdc01a08c4"},"vehicle_type_id":"4","last_reported":1776949207,"current_range_meters":8000,"station_id":"st_cvj6sg6p6f1abm77japg","pricing_plan_id":"cebpf4jnsgd1na2vs0mg"},{"bike_id":"b10e388b-a119-4b7b-87b2-c9ca007b4026","system_id":"levelo_inurba_marseille","lat":43.32589,"lon":5.35863,"is_reserved":false,"is_disabled":false,"rental_uris":{"android":"levelo://app?vid=b10e388b-a119-4b7b-87b2-c9ca007b4026","ios":"levelo://app?vid=b10e388b-a119-4b7b-87b2-c9ca007b4026"},"vehicle_type_id":"4","last_reported":1776949207,"current_range_meters":8000,"station_id":"","pricing_plan_id":"cebpf4jnsgd1na2vs0mg"},{"bike_id":"1d3722ff-b8fa-4c61-8c74-b0334032e332","system_id":"levelo_inurba_marseille","lat":43.2439,"lon":5.37054,"is_reserved":false,"is_disabled":false,"rental_uris":{"android":"levelo://app?vid=1d3722ff-b8fa-4c61-8c74-b0334032e332","ios":"levelo://app?vid=1d3722ff-b8fa-4c61-8c74-b0334032e332"},"vehicle_type_id":"4","last_reported":1776949207,"current_range_meters":8000,"station_id":"ce4bhhh2rcd13ifvqfk0","pricing_plan_id":"cebpf4jnsgd1na2vs0mg"},{"bike_id":"88f890fb-d5ee-4423-9c7d-7bc75792c249","system_id":"levelo_inurba_marseille","lat":43.30403,"lon":5.42461,"is_reserved":false,"is_disabled":false,"rental_uris":{"android":"levelo://app?vid=88f890fb-d5ee-4423-9c7d-7bc75792c249","ios":"levelo://app?vid=88f890fb-d5ee-4423-9c7d-7bc75792c249"},"vehicle_type_id":"4","last_reported":1776949207,"current_range_meters":8000,"station_id":"ce4bhoh2rcd13ifvqh6g","pricing_plan_id":"cebpf4jnsgd1na2vs0mg"},{"bike_id":"313d7876-bd22-496b-9dfe-19d4d4c34de9","system_id":"levelo_inurba_marseille","lat":43.21195,"lon":5.35065,"is_reserved":false,"is_disabled":false,"rental_uris":{"android":"levelo://app?vid=313d7876-bd22-496b-9dfe-19d4d4c34de9","ios":"levelo://app?vid=313d7876-bd22-496b-9dfe-19d4d4c34de9"},"vehicle_type_id":"4","last_reported":1776949207,"current_range_meters":8000,"station_id":"st_cvj6sg6p6f1abm77japg","pricing_plan_id":"cebpf4jnsgd1na2vs0mg"},{"bike_id":"e3e9e264-898c-4144-81c8-feef46976ec6","system_id":"levelo_inurba_marseille","lat":43.27543,"lon":5.38957,"is_reserved":false,"is_disabled":false,"rental_uris":{"android":"levelo://app?vid=e3e9e264-898c-4144-81c8-feef46976ec6","ios":"levelo://app?vid=e3e9e264-898c-4144-81c8-feef46976ec6"},"vehicle_type_id":"4","last_reported":1776949207,"current_range_meters":8000,"station_id":"","pricing_plan_id":"cebpf4jnsgd1na2vs0mg"},{"bike_id":"92284c72-0efa-4d61-b751-5a643fb83924","system_id":"levelo_inurba_marseille","lat":43.29307,"lon":5.37451,"is_reserved":false,"is_disabled":false,"rental_uris":{"android":"levelo://app?vid=92284c72-0efa-4d61-b751-5a643fb83924","ios":"levelo://app?vid=92284c72-0efa-4d61-b751-5a643fb83924"},"vehicle_type_id":"4","last_reported":1776949207,"current_range_meters":8000,"station_id":"ce4bgi12rcd13ifvqb70","pricing_plan_id":"cebpf4jnsgd1na2vs0mg"},{"bike_id":"1f812c79-a1cc-4770-94e4-c447fae650ce","system_id":"levelo_inurba_marseille","lat":43.28559,"lon":5.38918,"is_reserved":false,"is_disabled":false,"rental_uris":{"android":"levelo://app?vid=1f812c79-a1cc-4770-94e4-c447fae650ce","ios":"levelo://app?vid=1f812c79-a1cc-4770-94e4-c447fae650ce"},"vehicle_type_id":"4","last_reported":1776949207,"current_range_meters":8400,"station_id":"","pricing_plan_id":"cebpf4jnsgd1na2vs0mg"},{"bike_id":"8db75b79-5718-462d-b907-a22490118526","system_id":"levelo_inurba_marseille","lat":43.27887,"lon":5.40732,"is_reserved":false,"is_disabled":false,"rental_uris":{"android":"levelo://app?vid=8db75b79-5718-462d-b907-a22490118526","ios":"levelo://app?vid=8db75b79-5718-462d-b907-a22490118526"},"vehicle_type_id":"4","last_reported":1776949207,"current_range_meters":8400,"station_id":"","pricing_plan_id":"cebpf4jnsgd1na2vs0mg"},{"bike_id":"621a02ce-64db-41ca-bba0-8e0751bbe916","system_id":"levelo_inurba_marseille","lat":43.28698,"lon":5.39984,"is_reserved":false,"is_disabled":false,"rental_uris":{"android":"levelo://app?vid=621a02ce-64db-41ca-bba0-8e0751bbe916","ios":"levelo://app?vid=621a02ce-64db-41ca-bba0-8e0751bbe916"},"vehicle_type_id":"4","last_reported":1776949207,"current_range_meters":8400,"station_id":"ce4bho92rcd13ifvqh3g","pricing_plan_id":"cebpf4jnsgd1na2vs0mg"},{"bike_id":"b94479fe-5fb6-49b6-bbd0-4794bc39cdce","system_id":"levelo_inurba_marseille","lat":43.29186,"lon":5.35799,"is_reserved":false,"is_disabled":false,"rental_uris":{"android":"levelo://app?vid=b94479fe-5fb6-49b6-bbd0-4794bc39cdce","ios":"levelo://app?vid=b94479fe-5fb6-49b6-bbd0-4794bc39cdce"},"vehicle_type_id":"4","last_reported":1776949207,"current_range_meters":8400,"station_id":"ce4bhb12rcd13ifvqel0","pricing_plan_id":"cebpf4jnsgd1na2vs0mg"},{"bike_id":"0f57f6fa-bc89-4215-a76c-5f96b1f6690f","system_id":"levelo_inurba_marseille","lat":43.262,"lon":5.37446,"is_reserved":false,"is_disabled":false,"rental_uris":{"android":"levelo://app?vid=0f57f6fa-bc89-4215-a76c-5f96b1f6690f","ios":"levelo://app?vid=0f57f6fa-bc89-4215-a76c-5f96b1f6690f"},"vehicle_type_id":"4","last_reported":1776949207,"current_range_meters":8400,"station_id":"ce4bhgp2rcd13ifvqfc0","pricing_plan_id":"cebpf4jnsgd1na2vs0mg"},{"bike_id":"67fedc0c-5193-4aaf-9f8e-99baeae8e7d4","system_id":"levelo_inurba_marseille","lat":43.3099,"lon":5.39039,"is_reserved":false,"is_disabled":false,"rental_uris":{"android":"levelo://app?vid=67fedc0c-5193-4aaf-9f8e-99baeae8e7d4","ios":"levelo://app?vid=67fedc0c-5193-4aaf-9f8e-99baeae8e7d4"},"vehicle_type_id":"4","last_reported":1776949207,"current_range_meters":8400,"station_id":"ce4bgup2rcd13ifvqco0","pricing_plan_id":"cebpf4jnsgd1na2vs0mg"},{"bike_id":"29d3fd81-1a63-4ed0-af1a-3c7b518627bd","system_id":"levelo_inurba_marseille","lat":43.30327,"lon":5.37708,"is_reserved":false,"is_disabled":false,"rental_uris":{"android":"levelo://app?vid=29d3fd81-1a63-4ed0-af1a-3c7b518627bd","ios":"levelo://app?vid=29d3fd81-1a63-4ed0-af1a-3c7b518627bd"},"vehicle_type_id":"4","last_reported":1776949207,"current_range_meters":8400,"station_id":"","pricing_plan_id":"cebpf4jnsgd1na2vs0mg"},{"bike_id":"51b2c878-6014-4a7a-956f-84d26d4eaec3","system_id":"levelo_inurba_marseille","lat":43.30157,"lon":5.3739,"is_reserved":false,"is_disabled":false,"rental_uris":{"android":"levelo://app?vid=51b2c878-6014-4a7a-956f-84d26d4eaec3","ios":"levelo://app?vid=51b2c878-6014-4a7a-956f-84d26d4eaec3"},"vehicle_type_id":"4","last_reported":1776949207,"current_range_meters":8400,"station_id":"ce4bgs92rcd13ifvqcc0","pricing_plan_id":"cebpf4jnsgd1na2vs0mg"},{"bike_id":"edad4ad1-9058-4b4e-94fa-a3c8d2ab9ee0","system_id":"levelo_inurba_marseille","lat":43.2902,"lon":5.37551,"is_reserved":false,"is_disabled":false,"rental_uris":{"android":"levelo://app?vid=edad4ad1-9058-4b4e-94fa-a3c8d2ab9ee0","ios":"levelo://app?vid=edad4ad1-9058-4b4e-94fa-a3c8d2ab9ee0"},"vehicle_type_id":"4","last_reported":1776949207,"current_range_meters":8400,"station_id":"ce4bh692rcd13ifvqe90","pricing_plan_id":"cebpf4jnsgd1na2vs0mg"},{"bike_id":"cfe7238a-0ca3-41a7-b1d5-287191ada9d4","system_id":"levelo_inurba_marseille","lat":43.29276,"lon":5.36844,"is_reserved":false,"is_disabled":false,"rental_uris":{"android":"levelo://app?vid=cfe7238a-0ca3-41a7-b1d5-287191ada9d4","ios":"levelo://app?vid=cfe7238a-0ca3-41a7-b1d5-287191ada9d4"},"vehicle_type_id":"4","last_reported":1776949207,"current_range_meters":8400,"station_id":"ce4bhbp2rcd13ifvqesg","pricing_plan_id":"cebpf4jnsgd1na2vs0mg"},{"bike_id":"92ba4891-d81e-4929-847d-0ed9dbb3d620","system_id":"levelo_inurba_marseille","lat":43.2987,"lon":5.39737,"is_reserved":false,"is_disabled":true,"rental_uris":{"android":"levelo://app?vid=92ba4891-d81e-4929-847d-0ed9dbb3d620","ios":"levelo://app?vid=92ba4891-d81e-4929-847d-0ed9dbb3d620"},"vehicle_type_id":"4","last_reported":1776949207,"current_range_meters":8400,"station_id":"ce4bh0h2rcd13ifvqd50","pricing_plan_id":"cebpf4jnsgd1na2vs0mg"},{"bike_id":"50f98b8c-4207-4bdc-ae07-106925d85bea","system_id":"levelo_inurba_marseille","lat":43.25937,"lon":5.40898,"is_reserved":false,"is_disabled":false,"rental_uris":{"android":"levelo://app?vid=50f98b8c-4207-4bdc-ae07-106925d85bea","ios":"levelo://app?vid=50f98b8c-4207-4bdc-ae07-106925d85bea"},"vehicle_type_id":"4","last_reported":1776949207,"current_range_meters":8800,"station_id":"ce4bhm92rcd13ifvqglg","pricing_plan_id":"cebpf4jnsgd1na2vs0mg"},{"bike_id":"3dae8ad6-40df-43fb-8a71-b5f06062969c","system_id":"levelo_inurba_marseille","lat":43.26552,"lon":5.37286,"is_reserved":false,"is_disabled":false,"rental_uris":{"android":"levelo://app?vid=3dae8ad6-40df-43fb-8a71-b5f06062969c","ios":"levelo://app?vid=3dae8ad6-40df-43fb-8a71-b5f06062969c"},"vehicle_type_id":"4","last_reported":1776949207,"current_range_meters":8800,"station_id":"ce4bhg12rcd13ifvqf70","pricing_plan_id":"cebpf4jnsgd1na2vs0mg"},{"bike_id":"2d226bc0-d360-4472-bc45-a0a64b909ef8","system_id":"levelo_inurba_marseille","lat":43.33504,"lon":5.37539,"is_reserved":false,"is_disabled":false,"rental_uris":{"android":"levelo://app?vid=2d226bc0-d360-4472-bc45-a0a64b909ef8","ios":"levelo://app?vid=2d226bc0-d360-4472-bc45-a0a64b909ef8"},"vehicle_type_id":"4","last_reported":1776949207,"current_range_meters":8800,"station_id":"","pricing_plan_id":"cebpf4jnsgd1na2vs0mg"},{"bike_id":"c7041db6-efe9-470b-b3aa-61638cf7bac3","system_id":"levelo_inurba_marseille","lat":43.3354,"lon":5.37466,"is_reserved":false,"is_disabled":false,"rental_uris":{"android":"levelo://app?vid=c7041db6-efe9-470b-b3aa-61638cf7bac3","ios":"levelo://app?vid=c7041db6-efe9-470b-b3aa-61638cf7bac3"},"vehicle_type_id":"4","last_reported":1776949207,"current_range_meters":8800,"station_id":"st_d46tts09ee8s73dlu43g","pricing_plan_id":"cebpf4jnsgd1na2vs0mg"},{"bike_id":"9638a2e5-f524-4295-b65d-f840be2acf05","system_id":"levelo_inurba_marseille","lat":43.28276,"lon":5.35067,"is_reserved":false,"is_disabled":false,"rental_uris":{"android":"levelo://app?vid=9638a2e5-f524-4295-b65d-f840be2acf05","ios":"levelo://app?vid=9638a2e5-f524-4295-b65d-f840be2acf05"},"vehicle_type_id":"4","last_reported":1776949207,"current_range_meters":8800,"station_id":"ce4bhbp2rcd13ifvqerg","pricing_plan_id":"cebpf4jnsgd1na2vs0mg"},{"bike_id":"3ab04e0a-3ab2-4266-b34a-546ec1625124","system_id":"levelo_inurba_marseille","lat":43.29851,"lon":5.36271,"is_reserved":false,"is_disabled":false,"rental_uris":{"android":"levelo://app?vid=3ab04e0a-3ab2-4266-b34a-546ec1625124","ios":"levelo://app?vid=3ab04e0a-3ab2-4266-b34a-546ec1625124"},"vehicle_type_id":"4","last_reported":1776949207,"current_range_meters":8800,"station_id":"ce4bgpp2rcd13ifvqc3g","pricing_plan_id":"cebpf4jnsgd1na2vs0mg"},{"bike_id":"592649e4-ccd3-4b04-8279-0859691381f4","system_id":"levelo_inurba_marseille","lat":43.24173,"lon":5.36385,"is_reserved":false,"is_disabled":false,"rental_uris":{"android":"levelo://app?vid=592649e4-ccd3-4b04-8279-0859691381f4","ios":"levelo://app?vid=592649e4-ccd3-4b04-8279-0859691381f4"},"vehicle_type_id":"4","last_reported":1776949207,"current_range_meters":8800,"station_id":"cpo36qri1sfpv3e86is0","pricing_plan_id":"cebpf4jnsgd1na2vs0mg"},{"bike_id":"eb2cb388-857c-4a36-8d7c-b4f5d02faa8c","system_id":"levelo_inurba_marseille","lat":43.29873,"lon":5.39728,"is_reserved":false,"is_disabled":false,"rental_uris":{"android":"levelo://app?vid=eb2cb388-857c-4a36-8d7c-b4f5d02faa8c","ios":"levelo://app?vid=eb2cb388-857c-4a36-8d7c-b4f5d02faa8c"},"vehicle_type_id":"4","last_reported":1776949207,"current_range_meters":8800,"station_id":"ce4bh0h2rcd13ifvqd50","pricing_plan_id":"cebpf4jnsgd1na2vs0mg"},{"bike_id":"a4ded1f5-1e63-49de-ab49-0ec5508728eb","system_id":"levelo_inurba_marseille","lat":43.26795,"lon":5.394,"is_reserved":false,"is_disabled":false,"rental_uris":{"android":"levelo://app?vid=a4ded1f5-1e63-49de-ab49-0ec5508728eb","ios":"levelo://app?vid=a4ded1f5-1e63-49de-ab49-0ec5508728eb"},"vehicle_type_id":"4","last_reported":1776949207,"current_range_meters":8800,"station_id":"ce4bhh12rcd13ifvqfg0","pricing_plan_id":"cebpf4jnsgd1na2vs0mg"},{"bike_id":"50e51e9b-2c3c-484b-8e64-c3bb282b94a2","system_id":"levelo_inurba_marseille","lat":43.30348,"lon":5.39135,"is_reserved":false,"is_disabled":false,"rental_uris":{"android":"levelo://app?vid=50e51e9b-2c3c-484b-8e64-c3bb282b94a2","ios":"levelo://app?vid=50e51e9b-2c3c-484b-8e64-c3bb282b94a2"},"vehicle_type_id":"4","last_reported":1776949207,"current_range_meters":8800,"station_id":"","pricing_plan_id":"cebpf4jnsgd1na2vs0mg"},{"bike_id":"329fba77-c5e9-499c-82ef-23709b59dd67","system_id":"levelo_inurba_marseille","lat":43.28161,"lon":5.42631,"is_reserved":false,"is_disabled":false,"rental_uris":{"android":"levelo://app?vid=329fba77-c5e9-499c-82ef-23709b59dd67","ios":"levelo://app?vid=329fba77-c5e9-499c-82ef-23709b59dd67"},"vehicle_type_id":"4","last_reported":1776949207,"current_range_meters":8800,"station_id":"ce4bhnh2rcd13ifvqgug","pricing_plan_id":"cebpf4jnsgd1na2vs0mg"},{"bike_id":"bbc8c000-1ea9-4166-ba80-a67dde850ef6","system_id":"levelo_inurba_marseille","lat":43.23783,"lon":5.36631,"is_reserved":false,"is_disabled":false,"rental_uris":{"android":"levelo://app?vid=bbc8c000-1ea9-4166-ba80-a67dde850ef6","ios":"levelo://app?vid=bbc8c000-1ea9-4166-ba80-a67dde850ef6"},"vehicle_type_id":"4","last_reported":1776949207,"current_range_meters":8800,"station_id":"st_d3nk18o9ro0c73en2l3g","pricing_plan_id":"cebpf4jnsgd1na2vs0mg"},{"bike_id":"317213aa-694d-4877-9dcc-586bcc282c8c","system_id":"levelo_inurba_marseille","lat":43.28703,"lon":5.46673,"is_reserved":false,"is_disabled":false,"rental_uris":{"android":"levelo://app?vid=317213aa-694d-4877-9dcc-586bcc282c8c","ios":"levelo://app?vid=317213aa-694d-4877-9dcc-586bcc282c8c"},"vehicle_type_id":"4","last_reported":1776949207,"current_range_meters":8800,"station_id":"st_d6tc3vkotcvc738tfjhg","pricing_plan_id":"cebpf4jnsgd1na2vs0mg"},{"bike_id":"77bae04d-b155-4a06-9049-fda6a4b9e974","system_id":"levelo_inurba_marseille","lat":43.29147,"lon":5.42616,"is_reserved":false,"is_disabled":false,"rental_uris":{"android":"levelo://app?vid=77bae04d-b155-4a06-9049-fda6a4b9e974","ios":"levelo://app?vid=77bae04d-b155-4a06-9049-fda6a4b9e974"},"vehicle_type_id":"4","last_reported":1776949207,"current_range_meters":9200,"station_id":"","pricing_plan_id":"cebpf4jnsgd1na2vs0mg"},{"bike_id":"01034624-0016-4df6-8f08-06bb290b9ebf","system_id":"levelo_inurba_marseille","lat":43.28266,"lon":5.35065,"is_reserved":false,"is_disabled":false,"rental_uris":{"android":"levelo://app?vid=01034624-0016-4df6-8f08-06bb290b9ebf","ios":"levelo://app?vid=01034624-0016-4df6-8f08-06bb290b9ebf"},"vehicle_type_id":"4","last_reported":1776949207,"current_range_meters":9200,"station_id":"ce4bhbp2rcd13ifvqerg","pricing_plan_id":"cebpf4jnsgd1na2vs0mg"},{"bike_id":"c5828faa-a793-4d0d-814f-aea073de101d","system_id":"levelo_inurba_marseille","lat":43.32467,"lon":5.38275,"is_reserved":false,"is_disabled":false,"rental_uris":{"android":"levelo://app?vid=c5828faa-a793-4d0d-814f-aea073de101d","ios":"levelo://app?vid=c5828faa-a793-4d0d-814f-aea073de101d"},"vehicle_type_id":"4","last_reported":1776949207,"current_range_meters":9200,"station_id":"st_d4asgbiv49dc73anf9m0","pricing_plan_id":"cebpf4jnsgd1na2vs0mg"},{"bike_id":"fb3546c1-d293-4c3c-a9c4-d7b00890bfdb","system_id":"levelo_inurba_marseille","lat":43.3248,"lon":5.36566,"is_reserved":false,"is_disabled":true,"rental_uris":{"android":"levelo://app?vid=fb3546c1-d293-4c3c-a9c4-d7b00890bfdb","ios":"levelo://app?vid=fb3546c1-d293-4c3c-a9c4-d7b00890bfdb"},"vehicle_type_id":"4","last_reported":1776949207,"current_range_meters":9200,"station_id":"ce4bhs12rcd13ifvqhvg","pricing_plan_id":"cebpf4jnsgd1na2vs0mg"},{"bike_id":"b7dd2963-52b7-4d45-aa25-e76d8a74b0ce","system_id":"levelo_inurba_marseille","lat":43.21194,"lon":5.35056,"is_reserved":false,"is_disabled":false,"rental_uris":{"android":"levelo://app?vid=b7dd2963-52b7-4d45-aa25-e76d8a74b0ce","ios":"levelo://app?vid=b7dd2963-52b7-4d45-aa25-e76d8a74b0ce"},"vehicle_type_id":"4","last_reported":1776949207,"current_range_meters":9200,"station_id":"st_cvj6sg6p6f1abm77japg","pricing_plan_id":"cebpf4jnsgd1na2vs0mg"},{"bike_id":"92c15a8f-4100-4670-bc88-0513570fc695","system_id":"levelo_inurba_marseille","lat":43.29968,"lon":5.38493,"is_reserved":false,"is_disabled":false,"rental_uris":{"android":"levelo://app?vid=92c15a8f-4100-4670-bc88-0513570fc695","ios":"levelo://app?vid=92c15a8f-4100-4670-bc88-0513570fc695"},"vehicle_type_id":"4","last_reported":1776949207,"current_range_meters":9200,"station_id":"ce4bgj92rcd13ifvqbd0","pricing_plan_id":"cebpf4jnsgd1na2vs0mg"},{"bike_id":"fda817eb-235e-48d5-b407-48260e4ef3fa","system_id":"levelo_inurba_marseille","lat":43.237817,"lon":5.436017,"is_reserved":false,"is_disabled":false,"rental_uris":{"android":"levelo://app?vid=fda817eb-235e-48d5-b407-48260e4ef3fa","ios":"levelo://app?vid=fda817eb-235e-48d5-b407-48260e4ef3fa"},"vehicle_type_id":"4","last_reported":1776949207,"current_range_meters":9200,"station_id":"","pricing_plan_id":"cebpf4jnsgd1na2vs0mg"},{"bike_id":"ba0f19f9-bc38-4c7c-aba0-3dad327ba6be","system_id":"levelo_inurba_marseille","lat":43.31385,"lon":5.36721,"is_reserved":false,"is_disabled":false,"rental_uris":{"android":"levelo://app?vid=ba0f19f9-bc38-4c7c-aba0-3dad327ba6be","ios":"levelo://app?vid=ba0f19f9-bc38-4c7c-aba0-3dad327ba6be"},"vehicle_type_id":"4","last_reported":1776949207,"current_range_meters":9200,"station_id":"ce4bgr92rcd13ifvqc6g","pricing_plan_id":"cebpf4jnsgd1na2vs0mg"},{"bike_id":"fc7363fe-b04d-489a-9727-90ca30e7bca6","system_id":"levelo_inurba_marseille","lat":43.32102,"lon":5.3676,"is_reserved":false,"is_disabled":false,"rental_uris":{"android":"levelo://app?vid=fc7363fe-b04d-489a-9727-90ca30e7bca6","ios":"levelo://app?vid=fc7363fe-b04d-489a-9727-90ca30e7bca6"},"vehicle_type_id":"4","last_reported":1776949207,"current_range_meters":9200,"station_id":"ce4bhrh2rcd13ifvqhug","pricing_plan_id":"cebpf4jnsgd1na2vs0mg"},{"bike_id":"e6cb6647-3e72-422a-86c7-56e5bf4979b7","system_id":"levelo_inurba_marseille","lat":43.28678,"lon":5.46668,"is_reserved":false,"is_disabled":false,"rental_uris":{"android":"levelo://app?vid=e6cb6647-3e72-422a-86c7-56e5bf4979b7","ios":"levelo://app?vid=e6cb6647-3e72-422a-86c7-56e5bf4979b7"},"vehicle_type_id":"4","last_reported":1776949207,"current_range_meters":9200,"station_id":"st_d6tc3vkotcvc738tfjhg","pricing_plan_id":"cebpf4jnsgd1na2vs0mg"},{"bike_id":"40b5cccb-8c4e-4c1b-b5d2-baf5c2b05847","system_id":"levelo_inurba_marseille","lat":43.28272,"lon":5.35069,"is_reserved":false,"is_disabled":false,"rental_uris":{"android":"levelo://app?vid=40b5cccb-8c4e-4c1b-b5d2-baf5c2b05847","ios":"levelo://app?vid=40b5cccb-8c4e-4c1b-b5d2-baf5c2b05847"},"vehicle_type_id":"4","last_reported":1776949207,"current_range_meters":9200,"station_id":"ce4bhbp2rcd13ifvqerg","pricing_plan_id":"cebpf4jnsgd1na2vs0mg"},{"bike_id":"521b8e35-07cf-4f12-b7dc-be3e538797bd","system_id":"levelo_inurba_marseille","lat":43.30307,"lon":5.39196,"is_reserved":false,"is_disabled":false,"rental_uris":{"android":"levelo://app?vid=521b8e35-07cf-4f12-b7dc-be3e538797bd","ios":"levelo://app?vid=521b8e35-07cf-4f12-b7dc-be3e538797bd"},"vehicle_type_id":"4","last_reported":1776949207,"current_range_meters":9200,"station_id":"ce4bgkh2rcd13ifvqbk0","pricing_plan_id":"cebpf4jnsgd1na2vs0mg"},{"bike_id":"6efae23b-4853-4978-a046-e2118aa389db","system_id":"levelo_inurba_marseille","lat":43.29459,"lon":5.38216,"is_reserved":false,"is_disabled":false,"rental_uris":{"android":"levelo://app?vid=6efae23b-4853-4978-a046-e2118aa389db","ios":"levelo://app?vid=6efae23b-4853-4978-a046-e2118aa389db"},"vehicle_type_id":"4","last_reported":1776949207,"current_range_meters":9200,"station_id":"","pricing_plan_id":"cebpf4jnsgd1na2vs0mg"},{"bike_id":"89cb976b-df3a-46fc-a9ef-0025de561630","system_id":"levelo_inurba_marseille","lat":43.29478,"lon":5.43397,"is_reserved":false,"is_disabled":false,"rental_uris":{"android":"levelo://app?vid=89cb976b-df3a-46fc-a9ef-0025de561630","ios":"levelo://app?vid=89cb976b-df3a-46fc-a9ef-0025de561630"},"vehicle_type_id":"4","last_reported":1776949207,"current_range_meters":9200,"station_id":"","pricing_plan_id":"cebpf4jnsgd1na2vs0mg"},{"bike_id":"2ab5f442-5dbc-4d77-aca2-a8b0146d74eb","system_id":"levelo_inurba_marseille","lat":43.26234,"lon":5.40448,"is_reserved":false,"is_disabled":false,"rental_uris":{"android":"levelo://app?vid=2ab5f442-5dbc-4d77-aca2-a8b0146d74eb","ios":"levelo://app?vid=2ab5f442-5dbc-4d77-aca2-a8b0146d74eb"},"vehicle_type_id":"4","last_reported":1776949207,"current_range_meters":9200,"station_id":"ce4bhmh2rcd13ifvqgmg","pricing_plan_id":"cebpf4jnsgd1na2vs0mg"},{"bike_id":"63fe0f88-9c23-4539-8e22-fe4404d70bb6","system_id":"levelo_inurba_marseille","lat":43.30539,"lon":5.36525,"is_reserved":false,"is_disabled":false,"rental_uris":{"android":"levelo://app?vid=63fe0f88-9c23-4539-8e22-fe4404d70bb6","ios":"levelo://app?vid=63fe0f88-9c23-4539-8e22-fe4404d70bb6"},"vehicle_type_id":"4","last_reported":1776949207,"current_range_meters":9200,"station_id":"ce4bgs12rcd13ifvqcag","pricing_plan_id":"cebpf4jnsgd1na2vs0mg"},{"bike_id":"35a6dbb5-1f6c-499d-b0dc-f3a5b44380bf","system_id":"levelo_inurba_marseille","lat":43.32489,"lon":5.38272,"is_reserved":false,"is_disabled":false,"rental_uris":{"android":"levelo://app?vid=35a6dbb5-1f6c-499d-b0dc-f3a5b44380bf","ios":"levelo://app?vid=35a6dbb5-1f6c-499d-b0dc-f3a5b44380bf"},"vehicle_type_id":"4","last_reported":1776949207,"current_range_meters":9200,"station_id":"st_d4asgbiv49dc73anf9m0","pricing_plan_id":"cebpf4jnsgd1na2vs0mg"},{"bike_id":"35a9c97c-b85e-449d-99bb-1116c761abbd","system_id":"levelo_inurba_marseille","lat":43.32358,"lon":5.36727,"is_reserved":false,"is_disabled":false,"rental_uris":{"android":"levelo://app?vid=35a9c97c-b85e-449d-99bb-1116c761abbd","ios":"levelo://app?vid=35a9c97c-b85e-449d-99bb-1116c761abbd"},"vehicle_type_id":"4","last_reported":1776949207,"current_range_meters":9200,"station_id":"ce4bhsh2rcd13ifvqi2g","pricing_plan_id":"cebpf4jnsgd1na2vs0mg"},{"bike_id":"9e5fd21b-18a9-4a14-a82f-e21eea85b2e6","system_id":"levelo_inurba_marseille","lat":43.23381,"lon":5.41234,"is_reserved":false,"is_disabled":false,"rental_uris":{"android":"levelo://app?vid=9e5fd21b-18a9-4a14-a82f-e21eea85b2e6","ios":"levelo://app?vid=9e5fd21b-18a9-4a14-a82f-e21eea85b2e6"},"vehicle_type_id":"4","last_reported":1776949207,"current_range_meters":9200,"station_id":"st_d75pvndhf9lc73cqq3eg","pricing_plan_id":"cebpf4jnsgd1na2vs0mg"},{"bike_id":"ec991e8a-6713-4337-b979-a76999c4f56a","system_id":"levelo_inurba_marseille","lat":43.28915,"lon":5.38388,"is_reserved":false,"is_disabled":false,"rental_uris":{"android":"levelo://app?vid=ec991e8a-6713-4337-b979-a76999c4f56a","ios":"levelo://app?vid=ec991e8a-6713-4337-b979-a76999c4f56a"},"vehicle_type_id":"4","last_reported":1776949207,"current_range_meters":9200,"station_id":"ce4bh612rcd13ifvqe6g","pricing_plan_id":"cebpf4jnsgd1na2vs0mg"},{"bike_id":"af782dc0-eb75-4fbb-9cdd-f600b3e5f660","system_id":"levelo_inurba_marseille","lat":43.29888,"lon":5.39742,"is_reserved":false,"is_disabled":true,"rental_uris":{"android":"levelo://app?vid=af782dc0-eb75-4fbb-9cdd-f600b3e5f660","ios":"levelo://app?vid=af782dc0-eb75-4fbb-9cdd-f600b3e5f660"},"vehicle_type_id":"4","last_reported":1776949207,"current_range_meters":9600,"station_id":"ce4bh0h2rcd13ifvqd50","pricing_plan_id":"cebpf4jnsgd1na2vs0mg"},{"bike_id":"c1068d92-3817-4571-a77e-dc7a098c28f9","system_id":"levelo_inurba_marseille","lat":43.25509,"lon":5.37642,"is_reserved":false,"is_disabled":false,"rental_uris":{"android":"levelo://app?vid=c1068d92-3817-4571-a77e-dc7a098c28f9","ios":"levelo://app?vid=c1068d92-3817-4571-a77e-dc7a098c28f9"},"vehicle_type_id":"4","last_reported":1776949207,"current_range_meters":9600,"station_id":"ce4bhh12rcd13ifvqff0","pricing_plan_id":"cebpf4jnsgd1na2vs0mg"},{"bike_id":"5acd7561-ff8a-4b5b-9047-c642228843f3","system_id":"levelo_inurba_marseille","lat":43.26571,"lon":5.3902,"is_reserved":false,"is_disabled":false,"rental_uris":{"android":"levelo://app?vid=5acd7561-ff8a-4b5b-9047-c642228843f3","ios":"levelo://app?vid=5acd7561-ff8a-4b5b-9047-c642228843f3"},"vehicle_type_id":"4","last_reported":1776949207,"current_range_meters":9600,"station_id":"ce4bhe12rcd13ifvqf30","pricing_plan_id":"cebpf4jnsgd1na2vs0mg"},{"bike_id":"e987853b-eba2-4a6c-b3e0-785407c83d4a","system_id":"levelo_inurba_marseille","lat":43.30892,"lon":5.36853,"is_reserved":false,"is_disabled":false,"rental_uris":{"android":"levelo://app?vid=e987853b-eba2-4a6c-b3e0-785407c83d4a","ios":"levelo://app?vid=e987853b-eba2-4a6c-b3e0-785407c83d4a"},"vehicle_type_id":"4","last_reported":1776949207,"current_range_meters":9600,"station_id":"ce4bgn92rcd13ifvqbvg","pricing_plan_id":"cebpf4jnsgd1na2vs0mg"},{"bike_id":"584cdce0-810e-4b55-bd3b-08e2bfb93074","system_id":"levelo_inurba_marseille","lat":43.22565,"lon":5.41616,"is_reserved":false,"is_disabled":false,"rental_uris":{"android":"levelo://app?vid=584cdce0-810e-4b55-bd3b-08e2bfb93074","ios":"levelo://app?vid=584cdce0-810e-4b55-bd3b-08e2bfb93074"},"vehicle_type_id":"4","last_reported":1776949207,"current_range_meters":9600,"station_id":"st_d2o4gvlbi1j2169b742g","pricing_plan_id":"cebpf4jnsgd1na2vs0mg"},{"bike_id":"7c2fef30-e1ef-4e9e-aed4-d68a6ea325d8","system_id":"levelo_inurba_marseille","lat":43.26574,"lon":5.39,"is_reserved":false,"is_disabled":false,"rental_uris":{"android":"levelo://app?vid=7c2fef30-e1ef-4e9e-aed4-d68a6ea325d8","ios":"levelo://app?vid=7c2fef30-e1ef-4e9e-aed4-d68a6ea325d8"},"vehicle_type_id":"4","last_reported":1776949207,"current_range_meters":9600,"station_id":"ce4bhe12rcd13ifvqf30","pricing_plan_id":"cebpf4jnsgd1na2vs0mg"},{"bike_id":"c1117c23-61a8-49de-bc6b-f0c8e5fe4350","system_id":"levelo_inurba_marseille","lat":43.27522,"lon":5.39546,"is_reserved":false,"is_disabled":false,"rental_uris":{"android":"levelo://app?vid=c1117c23-61a8-49de-bc6b-f0c8e5fe4350","ios":"levelo://app?vid=c1117c23-61a8-49de-bc6b-f0c8e5fe4350"},"vehicle_type_id":"4","last_reported":1776949207,"current_range_meters":9600,"station_id":"","pricing_plan_id":"cebpf4jnsgd1na2vs0mg"},{"bike_id":"67356d11-72a0-47d5-8d48-b6902417402e","system_id":"levelo_inurba_marseille","lat":43.28615,"lon":5.35107,"is_reserved":false,"is_disabled":false,"rental_uris":{"android":"levelo://app?vid=67356d11-72a0-47d5-8d48-b6902417402e","ios":"levelo://app?vid=67356d11-72a0-47d5-8d48-b6902417402e"},"vehicle_type_id":"4","last_reported":1776949207,"current_range_meters":9600,"station_id":"ce4bhch2rcd13ifvqeug","pricing_plan_id":"cebpf4jnsgd1na2vs0mg"},{"bike_id":"eb606b6c-5bc9-4d79-9bf1-e1706d13c9b7","system_id":"levelo_inurba_marseille","lat":43.2868,"lon":5.38656,"is_reserved":false,"is_disabled":false,"rental_uris":{"android":"levelo://app?vid=eb606b6c-5bc9-4d79-9bf1-e1706d13c9b7","ios":"levelo://app?vid=eb606b6c-5bc9-4d79-9bf1-e1706d13c9b7"},"vehicle_type_id":"4","last_reported":1776949207,"current_range_meters":9600,"station_id":"ce4bh492rcd13ifvqdug","pricing_plan_id":"cebpf4jnsgd1na2vs0mg"},{"bike_id":"5d6f2e33-0e5f-41fd-94ee-eb7bd5085516","system_id":"levelo_inurba_marseille","lat":43.2481,"lon":5.37451,"is_reserved":false,"is_disabled":false,"rental_uris":{"android":"levelo://app?vid=5d6f2e33-0e5f-41fd-94ee-eb7bd5085516","ios":"levelo://app?vid=5d6f2e33-0e5f-41fd-94ee-eb7bd5085516"},"vehicle_type_id":"4","last_reported":1776949207,"current_range_meters":9600,"station_id":"ce4bhgh2rcd13ifvqfb0","pricing_plan_id":"cebpf4jnsgd1na2vs0mg"},{"bike_id":"0055f3f7-cbc3-4fcf-91e2-0e3475f7162d","system_id":"levelo_inurba_marseille","lat":43.31372,"lon":5.3667,"is_reserved":false,"is_disabled":false,"rental_uris":{"android":"levelo://app?vid=0055f3f7-cbc3-4fcf-91e2-0e3475f7162d","ios":"levelo://app?vid=0055f3f7-cbc3-4fcf-91e2-0e3475f7162d"},"vehicle_type_id":"4","last_reported":1776949207,"current_range_meters":9600,"station_id":"ce4bgr92rcd13ifvqc6g","pricing_plan_id":"cebpf4jnsgd1na2vs0mg"},{"bike_id":"15537326-e1f5-4bdd-9c58-9be3fb3c1c72","system_id":"levelo_inurba_marseille","lat":43.29271,"lon":5.37624,"is_reserved":false,"is_disabled":false,"rental_uris":{"android":"levelo://app?vid=15537326-e1f5-4bdd-9c58-9be3fb3c1c72","ios":"levelo://app?vid=15537326-e1f5-4bdd-9c58-9be3fb3c1c72"},"vehicle_type_id":"4","last_reported":1776949207,"current_range_meters":9600,"station_id":"ce4bgi12rcd13ifvqb80","pricing_plan_id":"cebpf4jnsgd1na2vs0mg"},{"bike_id":"509c858a-b894-4ee7-8fb5-9a2dbfad5398","system_id":"levelo_inurba_marseille","lat":43.30951,"lon":5.39044,"is_reserved":false,"is_disabled":false,"rental_uris":{"android":"levelo://app?vid=509c858a-b894-4ee7-8fb5-9a2dbfad5398","ios":"levelo://app?vid=509c858a-b894-4ee7-8fb5-9a2dbfad5398"},"vehicle_type_id":"4","last_reported":1776949207,"current_range_meters":9600,"station_id":"ce4bgup2rcd13ifvqco0","pricing_plan_id":"cebpf4jnsgd1na2vs0mg"},{"bike_id":"1a7673c8-0030-48b7-93aa-7fb55020f6f7","system_id":"levelo_inurba_marseille","lat":43.28421,"lon":5.34972,"is_reserved":false,"is_disabled":false,"rental_uris":{"android":"levelo://app?vid=1a7673c8-0030-48b7-93aa-7fb55020f6f7","ios":"levelo://app?vid=1a7673c8-0030-48b7-93aa-7fb55020f6f7"},"vehicle_type_id":"4","last_reported":1776949207,"current_range_meters":9600,"station_id":"ce4bhbh2rcd13ifvqepg","pricing_plan_id":"cebpf4jnsgd1na2vs0mg"},{"bike_id":"768abb91-8be4-4d81-b498-ec9507b98665","system_id":"levelo_inurba_marseille","lat":43.26387,"lon":5.42294,"is_reserved":false,"is_disabled":false,"rental_uris":{"android":"levelo://app?vid=768abb91-8be4-4d81-b498-ec9507b98665","ios":"levelo://app?vid=768abb91-8be4-4d81-b498-ec9507b98665"},"vehicle_type_id":"4","last_reported":1776949207,"current_range_meters":9600,"station_id":"","pricing_plan_id":"cebpf4jnsgd1na2vs0mg"},{"bike_id":"f4155e17-f4c5-4d95-b472-8f2fc55ce1c8","system_id":"levelo_inurba_marseille","lat":43.28736,"lon":5.3881,"is_reserved":false,"is_disabled":false,"rental_uris":{"android":"levelo://app?vid=f4155e17-f4c5-4d95-b472-8f2fc55ce1c8","ios":"levelo://app?vid=f4155e17-f4c5-4d95-b472-8f2fc55ce1c8"},"vehicle_type_id":"4","last_reported":1776949207,"current_range_meters":9600,"station_id":"","pricing_plan_id":"cebpf4jnsgd1na2vs0mg"},{"bike_id":"62f4f0a4-da45-45b9-a994-6f4ecbfee115","system_id":"levelo_inurba_marseille","lat":43.33779,"lon":5.37432,"is_reserved":false,"is_disabled":false,"rental_uris":{"android":"levelo://app?vid=62f4f0a4-da45-45b9-a994-6f4ecbfee115","ios":"levelo://app?vid=62f4f0a4-da45-45b9-a994-6f4ecbfee115"},"vehicle_type_id":"4","last_reported":1776949207,"current_range_meters":9600,"station_id":"","pricing_plan_id":"cebpf4jnsgd1na2vs0mg"},{"bike_id":"ccf9364e-5060-405b-9427-da49c47aa005","system_id":"levelo_inurba_marseille","lat":43.33171,"lon":5.3764,"is_reserved":false,"is_disabled":false,"rental_uris":{"android":"levelo://app?vid=ccf9364e-5060-405b-9427-da49c47aa005","ios":"levelo://app?vid=ccf9364e-5060-405b-9427-da49c47aa005"},"vehicle_type_id":"4","last_reported":1776949207,"current_range_meters":10000,"station_id":"st_d46cu089ee8s73dldbu0","pricing_plan_id":"cebpf4jnsgd1na2vs0mg"},{"bike_id":"c4a6cf3f-a5b9-43d7-91d0-4da564433a66","system_id":"levelo_inurba_marseille","lat":43.3014,"lon":5.37429,"is_reserved":false,"is_disabled":false,"rental_uris":{"android":"levelo://app?vid=c4a6cf3f-a5b9-43d7-91d0-4da564433a66","ios":"levelo://app?vid=c4a6cf3f-a5b9-43d7-91d0-4da564433a66"},"vehicle_type_id":"4","last_reported":1776949207,"current_range_meters":10000,"station_id":"ce4bgs92rcd13ifvqcc0","pricing_plan_id":"cebpf4jnsgd1na2vs0mg"},{"bike_id":"b18760fe-8fd3-41c2-a5d1-beb3a79a6370","system_id":"levelo_inurba_marseille","lat":43.21196,"lon":5.35067,"is_reserved":false,"is_disabled":false,"rental_uris":{"android":"levelo://app?vid=b18760fe-8fd3-41c2-a5d1-beb3a79a6370","ios":"levelo://app?vid=b18760fe-8fd3-41c2-a5d1-beb3a79a6370"},"vehicle_type_id":"4","last_reported":1776949207,"current_range_meters":10000,"station_id":"st_cvj6sg6p6f1abm77japg","pricing_plan_id":"cebpf4jnsgd1na2vs0mg"},{"bike_id":"8448174c-3ce1-43b1-b724-7e2913aac29e","system_id":"levelo_inurba_marseille","lat":43.27618,"lon":5.361,"is_reserved":false,"is_disabled":false,"rental_uris":{"android":"levelo://app?vid=8448174c-3ce1-43b1-b724-7e2913aac29e","ios":"levelo://app?vid=8448174c-3ce1-43b1-b724-7e2913aac29e"},"vehicle_type_id":"4","last_reported":1776949207,"current_range_meters":10000,"station_id":"ce4bgj92rcd13ifvqbe0","pricing_plan_id":"cebpf4jnsgd1na2vs0mg"},{"bike_id":"dd1fc7ef-9f17-4cfa-8d30-b00670d9ac8f","system_id":"levelo_inurba_marseille","lat":43.23161,"lon":5.43708,"is_reserved":false,"is_disabled":false,"rental_uris":{"android":"levelo://app?vid=dd1fc7ef-9f17-4cfa-8d30-b00670d9ac8f","ios":"levelo://app?vid=dd1fc7ef-9f17-4cfa-8d30-b00670d9ac8f"},"vehicle_type_id":"4","last_reported":1776949207,"current_range_meters":10000,"station_id":"ce4bhmp2rcd13ifvqgog","pricing_plan_id":"cebpf4jnsgd1na2vs0mg"},{"bike_id":"3746d7cc-f173-4311-836b-c0fcbee16812","system_id":"levelo_inurba_marseille","lat":43.2985,"lon":5.3627,"is_reserved":false,"is_disabled":false,"rental_uris":{"android":"levelo://app?vid=3746d7cc-f173-4311-836b-c0fcbee16812","ios":"levelo://app?vid=3746d7cc-f173-4311-836b-c0fcbee16812"},"vehicle_type_id":"4","last_reported":1776949207,"current_range_meters":10000,"station_id":"ce4bgpp2rcd13ifvqc3g","pricing_plan_id":"cebpf4jnsgd1na2vs0mg"},{"bike_id":"ac4f1360-04da-4a5e-8d32-d951694c33bd","system_id":"levelo_inurba_marseille","lat":43.28407,"lon":5.34983,"is_reserved":false,"is_disabled":false,"rental_uris":{"android":"levelo://app?vid=ac4f1360-04da-4a5e-8d32-d951694c33bd","ios":"levelo://app?vid=ac4f1360-04da-4a5e-8d32-d951694c33bd"},"vehicle_type_id":"4","last_reported":1776949207,"current_range_meters":10000,"station_id":"ce4bhbh2rcd13ifvqepg","pricing_plan_id":"cebpf4jnsgd1na2vs0mg"},{"bike_id":"998c535b-310d-41f7-ac79-e7a5eada4a5d","system_id":"levelo_inurba_marseille","lat":43.30184,"lon":5.38093,"is_reserved":false,"is_disabled":false,"rental_uris":{"android":"levelo://app?vid=998c535b-310d-41f7-ac79-e7a5eada4a5d","ios":"levelo://app?vid=998c535b-310d-41f7-ac79-e7a5eada4a5d"},"vehicle_type_id":"4","last_reported":1776949207,"current_range_meters":10000,"station_id":"ce4bgjp2rcd13ifvqbh0","pricing_plan_id":"cebpf4jnsgd1na2vs0mg"},{"bike_id":"e780e40f-6e52-4e5d-a115-03ec9286ffa2","system_id":"levelo_inurba_marseille","lat":43.28963,"lon":5.37825,"is_reserved":false,"is_disabled":false,"rental_uris":{"android":"levelo://app?vid=e780e40f-6e52-4e5d-a115-03ec9286ffa2","ios":"levelo://app?vid=e780e40f-6e52-4e5d-a115-03ec9286ffa2"},"vehicle_type_id":"4","last_reported":1776949207,"current_range_meters":10000,"station_id":"ce4bh9p2rcd13ifvqed0","pricing_plan_id":"cebpf4jnsgd1na2vs0mg"},{"bike_id":"ed6c751d-11aa-4980-9be5-d32dd24768fe","system_id":"levelo_inurba_marseille","lat":43.33144,"lon":5.37778,"is_reserved":false,"is_disabled":false,"rental_uris":{"android":"levelo://app?vid=ed6c751d-11aa-4980-9be5-d32dd24768fe","ios":"levelo://app?vid=ed6c751d-11aa-4980-9be5-d32dd24768fe"},"vehicle_type_id":"4","last_reported":1776949207,"current_range_meters":10000,"station_id":"","pricing_plan_id":"cebpf4jnsgd1na2vs0mg"},{"bike_id":"eebfa535-b5f2-46ad-95b9-4d9b724e1ee3","system_id":"levelo_inurba_marseille","lat":43.24072,"lon":5.37763,"is_reserved":false,"is_disabled":false,"rental_uris":{"android":"levelo://app?vid=eebfa535-b5f2-46ad-95b9-4d9b724e1ee3","ios":"levelo://app?vid=eebfa535-b5f2-46ad-95b9-4d9b724e1ee3"},"vehicle_type_id":"4","last_reported":1776949207,"current_range_meters":10000,"station_id":"ce4bhnp2rcd13ifvqgvg","pricing_plan_id":"cebpf4jnsgd1na2vs0mg"},{"bike_id":"1c99205e-3363-422a-9177-cc29f56e917e","system_id":"levelo_inurba_marseille","lat":43.31714,"lon":5.40447,"is_reserved":false,"is_disabled":false,"rental_uris":{"android":"levelo://app?vid=1c99205e-3363-422a-9177-cc29f56e917e","ios":"levelo://app?vid=1c99205e-3363-422a-9177-cc29f56e917e"},"vehicle_type_id":"4","last_reported":1776949207,"current_range_meters":10000,"station_id":"ce4bh012rcd13ifvqd00","pricing_plan_id":"cebpf4jnsgd1na2vs0mg"},{"bike_id":"7f4c3183-89e3-4ed9-befc-adf07e20e103","system_id":"levelo_inurba_marseille","lat":43.30305,"lon":5.39731,"is_reserved":false,"is_disabled":false,"rental_uris":{"android":"levelo://app?vid=7f4c3183-89e3-4ed9-befc-adf07e20e103","ios":"levelo://app?vid=7f4c3183-89e3-4ed9-befc-adf07e20e103"},"vehicle_type_id":"4","last_reported":1776949207,"current_range_meters":10000,"station_id":"","pricing_plan_id":"cebpf4jnsgd1na2vs0mg"},{"bike_id":"29afb1ed-043d-4a92-a705-b036471af3b6","system_id":"levelo_inurba_marseille","lat":43.28862,"lon":5.35836,"is_reserved":false,"is_disabled":false,"rental_uris":{"android":"levelo://app?vid=29afb1ed-043d-4a92-a705-b036471af3b6","ios":"levelo://app?vid=29afb1ed-043d-4a92-a705-b036471af3b6"},"vehicle_type_id":"4","last_reported":1776949207,"current_range_meters":10000,"station_id":"ce4bhb12rcd13ifvqem0","pricing_plan_id":"cebpf4jnsgd1na2vs0mg"},{"bike_id":"8b8f3535-c7af-476e-8213-ec0d499f5ab4","system_id":"levelo_inurba_marseille","lat":43.25595,"lon":5.38224,"is_reserved":false,"is_disabled":false,"rental_uris":{"android":"levelo://app?vid=8b8f3535-c7af-476e-8213-ec0d499f5ab4","ios":"levelo://app?vid=8b8f3535-c7af-476e-8213-ec0d499f5ab4"},"vehicle_type_id":"4","last_reported":1776949207,"current_range_meters":10800,"station_id":"ce4bhih2rcd13ifvqfs0","pricing_plan_id":"cebpf4jnsgd1na2vs0mg"},{"bike_id":"ffb6c160-15e7-4200-9bf1-3a749fe92177","system_id":"levelo_inurba_marseille","lat":43.29232,"lon":5.36007,"is_reserved":false,"is_disabled":false,"rental_uris":{"android":"levelo://app?vid=ffb6c160-15e7-4200-9bf1-3a749fe92177","ios":"levelo://app?vid=ffb6c160-15e7-4200-9bf1-3a749fe92177"},"vehicle_type_id":"4","last_reported":1776949207,"current_range_meters":10800,"station_id":"ce4bhbh2rcd13ifvqeqg","pricing_plan_id":"cebpf4jnsgd1na2vs0mg"},{"bike_id":"d43d07a3-dce0-4542-b229-efb075755245","system_id":"levelo_inurba_marseille","lat":43.30971,"lon":5.39042,"is_reserved":false,"is_disabled":false,"rental_uris":{"android":"levelo://app?vid=d43d07a3-dce0-4542-b229-efb075755245","ios":"levelo://app?vid=d43d07a3-dce0-4542-b229-efb075755245"},"vehicle_type_id":"4","last_reported":1776949207,"current_range_meters":10800,"station_id":"ce4bgup2rcd13ifvqco0","pricing_plan_id":"cebpf4jnsgd1na2vs0mg"},{"bike_id":"d01e5ed0-578a-463a-acda-92085d3be77d","system_id":"levelo_inurba_marseille","lat":43.3141,"lon":5.3673,"is_reserved":false,"is_disabled":false,"rental_uris":{"android":"levelo://app?vid=d01e5ed0-578a-463a-acda-92085d3be77d","ios":"levelo://app?vid=d01e5ed0-578a-463a-acda-92085d3be77d"},"vehicle_type_id":"4","last_reported":1776949207,"current_range_meters":10800,"station_id":"","pricing_plan_id":"cebpf4jnsgd1na2vs0mg"},{"bike_id":"e8d6ce3d-1aa9-47ef-9b48-93862ee5f7fd","system_id":"levelo_inurba_marseille","lat":43.21287,"lon":5.35414,"is_reserved":false,"is_disabled":false,"rental_uris":{"android":"levelo://app?vid=e8d6ce3d-1aa9-47ef-9b48-93862ee5f7fd","ios":"levelo://app?vid=e8d6ce3d-1aa9-47ef-9b48-93862ee5f7fd"},"vehicle_type_id":"4","last_reported":1776949207,"current_range_meters":10800,"station_id":"","pricing_plan_id":"cebpf4jnsgd1na2vs0mg"},{"bike_id":"73423dcd-95ab-4f82-bf3e-e2a67bb83c18","system_id":"levelo_inurba_marseille","lat":43.27205,"lon":5.39173,"is_reserved":false,"is_disabled":false,"rental_uris":{"android":"levelo://app?vid=73423dcd-95ab-4f82-bf3e-e2a67bb83c18","ios":"levelo://app?vid=73423dcd-95ab-4f82-bf3e-e2a67bb83c18"},"vehicle_type_id":"4","last_reported":1776949207,"current_range_meters":10800,"station_id":"ce4bhhp2rcd13ifvqfm0","pricing_plan_id":"cebpf4jnsgd1na2vs0mg"},{"bike_id":"900b9f72-f326-489a-8b31-1c7d2026dc16","system_id":"levelo_inurba_marseille","lat":43.29901,"lon":5.37453,"is_reserved":false,"is_disabled":false,"rental_uris":{"android":"levelo://app?vid=900b9f72-f326-489a-8b31-1c7d2026dc16","ios":"levelo://app?vid=900b9f72-f326-489a-8b31-1c7d2026dc16"},"vehicle_type_id":"4","last_reported":1776949207,"current_range_meters":10800,"station_id":"ce4bgjh2rcd13ifvqbg0","pricing_plan_id":"cebpf4jnsgd1na2vs0mg"},{"bike_id":"c787deeb-9e85-411a-89f0-4b821b43ebfa","system_id":"levelo_inurba_marseille","lat":43.26372,"lon":5.41078,"is_reserved":false,"is_disabled":false,"rental_uris":{"android":"levelo://app?vid=c787deeb-9e85-411a-89f0-4b821b43ebfa","ios":"levelo://app?vid=c787deeb-9e85-411a-89f0-4b821b43ebfa"},"vehicle_type_id":"4","last_reported":1776949207,"current_range_meters":10800,"station_id":"st_d4e5ca6na9uc73bfl5fg","pricing_plan_id":"cebpf4jnsgd1na2vs0mg"},{"bike_id":"de5879a2-6639-406f-9200-fbccd4c907dd","system_id":"levelo_inurba_marseille","lat":43.2833,"lon":5.38072,"is_reserved":false,"is_disabled":false,"rental_uris":{"android":"levelo://app?vid=de5879a2-6639-406f-9200-fbccd4c907dd","ios":"levelo://app?vid=de5879a2-6639-406f-9200-fbccd4c907dd"},"vehicle_type_id":"4","last_reported":1776949207,"current_range_meters":10800,"station_id":"ce4bh412rcd13ifvqdr0","pricing_plan_id":"cebpf4jnsgd1na2vs0mg"},{"bike_id":"ec19aaad-2410-439f-9123-e83fa1c535f8","system_id":"levelo_inurba_marseille","lat":43.28329,"lon":5.3773,"is_reserved":false,"is_disabled":false,"rental_uris":{"android":"levelo://app?vid=ec19aaad-2410-439f-9123-e83fa1c535f8","ios":"levelo://app?vid=ec19aaad-2410-439f-9123-e83fa1c535f8"},"vehicle_type_id":"4","last_reported":1776949207,"current_range_meters":10800,"station_id":"","pricing_plan_id":"cebpf4jnsgd1na2vs0mg"},{"bike_id":"51de1683-0dbd-45a8-9189-ff7d78152235","system_id":"levelo_inurba_marseille","lat":43.28862,"lon":5.42523,"is_reserved":false,"is_disabled":false,"rental_uris":{"android":"levelo://app?vid=51de1683-0dbd-45a8-9189-ff7d78152235","ios":"levelo://app?vid=51de1683-0dbd-45a8-9189-ff7d78152235"},"vehicle_type_id":"4","last_reported":1776949207,"current_range_meters":10800,"station_id":"st_d3b462108ojc7389ooeg","pricing_plan_id":"cebpf4jnsgd1na2vs0mg"},{"bike_id":"1691fef3-edf6-4311-a548-aa55b909ba92","system_id":"levelo_inurba_marseille","lat":43.29532,"lon":5.38538,"is_reserved":false,"is_disabled":false,"rental_uris":{"android":"levelo://app?vid=1691fef3-edf6-4311-a548-aa55b909ba92","ios":"levelo://app?vid=1691fef3-edf6-4311-a548-aa55b909ba92"},"vehicle_type_id":"4","last_reported":1776949207,"current_range_meters":10800,"station_id":"ce4bgih2rcd13ifvqba0","pricing_plan_id":"cebpf4jnsgd1na2vs0mg"},{"bike_id":"2aaad7a4-9d5f-4074-b0a3-86e02980fd84","system_id":"levelo_inurba_marseille","lat":43.33552,"lon":5.37456,"is_reserved":false,"is_disabled":false,"rental_uris":{"android":"levelo://app?vid=2aaad7a4-9d5f-4074-b0a3-86e02980fd84","ios":"levelo://app?vid=2aaad7a4-9d5f-4074-b0a3-86e02980fd84"},"vehicle_type_id":"4","last_reported":1776949207,"current_range_meters":10800,"station_id":"st_d46tts09ee8s73dlu43g","pricing_plan_id":"cebpf4jnsgd1na2vs0mg"},{"bike_id":"53d0b464-9d84-4ebb-a788-233487c8451c","system_id":"levelo_inurba_marseille","lat":43.33261,"lon":5.37783,"is_reserved":false,"is_disabled":false,"rental_uris":{"android":"levelo://app?vid=53d0b464-9d84-4ebb-a788-233487c8451c","ios":"levelo://app?vid=53d0b464-9d84-4ebb-a788-233487c8451c"},"vehicle_type_id":"4","last_reported":1776949207,"current_range_meters":11200,"station_id":"","pricing_plan_id":"cebpf4jnsgd1na2vs0mg"},{"bike_id":"8fe7305b-d3f3-41e5-a6a6-343d97df01ed","system_id":"levelo_inurba_marseille","lat":43.244,"lon":5.37018,"is_reserved":false,"is_disabled":false,"rental_uris":{"android":"levelo://app?vid=8fe7305b-d3f3-41e5-a6a6-343d97df01ed","ios":"levelo://app?vid=8fe7305b-d3f3-41e5-a6a6-343d97df01ed"},"vehicle_type_id":"4","last_reported":1776949207,"current_range_meters":11200,"station_id":"ce4bhhh2rcd13ifvqfk0","pricing_plan_id":"cebpf4jnsgd1na2vs0mg"},{"bike_id":"25977f8c-77a4-4229-964b-b0397415f8fa","system_id":"levelo_inurba_marseille","lat":43.30613,"lon":5.36539,"is_reserved":false,"is_disabled":false,"rental_uris":{"android":"levelo://app?vid=25977f8c-77a4-4229-964b-b0397415f8fa","ios":"levelo://app?vid=25977f8c-77a4-4229-964b-b0397415f8fa"},"vehicle_type_id":"4","last_reported":1776949207,"current_range_meters":11200,"station_id":"","pricing_plan_id":"cebpf4jnsgd1na2vs0mg"},{"bike_id":"af737cdb-cd36-4700-8378-5bdd6f705284","system_id":"levelo_inurba_marseille","lat":43.29905,"lon":5.38142,"is_reserved":false,"is_disabled":false,"rental_uris":{"android":"levelo://app?vid=af737cdb-cd36-4700-8378-5bdd6f705284","ios":"levelo://app?vid=af737cdb-cd36-4700-8378-5bdd6f705284"},"vehicle_type_id":"4","last_reported":1776949207,"current_range_meters":11200,"station_id":"ce4bgj12rcd13ifvqbc0","pricing_plan_id":"cebpf4jnsgd1na2vs0mg"},{"bike_id":"b86cdcc4-f0f3-4318-9ba8-cb6004587517","system_id":"levelo_inurba_marseille","lat":43.28616,"lon":5.35106,"is_reserved":false,"is_disabled":false,"rental_uris":{"android":"levelo://app?vid=b86cdcc4-f0f3-4318-9ba8-cb6004587517","ios":"levelo://app?vid=b86cdcc4-f0f3-4318-9ba8-cb6004587517"},"vehicle_type_id":"4","last_reported":1776949207,"current_range_meters":11200,"station_id":"ce4bhch2rcd13ifvqeug","pricing_plan_id":"cebpf4jnsgd1na2vs0mg"},{"bike_id":"c9cb88cd-abb7-430e-886c-f95ba3a9bf7a","system_id":"levelo_inurba_marseille","lat":43.27374,"lon":5.3625,"is_reserved":false,"is_disabled":false,"rental_uris":{"android":"levelo://app?vid=c9cb88cd-abb7-430e-886c-f95ba3a9bf7a","ios":"levelo://app?vid=c9cb88cd-abb7-430e-886c-f95ba3a9bf7a"},"vehicle_type_id":"4","last_reported":1776949207,"current_range_meters":11200,"station_id":"ce4bhbh2rcd13ifvqeo0","pricing_plan_id":"cebpf4jnsgd1na2vs0mg"},{"bike_id":"13de453e-5197-477c-bba1-2d4c0d148eb7","system_id":"levelo_inurba_marseille","lat":43.33195,"lon":5.37811,"is_reserved":false,"is_disabled":false,"rental_uris":{"android":"levelo://app?vid=13de453e-5197-477c-bba1-2d4c0d148eb7","ios":"levelo://app?vid=13de453e-5197-477c-bba1-2d4c0d148eb7"},"vehicle_type_id":"4","last_reported":1776949207,"current_range_meters":11200,"station_id":"","pricing_plan_id":"cebpf4jnsgd1na2vs0mg"},{"bike_id":"8e1c2ed0-e742-4c70-911f-d4cbf2701565","system_id":"levelo_inurba_marseille","lat":43.29371,"lon":5.37847,"is_reserved":false,"is_disabled":false,"rental_uris":{"android":"levelo://app?vid=8e1c2ed0-e742-4c70-911f-d4cbf2701565","ios":"levelo://app?vid=8e1c2ed0-e742-4c70-911f-d4cbf2701565"},"vehicle_type_id":"4","last_reported":1776949207,"current_range_meters":11200,"station_id":"ce4bgjh2rcd13ifvqbf0","pricing_plan_id":"cebpf4jnsgd1na2vs0mg"},{"bike_id":"670a2a45-3419-49a2-b807-8e416360b932","system_id":"levelo_inurba_marseille","lat":43.31032,"lon":5.37164,"is_reserved":false,"is_disabled":false,"rental_uris":{"android":"levelo://app?vid=670a2a45-3419-49a2-b807-8e416360b932","ios":"levelo://app?vid=670a2a45-3419-49a2-b807-8e416360b932"},"vehicle_type_id":"4","last_reported":1776949207,"current_range_meters":11200,"station_id":"st_d4kl2rp97mjs73e7tdfg","pricing_plan_id":"cebpf4jnsgd1na2vs0mg"},{"bike_id":"e86d74c4-216f-42a1-aafd-1921c5663744","system_id":"levelo_inurba_marseille","lat":43.23975,"lon":5.36617,"is_reserved":false,"is_disabled":false,"rental_uris":{"android":"levelo://app?vid=e86d74c4-216f-42a1-aafd-1921c5663744","ios":"levelo://app?vid=e86d74c4-216f-42a1-aafd-1921c5663744"},"vehicle_type_id":"4","last_reported":1776949207,"current_range_meters":11200,"station_id":"ce4bhi12rcd13ifvqfp0","pricing_plan_id":"cebpf4jnsgd1na2vs0mg"},{"bike_id":"9a18d920-f320-4934-946f-3d93a97fad57","system_id":"levelo_inurba_marseille","lat":43.29771,"lon":5.37102,"is_reserved":false,"is_disabled":false,"rental_uris":{"android":"levelo://app?vid=9a18d920-f320-4934-946f-3d93a97fad57","ios":"levelo://app?vid=9a18d920-f320-4934-946f-3d93a97fad57"},"vehicle_type_id":"4","last_reported":1776949207,"current_range_meters":11600,"station_id":"ce4bgop2rcd13ifvqc1g","pricing_plan_id":"cebpf4jnsgd1na2vs0mg"},{"bike_id":"cd21f6c1-a1f8-4978-8025-1d254a6bf514","system_id":"levelo_inurba_marseille","lat":43.28479,"lon":5.48392,"is_reserved":false,"is_disabled":false,"rental_uris":{"android":"levelo://app?vid=cd21f6c1-a1f8-4978-8025-1d254a6bf514","ios":"levelo://app?vid=cd21f6c1-a1f8-4978-8025-1d254a6bf514"},"vehicle_type_id":"4","last_reported":1776949207,"current_range_meters":11600,"station_id":"st_d3svhcjqgbts73a3dn0g","pricing_plan_id":"cebpf4jnsgd1na2vs0mg"},{"bike_id":"ad34945a-a214-4b6e-bbbb-2e55b107c025","system_id":"levelo_inurba_marseille","lat":43.28878,"lon":5.43038,"is_reserved":false,"is_disabled":false,"rental_uris":{"android":"levelo://app?vid=ad34945a-a214-4b6e-bbbb-2e55b107c025","ios":"levelo://app?vid=ad34945a-a214-4b6e-bbbb-2e55b107c025"},"vehicle_type_id":"4","last_reported":1776949207,"current_range_meters":11600,"station_id":"","pricing_plan_id":"cebpf4jnsgd1na2vs0mg"},{"bike_id":"b51ac87f-04a3-4bf1-9075-041179aa6f28","system_id":"levelo_inurba_marseille","lat":43.22547,"lon":5.41624,"is_reserved":false,"is_disabled":false,"rental_uris":{"android":"levelo://app?vid=b51ac87f-04a3-4bf1-9075-041179aa6f28","ios":"levelo://app?vid=b51ac87f-04a3-4bf1-9075-041179aa6f28"},"vehicle_type_id":"4","last_reported":1776949207,"current_range_meters":11600,"station_id":"st_d2o4gvlbi1j2169b742g","pricing_plan_id":"cebpf4jnsgd1na2vs0mg"},{"bike_id":"509f6c5e-9c80-400a-851a-a801afa00726","system_id":"levelo_inurba_marseille","lat":43.2781,"lon":5.40709,"is_reserved":false,"is_disabled":false,"rental_uris":{"android":"levelo://app?vid=509f6c5e-9c80-400a-851a-a801afa00726","ios":"levelo://app?vid=509f6c5e-9c80-400a-851a-a801afa00726"},"vehicle_type_id":"4","last_reported":1776949207,"current_range_meters":11600,"station_id":"ce4bhnh2rcd13ifvqgtg","pricing_plan_id":"cebpf4jnsgd1na2vs0mg"},{"bike_id":"b94b0170-209f-4164-9632-61f14589e29a","system_id":"levelo_inurba_marseille","lat":43.25947,"lon":5.40893,"is_reserved":false,"is_disabled":false,"rental_uris":{"android":"levelo://app?vid=b94b0170-209f-4164-9632-61f14589e29a","ios":"levelo://app?vid=b94b0170-209f-4164-9632-61f14589e29a"},"vehicle_type_id":"4","last_reported":1776949207,"current_range_meters":11600,"station_id":"ce4bhm92rcd13ifvqglg","pricing_plan_id":"cebpf4jnsgd1na2vs0mg"},