{"last_updated":1729588176,"ttl":60,"version":"2.2","data":{"bikes":[{"bike_id":"9a89681b-50ef-4d7d-98de-b2afb5895f27","system_id":"levelo_inurba_marseille","lat":43.2318,"lon":5.39985,"is_reserved":false,"is_disabled":false,"rental_uris":{"android":"levelo://app?vid=9a89681b-50ef-4d7d-98de-b2afb5895f27","ios":"levelo://app?vid=9a89681b-50ef-4d7d-98de-b2afb5895f27"},"vehicle_type_id":"4","last_reported":1729588176,"current_range_meters":37600,"station_id":"ce4bhn12rcd13ifvqgqg","pricing_plan_id":"cebpf4jnsgd1na2vs0mg"},{"bike_id":"7dba338b-b528-4235-8ff4-be954e68a513","system_id":"levelo_inurba_marseille","lat":43.262024,"lon":5.374397,"is_reserved":false,"is_disabled":false,"rental_uris":{"android":"levelo://app?vid=7dba338b-b528-4235-8ff4-be954e68a513","ios":"levelo://app?vid=7dba338b-b528-4235-8ff4-be954e68a513"},"vehicle_type_id":"4","last_reported":1729588176,"current_range_meters":28400,"station_id":"ce4bhbp2rcd13ifvqerg","pricing_plan_id":"cebpf4jnsgd1na2vs0mg"},{"bike_id":"be253385-0776-4e65-a813-6071c24b823f","system_id":"levelo_inurba_marseille","lat":43.30942,"lon":5.39045,"is_reserved":false,"is_disabled":false,"rental_uris":{"android":"levelo://app?vid=be253385-0776-4e65-a813-6071c24b823f","ios":"levelo://app?vid=be253385-0776-4e65-a813-6071c24b823f"},"vehicle_type_id":"4","last_reported":1729588176,"current_range_meters":32800,"station_id":"ce4bgup2rcd13ifvqco0","pricing_plan_id":"cebpf4jnsgd1na2vs0mg"},{"bike_id":"f6ea7288-765c-4be6-918b-74447ffffe08","system_id":"levelo_inurba_marseille","lat":43.30465,"lon":5.37899,"is_reserved":false,"is_disabled":false,"rental_uris":{"android":"levelo://app?vid=f6ea7288-765c-4be6-918b-74447ffffe08","ios":"levelo://app?vid=f6ea7288-765c-4be6-918b-74447ffffe08"},"vehicle_type_id":"4","last_reported":1729588176,"current_range_meters":38800,"station_id":"ce4bgup2rcd13ifvqcn0","pricing_plan_id":"cebpf4jnsgd1na2vs0mg"},{"bike_id":"aaae7be8-1d81-48fb-97c4-53c568f776af","system_id":"levelo_inurba_marseille","lat":43.28712,"lon":5.37935,"is_reserved":false,"is_disabled":false,"rental_uris":{"android":"levelo://app?vid=aaae7be8-1d81-48fb-97c4-53c568f776af","ios":"levelo://app?vid=aaae7be8-1d81-48fb-97c4-53c568f776af"},"vehicle_type_id":"4","last_reported":1729588176,"current_range_meters":29600,"station_id":"ce4bh9p2rcd13ifvqec0","pricing_plan_id":"cebpf4jnsgd1na2vs0mg"},{"bike_id":"96514785-d870-47b5-b81e-b009c40258ef","system_id":"levelo_inurba_marseille","lat":43.2439,"lon":5.37054,"is_reserved":false,"is_disabled":false,"rental_uris":{"android":"levelo://app?vid=96514785-d870-47b5-b81e-b009c40258ef","ios":"levelo://app?vid=96514785-d870-47b5-b81e-b009c40258ef"},"vehicle_type_id":"4","last_reported":1729588176,"current_range_meters":37600,"station_id":"ce4bhhh2rcd13ifvqfk0","pricing_plan_id":"cebpf4jnsgd1na2vs0mg"},{"bike_id":"353ec5cf-b58b-4354-ba57-e03f44389fe9","system_id":"levelo_inurba_marseille","lat":43.24177,"lon":5.39733,"is_reserved":false,"is_disabled":false,"rental_uris":{"android":"levelo://app?vid=353ec5cf-b58b-4354-ba57-e03f44389fe9","ios":"levelo://app?vid=353ec5cf-b58b-4354-ba57-e03f44389fe9"},"vehicle_type_id":"4","last_reported":1729588176,"current_range_meters":3200,"station_id":"ce4bhn12rcd13ifvqgpg","pricing_plan_id":"cebpf4jnsgd1na2vs0mg"},{"bike_id":"056124ee-b6f9-468d-94ef-5fa46e18bd36","system_id":"levelo_inurba_marseille","lat":43.33616,"lon":5.41029,"is_reserved":false,"is_disabled":false,"rental_uris":{"android":"levelo://app?vid=056124ee-b6f9-468d-94ef-5fa46e18bd36","ios":"levelo://app?vid=056124ee-b6f9-468d-94ef-5fa46e18bd36"},"vehicle_type_id":"4","last_reported":1729588176,"current_range_meters":39200,"station_id":"ce4bhqh2rcd13ifvqhmg","pricing_plan_id":"cebpf4jnsgd1na2vs0mg"},{"bike_id":"c863ab3d-1edc-4863-a6c7-73e4e0932069","system_id":"levelo_inurba_marseille","lat":43.33601,"lon":5.41022,"is_reserved":false,"is_disabled":false,"rental_uris":{"android":"levelo://app?vid=c863ab3d-1edc-4863-a6c7-73e4e0932069","ios":"levelo://app?vid=c863ab3d-1edc-4863-a6c7-73e4e0932069"},"vehicle_type_id":"4","last_reported":1729588176,"current_range_meters":4400,"station_id":"ce4bhqh2rcd13ifvqhmg","pricing_plan_id":"cebpf4jnsgd1na2vs0mg"},{"bike_id":"24779d50-42a9-4d54-86a3-43333f8ae02d","system_id":"levelo_inurba_marseille","lat":43.24391,"lon":5.37063,"is_reserved":false,"is_disabled":false,"rental_uris":{"android":"levelo://app?vid=24779d50-42a9-4d54-86a3-43333f8ae02d","ios":"levelo://app?vid=24779d50-42a9-4d54-86a3-43333f8ae02d"},"vehicle_type_id":"4","last_reported":1729588176,"current_range_meters":36400,"station_id":"ce4bhhh2rcd13ifvqfk0","pricing_plan_id":"cebpf4jnsgd1na2vs0mg"},{"bike_id":"4d96558e-7258-406e-9314-fb79248ac86c","system_id":"levelo_inurba_marseille","lat":43.31484,"lon":5.37306,"is_reserved":false,"is_disabled":false,"rental_uris":{"android":"levelo://app?vid=4d96558e-7258-406e-9314-fb79248ac86c","ios":"levelo://app?vid=4d96558e-7258-406e-9314-fb79248ac86c"},"vehicle_type_id":"4","last_reported":1729588176,"current_range_meters":7200,"station_id":"ce4bgt12rcd13ifvqcd0","pricing_plan_id":"cebpf4jnsgd1na2vs0mg"},{"bike_id":"b8aa97cc-df5c-4052-b32f-7592ab28a1b6","system_id":"levelo_inurba_marseille","lat":43.32114,"lon":5.38813,"is_reserved":false,"is_disabled":false,"rental_uris":{"android":"levelo://app?vid=b8aa97cc-df5c-4052-b32f-7592ab28a1b6","ios":"levelo://app?vid=b8aa97cc-df5c-4052-b32f-7592ab28a1b6"},"vehicle_type_id":"4","last_reported":1729588176,"current_range_meters":28000,"station_id":"","pricing_plan_id":"cebpf4jnsgd1na2vs0mg"},{"bike_id":"cfa25fdc-4ee7-411f-b4e5-66c6d975811e","system_id":"levelo_inurba_marseille","lat":43.33023,"lon":5.39044,"is_reserved":false,"is_disabled":false,"rental_uris":{"android":"levelo://app?vid=cfa25fdc-4ee7-411f-b4e5-66c6d975811e","ios":"levelo://app?vid=cfa25fdc-4ee7-411f-b4e5-66c6d975811e"},"vehicle_type_id":"4","last_reported":1729588176,"current_range_meters":38000,"station_id":"ce4bhr92rcd13ifvqhrg","pricing_plan_id":"cebpf4jnsgd1na2vs0mg"},{"bike_id":"8b1b5549-026d-499e-8f57-a5860290ed8f","system_id":"levelo_inurba_marseille","lat":43.305432,"lon":5.367154,"is_reserved":false,"is_disabled":false,"rental_uris":{"android":"levelo://app?vid=8b1b5549-026d-499e-8f57-a5860290ed8f","ios":"levelo://app?vid=8b1b5549-026d-499e-8f57-a5860290ed8f"},"vehicle_type_id":"4","last_reported":1729588176,"current_range_meters":36000,"station_id":"ce4bgrp2rcd13ifvqc9g","pricing_plan_id":"cebpf4jnsgd1na2vs0mg"},{"bike_id":"6c2ef09b-22aa-411f-a7de-f152acc381cb","system_id":"levelo_inurba_marseille","lat":43.30945,"lon":5.39043,"is_reserved":false,"is_disabled":false,"rental_uris":{"android":"levelo://app?vid=6c2ef09b-22aa-411f-a7de-f152acc381cb","ios":"levelo://app?vid=6c2ef09b-22aa-411f-a7de-f152acc381cb"},"vehicle_type_id":"4","last_reported":1729588176,"current_range_meters":40000,"station_id":"ce4bgup2rcd13ifvqco0","pricing_plan_id":"cebpf4jnsgd1na2vs0mg"},{"bike_id":"1d387922-eb9c-43eb-bf18-f7132fc7200b","system_id":"levelo_inurba_marseille","lat":43.29955,"lon":5.41321,"is_reserved":false,"is_disabled":false,"rental_uris":{"android":"levelo://app?vid=1d387922-eb9c-43eb-bf18-f7132fc7200b","ios":"levelo://app?vid=1d387922-eb9c-43eb-bf18-f7132fc7200b"},"vehicle_type_id":"4","last_reported":1729588176,"current_range_meters":24800,"station_id":"ce4bhp12rcd13ifvqh9g","pricing_plan_id":"cebpf4jnsgd1na2vs0mg"},{"bike_id":"5c449356-4ac4-4d08-a405-c433fbe21a80","system_id":"levelo_inurba_marseille","lat":43.33759,"lon":5.3748,"is_reserved":false,"is_disabled":false,"rental_uris":{"android":"levelo://app?vid=5c449356-4ac4-4d08-a405-c433fbe21a80","ios":"levelo://app?vid=5c449356-4ac4-4d08-a405-c433fbe21a80"},"vehicle_type_id":"4","last_reported":1729588176,"current_range_meters":34800,"station_id":"","pricing_plan_id":"cebpf4jnsgd1na2vs0mg"},{"bike_id":"c32831a9-e064-4d70-bbdd-66063ddbadde","system_id":"levelo_inurba_marseille","lat":43.25932,"lon":5.40903,"is_reserved":false,"is_disabled":false,"rental_uris":{"android":"levelo://app?vid=c32831a9-e064-4d70-bbdd-66063ddbadde","ios":"levelo://app?vid=c32831a9-e064-4d70-bbdd-66063ddbadde"},"vehicle_type_id":"4","last_reported":1729588176,"current_range_meters":32000,"station_id":"ce4bhm92rcd13ifvqglg","pricing_plan_id":"cebpf4jnsgd1na2vs0mg"},{"bike_id":"f7b653de-1c1e-4850-a76e-e74097c092a5","system_id":"levelo_inurba_marseille","lat":43.30143,"lon":5.37418,"is_reserved":false,"is_disabled":false,"rental_uris":{"android":"levelo://app?vid=f7b653de-1c1e-4850-a76e-e74097c092a5","ios":"levelo://app?vid=f7b653de-1c1e-4850-a76e-e74097c092a5"},"vehicle_type_id":"4","last_reported":1729588176,"current_range_meters":32800,"station_id":"ce4bgs92rcd13ifvqcc0","pricing_plan_id":"cebpf4jnsgd1na2vs0mg"},{"bike_id":"9f9ad8ba-d6b9-49ba-85b6-39fd8a621c4c","system_id":"levelo_inurba_marseille","lat":43.23144,"lon":5.43705,"is_reserved":false,"is_disabled":false,"rental_uris":{"android":"levelo://app?vid=9f9ad8ba-d6b9-49ba-85b6-39fd8a621c4c","ios":"levelo://app?vid=9f9ad8ba-d6b9-49ba-85b6-39fd8a621c4c"},"vehicle_type_id":"4","last_reported":1729588176,"current_range_meters":38800,"station_id":"ce4bhmp2rcd13ifvqgog","pricing_plan_id":"cebpf4jnsgd1na2vs0mg"},{"bike_id":"e6582e63-7e5d-493a-9170-f5faf28b017c","system_id":"levelo_inurba_marseille","lat":43.2396,"lon":5.36633,"is_reserved":false,"is_disabled":false,"rental_uris":{"android":"levelo://app?vid=e6582e63-7e5d-493a-9170-f5faf28b017c","ios":"levelo://app?vid=e6582e63-7e5d-493a-9170-f5faf28b017c"},"vehicle_type_id":"4","last_reported":1729588176,"current_range_meters":34000,"station_id":"ce4bhi12rcd13ifvqfp0","pricing_plan_id":"cebpf4jnsgd1na2vs0mg"},{"bike_id":"9a6c5e3e-3146-4cce-85c7-4b241fb37583","system_id":"levelo_inurba_marseille","lat":43.2926,"lon":5.40905,"is_reserved":false,"is_disabled":false,"rental_uris":{"android":"levelo://app?vid=9a6c5e3e-3146-4cce-85c7-4b241fb37583","ios":"levelo://app?vid=9a6c5e3e-3146-4cce-85c7-4b241fb37583"},"vehicle_type_id":"4","last_reported":1729588176,"current_range_meters":36400,"station_id":"ce4bh192rcd13ifvqdc0","pricing_plan_id":"cebpf4jnsgd1na2vs0mg"},{"bike_id":"bb6e36c1-9f06-4816-b1f5-3fa02486209c","system_id":"levelo_inurba_marseille","lat":43.289224,"lon":5.378523,"is_reserved":false,"is_disabled":false,"rental_uris":{"android":"levelo://app?vid=bb6e36c1-9f06-4816-b1f5-3fa02486209c","ios":"levelo://app?vid=bb6e36c1-9f06-4816-b1f5-3fa02486209c"},"vehicle_type_id":"4","last_reported":1729588176,"current_range_meters":31200,"station_id":"ce4bhh92rcd13ifvqfi0","pricing_plan_id":"cebpf4jnsgd1na2vs0mg"},{"bike_id":"079957d9-760c-47bf-ae79-16e2d1ebf037","system_id":"levelo_inurba_marseille","lat":43.32478,"lon":5.36559,"is_reserved":false,"is_disabled":false,"rental_uris":{"android":"levelo://app?vid=079957d9-760c-47bf-ae79-16e2d1ebf037","ios":"levelo://app?vid=079957d9-760c-47bf-ae79-16e2d1ebf037"},"vehicle_type_id":"4","last_reported":1729588176,"current_range_meters":39200,"station_id":"ce4bhs12rcd13ifvqhvg","pricing_plan_id":"cebpf4jnsgd1na2vs0mg"},{"bike_id":"8c7c1188-439a-4b1b-b372-39b1b7e0a742","system_id":"levelo_inurba_marseille","lat":43.2987,"lon":5.39747,"is_reserved":false,"is_disabled":false,"rental_uris":{"android":"levelo://app?vid=8c7c1188-439a-4b1b-b372-39b1b7e0a742","ios":"levelo://app?vid=8c7c1188-439a-4b1b-b372-39b1b7e0a742"},"vehicle_type_id":"4","last_reported":1729588176,"current_range_meters":28800,"station_id":"ce4bh0h2rcd13ifvqd50","pricing_plan_id":"cebpf4jnsgd1na2vs0mg"},{"bike_id":"6693cd0c-fe48-434b-8c32-77dc3a0e9af8","system_id":"levelo_inurba_marseille","lat":43.33219,"lon":5.38161,"is_reserved":false,"is_disabled":false,"rental_uris":{"android":"levelo://app?vid=6693cd0c-fe48-434b-8c32-77dc3a0e9af8","ios":"levelo://app?vid=6693cd0c-fe48-434b-8c32-77dc3a0e9af8"},"vehicle_type_id":"4","last_reported":1729588176,"current_range_meters":38000,"station_id":"","pricing_plan_id":"cebpf4jnsgd1na2vs0mg"},{"bike_id":"d8fcc4fa-ed39-4df3-8a67-0231297479c5","system_id":"levelo_inurba_marseille","lat":43.3265,"lon":5.40985,"is_reserved":false,"is_disabled":false,"rental_uris":{"android":"levelo://app?vid=d8fcc4fa-ed39-4df3-8a67-0231297479c5","ios":"levelo://app?vid=d8fcc4fa-ed39-4df3-8a67-0231297479c5"},"vehicle_type_id":"4","last_reported":1729588176,"current_range_meters":5600,"station_id":"ce4bhpp2rcd13ifvqhgg","pricing_plan_id":"cebpf4jnsgd1na2vs0mg"},{"bike_id":"d1dd05be-3f65-4d02-81fb-f02f90f55a2f","system_id":"levelo_inurba_marseille","lat":43.29527,"lon":5.38545,"is_reserved":false,"is_disabled":false,"rental_uris":{"android":"levelo://app?vid=d1dd05be-3f65-4d02-81fb-f02f90f55a2f","ios":"levelo://app?vid=d1dd05be-3f65-4d02-81fb-f02f90f55a2f"},"vehicle_type_id":"4","last_reported":1729588176,"current_range_meters":5600,"station_id":"ce4bgih2rcd13ifvqba0","pricing_plan_id":"cebpf4jnsgd1na2vs0mg"},{"bike_id":"e9147af0-e173-4750-b744-6da0405c29a5","system_id":"levelo_inurba_marseille","lat":43.307872,"lon":5.425498,"is_reserved":false,"is_disabled":false,"rental_uris":{"android":"levelo://app?vid=e9147af0-e173-4750-b744-6da0405c29a5","ios":"levelo://app?vid=e9147af0-e173-4750-b744-6da0405c29a5"},"vehicle_type_id":"4","last_reported":1729588176,"current_range_meters":9200,"station_id":"ce4bgup2rcd13ifvqcn0","pricing_plan_id":"cebpf4jnsgd1na2vs0mg"},{"bike_id":"dea6d48c-354d-488b-9fe7-400fa2958718","system_id":"levelo_inurba_marseille","lat":43.31263,"lon":5.40478,"is_reserved":false,"is_disabled":false,"rental_uris":{"android":"levelo://app?vid=dea6d48c-354d-488b-9fe7-400fa2958718","ios":"levelo://app?vid=dea6d48c-354d-488b-9fe7-400fa2958718"},"vehicle_type_id":"4","last_reported":1729588176,"current_range_meters":19600,"station_id":"ce4bhqh2rcd13ifvqhmg","pricing_plan_id":"cebpf4jnsgd1na2vs0mg"},{"bike_id":"413b37b2-6d56-46a7-ae60-602c8296952c","system_id":"levelo_inurba_marseille","lat":43.30545,"lon":5.38421,"is_reserved":false,"is_disabled":false,"rental_uris":{"android":"levelo://app?vid=413b37b2-6d56-46a7-ae60-602c8296952c","ios":"levelo://app?vid=413b37b2-6d56-46a7-ae60-602c8296952c"},"vehicle_type_id":"4","last_reported":1729588176,"current_range_meters":16000,"station_id":"ce4bgg92rcd13ifvqb30","pricing_plan_id":"cebpf4jnsgd1na2vs0mg"},{"bike_id":"408cbf17-c781-4424-ab3f-02b6b88382fd","system_id":"levelo_inurba_marseille","lat":43.25724,"lon":5.41107,"is_reserved":false,"is_disabled":false,"rental_uris":{"android":"levelo://app?vid=408cbf17-c781-4424-ab3f-02b6b88382fd","ios":"levelo://app?vid=408cbf17-c781-4424-ab3f-02b6b88382fd"},"vehicle_type_id":"4","last_reported":1729588176,"current_range_meters":38800,"station_id":"ce4bhkp2rcd13ifvqgd0","pricing_plan_id":"cebpf4jnsgd1na2vs0mg"},{"bike_id":"4618cc2c-fba6-4556-b7a3-f469bfff64e6","system_id":"levelo_inurba_marseille","lat":43.28416,"lon":5.34988,"is_reserved":false,"is_disabled":false,"rental_uris":{"android":"levelo://app?vid=4618cc2c-fba6-4556-b7a3-f469bfff64e6","ios":"levelo://app?vid=4618cc2c-fba6-4556-b7a3-f469bfff64e6"},"vehicle_type_id":"4","last_reported":1729588176,"current_range_meters":24800,"station_id":"ce4bhbh2rcd13ifvqepg","pricing_plan_id":"cebpf4jnsgd1na2vs0mg"},{"bike_id":"f7d7e980-5c84-4432-b54b-9d2a213d76b4","system_id":"levelo_inurba_marseille","lat":43.30906,"lon":5.36852,"is_reserved":false,"is_disabled":false,"rental_uris":{"android":"levelo://app?vid=f7d7e980-5c84-4432-b54b-9d2a213d76b4","ios":"levelo://app?vid=f7d7e980-5c84-4432-b54b-9d2a213d76b4"},"vehicle_type_id":"4","last_reported":1729588176,"current_range_meters":38800,"station_id":"ce4bgn92rcd13ifvqbvg","pricing_plan_id":"cebpf4jnsgd1na2vs0mg"},{"bike_id":"abe658d4-12a8-41db-b6b3-738fdbd608a2","system_id":"levelo_inurba_marseille","lat":43.23189,"lon":5.35555,"is_reserved":false,"is_disabled":false,"rental_uris":{"android":"levelo://app?vid=abe658d4-12a8-41db-b6b3-738fdbd608a2","ios":"levelo://app?vid=abe658d4-12a8-41db-b6b3-738fdbd608a2"},"vehicle_type_id":"4","last_reported":1729588176,"current_range_meters":36400,"station_id":"ce4bhu92rcd13ifvqi70","pricing_plan_id":"cebpf4jnsgd1na2vs0mg"},{"bike_id":"ecf5aaf1-3072-45c8-bc85-9209f1480bbf","system_id":"levelo_inurba_marseille","lat":43.23155,"lon":5.43698,"is_reserved":false,"is_disabled":false,"rental_uris":{"android":"levelo://app?vid=ecf5aaf1-3072-45c8-bc85-9209f1480bbf","ios":"levelo://app?vid=ecf5aaf1-3072-45c8-bc85-9209f1480bbf"},"vehicle_type_id":"4","last_reported":1729588176,"current_range_meters":24400,"station_id":"ce4bhmp2rcd13ifvqgog","pricing_plan_id":"cebpf4jnsgd1na2vs0mg"},{"bike_id":"8f033525-bc8f-42c4-9121-468701b80638","system_id":"levelo_inurba_marseille","lat":43.24996,"lon":5.38929,"is_reserved":false,"is_disabled":false,"rental_uris":{"android":"levelo://app?vid=8f033525-bc8f-42c4-9121-468701b80638","ios":"levelo://app?vid=8f033525-bc8f-42c4-9121-468701b80638"},"vehicle_type_id":"4","last_reported":1729588176,"current_range_meters":38000,"station_id":"ce4bhgp2rcd13ifvqfd0","pricing_plan_id":"cebpf4jnsgd1na2vs0mg"},{"bike_id":"9a29c955-a717-4a1f-a7ee-ab07c0a9e45d","system_id":"levelo_inurba_marseille","lat":43.25931,"lon":5.40905,"is_reserved":false,"is_disabled":false,"rental_uris":{"android":"levelo://app?vid=9a29c955-a717-4a1f-a7ee-ab07c0a9e45d","ios":"levelo://app?vid=9a29c955-a717-4a1f-a7ee-ab07c0a9e45d"},"vehicle_type_id":"4","last_reported":1729588176,"current_range_meters":28000,"station_id":"ce4bhm92rcd13ifvqglg","pricing_plan_id":"cebpf4jnsgd1na2vs0mg"},{"bike_id":"f8787c88-1be1-45e0-b108-32f155ca387d","system_id":"levelo_inurba_marseille","lat":43.241758,"lon":5.397297,"is_reserved":false,"is_disabled":false,"rental_uris":{"android":"levelo://app?vid=f8787c88-1be1-45e0-b108-32f155ca387d","ios":"levelo://app?vid=f8787c88-1be1-45e0-b108-32f155ca387d"},"vehicle_type_id":"4","last_reported":1729588176,"current_range_meters":25600,"station_id":"ce4bhn12rcd13ifvqgpg","pricing_plan_id":"cebpf4jnsgd1na2vs0mg"},{"bike_id":"e60756c5-6254-4cc6-8261-a873faab6f63","system_id":"levelo_inurba_marseille","lat":43.25931,"lon":5.40912,"is_reserved":false,"is_disabled":false,"rental_uris":{"android":"levelo://app?vid=e60756c5-6254-4cc6-8261-a873faab6f63","ios":"levelo://app?vid=e60756c5-6254-4cc6-8261-a873faab6f63"},"vehicle_type_id":"4","last_reported":1729588176,"current_range_meters":33600,"station_id":"ce4bhm92rcd13ifvqglg","pricing_plan_id":"cebpf4jnsgd1na2vs0mg"},{"bike_id":"7e43cda1-03cb-4ed5-9609-f6d261929a60","system_id":"levelo_inurba_marseille","lat":43.30277,"lon":5.37695,"is_reserved":false,"is_disabled":false,"rental_uris":{"android":"levelo://app?vid=7e43cda1-03cb-4ed5-9609-f6d261929a60","ios":"levelo://app?vid=7e43cda1-03cb-4ed5-9609-f6d261929a60"},"vehicle_type_id":"4","last_reported":1729588176,"current_range_meters":36800,"station_id":"ce4bguh2rcd13ifvqcj0","pricing_plan_id":"cebpf4jnsgd1na2vs0mg"},{"bike_id":"60717735-8180-439d-aa16-1261afe15895","system_id":"levelo_inurba_marseille","lat":43.24179,"lon":5.39723,"is_reserved":false,"is_disabled":false,"rental_uris":{"android":"levelo://app?vid=60717735-8180-439d-aa16-1261afe15895","ios":"levelo://app?vid=60717735-8180-439d-aa16-1261afe15895"},"vehicle_type_id":"4","last_reported":1729588176,"current_range_meters":33200,"station_id":"ce4bhn12rcd13ifvqgpg","pricing_plan_id":"cebpf4jnsgd1na2vs0mg"},{"bike_id":"392b8842-5fcf-4d6d-8c90-ea89e1dbc013","system_id":"levelo_inurba_marseille","lat":43.26677,"lon":5.38266,"is_reserved":false,"is_disabled":false,"rental_uris":{"android":"levelo://app?vid=392b8842-5fcf-4d6d-8c90-ea89e1dbc013","ios":"levelo://app?vid=392b8842-5fcf-4d6d-8c90-ea89e1dbc013"},"vehicle_type_id":"4","last_reported":1729588176,"current_range_meters":2800,"station_id":"ce4bhg92rcd13ifvqf90","pricing_plan_id":"cebpf4jnsgd1na2vs0mg"},{"bike_id":"309bb1c3-85e0-469d-b068-2e24a723c6dc","system_id":"levelo_inurba_marseille","lat":43.25934,"lon":5.40906,"is_reserved":false,"is_disabled":false,"rental_uris":{"android":"levelo://app?vid=309bb1c3-85e0-469d-b068-2e24a723c6dc","ios":"levelo://app?vid=309bb1c3-85e0-469d-b068-2e24a723c6dc"},"vehicle_type_id":"4","last_reported":1729588176,"current_range_meters":16400,"station_id":"ce4bhm92rcd13ifvqglg","pricing_plan_id":"cebpf4jnsgd1na2vs0mg"},{"bike_id":"12a89a42-bada-49ed-bcaf-7706f7b21696","system_id":"levelo_inurba_marseille","lat":43.27068,"lon":5.42271,"is_reserved":false,"is_disabled":false,"rental_uris":{"android":"levelo://app?vid=12a89a42-bada-49ed-bcaf-7706f7b21696","ios":"levelo://app?vid=12a89a42-bada-49ed-bcaf-7706f7b21696"},"vehicle_type_id":"4","last_reported":1729588176,"current_range_meters":39200,"station_id":"ce4bhk92rcd13ifvqgb0","pricing_plan_id":"cebpf4jnsgd1na2vs0mg"},{"bike_id":"6c1c4dca-9c27-40ae-b248-3f66b24560fc","system_id":"levelo_inurba_marseille","lat":43.24176,"lon":5.39729,"is_reserved":false,"is_disabled":false,"rental_uris":{"android":"levelo://app?vid=6c1c4dca-9c27-40ae-b248-3f66b24560fc","ios":"levelo://app?vid=6c1c4dca-9c27-40ae-b248-3f66b24560fc"},"vehicle_type_id":"4","last_reported":1729588176,"current_range_meters":27200,"station_id":"ce4bhn12rcd13ifvqgpg","pricing_plan_id":"cebpf4jnsgd1na2vs0mg"},{"bike_id":"3c2e9290-6792-4e2d-b00d-712b965be0bd","system_id":"levelo_inurba_marseille","lat":43.26418,"lon":5.3869,"is_reserved":false,"is_disabled":false,"rental_uris":{"android":"levelo://app?vid=3c2e9290-6792-4e2d-b00d-712b965be0bd","ios":"levelo://app?vid=3c2e9290-6792-4e2d-b00d-712b965be0bd"},"vehicle_type_id":"4","last_reported":1729588176,"current_range_meters":8800,"station_id":"","pricing_plan_id":"cebpf4jnsgd1na2vs0mg"},{"bike_id":"4bd127d9-cd20-4445-b442-2239decbdb3f","system_id":"levelo_inurba_marseille","lat":43.29959,"lon":5.41319,"is_reserved":false,"is_disabled":false,"rental_uris":{"android":"levelo://app?vid=4bd127d9-cd20-4445-b442-2239decbdb3f","ios":"levelo://app?vid=4bd127d9-cd20-4445-b442-2239decbdb3f"},"vehicle_type_id":"4","last_reported":1729588176,"current_range_meters":22000,"station_id":"ce4bhp12rcd13ifvqh9g","pricing_plan_id":"cebpf4jnsgd1na2vs0mg"},{"bike_id":"51cde9b4-7441-4cb2-904d-4757c342232d","system_id":"levelo_inurba_marseille","lat":43.30465,"lon":5.37914,"is_reserved":false,"is_disabled":false,"rental_uris":{"android":"levelo://app?vid=51cde9b4-7441-4cb2-904d-4757c342232d","ios":"levelo://app?vid=51cde9b4-7441-4cb2-904d-4757c342232d"},"vehicle_type_id":"4","last_reported":1729588176,"current_range_meters":40000,"station_id":"ce4bgup2rcd13ifvqcn0","pricing_plan_id":"cebpf4jnsgd1na2vs0mg"},{"bike_id":"8c0492ab-2d45-4afb-95a1-d3970d15852a","system_id":"levelo_inurba_marseille","lat":43.3302,"lon":5.39029,"is_reserved":false,"is_disabled":false,"rental_uris":{"android":"levelo://app?vid=8c0492ab-2d45-4afb-95a1-d3970d15852a","ios":"levelo://app?vid=8c0492ab-2d45-4afb-95a1-d3970d15852a"},"vehicle_type_id":"4","last_reported":1729588176,"current_range_meters":8800,"station_id":"ce4bhr92rcd13ifvqhrg","pricing_plan_id":"cebpf4jnsgd1na2vs0mg"},{"bike_id":"3624ad88-006c-478c-a03b-7ae245fc3890","system_id":"levelo_inurba_marseille","lat":43.30139,"lon":5.37419,"is_reserved":false,"is_disabled":false,"rental_uris":{"android":"levelo://app?vid=3624ad88-006c-478c-a03b-7ae245fc3890","ios":"levelo://app?vid=3624ad88-006c-478c-a03b-7ae245fc3890"},"vehicle_type_id":"4","last_reported":1729588176,"current_range_meters":36800,"station_id":"ce4bgs92rcd13ifvqcc0","pricing_plan_id":"cebpf4jnsgd1na2vs0mg"},{"bike_id":"e86d8755-2f6e-45be-b7a9-c103ee5c06e3","system_id":"levelo_inurba_marseille","lat":43.25931,"lon":5.40903,"is_reserved":false,"is_disabled":false,"rental_uris":{"android":"levelo://app?vid=e86d8755-2f6e-45be-b7a9-c103ee5c06e3","ios":"levelo://app?vid=e86d8755-2f6e-45be-b7a9-c103ee5c06e3"},"vehicle_type_id":"4","last_reported":1729588176,"current_range_meters":32000,"station_id":"ce4bhm92rcd13ifvqglg","pricing_plan_id":"cebpf4jnsgd1na2vs0mg"},{"bike_id":"566ef3cd-3e87-4087-a6aa-32a145c590e2","system_id":"levelo_inurba_marseille","lat":43.25578,"lon":5.38236,"is_reserved":false,"is_disabled":false,"rental_uris":{"android":"levelo://app?vid=566ef3cd-3e87-4087-a6aa-32a145c590e2","ios":"levelo://app?vid=566ef3cd-3e87-4087-a6aa-32a145c590e2"},"vehicle_type_id":"4","last_reported":1729588176,"current_range_meters":12800,"station_id":"ce4bhih2rcd13ifvqfs0","pricing_plan_id":"cebpf4jnsgd1na2vs0mg"},{"bike_id":"e73397ec-41ef-401f-966f-7b0b12ace5aa","system_id":"levelo_inurba_marseille","lat":43.23193,"lon":5.35553,"is_reserved":false,"is_disabled":false,"rental_uris":{"android":"levelo://app?vid=e73397ec-41ef-401f-966f-7b0b12ace5aa","ios":"levelo://app?vid=e73397ec-41ef-401f-966f-7b0b12ace5aa"},"vehicle_type_id":"4","last_reported":1729588176,"current_range_meters":39200,"station_id":"ce4bhu92rcd13ifvqi70","pricing_plan_id":"cebpf4jnsgd1na2vs0mg"},{"bike_id":"cb8c14be-838d-45f8-9135-305e9f32077f","system_id":"levelo_inurba_marseille","lat":43.30908,"lon":5.36853,"is_reserved":false,"is_disabled":false,"rental_uris":{"android":"levelo://app?vid=cb8c14be-838d-45f8-9135-305e9f32077f","ios":"levelo://app?vid=cb8c14be-838d-45f8-9135-305e9f32077f"},"vehicle_type_id":"4","last_reported":1729588176,"current_range_meters":39200,"station_id":"ce4bgn92rcd13ifvqbvg","pricing_plan_id":"cebpf4jnsgd1na2vs0mg"},{"bike_id":"5dda2f8f-2556-4f95-8601-07988ec79ee9","system_id":"levelo_inurba_marseille","lat":43.2481,"lon":5.37462,"is_reserved":false,"is_disabled":false,"rental_uris":{"android":"levelo://app?vid=5dda2f8f-2556-4f95-8601-07988ec79ee9","ios":"levelo://app?vid=5dda2f8f-2556-4f95-8601-07988ec79ee9"},"vehicle_type_id":"4","last_reported":1729588176,"current_range_meters":8000,"station_id":"ce4bhgh2rcd13ifvqfb0","pricing_plan_id":"cebpf4jnsgd1na2vs0mg"},{"bike_id":"92eaebdc-3725-48d6-a9a3-f51585000dbd","system_id":"levelo_inurba_marseille","lat":43.29942,"lon":5.37146,"is_reserved":false,"is_disabled":false,"rental_uris":{"android":"levelo://app?vid=92eaebdc-3725-48d6-a9a3-f51585000dbd","ios":"levelo://app?vid=92eaebdc-3725-48d6-a9a3-f51585000dbd"},"vehicle_type_id":"4","last_reported":1729588176,"current_range_meters":27200,"station_id":"ce4bgh92rcd13ifvqb40","pricing_plan_id":"cebpf4jnsgd1na2vs0mg"},{"bike_id":"e19ecf22-5188-430a-b60f-8b78af092b21","system_id":"levelo_inurba_marseille","lat":43.3054,"lon":5.36537,"is_reserved":false,"is_disabled":false,"rental_uris":{"android":"levelo://app?vid=e19ecf22-5188-430a-b60f-8b78af092b21","ios":"levelo://app?vid=e19ecf22-5188-430a-b60f-8b78af092b21"},"vehicle_type_id":"4","last_reported":1729588176,"current_range_meters":39200,"station_id":"ce4bgs12rcd13ifvqcag","pricing_plan_id":"cebpf4jnsgd1na2vs0mg"},{"bike_id":"2e834380-0591-4a5f-a7c6-ec896c58b9ae","system_id":"levelo_inurba_marseille","lat":43.31543,"lon":5.40374,"is_reserved":false,"is_disabled":false,"rental_uris":{"android":"levelo://app?vid=2e834380-0591-4a5f-a7c6-ec896c58b9ae","ios":"levelo://app?vid=2e834380-0591-4a5f-a7c6-ec896c58b9ae"},"vehicle_type_id":"4","last_reported":1729588176,"current_range_meters":28000,"station_id":"","pricing_plan_id":"cebpf4jnsgd1na2vs0mg"},{"bike_id":"7f1beb4c-9c9f-4a22-a134-c0145e031823","system_id":"levelo_inurba_marseille","lat":43.24807,"lon":5.37459,"is_reserved":false,"is_disabled":false,"rental_uris":{"android":"levelo://app?vid=7f1beb4c-9c9f-4a22-a134-c0145e031823","ios":"levelo://app?vid=7f1beb4c-9c9f-4a22-a134-c0145e031823"},"vehicle_type_id":"4","last_reported":1729588176,"current_range_meters":40000,"station_id":"ce4bhgh2rcd13ifvqfb0","pricing_plan_id":"cebpf4jnsgd1na2vs0mg"},{"bike_id":"a46224bf-1e23-44ee-9665-6762e802956f","system_id":"levelo_inurba_marseille","lat":43.25928,"lon":5.40905,"is_reserved":false,"is_disabled":false,"rental_uris":{"android":"levelo://app?vid=a46224bf-1e23-44ee-9665-6762e802956f","ios":"levelo://app?vid=a46224bf-1e23-44ee-9665-6762e802956f"},"vehicle_type_id":"4","last_reported":1729588176,"current_range_meters":34800,"station_id":"ce4bhm92rcd13ifvqglg","pricing_plan_id":"cebpf4jnsgd1na2vs0mg"},{"bike_id":"4db5f57a-1837-492d-ba97-4e606b1a8f25","system_id":"levelo_inurba_marseille","lat":43.24184,"lon":5.39725,"is_reserved":false,"is_disabled":false,"rental_uris":{"android":"levelo://app?vid=4db5f57a-1837-492d-ba97-4e606b1a8f25","ios":"levelo://app?vid=4db5f57a-1837-492d-ba97-4e606b1a8f25"},"vehicle_type_id":"4","last_reported":1729588176,"current_range_meters":38000,"station_id":"ce4bhn12rcd13ifvqgpg","pricing_plan_id":"cebpf4jnsgd1na2vs0mg"},{"bike_id":"a4bec522-c4e8-47bb-983c-2f5c3143ecc9","system_id":"levelo_inurba_marseille","lat":43.23147,"lon":5.43711,"is_reserved":false,"is_disabled":false,"rental_uris":{"android":"levelo://app?vid=a4bec522-c4e8-47bb-983c-2f5c3143ecc9","ios":"levelo://app?vid=a4bec522-c4e8-47bb-983c-2f5c3143ecc9"},"vehicle_type_id":"4","last_reported":1729588176,"current_range_meters":7200,"station_id":"ce4bhmp2rcd13ifvqgog","pricing_plan_id":"cebpf4jnsgd1na2vs0mg"},{"bike_id":"7b55bf91-35db-4d77-ba2d-32a86d96429a","system_id":"levelo_inurba_marseille","lat":43.26681,"lon":5.38267,"is_reserved":false,"is_disabled":false,"rental_uris":{"android":"levelo://app?vid=7b55bf91-35db-4d77-ba2d-32a86d96429a","ios":"levelo://app?vid=7b55bf91-35db-4d77-ba2d-32a86d96429a"},"vehicle_type_id":"4","last_reported":1729588176,"current_range_meters":40000,"station_id":"ce4bhg92rcd13ifvqf90","pricing_plan_id":"cebpf4jnsgd1na2vs0mg"},{"bike_id":"0542018d-404c-4931-92ac-7d497686214b","system_id":"levelo_inurba_marseille","lat":43.29556,"lon":5.42288,"is_reserved":false,"is_disabled":false,"rental_uris":{"android":"levelo://app?vid=0542018d-404c-4931-92ac-7d497686214b","ios":"levelo://app?vid=0542018d-404c-4931-92ac-7d497686214b"},"vehicle_type_id":"4","last_reported":1729588176,"current_range_meters":38400,"station_id":"ce4bhph2rcd13ifvqhdg","pricing_plan_id":"cebpf4jnsgd1na2vs0mg"},{"bike_id":"bc1c4b65-b2ef-458a-9377-0e29b328aa0e","system_id":"levelo_inurba_marseille","lat":43.30357,"lon":5.4187,"is_reserved":false,"is_disabled":false,"rental_uris":{"android":"levelo://app?vid=bc1c4b65-b2ef-458a-9377-0e29b328aa0e","ios":"levelo://app?vid=bc1c4b65-b2ef-458a-9377-0e29b328aa0e"},"vehicle_type_id":"4","last_reported":1729588176,"current_range_meters":40000,"station_id":"ce4bhop2rcd13ifvqh7g","pricing_plan_id":"cebpf4jnsgd1na2vs0mg"},{"bike_id":"67349b8d-80b3-4749-832d-07f7e424b34c","system_id":"levelo_inurba_marseille","lat":43.26678,"lon":5.38265,"is_reserved":false,"is_disabled":false,"rental_uris":{"android":"levelo://app?vid=67349b8d-80b3-4749-832d-07f7e424b34c","ios":"levelo://app?vid=67349b8d-80b3-4749-832d-07f7e424b34c"},"vehicle_type_id":"4","last_reported":1729588176,"current_range_meters":40000,"station_id":"ce4bhg92rcd13ifvqf90","pricing_plan_id":"cebpf4jnsgd1na2vs0mg"},{"bike_id":"2f8adabc-5094-4e41-833e-591be121963d","system_id":"levelo_inurba_marseille","lat":43.29576,"lon":5.3674,"is_reserved":false,"is_disabled":false,"rental_uris":{"android":"levelo://app?vid=2f8adabc-5094-4e41-833e-591be121963d","ios":"levelo://app?vid=2f8adabc-5094-4e41-833e-591be121963d"},"vehicle_type_id":"4","last_reported":1729588176,"current_range_meters":26800,"station_id":"ce4bgph2rcd13ifvqc2g","pricing_plan_id":"cebpf4jnsgd1na2vs0mg"},{"bike_id":"1bcb55a5-c74e-4a9e-956b-3b5cb07d2887","system_id":"levelo_inurba_marseille","lat":43.30907,"lon":5.36858,"is_reserved":false,"is_disabled":false,"rental_uris":{"android":"levelo://app?vid=1bcb55a5-c74e-4a9e-956b-3b5cb07d2887","ios":"levelo://app?vid=1bcb55a5-c74e-4a9e-956b-3b5cb07d2887"},"vehicle_type_id":"4","last_reported":1729588176,"current_range_meters":38000,"station_id":"ce4bgn92rcd13ifvqbvg","pricing_plan_id":"cebpf4jnsgd1na2vs0mg"},{"bike_id":"2163a0a5-3422-4c4d-af38-bb1f09e39a7b","system_id":"levelo_inurba_marseille","lat":43.30538,"lon":5.36534,"is_reserved":false,"is_disabled":false,"rental_uris":{"android":"levelo://app?vid=2163a0a5-3422-4c4d-af38-bb1f09e39a7b","ios":"levelo://app?vid=2163a0a5-3422-4c4d-af38-bb1f09e39a7b"},"vehicle_type_id":"4","last_reported":1729588176,"current_range_meters":14800,"station_id":"ce4bgs12rcd13ifvqcag","pricing_plan_id":"cebpf4jnsgd1na2vs0mg"},{"bike_id":"39e72a60-607c-438a-bdfe-4cb56b2f6d95","system_id":"levelo_inurba_marseille","lat":43.28924,"lon":5.38392,"is_reserved":false,"is_disabled":false,"rental_uris":{"android":"levelo://app?vid=39e72a60-607c-438a-bdfe-4cb56b2f6d95","ios":"levelo://app?vid=39e72a60-607c-438a-bdfe-4cb56b2f6d95"},"vehicle_type_id":"4","last_reported":1729588176,"current_range_meters":16000,"station_id":"ce4bh612rcd13ifvqe6g","pricing_plan_id":"cebpf4jnsgd1na2vs0mg"},{"bike_id":"af99bbf6-6362-4f23-9762-0d2c0f85538f","system_id":"levelo_inurba_marseille","lat":43.31341,"lon":5.36709,"is_reserved":false,"is_disabled":false,"rental_uris":{"android":"levelo://app?vid=af99bbf6-6362-4f23-9762-0d2c0f85538f","ios":"levelo://app?vid=af99bbf6-6362-4f23-9762-0d2c0f85538f"},"vehicle_type_id":"4","last_reported":1729588176,"current_range_meters":36000,"station_id":"ce4bgr92rcd13ifvqc6g","pricing_plan_id":"cebpf4jnsgd1na2vs0mg"},{"bike_id":"4c72ed75-c17d-47e2-8bb4-e2449803bf90","system_id":"levelo_inurba_marseille","lat":43.29957,"lon":5.41323,"is_reserved":false,"is_disabled":false,"rental_uris":{"android":"levelo://app?vid=4c72ed75-c17d-47e2-8bb4-e2449803bf90","ios":"levelo://app?vid=4c72ed75-c17d-47e2-8bb4-e2449803bf90"},"vehicle_type_id":"4","last_reported":1729588176,"current_range_meters":38000,"station_id":"ce4bhp12rcd13ifvqh9g","pricing_plan_id":"cebpf4jnsgd1na2vs0mg"},{"bike_id":"804fb848-57f6-4944-985c-c6acefd10248","system_id":"levelo_inurba_marseille","lat":43.28148,"lon":5.42643,"is_reserved":false,"is_disabled":false,"rental_uris":{"android":"levelo://app?vid=804fb848-57f6-4944-985c-c6acefd10248","ios":"levelo://app?vid=804fb848-57f6-4944-985c-c6acefd10248"},"vehicle_type_id":"4","last_reported":1729588176,"current_range_meters":38800,"station_id":"ce4bhnh2rcd13ifvqgug","pricing_plan_id":"cebpf4jnsgd1na2vs0mg"},{"bike_id":"3092cc72-6376-4a93-9a44-b7bd6dbe386d","system_id":"levelo_inurba_marseille","lat":43.30319,"lon":5.36461,"is_reserved":false,"is_disabled":false,"rental_uris":{"android":"levelo://app?vid=3092cc72-6376-4a93-9a44-b7bd6dbe386d","ios":"levelo://app?vid=3092cc72-6376-4a93-9a44-b7bd6dbe386d"},"vehicle_type_id":"4","last_reported":1729588176,"current_range_meters":35600,"station_id":"","pricing_plan_id":"cebpf4jnsgd1na2vs0mg"},{"bike_id":"b76bd3a5-6dac-4c65-8ee1-722a78ef6269","system_id":"levelo_inurba_marseille","lat":43.231556,"lon":5.436958,"is_reserved":false,"is_disabled":false,"rental_uris":{"android":"levelo://app?vid=b76bd3a5-6dac-4c65-8ee1-722a78ef6269","ios":"levelo://app?vid=b76bd3a5-6dac-4c65-8ee1-722a78ef6269"},"vehicle_type_id":"4","last_reported":1729588176,"current_range_meters":38800,"station_id":"ce4bhmp2rcd13ifvqgog","pricing_plan_id":"cebpf4jnsgd1na2vs0mg"},{"bike_id":"9fe99e90-9f96-4760-984f-54643ba8205f","system_id":"levelo_inurba_marseille","lat":43.33608,"lon":5.41029,"is_reserved":false,"is_disabled":false,"rental_uris":{"android":"levelo://app?vid=9fe99e90-9f96-4760-984f-54643ba8205f","ios":"levelo://app?vid=9fe99e90-9f96-4760-984f-54643ba8205f"},"vehicle_type_id":"4","last_reported":1729588176,"current_range_meters":26000,"station_id":"ce4bhqh2rcd13ifvqhmg","pricing_plan_id":"cebpf4jnsgd1na2vs0mg"},{"bike_id":"96acb6f0-8edc-4316-8b81-d438d7efc8ae","system_id":"levelo_inurba_marseille","lat":43.25108,"lon":5.40328,"is_reserved":false,"is_disabled":false,"rental_uris":{"android":"levelo://app?vid=96acb6f0-8edc-4316-8b81-d438d7efc8ae","ios":"levelo://app?vid=96acb6f0-8edc-4316-8b81-d438d7efc8ae"},"vehicle_type_id":"4","last_reported":1729588176,"current_range_meters":38400,"station_id":"ce4bhlh2rcd13ifvqgig","pricing_plan_id":"cebpf4jnsgd1na2vs0mg"},{"bike_id":"6b213a09-bc0b-4605-a1df-03af277097a7","system_id":"levelo_inurba_marseille","lat":43.29418,"lon":5.38615,"is_reserved":false,"is_disabled":false,"rental_uris":{"android":"levelo://app?vid=6b213a09-bc0b-4605-a1df-03af277097a7","ios":"levelo://app?vid=6b213a09-bc0b-4605-a1df-03af277097a7"},"vehicle_type_id":"4","last_reported":1729588176,"current_range_meters":25200,"station_id":"ce4bh2h2rcd13ifvqdh0","pricing_plan_id":"cebpf4jnsgd1na2vs0mg"},{"bike_id":"0b69efd8-ad68-4722-9212-33068c10e131","system_id":"levelo_inurba_marseille","lat":43.30474,"lon":5.37907,"is_reserved":false,"is_disabled":false,"rental_uris":{"android":"levelo://app?vid=0b69efd8-ad68-4722-9212-33068c10e131","ios":"levelo://app?vid=0b69efd8-ad68-4722-9212-33068c10e131"},"vehicle_type_id":"4","last_reported":1729588176,"current_range_meters":34800,"station_id":"ce4bgup2rcd13ifvqcn0","pricing_plan_id":"cebpf4jnsgd1na2vs0mg"},{"bike_id":"44fd974f-608f-4884-a168-35cb7d5d94d9","system_id":"levelo_inurba_marseille","lat":43.33757,"lon":5.37451,"is_reserved":false,"is_disabled":false,"rental_uris":{"android":"levelo://app?vid=44fd974f-608f-4884-a168-35cb7d5d94d9","ios":"levelo://app?vid=44fd974f-608f-4884-a168-35cb7d5d94d9"},"vehicle_type_id":"4","last_reported":1729588176,"current_range_meters":38400,"station_id":"","pricing_plan_id":"cebpf4jnsgd1na2vs0mg"},{"bike_id":"d67659aa-1879-49ff-9e21-343007f69c6c","system_id":"levelo_inurba_marseille","lat":43.30807,"lon":5.43525,"is_reserved":false,"is_disabled":false,"rental_uris":{"android":"levelo://app?vid=d67659aa-1879-49ff-9e21-343007f69c6c","ios":"levelo://app?vid=d67659aa-1879-49ff-9e21-343007f69c6c"},"vehicle_type_id":"4","last_reported":1729588176,"current_range_meters":38800,"station_id":"ce4bhph2rcd13ifvqheg","pricing_plan_id":"cebpf4jnsgd1na2vs0mg"},{"bike_id":"c115d107-9dfd-4c0f-9e36-3a1424616dae","system_id":"levelo_inurba_marseille","lat":43.26563,"lon":5.3901,"is_reserved":false,"is_disabled":false,"rental_uris":{"android":"levelo://app?vid=c115d107-9dfd-4c0f-9e36-3a1424616dae","ios":"levelo://app?vid=c115d107-9dfd-4c0f-9e36-3a1424616dae"},"vehicle_type_id":"4","last_reported":1729588176,"current_range_meters":38800,"station_id":"ce4bhe12rcd13ifvqf30","pricing_plan_id":"cebpf4jnsgd1na2vs0mg"},{"bike_id":"48b6efaa-5b75-4dc9-aa35-c38b7f8f31ab","system_id":"levelo_inurba_marseille","lat":43.30298,"lon":5.36901,"is_reserved":false,"is_disabled":false,"rental_uris":{"android":"levelo://app?vid=48b6efaa-5b75-4dc9-aa35-c38b7f8f31ab","ios":"levelo://app?vid=48b6efaa-5b75-4dc9-aa35-c38b7f8f31ab"},"vehicle_type_id":"4","last_reported":1729588176,"current_range_meters":32800,"station_id":"ce4bgqh2rcd13ifvqc5g","pricing_plan_id":"cebpf4jnsgd1na2vs0mg"},{"bike_id":"81c8279a-0c26-474c-b3f7-697c25b8ca1e","system_id":"levelo_inurba_marseille","lat":43.33607,"lon":5.4103,"is_reserved":false,"is_disabled":false,"rental_uris":{"android":"levelo://app?vid=81c8279a-0c26-474c-b3f7-697c25b8ca1e","ios":"levelo://app?vid=81c8279a-0c26-474c-b3f7-697c25b8ca1e"},"vehicle_type_id":"4","last_reported":1729588176,"current_range_meters":20400,"station_id":"ce4bhqh2rcd13ifvqhmg","pricing_plan_id":"cebpf4jnsgd1na2vs0mg"},{"bike_id":"04f25a6b-4bac-4ea7-a816-69502f2a500b","system_id":"levelo_inurba_marseille","lat":43.323406,"lon":5.406252,"is_reserved":false,"is_disabled":false,"rental_uris":{"android":"levelo://app?vid=04f25a6b-4bac-4ea7-a816-69502f2a500b","ios":"levelo://app?vid=04f25a6b-4bac-4ea7-a816-69502f2a500b"},"vehicle_type_id":"4","last_reported":1729588176,"current_range_meters":8400,"station_id":"ce4bgup2rcd13ifvqcn0","pricing_plan_id":"cebpf4jnsgd1na2vs0mg"},{"bike_id":"4f7c35ab-ef64-45c1-ba32-ebf4da12b9c2","system_id":"levelo_inurba_marseille","lat":43.29846,"lon":5.36271,"is_reserved":false,"is_disabled":false,"rental_uris":{"android":"levelo://app?vid=4f7c35ab-ef64-45c1-ba32-ebf4da12b9c2","ios":"levelo://app?vid=4f7c35ab-ef64-45c1-ba32-ebf4da12b9c2"},"vehicle_type_id":"4","last_reported":1729588176,"current_range_meters":36000,"station_id":"ce4bgpp2rcd13ifvqc3g","pricing_plan_id":"cebpf4jnsgd1na2vs0mg"},{"bike_id":"be5db1c6-69a3-40df-b24a-cf397c4715fc","system_id":"levelo_inurba_marseille","lat":43.29704,"lon":5.37707,"is_reserved":false,"is_disabled":false,"rental_uris":{"android":"levelo://app?vid=be5db1c6-69a3-40df-b24a-cf397c4715fc","ios":"levelo://app?vid=be5db1c6-69a3-40df-b24a-cf397c4715fc"},"vehicle_type_id":"4","last_reported":1729588176,"current_range_meters":28400,"station_id":"ce4bgkh2rcd13ifvqbl0","pricing_plan_id":"cebpf4jnsgd1na2vs0mg"},{"bike_id":"864575c1-85b8-4008-92ba-391073d4ed51","system_id":"levelo_inurba_marseille","lat":43.23189,"lon":5.35541,"is_reserved":false,"is_disabled":false,"rental_uris":{"android":"levelo://app?vid=864575c1-85b8-4008-92ba-391073d4ed51","ios":"levelo://app?vid=864575c1-85b8-4008-92ba-391073d4ed51"},"vehicle_type_id":"4","last_reported":1729588176,"current_range_meters":25200,"station_id":"ce4bhu92rcd13ifvqi70","pricing_plan_id":"cebpf4jnsgd1na2vs0mg"},{"bike_id":"d23f3b7a-3b74-4c64-9e31-1d0d06e7394d","system_id":"levelo_inurba_marseille","lat":43.30132,"lon":5.37412,"is_reserved":false,"is_disabled":false,"rental_uris":{"android":"levelo://app?vid=d23f3b7a-3b74-4c64-9e31-1d0d06e7394d","ios":"levelo://app?vid=d23f3b7a-3b74-4c64-9e31-1d0d06e7394d"},"vehicle_type_id":"4","last_reported":1729588176,"current_range_meters":38000,"station_id":"ce4bgs92rcd13ifvqcc0","pricing_plan_id":"cebpf4jnsgd1na2vs0mg"},{"bike_id":"adf79aec-c794-4168-b0fa-f8e1bb2137f3","system_id":"levelo_inurba_marseille","lat":43.29353,"lon":5.37846,"is_reserved":false,"is_disabled":false,"rental_uris":{"android":"levelo://app?vid=adf79aec-c794-4168-b0fa-f8e1bb2137f3","ios":"levelo://app?vid=adf79aec-c794-4168-b0fa-f8e1bb2137f3"},"vehicle_type_id":"4","last_reported":1729588176,"current_range_meters":30800,"station_id":"ce4bgjh2rcd13ifvqbf0","pricing_plan_id":"cebpf4jnsgd1na2vs0mg"},{"bike_id":"583b84e4-e3c8-43a2-bc23-69cbb4d4e7f3","system_id":"levelo_inurba_marseille","lat":43.26684,"lon":5.38271,"is_reserved":false,"is_disabled":false,"rental_uris":{"android":"levelo://app?vid=583b84e4-e3c8-43a2-bc23-69cbb4d4e7f3","ios":"levelo://app?vid=583b84e4-e3c8-43a2-bc23-69cbb4d4e7f3"},"vehicle_type_id":"4","last_reported":1729588176,"current_range_meters":38800,"station_id":"ce4bhg92rcd13ifvqf90","pricing_plan_id":"cebpf4jnsgd1na2vs0mg"},{"bike_id":"dd9844eb-56ac-4db8-8211-67d32b08622b","system_id":"levelo_inurba_marseille","lat":43.272064,"lon":5.391774,"is_reserved":false,"is_disabled":false,"rental_uris":{"android":"levelo://app?vid=dd9844eb-56ac-4db8-8211-67d32b08622b","ios":"levelo://app?vid=dd9844eb-56ac-4db8-8211-67d32b08622b"},"vehicle_type_id":"4","last_reported":1729588176,"current_range_meters":38800,"station_id":"ce4bhhp2rcd13ifvqfm0","pricing_plan_id":"cebpf4jnsgd1na2vs0mg"},{"bike_id":"8a2879e0-3efa-4178-8055-d78b4fdce27d","system_id":"levelo_inurba_marseille","lat":43.29554,"lon":5.42294,"is_reserved":false,"is_disabled":false,"rental_uris":{"android":"levelo://app?vid=8a2879e0-3efa-4178-8055-d78b4fdce27d","ios":"levelo://app?vid=8a2879e0-3efa-4178-8055-d78b4fdce27d"},"vehicle_type_id":"4","last_reported":1729588176,"current_range_meters":25200,"station_id":"ce4bhph2rcd13ifvqhdg","pricing_plan_id":"cebpf4jnsgd1na2vs0mg"},{"bike_id":"0728974d-1ad5-4181-91f2-6035aab7157d","system_id":"levelo_inurba_marseille","lat":43.23187,"lon":5.35545,"is_reserved":false,"is_disabled":false,"rental_uris":{"android":"levelo://app?vid=0728974d-1ad5-4181-91f2-6035aab7157d","ios":"levelo://app?vid=0728974d-1ad5-4181-91f2-6035aab7157d"},"vehicle_type_id":"4","last_reported":1729588176,"current_range_meters":40000,"station_id":"ce4bhu92rcd13ifvqi70","pricing_plan_id":"cebpf4jnsgd1na2vs0mg"},{"bike_id":"518ed396-16bf-490b-8ae4-67c4aee16e99","system_id":"levelo_inurba_marseille","lat":43.31335,"lon":5.36706,"is_reserved":false,"is_disabled":false,"rental_uris":{"android":"levelo://app?vid=518ed396-16bf-490b-8ae4-67c4aee16e99","ios":"levelo://app?vid=518ed396-16bf-490b-8ae4-67c4aee16e99"},"vehicle_type_id":"4","last_reported":1729588176,"current_range_meters":31200,"station_id":"ce4bgr92rcd13ifvqc6g","pricing_plan_id":"cebpf4jnsgd1na2vs0mg"},{"bike_id":"2f7a6370-4ef6-4312-ba37-69e6e5fa6f63","system_id":"levelo_inurba_marseille","lat":43.29533,"lon":5.3751,"is_reserved":false,"is_disabled":false,"rental_uris":{"android":"levelo://app?vid=2f7a6370-4ef6-4312-ba37-69e6e5fa6f63","ios":"levelo://app?vid=2f7a6370-4ef6-4312-ba37-69e6e5fa6f63"},"vehicle_type_id":"4","last_reported":1729588176,"current_range_meters":37600,"station_id":"ce4bgkp2rcd13ifvqbmg","pricing_plan_id":"cebpf4jnsgd1na2vs0mg"},{"bike_id":"4fbc9bcd-f983-47d0-a432-134af039f6c8","system_id":"levelo_inurba_marseille","lat":43.2314,"lon":5.43727,"is_reserved":false,"is_disabled":false,"rental_uris":{"android":"levelo://app?vid=4fbc9bcd-f983-47d0-a432-134af039f6c8","ios":"levelo://app?vid=4fbc9bcd-f983-47d0-a432-134af039f6c8"},"vehicle_type_id":"4","last_reported":1729588176,"current_range_meters":16400,"station_id":"ce4bhmp2rcd13ifvqgog","pricing_plan_id":"cebpf4jnsgd1na2vs0mg"},{"bike_id":"287bf577-ec28-476f-81dc-18f5c4d600e7","system_id":"levelo_inurba_marseille","lat":43.30542,"lon":5.36539,"is_reserved":false,"is_disabled":false,"rental_uris":{"android":"levelo://app?vid=287bf577-ec28-476f-81dc-18f5c4d600e7","ios":"levelo://app?vid=287bf577-ec28-476f-81dc-18f5c4d600e7"},"vehicle_type_id":"4","last_reported":1729588176,"current_range_meters":28800,"station_id":"ce4bgs12rcd13ifvqcag","pricing_plan_id":"cebpf4jnsgd1na2vs0mg"},{"bike_id":"4c306c40-cd89-4b57-9800-9ffb284044c3","system_id":"levelo_inurba_marseille","lat":43.25112,"lon":5.4032,"is_reserved":false,"is_disabled":false,"rental_uris":{"android":"levelo://app?vid=4c306c40-cd89-4b57-9800-9ffb284044c3","ios":"levelo://app?vid=4c306c40-cd89-4b57-9800-9ffb284044c3"},"vehicle_type_id":"4","last_reported":1729588176,"current_range_meters":28400,"station_id":"ce4bhlh2rcd13ifvqgig","pricing_plan_id":"cebpf4jnsgd1na2vs0mg"},{"bike_id":"2d5adfb3-fbf6-49ea-92ee-2aa0b000d141","system_id":"levelo_inurba_marseille","lat":43.248627,"lon":5.374883,"is_reserved":false,"is_disabled":false,"rental_uris":{"android":"levelo://app?vid=2d5adfb3-fbf6-49ea-92ee-2aa0b000d141","ios":"levelo://app?vid=2d5adfb3-fbf6-49ea-92ee-2aa0b000d141"},"vehicle_type_id":"4","last_reported":1729588176,"current_range_meters":6000,"station_id":"ce4bhgh2rcd13ifvqfb0","pricing_plan_id":"cebpf4jnsgd1na2vs0mg"},{"bike_id":"6f043abc-a162-487c-9130-872e359e1ad6","system_id":"levelo_inurba_marseille","lat":43.29955,"lon":5.3717,"is_reserved":false,"is_disabled":false,"rental_uris":{"android":"levelo://app?vid=6f043abc-a162-487c-9130-872e359e1ad6","ios":"levelo://app?vid=6f043abc-a162-487c-9130-872e359e1ad6"},"vehicle_type_id":"4","last_reported":1729588176,"current_range_meters":38800,"station_id":"ce4bgr92rcd13ifvqc7g","pricing_plan_id":"cebpf4jnsgd1na2vs0mg"},{"bike_id":"3502d262-242a-4f41-b46a-18e154b6d3d4","system_id":"levelo_inurba_marseille","lat":43.25937,"lon":5.40898,"is_reserved":false,"is_disabled":false,"rental_uris":{"android":"levelo://app?vid=3502d262-242a-4f41-b46a-18e154b6d3d4","ios":"levelo://app?vid=3502d262-242a-4f41-b46a-18e154b6d3d4"},"vehicle_type_id":"4","last_reported":1729588176,"current_range_meters":28800,"station_id":"ce4bhm92rcd13ifvqglg","pricing_plan_id":"cebpf4jnsgd1na2vs0mg"},{"bike_id":"1734b605-eb95-41e9-8e65-6d74414ae6c8","system_id":"levelo_inurba_marseille","lat":43.26205,"lon":5.3744,"is_reserved":false,"is_disabled":false,"rental_uris":{"android":"levelo://app?vid=1734b605-eb95-41e9-8e65-6d74414ae6c8","ios":"levelo://app?vid=1734b605-eb95-41e9-8e65-6d74414ae6c8"},"vehicle_type_id":"4","last_reported":1729588176,"current_range_meters":21600,"station_id":"ce4bhgp2rcd13ifvqfc0","pricing_plan_id":"cebpf4jnsgd1na2vs0mg"},{"bike_id":"b80433ac-4b37-4869-84e8-91999a3765ef","system_id":"levelo_inurba_marseille","lat":43.33606,"lon":5.41026,"is_reserved":false,"is_disabled":false,"rental_uris":{"android":"levelo://app?vid=b80433ac-4b37-4869-84e8-91999a3765ef","ios":"levelo://app?vid=b80433ac-4b37-4869-84e8-91999a3765ef"},"vehicle_type_id":"4","last_reported":1729588176,"current_range_meters":27600,"station_id":"ce4bhqh2rcd13ifvqhmg","pricing_plan_id":"cebpf4jnsgd1na2vs0mg"},{"bike_id":"79a1e020-318b-42a1-a8c0-a424b1daf69e","system_id":"levelo_inurba_marseille","lat":43.296,"lon":5.36142,"is_reserved":false,"is_disabled":false,"rental_uris":{"android":"levelo://app?vid=79a1e020-318b-42a1-a8c0-a424b1daf69e","ios":"levelo://app?vid=79a1e020-318b-42a1-a8c0-a424b1daf69e"},"vehicle_type_id":"4","last_reported":1729588176,"current_range_meters":6400,"station_id":"","pricing_plan_id":"cebpf4jnsgd1na2vs0mg"},{"bike_id":"a821d61b-5acd-4d69-a147-01eea9061956","system_id":"levelo_inurba_marseille","lat":43.27422,"lon":5.39435,"is_reserved":false,"is_disabled":false,"rental_uris":{"android":"levelo://app?vid=a821d61b-5acd-4d69-a147-01eea9061956","ios":"levelo://app?vid=a821d61b-5acd-4d69-a147-01eea9061956"},"vehicle_type_id":"4","last_reported":1729588176,"current_range_meters":32000,"station_id":"ce4bhdp2rcd13ifvqf20","pricing_plan_id":"cebpf4jnsgd1na2vs0mg"},{"bike_id":"6eced96a-b021-41b9-89bf-72379aa39c97","system_id":"levelo_inurba_marseille","lat":43.25929,"lon":5.40907,"is_reserved":false,"is_disabled":false,"rental_uris":{"android":"levelo://app?vid=6eced96a-b021-41b9-89bf-72379aa39c97","ios":"levelo://app?vid=6eced96a-b021-41b9-89bf-72379aa39c97"},"vehicle_type_id":"4","last_reported":1729588176,"current_range_meters":33200,"station_id":"ce4bhm92rcd13ifvqglg","pricing_plan_id":"cebpf4jnsgd1na2vs0mg"},{"bike_id":"3b146ebd-f1ca-414f-8b07-c3be71b7e9f5","system_id":"levelo_inurba_marseille","lat":43.24388,"lon":5.37061,"is_reserved":false,"is_disabled":false,"rental_uris":{"android":"levelo://app?vid=3b146ebd-f1ca-414f-8b07-c3be71b7e9f5","ios":"levelo://app?vid=3b146ebd-f1ca-414f-8b07-c3be71b7e9f5"},"vehicle_type_id":"4","last_reported":1729588176,"current_range_meters":24400,"station_id":"ce4bhhh2rcd13ifvqfk0","pricing_plan_id":"cebpf4jnsgd1na2vs0mg"},{"bike_id":"ada05105-b609-4b47-b6ef-58f23d195ff5","system_id":"levelo_inurba_marseille","lat":43.29217,"lon":5.36041,"is_reserved":false,"is_disabled":false,"rental_uris":{"android":"levelo://app?vid=ada05105-b609-4b47-b6ef-58f23d195ff5","ios":"levelo://app?vid=ada05105-b609-4b47-b6ef-58f23d195ff5"},"vehicle_type_id":"4","last_reported":1729588176,"current_range_meters":9200,"station_id":"ce4bhbh2rcd13ifvqeqg","pricing_plan_id":"cebpf4jnsgd1na2vs0mg"},{"bike_id":"9a730649-9acd-49c7-ae5b-981c307f0906","system_id":"levelo_inurba_marseille","lat":43.25084,"lon":5.39522,"is_reserved":false,"is_disabled":false,"rental_uris":{"android":"levelo://app?vid=9a730649-9acd-49c7-ae5b-981c307f0906","ios":"levelo://app?vid=9a730649-9acd-49c7-ae5b-981c307f0906"},"vehicle_type_id":"4","last_reported":1729588176,"current_range_meters":16800,"station_id":"ce4bhm12rcd13ifvqgkg","pricing_plan_id":"cebpf4jnsgd1na2vs0mg"},{"bike_id":"7adf842b-4b8c-4356-a23f-1be0cbaf4d21","system_id":"levelo_inurba_marseille","lat":43.23194,"lon":5.35544,"is_reserved":false,"is_disabled":false,"rental_uris":{"android":"levelo://app?vid=7adf842b-4b8c-4356-a23f-1be0cbaf4d21","ios":"levelo://app?vid=7adf842b-4b8c-4356-a23f-1be0cbaf4d21"},"vehicle_type_id":"4","last_reported":1729588176,"current_range_meters":10000,"station_id":"ce4bhu92rcd13ifvqi70","pricing_plan_id":"cebpf4jnsgd1na2vs0mg"},{"bike_id":"45495d78-6579-4baf-98bd-1b602f954d3e","system_id":"levelo_inurba_marseille","lat":43.32024,"lon":5.41571,"is_reserved":false,"is_disabled":false,"rental_uris":{"android":"levelo://app?vid=45495d78-6579-4baf-98bd-1b602f954d3e","ios":"levelo://app?vid=45495d78-6579-4baf-98bd-1b602f954d3e"},"vehicle_type_id":"4","last_reported":1729588176,"current_range_meters":22800,"station_id":"ce4bhq92rcd13ifvqhkg","pricing_plan_id":"cebpf4jnsgd1na2vs0mg"},{"bike_id":"3fbb21dc-457c-4028-8cc7-8a7ddebb915c","system_id":"levelo_inurba_marseille","lat":43.23197,"lon":5.35547,"is_reserved":false,"is_disabled":false,"rental_uris":{"android":"levelo://app?vid=3fbb21dc-457c-4028-8cc7-8a7ddebb915c","ios":"levelo://app?vid=3fbb21dc-457c-4028-8cc7-8a7ddebb915c"},"vehicle_type_id":"4","last_reported":1729588176,"current_range_meters":36800,"station_id":"ce4bhu92rcd13ifvqi70","pricing_plan_id":"cebpf4jnsgd1na2vs0mg"},{"bike_id":"8d66234d-ed10-4a56-b9bf-7024ed1a6c9c","system_id":"levelo_inurba_marseille","lat":43.3257,"lon":5.37908,"is_reserved":false,"is_disabled":false,"rental_uris":{"android":"levelo://app?vid=8d66234d-ed10-4a56-b9bf-7024ed1a6c9c","ios":"levelo://app?vid=8d66234d-ed10-4a56-b9bf-7024ed1a6c9c"},"vehicle_type_id":"4","last_reported":1729588176,"current_range_meters":7200,"station_id":"","pricing_plan_id":"cebpf4jnsgd1na2vs0mg"},{"bike_id":"0f437b50-8e4b-4c51-ae9e-ee23e011f2fe","system_id":"levelo_inurba_marseille","lat":43.28929,"lon":5.36399,"is_reserved":false,"is_disabled":false,"rental_uris":{"android":"levelo://app?vid=0f437b50-8e4b-4c51-ae9e-ee23e011f2fe","ios":"levelo://app?vid=0f437b50-8e4b-4c51-ae9e-ee23e011f2fe"},"vehicle_type_id":"4","last_reported":1729588176,"current_range_meters":28000,"station_id":"ce4bhc92rcd13ifvqetg","pricing_plan_id":"cebpf4jnsgd1na2vs0mg"},{"bike_id":"cdb1b7b6-aedf-414f-a98c-4e36927c1c7b","system_id":"levelo_inurba_marseille","lat":43.28154,"lon":5.4264,"is_reserved":false,"is_disabled":false,"rental_uris":{"android":"levelo://app?vid=cdb1b7b6-aedf-414f-a98c-4e36927c1c7b","ios":"levelo://app?vid=cdb1b7b6-aedf-414f-a98c-4e36927c1c7b"},"vehicle_type_id":"4","last_reported":1729588176,"current_range_meters":29600,"station_id":"ce4bhnh2rcd13ifvqgug","pricing_plan_id":"cebpf4jnsgd1na2vs0mg"},{"bike_id":"17256915-de40-48f0-a885-13a1cba91091","system_id":"levelo_inurba_marseille","lat":43.24995,"lon":5.38933,"is_reserved":false,"is_disabled":false,"rental_uris":{"android":"levelo://app?vid=17256915-de40-48f0-a885-13a1cba91091","ios":"levelo://app?vid=17256915-de40-48f0-a885-13a1cba91091"},"vehicle_type_id":"4","last_reported":1729588176,"current_range_meters":30000,"station_id":"ce4bhgp2rcd13ifvqfd0","pricing_plan_id":"cebpf4jnsgd1na2vs0mg"},{"bike_id":"7933aded-6259-4976-b6f7-05e90ee81aa9","system_id":"levelo_inurba_marseille","lat":43.30536,"lon":5.36543,"is_reserved":false,"is_disabled":false,"rental_uris":{"android":"levelo://app?vid=7933aded-6259-4976-b6f7-05e90ee81aa9","ios":"levelo://app?vid=7933aded-6259-4976-b6f7-05e90ee81aa9"},"vehicle_type_id":"4","last_reported":1729588176,"current_range_meters":39200,"station_id":"ce4bgs12rcd13ifvqcag","pricing_plan_id":"cebpf4jnsgd1na2vs0mg"},{"bike_id":"35a565d6-0fdf-4c4d-adba-c25dff6d340e","system_id":"levelo_inurba_marseille","lat":43.255,"lon":5.37651,"is_reserved":false,"is_disabled":false,"rental_uris":{"android":"levelo://app?vid=35a565d6-0fdf-4c4d-adba-c25dff6d340e","ios":"levelo://app?vid=35a565d6-0fdf-4c4d-adba-c25dff6d340e"},"vehicle_type_id":"4","last_reported":1729588176,"current_range_meters":12800,"station_id":"ce4bhh12rcd13ifvqff0","pricing_plan_id":"cebpf4jnsgd1na2vs0mg"},{"bike_id":"1d043a7e-e4a0-4b52-a511-dae1798912e1","system_id":"levelo_inurba_marseille","lat":43.28146,"lon":5.42635,"is_reserved":false,"is_disabled":false,"rental_uris":{"android":"levelo://app?vid=1d043a7e-e4a0-4b52-a511-dae1798912e1","ios":"levelo://app?vid=1d043a7e-e4a0-4b52-a511-dae1798912e1"},"vehicle_type_id":"4","last_reported":1729588176,"current_range_meters":37600,"station_id":"ce4bhnh2rcd13ifvqgug","pricing_plan_id":"cebpf4jnsgd1na2vs0mg"},{"bike_id":"2e7e341d-6647-47b6-9b4f-10b43bf22d61","system_id":"levelo_inurba_marseille","lat":43.30417,"lon":5.41287,"is_reserved":false,"is_disabled":false,"rental_uris":{"android":"levelo://app?vid=2e7e341d-6647-47b6-9b4f-10b43bf22d61","ios":"levelo://app?vid=2e7e341d-6647-47b6-9b4f-10b43bf22d61"},"vehicle_type_id":"4","last_reported":1729588176,"current_range_meters":30000,"station_id":"ce4bhop2rcd13ifvqh8g","pricing_plan_id":"cebpf4jnsgd1na2vs0mg"},{"bike_id":"00efb7ea-4935-4991-8e09-7c91b5acc755","system_id":"levelo_inurba_marseille","lat":43.29841,"lon":5.36257,"is_reserved":false,"is_disabled":false,"rental_uris":{"android":"levelo://app?vid=00efb7ea-4935-4991-8e09-7c91b5acc755","ios":"levelo://app?vid=00efb7ea-4935-4991-8e09-7c91b5acc755"},"vehicle_type_id":"4","last_reported":1729588176,"current_range_meters":22800,"station_id":"ce4bgpp2rcd13ifvqc3g","pricing_plan_id":"cebpf4jnsgd1na2vs0mg"},{"bike_id":"4c9cd873-b86d-45ed-8195-b76cbcf6fe83","system_id":"levelo_inurba_marseille","lat":43.25933,"lon":5.4091,"is_reserved":false,"is_disabled":false,"rental_uris":{"android":"levelo://app?vid=4c9cd873-b86d-45ed-8195-b76cbcf6fe83","ios":"levelo://app?vid=4c9cd873-b86d-45ed-8195-b76cbcf6fe83"},"vehicle_type_id":"4","last_reported":1729588176,"current_range_meters":33200,"station_id":"ce4bhm92rcd13ifvqglg","pricing_plan_id":"cebpf4jnsgd1na2vs0mg"},{"bike_id":"6cd915b7-8862-4c87-b58a-50cab51e10ad","system_id":"levelo_inurba_marseille","lat":43.29558,"lon":5.42284,"is_reserved":false,"is_disabled":false,"rental_uris":{"android":"levelo://app?vid=6cd915b7-8862-4c87-b58a-50cab51e10ad","ios":"levelo://app?vid=6cd915b7-8862-4c87-b58a-50cab51e10ad"},"vehicle_type_id":"4","last_reported":1729588176,"current_range_meters":22000,"station_id":"ce4bhph2rcd13ifvqhdg","pricing_plan_id":"cebpf4jnsgd1na2vs0mg"},{"bike_id":"b30795d5-c289-4858-b63e-3d6a34fb8b3d","system_id":"levelo_inurba_marseille","lat":43.2668,"lon":5.38257,"is_reserved":false,"is_disabled":false,"rental_uris":{"android":"levelo://app?vid=b30795d5-c289-4858-b63e-3d6a34fb8b3d","ios":"levelo://app?vid=b30795d5-c289-4858-b63e-3d6a34fb8b3d"},"vehicle_type_id":"4","last_reported":1729588176,"current_range_meters":36400,"station_id":"ce4bhg92rcd13ifvqf90","pricing_plan_id":"cebpf4jnsgd1na2vs0mg"},{"bike_id":"a58ab66b-373d-4ad3-be3f-b305044c050e","system_id":"levelo_inurba_marseille","lat":43.30798,"lon":5.38153,"is_reserved":false,"is_disabled":false,"rental_uris":{"android":"levelo://app?vid=a58ab66b-373d-4ad3-be3f-b305044c050e","ios":"levelo://app?vid=a58ab66b-373d-4ad3-be3f-b305044c050e"},"vehicle_type_id":"4","last_reported":1729588176,"current_range_meters":17600,"station_id":"ce4bgt12rcd13ifvqce0","pricing_plan_id":"cebpf4jnsgd1na2vs0mg"},{"bike_id":"155517ef-0a83-4c87-b2da-fb3d8d259bc7","system_id":"levelo_inurba_marseille","lat":43.25569,"lon":5.38237,"is_reserved":false,"is_disabled":false,"rental_uris":{"android":"levelo://app?vid=155517ef-0a83-4c87-b2da-fb3d8d259bc7","ios":"levelo://app?vid=155517ef-0a83-4c87-b2da-fb3d8d259bc7"},"vehicle_type_id":"4","last_reported":1729588176,"current_range_meters":37600,"station_id":"ce4bhih2rcd13ifvqfs0","pricing_plan_id":"cebpf4jnsgd1na2vs0mg"},{"bike_id":"0cbf08a8-ca2f-4e93-b15f-4e46b4a438c8","system_id":"levelo_inurba_marseille","lat":43.26682,"lon":5.38271,"is_reserved":false,"is_disabled":false,"rental_uris":{"android":"levelo://app?vid=0cbf08a8-ca2f-4e93-b15f-4e46b4a438c8","ios":"levelo://app?vid=0cbf08a8-ca2f-4e93-b15f-4e46b4a438c8"},"vehicle_type_id":"4","last_reported":1729588176,"current_range_meters":34000,"station_id":"ce4bhg92rcd13ifvqf90","pricing_plan_id":"cebpf4jnsgd1na2vs0mg"},{"bike_id":"2a217b11-06a0-43da-b31e-e55cff6f0df1","system_id":"levelo_inurba_marseille","lat":43.30536,"lon":5.38416,"is_reserved":false,"is_disabled":false,"rental_uris":{"android":"levelo://app?vid=2a217b11-06a0-43da-b31e-e55cff6f0df1","ios":"levelo://app?vid=2a217b11-06a0-43da-b31e-e55cff6f0df1"},"vehicle_type_id":"4","last_reported":1729588176,"current_range_meters":31200,"station_id":"ce4bgg92rcd13ifvqb30","pricing_plan_id":"cebpf4jnsgd1na2vs0mg"},{"bike_id":"d35aead5-74d9-4a00-baad-d7d1ed435177","system_id":"levelo_inurba_marseille","lat":43.24073,"lon":5.37759,"is_reserved":false,"is_disabled":false,"rental_uris":{"android":"levelo://app?vid=d35aead5-74d9-4a00-baad-d7d1ed435177","ios":"levelo://app?vid=d35aead5-74d9-4a00-baad-d7d1ed435177"},"vehicle_type_id":"4","last_reported":1729588176,"current_range_meters":36400,"station_id":"ce4bhnp2rcd13ifvqgvg","pricing_plan_id":"cebpf4jnsgd1na2vs0mg"},{"bike_id":"f74d032c-ad83-4d2e-a69c-cfae86fbee62","system_id":"levelo_inurba_marseille","lat":43.294739,"lon":5.376873,"is_reserved":false,"is_disabled":false,"rental_uris":{"android":"levelo://app?vid=f74d032c-ad83-4d2e-a69c-cfae86fbee62","ios":"levelo://app?vid=f74d032c-ad83-4d2e-a69c-cfae86fbee62"},"vehicle_type_id":"4","last_reported":1729588176,"current_range_meters":14400,"station_id":"ce4bgkp2rcd13ifvqbmg","pricing_plan_id":"cebpf4jnsgd1na2vs0mg"},{"bike_id":"6b63d172-a2c8-46da-9750-2226af7381c0","system_id":"levelo_inurba_marseille","lat":43.23962,"lon":5.36641,"is_reserved":false,"is_disabled":false,"rental_uris":{"android":"levelo://app?vid=6b63d172-a2c8-46da-9750-2226af7381c0","ios":"levelo://app?vid=6b63d172-a2c8-46da-9750-2226af7381c0"},"vehicle_type_id":"4","last_reported":1729588176,"current_range_meters":38400,"station_id":"ce4bhi12rcd13ifvqfp0","pricing_plan_id":"cebpf4jnsgd1na2vs0mg"},{"bike_id":"9c3e814f-92e3-446d-aa0c-284e59dcf17d","system_id":"levelo_inurba_marseille","lat":43.31337,"lon":5.36705,"is_reserved":false,"is_disabled":false,"rental_uris":{"android":"levelo://app?vid=9c3e814f-92e3-446d-aa0c-284e59dcf17d","ios":"levelo://app?vid=9c3e814f-92e3-446d-aa0c-284e59dcf17d"},"vehicle_type_id":"4","last_reported":1729588176,"current_range_meters":28400,"station_id":"ce4bgr92rcd13ifvqc6g","pricing_plan_id":"cebpf4jnsgd1na2vs0mg"},{"bike_id":"baac8e18-d221-4a3a-ba24-305b61b8688c","system_id":"levelo_inurba_marseille","lat":43.30272,"lon":5.37711,"is_reserved":false,"is_disabled":false,"rental_uris":{"android":"levelo://app?vid=baac8e18-d221-4a3a-ba24-305b61b8688c","ios":"levelo://app?vid=baac8e18-d221-4a3a-ba24-305b61b8688c"},"vehicle_type_id":"4","last_reported":1729588176,"current_range_meters":28000,"station_id":"ce4bguh2rcd13ifvqcj0","pricing_plan_id":"cebpf4jnsgd1na2vs0mg"},{"bike_id":"262d6295-809d-45c9-9768-b3b5a2cf90b7","system_id":"levelo_inurba_marseille","lat":43.31344,"lon":5.36715,"is_reserved":false,"is_disabled":false,"rental_uris":{"android":"levelo://app?vid=262d6295-809d-45c9-9768-b3b5a2cf90b7","ios":"levelo://app?vid=262d6295-809d-45c9-9768-b3b5a2cf90b7"},"vehicle_type_id":"4","last_reported":1729588176,"current_range_meters":27600,"station_id":"ce4bgr92rcd13ifvqc6g","pricing_plan_id":"cebpf4jnsgd1na2vs0mg"},{"bike_id":"c3945b60-e38d-4106-8f18-92c7f436cc4f","system_id":"levelo_inurba_marseille","lat":43.33757,"lon":5.37448,"is_reserved":false,"is_disabled":false,"rental_uris":{"android":"levelo://app?vid=c3945b60-e38d-4106-8f18-92c7f436cc4f","ios":"levelo://app?vid=c3945b60-e38d-4106-8f18-92c7f436cc4f"},"vehicle_type_id":"4","last_reported":1729588176,"current_range_meters":32400,"station_id":"","pricing_plan_id":"cebpf4jnsgd1na2vs0mg"},{"bike_id":"de1ff86d-3061-40a1-be1e-8be446e6115e","system_id":"levelo_inurba_marseille","lat":43.29586,"lon":5.3816,"is_reserved":false,"is_disabled":false,"rental_uris":{"android":"levelo://app?vid=de1ff86d-3061-40a1-be1e-8be446e6115e","ios":"levelo://app?vid=de1ff86d-3061-40a1-be1e-8be446e6115e"},"vehicle_type_id":"4","last_reported":1729588176,"current_range_meters":14800,"station_id":"ce4bgl12rcd13ifvqbo0","pricing_plan_id":"cebpf4jnsgd1na2vs0mg"},{"bike_id":"288d6a7f-d998-4597-bb7b-cda3c5ea3b38","system_id":"levelo_inurba_marseille","lat":43.30471,"lon":5.37909,"is_reserved":false,"is_disabled":false,"rental_uris":{"android":"levelo://app?vid=288d6a7f-d998-4597-bb7b-cda3c5ea3b38","ios":"levelo://app?vid=288d6a7f-d998-4597-bb7b-cda3c5ea3b38"},"vehicle_type_id":"4","last_reported":1729588176,"current_range_meters":36400,"station_id":"ce4bgup2rcd13ifvqcn0","pricing_plan_id":"cebpf4jnsgd1na2vs0mg"},{"bike_id":"c37a9f14-2d78-41b8-ba95-c64c54cc1335","system_id":"levelo_inurba_marseille","lat":43.3056,"lon":5.36534,"is_reserved":false,"is_disabled":false,"rental_uris":{"android":"levelo://app?vid=c37a9f14-2d78-41b8-ba95-c64c54cc1335","ios":"levelo://app?vid=c37a9f14-2d78-41b8-ba95-c64c54cc1335"},"vehicle_type_id":"4","last_reported":1729588176,"current_range_meters":24400,"station_id":"ce4bgs12rcd13ifvqcag","pricing_plan_id":"cebpf4jnsgd1na2vs0mg"},{"bike_id":"4380f7ac-abd4-4e0e-a8d3-127d52dcd769","system_id":"levelo_inurba_marseille","lat":43.2979,"lon":5.39343,"is_reserved":false,"is_disabled":false,"rental_uris":{"android":"levelo://app?vid=4380f7ac-abd4-4e0e-a8d3-127d52dcd769","ios":"levelo://app?vid=4380f7ac-abd4-4e0e-a8d3-127d52dcd769"},"vehicle_type_id":"4","last_reported":1729588176,"current_range_meters":36000,"station_id":"chh1huq6cuj3fo74tm60","pricing_plan_id":"cebpf4jnsgd1na2vs0mg"},{"bike_id":"685d3ac2-2cf5-46c4-834d-dc2e469858f5","system_id":"levelo_inurba_marseille","lat":43.28271,"lon":5.35058,"is_reserved":false,"is_disabled":false,"rental_uris":{"android":"levelo://app?vid=685d3ac2-2cf5-46c4-834d-dc2e469858f5","ios":"levelo://app?vid=685d3ac2-2cf5-46c4-834d-dc2e469858f5"},"vehicle_type_id":"4","last_reported":1729588176,"current_range_meters":37600,"station_id":"ce4bhbp2rcd13ifvqerg","pricing_plan_id":"cebpf4jnsgd1na2vs0mg"},{"bike_id":"9819146e-6e38-4bfb-8718-b0a15928bc96","system_id":"levelo_inurba_marseille","lat":43.31352,"lon":5.36702,"is_reserved":false,"is_disabled":false,"rental_uris":{"android":"levelo://app?vid=9819146e-6e38-4bfb-8718-b0a15928bc96","ios":"levelo://app?vid=9819146e-6e38-4bfb-8718-b0a15928bc96"},"vehicle_type_id":"4","last_reported":1729588176,"current_range_meters":28400,"station_id":"ce4bgr92rcd13ifvqc6g","pricing_plan_id":"cebpf4jnsgd1na2vs0mg"},{"bike_id":"b29d81c3-e41e-4646-b486-a379452dc6de","system_id":"levelo_inurba_marseille","lat":43.30304,"lon":5.36896,"is_reserved":false,"is_disabled":false,"rental_uris":{"android":"levelo://app?vid=b29d81c3-e41e-4646-b486-a379452dc6de","ios":"levelo://app?vid=b29d81c3-e41e-4646-b486-a379452dc6de"},"vehicle_type_id":"4","last_reported":1729588176,"current_range_meters":38800,"station_id":"ce4bgqh2rcd13ifvqc5g","pricing_plan_id":"cebpf4jnsgd1na2vs0mg"},{"bike_id":"1cc8c524-3a72-465f-8ebe-e4c35d504abb","system_id":"levelo_inurba_marseille","lat":43.24068,"lon":5.37765,"is_reserved":false,"is_disabled":false,"rental_uris":{"android":"levelo://app?vid=1cc8c524-3a72-465f-8ebe-e4c35d504abb","ios":"levelo://app?vid=1cc8c524-3a72-465f-8ebe-e4c35d504abb"},"vehicle_type_id":"4","last_reported":1729588176,"current_range_meters":16400,"station_id":"ce4bhnp2rcd13ifvqgvg","pricing_plan_id":"cebpf4jnsgd1na2vs0mg"},{"bike_id":"ece55472-7ae9-42ac-8bf6-715af8e50e62","system_id":"levelo_inurba_marseille","lat":43.23151,"lon":5.43716,"is_reserved":false,"is_disabled":false,"rental_uris":{"android":"levelo://app?vid=ece55472-7ae9-42ac-8bf6-715af8e50e62","ios":"levelo://app?vid=ece55472-7ae9-42ac-8bf6-715af8e50e62"},"vehicle_type_id":"4","last_reported":1729588176,"current_range_meters":19200,"station_id":"ce4bhmp2rcd13ifvqgog","pricing_plan_id":"cebpf4jnsgd1na2vs0mg"},{"bike_id":"862507b6-0928-4a62-98f0-8e6ab06bd1ba","system_id":"levelo_inurba_marseille","lat":43.28987,"lon":5.37837,"is_reserved":false,"is_disabled":false,"rental_uris":{"android":"levelo://app?vid=862507b6-0928-4a62-98f0-8e6ab06bd1ba","ios":"levelo://app?vid=862507b6-0928-4a62-98f0-8e6ab06bd1ba"},"vehicle_type_id":"4","last_reported":1729588176,"current_range_meters":32000,"station_id":"ce4bh9p2rcd13ifvqed0","pricing_plan_id":"cebpf4jnsgd1na2vs0mg"},{"bike_id":"994154be-47cc-4d42-919e-9b5291ae5f62","system_id":"levelo_inurba_marseille","lat":43.30455,"lon":5.37907,"is_reserved":false,"is_disabled":false,"rental_uris":{"android":"levelo://app?vid=994154be-47cc-4d42-919e-9b5291ae5f62","ios":"levelo://app?vid=994154be-47cc-4d42-919e-9b5291ae5f62"},"vehicle_type_id":"4","last_reported":1729588176,"current_range_meters":22400,"station_id":"ce4bgup2rcd13ifvqcn0","pricing_plan_id":"cebpf4jnsgd1na2vs0mg"},{"bike_id":"53f1b7e8-3e1e-4968-8dc6-29f65c6134da","system_id":"levelo_inurba_marseille","lat":43.29872,"lon":5.39733,"is_reserved":false,"is_disabled":false,"rental_uris":{"android":"levelo://app?vid=53f1b7e8-3e1e-4968-8dc6-29f65c6134da","ios":"levelo://app?vid=53f1b7e8-3e1e-4968-8dc6-29f65c6134da"},"vehicle_type_id":"4","last_reported":1729588176,"current_range_meters":38800,"station_id":"ce4bh0h2rcd13ifvqd50","pricing_plan_id":"cebpf4jnsgd1na2vs0mg"},{"bike_id":"6ba1088e-f6d7-458a-a335-f0b3c3746983","system_id":"levelo_inurba_marseille","lat":43.24175,"lon":5.39719,"is_reserved":false,"is_disabled":false,"rental_uris":{"android":"levelo://app?vid=6ba1088e-f6d7-458a-a335-f0b3c3746983","ios":"levelo://app?vid=6ba1088e-f6d7-458a-a335-f0b3c3746983"},"vehicle_type_id":"4","last_reported":1729588176,"current_range_meters":38000,"station_id":"ce4bhn12rcd13ifvqgpg","pricing_plan_id":"cebpf4jnsgd1na2vs0mg"},{"bike_id":"6a606450-0244-4420-a512-c69c644c2c13","system_id":"levelo_inurba_marseille","lat":43.25491,"lon":5.37652,"is_reserved":false,"is_disabled":false,"rental_uris":{"android":"levelo://app?vid=6a606450-0244-4420-a512-c69c644c2c13","ios":"levelo://app?vid=6a606450-0244-4420-a512-c69c644c2c13"},"vehicle_type_id":"4","last_reported":1729588176,"current_range_meters":38800,"station_id":"ce4bhh12rcd13ifvqff0","pricing_plan_id":"cebpf4jnsgd1na2vs0mg"},{"bike_id":"c6514999-11a6-4cc9-8fdc-53a83e26106a","system_id":"levelo_inurba_marseille","lat":43.25083,"lon":5.39512,"is_reserved":false,"is_disabled":false,"rental_uris":{"android":"levelo://app?vid=c6514999-11a6-4cc9-8fdc-53a83e26106a","ios":"levelo://app?vid=c6514999-11a6-4cc9-8fdc-53a83e26106a"},"vehicle_type_id":"4","last_reported":1729588176,"current_range_meters":38800,"station_id":"ce4bhm12rcd13ifvqgkg","pricing_plan_id":"cebpf4jnsgd1na2vs0mg"},{"bike_id":"fed181f1-bf63-44a2-8176-df50744f2b5a","system_id":"levelo_inurba_marseille","lat":43.33602,"lon":5.41029,"is_reserved":false,"is_disabled":false,"rental_uris":{"android":"levelo://app?vid=fed181f1-bf63-44a2-8176-df50744f2b5a","ios":"levelo://app?vid=fed181f1-bf63-44a2-8176-df50744f2b5a"},"vehicle_type_id":"4","last_reported":1729588176,"current_range_meters":19200,"station_id":"ce4bhqh2rcd13ifvqhmg","pricing_plan_id":"cebpf4jnsgd1na2vs0mg"},{"bike_id":"6cbaa18b-deba-4b12-8423-7aff8642a881","system_id":"levelo_inurba_marseille","lat":43.30549,"lon":5.36704,"is_reserved":false,"is_disabled":false,"rental_uris":{"android":"levelo://app?vid=6cbaa18b-deba-4b12-8423-7aff8642a881","ios":"levelo://app?vid=6cbaa18b-deba-4b12-8423-7aff8642a881"},"vehicle_type_id":"4","last_reported":1729588176,"current_range_meters":26800,"station_id":"ce4bgrp2rcd13ifvqc9g","pricing_plan_id":"cebpf4jnsgd1na2vs0mg"},{"bike_id":"5e9e22a8-83e6-488b-b876-d74daeb25302","system_id":"levelo_inurba_marseille","lat":43.30278,"lon":5.37696,"is_reserved":false,"is_disabled":false,"rental_uris":{"android":"levelo://app?vid=5e9e22a8-83e6-488b-b876-d74daeb25302","ios":"levelo://app?vid=5e9e22a8-83e6-488b-b876-d74daeb25302"},"vehicle_type_id":"4","last_reported":1729588176,"current_range_meters":35200,"station_id":"ce4bguh2rcd13ifvqcj0","pricing_plan_id":"cebpf4jnsgd1na2vs0mg"},{"bike_id":"fa481e4e-4749-4d4b-9709-d597ee1df05b","system_id":"levelo_inurba_marseille","lat":43.29681,"lon":5.37307,"is_reserved":false,"is_disabled":false,"rental_uris":{"android":"levelo://app?vid=fa481e4e-4749-4d4b-9709-d597ee1df05b","ios":"levelo://app?vid=fa481e4e-4749-4d4b-9709-d597ee1df05b"},"vehicle_type_id":"4","last_reported":1729588176,"current_range_meters":38400,"station_id":"","pricing_plan_id":"cebpf4jnsgd1na2vs0mg"},{"bike_id":"10cd1eab-b7c4-4809-b16d-4cf4afc0b3c1","system_id":"levelo_inurba_marseille","lat":43.23153,"lon":5.43713,"is_reserved":false,"is_disabled":false,"rental_uris":{"android":"levelo://app?vid=10cd1eab-b7c4-4809-b16d-4cf4afc0b3c1","ios":"levelo://app?vid=10cd1eab-b7c4-4809-b16d-4cf4afc0b3c1"},"vehicle_type_id":"4","last_reported":1729588176,"current_range_meters":38800,"station_id":"ce4bhmp2rcd13ifvqgog","pricing_plan_id":"cebpf4jnsgd1na2vs0mg"},{"bike_id":"ec125df5-44cc-49b7-81e0-c522bd2ca48c","system_id":"levelo_inurba_marseille","lat":43.23153,"lon":5.43708,"is_reserved":false,"is_disabled":false,"rental_uris":{"android":"levelo://app?vid=ec125df5-44cc-49b7-81e0-c522bd2ca48c","ios":"levelo://app?vid=ec125df5-44cc-49b7-81e0-c522bd2ca48c"},"vehicle_type_id":"4","last_reported":1729588176,"current_range_meters":27600,"station_id":"ce4bhmp2rcd13ifvqgog","pricing_plan_id":"cebpf4jnsgd1na2vs0mg"},{"bike_id":"495d9b54-adef-4d33-98e0-753a1caccc4a","system_id":"levelo_inurba_marseille","lat":43.299355,"lon":5.365379,"is_reserved":false,"is_disabled":false,"rental_uris":{"android":"levelo://app?vid=495d9b54-adef-4d33-98e0-753a1caccc4a","ios":"levelo://app?vid=495d9b54-adef-4d33-98e0-753a1caccc4a"},"vehicle_type_id":"4","last_reported":1729588176,"current_range_meters":28400,"station_id":"ce4bgm92rcd13ifvqbr0","pricing_plan_id":"cebpf4jnsgd1na2vs0mg"},{"bike_id":"d8d30b00-c51f-42c1-a4bc-5be916aaba37","system_id":"levelo_inurba_marseille","lat":43.2959,"lon":5.37369,"is_reserved":false,"is_disabled":false,"rental_uris":{"android":"levelo://app?vid=d8d30b00-c51f-42c1-a4bc-5be916aaba37","ios":"levelo://app?vid=d8d30b00-c51f-42c1-a4bc-5be916aaba37"},"vehicle_type_id":"4","last_reported":1729588176,"current_range_meters":30000,"station_id":"","pricing_plan_id":"cebpf4jnsgd1na2vs0mg"},{"bike_id":"fd536803-b9cd-4b52-b966-d5ac2acd7b0a","system_id":"levelo_inurba_marseille","lat":43.25939,"lon":5.40904,"is_reserved":false,"is_disabled":false,"rental_uris":{"android":"levelo://app?vid=fd536803-b9cd-4b52-b966-d5ac2acd7b0a","ios":"levelo://app?vid=fd536803-b9cd-4b52-b966-d5ac2acd7b0a"},"vehicle_type_id":"4","last_reported":1729588176,"current_range_meters":32800,"station_id":"ce4bhm92rcd13ifvqglg","pricing_plan_id":"cebpf4jnsgd1na2vs0mg"},{"bike_id":"4a3aa950-2095-498f-87de-414e2c498191","system_id":"levelo_inurba_marseille","lat":43.28149,"lon":5.42645,"is_reserved":false,"is_disabled":false,"rental_uris":{"android":"levelo://app?vid=4a3aa950-2095-498f-87de-414e2c498191","ios":"levelo://app?vid=4a3aa950-2095-498f-87de-414e2c498191"},"vehicle_type_id":"4","last_reported":1729588176,"current_range_meters":38800,"station_id":"ce4bhnh2rcd13ifvqgug","pricing_plan_id":"cebpf4jnsgd1na2vs0mg"},{"bike_id":"967e5eae-ae5e-4c21-bf3a-c0959016b278","system_id":"levelo_inurba_marseille","lat":43.24806,"lon":5.37457,"is_reserved":false,"is_disabled":false,"rental_uris":{"android":"levelo://app?vid=967e5eae-ae5e-4c21-bf3a-c0959016b278","ios":"levelo://app?vid=967e5eae-ae5e-4c21-bf3a-c0959016b278"},"vehicle_type_id":"4","last_reported":1729588176,"current_range_meters":36800,"station_id":"ce4bhgh2rcd13ifvqfb0","pricing_plan_id":"cebpf4jnsgd1na2vs0mg"},{"bike_id":"dbc42d43-fdec-45cb-abce-151491a2958d","system_id":"levelo_inurba_marseille","lat":43.30317,"lon":5.36895,"is_reserved":false,"is_disabled":false,"rental_uris":{"android":"levelo://app?vid=dbc42d43-fdec-45cb-abce-151491a2958d","ios":"levelo://app?vid=dbc42d43-fdec-45cb-abce-151491a2958d"},"vehicle_type_id":"4","last_reported":1729588176,"current_range_meters":39200,"station_id":"ce4bgqh2rcd13ifvqc5g","pricing_plan_id":"cebpf4jnsgd1na2vs0mg"},{"bike_id":"05ba3d76-a880-4e08-bd5e-c88b517f9e8d","system_id":"levelo_inurba_marseille","lat":43.32483,"lon":5.3656,"is_reserved":false,"is_disabled":false,"rental_uris":{"android":"levelo://app?vid=05ba3d76-a880-4e08-bd5e-c88b517f9e8d","ios":"levelo://app?vid=05ba3d76-a880-4e08-bd5e-c88b517f9e8d"},"vehicle_type_id":"4","last_reported":1729588176,"current_range_meters":39200,"station_id":"ce4bhs12rcd13ifvqhvg","pricing_plan_id":"cebpf4jnsgd1na2vs0mg"},{"bike_id":"cba57ba3-0a8b-418b-9617-226cc2b07ef6","system_id":"levelo_inurba_marseille","lat":43.30466,"lon":5.37897,"is_reserved":false,"is_disabled":false,"rental_uris":{"android":"levelo://app?vid=cba57ba3-0a8b-418b-9617-226cc2b07ef6","ios":"levelo://app?vid=cba57ba3-0a8b-418b-9617-226cc2b07ef6"},"vehicle_type_id":"4","last_reported":1729588176,"current_range_meters":28400,"station_id":"ce4bgup2rcd13ifvqcn0","pricing_plan_id":"cebpf4jnsgd1na2vs0mg"},{"bike_id":"f834fab5-e77d-455e-b0bc-5213d3a3aa79","system_id":"levelo_inurba_marseille","lat":43.29846,"lon":5.36272,"is_reserved":false,"is_disabled":false,"rental_uris":{"android":"levelo://app?vid=f834fab5-e77d-455e-b0bc-5213d3a3aa79","ios":"levelo://app?vid=f834fab5-e77d-455e-b0bc-5213d3a3aa79"},"vehicle_type_id":"4","last_reported":1729588176,"current_range_meters":38800,"station_id":"ce4bgpp2rcd13ifvqc3g","pricing_plan_id":"cebpf4jnsgd1na2vs0mg"},{"bike_id":"f6784df0-484c-4b35-8795-19718ea26357","system_id":"levelo_inurba_marseille","lat":43.30273,"lon":5.37711,"is_reserved":false,"is_disabled":false,"rental_uris":{"android":"levelo://app?vid=f6784df0-484c-4b35-8795-19718ea26357","ios":"levelo://app?vid=f6784df0-484c-4b35-8795-19718ea26357"},"vehicle_type_id":"4","last_reported":1729588176,"current_range_meters":17600,"station_id":"ce4bguh2rcd13ifvqcj0","pricing_plan_id":"cebpf4jnsgd1na2vs0mg"},{"bike_id":"85be2b0d-f057-41e6-a966-00113a5f9cdd","system_id":"levelo_inurba_marseille","lat":43.28929,"lon":5.38396,"is_reserved":false,"is_disabled":false,"rental_uris":{"android":"levelo://app?vid=85be2b0d-f057-41e6-a966-00113a5f9cdd","ios":"levelo://app?vid=85be2b0d-f057-41e6-a966-00113a5f9cdd"},"vehicle_type_id":"4","last_reported":1729588176,"current_range_meters":38400,"station_id":"ce4bh612rcd13ifvqe6g","pricing_plan_id":"cebpf4jnsgd1na2vs0mg"},{"bike_id":"8273f07f-4a55-425c-8610-6e9ec4f94b46","system_id":"levelo_inurba_marseille","lat":43.33023,"lon":5.39043,"is_reserved":false,"is_disabled":false,"rental_uris":{"android":"levelo://app?vid=8273f07f-4a55-425c-8610-6e9ec4f94b46","ios":"levelo://app?vid=8273f07f-4a55-425c-8610-6e9ec4f94b46"},"vehicle_type_id":"4","last_reported":1729588176,"current_range_meters":39200,"station_id":"ce4bhr92rcd13ifvqhrg","pricing_plan_id":"cebpf4jnsgd1na2vs0mg"},{"bike_id":"815dd284-1bd2-4bb9-992a-b2116e2485bc","system_id":"levelo_inurba_marseille","lat":43.32779,"lon":5.36153,"is_reserved":false,"is_disabled":false,"rental_uris":{"android":"levelo://app?vid=815dd284-1bd2-4bb9-992a-b2116e2485bc","ios":"levelo://app?vid=815dd284-1bd2-4bb9-992a-b2116e2485bc"},"vehicle_type_id":"4","last_reported":1729588176,"current_range_meters":34000,"station_id":"","pricing_plan_id":"cebpf4jnsgd1na2vs0mg"},{"bike_id":"67da58a1-29c1-4d60-a436-0562b34da27b","system_id":"levelo_inurba_marseille","lat":43.30459,"lon":5.37906,"is_reserved":false,"is_disabled":false,"rental_uris":{"android":"levelo://app?vid=67da58a1-29c1-4d60-a436-0562b34da27b","ios":"levelo://app?vid=67da58a1-29c1-4d60-a436-0562b34da27b"},"vehicle_type_id":"4","last_reported":1729588176,"current_range_meters":30400,"station_id":"ce4bgup2rcd13ifvqcn0","pricing_plan_id":"cebpf4jnsgd1na2vs0mg"},{"bike_id":"a6becff1-00d3-47fa-8898-3ba6d7221fbe","system_id":"levelo_inurba_marseille","lat":43.23194,"lon":5.3555,"is_reserved":false,"is_disabled":false,"rental_uris":{"android":"levelo://app?vid=a6becff1-00d3-47fa-8898-3ba6d7221fbe","ios":"levelo://app?vid=a6becff1-00d3-47fa-8898-3ba6d7221fbe"},"vehicle_type_id":"4","last_reported":1729588176,"current_range_meters":36800,"station_id":"ce4bhu92rcd13ifvqi70","pricing_plan_id":"cebpf4jnsgd1na2vs0mg"},{"bike_id":"2865aa37-cd36-4fb4-8235-6e81415a1fd9","system_id":"levelo_inurba_marseille","lat":43.30904,"lon":5.36853,"is_reserved":false,"is_disabled":false,"rental_uris":{"android":"levelo://app?vid=2865aa37-cd36-4fb4-8235-6e81415a1fd9","ios":"levelo://app?vid=2865aa37-cd36-4fb4-8235-6e81415a1fd9"},"vehicle_type_id":"4","last_reported":1729588176,"current_range_meters":38800,"station_id":"ce4bgn92rcd13ifvqbvg","pricing_plan_id":"cebpf4jnsgd1na2vs0mg"},{"bike_id":"7d540f79-b548-4745-ab9f-efc49c1e7bb6","system_id":"levelo_inurba_marseille","lat":43.30466,"lon":5.37915,"is_reserved":false,"is_disabled":false,"rental_uris":{"android":"levelo://app?vid=7d540f79-b548-4745-ab9f-efc49c1e7bb6","ios":"levelo://app?vid=7d540f79-b548-4745-ab9f-efc49c1e7bb6"},"vehicle_type_id":"4","last_reported":1729588176,"current_range_meters":16800,"station_id":"ce4bgup2rcd13ifvqcn0","pricing_plan_id":"cebpf4jnsgd1na2vs0mg"},{"bike_id":"dee0d09e-7eb5-4f6e-83a5-90719294f0fc","system_id":"levelo_inurba_marseille","lat":43.27065,"lon":5.40258,"is_reserved":false,"is_disabled":false,"rental_uris":{"android":"levelo://app?vid=dee0d09e-7eb5-4f6e-83a5-90719294f0fc","ios":"levelo://app?vid=dee0d09e-7eb5-4f6e-83a5-90719294f0fc"},"vehicle_type_id":"4","last_reported":1729588176,"current_range_meters":38400,"station_id":"ce4bhk92rcd13ifvqgc0","pricing_plan_id":"cebpf4jnsgd1na2vs0mg"},{"bike_id":"2c1fae55-921d-4a72-86b0-19b559b438c8","system_id":"levelo_inurba_marseille","lat":43.31716,"lon":5.42403,"is_reserved":false,"is_disabled":false,"rental_uris":{"android":"levelo://app?vid=2c1fae55-921d-4a72-86b0-19b559b438c8","ios":"levelo://app?vid=2c1fae55-921d-4a72-86b0-19b559b438c8"},"vehicle_type_id":"4","last_reported":1729588176,"current_range_meters":38800,"station_id":"ce4bhp92rcd13ifvqhbg","pricing_plan_id":"cebpf4jnsgd1na2vs0mg"},{"bike_id":"5a67c892-a602-4b40-977c-c1acd665d17e","system_id":"levelo_inurba_marseille","lat":43.25936,"lon":5.40913,"is_reserved":false,"is_disabled":false,"rental_uris":{"android":"levelo://app?vid=5a67c892-a602-4b40-977c-c1acd665d17e","ios":"levelo://app?vid=5a67c892-a602-4b40-977c-c1acd665d17e"},"vehicle_type_id":"4","last_reported":1729588176,"current_range_meters":23200,"station_id":"ce4bhm92rcd13ifvqglg","pricing_plan_id":"cebpf4jnsgd1na2vs0mg"},{"bike_id":"1f52981c-7bb8-4af1-af37-b4a098cafcb2","system_id":"levelo_inurba_marseille","lat":43.28146,"lon":5.42652,"is_reserved":false,"is_disabled":false,"rental_uris":{"android":"levelo://app?vid=1f52981c-7bb8-4af1-af37-b4a098cafcb2","ios":"levelo://app?vid=1f52981c-7bb8-4af1-af37-b4a098cafcb2"},"vehicle_type_id":"4","last_reported":1729588176,"current_range_meters":28800,"station_id":"ce4bhnh2rcd13ifvqgug","pricing_plan_id":"cebpf4jnsgd1na2vs0mg"},{"bike_id":"b4ea3ac6-cd02-4bb9-9a3e-3da2fb436056","system_id":"levelo_inurba_marseille","lat":43.30835,"lon":5.38184,"is_reserved":false,"is_disabled":false,"rental_uris":{"android":"levelo://app?vid=b4ea3ac6-cd02-4bb9-9a3e-3da2fb436056","ios":"levelo://app?vid=b4ea3ac6-cd02-4bb9-9a3e-3da2fb436056"},"vehicle_type_id":"4","last_reported":1729588176,"current_range_meters":25200,"station_id":"ce4bgt12rcd13ifvqce0","pricing_plan_id":"cebpf4jnsgd1na2vs0mg"},{"bike_id":"bf8d0617-6bef-47ca-8c84-936cfebcc97c","system_id":"levelo_inurba_marseille","lat":43.32112,"lon":5.36771,"is_reserved":false,"is_disabled":false,"rental_uris":{"android":"levelo://app?vid=bf8d0617-6bef-47ca-8c84-936cfebcc97c","ios":"levelo://app?vid=bf8d0617-6bef-47ca-8c84-936cfebcc97c"},"vehicle_type_id":"4","last_reported":1729588176,"current_range_meters":17200,"station_id":"ce4bhrh2rcd13ifvqhug","pricing_plan_id":"cebpf4jnsgd1na2vs0mg"},{"bike_id":"247afc55-df79-4e12-90a8-3bdfdc590887","system_id":"levelo_inurba_marseille","lat":43.298393,"lon":5.362644,"is_reserved":false,"is_disabled":false,"rental_uris":{"android":"levelo://app?vid=247afc55-df79-4e12-90a8-3bdfdc590887","ios":"levelo://app?vid=247afc55-df79-4e12-90a8-3bdfdc590887"},"vehicle_type_id":"4","last_reported":1729588176,"current_range_meters":40000,"station_id":"ce4bgpp2rcd13ifvqc3g","pricing_plan_id":"cebpf4jnsgd1na2vs0mg"},{"bike_id":"a7ab196a-37b3-48ba-975d-c22f2e206d68","system_id":"levelo_inurba_marseille","lat":43.27049,"lon":5.4026,"is_reserved":false,"is_disabled":false,"rental_uris":{"android":"levelo://app?vid=a7ab196a-37b3-48ba-975d-c22f2e206d68","ios":"levelo://app?vid=a7ab196a-37b3-48ba-975d-c22f2e206d68"},"vehicle_type_id":"4","last_reported":1729588176,"current_range_meters":37600,"station_id":"ce4bhk92rcd13ifvqgc0","pricing_plan_id":"cebpf4jnsgd1na2vs0mg"},{"bike_id":"7e3cb010-b5b3-478f-8b4d-4185ab46a9f4","system_id":"levelo_inurba_marseille","lat":43.3133,"lon":5.3672,"is_reserved":false,"is_disabled":false,"rental_uris":{"android":"levelo://app?vid=7e3cb010-b5b3-478f-8b4d-4185ab46a9f4","ios":"levelo://app?vid=7e3cb010-b5b3-478f-8b4d-4185ab46a9f4"},"vehicle_type_id":"4","last_reported":1729588176,"current_range_meters":35200,"station_id":"ce4bgr92rcd13ifvqc6g","pricing_plan_id":"cebpf4jnsgd1na2vs0mg"},{"bike_id":"6306bed3-0d2b-49da-95c5-973170dba4a6","system_id":"levelo_inurba_marseille","lat":43.23148,"lon":5.43718,"is_reserved":false,"is_disabled":false,"rental_uris":{"android":"levelo://app?vid=6306bed3-0d2b-49da-95c5-973170dba4a6","ios":"levelo://app?vid=6306bed3-0d2b-49da-95c5-973170dba4a6"},"vehicle_type_id":"4","last_reported":1729588176,"current_range_meters":34000,"station_id":"ce4bhmp2rcd13ifvqgog","pricing_plan_id":"cebpf4jnsgd1na2vs0mg"},{"bike_id":"c4c7a5ca-917d-444d-80f8-b888f63254a3","system_id":"levelo_inurba_marseille","lat":43.304626,"lon":5.379115,"is_reserved":false,"is_disabled":false,"rental_uris":{"android":"levelo://app?vid=c4c7a5ca-917d-444d-80f8-b888f63254a3","ios":"levelo://app?vid=c4c7a5ca-917d-444d-80f8-b888f63254a3"},"vehicle_type_id":"4","last_reported":1729588176,"current_range_meters":25200,"station_id":"ce4bgup2rcd13ifvqcn0","pricing_plan_id":"cebpf4jnsgd1na2vs0mg"},{"bike_id":"a908360e-1a0d-4aea-acae-d4234f5c8ab7","system_id":"levelo_inurba_marseille","lat":43.30475,"lon":5.37913,"is_reserved":false,"is_disabled":false,"rental_uris":{"android":"levelo://app?vid=a908360e-1a0d-4aea-acae-d4234f5c8ab7","ios":"levelo://app?vid=a908360e-1a0d-4aea-acae-d4234f5c8ab7"},"vehicle_type_id":"4","last_reported":1729588176,"current_range_meters":18000,"station_id":"ce4bgup2rcd13ifvqcn0","pricing_plan_id":"cebpf4jnsgd1na2vs0mg"},{"bike_id":"ee458820-4b5f-4880-a810-7e29f4e09d82","system_id":"levelo_inurba_marseille","lat":43.31358,"lon":5.36716,"is_reserved":false,"is_disabled":false,"rental_uris":{"android":"levelo://app?vid=ee458820-4b5f-4880-a810-7e29f4e09d82","ios":"levelo://app?vid=ee458820-4b5f-4880-a810-7e29f4e09d82"},"vehicle_type_id":"4","last_reported":1729588176,"current_range_meters":12800,"station_id":"ce4bgr92rcd13ifvqc6g","pricing_plan_id":"cebpf4jnsgd1na2vs0mg"},{"bike_id":"564679bc-3036-4e84-be3b-bc8a8ca807a7","system_id":"levelo_inurba_marseille","lat":43.3134,"lon":5.36704,"is_reserved":false,"is_disabled":false,"rental_uris":{"android":"levelo://app?vid=564679bc-3036-4e84-be3b-bc8a8ca807a7","ios":"levelo://app?vid=564679bc-3036-4e84-be3b-bc8a8ca807a7"},"vehicle_type_id":"4","last_reported":1729588176,"current_range_meters":25600,"station_id":"ce4bgr92rcd13ifvqc6g","pricing_plan_id":"cebpf4jnsgd1na2vs0mg"},{"bike_id":"9b2eea5a-3cff-40ce-ae1c-16e410ab238a","system_id":"levelo_inurba_marseille","lat":43.27068,"lon":5.42281,"is_reserved":false,"is_disabled":false,"rental_uris":{"android":"levelo://app?vid=9b2eea5a-3cff-40ce-ae1c-16e410ab238a","ios":"levelo://app?vid=9b2eea5a-3cff-40ce-ae1c-16e410ab238a"},"vehicle_type_id":"4","last_reported":1729588176,"current_range_meters":39200,"station_id":"ce4bhk92rcd13ifvqgb0","pricing_plan_id":"cebpf4jnsgd1na2vs0mg"},{"bike_id":"ae3fcb04-be9a-4eda-86cc-c69683243e47","system_id":"levelo_inurba_marseille","lat":43.23957,"lon":5.36635,"is_reserved":false,"is_disabled":false,"rental_uris":{"android":"levelo://app?vid=ae3fcb04-be9a-4eda-86cc-c69683243e47","ios":"levelo://app?vid=ae3fcb04-be9a-4eda-86cc-c69683243e47"},"vehicle_type_id":"4","last_reported":1729588176,"current_range_meters":38400,"station_id":"ce4bhi12rcd13ifvqfp0","pricing_plan_id":"cebpf4jnsgd1na2vs0mg"},{"bike_id":"1ba4d59d-0e05-4872-93e6-ae215330ba80","system_id":"levelo_inurba_marseille","lat":43.24174,"lon":5.39718,"is_reserved":false,"is_disabled":false,"rental_uris":{"android":"levelo://app?vid=1ba4d59d-0e05-4872-93e6-ae215330ba80","ios":"levelo://app?vid=1ba4d59d-0e05-4872-93e6-ae215330ba80"},"vehicle_type_id":"4","last_reported":1729588176,"current_range_meters":10000,"station_id":"ce4bhn12rcd13ifvqgpg","pricing_plan_id":"cebpf4jnsgd1na2vs0mg"},{"bike_id":"baadd4f5-a2ae-4b4b-8ef7-3f0a2376bff0","system_id":"levelo_inurba_marseille","lat":43.31701,"lon":5.40461,"is_reserved":false,"is_disabled":false,"rental_uris":{"android":"levelo://app?vid=baadd4f5-a2ae-4b4b-8ef7-3f0a2376bff0","ios":"levelo://app?vid=baadd4f5-a2ae-4b4b-8ef7-3f0a2376bff0"},"vehicle_type_id":"4","last_reported":1729588176,"current_range_meters":25600,"station_id":"ce4bh012rcd13ifvqd00","pricing_plan_id":"cebpf4jnsgd1na2vs0mg"},{"bike_id":"b8b55413-7dab-47bd-af63-9762535f48b6","system_id":"levelo_inurba_marseille","lat":43.3089,"lon":5.36853,"is_reserved":false,"is_disabled":false,"rental_uris":{"android":"levelo://app?vid=b8b55413-7dab-47bd-af63-9762535f48b6","ios":"levelo://app?vid=b8b55413-7dab-47bd-af63-9762535f48b6"},"vehicle_type_id":"4","last_reported":1729588176,"current_range_meters":40000,"station_id":"ce4bgn92rcd13ifvqbvg","pricing_plan_id":"cebpf4jnsgd1na2vs0mg"},{"bike_id":"47dd2982-f62e-4a8b-81ff-eecc0bea71d7","system_id":"levelo_inurba_marseille","lat":43.33021,"lon":5.39031,"is_reserved":false,"is_disabled":false,"rental_uris":{"android":"levelo://app?vid=47dd2982-f62e-4a8b-81ff-eecc0bea71d7","ios":"levelo://app?vid=47dd2982-f62e-4a8b-81ff-eecc0bea71d7"},"vehicle_type_id":"4","last_reported":1729588176,"current_range_meters":36400,"station_id":"ce4bhr92rcd13ifvqhrg","pricing_plan_id":"cebpf4jnsgd1na2vs0mg"},{"bike_id":"fb43f3e2-dcad-4e9f-b94f-06e5fb738c12","system_id":"levelo_inurba_marseille","lat":43.24996,"lon":5.38935,"is_reserved":false,"is_disabled":false,"rental_uris":{"android":"levelo://app?vid=fb43f3e2-dcad-4e9f-b94f-06e5fb738c12","ios":"levelo://app?vid=fb43f3e2-dcad-4e9f-b94f-06e5fb738c12"},"vehicle_type_id":"4","last_reported":1729588176,"current_range_meters":6400,"station_id":"ce4bhgp2rcd13ifvqfd0","pricing_plan_id":"cebpf4jnsgd1na2vs0mg"},{"bike_id":"401dd84b-7074-4ce1-8655-3ed201b2eec9","system_id":"levelo_inurba_marseille","lat":43.30545,"lon":5.36539,"is_reserved":false,"is_disabled":false,"rental_uris":{"android":"levelo://app?vid=401dd84b-7074-4ce1-8655-3ed201b2eec9","ios":"levelo://app?vid=401dd84b-7074-4ce1-8655-3ed201b2eec9"},"vehicle_type_id":"4","last_reported":1729588176,"current_range_meters":33600,"station_id":"ce4bgs12rcd13ifvqcag","pricing_plan_id":"cebpf4jnsgd1na2vs0mg"},{"bike_id":"c5857893-442c-48c0-8e95-134a1c912329","system_id":"levelo_inurba_marseille","lat":43.28155,"lon":5.42643,"is_reserved":false,"is_disabled":false,"rental_uris":{"android":"levelo://app?vid=c5857893-442c-48c0-8e95-134a1c912329","ios":"levelo://app?vid=c5857893-442c-48c0-8e95-134a1c912329"},"vehicle_type_id":"4","last_reported":1729588176,"current_range_meters":30800,"station_id":"ce4bhnh2rcd13ifvqgug","pricing_plan_id":"cebpf4jnsgd1na2vs0mg"},{"bike_id":"33aebf2e-693e-4bec-aa86-cd51abf77276","system_id":"levelo_inurba_marseille","lat":43.28029,"lon":5.36951,"is_reserved":false,"is_disabled":false,"rental_uris":{"android":"levelo://app?vid=33aebf2e-693e-4bec-aa86-cd51abf77276","ios":"levelo://app?vid=33aebf2e-693e-4bec-aa86-cd51abf77276"},"vehicle_type_id":"4","last_reported":1729588176,"current_range_meters":38800,"station_id":"ce4bha12rcd13ifvqef0","pricing_plan_id":"cebpf4jnsgd1na2vs0mg"},{"bike_id":"58893085-5024-49b2-9926-e68fd9d15630","system_id":"levelo_inurba_marseille","lat":43.2594,"lon":5.409,"is_reserved":false,"is_disabled":false,"rental_uris":{"android":"levelo://app?vid=58893085-5024-49b2-9926-e68fd9d15630","ios":"levelo://app?vid=58893085-5024-49b2-9926-e68fd9d15630"},"vehicle_type_id":"4","last_reported":1729588176,"current_range_meters":36400,"station_id":"ce4bhm92rcd13ifvqglg","pricing_plan_id":"cebpf4jnsgd1na2vs0mg"},{"bike_id":"ed73d99e-9629-4238-a3de-0f260c9ae761","system_id":"levelo_inurba_marseille","lat":43.24177,"lon":5.39732,"is_reserved":false,"is_disabled":false,"rental_uris":{"android":"levelo://app?vid=ed73d99e-9629-4238-a3de-0f260c9ae761","ios":"levelo://app?vid=ed73d99e-9629-4238-a3de-0f260c9ae761"},"vehicle_type_id":"4","last_reported":1729588176,"current_range_meters":40000,"station_id":"ce4bhn12rcd13ifvqgpg","pricing_plan_id":"cebpf4jnsgd1na2vs0mg"},{"bike_id":"f9275779-8159-45c8-9d6f-75cf25195292","system_id":"levelo_inurba_marseille","lat":43.29845,"lon":5.36262,"is_reserved":false,"is_disabled":false,"rental_uris":{"android":"levelo://app?vid=f9275779-8159-45c8-9d6f-75cf25195292","ios":"levelo://app?vid=f9275779-8159-45c8-9d6f-75cf25195292"},"vehicle_type_id":"4","last_reported":1729588176,"current_range_meters":39200,"station_id":"ce4bgpp2rcd13ifvqc3g","pricing_plan_id":"cebpf4jnsgd1na2vs0mg"},{"bike_id":"b41a1263-89a6-4893-b515-4861ff98581a","system_id":"levelo_inurba_marseille","lat":43.29804,"lon":5.38093,"is_reserved":false,"is_disabled":false,"rental_uris":{"android":"levelo://app?vid=b41a1263-89a6-4893-b515-4861ff98581a","ios":"levelo://app?vid=b41a1263-89a6-4893-b515-4861ff98581a"},"vehicle_type_id":"4","last_reported":1729588176,"current_range_meters":27600,"station_id":"ce4bgip2rcd13ifvqbb0","pricing_plan_id":"cebpf4jnsgd1na2vs0mg"},{"bike_id":"b4789163-6828-4a10-a9ee-82c4d843f33d","system_id":"levelo_inurba_marseille","lat":43.28145,"lon":5.42637,"is_reserved":false,"is_disabled":false,"rental_uris":{"android":"levelo://app?vid=b4789163-6828-4a10-a9ee-82c4d843f33d","ios":"levelo://app?vid=b4789163-6828-4a10-a9ee-82c4d843f33d"},"vehicle_type_id":"4","last_reported":1729588176,"current_range_meters":39200,"station_id":"ce4bhnh2rcd13ifvqgug","pricing_plan_id":"cebpf4jnsgd1na2vs0mg"},{"bike_id":"b6514299-eec4-4895-89f1-d6a2c5bf4d8f","system_id":"levelo_inurba_marseille","lat":43.22923,"lon":5.35375,"is_reserved":false,"is_disabled":false,"rental_uris":{"android":"levelo://app?vid=b6514299-eec4-4895-89f1-d6a2c5bf4d8f","ios":"levelo://app?vid=b6514299-eec4-4895-89f1-d6a2c5bf4d8f"},"vehicle_type_id":"4","last_reported":1729588176,"current_range_meters":4800,"station_id":"cpo3532slgdg3j2ikp40","pricing_plan_id":"cebpf4jnsgd1na2vs0mg"},{"bike_id":"94bf876f-db2f-4206-8944-c80cfa3e0c54","system_id":"levelo_inurba_marseille","lat":43.25714,"lon":5.41118,"is_reserved":false,"is_disabled":false,"rental_uris":{"android":"levelo://app?vid=94bf876f-db2f-4206-8944-c80cfa3e0c54","ios":"levelo://app?vid=94bf876f-db2f-4206-8944-c80cfa3e0c54"},"vehicle_type_id":"4","last_reported":1729588176,"current_range_meters":38800,"station_id":"ce4bhkp2rcd13ifvqgd0","pricing_plan_id":"cebpf4jnsgd1na2vs0mg"},{"bike_id":"1f6b71b9-691a-4b1e-9e9e-cf452f804798","system_id":"levelo_inurba_marseille","lat":43.28614,"lon":5.35101,"is_reserved":false,"is_disabled":false,"rental_uris":{"android":"levelo://app?vid=1f6b71b9-691a-4b1e-9e9e-cf452f804798","ios":"levelo://app?vid=1f6b71b9-691a-4b1e-9e9e-cf452f804798"},"vehicle_type_id":"4","last_reported":1729588176,"current_range_meters":22400,"station_id":"ce4bhch2rcd13ifvqeug","pricing_plan_id":"cebpf4jnsgd1na2vs0mg"},{"bike_id":"50e963e0-105c-4264-a3f1-8e1f4496432c","system_id":"levelo_inurba_marseille","lat":43.26684,"lon":5.38268,"is_reserved":false,"is_disabled":false,"rental_uris":{"android":"levelo://app?vid=50e963e0-105c-4264-a3f1-8e1f4496432c","ios":"levelo://app?vid=50e963e0-105c-4264-a3f1-8e1f4496432c"},"vehicle_type_id":"4","last_reported":1729588176,"current_range_meters":40000,"station_id":"ce4bhg92rcd13ifvqf90","pricing_plan_id":"cebpf4jnsgd1na2vs0mg"},{"bike_id":"81e4488d-b9df-4764-b508-9fca2a6674ff","system_id":"levelo_inurba_marseille","lat":43.23191,"lon":5.3555,"is_reserved":false,"is_disabled":false,"rental_uris":{"android":"levelo://app?vid=81e4488d-b9df-4764-b508-9fca2a6674ff","ios":"levelo://app?vid=81e4488d-b9df-4764-b508-9fca2a6674ff"},"vehicle_type_id":"4","last_reported":1729588176,"current_range_meters":38000,"station_id":"ce4bhu92rcd13ifvqi70","pricing_plan_id":"cebpf4jnsgd1na2vs0mg"},{"bike_id":"44550e6e-2644-4242-b698-239c03743e5c","system_id":"levelo_inurba_marseille","lat":43.23153,"lon":5.43704,"is_reserved":false,"is_disabled":false,"rental_uris":{"android":"levelo://app?vid=44550e6e-2644-4242-b698-239c03743e5c","ios":"levelo://app?vid=44550e6e-2644-4242-b698-239c03743e5c"},"vehicle_type_id":"4","last_reported":1729588176,"current_range_meters":20000,"station_id":"ce4bhmp2rcd13ifvqgog","pricing_plan_id":"cebpf4jnsgd1na2vs0mg"},{"bike_id":"23e6ca2f-6508-428f-91df-505ca4e33c4f","system_id":"levelo_inurba_marseille","lat":43.33606,"lon":5.41024,"is_reserved":false,"is_disabled":false,"rental_uris":{"android":"levelo://app?vid=23e6ca2f-6508-428f-91df-505ca4e33c4f","ios":"levelo://app?vid=23e6ca2f-6508-428f-91df-505ca4e33c4f"},"vehicle_type_id":"4","last_reported":1729588176,"current_range_meters":24400,"station_id":"ce4bhqh2rcd13ifvqhmg","pricing_plan_id":"cebpf4jnsgd1na2vs0mg"},{"bike_id":"cc7ba531-eadc-4a76-b88a-eac33527a1c8","system_id":"levelo_inurba_marseille","lat":43.31895,"lon":5.40742,"is_reserved":false,"is_disabled":false,"rental_uris":{"android":"levelo://app?vid=cc7ba531-eadc-4a76-b88a-eac33527a1c8","ios":"levelo://app?vid=cc7ba531-eadc-4a76-b88a-eac33527a1c8"},"vehicle_type_id":"4","last_reported":1729588176,"current_range_meters":10800,"station_id":"ce4bhq12rcd13ifvqhig","pricing_plan_id":"cebpf4jnsgd1na2vs0mg"},{"bike_id":"41f146b8-1dba-4586-8725-ff2b6bb602ee","system_id":"levelo_inurba_marseille","lat":43.25093,"lon":5.39521,"is_reserved":false,"is_disabled":false,"rental_uris":{"android":"levelo://app?vid=41f146b8-1dba-4586-8725-ff2b6bb602ee","ios":"levelo://app?vid=41f146b8-1dba-4586-8725-ff2b6bb602ee"},"vehicle_type_id":"4","last_reported":1729588176,"current_range_meters":19600,"station_id":"ce4bhm12rcd13ifvqgkg","pricing_plan_id":"cebpf4jnsgd1na2vs0mg"},{"bike_id":"f03f25e2-636f-4d9f-9bc3-0951cdf8abe3","system_id":"levelo_inurba_marseille","lat":43.27067,"lon":5.42268,"is_reserved":false,"is_disabled":false,"rental_uris":{"android":"levelo://app?vid=f03f25e2-636f-4d9f-9bc3-0951cdf8abe3","ios":"levelo://app?vid=f03f25e2-636f-4d9f-9bc3-0951cdf8abe3"},"vehicle_type_id":"4","last_reported":1729588176,"current_range_meters":38800,"station_id":"ce4bhk92rcd13ifvqgb0","pricing_plan_id":"cebpf4jnsgd1na2vs0mg"},{"bike_id":"49af061c-ba9a-493d-82a6-c3d2564e5efa","system_id":"levelo_inurba_marseille","lat":43.26927,"lon":5.38913,"is_reserved":false,"is_disabled":false,"rental_uris":{"android":"levelo://app?vid=49af061c-ba9a-493d-82a6-c3d2564e5efa","ios":"levelo://app?vid=49af061c-ba9a-493d-82a6-c3d2564e5efa"},"vehicle_type_id":"4","last_reported":1729588176,"current_range_meters":8000,"station_id":"ce4bhhh2rcd13ifvqfl0","pricing_plan_id":"cebpf4jnsgd1na2vs0mg"},{"bike_id":"a9002a5d-a535-42b5-88b4-26d81fd5238e","system_id":"levelo_inurba_marseille","lat":43.32337,"lon":5.40615,"is_reserved":false,"is_disabled":false,"rental_uris":{"android":"levelo://app?vid=a9002a5d-a535-42b5-88b4-26d81fd5238e","ios":"levelo://app?vid=a9002a5d-a535-42b5-88b4-26d81fd5238e"},"vehicle_type_id":"4","last_reported":1729588176,"current_range_meters":21600,"station_id":"ce4bhq92rcd13ifvqhjg","pricing_plan_id":"cebpf4jnsgd1na2vs0mg"},{"bike_id":"aeca085a-a90b-48b3-9337-0a56131cd37c","system_id":"levelo_inurba_marseille","lat":43.31994,"lon":5.38153,"is_reserved":false,"is_disabled":false,"rental_uris":{"android":"levelo://app?vid=aeca085a-a90b-48b3-9337-0a56131cd37c","ios":"levelo://app?vid=aeca085a-a90b-48b3-9337-0a56131cd37c"},"vehicle_type_id":"4","last_reported":1729588176,"current_range_meters":34000,"station_id":"ce4bhr12rcd13ifvqhpg","pricing_plan_id":"cebpf4jnsgd1na2vs0mg"},{"bike_id":"9c858450-cc22-418c-8ec7-c4f727f89f6e","system_id":"levelo_inurba_marseille","lat":43.3046,"lon":5.37908,"is_reserved":false,"is_disabled":false,"rental_uris":{"android":"levelo://app?vid=9c858450-cc22-418c-8ec7-c4f727f89f6e","ios":"levelo://app?vid=9c858450-cc22-418c-8ec7-c4f727f89f6e"},"vehicle_type_id":"4","last_reported":1729588176,"current_range_meters":11600,"station_id":"ce4bgup2rcd13ifvqcn0","pricing_plan_id":"cebpf4jnsgd1na2vs0mg"},{"bike_id":"087a7bf8-4bdf-408b-a60c-b4b0ac6d7a5a","system_id":"levelo_inurba_marseille","lat":43.32481,"lon":5.36564,"is_reserved":false,"is_disabled":false,"rental_uris":{"android":"levelo://app?vid=087a7bf8-4bdf-408b-a60c-b4b0ac6d7a5a","ios":"levelo://app?vid=087a7bf8-4bdf-408b-a60c-b4b0ac6d7a5a"},"vehicle_type_id":"4","last_reported":1729588176,"current_range_meters":40000,"station_id":"ce4bhs12rcd13ifvqhvg","pricing_plan_id":"cebpf4jnsgd1na2vs0mg"},