{"last_updated":1726301489,"ttl":30,"version":"2.2","data":{"bikes":[{"bike_id":"bc35aeaa-3e4d-43e6-9935-c8f1110a4b4c","system_id":"levelo_inurba_marseille","lat":43.30506,"lon":5.36713,"is_reserved":false,"is_disabled":false,"rental_uris":{"android":"levelo://app?vid=bc35aeaa-3e4d-43e6-9935-c8f1110a4b4c","ios":"levelo://app?vid=bc35aeaa-3e4d-43e6-9935-c8f1110a4b4c"},"vehicle_type_id":"4","last_reported":1726301490,"current_range_meters":33600,"station_id":"ce4bgrp2rcd13ifvqc9g","pricing_plan_id":"cebpf4jnsgd1na2vs0mg"},{"bike_id":"eb87fb95-d7e8-4523-9c3a-8580e30ec6d8","system_id":"levelo_inurba_marseille","lat":43.24419,"lon":5.37045,"is_reserved":false,"is_disabled":false,"rental_uris":{"android":"levelo://app?vid=eb87fb95-d7e8-4523-9c3a-8580e30ec6d8","ios":"levelo://app?vid=eb87fb95-d7e8-4523-9c3a-8580e30ec6d8"},"vehicle_type_id":"4","last_reported":1726301490,"current_range_meters":38000,"station_id":"ce4bhhh2rcd13ifvqfk0","pricing_plan_id":"cebpf4jnsgd1na2vs0mg"},{"bike_id":"436cf2d0-47d5-45b8-b9e9-e05936c9b5ce","system_id":"levelo_inurba_marseille","lat":43.30546,"lon":5.36549,"is_reserved":false,"is_disabled":false,"rental_uris":{"android":"levelo://app?vid=436cf2d0-47d5-45b8-b9e9-e05936c9b5ce","ios":"levelo://app?vid=436cf2d0-47d5-45b8-b9e9-e05936c9b5ce"},"vehicle_type_id":"4","last_reported":1726301490,"current_range_meters":39200,"station_id":"ce4bgs12rcd13ifvqcag","pricing_plan_id":"cebpf4jnsgd1na2vs0mg"},{"bike_id":"1433cc86-19c5-4d38-a0b5-c5c087739e0a","system_id":"levelo_inurba_marseille","lat":43.22928,"lon":5.3538,"is_reserved":false,"is_disabled":false,"rental_uris":{"android":"levelo://app?vid=1433cc86-19c5-4d38-a0b5-c5c087739e0a","ios":"levelo://app?vid=1433cc86-19c5-4d38-a0b5-c5c087739e0a"},"vehicle_type_id":"4","last_reported":1726301490,"current_range_meters":27200,"station_id":"cpo3532slgdg3j2ikp40","pricing_plan_id":"cebpf4jnsgd1na2vs0mg"},{"bike_id":"67468702-002a-4df5-9012-9c567f0d2e31","system_id":"levelo_inurba_marseille","lat":43.31791,"lon":5.39033,"is_reserved":false,"is_disabled":false,"rental_uris":{"android":"levelo://app?vid=67468702-002a-4df5-9012-9c567f0d2e31","ios":"levelo://app?vid=67468702-002a-4df5-9012-9c567f0d2e31"},"vehicle_type_id":"4","last_reported":1726301490,"current_range_meters":33200,"station_id":"ce4bhqp2rcd13ifvqhng","pricing_plan_id":"cebpf4jnsgd1na2vs0mg"},{"bike_id":"7d530636-364a-43f8-9490-b00b19c4b497","system_id":"levelo_inurba_marseille","lat":43.28452,"lon":5.39188,"is_reserved":false,"is_disabled":false,"rental_uris":{"android":"levelo://app?vid=7d530636-364a-43f8-9490-b00b19c4b497","ios":"levelo://app?vid=7d530636-364a-43f8-9490-b00b19c4b497"},"vehicle_type_id":"4","last_reported":1726301490,"current_range_meters":16000,"station_id":"ce4bhoh2rcd13ifvqh5g","pricing_plan_id":"cebpf4jnsgd1na2vs0mg"},{"bike_id":"b369bb80-131c-44ac-a671-8775f1bd4768","system_id":"levelo_inurba_marseille","lat":43.30466,"lon":5.3789,"is_reserved":false,"is_disabled":false,"rental_uris":{"android":"levelo://app?vid=b369bb80-131c-44ac-a671-8775f1bd4768","ios":"levelo://app?vid=b369bb80-131c-44ac-a671-8775f1bd4768"},"vehicle_type_id":"4","last_reported":1726301490,"current_range_meters":27200,"station_id":"ce4bgup2rcd13ifvqcn0","pricing_plan_id":"cebpf4jnsgd1na2vs0mg"},{"bike_id":"083984dd-1abd-4a7d-84c6-e8ceb7b63abe","system_id":"levelo_inurba_marseille","lat":43.31094,"lon":5.37765,"is_reserved":false,"is_disabled":false,"rental_uris":{"android":"levelo://app?vid=083984dd-1abd-4a7d-84c6-e8ceb7b63abe","ios":"levelo://app?vid=083984dd-1abd-4a7d-84c6-e8ceb7b63abe"},"vehicle_type_id":"4","last_reported":1726301490,"current_range_meters":37600,"station_id":"ce4bgt92rcd13ifvqcg0","pricing_plan_id":"cebpf4jnsgd1na2vs0mg"},{"bike_id":"312c32aa-7767-4e9c-bdb0-d63bd304be96","system_id":"levelo_inurba_marseille","lat":43.30541,"lon":5.36525,"is_reserved":false,"is_disabled":false,"rental_uris":{"android":"levelo://app?vid=312c32aa-7767-4e9c-bdb0-d63bd304be96","ios":"levelo://app?vid=312c32aa-7767-4e9c-bdb0-d63bd304be96"},"vehicle_type_id":"4","last_reported":1726301490,"current_range_meters":10000,"station_id":"ce4bgs12rcd13ifvqcag","pricing_plan_id":"cebpf4jnsgd1na2vs0mg"},{"bike_id":"b467d4d6-61ec-40b6-b518-27ec14b398db","system_id":"levelo_inurba_marseille","lat":43.291168,"lon":5.382564,"is_reserved":false,"is_disabled":false,"rental_uris":{"android":"levelo://app?vid=b467d4d6-61ec-40b6-b518-27ec14b398db","ios":"levelo://app?vid=b467d4d6-61ec-40b6-b518-27ec14b398db"},"vehicle_type_id":"4","last_reported":1726301490,"current_range_meters":36400,"station_id":"ce4bh512rcd13ifvqe2g","pricing_plan_id":"cebpf4jnsgd1na2vs0mg"},{"bike_id":"f2aab370-6e0a-414f-a9aa-b82870be9ba4","system_id":"levelo_inurba_marseille","lat":43.28609,"lon":5.35099,"is_reserved":false,"is_disabled":false,"rental_uris":{"android":"levelo://app?vid=f2aab370-6e0a-414f-a9aa-b82870be9ba4","ios":"levelo://app?vid=f2aab370-6e0a-414f-a9aa-b82870be9ba4"},"vehicle_type_id":"4","last_reported":1726301490,"current_range_meters":17200,"station_id":"ce4bhch2rcd13ifvqeug","pricing_plan_id":"cebpf4jnsgd1na2vs0mg"},{"bike_id":"6166a61b-1bba-4734-8af6-77dc5dabf546","system_id":"levelo_inurba_marseille","lat":43.31998,"lon":5.3815,"is_reserved":false,"is_disabled":false,"rental_uris":{"android":"levelo://app?vid=6166a61b-1bba-4734-8af6-77dc5dabf546","ios":"levelo://app?vid=6166a61b-1bba-4734-8af6-77dc5dabf546"},"vehicle_type_id":"4","last_reported":1726301490,"current_range_meters":36800,"station_id":"ce4bhr12rcd13ifvqhpg","pricing_plan_id":"cebpf4jnsgd1na2vs0mg"},{"bike_id":"9769237a-f4e8-4a9f-93a0-e8512c7ffb1d","system_id":"levelo_inurba_marseille","lat":43.33607,"lon":5.41024,"is_reserved":false,"is_disabled":false,"rental_uris":{"android":"levelo://app?vid=9769237a-f4e8-4a9f-93a0-e8512c7ffb1d","ios":"levelo://app?vid=9769237a-f4e8-4a9f-93a0-e8512c7ffb1d"},"vehicle_type_id":"4","last_reported":1726301490,"current_range_meters":38800,"station_id":"ce4bhqh2rcd13ifvqhmg","pricing_plan_id":"cebpf4jnsgd1na2vs0mg"},{"bike_id":"d362d51d-5366-4644-a1ab-ebb7c7522b7d","system_id":"levelo_inurba_marseille","lat":43.2583,"lon":5.39419,"is_reserved":false,"is_disabled":false,"rental_uris":{"android":"levelo://app?vid=d362d51d-5366-4644-a1ab-ebb7c7522b7d","ios":"levelo://app?vid=d362d51d-5366-4644-a1ab-ebb7c7522b7d"},"vehicle_type_id":"4","last_reported":1726301490,"current_range_meters":6000,"station_id":"ce4bhip2rcd13ifvqft0","pricing_plan_id":"cebpf4jnsgd1na2vs0mg"},{"bike_id":"f9c7e80b-647e-4c27-99d1-63575c053d4b","system_id":"levelo_inurba_marseille","lat":43.29631,"lon":5.40608,"is_reserved":false,"is_disabled":false,"rental_uris":{"android":"levelo://app?vid=f9c7e80b-647e-4c27-99d1-63575c053d4b","ios":"levelo://app?vid=f9c7e80b-647e-4c27-99d1-63575c053d4b"},"vehicle_type_id":"4","last_reported":1726301490,"current_range_meters":6400,"station_id":"ce4bh0h2rcd13ifvqd60","pricing_plan_id":"cebpf4jnsgd1na2vs0mg"},{"bike_id":"61243aa4-690d-48f7-bcd0-569922f18355","system_id":"levelo_inurba_marseille","lat":43.29223,"lon":5.36065,"is_reserved":false,"is_disabled":false,"rental_uris":{"android":"levelo://app?vid=61243aa4-690d-48f7-bcd0-569922f18355","ios":"levelo://app?vid=61243aa4-690d-48f7-bcd0-569922f18355"},"vehicle_type_id":"4","last_reported":1726301490,"current_range_meters":25600,"station_id":"ce4bhbh2rcd13ifvqeqg","pricing_plan_id":"cebpf4jnsgd1na2vs0mg"},{"bike_id":"57078c0b-9beb-4ca6-9619-12066e4ed91f","system_id":"levelo_inurba_marseille","lat":43.31756,"lon":5.39018,"is_reserved":false,"is_disabled":false,"rental_uris":{"android":"levelo://app?vid=57078c0b-9beb-4ca6-9619-12066e4ed91f","ios":"levelo://app?vid=57078c0b-9beb-4ca6-9619-12066e4ed91f"},"vehicle_type_id":"4","last_reported":1726301490,"current_range_meters":38800,"station_id":"ce4bhqp2rcd13ifvqhng","pricing_plan_id":"cebpf4jnsgd1na2vs0mg"},{"bike_id":"351a1e0b-c0ef-4032-8c4e-f94be7284501","system_id":"levelo_inurba_marseille","lat":43.28273,"lon":5.35077,"is_reserved":false,"is_disabled":false,"rental_uris":{"android":"levelo://app?vid=351a1e0b-c0ef-4032-8c4e-f94be7284501","ios":"levelo://app?vid=351a1e0b-c0ef-4032-8c4e-f94be7284501"},"vehicle_type_id":"4","last_reported":1726301490,"current_range_meters":34800,"station_id":"ce4bhbp2rcd13ifvqerg","pricing_plan_id":"cebpf4jnsgd1na2vs0mg"},{"bike_id":"e7d45257-ad22-433b-8efd-985cbd08d967","system_id":"levelo_inurba_marseille","lat":43.29223,"lon":5.36065,"is_reserved":false,"is_disabled":false,"rental_uris":{"android":"levelo://app?vid=e7d45257-ad22-433b-8efd-985cbd08d967","ios":"levelo://app?vid=e7d45257-ad22-433b-8efd-985cbd08d967"},"vehicle_type_id":"4","last_reported":1726301490,"current_range_meters":35600,"station_id":"ce4bhbh2rcd13ifvqeqg","pricing_plan_id":"cebpf4jnsgd1na2vs0mg"},{"bike_id":"7a0227e6-9810-41c3-9e26-6f916050fe30","system_id":"levelo_inurba_marseille","lat":43.28471,"lon":5.38413,"is_reserved":false,"is_disabled":false,"rental_uris":{"android":"levelo://app?vid=7a0227e6-9810-41c3-9e26-6f916050fe30","ios":"levelo://app?vid=7a0227e6-9810-41c3-9e26-6f916050fe30"},"vehicle_type_id":"4","last_reported":1726301490,"current_range_meters":33200,"station_id":"ce4bh512rcd13ifvqe3g","pricing_plan_id":"cebpf4jnsgd1na2vs0mg"},{"bike_id":"13ec4916-f0ea-4897-8afc-596425b42c42","system_id":"levelo_inurba_marseille","lat":43.23187,"lon":5.3556,"is_reserved":false,"is_disabled":false,"rental_uris":{"android":"levelo://app?vid=13ec4916-f0ea-4897-8afc-596425b42c42","ios":"levelo://app?vid=13ec4916-f0ea-4897-8afc-596425b42c42"},"vehicle_type_id":"4","last_reported":1726301490,"current_range_meters":28000,"station_id":"ce4bhu92rcd13ifvqi70","pricing_plan_id":"cebpf4jnsgd1na2vs0mg"},{"bike_id":"627d97e3-ccf7-42a3-85b5-4116cfb34a5e","system_id":"levelo_inurba_marseille","lat":43.28458,"lon":5.35883,"is_reserved":false,"is_disabled":false,"rental_uris":{"android":"levelo://app?vid=627d97e3-ccf7-42a3-85b5-4116cfb34a5e","ios":"levelo://app?vid=627d97e3-ccf7-42a3-85b5-4116cfb34a5e"},"vehicle_type_id":"4","last_reported":1726301490,"current_range_meters":38000,"station_id":"ce4bhah2rcd13ifvqei0","pricing_plan_id":"cebpf4jnsgd1na2vs0mg"},{"bike_id":"cb0eaffb-2812-4bc5-9ace-6454d6cac3eb","system_id":"levelo_inurba_marseille","lat":43.28615,"lon":5.35103,"is_reserved":false,"is_disabled":false,"rental_uris":{"android":"levelo://app?vid=cb0eaffb-2812-4bc5-9ace-6454d6cac3eb","ios":"levelo://app?vid=cb0eaffb-2812-4bc5-9ace-6454d6cac3eb"},"vehicle_type_id":"4","last_reported":1726301490,"current_range_meters":31200,"station_id":"ce4bhch2rcd13ifvqeug","pricing_plan_id":"cebpf4jnsgd1na2vs0mg"},{"bike_id":"8b2c7e05-6bb8-47c5-8acf-f50eb4181688","system_id":"levelo_inurba_marseille","lat":43.31695,"lon":5.40468,"is_reserved":false,"is_disabled":false,"rental_uris":{"android":"levelo://app?vid=8b2c7e05-6bb8-47c5-8acf-f50eb4181688","ios":"levelo://app?vid=8b2c7e05-6bb8-47c5-8acf-f50eb4181688"},"vehicle_type_id":"4","last_reported":1726301490,"current_range_meters":11200,"station_id":"ce4bh012rcd13ifvqd00","pricing_plan_id":"cebpf4jnsgd1na2vs0mg"},{"bike_id":"3f1e932a-540c-4c5d-a4f8-ac49240977b8","system_id":"levelo_inurba_marseille","lat":43.24387,"lon":5.37054,"is_reserved":false,"is_disabled":false,"rental_uris":{"android":"levelo://app?vid=3f1e932a-540c-4c5d-a4f8-ac49240977b8","ios":"levelo://app?vid=3f1e932a-540c-4c5d-a4f8-ac49240977b8"},"vehicle_type_id":"4","last_reported":1726301490,"current_range_meters":39200,"station_id":"ce4bhhh2rcd13ifvqfk0","pricing_plan_id":"cebpf4jnsgd1na2vs0mg"},{"bike_id":"1b69e28d-b657-4802-b5dd-aa17fb5a768b","system_id":"levelo_inurba_marseille","lat":43.27127,"lon":5.42783,"is_reserved":false,"is_disabled":false,"rental_uris":{"android":"levelo://app?vid=1b69e28d-b657-4802-b5dd-aa17fb5a768b","ios":"levelo://app?vid=1b69e28d-b657-4802-b5dd-aa17fb5a768b"},"vehicle_type_id":"4","last_reported":1726301490,"current_range_meters":27600,"station_id":"","pricing_plan_id":"cebpf4jnsgd1na2vs0mg"},{"bike_id":"6c4b8086-90f2-460d-95e8-81a770bc4a47","system_id":"levelo_inurba_marseille","lat":43.24663,"lon":5.38157,"is_reserved":false,"is_disabled":false,"rental_uris":{"android":"levelo://app?vid=6c4b8086-90f2-460d-95e8-81a770bc4a47","ios":"levelo://app?vid=6c4b8086-90f2-460d-95e8-81a770bc4a47"},"vehicle_type_id":"4","last_reported":1726301490,"current_range_meters":30000,"station_id":"ce4bhih2rcd13ifvqfr0","pricing_plan_id":"cebpf4jnsgd1na2vs0mg"},{"bike_id":"9b7c641e-053d-4267-92ff-fe022f383e16","system_id":"levelo_inurba_marseille","lat":43.290398,"lon":5.376009,"is_reserved":false,"is_disabled":false,"rental_uris":{"android":"levelo://app?vid=9b7c641e-053d-4267-92ff-fe022f383e16","ios":"levelo://app?vid=9b7c641e-053d-4267-92ff-fe022f383e16"},"vehicle_type_id":"4","last_reported":1726301490,"current_range_meters":18000,"station_id":"ce4bh692rcd13ifvqe90","pricing_plan_id":"cebpf4jnsgd1na2vs0mg"},{"bike_id":"70188dea-4ede-4e32-9e79-e30f57dedd7f","system_id":"levelo_inurba_marseille","lat":43.28251,"lon":5.3727,"is_reserved":false,"is_disabled":false,"rental_uris":{"android":"levelo://app?vid=70188dea-4ede-4e32-9e79-e30f57dedd7f","ios":"levelo://app?vid=70188dea-4ede-4e32-9e79-e30f57dedd7f"},"vehicle_type_id":"4","last_reported":1726301490,"current_range_meters":27600,"station_id":"","pricing_plan_id":"cebpf4jnsgd1na2vs0mg"},{"bike_id":"8a96ac3c-cfde-4784-806c-e3b436c12acb","system_id":"levelo_inurba_marseille","lat":43.28274,"lon":5.35069,"is_reserved":false,"is_disabled":false,"rental_uris":{"android":"levelo://app?vid=8a96ac3c-cfde-4784-806c-e3b436c12acb","ios":"levelo://app?vid=8a96ac3c-cfde-4784-806c-e3b436c12acb"},"vehicle_type_id":"4","last_reported":1726301490,"current_range_meters":18000,"station_id":"ce4bhbp2rcd13ifvqerg","pricing_plan_id":"cebpf4jnsgd1na2vs0mg"},{"bike_id":"995d3a7e-289e-4ebd-b785-9d2da426ad57","system_id":"levelo_inurba_marseille","lat":43.23193,"lon":5.35543,"is_reserved":false,"is_disabled":false,"rental_uris":{"android":"levelo://app?vid=995d3a7e-289e-4ebd-b785-9d2da426ad57","ios":"levelo://app?vid=995d3a7e-289e-4ebd-b785-9d2da426ad57"},"vehicle_type_id":"4","last_reported":1726301490,"current_range_meters":22000,"station_id":"ce4bhu92rcd13ifvqi70","pricing_plan_id":"cebpf4jnsgd1na2vs0mg"},{"bike_id":"74c67d55-8a5f-40c9-8066-d68354718f8c","system_id":"levelo_inurba_marseille","lat":43.23189,"lon":5.35555,"is_reserved":false,"is_disabled":false,"rental_uris":{"android":"levelo://app?vid=74c67d55-8a5f-40c9-8066-d68354718f8c","ios":"levelo://app?vid=74c67d55-8a5f-40c9-8066-d68354718f8c"},"vehicle_type_id":"4","last_reported":1726301490,"current_range_meters":26000,"station_id":"ce4bhu92rcd13ifvqi70","pricing_plan_id":"cebpf4jnsgd1na2vs0mg"},{"bike_id":"63e00bcb-368b-405a-bfef-e17356283c35","system_id":"levelo_inurba_marseille","lat":43.26503,"lon":5.39541,"is_reserved":false,"is_disabled":false,"rental_uris":{"android":"levelo://app?vid=63e00bcb-368b-405a-bfef-e17356283c35","ios":"levelo://app?vid=63e00bcb-368b-405a-bfef-e17356283c35"},"vehicle_type_id":"4","last_reported":1726301490,"current_range_meters":32400,"station_id":"ce4bhi12rcd13ifvqfq0","pricing_plan_id":"cebpf4jnsgd1na2vs0mg"},{"bike_id":"bbff06e8-e26c-4f4a-87c2-0dbc5a84f5ee","system_id":"levelo_inurba_marseille","lat":43.3055,"lon":5.36524,"is_reserved":false,"is_disabled":false,"rental_uris":{"android":"levelo://app?vid=bbff06e8-e26c-4f4a-87c2-0dbc5a84f5ee","ios":"levelo://app?vid=bbff06e8-e26c-4f4a-87c2-0dbc5a84f5ee"},"vehicle_type_id":"4","last_reported":1726301490,"current_range_meters":39200,"station_id":"ce4bgs12rcd13ifvqcag","pricing_plan_id":"cebpf4jnsgd1na2vs0mg"},{"bike_id":"35f8ddd3-e766-4b12-8b78-5fee9717a8d0","system_id":"levelo_inurba_marseille","lat":43.27072,"lon":5.42277,"is_reserved":false,"is_disabled":false,"rental_uris":{"android":"levelo://app?vid=35f8ddd3-e766-4b12-8b78-5fee9717a8d0","ios":"levelo://app?vid=35f8ddd3-e766-4b12-8b78-5fee9717a8d0"},"vehicle_type_id":"4","last_reported":1726301490,"current_range_meters":9600,"station_id":"ce4bhk92rcd13ifvqgb0","pricing_plan_id":"cebpf4jnsgd1na2vs0mg"},{"bike_id":"7ae0fdfe-d1fb-4c89-abf5-2b00156f248d","system_id":"levelo_inurba_marseille","lat":43.29042,"lon":5.39957,"is_reserved":false,"is_disabled":false,"rental_uris":{"android":"levelo://app?vid=7ae0fdfe-d1fb-4c89-abf5-2b00156f248d","ios":"levelo://app?vid=7ae0fdfe-d1fb-4c89-abf5-2b00156f248d"},"vehicle_type_id":"4","last_reported":1726301490,"current_range_meters":29600,"station_id":"ce4bh392rcd13ifvqdm0","pricing_plan_id":"cebpf4jnsgd1na2vs0mg"},{"bike_id":"9386e09d-5cbd-4b8b-868e-ead937a643ff","system_id":"levelo_inurba_marseille","lat":43.300982,"lon":5.380741,"is_reserved":false,"is_disabled":false,"rental_uris":{"android":"levelo://app?vid=9386e09d-5cbd-4b8b-868e-ead937a643ff","ios":"levelo://app?vid=9386e09d-5cbd-4b8b-868e-ead937a643ff"},"vehicle_type_id":"4","last_reported":1726301490,"current_range_meters":38000,"station_id":"ce4bgjp2rcd13ifvqbh0","pricing_plan_id":"cebpf4jnsgd1na2vs0mg"},{"bike_id":"24674f4b-bcb6-4d3e-a74d-7d8a6acb125c","system_id":"levelo_inurba_marseille","lat":43.24999,"lon":5.38931,"is_reserved":false,"is_disabled":false,"rental_uris":{"android":"levelo://app?vid=24674f4b-bcb6-4d3e-a74d-7d8a6acb125c","ios":"levelo://app?vid=24674f4b-bcb6-4d3e-a74d-7d8a6acb125c"},"vehicle_type_id":"4","last_reported":1726301490,"current_range_meters":28400,"station_id":"ce4bhgp2rcd13ifvqfd0","pricing_plan_id":"cebpf4jnsgd1na2vs0mg"},{"bike_id":"d778ebd5-df91-4318-9665-ec69cc6ffd2f","system_id":"levelo_inurba_marseille","lat":43.24389,"lon":5.37062,"is_reserved":false,"is_disabled":false,"rental_uris":{"android":"levelo://app?vid=d778ebd5-df91-4318-9665-ec69cc6ffd2f","ios":"levelo://app?vid=d778ebd5-df91-4318-9665-ec69cc6ffd2f"},"vehicle_type_id":"4","last_reported":1726301490,"current_range_meters":24000,"station_id":"ce4bhhh2rcd13ifvqfk0","pricing_plan_id":"cebpf4jnsgd1na2vs0mg"},{"bike_id":"1fafe3dd-944a-45b0-b175-80d6dc0cb782","system_id":"levelo_inurba_marseille","lat":43.28703,"lon":5.39994,"is_reserved":false,"is_disabled":false,"rental_uris":{"android":"levelo://app?vid=1fafe3dd-944a-45b0-b175-80d6dc0cb782","ios":"levelo://app?vid=1fafe3dd-944a-45b0-b175-80d6dc0cb782"},"vehicle_type_id":"4","last_reported":1726301490,"current_range_meters":25600,"station_id":"ce4bho92rcd13ifvqh3g","pricing_plan_id":"cebpf4jnsgd1na2vs0mg"},{"bike_id":"b3c121d4-4ded-48f7-a589-8d21ce3eb1a9","system_id":"levelo_inurba_marseille","lat":43.24391,"lon":5.37058,"is_reserved":false,"is_disabled":false,"rental_uris":{"android":"levelo://app?vid=b3c121d4-4ded-48f7-a589-8d21ce3eb1a9","ios":"levelo://app?vid=b3c121d4-4ded-48f7-a589-8d21ce3eb1a9"},"vehicle_type_id":"4","last_reported":1726301490,"current_range_meters":16000,"station_id":"ce4bhhh2rcd13ifvqfk0","pricing_plan_id":"cebpf4jnsgd1na2vs0mg"},{"bike_id":"6267baa5-f35c-4311-91c4-71f926f47f2c","system_id":"levelo_inurba_marseille","lat":43.29748,"lon":5.37889,"is_reserved":false,"is_disabled":false,"rental_uris":{"android":"levelo://app?vid=6267baa5-f35c-4311-91c4-71f926f47f2c","ios":"levelo://app?vid=6267baa5-f35c-4311-91c4-71f926f47f2c"},"vehicle_type_id":"4","last_reported":1726301490,"current_range_meters":3200,"station_id":"","pricing_plan_id":"cebpf4jnsgd1na2vs0mg"},{"bike_id":"e1b7e339-05d0-4021-893d-95da1d1b4f3e","system_id":"levelo_inurba_marseille","lat":43.28076,"lon":5.39655,"is_reserved":false,"is_disabled":false,"rental_uris":{"android":"levelo://app?vid=e1b7e339-05d0-4021-893d-95da1d1b4f3e","ios":"levelo://app?vid=e1b7e339-05d0-4021-893d-95da1d1b4f3e"},"vehicle_type_id":"4","last_reported":1726301490,"current_range_meters":24800,"station_id":"ce4bho12rcd13ifvqh2g","pricing_plan_id":"cebpf4jnsgd1na2vs0mg"},{"bike_id":"4407afde-c987-48fa-9508-eaff6626a8b5","system_id":"levelo_inurba_marseille","lat":43.27496,"lon":5.42456,"is_reserved":false,"is_disabled":false,"rental_uris":{"android":"levelo://app?vid=4407afde-c987-48fa-9508-eaff6626a8b5","ios":"levelo://app?vid=4407afde-c987-48fa-9508-eaff6626a8b5"},"vehicle_type_id":"4","last_reported":1726301490,"current_range_meters":38400,"station_id":"ce4bhn92rcd13ifvqgrg","pricing_plan_id":"cebpf4jnsgd1na2vs0mg"},{"bike_id":"88e1db76-58ba-4c9d-b502-55264c882980","system_id":"levelo_inurba_marseille","lat":43.25863,"lon":5.39907,"is_reserved":false,"is_disabled":false,"rental_uris":{"android":"levelo://app?vid=88e1db76-58ba-4c9d-b502-55264c882980","ios":"levelo://app?vid=88e1db76-58ba-4c9d-b502-55264c882980"},"vehicle_type_id":"4","last_reported":1726301490,"current_range_meters":29600,"station_id":"ce4bhl92rcd13ifvqghg","pricing_plan_id":"cebpf4jnsgd1na2vs0mg"},{"bike_id":"e6bea8cd-bd1a-48c2-8a52-de5e2a98c0f4","system_id":"levelo_inurba_marseille","lat":43.25939,"lon":5.409,"is_reserved":false,"is_disabled":false,"rental_uris":{"android":"levelo://app?vid=e6bea8cd-bd1a-48c2-8a52-de5e2a98c0f4","ios":"levelo://app?vid=e6bea8cd-bd1a-48c2-8a52-de5e2a98c0f4"},"vehicle_type_id":"4","last_reported":1726301490,"current_range_meters":33200,"station_id":"ce4bhm92rcd13ifvqglg","pricing_plan_id":"cebpf4jnsgd1na2vs0mg"},{"bike_id":"9c28ec0f-4c95-4721-aa62-afca5f4a4fb7","system_id":"levelo_inurba_marseille","lat":43.30365,"lon":5.38022,"is_reserved":false,"is_disabled":false,"rental_uris":{"android":"levelo://app?vid=9c28ec0f-4c95-4721-aa62-afca5f4a4fb7","ios":"levelo://app?vid=9c28ec0f-4c95-4721-aa62-afca5f4a4fb7"},"vehicle_type_id":"4","last_reported":1726301490,"current_range_meters":9600,"station_id":"","pricing_plan_id":"cebpf4jnsgd1na2vs0mg"},{"bike_id":"44f09c39-e560-4787-855a-6c24192c7f7b","system_id":"levelo_inurba_marseille","lat":43.33025,"lon":5.39037,"is_reserved":false,"is_disabled":false,"rental_uris":{"android":"levelo://app?vid=44f09c39-e560-4787-855a-6c24192c7f7b","ios":"levelo://app?vid=44f09c39-e560-4787-855a-6c24192c7f7b"},"vehicle_type_id":"4","last_reported":1726301490,"current_range_meters":22400,"station_id":"ce4bhr92rcd13ifvqhrg","pricing_plan_id":"cebpf4jnsgd1na2vs0mg"},{"bike_id":"3bcbc1d5-4164-4b98-9d95-f1d5f8c34a75","system_id":"levelo_inurba_marseille","lat":43.27495,"lon":5.42446,"is_reserved":false,"is_disabled":false,"rental_uris":{"android":"levelo://app?vid=3bcbc1d5-4164-4b98-9d95-f1d5f8c34a75","ios":"levelo://app?vid=3bcbc1d5-4164-4b98-9d95-f1d5f8c34a75"},"vehicle_type_id":"4","last_reported":1726301490,"current_range_meters":14800,"station_id":"ce4bhn92rcd13ifvqgrg","pricing_plan_id":"cebpf4jnsgd1na2vs0mg"},{"bike_id":"035695f2-4962-4ada-9029-cd74a72b2c9f","system_id":"levelo_inurba_marseille","lat":43.28693,"lon":5.37389,"is_reserved":false,"is_disabled":false,"rental_uris":{"android":"levelo://app?vid=035695f2-4962-4ada-9029-cd74a72b2c9f","ios":"levelo://app?vid=035695f2-4962-4ada-9029-cd74a72b2c9f"},"vehicle_type_id":"4","last_reported":1726301490,"current_range_meters":21600,"station_id":"ce4bh3p2rcd13ifvqdq0","pricing_plan_id":"cebpf4jnsgd1na2vs0mg"},{"bike_id":"2a089944-b1a6-45af-99d1-9b70add064d3","system_id":"levelo_inurba_marseille","lat":43.24811,"lon":5.37458,"is_reserved":false,"is_disabled":false,"rental_uris":{"android":"levelo://app?vid=2a089944-b1a6-45af-99d1-9b70add064d3","ios":"levelo://app?vid=2a089944-b1a6-45af-99d1-9b70add064d3"},"vehicle_type_id":"4","last_reported":1726301490,"current_range_meters":11600,"station_id":"ce4bhgh2rcd13ifvqfb0","pricing_plan_id":"cebpf4jnsgd1na2vs0mg"},{"bike_id":"34721204-9cc8-4128-8304-5b698c26b1e6","system_id":"levelo_inurba_marseille","lat":43.23182,"lon":5.3998,"is_reserved":false,"is_disabled":false,"rental_uris":{"android":"levelo://app?vid=34721204-9cc8-4128-8304-5b698c26b1e6","ios":"levelo://app?vid=34721204-9cc8-4128-8304-5b698c26b1e6"},"vehicle_type_id":"4","last_reported":1726301490,"current_range_meters":38800,"station_id":"ce4bhn12rcd13ifvqgqg","pricing_plan_id":"cebpf4jnsgd1na2vs0mg"},{"bike_id":"a21ba93e-f694-4cb2-975b-ef78ce45d8dd","system_id":"levelo_inurba_marseille","lat":43.27632,"lon":5.3612,"is_reserved":false,"is_disabled":false,"rental_uris":{"android":"levelo://app?vid=a21ba93e-f694-4cb2-975b-ef78ce45d8dd","ios":"levelo://app?vid=a21ba93e-f694-4cb2-975b-ef78ce45d8dd"},"vehicle_type_id":"4","last_reported":1726301490,"current_range_meters":37600,"station_id":"ce4bgj92rcd13ifvqbe0","pricing_plan_id":"cebpf4jnsgd1na2vs0mg"},{"bike_id":"7ed33938-c7db-4cac-9cdc-6edba2702770","system_id":"levelo_inurba_marseille","lat":43.31319,"lon":5.39697,"is_reserved":false,"is_disabled":false,"rental_uris":{"android":"levelo://app?vid=7ed33938-c7db-4cac-9cdc-6edba2702770","ios":"levelo://app?vid=7ed33938-c7db-4cac-9cdc-6edba2702770"},"vehicle_type_id":"4","last_reported":1726301490,"current_range_meters":23200,"station_id":"ce4bgvp2rcd13ifvqcu0","pricing_plan_id":"cebpf4jnsgd1na2vs0mg"},{"bike_id":"0124e22a-940d-4592-a669-5febf603375d","system_id":"levelo_inurba_marseille","lat":43.28075,"lon":5.39646,"is_reserved":false,"is_disabled":false,"rental_uris":{"android":"levelo://app?vid=0124e22a-940d-4592-a669-5febf603375d","ios":"levelo://app?vid=0124e22a-940d-4592-a669-5febf603375d"},"vehicle_type_id":"4","last_reported":1726301490,"current_range_meters":39200,"station_id":"ce4bho12rcd13ifvqh2g","pricing_plan_id":"cebpf4jnsgd1na2vs0mg"},{"bike_id":"39b86749-80ef-4310-953b-c60370086942","system_id":"levelo_inurba_marseille","lat":43.24543,"lon":5.39522,"is_reserved":false,"is_disabled":false,"rental_uris":{"android":"levelo://app?vid=39b86749-80ef-4310-953b-c60370086942","ios":"levelo://app?vid=39b86749-80ef-4310-953b-c60370086942"},"vehicle_type_id":"4","last_reported":1726301490,"current_range_meters":27200,"station_id":"ce4bhlp2rcd13ifvqgjg","pricing_plan_id":"cebpf4jnsgd1na2vs0mg"},{"bike_id":"ad723d0b-19fc-4bd0-8eec-a408c1d7f33b","system_id":"levelo_inurba_marseille","lat":43.254944,"lon":5.376525,"is_reserved":false,"is_disabled":false,"rental_uris":{"android":"levelo://app?vid=ad723d0b-19fc-4bd0-8eec-a408c1d7f33b","ios":"levelo://app?vid=ad723d0b-19fc-4bd0-8eec-a408c1d7f33b"},"vehicle_type_id":"4","last_reported":1726301490,"current_range_meters":33600,"station_id":"ce4bhh12rcd13ifvqff0","pricing_plan_id":"cebpf4jnsgd1na2vs0mg"},{"bike_id":"b3c64ca3-fb28-47f1-8c09-61986e06e763","system_id":"levelo_inurba_marseille","lat":43.29801,"lon":5.38088,"is_reserved":false,"is_disabled":false,"rental_uris":{"android":"levelo://app?vid=b3c64ca3-fb28-47f1-8c09-61986e06e763","ios":"levelo://app?vid=b3c64ca3-fb28-47f1-8c09-61986e06e763"},"vehicle_type_id":"4","last_reported":1726301490,"current_range_meters":3200,"station_id":"ce4bgip2rcd13ifvqbb0","pricing_plan_id":"cebpf4jnsgd1na2vs0mg"},{"bike_id":"5304e49e-7656-44a2-8d5f-2d02813b4f22","system_id":"levelo_inurba_marseille","lat":43.28622,"lon":5.35106,"is_reserved":false,"is_disabled":false,"rental_uris":{"android":"levelo://app?vid=5304e49e-7656-44a2-8d5f-2d02813b4f22","ios":"levelo://app?vid=5304e49e-7656-44a2-8d5f-2d02813b4f22"},"vehicle_type_id":"4","last_reported":1726301490,"current_range_meters":36800,"station_id":"ce4bhch2rcd13ifvqeug","pricing_plan_id":"cebpf4jnsgd1na2vs0mg"},{"bike_id":"a42702f2-d81c-4242-a835-f22a778e5eb6","system_id":"levelo_inurba_marseille","lat":43.33605,"lon":5.41022,"is_reserved":false,"is_disabled":false,"rental_uris":{"android":"levelo://app?vid=a42702f2-d81c-4242-a835-f22a778e5eb6","ios":"levelo://app?vid=a42702f2-d81c-4242-a835-f22a778e5eb6"},"vehicle_type_id":"4","last_reported":1726301490,"current_range_meters":38400,"station_id":"ce4bhqh2rcd13ifvqhmg","pricing_plan_id":"cebpf4jnsgd1na2vs0mg"},{"bike_id":"c4c202f3-4c26-4a0e-8b04-4b850ee76724","system_id":"levelo_inurba_marseille","lat":43.30936,"lon":5.40146,"is_reserved":false,"is_disabled":false,"rental_uris":{"android":"levelo://app?vid=c4c202f3-4c26-4a0e-8b04-4b850ee76724","ios":"levelo://app?vid=c4c202f3-4c26-4a0e-8b04-4b850ee76724"},"vehicle_type_id":"4","last_reported":1726301490,"current_range_meters":26000,"station_id":"ce4bgvp2rcd13ifvqct0","pricing_plan_id":"cebpf4jnsgd1na2vs0mg"},{"bike_id":"46cc3877-36d1-49fa-ae53-704c9f61cf67","system_id":"levelo_inurba_marseille","lat":43.30468,"lon":5.37902,"is_reserved":false,"is_disabled":false,"rental_uris":{"android":"levelo://app?vid=46cc3877-36d1-49fa-ae53-704c9f61cf67","ios":"levelo://app?vid=46cc3877-36d1-49fa-ae53-704c9f61cf67"},"vehicle_type_id":"4","last_reported":1726301490,"current_range_meters":24000,"station_id":"ce4bgup2rcd13ifvqcn0","pricing_plan_id":"cebpf4jnsgd1na2vs0mg"},{"bike_id":"5e0d25a3-836b-47b7-bce4-106bc54306d5","system_id":"levelo_inurba_marseille","lat":43.27982,"lon":5.38754,"is_reserved":false,"is_disabled":false,"rental_uris":{"android":"levelo://app?vid=5e0d25a3-836b-47b7-bce4-106bc54306d5","ios":"levelo://app?vid=5e0d25a3-836b-47b7-bce4-106bc54306d5"},"vehicle_type_id":"4","last_reported":1726301490,"current_range_meters":38800,"station_id":"ce4bhg12rcd13ifvqf80","pricing_plan_id":"cebpf4jnsgd1na2vs0mg"},{"bike_id":"23df41e1-78a9-4dc6-b5c8-3ea2a5ebb493","system_id":"levelo_inurba_marseille","lat":43.24384,"lon":5.37058,"is_reserved":false,"is_disabled":false,"rental_uris":{"android":"levelo://app?vid=23df41e1-78a9-4dc6-b5c8-3ea2a5ebb493","ios":"levelo://app?vid=23df41e1-78a9-4dc6-b5c8-3ea2a5ebb493"},"vehicle_type_id":"4","last_reported":1726301490,"current_range_meters":28400,"station_id":"ce4bhhh2rcd13ifvqfk0","pricing_plan_id":"cebpf4jnsgd1na2vs0mg"},{"bike_id":"cade2501-95bb-491a-b8de-c573db7615e8","system_id":"levelo_inurba_marseille","lat":43.27499,"lon":5.42453,"is_reserved":false,"is_disabled":false,"rental_uris":{"android":"levelo://app?vid=cade2501-95bb-491a-b8de-c573db7615e8","ios":"levelo://app?vid=cade2501-95bb-491a-b8de-c573db7615e8"},"vehicle_type_id":"4","last_reported":1726301490,"current_range_meters":38800,"station_id":"ce4bhn92rcd13ifvqgrg","pricing_plan_id":"cebpf4jnsgd1na2vs0mg"},{"bike_id":"e3032478-8cc0-4573-b2f1-5bdab749b059","system_id":"levelo_inurba_marseille","lat":43.299697,"lon":5.384903,"is_reserved":false,"is_disabled":false,"rental_uris":{"android":"levelo://app?vid=e3032478-8cc0-4573-b2f1-5bdab749b059","ios":"levelo://app?vid=e3032478-8cc0-4573-b2f1-5bdab749b059"},"vehicle_type_id":"4","last_reported":1726301490,"current_range_meters":38800,"station_id":"ce4bgvp2rcd13ifvqct0","pricing_plan_id":"cebpf4jnsgd1na2vs0mg"},{"bike_id":"28e30fa6-be7f-4a31-a2e0-4418b4e72d15","system_id":"levelo_inurba_marseille","lat":43.31373,"lon":5.385,"is_reserved":false,"is_disabled":false,"rental_uris":{"android":"levelo://app?vid=28e30fa6-be7f-4a31-a2e0-4418b4e72d15","ios":"levelo://app?vid=28e30fa6-be7f-4a31-a2e0-4418b4e72d15"},"vehicle_type_id":"4","last_reported":1726301490,"current_range_meters":26000,"station_id":"ce4bgt92rcd13ifvqcf0","pricing_plan_id":"cebpf4jnsgd1na2vs0mg"},{"bike_id":"3ff49cd6-2a38-448d-a324-90182f8f251b","system_id":"levelo_inurba_marseille","lat":43.305504,"lon":5.365285,"is_reserved":false,"is_disabled":false,"rental_uris":{"android":"levelo://app?vid=3ff49cd6-2a38-448d-a324-90182f8f251b","ios":"levelo://app?vid=3ff49cd6-2a38-448d-a324-90182f8f251b"},"vehicle_type_id":"4","last_reported":1726301490,"current_range_meters":26800,"station_id":"ce4bgs12rcd13ifvqcag","pricing_plan_id":"cebpf4jnsgd1na2vs0mg"},{"bike_id":"dbc5e236-e325-4b10-b35b-2dfae7a1bac7","system_id":"levelo_inurba_marseille","lat":43.23187,"lon":5.39982,"is_reserved":false,"is_disabled":false,"rental_uris":{"android":"levelo://app?vid=dbc5e236-e325-4b10-b35b-2dfae7a1bac7","ios":"levelo://app?vid=dbc5e236-e325-4b10-b35b-2dfae7a1bac7"},"vehicle_type_id":"4","last_reported":1726301490,"current_range_meters":9200,"station_id":"ce4bhn12rcd13ifvqgqg","pricing_plan_id":"cebpf4jnsgd1na2vs0mg"},{"bike_id":"315021f7-3367-4fd9-a8d3-04a6323bc426","system_id":"levelo_inurba_marseille","lat":43.30319,"lon":5.40435,"is_reserved":false,"is_disabled":false,"rental_uris":{"android":"levelo://app?vid=315021f7-3367-4fd9-a8d3-04a6323bc426","ios":"levelo://app?vid=315021f7-3367-4fd9-a8d3-04a6323bc426"},"vehicle_type_id":"4","last_reported":1726301490,"current_range_meters":32000,"station_id":"ce4bh012rcd13ifvqd10","pricing_plan_id":"cebpf4jnsgd1na2vs0mg"},{"bike_id":"eaf3218e-3b2a-4dde-9c15-99a6c4254e56","system_id":"levelo_inurba_marseille","lat":43.29898,"lon":5.43657,"is_reserved":false,"is_disabled":false,"rental_uris":{"android":"levelo://app?vid=eaf3218e-3b2a-4dde-9c15-99a6c4254e56","ios":"levelo://app?vid=eaf3218e-3b2a-4dde-9c15-99a6c4254e56"},"vehicle_type_id":"4","last_reported":1726301490,"current_range_meters":38800,"station_id":"ce4bhpp2rcd13ifvqhfg","pricing_plan_id":"cebpf4jnsgd1na2vs0mg"},{"bike_id":"578fe535-1ca5-46e4-9e6c-f0e8aa8560bc","system_id":"levelo_inurba_marseille","lat":43.32359,"lon":5.38877,"is_reserved":false,"is_disabled":false,"rental_uris":{"android":"levelo://app?vid=578fe535-1ca5-46e4-9e6c-f0e8aa8560bc","ios":"levelo://app?vid=578fe535-1ca5-46e4-9e6c-f0e8aa8560bc"},"vehicle_type_id":"4","last_reported":1726301490,"current_range_meters":11600,"station_id":"ce4bhqp2rcd13ifvqhog","pricing_plan_id":"cebpf4jnsgd1na2vs0mg"},{"bike_id":"23180ea1-e206-4d6d-a3fd-4a59ec973275","system_id":"levelo_inurba_marseille","lat":43.28076,"lon":5.39645,"is_reserved":false,"is_disabled":false,"rental_uris":{"android":"levelo://app?vid=23180ea1-e206-4d6d-a3fd-4a59ec973275","ios":"levelo://app?vid=23180ea1-e206-4d6d-a3fd-4a59ec973275"},"vehicle_type_id":"4","last_reported":1726301490,"current_range_meters":26800,"station_id":"ce4bho12rcd13ifvqh2g","pricing_plan_id":"cebpf4jnsgd1na2vs0mg"},{"bike_id":"16ca6d91-7513-415c-9a61-5d33eb8ad677","system_id":"levelo_inurba_marseille","lat":43.22934,"lon":5.35374,"is_reserved":false,"is_disabled":false,"rental_uris":{"android":"levelo://app?vid=16ca6d91-7513-415c-9a61-5d33eb8ad677","ios":"levelo://app?vid=16ca6d91-7513-415c-9a61-5d33eb8ad677"},"vehicle_type_id":"4","last_reported":1726301490,"current_range_meters":23200,"station_id":"cpo3532slgdg3j2ikp40","pricing_plan_id":"cebpf4jnsgd1na2vs0mg"},{"bike_id":"10cedbb4-1c1f-4b0e-acdf-6f0391c23bdc","system_id":"levelo_inurba_marseille","lat":43.28035,"lon":5.36937,"is_reserved":false,"is_disabled":false,"rental_uris":{"android":"levelo://app?vid=10cedbb4-1c1f-4b0e-acdf-6f0391c23bdc","ios":"levelo://app?vid=10cedbb4-1c1f-4b0e-acdf-6f0391c23bdc"},"vehicle_type_id":"4","last_reported":1726301490,"current_range_meters":7200,"station_id":"ce4bha12rcd13ifvqef0","pricing_plan_id":"cebpf4jnsgd1na2vs0mg"},{"bike_id":"3e6b0e10-dcd6-41e1-b539-76bda94e42ac","system_id":"levelo_inurba_marseille","lat":43.24667,"lon":5.38158,"is_reserved":false,"is_disabled":false,"rental_uris":{"android":"levelo://app?vid=3e6b0e10-dcd6-41e1-b539-76bda94e42ac","ios":"levelo://app?vid=3e6b0e10-dcd6-41e1-b539-76bda94e42ac"},"vehicle_type_id":"4","last_reported":1726301490,"current_range_meters":36400,"station_id":"ce4bhih2rcd13ifvqfr0","pricing_plan_id":"cebpf4jnsgd1na2vs0mg"},{"bike_id":"ecc5ad03-92b6-4b3e-8327-03f760a43277","system_id":"levelo_inurba_marseille","lat":43.23185,"lon":5.39979,"is_reserved":false,"is_disabled":false,"rental_uris":{"android":"levelo://app?vid=ecc5ad03-92b6-4b3e-8327-03f760a43277","ios":"levelo://app?vid=ecc5ad03-92b6-4b3e-8327-03f760a43277"},"vehicle_type_id":"4","last_reported":1726301490,"current_range_meters":30800,"station_id":"ce4bhn12rcd13ifvqgqg","pricing_plan_id":"cebpf4jnsgd1na2vs0mg"},{"bike_id":"c5465ea1-4e69-4539-880b-a7ffba1e41db","system_id":"levelo_inurba_marseille","lat":43.25727,"lon":5.41109,"is_reserved":false,"is_disabled":false,"rental_uris":{"android":"levelo://app?vid=c5465ea1-4e69-4539-880b-a7ffba1e41db","ios":"levelo://app?vid=c5465ea1-4e69-4539-880b-a7ffba1e41db"},"vehicle_type_id":"4","last_reported":1726301490,"current_range_meters":36400,"station_id":"ce4bhkp2rcd13ifvqgd0","pricing_plan_id":"cebpf4jnsgd1na2vs0mg"},{"bike_id":"f4c36463-ddf2-4e8a-90a8-c12391e72ce0","system_id":"levelo_inurba_marseille","lat":43.28271,"lon":5.35064,"is_reserved":false,"is_disabled":false,"rental_uris":{"android":"levelo://app?vid=f4c36463-ddf2-4e8a-90a8-c12391e72ce0","ios":"levelo://app?vid=f4c36463-ddf2-4e8a-90a8-c12391e72ce0"},"vehicle_type_id":"4","last_reported":1726301490,"current_range_meters":10000,"station_id":"ce4bhbp2rcd13ifvqerg","pricing_plan_id":"cebpf4jnsgd1na2vs0mg"},{"bike_id":"49ad3b06-055f-4844-b6d9-ab28a450d00b","system_id":"levelo_inurba_marseille","lat":43.33754,"lon":5.37444,"is_reserved":false,"is_disabled":false,"rental_uris":{"android":"levelo://app?vid=49ad3b06-055f-4844-b6d9-ab28a450d00b","ios":"levelo://app?vid=49ad3b06-055f-4844-b6d9-ab28a450d00b"},"vehicle_type_id":"4","last_reported":1726301490,"current_range_meters":26000,"station_id":"","pricing_plan_id":"cebpf4jnsgd1na2vs0mg"},{"bike_id":"ce45b02b-b167-4654-b305-eb82cd566863","system_id":"levelo_inurba_marseille","lat":43.23193,"lon":5.35556,"is_reserved":false,"is_disabled":false,"rental_uris":{"android":"levelo://app?vid=ce45b02b-b167-4654-b305-eb82cd566863","ios":"levelo://app?vid=ce45b02b-b167-4654-b305-eb82cd566863"},"vehicle_type_id":"4","last_reported":1726301490,"current_range_meters":27200,"station_id":"ce4bhu92rcd13ifvqi70","pricing_plan_id":"cebpf4jnsgd1na2vs0mg"},{"bike_id":"20eb79bb-ff64-4462-bded-f38c96fac37b","system_id":"levelo_inurba_marseille","lat":43.27963,"lon":5.38718,"is_reserved":false,"is_disabled":false,"rental_uris":{"android":"levelo://app?vid=20eb79bb-ff64-4462-bded-f38c96fac37b","ios":"levelo://app?vid=20eb79bb-ff64-4462-bded-f38c96fac37b"},"vehicle_type_id":"4","last_reported":1726301490,"current_range_meters":40000,"station_id":"ce4bhg12rcd13ifvqf80","pricing_plan_id":"cebpf4jnsgd1na2vs0mg"},{"bike_id":"43f91729-b23c-4f31-bdb2-8366483e8266","system_id":"levelo_inurba_marseille","lat":43.31276,"lon":5.40165,"is_reserved":false,"is_disabled":false,"rental_uris":{"android":"levelo://app?vid=43f91729-b23c-4f31-bdb2-8366483e8266","ios":"levelo://app?vid=43f91729-b23c-4f31-bdb2-8366483e8266"},"vehicle_type_id":"4","last_reported":1726301490,"current_range_meters":39200,"station_id":"ce4bh092rcd13ifvqd30","pricing_plan_id":"cebpf4jnsgd1na2vs0mg"},{"bike_id":"7daab2d3-1c23-41fa-98fe-4046e78ab47a","system_id":"levelo_inurba_marseille","lat":43.32335,"lon":5.40618,"is_reserved":false,"is_disabled":false,"rental_uris":{"android":"levelo://app?vid=7daab2d3-1c23-41fa-98fe-4046e78ab47a","ios":"levelo://app?vid=7daab2d3-1c23-41fa-98fe-4046e78ab47a"},"vehicle_type_id":"4","last_reported":1726301490,"current_range_meters":39200,"station_id":"ce4bhq92rcd13ifvqhjg","pricing_plan_id":"cebpf4jnsgd1na2vs0mg"},{"bike_id":"fe1b4570-ae08-4fd8-95d8-351879e12f8a","system_id":"levelo_inurba_marseille","lat":43.32042,"lon":5.41538,"is_reserved":false,"is_disabled":false,"rental_uris":{"android":"levelo://app?vid=fe1b4570-ae08-4fd8-95d8-351879e12f8a","ios":"levelo://app?vid=fe1b4570-ae08-4fd8-95d8-351879e12f8a"},"vehicle_type_id":"4","last_reported":1726301490,"current_range_meters":24400,"station_id":"ce4bhq92rcd13ifvqhkg","pricing_plan_id":"cebpf4jnsgd1na2vs0mg"},{"bike_id":"43fdcb14-ac18-4289-83f9-be7bf1bd4e28","system_id":"levelo_inurba_marseille","lat":43.29001,"lon":5.35613,"is_reserved":false,"is_disabled":false,"rental_uris":{"android":"levelo://app?vid=43fdcb14-ac18-4289-83f9-be7bf1bd4e28","ios":"levelo://app?vid=43fdcb14-ac18-4289-83f9-be7bf1bd4e28"},"vehicle_type_id":"4","last_reported":1726301490,"current_range_meters":11200,"station_id":"ce4bhb92rcd13ifvqen0","pricing_plan_id":"cebpf4jnsgd1na2vs0mg"},{"bike_id":"920ab188-b742-46ff-82da-fa33f8f84c2e","system_id":"levelo_inurba_marseille","lat":43.23067,"lon":5.35496,"is_reserved":false,"is_disabled":false,"rental_uris":{"android":"levelo://app?vid=920ab188-b742-46ff-82da-fa33f8f84c2e","ios":"levelo://app?vid=920ab188-b742-46ff-82da-fa33f8f84c2e"},"vehicle_type_id":"4","last_reported":1726301490,"current_range_meters":26000,"station_id":"cpo3342slgdg3j2ifvpg","pricing_plan_id":"cebpf4jnsgd1na2vs0mg"},{"bike_id":"976afff6-7f7f-47c8-ab4a-60bba151cb26","system_id":"levelo_inurba_marseille","lat":43.279729,"lon":5.387503,"is_reserved":false,"is_disabled":false,"rental_uris":{"android":"levelo://app?vid=976afff6-7f7f-47c8-ab4a-60bba151cb26","ios":"levelo://app?vid=976afff6-7f7f-47c8-ab4a-60bba151cb26"},"vehicle_type_id":"4","last_reported":1726301490,"current_range_meters":38400,"station_id":"ce4bhg12rcd13ifvqf80","pricing_plan_id":"cebpf4jnsgd1na2vs0mg"},{"bike_id":"26db0265-0a91-4c66-8aa8-67a94f7eef0d","system_id":"levelo_inurba_marseille","lat":43.26941,"lon":5.40047,"is_reserved":false,"is_disabled":false,"rental_uris":{"android":"levelo://app?vid=26db0265-0a91-4c66-8aa8-67a94f7eef0d","ios":"levelo://app?vid=26db0265-0a91-4c66-8aa8-67a94f7eef0d"},"vehicle_type_id":"4","last_reported":1726301490,"current_range_meters":18000,"station_id":"","pricing_plan_id":"cebpf4jnsgd1na2vs0mg"},{"bike_id":"9b49fc06-69dc-4375-9bc8-2ab31283d424","system_id":"levelo_inurba_marseille","lat":43.29898,"lon":5.43663,"is_reserved":false,"is_disabled":false,"rental_uris":{"android":"levelo://app?vid=9b49fc06-69dc-4375-9bc8-2ab31283d424","ios":"levelo://app?vid=9b49fc06-69dc-4375-9bc8-2ab31283d424"},"vehicle_type_id":"4","last_reported":1726301490,"current_range_meters":33600,"station_id":"ce4bhpp2rcd13ifvqhfg","pricing_plan_id":"cebpf4jnsgd1na2vs0mg"},{"bike_id":"48e022de-8025-4bc4-9ab0-a22d08eea8c5","system_id":"levelo_inurba_marseille","lat":43.26786,"lon":5.39454,"is_reserved":false,"is_disabled":false,"rental_uris":{"android":"levelo://app?vid=48e022de-8025-4bc4-9ab0-a22d08eea8c5","ios":"levelo://app?vid=48e022de-8025-4bc4-9ab0-a22d08eea8c5"},"vehicle_type_id":"4","last_reported":1726301490,"current_range_meters":33200,"station_id":"ce4bhh12rcd13ifvqfg0","pricing_plan_id":"cebpf4jnsgd1na2vs0mg"},{"bike_id":"5a01e65e-a64b-4ab7-94ec-6ace81b01222","system_id":"levelo_inurba_marseille","lat":43.26031,"lon":5.37548,"is_reserved":false,"is_disabled":false,"rental_uris":{"android":"levelo://app?vid=5a01e65e-a64b-4ab7-94ec-6ace81b01222","ios":"levelo://app?vid=5a01e65e-a64b-4ab7-94ec-6ace81b01222"},"vehicle_type_id":"4","last_reported":1726301490,"current_range_meters":37600,"station_id":"ce4bhgh2rcd13ifvqfa0","pricing_plan_id":"cebpf4jnsgd1na2vs0mg"},{"bike_id":"ee35b2c2-5928-4a43-9f52-6820a33fc314","system_id":"levelo_inurba_marseille","lat":43.231813,"lon":5.399935,"is_reserved":false,"is_disabled":false,"rental_uris":{"android":"levelo://app?vid=ee35b2c2-5928-4a43-9f52-6820a33fc314","ios":"levelo://app?vid=ee35b2c2-5928-4a43-9f52-6820a33fc314"},"vehicle_type_id":"4","last_reported":1726301490,"current_range_meters":33600,"station_id":"ce4bhn12rcd13ifvqgqg","pricing_plan_id":"cebpf4jnsgd1na2vs0mg"},{"bike_id":"3b3f0a2a-22d6-444e-8b87-6cdd72816354","system_id":"levelo_inurba_marseille","lat":43.2828,"lon":5.35079,"is_reserved":false,"is_disabled":false,"rental_uris":{"android":"levelo://app?vid=3b3f0a2a-22d6-444e-8b87-6cdd72816354","ios":"levelo://app?vid=3b3f0a2a-22d6-444e-8b87-6cdd72816354"},"vehicle_type_id":"4","last_reported":1726301490,"current_range_meters":36000,"station_id":"ce4bhbp2rcd13ifvqerg","pricing_plan_id":"cebpf4jnsgd1na2vs0mg"},{"bike_id":"c7cd67a6-2f65-43e6-9e58-1489cab32866","system_id":"levelo_inurba_marseille","lat":43.24161,"lon":5.36396,"is_reserved":false,"is_disabled":false,"rental_uris":{"android":"levelo://app?vid=c7cd67a6-2f65-43e6-9e58-1489cab32866","ios":"levelo://app?vid=c7cd67a6-2f65-43e6-9e58-1489cab32866"},"vehicle_type_id":"4","last_reported":1726301490,"current_range_meters":4000,"station_id":"cpo36qri1sfpv3e86is0","pricing_plan_id":"cebpf4jnsgd1na2vs0mg"},{"bike_id":"1378d9b7-aa84-48e9-9c1b-9b129112f4dc","system_id":"levelo_inurba_marseille","lat":43.28616,"lon":5.35103,"is_reserved":false,"is_disabled":false,"rental_uris":{"android":"levelo://app?vid=1378d9b7-aa84-48e9-9c1b-9b129112f4dc","ios":"levelo://app?vid=1378d9b7-aa84-48e9-9c1b-9b129112f4dc"},"vehicle_type_id":"4","last_reported":1726301490,"current_range_meters":30000,"station_id":"ce4bhch2rcd13ifvqeug","pricing_plan_id":"cebpf4jnsgd1na2vs0mg"},{"bike_id":"7b4bfd09-7313-48ea-8d57-c1309f475e90","system_id":"levelo_inurba_marseille","lat":43.26212,"lon":5.37439,"is_reserved":false,"is_disabled":false,"rental_uris":{"android":"levelo://app?vid=7b4bfd09-7313-48ea-8d57-c1309f475e90","ios":"levelo://app?vid=7b4bfd09-7313-48ea-8d57-c1309f475e90"},"vehicle_type_id":"4","last_reported":1726301490,"current_range_meters":38000,"station_id":"ce4bhgp2rcd13ifvqfc0","pricing_plan_id":"cebpf4jnsgd1na2vs0mg"},{"bike_id":"f7388cdc-a195-42df-904e-f042be34cde9","system_id":"levelo_inurba_marseille","lat":43.27315,"lon":5.3908,"is_reserved":false,"is_disabled":false,"rental_uris":{"android":"levelo://app?vid=f7388cdc-a195-42df-904e-f042be34cde9","ios":"levelo://app?vid=f7388cdc-a195-42df-904e-f042be34cde9"},"vehicle_type_id":"4","last_reported":1726301490,"current_range_meters":38800,"station_id":"ce4bhgp2rcd13ifvqfe0","pricing_plan_id":"cebpf4jnsgd1na2vs0mg"},{"bike_id":"30f10b34-b435-4e11-ba78-9c4a2acf8fae","system_id":"levelo_inurba_marseille","lat":43.26946,"lon":5.386251,"is_reserved":false,"is_disabled":false,"rental_uris":{"android":"levelo://app?vid=30f10b34-b435-4e11-ba78-9c4a2acf8fae","ios":"levelo://app?vid=30f10b34-b435-4e11-ba78-9c4a2acf8fae"},"vehicle_type_id":"4","last_reported":1726301490,"current_range_meters":38800,"station_id":"ce4bhh92rcd13ifvqfh0","pricing_plan_id":"cebpf4jnsgd1na2vs0mg"},{"bike_id":"e00d038a-00c7-4258-ab4b-259bdb081cfd","system_id":"levelo_inurba_marseille","lat":43.23197,"lon":5.35541,"is_reserved":false,"is_disabled":false,"rental_uris":{"android":"levelo://app?vid=e00d038a-00c7-4258-ab4b-259bdb081cfd","ios":"levelo://app?vid=e00d038a-00c7-4258-ab4b-259bdb081cfd"},"vehicle_type_id":"4","last_reported":1726301490,"current_range_meters":36800,"station_id":"ce4bhu92rcd13ifvqi70","pricing_plan_id":"cebpf4jnsgd1na2vs0mg"},{"bike_id":"4f847161-8733-40c0-9d1a-924c211b3057","system_id":"levelo_inurba_marseille","lat":43.23194,"lon":5.35551,"is_reserved":false,"is_disabled":false,"rental_uris":{"android":"levelo://app?vid=4f847161-8733-40c0-9d1a-924c211b3057","ios":"levelo://app?vid=4f847161-8733-40c0-9d1a-924c211b3057"},"vehicle_type_id":"4","last_reported":1726301490,"current_range_meters":38000,"station_id":"ce4bhu92rcd13ifvqi70","pricing_plan_id":"cebpf4jnsgd1na2vs0mg"},{"bike_id":"06d53d06-0fc7-4f51-8830-c4692d94f1d0","system_id":"levelo_inurba_marseille","lat":43.29046,"lon":5.35913,"is_reserved":false,"is_disabled":false,"rental_uris":{"android":"levelo://app?vid=06d53d06-0fc7-4f51-8830-c4692d94f1d0","ios":"levelo://app?vid=06d53d06-0fc7-4f51-8830-c4692d94f1d0"},"vehicle_type_id":"4","last_reported":1726301490,"current_range_meters":28800,"station_id":"ce4bha92rcd13ifvqeg0","pricing_plan_id":"cebpf4jnsgd1na2vs0mg"},{"bike_id":"05ed5f33-71e8-43e5-bfe2-b8d2f324e6ff","system_id":"levelo_inurba_marseille","lat":43.27206,"lon":5.39176,"is_reserved":false,"is_disabled":false,"rental_uris":{"android":"levelo://app?vid=05ed5f33-71e8-43e5-bfe2-b8d2f324e6ff","ios":"levelo://app?vid=05ed5f33-71e8-43e5-bfe2-b8d2f324e6ff"},"vehicle_type_id":"4","last_reported":1726301490,"current_range_meters":2800,"station_id":"ce4bhhp2rcd13ifvqfm0","pricing_plan_id":"cebpf4jnsgd1na2vs0mg"},{"bike_id":"8ce4abbe-aae7-434c-b92a-9bec98856472","system_id":"levelo_inurba_marseille","lat":43.25577,"lon":5.38234,"is_reserved":false,"is_disabled":false,"rental_uris":{"android":"levelo://app?vid=8ce4abbe-aae7-434c-b92a-9bec98856472","ios":"levelo://app?vid=8ce4abbe-aae7-434c-b92a-9bec98856472"},"vehicle_type_id":"4","last_reported":1726301490,"current_range_meters":19600,"station_id":"ce4bhih2rcd13ifvqfs0","pricing_plan_id":"cebpf4jnsgd1na2vs0mg"},{"bike_id":"6bd1576a-e467-440f-aff2-c72956e0823a","system_id":"levelo_inurba_marseille","lat":43.30436,"lon":5.3888,"is_reserved":false,"is_disabled":false,"rental_uris":{"android":"levelo://app?vid=6bd1576a-e467-440f-aff2-c72956e0823a","ios":"levelo://app?vid=6bd1576a-e467-440f-aff2-c72956e0823a"},"vehicle_type_id":"4","last_reported":1726301490,"current_range_meters":39200,"station_id":"ce4bgk12rcd13ifvqbi0","pricing_plan_id":"cebpf4jnsgd1na2vs0mg"},{"bike_id":"e49e0e63-4a78-4593-8d17-e59df6861fc6","system_id":"levelo_inurba_marseille","lat":43.23152,"lon":5.43722,"is_reserved":false,"is_disabled":false,"rental_uris":{"android":"levelo://app?vid=e49e0e63-4a78-4593-8d17-e59df6861fc6","ios":"levelo://app?vid=e49e0e63-4a78-4593-8d17-e59df6861fc6"},"vehicle_type_id":"4","last_reported":1726301490,"current_range_meters":39200,"station_id":"ce4bhmp2rcd13ifvqgog","pricing_plan_id":"cebpf4jnsgd1na2vs0mg"},{"bike_id":"9e6b05d9-5b9e-4e8c-a7ed-a6aa23fe9a42","system_id":"levelo_inurba_marseille","lat":43.28608,"lon":5.35096,"is_reserved":false,"is_disabled":false,"rental_uris":{"android":"levelo://app?vid=9e6b05d9-5b9e-4e8c-a7ed-a6aa23fe9a42","ios":"levelo://app?vid=9e6b05d9-5b9e-4e8c-a7ed-a6aa23fe9a42"},"vehicle_type_id":"4","last_reported":1726301490,"current_range_meters":28400,"station_id":"ce4bhch2rcd13ifvqeug","pricing_plan_id":"cebpf4jnsgd1na2vs0mg"},{"bike_id":"7832068e-cb42-4de0-b6b2-e8ebbbbcfb22","system_id":"levelo_inurba_marseille","lat":43.23966,"lon":5.36633,"is_reserved":false,"is_disabled":false,"rental_uris":{"android":"levelo://app?vid=7832068e-cb42-4de0-b6b2-e8ebbbbcfb22","ios":"levelo://app?vid=7832068e-cb42-4de0-b6b2-e8ebbbbcfb22"},"vehicle_type_id":"4","last_reported":1726301490,"current_range_meters":40000,"station_id":"ce4bhi12rcd13ifvqfp0","pricing_plan_id":"cebpf4jnsgd1na2vs0mg"},{"bike_id":"692a548b-dcff-47c3-8de7-2a5894122f3e","system_id":"levelo_inurba_marseille","lat":43.30949,"lon":5.39043,"is_reserved":false,"is_disabled":false,"rental_uris":{"android":"levelo://app?vid=692a548b-dcff-47c3-8de7-2a5894122f3e","ios":"levelo://app?vid=692a548b-dcff-47c3-8de7-2a5894122f3e"},"vehicle_type_id":"4","last_reported":1726301490,"current_range_meters":20800,"station_id":"ce4bgup2rcd13ifvqco0","pricing_plan_id":"cebpf4jnsgd1na2vs0mg"},{"bike_id":"7d61f96e-3af9-4905-8791-7729f86bc4f8","system_id":"levelo_inurba_marseille","lat":43.32479,"lon":5.36569,"is_reserved":false,"is_disabled":false,"rental_uris":{"android":"levelo://app?vid=7d61f96e-3af9-4905-8791-7729f86bc4f8","ios":"levelo://app?vid=7d61f96e-3af9-4905-8791-7729f86bc4f8"},"vehicle_type_id":"4","last_reported":1726301490,"current_range_meters":9600,"station_id":"ce4bhs12rcd13ifvqhvg","pricing_plan_id":"cebpf4jnsgd1na2vs0mg"},{"bike_id":"5f73522a-6d77-4158-aee6-8c14f8a47df1","system_id":"levelo_inurba_marseille","lat":43.25587,"lon":5.38249,"is_reserved":false,"is_disabled":false,"rental_uris":{"android":"levelo://app?vid=5f73522a-6d77-4158-aee6-8c14f8a47df1","ios":"levelo://app?vid=5f73522a-6d77-4158-aee6-8c14f8a47df1"},"vehicle_type_id":"4","last_reported":1726301490,"current_range_meters":26800,"station_id":"ce4bhih2rcd13ifvqfs0","pricing_plan_id":"cebpf4jnsgd1na2vs0mg"},{"bike_id":"7ed87cd5-90a6-49a7-9949-d394b2823404","system_id":"levelo_inurba_marseille","lat":43.27073,"lon":5.42269,"is_reserved":false,"is_disabled":false,"rental_uris":{"android":"levelo://app?vid=7ed87cd5-90a6-49a7-9949-d394b2823404","ios":"levelo://app?vid=7ed87cd5-90a6-49a7-9949-d394b2823404"},"vehicle_type_id":"4","last_reported":1726301490,"current_range_meters":14400,"station_id":"ce4bhk92rcd13ifvqgb0","pricing_plan_id":"cebpf4jnsgd1na2vs0mg"},{"bike_id":"51efaa28-be78-438d-9593-a5c65646c0fd","system_id":"levelo_inurba_marseille","lat":43.25932,"lon":5.40909,"is_reserved":false,"is_disabled":false,"rental_uris":{"android":"levelo://app?vid=51efaa28-be78-438d-9593-a5c65646c0fd","ios":"levelo://app?vid=51efaa28-be78-438d-9593-a5c65646c0fd"},"vehicle_type_id":"4","last_reported":1726301490,"current_range_meters":35600,"station_id":"ce4bhm92rcd13ifvqglg","pricing_plan_id":"cebpf4jnsgd1na2vs0mg"},{"bike_id":"21f1670a-78a5-44cc-b6c0-5152ed0c65f9","system_id":"levelo_inurba_marseille","lat":43.2762,"lon":5.36112,"is_reserved":false,"is_disabled":false,"rental_uris":{"android":"levelo://app?vid=21f1670a-78a5-44cc-b6c0-5152ed0c65f9","ios":"levelo://app?vid=21f1670a-78a5-44cc-b6c0-5152ed0c65f9"},"vehicle_type_id":"4","last_reported":1726301490,"current_range_meters":40000,"station_id":"ce4bgj92rcd13ifvqbe0","pricing_plan_id":"cebpf4jnsgd1na2vs0mg"},{"bike_id":"2dab5e79-19eb-4cde-b219-3fbf7d01979c","system_id":"levelo_inurba_marseille","lat":43.27564,"lon":5.38416,"is_reserved":false,"is_disabled":false,"rental_uris":{"android":"levelo://app?vid=2dab5e79-19eb-4cde-b219-3fbf7d01979c","ios":"levelo://app?vid=2dab5e79-19eb-4cde-b219-3fbf7d01979c"},"vehicle_type_id":"4","last_reported":1726301490,"current_range_meters":38800,"station_id":"ce4bhh92rcd13ifvqfi0","pricing_plan_id":"cebpf4jnsgd1na2vs0mg"},{"bike_id":"39088654-1493-49de-a50e-7af120c7f37c","system_id":"levelo_inurba_marseille","lat":43.2396,"lon":5.3663,"is_reserved":false,"is_disabled":false,"rental_uris":{"android":"levelo://app?vid=39088654-1493-49de-a50e-7af120c7f37c","ios":"levelo://app?vid=39088654-1493-49de-a50e-7af120c7f37c"},"vehicle_type_id":"4","last_reported":1726301490,"current_range_meters":38400,"station_id":"ce4bhi12rcd13ifvqfp0","pricing_plan_id":"cebpf4jnsgd1na2vs0mg"},{"bike_id":"1238613a-5efd-4b1b-b7cc-529d0a2a4cc8","system_id":"levelo_inurba_marseille","lat":43.28374,"lon":5.38637,"is_reserved":false,"is_disabled":false,"rental_uris":{"android":"levelo://app?vid=1238613a-5efd-4b1b-b7cc-529d0a2a4cc8","ios":"levelo://app?vid=1238613a-5efd-4b1b-b7cc-529d0a2a4cc8"},"vehicle_type_id":"4","last_reported":1726301490,"current_range_meters":25200,"station_id":"ce4bh492rcd13ifvqdvg","pricing_plan_id":"cebpf4jnsgd1na2vs0mg"},{"bike_id":"2b516ddd-0555-4101-9164-390b058c5056","system_id":"levelo_inurba_marseille","lat":43.31324,"lon":5.39692,"is_reserved":false,"is_disabled":false,"rental_uris":{"android":"levelo://app?vid=2b516ddd-0555-4101-9164-390b058c5056","ios":"levelo://app?vid=2b516ddd-0555-4101-9164-390b058c5056"},"vehicle_type_id":"4","last_reported":1726301490,"current_range_meters":12400,"station_id":"ce4bgvp2rcd13ifvqcu0","pricing_plan_id":"cebpf4jnsgd1na2vs0mg"},{"bike_id":"c22f6130-70a3-4a4e-ba04-3effe5e8de42","system_id":"levelo_inurba_marseille","lat":43.27528,"lon":5.38943,"is_reserved":false,"is_disabled":false,"rental_uris":{"android":"levelo://app?vid=c22f6130-70a3-4a4e-ba04-3effe5e8de42","ios":"levelo://app?vid=c22f6130-70a3-4a4e-ba04-3effe5e8de42"},"vehicle_type_id":"4","last_reported":1726301490,"current_range_meters":25200,"station_id":"ce4bhgp2rcd13ifvqfe0","pricing_plan_id":"cebpf4jnsgd1na2vs0mg"},{"bike_id":"f1409f60-76f3-4334-898a-55e433cde666","system_id":"levelo_inurba_marseille","lat":43.26644,"lon":5.40181,"is_reserved":false,"is_disabled":false,"rental_uris":{"android":"levelo://app?vid=f1409f60-76f3-4334-898a-55e433cde666","ios":"levelo://app?vid=f1409f60-76f3-4334-898a-55e433cde666"},"vehicle_type_id":"4","last_reported":1726301490,"current_range_meters":34000,"station_id":"","pricing_plan_id":"cebpf4jnsgd1na2vs0mg"},{"bike_id":"2f1b8297-f2a7-4890-9a93-d0cf9b5b0250","system_id":"levelo_inurba_marseille","lat":43.27495,"lon":5.42455,"is_reserved":false,"is_disabled":false,"rental_uris":{"android":"levelo://app?vid=2f1b8297-f2a7-4890-9a93-d0cf9b5b0250","ios":"levelo://app?vid=2f1b8297-f2a7-4890-9a93-d0cf9b5b0250"},"vehicle_type_id":"4","last_reported":1726301490,"current_range_meters":32000,"station_id":"ce4bhn92rcd13ifvqgrg","pricing_plan_id":"cebpf4jnsgd1na2vs0mg"},{"bike_id":"3b04105b-3d4a-4d6b-a0c7-58da2ab327f7","system_id":"levelo_inurba_marseille","lat":43.30145,"lon":5.38074,"is_reserved":false,"is_disabled":false,"rental_uris":{"android":"levelo://app?vid=3b04105b-3d4a-4d6b-a0c7-58da2ab327f7","ios":"levelo://app?vid=3b04105b-3d4a-4d6b-a0c7-58da2ab327f7"},"vehicle_type_id":"4","last_reported":1726301490,"current_range_meters":14400,"station_id":"ce4bgjp2rcd13ifvqbh0","pricing_plan_id":"cebpf4jnsgd1na2vs0mg"},{"bike_id":"de666d0a-b313-4910-91af-07f9e5570437","system_id":"levelo_inurba_marseille","lat":43.27321,"lon":5.39081,"is_reserved":false,"is_disabled":false,"rental_uris":{"android":"levelo://app?vid=de666d0a-b313-4910-91af-07f9e5570437","ios":"levelo://app?vid=de666d0a-b313-4910-91af-07f9e5570437"},"vehicle_type_id":"4","last_reported":1726301490,"current_range_meters":16800,"station_id":"ce4bhgp2rcd13ifvqfe0","pricing_plan_id":"cebpf4jnsgd1na2vs0mg"},{"bike_id":"a412f2b1-eb81-457a-b07e-61f888206107","system_id":"levelo_inurba_marseille","lat":43.30466,"lon":5.37912,"is_reserved":false,"is_disabled":false,"rental_uris":{"android":"levelo://app?vid=a412f2b1-eb81-457a-b07e-61f888206107","ios":"levelo://app?vid=a412f2b1-eb81-457a-b07e-61f888206107"},"vehicle_type_id":"4","last_reported":1726301490,"current_range_meters":36400,"station_id":"ce4bgup2rcd13ifvqcn0","pricing_plan_id":"cebpf4jnsgd1na2vs0mg"},{"bike_id":"75c35499-0de6-41a0-acf5-7c9b58381038","system_id":"levelo_inurba_marseille","lat":43.23184,"lon":5.39984,"is_reserved":false,"is_disabled":false,"rental_uris":{"android":"levelo://app?vid=75c35499-0de6-41a0-acf5-7c9b58381038","ios":"levelo://app?vid=75c35499-0de6-41a0-acf5-7c9b58381038"},"vehicle_type_id":"4","last_reported":1726301490,"current_range_meters":38800,"station_id":"ce4bhn12rcd13ifvqgqg","pricing_plan_id":"cebpf4jnsgd1na2vs0mg"},{"bike_id":"78335331-8ae3-4b52-ad12-1cbc57315bd0","system_id":"levelo_inurba_marseille","lat":43.28274,"lon":5.35067,"is_reserved":false,"is_disabled":false,"rental_uris":{"android":"levelo://app?vid=78335331-8ae3-4b52-ad12-1cbc57315bd0","ios":"levelo://app?vid=78335331-8ae3-4b52-ad12-1cbc57315bd0"},"vehicle_type_id":"4","last_reported":1726301490,"current_range_meters":24800,"station_id":"ce4bhbp2rcd13ifvqerg","pricing_plan_id":"cebpf4jnsgd1na2vs0mg"},{"bike_id":"f639c80c-c834-4cb2-b526-bd4a4414bc5b","system_id":"levelo_inurba_marseille","lat":43.26957,"lon":5.38632,"is_reserved":false,"is_disabled":false,"rental_uris":{"android":"levelo://app?vid=f639c80c-c834-4cb2-b526-bd4a4414bc5b","ios":"levelo://app?vid=f639c80c-c834-4cb2-b526-bd4a4414bc5b"},"vehicle_type_id":"4","last_reported":1726301490,"current_range_meters":32400,"station_id":"ce4bhh92rcd13ifvqfh0","pricing_plan_id":"cebpf4jnsgd1na2vs0mg"},{"bike_id":"883ab9a5-a8ae-4b02-9338-fefbb805e829","system_id":"levelo_inurba_marseille","lat":43.31359,"lon":5.36705,"is_reserved":false,"is_disabled":false,"rental_uris":{"android":"levelo://app?vid=883ab9a5-a8ae-4b02-9338-fefbb805e829","ios":"levelo://app?vid=883ab9a5-a8ae-4b02-9338-fefbb805e829"},"vehicle_type_id":"4","last_reported":1726301490,"current_range_meters":12400,"station_id":"ce4bgr92rcd13ifvqc6g","pricing_plan_id":"cebpf4jnsgd1na2vs0mg"},{"bike_id":"b645ac77-0d58-4fa9-8ad3-947af8bdb1d9","system_id":"levelo_inurba_marseille","lat":43.29902,"lon":5.43658,"is_reserved":false,"is_disabled":false,"rental_uris":{"android":"levelo://app?vid=b645ac77-0d58-4fa9-8ad3-947af8bdb1d9","ios":"levelo://app?vid=b645ac77-0d58-4fa9-8ad3-947af8bdb1d9"},"vehicle_type_id":"4","last_reported":1726301490,"current_range_meters":38400,"station_id":"ce4bhpp2rcd13ifvqhfg","pricing_plan_id":"cebpf4jnsgd1na2vs0mg"},{"bike_id":"91d155a1-0e95-42f4-9cf2-24e586735a13","system_id":"levelo_inurba_marseille","lat":43.33725,"lon":5.39178,"is_reserved":false,"is_disabled":false,"rental_uris":{"android":"levelo://app?vid=91d155a1-0e95-42f4-9cf2-24e586735a13","ios":"levelo://app?vid=91d155a1-0e95-42f4-9cf2-24e586735a13"},"vehicle_type_id":"4","last_reported":1726301490,"current_range_meters":39200,"station_id":"ce4bhr92rcd13ifvqhsg","pricing_plan_id":"cebpf4jnsgd1na2vs0mg"},{"bike_id":"006b4443-3e00-42a1-8883-330c8700c5f7","system_id":"levelo_inurba_marseille","lat":43.31757,"lon":5.39016,"is_reserved":false,"is_disabled":false,"rental_uris":{"android":"levelo://app?vid=006b4443-3e00-42a1-8883-330c8700c5f7","ios":"levelo://app?vid=006b4443-3e00-42a1-8883-330c8700c5f7"},"vehicle_type_id":"4","last_reported":1726301490,"current_range_meters":38400,"station_id":"ce4bhqp2rcd13ifvqhng","pricing_plan_id":"cebpf4jnsgd1na2vs0mg"},{"bike_id":"81ee1b1e-b2d6-4bec-ad52-61cb37bdbb2e","system_id":"levelo_inurba_marseille","lat":43.28711,"lon":5.37943,"is_reserved":false,"is_disabled":false,"rental_uris":{"android":"levelo://app?vid=81ee1b1e-b2d6-4bec-ad52-61cb37bdbb2e","ios":"levelo://app?vid=81ee1b1e-b2d6-4bec-ad52-61cb37bdbb2e"},"vehicle_type_id":"4","last_reported":1726301490,"current_range_meters":36800,"station_id":"ce4bh9p2rcd13ifvqec0","pricing_plan_id":"cebpf4jnsgd1na2vs0mg"},{"bike_id":"204711fb-e15c-43c7-9d9c-bbc1d0d42d99","system_id":"levelo_inurba_marseille","lat":43.30467,"lon":5.37891,"is_reserved":false,"is_disabled":false,"rental_uris":{"android":"levelo://app?vid=204711fb-e15c-43c7-9d9c-bbc1d0d42d99","ios":"levelo://app?vid=204711fb-e15c-43c7-9d9c-bbc1d0d42d99"},"vehicle_type_id":"4","last_reported":1726301490,"current_range_meters":32000,"station_id":"ce4bgup2rcd13ifvqcn0","pricing_plan_id":"cebpf4jnsgd1na2vs0mg"},{"bike_id":"9368e81d-9d41-40d8-9614-e043ff6b63f3","system_id":"levelo_inurba_marseille","lat":43.31361,"lon":5.38492,"is_reserved":false,"is_disabled":false,"rental_uris":{"android":"levelo://app?vid=9368e81d-9d41-40d8-9614-e043ff6b63f3","ios":"levelo://app?vid=9368e81d-9d41-40d8-9614-e043ff6b63f3"},"vehicle_type_id":"4","last_reported":1726301490,"current_range_meters":19200,"station_id":"ce4bgt92rcd13ifvqcf0","pricing_plan_id":"cebpf4jnsgd1na2vs0mg"},{"bike_id":"44023f7c-8753-4d1f-b87d-3c831108799a","system_id":"levelo_inurba_marseille","lat":43.2842,"lon":5.34991,"is_reserved":false,"is_disabled":false,"rental_uris":{"android":"levelo://app?vid=44023f7c-8753-4d1f-b87d-3c831108799a","ios":"levelo://app?vid=44023f7c-8753-4d1f-b87d-3c831108799a"},"vehicle_type_id":"4","last_reported":1726301490,"current_range_meters":31200,"station_id":"ce4bhbh2rcd13ifvqepg","pricing_plan_id":"cebpf4jnsgd1na2vs0mg"},{"bike_id":"a8408bc0-1ad0-4261-92e7-4324637d7c82","system_id":"levelo_inurba_marseille","lat":43.29,"lon":5.35592,"is_reserved":false,"is_disabled":false,"rental_uris":{"android":"levelo://app?vid=a8408bc0-1ad0-4261-92e7-4324637d7c82","ios":"levelo://app?vid=a8408bc0-1ad0-4261-92e7-4324637d7c82"},"vehicle_type_id":"4","last_reported":1726301490,"current_range_meters":38000,"station_id":"ce4bhb92rcd13ifvqen0","pricing_plan_id":"cebpf4jnsgd1na2vs0mg"},{"bike_id":"0d9f035c-8e47-426d-8593-e2bc7f05f235","system_id":"levelo_inurba_marseille","lat":43.3045,"lon":5.36503,"is_reserved":false,"is_disabled":false,"rental_uris":{"android":"levelo://app?vid=0d9f035c-8e47-426d-8593-e2bc7f05f235","ios":"levelo://app?vid=0d9f035c-8e47-426d-8593-e2bc7f05f235"},"vehicle_type_id":"4","last_reported":1726301490,"current_range_meters":11600,"station_id":"","pricing_plan_id":"cebpf4jnsgd1na2vs0mg"},{"bike_id":"25f18187-4b35-4c65-a771-73d737ef7005","system_id":"levelo_inurba_marseille","lat":43.33022,"lon":5.39038,"is_reserved":false,"is_disabled":false,"rental_uris":{"android":"levelo://app?vid=25f18187-4b35-4c65-a771-73d737ef7005","ios":"levelo://app?vid=25f18187-4b35-4c65-a771-73d737ef7005"},"vehicle_type_id":"4","last_reported":1726301490,"current_range_meters":38400,"station_id":"ce4bhr92rcd13ifvqhrg","pricing_plan_id":"cebpf4jnsgd1na2vs0mg"},{"bike_id":"b3f9e9a0-5175-493b-95b9-0c666d52c0bf","system_id":"levelo_inurba_marseille","lat":43.30463,"lon":5.3789,"is_reserved":false,"is_disabled":false,"rental_uris":{"android":"levelo://app?vid=b3f9e9a0-5175-493b-95b9-0c666d52c0bf","ios":"levelo://app?vid=b3f9e9a0-5175-493b-95b9-0c666d52c0bf"},"vehicle_type_id":"4","last_reported":1726301490,"current_range_meters":27200,"station_id":"ce4bgup2rcd13ifvqcn0","pricing_plan_id":"cebpf4jnsgd1na2vs0mg"},{"bike_id":"7740e5ef-e555-42a9-b370-43d6e38180e8","system_id":"levelo_inurba_marseille","lat":43.26686,"lon":5.38276,"is_reserved":false,"is_disabled":false,"rental_uris":{"android":"levelo://app?vid=7740e5ef-e555-42a9-b370-43d6e38180e8","ios":"levelo://app?vid=7740e5ef-e555-42a9-b370-43d6e38180e8"},"vehicle_type_id":"4","last_reported":1726301490,"current_range_meters":35200,"station_id":"ce4bhg92rcd13ifvqf90","pricing_plan_id":"cebpf4jnsgd1na2vs0mg"},{"bike_id":"e61a439f-5d40-4246-ad47-ab8a4d665798","system_id":"levelo_inurba_marseille","lat":43.2762,"lon":5.36114,"is_reserved":false,"is_disabled":false,"rental_uris":{"android":"levelo://app?vid=e61a439f-5d40-4246-ad47-ab8a4d665798","ios":"levelo://app?vid=e61a439f-5d40-4246-ad47-ab8a4d665798"},"vehicle_type_id":"4","last_reported":1726301490,"current_range_meters":40000,"station_id":"ce4bgj92rcd13ifvqbe0","pricing_plan_id":"cebpf4jnsgd1na2vs0mg"},{"bike_id":"10005c25-bdc9-4737-a161-1d7df8b95f68","system_id":"levelo_inurba_marseille","lat":43.30476,"lon":5.37902,"is_reserved":false,"is_disabled":false,"rental_uris":{"android":"levelo://app?vid=10005c25-bdc9-4737-a161-1d7df8b95f68","ios":"levelo://app?vid=10005c25-bdc9-4737-a161-1d7df8b95f68"},"vehicle_type_id":"4","last_reported":1726301490,"current_range_meters":13600,"station_id":"ce4bgup2rcd13ifvqcn0","pricing_plan_id":"cebpf4jnsgd1na2vs0mg"},{"bike_id":"379015fd-3823-4e94-90bd-45a540003dfe","system_id":"levelo_inurba_marseille","lat":43.29039,"lon":5.37579,"is_reserved":false,"is_disabled":false,"rental_uris":{"android":"levelo://app?vid=379015fd-3823-4e94-90bd-45a540003dfe","ios":"levelo://app?vid=379015fd-3823-4e94-90bd-45a540003dfe"},"vehicle_type_id":"4","last_reported":1726301490,"current_range_meters":36400,"station_id":"ce4bh692rcd13ifvqe90","pricing_plan_id":"cebpf4jnsgd1na2vs0mg"},{"bike_id":"f81c9c0a-c2a9-4feb-9288-9725e8c2c56f","system_id":"levelo_inurba_marseille","lat":43.23151,"lon":5.43713,"is_reserved":false,"is_disabled":false,"rental_uris":{"android":"levelo://app?vid=f81c9c0a-c2a9-4feb-9288-9725e8c2c56f","ios":"levelo://app?vid=f81c9c0a-c2a9-4feb-9288-9725e8c2c56f"},"vehicle_type_id":"4","last_reported":1726301490,"current_range_meters":36000,"station_id":"ce4bhmp2rcd13ifvqgog","pricing_plan_id":"cebpf4jnsgd1na2vs0mg"},{"bike_id":"43506a46-fcd3-4fdd-97ba-d6e1989fd8d3","system_id":"levelo_inurba_marseille","lat":43.33757,"lon":5.37443,"is_reserved":false,"is_disabled":false,"rental_uris":{"android":"levelo://app?vid=43506a46-fcd3-4fdd-97ba-d6e1989fd8d3","ios":"levelo://app?vid=43506a46-fcd3-4fdd-97ba-d6e1989fd8d3"},"vehicle_type_id":"4","last_reported":1726301490,"current_range_meters":36800,"station_id":"","pricing_plan_id":"cebpf4jnsgd1na2vs0mg"},{"bike_id":"c72ac2a7-f3b2-41b7-a711-5f1ada1f0541","system_id":"levelo_inurba_marseille","lat":43.29731,"lon":5.37684,"is_reserved":false,"is_disabled":false,"rental_uris":{"android":"levelo://app?vid=c72ac2a7-f3b2-41b7-a711-5f1ada1f0541","ios":"levelo://app?vid=c72ac2a7-f3b2-41b7-a711-5f1ada1f0541"},"vehicle_type_id":"4","last_reported":1726301490,"current_range_meters":6400,"station_id":"ce4bgkh2rcd13ifvqbl0","pricing_plan_id":"cebpf4jnsgd1na2vs0mg"},{"bike_id":"552ccea4-a0ab-4fa2-9015-1ea8da64cd61","system_id":"levelo_inurba_marseille","lat":43.25573,"lon":5.38232,"is_reserved":false,"is_disabled":false,"rental_uris":{"android":"levelo://app?vid=552ccea4-a0ab-4fa2-9015-1ea8da64cd61","ios":"levelo://app?vid=552ccea4-a0ab-4fa2-9015-1ea8da64cd61"},"vehicle_type_id":"4","last_reported":1726301490,"current_range_meters":6400,"station_id":"ce4bhih2rcd13ifvqfs0","pricing_plan_id":"cebpf4jnsgd1na2vs0mg"},{"bike_id":"df8a7d4a-4b44-46db-a163-69740286d1e4","system_id":"levelo_inurba_marseille","lat":43.32657,"lon":5.40989,"is_reserved":false,"is_disabled":false,"rental_uris":{"android":"levelo://app?vid=df8a7d4a-4b44-46db-a163-69740286d1e4","ios":"levelo://app?vid=df8a7d4a-4b44-46db-a163-69740286d1e4"},"vehicle_type_id":"4","last_reported":1726301490,"current_range_meters":38800,"station_id":"ce4bhpp2rcd13ifvqhgg","pricing_plan_id":"cebpf4jnsgd1na2vs0mg"},{"bike_id":"5b15826f-6b1c-4711-acf9-d02d2c6d9dd2","system_id":"levelo_inurba_marseille","lat":43.26195,"lon":5.37449,"is_reserved":false,"is_disabled":false,"rental_uris":{"android":"levelo://app?vid=5b15826f-6b1c-4711-acf9-d02d2c6d9dd2","ios":"levelo://app?vid=5b15826f-6b1c-4711-acf9-d02d2c6d9dd2"},"vehicle_type_id":"4","last_reported":1726301490,"current_range_meters":20000,"station_id":"ce4bhgp2rcd13ifvqfc0","pricing_plan_id":"cebpf4jnsgd1na2vs0mg"},{"bike_id":"262907ac-79dd-4a13-b6e2-591b1cc219dc","system_id":"levelo_inurba_marseille","lat":43.31178,"lon":5.38703,"is_reserved":false,"is_disabled":false,"rental_uris":{"android":"levelo://app?vid=262907ac-79dd-4a13-b6e2-591b1cc219dc","ios":"levelo://app?vid=262907ac-79dd-4a13-b6e2-591b1cc219dc"},"vehicle_type_id":"4","last_reported":1726301490,"current_range_meters":39200,"station_id":"ce4bgv12rcd13ifvqcp0","pricing_plan_id":"cebpf4jnsgd1na2vs0mg"},{"bike_id":"7ce34b7b-e6b0-4356-8d51-c03590714b37","system_id":"levelo_inurba_marseille","lat":43.24645,"lon":5.38903,"is_reserved":false,"is_disabled":false,"rental_uris":{"android":"levelo://app?vid=7ce34b7b-e6b0-4356-8d51-c03590714b37","ios":"levelo://app?vid=7ce34b7b-e6b0-4356-8d51-c03590714b37"},"vehicle_type_id":"4","last_reported":1726301490,"current_range_meters":38800,"station_id":"ce4bhg12rcd13ifvqf60","pricing_plan_id":"cebpf4jnsgd1na2vs0mg"},{"bike_id":"ce70a22a-06ed-4f56-a13f-4b01cff9a4e7","system_id":"levelo_inurba_marseille","lat":43.30802,"lon":5.43517,"is_reserved":false,"is_disabled":false,"rental_uris":{"android":"levelo://app?vid=ce70a22a-06ed-4f56-a13f-4b01cff9a4e7","ios":"levelo://app?vid=ce70a22a-06ed-4f56-a13f-4b01cff9a4e7"},"vehicle_type_id":"4","last_reported":1726301490,"current_range_meters":38800,"station_id":"ce4bhph2rcd13ifvqheg","pricing_plan_id":"cebpf4jnsgd1na2vs0mg"},{"bike_id":"3275e4b1-5584-4c59-b3d9-e163da6a34fe","system_id":"levelo_inurba_marseille","lat":43.24669,"lon":5.38175,"is_reserved":false,"is_disabled":false,"rental_uris":{"android":"levelo://app?vid=3275e4b1-5584-4c59-b3d9-e163da6a34fe","ios":"levelo://app?vid=3275e4b1-5584-4c59-b3d9-e163da6a34fe"},"vehicle_type_id":"4","last_reported":1726301490,"current_range_meters":6400,"station_id":"ce4bhih2rcd13ifvqfr0","pricing_plan_id":"cebpf4jnsgd1na2vs0mg"},{"bike_id":"1bf0db5f-5142-4765-b21d-727dad3862a8","system_id":"levelo_inurba_marseille","lat":43.32477,"lon":5.36575,"is_reserved":false,"is_disabled":false,"rental_uris":{"android":"levelo://app?vid=1bf0db5f-5142-4765-b21d-727dad3862a8","ios":"levelo://app?vid=1bf0db5f-5142-4765-b21d-727dad3862a8"},"vehicle_type_id":"4","last_reported":1726301490,"current_range_meters":38400,"station_id":"ce4bhs12rcd13ifvqhvg","pricing_plan_id":"cebpf4jnsgd1na2vs0mg"},{"bike_id":"9cf3c1ee-0ab0-444b-8d96-dcac97f9779f","system_id":"levelo_inurba_marseille","lat":43.28161,"lon":5.42648,"is_reserved":false,"is_disabled":false,"rental_uris":{"android":"levelo://app?vid=9cf3c1ee-0ab0-444b-8d96-dcac97f9779f","ios":"levelo://app?vid=9cf3c1ee-0ab0-444b-8d96-dcac97f9779f"},"vehicle_type_id":"4","last_reported":1726301490,"current_range_meters":30800,"station_id":"ce4bhnh2rcd13ifvqgug","pricing_plan_id":"cebpf4jnsgd1na2vs0mg"},{"bike_id":"53a2d874-293d-47cc-bdbd-a03b3468623b","system_id":"levelo_inurba_marseille","lat":43.29901,"lon":5.43674,"is_reserved":false,"is_disabled":false,"rental_uris":{"android":"levelo://app?vid=53a2d874-293d-47cc-bdbd-a03b3468623b","ios":"levelo://app?vid=53a2d874-293d-47cc-bdbd-a03b3468623b"},"vehicle_type_id":"4","last_reported":1726301490,"current_range_meters":9600,"station_id":"ce4bhpp2rcd13ifvqhfg","pricing_plan_id":"cebpf4jnsgd1na2vs0mg"},{"bike_id":"065a98fa-20c9-4d24-8d65-837984781637","system_id":"levelo_inurba_marseille","lat":43.29272,"lon":5.3684,"is_reserved":false,"is_disabled":false,"rental_uris":{"android":"levelo://app?vid=065a98fa-20c9-4d24-8d65-837984781637","ios":"levelo://app?vid=065a98fa-20c9-4d24-8d65-837984781637"},"vehicle_type_id":"4","last_reported":1726301490,"current_range_meters":34800,"station_id":"ce4bhbp2rcd13ifvqesg","pricing_plan_id":"cebpf4jnsgd1na2vs0mg"},{"bike_id":"4c0c95ef-c0dc-4e20-9068-33b7a6f88109","system_id":"levelo_inurba_marseille","lat":43.27315,"lon":5.39069,"is_reserved":false,"is_disabled":false,"rental_uris":{"android":"levelo://app?vid=4c0c95ef-c0dc-4e20-9068-33b7a6f88109","ios":"levelo://app?vid=4c0c95ef-c0dc-4e20-9068-33b7a6f88109"},"vehicle_type_id":"4","last_reported":1726301490,"current_range_meters":27600,"station_id":"ce4bhgp2rcd13ifvqfe0","pricing_plan_id":"cebpf4jnsgd1na2vs0mg"},{"bike_id":"3d26956e-72be-40c3-bbf7-13a2b1063de7","system_id":"levelo_inurba_marseille","lat":43.29379,"lon":5.37822,"is_reserved":false,"is_disabled":false,"rental_uris":{"android":"levelo://app?vid=3d26956e-72be-40c3-bbf7-13a2b1063de7","ios":"levelo://app?vid=3d26956e-72be-40c3-bbf7-13a2b1063de7"},"vehicle_type_id":"4","last_reported":1726301490,"current_range_meters":7200,"station_id":"ce4bgjh2rcd13ifvqbf0","pricing_plan_id":"cebpf4jnsgd1na2vs0mg"},{"bike_id":"bb7acf50-b6bc-4b2d-adf4-833abc23b24c","system_id":"levelo_inurba_marseille","lat":43.23196,"lon":5.35541,"is_reserved":false,"is_disabled":false,"rental_uris":{"android":"levelo://app?vid=bb7acf50-b6bc-4b2d-adf4-833abc23b24c","ios":"levelo://app?vid=bb7acf50-b6bc-4b2d-adf4-833abc23b24c"},"vehicle_type_id":"4","last_reported":1726301490,"current_range_meters":39200,"station_id":"ce4bhu92rcd13ifvqi70","pricing_plan_id":"cebpf4jnsgd1na2vs0mg"},{"bike_id":"3c367490-c052-4643-aa50-2d8b6b42076e","system_id":"levelo_inurba_marseille","lat":43.28495,"lon":5.38583,"is_reserved":false,"is_disabled":false,"rental_uris":{"android":"levelo://app?vid=3c367490-c052-4643-aa50-2d8b6b42076e","ios":"levelo://app?vid=3c367490-c052-4643-aa50-2d8b6b42076e"},"vehicle_type_id":"4","last_reported":1726301490,"current_range_meters":31200,"station_id":"ce4bh8p2rcd13ifvqeb0","pricing_plan_id":"cebpf4jnsgd1na2vs0mg"},{"bike_id":"bc8be1fd-7bee-49c5-817c-184bdd69b536","system_id":"levelo_inurba_marseille","lat":43.27374,"lon":5.41942,"is_reserved":false,"is_disabled":false,"rental_uris":{"android":"levelo://app?vid=bc8be1fd-7bee-49c5-817c-184bdd69b536","ios":"levelo://app?vid=bc8be1fd-7bee-49c5-817c-184bdd69b536"},"vehicle_type_id":"4","last_reported":1726301490,"current_range_meters":26800,"station_id":"","pricing_plan_id":"cebpf4jnsgd1na2vs0mg"},{"bike_id":"12edca80-4470-4a5b-903b-dc7b60e8cb16","system_id":"levelo_inurba_marseille","lat":43.29363,"lon":5.3786,"is_reserved":false,"is_disabled":false,"rental_uris":{"android":"levelo://app?vid=12edca80-4470-4a5b-903b-dc7b60e8cb16","ios":"levelo://app?vid=12edca80-4470-4a5b-903b-dc7b60e8cb16"},"vehicle_type_id":"4","last_reported":1726301490,"current_range_meters":11600,"station_id":"ce4bgjh2rcd13ifvqbf0","pricing_plan_id":"cebpf4jnsgd1na2vs0mg"},{"bike_id":"36ab6ace-25e4-4339-873e-36fdd57e8fa0","system_id":"levelo_inurba_marseille","lat":43.311719,"lon":5.387059,"is_reserved":false,"is_disabled":false,"rental_uris":{"android":"levelo://app?vid=36ab6ace-25e4-4339-873e-36fdd57e8fa0","ios":"levelo://app?vid=36ab6ace-25e4-4339-873e-36fdd57e8fa0"},"vehicle_type_id":"4","last_reported":1726301490,"current_range_meters":32400,"station_id":"ce4bgv12rcd13ifvqcp0","pricing_plan_id":"cebpf4jnsgd1na2vs0mg"},{"bike_id":"67d15022-cd3b-48b5-ba3a-7d7504290205","system_id":"levelo_inurba_marseille","lat":43.31118,"lon":5.37768,"is_reserved":false,"is_disabled":false,"rental_uris":{"android":"levelo://app?vid=67d15022-cd3b-48b5-ba3a-7d7504290205","ios":"levelo://app?vid=67d15022-cd3b-48b5-ba3a-7d7504290205"},"vehicle_type_id":"4","last_reported":1726301490,"current_range_meters":17600,"station_id":"ce4bgt92rcd13ifvqcg0","pricing_plan_id":"cebpf4jnsgd1na2vs0mg"},{"bike_id":"7fbd8ae6-8ec3-4847-ae9a-efa6f64b7a5b","system_id":"levelo_inurba_marseille","lat":43.29172,"lon":5.37162,"is_reserved":false,"is_disabled":false,"rental_uris":{"android":"levelo://app?vid=7fbd8ae6-8ec3-4847-ae9a-efa6f64b7a5b","ios":"levelo://app?vid=7fbd8ae6-8ec3-4847-ae9a-efa6f64b7a5b"},"vehicle_type_id":"4","last_reported":1726301490,"current_range_meters":16400,"station_id":"ce4bha92rcd13ifvqeh0","pricing_plan_id":"cebpf4jnsgd1na2vs0mg"},{"bike_id":"d008cb99-abde-452f-827e-8789eee7795a","system_id":"levelo_inurba_marseille","lat":43.2718,"lon":5.4099,"is_reserved":false,"is_disabled":false,"rental_uris":{"android":"levelo://app?vid=d008cb99-abde-452f-827e-8789eee7795a","ios":"levelo://app?vid=d008cb99-abde-452f-827e-8789eee7795a"},"vehicle_type_id":"4","last_reported":1726301490,"current_range_meters":40000,"station_id":"ce4bhl12rcd13ifvqgf0","pricing_plan_id":"cebpf4jnsgd1na2vs0mg"},{"bike_id":"eb15be0f-7f0f-4a59-937d-19853abd0e56","system_id":"levelo_inurba_marseille","lat":43.30469,"lon":5.37898,"is_reserved":false,"is_disabled":false,"rental_uris":{"android":"levelo://app?vid=eb15be0f-7f0f-4a59-937d-19853abd0e56","ios":"levelo://app?vid=eb15be0f-7f0f-4a59-937d-19853abd0e56"},"vehicle_type_id":"4","last_reported":1726301490,"current_range_meters":23200,"station_id":"ce4bgup2rcd13ifvqcn0","pricing_plan_id":"cebpf4jnsgd1na2vs0mg"},{"bike_id":"a7c073e8-abf2-45ba-a8d8-a41032846ab2","system_id":"levelo_inurba_marseille","lat":43.29598,"lon":5.38095,"is_reserved":false,"is_disabled":false,"rental_uris":{"android":"levelo://app?vid=a7c073e8-abf2-45ba-a8d8-a41032846ab2","ios":"levelo://app?vid=a7c073e8-abf2-45ba-a8d8-a41032846ab2"},"vehicle_type_id":"4","last_reported":1726301490,"current_range_meters":30800,"station_id":"ce4bgl12rcd13ifvqbo0","pricing_plan_id":"cebpf4jnsgd1na2vs0mg"},{"bike_id":"712e9c98-670a-464a-8a03-a9871872575f","system_id":"levelo_inurba_marseille","lat":43.29367,"lon":5.37845,"is_reserved":false,"is_disabled":false,"rental_uris":{"android":"levelo://app?vid=712e9c98-670a-464a-8a03-a9871872575f","ios":"levelo://app?vid=712e9c98-670a-464a-8a03-a9871872575f"},"vehicle_type_id":"4","last_reported":1726301490,"current_range_meters":38400,"station_id":"ce4bgjh2rcd13ifvqbf0","pricing_plan_id":"cebpf4jnsgd1na2vs0mg"},{"bike_id":"a556139b-e56c-479b-b4cc-03b2112f3a29","system_id":"levelo_inurba_marseille","lat":43.28078,"lon":5.39652,"is_reserved":false,"is_disabled":false,"rental_uris":{"android":"levelo://app?vid=a556139b-e56c-479b-b4cc-03b2112f3a29","ios":"levelo://app?vid=a556139b-e56c-479b-b4cc-03b2112f3a29"},"vehicle_type_id":"4","last_reported":1726301490,"current_range_meters":8000,"station_id":"ce4bho12rcd13ifvqh2g","pricing_plan_id":"cebpf4jnsgd1na2vs0mg"},{"bike_id":"81f1a965-ff8b-4d74-9682-ff18567684f9","system_id":"levelo_inurba_marseille","lat":43.33016,"lon":5.39036,"is_reserved":false,"is_disabled":false,"rental_uris":{"android":"levelo://app?vid=81f1a965-ff8b-4d74-9682-ff18567684f9","ios":"levelo://app?vid=81f1a965-ff8b-4d74-9682-ff18567684f9"},"vehicle_type_id":"4","last_reported":1726301490,"current_range_meters":38000,"station_id":"ce4bhr92rcd13ifvqhrg","pricing_plan_id":"cebpf4jnsgd1na2vs0mg"},{"bike_id":"b6a5802b-4786-42a9-9b22-5e0b280071e6","system_id":"levelo_inurba_marseille","lat":43.30495,"lon":5.36806,"is_reserved":false,"is_disabled":false,"rental_uris":{"android":"levelo://app?vid=b6a5802b-4786-42a9-9b22-5e0b280071e6","ios":"levelo://app?vid=b6a5802b-4786-42a9-9b22-5e0b280071e6"},"vehicle_type_id":"4","last_reported":1726301490,"current_range_meters":21600,"station_id":"","pricing_plan_id":"cebpf4jnsgd1na2vs0mg"},{"bike_id":"ecc7e141-2cdb-45b9-a9ed-ccb2f5af2701","system_id":"levelo_inurba_marseille","lat":43.2695,"lon":5.38639,"is_reserved":false,"is_disabled":false,"rental_uris":{"android":"levelo://app?vid=ecc7e141-2cdb-45b9-a9ed-ccb2f5af2701","ios":"levelo://app?vid=ecc7e141-2cdb-45b9-a9ed-ccb2f5af2701"},"vehicle_type_id":"4","last_reported":1726301490,"current_range_meters":32000,"station_id":"ce4bhh92rcd13ifvqfh0","pricing_plan_id":"cebpf4jnsgd1na2vs0mg"},{"bike_id":"c28ff0f1-1713-431a-bccf-4e7a21e8e39b","system_id":"levelo_inurba_marseille","lat":43.25501,"lon":5.37654,"is_reserved":false,"is_disabled":false,"rental_uris":{"android":"levelo://app?vid=c28ff0f1-1713-431a-bccf-4e7a21e8e39b","ios":"levelo://app?vid=c28ff0f1-1713-431a-bccf-4e7a21e8e39b"},"vehicle_type_id":"4","last_reported":1726301490,"current_range_meters":39200,"station_id":"ce4bhh12rcd13ifvqff0","pricing_plan_id":"cebpf4jnsgd1na2vs0mg"},{"bike_id":"1c543642-8a7c-42ea-9f42-804d0c6e3363","system_id":"levelo_inurba_marseille","lat":43.29985,"lon":5.37195,"is_reserved":false,"is_disabled":false,"rental_uris":{"android":"levelo://app?vid=1c543642-8a7c-42ea-9f42-804d0c6e3363","ios":"levelo://app?vid=1c543642-8a7c-42ea-9f42-804d0c6e3363"},"vehicle_type_id":"4","last_reported":1726301490,"current_range_meters":3200,"station_id":"ce4bgr92rcd13ifvqc7g","pricing_plan_id":"cebpf4jnsgd1na2vs0mg"},{"bike_id":"d63b08fd-7716-422a-94e4-8f1dfff5bb11","system_id":"levelo_inurba_marseille","lat":43.28616,"lon":5.35101,"is_reserved":false,"is_disabled":false,"rental_uris":{"android":"levelo://app?vid=d63b08fd-7716-422a-94e4-8f1dfff5bb11","ios":"levelo://app?vid=d63b08fd-7716-422a-94e4-8f1dfff5bb11"},"vehicle_type_id":"4","last_reported":1726301490,"current_range_meters":36400,"station_id":"ce4bhch2rcd13ifvqeug","pricing_plan_id":"cebpf4jnsgd1na2vs0mg"},{"bike_id":"ec70d30b-37ec-4b5c-b10c-9617e30c7fa0","system_id":"levelo_inurba_marseille","lat":43.29897,"lon":5.36622,"is_reserved":false,"is_disabled":false,"rental_uris":{"android":"levelo://app?vid=ec70d30b-37ec-4b5c-b10c-9617e30c7fa0","ios":"levelo://app?vid=ec70d30b-37ec-4b5c-b10c-9617e30c7fa0"},"vehicle_type_id":"4","last_reported":1726301490,"current_range_meters":12800,"station_id":"","pricing_plan_id":"cebpf4jnsgd1na2vs0mg"},{"bike_id":"c14b51b2-bf43-4357-aae5-c79ce5284397","system_id":"levelo_inurba_marseille","lat":43.29614,"lon":5.37721,"is_reserved":false,"is_disabled":false,"rental_uris":{"android":"levelo://app?vid=c14b51b2-bf43-4357-aae5-c79ce5284397","ios":"levelo://app?vid=c14b51b2-bf43-4357-aae5-c79ce5284397"},"vehicle_type_id":"4","last_reported":1726301490,"current_range_meters":24800,"station_id":"ce4bgi92rcd13ifvqb90","pricing_plan_id":"cebpf4jnsgd1na2vs0mg"},{"bike_id":"6f385b7a-33fd-4324-ae34-e76ab80158d0","system_id":"levelo_inurba_marseille","lat":43.30322,"lon":5.40433,"is_reserved":false,"is_disabled":false,"rental_uris":{"android":"levelo://app?vid=6f385b7a-33fd-4324-ae34-e76ab80158d0","ios":"levelo://app?vid=6f385b7a-33fd-4324-ae34-e76ab80158d0"},"vehicle_type_id":"4","last_reported":1726301490,"current_range_meters":37600,"station_id":"ce4bh012rcd13ifvqd10","pricing_plan_id":"cebpf4jnsgd1na2vs0mg"},{"bike_id":"026a8105-a313-4bd8-96fb-a8d6d1b140a9","system_id":"levelo_inurba_marseille","lat":43.23194,"lon":5.35549,"is_reserved":false,"is_disabled":false,"rental_uris":{"android":"levelo://app?vid=026a8105-a313-4bd8-96fb-a8d6d1b140a9","ios":"levelo://app?vid=026a8105-a313-4bd8-96fb-a8d6d1b140a9"},"vehicle_type_id":"4","last_reported":1726301490,"current_range_meters":38400,"station_id":"ce4bhu92rcd13ifvqi70","pricing_plan_id":"cebpf4jnsgd1na2vs0mg"},{"bike_id":"f7895c69-0c82-4105-9f66-dc2416af2f55","system_id":"levelo_inurba_marseille","lat":43.25489,"lon":5.37646,"is_reserved":false,"is_disabled":false,"rental_uris":{"android":"levelo://app?vid=f7895c69-0c82-4105-9f66-dc2416af2f55","ios":"levelo://app?vid=f7895c69-0c82-4105-9f66-dc2416af2f55"},"vehicle_type_id":"4","last_reported":1726301490,"current_range_meters":24800,"station_id":"ce4bhh12rcd13ifvqff0","pricing_plan_id":"cebpf4jnsgd1na2vs0mg"},{"bike_id":"0e7e1069-5070-4309-af57-4745d796fe4b","system_id":"levelo_inurba_marseille","lat":43.28935,"lon":5.36387,"is_reserved":false,"is_disabled":false,"rental_uris":{"android":"levelo://app?vid=0e7e1069-5070-4309-af57-4745d796fe4b","ios":"levelo://app?vid=0e7e1069-5070-4309-af57-4745d796fe4b"},"vehicle_type_id":"4","last_reported":1726301490,"current_range_meters":38000,"station_id":"ce4bhc92rcd13ifvqetg","pricing_plan_id":"cebpf4jnsgd1na2vs0mg"},{"bike_id":"2b1d1d87-754b-4746-8040-b7847974e140","system_id":"levelo_inurba_marseille","lat":43.27497,"lon":5.42458,"is_reserved":false,"is_disabled":false,"rental_uris":{"android":"levelo://app?vid=2b1d1d87-754b-4746-8040-b7847974e140","ios":"levelo://app?vid=2b1d1d87-754b-4746-8040-b7847974e140"},"vehicle_type_id":"4","last_reported":1726301490,"current_range_meters":38800,"station_id":"ce4bhn92rcd13ifvqgrg","pricing_plan_id":"cebpf4jnsgd1na2vs0mg"},{"bike_id":"7071bdd5-b66d-4e42-a525-24672a3b98e1","system_id":"levelo_inurba_marseille","lat":43.25003,"lon":5.38921,"is_reserved":false,"is_disabled":false,"rental_uris":{"android":"levelo://app?vid=7071bdd5-b66d-4e42-a525-24672a3b98e1","ios":"levelo://app?vid=7071bdd5-b66d-4e42-a525-24672a3b98e1"},"vehicle_type_id":"4","last_reported":1726301490,"current_range_meters":38000,"station_id":"ce4bhgp2rcd13ifvqfd0","pricing_plan_id":"cebpf4jnsgd1na2vs0mg"},{"bike_id":"9378e46c-90ff-48e5-9112-f5aafd156a5f","system_id":"levelo_inurba_marseille","lat":43.29554,"lon":5.42276,"is_reserved":false,"is_disabled":false,"rental_uris":{"android":"levelo://app?vid=9378e46c-90ff-48e5-9112-f5aafd156a5f","ios":"levelo://app?vid=9378e46c-90ff-48e5-9112-f5aafd156a5f"},"vehicle_type_id":"4","last_reported":1726301490,"current_range_meters":26000,"station_id":"ce4bhph2rcd13ifvqhdg","pricing_plan_id":"cebpf4jnsgd1na2vs0mg"},{"bike_id":"3177e633-0fd8-43af-996d-3a14d65969e6","system_id":"levelo_inurba_marseille","lat":43.32656,"lon":5.40988,"is_reserved":false,"is_disabled":false,"rental_uris":{"android":"levelo://app?vid=3177e633-0fd8-43af-996d-3a14d65969e6","ios":"levelo://app?vid=3177e633-0fd8-43af-996d-3a14d65969e6"},"vehicle_type_id":"4","last_reported":1726301490,"current_range_meters":37600,"station_id":"ce4bhpp2rcd13ifvqhgg","pricing_plan_id":"cebpf4jnsgd1na2vs0mg"},{"bike_id":"262b428f-9fd0-433c-8eac-d91bc65b2aa3","system_id":"levelo_inurba_marseille","lat":43.27966,"lon":5.38691,"is_reserved":false,"is_disabled":false,"rental_uris":{"android":"levelo://app?vid=262b428f-9fd0-433c-8eac-d91bc65b2aa3","ios":"levelo://app?vid=262b428f-9fd0-433c-8eac-d91bc65b2aa3"},"vehicle_type_id":"4","last_reported":1726301490,"current_range_meters":17600,"station_id":"ce4bhg12rcd13ifvqf80","pricing_plan_id":"cebpf4jnsgd1na2vs0mg"},{"bike_id":"51b93f73-c647-4dd9-b993-0e72de9b0462","system_id":"levelo_inurba_marseille","lat":43.28296,"lon":5.3907,"is_reserved":false,"is_disabled":false,"rental_uris":{"android":"levelo://app?vid=51b93f73-c647-4dd9-b993-0e72de9b0462","ios":"levelo://app?vid=51b93f73-c647-4dd9-b993-0e72de9b0462"},"vehicle_type_id":"4","last_reported":1726301490,"current_range_meters":29600,"station_id":"","pricing_plan_id":"cebpf4jnsgd1na2vs0mg"},{"bike_id":"0d9165e0-2194-4af5-90bc-3310ed867bae","system_id":"levelo_inurba_marseille","lat":43.30294,"lon":5.39702,"is_reserved":false,"is_disabled":false,"rental_uris":{"android":"levelo://app?vid=0d9165e0-2194-4af5-90bc-3310ed867bae","ios":"levelo://app?vid=0d9165e0-2194-4af5-90bc-3310ed867bae"},"vehicle_type_id":"4","last_reported":1726301490,"current_range_meters":34800,"station_id":"ce4bh012rcd13ifvqcv0","pricing_plan_id":"cebpf4jnsgd1na2vs0mg"},{"bike_id":"543aebdf-cbcf-41fb-a4ea-ddb226149522","system_id":"levelo_inurba_marseille","lat":43.30427,"lon":5.397464,"is_reserved":false,"is_disabled":false,"rental_uris":{"android":"levelo://app?vid=543aebdf-cbcf-41fb-a4ea-ddb226149522","ios":"levelo://app?vid=543aebdf-cbcf-41fb-a4ea-ddb226149522"},"vehicle_type_id":"4","last_reported":1726301490,"current_range_meters":36000,"station_id":"ce4bh092rcd13ifvqd20","pricing_plan_id":"cebpf4jnsgd1na2vs0mg"},{"bike_id":"1a4afac7-4f04-413e-8457-62d98bd42198","system_id":"levelo_inurba_marseille","lat":43.28153,"lon":5.42639,"is_reserved":false,"is_disabled":false,"rental_uris":{"android":"levelo://app?vid=1a4afac7-4f04-413e-8457-62d98bd42198","ios":"levelo://app?vid=1a4afac7-4f04-413e-8457-62d98bd42198"},"vehicle_type_id":"4","last_reported":1726301490,"current_range_meters":10000,"station_id":"ce4bhnh2rcd13ifvqgug","pricing_plan_id":"cebpf4jnsgd1na2vs0mg"},{"bike_id":"61e02451-64ed-4a4a-8622-38bfb0000cbe","system_id":"levelo_inurba_marseille","lat":43.29957,"lon":5.37165,"is_reserved":false,"is_disabled":false,"rental_uris":{"android":"levelo://app?vid=61e02451-64ed-4a4a-8622-38bfb0000cbe","ios":"levelo://app?vid=61e02451-64ed-4a4a-8622-38bfb0000cbe"},"vehicle_type_id":"4","last_reported":1726301490,"current_range_meters":2800,"station_id":"ce4bgr92rcd13ifvqc7g","pricing_plan_id":"cebpf4jnsgd1na2vs0mg"},{"bike_id":"c0eddc7a-23ca-409a-b561-9bdea12fe2c3","system_id":"levelo_inurba_marseille","lat":43.27613,"lon":5.36106,"is_reserved":false,"is_disabled":false,"rental_uris":{"android":"levelo://app?vid=c0eddc7a-23ca-409a-b561-9bdea12fe2c3","ios":"levelo://app?vid=c0eddc7a-23ca-409a-b561-9bdea12fe2c3"},"vehicle_type_id":"4","last_reported":1726301490,"current_range_meters":32400,"station_id":"ce4bgj92rcd13ifvqbe0","pricing_plan_id":"cebpf4jnsgd1na2vs0mg"},{"bike_id":"e6591df9-968c-4330-8ba1-70756b51f761","system_id":"levelo_inurba_marseille","lat":43.26504,"lon":5.39542,"is_reserved":false,"is_disabled":false,"rental_uris":{"android":"levelo://app?vid=e6591df9-968c-4330-8ba1-70756b51f761","ios":"levelo://app?vid=e6591df9-968c-4330-8ba1-70756b51f761"},"vehicle_type_id":"4","last_reported":1726301490,"current_range_meters":36000,"station_id":"ce4bhi12rcd13ifvqfq0","pricing_plan_id":"cebpf4jnsgd1na2vs0mg"},{"bike_id":"1ce1a3b3-f7f2-410f-98d4-830aecf01150","system_id":"levelo_inurba_marseille","lat":43.288208,"lon":5.379224,"is_reserved":false,"is_disabled":false,"rental_uris":{"android":"levelo://app?vid=1ce1a3b3-f7f2-410f-98d4-830aecf01150","ios":"levelo://app?vid=1ce1a3b3-f7f2-410f-98d4-830aecf01150"},"vehicle_type_id":"4","last_reported":1726301490,"current_range_meters":24400,"station_id":"","pricing_plan_id":"cebpf4jnsgd1na2vs0mg"},{"bike_id":"fad44c77-9d1c-4f27-92c0-da8fa340d40b","system_id":"levelo_inurba_marseille","lat":43.30279,"lon":5.37695,"is_reserved":false,"is_disabled":false,"rental_uris":{"android":"levelo://app?vid=fad44c77-9d1c-4f27-92c0-da8fa340d40b","ios":"levelo://app?vid=fad44c77-9d1c-4f27-92c0-da8fa340d40b"},"vehicle_type_id":"4","last_reported":1726301490,"current_range_meters":32000,"station_id":"ce4bguh2rcd13ifvqcj0","pricing_plan_id":"cebpf4jnsgd1na2vs0mg"},{"bike_id":"31190d1b-410f-42b9-bc3c-43e52fb041c0","system_id":"levelo_inurba_marseille","lat":43.30471,"lon":5.37893,"is_reserved":false,"is_disabled":false,"rental_uris":{"android":"levelo://app?vid=31190d1b-410f-42b9-bc3c-43e52fb041c0","ios":"levelo://app?vid=31190d1b-410f-42b9-bc3c-43e52fb041c0"},"vehicle_type_id":"4","last_reported":1726301490,"current_range_meters":32800,"station_id":"ce4bgup2rcd13ifvqcn0","pricing_plan_id":"cebpf4jnsgd1na2vs0mg"},{"bike_id":"67950061-e447-4497-b15e-bc5c5ee0128e","system_id":"levelo_inurba_marseille","lat":43.24806,"lon":5.37451,"is_reserved":false,"is_disabled":false,"rental_uris":{"android":"levelo://app?vid=67950061-e447-4497-b15e-bc5c5ee0128e","ios":"levelo://app?vid=67950061-e447-4497-b15e-bc5c5ee0128e"},"vehicle_type_id":"4","last_reported":1726301490,"current_range_meters":18000,"station_id":"ce4bhgh2rcd13ifvqfb0","pricing_plan_id":"cebpf4jnsgd1na2vs0mg"},{"bike_id":"1e9ab519-e28c-400f-aecb-cbc58f39def2","system_id":"levelo_inurba_marseille","lat":43.29785,"lon":5.37883,"is_reserved":false,"is_disabled":false,"rental_uris":{"android":"levelo://app?vid=1e9ab519-e28c-400f-aecb-cbc58f39def2","ios":"levelo://app?vid=1e9ab519-e28c-400f-aecb-cbc58f39def2"},"vehicle_type_id":"4","last_reported":1726301490,"current_range_meters":4000,"station_id":"","pricing_plan_id":"cebpf4jnsgd1na2vs0mg"},{"bike_id":"d09aedb3-0212-456b-a0d7-0a019f75665d","system_id":"levelo_inurba_marseille","lat":43.23153,"lon":5.43702,"is_reserved":false,"is_disabled":false,"rental_uris":{"android":"levelo://app?vid=d09aedb3-0212-456b-a0d7-0a019f75665d","ios":"levelo://app?vid=d09aedb3-0212-456b-a0d7-0a019f75665d"},"vehicle_type_id":"4","last_reported":1726301490,"current_range_meters":38800,"station_id":"ce4bhmp2rcd13ifvqgog","pricing_plan_id":"cebpf4jnsgd1na2vs0mg"},{"bike_id":"b2e3c13f-e5d7-4801-ae89-c6a149b3cd8b","system_id":"levelo_inurba_marseille","lat":43.24083,"lon":5.37726,"is_reserved":false,"is_disabled":false,"rental_uris":{"android":"levelo://app?vid=b2e3c13f-e5d7-4801-ae89-c6a149b3cd8b","ios":"levelo://app?vid=b2e3c13f-e5d7-4801-ae89-c6a149b3cd8b"},"vehicle_type_id":"4","last_reported":1726301490,"current_range_meters":36400,"station_id":"ce4bhnp2rcd13ifvqgvg","pricing_plan_id":"cebpf4jnsgd1na2vs0mg"},{"bike_id":"f42b85a3-1e07-433a-bcd3-c4412e885526","system_id":"levelo_inurba_marseille","lat":43.29802,"lon":5.38087,"is_reserved":false,"is_disabled":false,"rental_uris":{"android":"levelo://app?vid=f42b85a3-1e07-433a-bcd3-c4412e885526","ios":"levelo://app?vid=f42b85a3-1e07-433a-bcd3-c4412e885526"},"vehicle_type_id":"4","last_reported":1726301490,"current_range_meters":15200,"station_id":"ce4bgip2rcd13ifvqbb0","pricing_plan_id":"cebpf4jnsgd1na2vs0mg"},{"bike_id":"6a8ccca1-6088-4e9b-8542-a9f9e3919f8b","system_id":"levelo_inurba_marseille","lat":43.29008,"lon":5.3561,"is_reserved":false,"is_disabled":false,"rental_uris":{"android":"levelo://app?vid=6a8ccca1-6088-4e9b-8542-a9f9e3919f8b","ios":"levelo://app?vid=6a8ccca1-6088-4e9b-8542-a9f9e3919f8b"},"vehicle_type_id":"4","last_reported":1726301490,"current_range_meters":35600,"station_id":"ce4bhb92rcd13ifvqen0","pricing_plan_id":"cebpf4jnsgd1na2vs0mg"},{"bike_id":"c24a1fdb-fb2a-4e3b-835d-ce0d09a255ce","system_id":"levelo_inurba_marseille","lat":43.29805,"lon":5.38082,"is_reserved":false,"is_disabled":false,"rental_uris":{"android":"levelo://app?vid=c24a1fdb-fb2a-4e3b-835d-ce0d09a255ce","ios":"levelo://app?vid=c24a1fdb-fb2a-4e3b-835d-ce0d09a255ce"},"vehicle_type_id":"4","last_reported":1726301490,"current_range_meters":40000,"station_id":"ce4bgip2rcd13ifvqbb0","pricing_plan_id":"cebpf4jnsgd1na2vs0mg"},{"bike_id":"82dec1e1-c024-4a59-b080-1ca526441f94","system_id":"levelo_inurba_marseille","lat":43.337612,"lon":5.374504,"is_reserved":false,"is_disabled":false,"rental_uris":{"android":"levelo://app?vid=82dec1e1-c024-4a59-b080-1ca526441f94","ios":"levelo://app?vid=82dec1e1-c024-4a59-b080-1ca526441f94"},"vehicle_type_id":"4","last_reported":1726301490,"current_range_meters":27200,"station_id":"","pricing_plan_id":"cebpf4jnsgd1na2vs0mg"},{"bike_id":"02269f0e-1758-473f-8a5c-764f1ddf9ddc","system_id":"levelo_inurba_marseille","lat":43.23183,"lon":5.39981,"is_reserved":false,"is_disabled":false,"rental_uris":{"android":"levelo://app?vid=02269f0e-1758-473f-8a5c-764f1ddf9ddc","ios":"levelo://app?vid=02269f0e-1758-473f-8a5c-764f1ddf9ddc"},"vehicle_type_id":"4","last_reported":1726301490,"current_range_meters":38800,"station_id":"ce4bhn12rcd13ifvqgqg","pricing_plan_id":"cebpf4jnsgd1na2vs0mg"},{"bike_id":"43412657-8f93-44d7-90fb-da7639962547","system_id":"levelo_inurba_marseille","lat":43.33723,"lon":5.39175,"is_reserved":false,"is_disabled":false,"rental_uris":{"android":"levelo://app?vid=43412657-8f93-44d7-90fb-da7639962547","ios":"levelo://app?vid=43412657-8f93-44d7-90fb-da7639962547"},"vehicle_type_id":"4","last_reported":1726301490,"current_range_meters":27200,"station_id":"ce4bhr92rcd13ifvqhsg","pricing_plan_id":"cebpf4jnsgd1na2vs0mg"},{"bike_id":"09d27820-d858-4c3b-904e-6061896bea61","system_id":"levelo_inurba_marseille","lat":43.26685,"lon":5.38268,"is_reserved":false,"is_disabled":false,"rental_uris":{"android":"levelo://app?vid=09d27820-d858-4c3b-904e-6061896bea61","ios":"levelo://app?vid=09d27820-d858-4c3b-904e-6061896bea61"},"vehicle_type_id":"4","last_reported":1726301490,"current_range_meters":38800,"station_id":"ce4bhg92rcd13ifvqf90","pricing_plan_id":"cebpf4jnsgd1na2vs0mg"},{"bike_id":"7cfa99e9-2843-4e67-8efb-87269e0eae27","system_id":"levelo_inurba_marseille","lat":43.25867,"lon":5.39902,"is_reserved":false,"is_disabled":false,"rental_uris":{"android":"levelo://app?vid=7cfa99e9-2843-4e67-8efb-87269e0eae27","ios":"levelo://app?vid=7cfa99e9-2843-4e67-8efb-87269e0eae27"},"vehicle_type_id":"4","last_reported":1726301490,"current_range_meters":16800,"station_id":"ce4bhl92rcd13ifvqghg","pricing_plan_id":"cebpf4jnsgd1na2vs0mg"},{"bike_id":"4acc2fae-3cc9-4f1c-a95d-b25316dcc373","system_id":"levelo_inurba_marseille","lat":43.317,"lon":5.40455,"is_reserved":false,"is_disabled":false,"rental_uris":{"android":"levelo://app?vid=4acc2fae-3cc9-4f1c-a95d-b25316dcc373","ios":"levelo://app?vid=4acc2fae-3cc9-4f1c-a95d-b25316dcc373"},"vehicle_type_id":"4","last_reported":1726301490,"current_range_meters":22400,"station_id":"ce4bh012rcd13ifvqd00","pricing_plan_id":"cebpf4jnsgd1na2vs0mg"},{"bike_id":"0b293ae6-856c-449c-831f-6692a89a04db","system_id":"levelo_inurba_marseille","lat":43.3012,"lon":5.39881,"is_reserved":false,"is_disabled":false,"rental_uris":{"android":"levelo://app?vid=0b293ae6-856c-449c-831f-6692a89a04db","ios":"levelo://app?vid=0b293ae6-856c-449c-831f-6692a89a04db"},"vehicle_type_id":"4","last_reported":1726301490,"current_range_meters":16400,"station_id":"ce4bh0h2rcd13ifvqd40","pricing_plan_id":"cebpf4jnsgd1na2vs0mg"},{"bike_id":"286c0e24-eda8-4d17-bba4-c1a980a68a24","system_id":"levelo_inurba_marseille","lat":43.30274,"lon":5.37707,"is_reserved":false,"is_disabled":false,"rental_uris":{"android":"levelo://app?vid=286c0e24-eda8-4d17-bba4-c1a980a68a24","ios":"levelo://app?vid=286c0e24-eda8-4d17-bba4-c1a980a68a24"},"vehicle_type_id":"4","last_reported":1726301490,"current_range_meters":38800,"station_id":"ce4bguh2rcd13ifvqcj0","pricing_plan_id":"cebpf4jnsgd1na2vs0mg"},{"bike_id":"acd81ed3-0b35-411c-8897-94c279f3dedc","system_id":"levelo_inurba_marseille","lat":43.299707,"lon":5.384832,"is_reserved":false,"is_disabled":false,"rental_uris":{"android":"levelo://app?vid=acd81ed3-0b35-411c-8897-94c279f3dedc","ios":"levelo://app?vid=acd81ed3-0b35-411c-8897-94c279f3dedc"},"vehicle_type_id":"4","last_reported":1726301490,"current_range_meters":24800,"station_id":"ce4bgj92rcd13ifvqbd0","pricing_plan_id":"cebpf4jnsgd1na2vs0mg"},{"bike_id":"a0ffba63-a489-45bc-b9a8-9eb29f41e256","system_id":"levelo_inurba_marseille","lat":43.29895,"lon":5.38139,"is_reserved":false,"is_disabled":false,"rental_uris":{"android":"levelo://app?vid=a0ffba63-a489-45bc-b9a8-9eb29f41e256","ios":"levelo://app?vid=a0ffba63-a489-45bc-b9a8-9eb29f41e256"},"vehicle_type_id":"4","last_reported":1726301490,"current_range_meters":37600,"station_id":"ce4bgj12rcd13ifvqbc0","pricing_plan_id":"cebpf4jnsgd1na2vs0mg"},{"bike_id":"adf6164e-9b97-4b06-94a4-ebf4013acf28","system_id":"levelo_inurba_marseille","lat":43.27674,"lon":5.38887,"is_reserved":false,"is_disabled":false,"rental_uris":{"android":"levelo://app?vid=adf6164e-9b97-4b06-94a4-ebf4013acf28","ios":"levelo://app?vid=adf6164e-9b97-4b06-94a4-ebf4013acf28"},"vehicle_type_id":"4","last_reported":1726301490,"current_range_meters":32000,"station_id":"ce4bhi12rcd13ifvqfo0","pricing_plan_id":"cebpf4jnsgd1na2vs0mg"},{"bike_id":"04352160-7c1d-41d9-b42f-eb5950269798","system_id":"levelo_inurba_marseille","lat":43.24388,"lon":5.3706,"is_reserved":false,"is_disabled":false,"rental_uris":{"android":"levelo://app?vid=04352160-7c1d-41d9-b42f-eb5950269798","ios":"levelo://app?vid=04352160-7c1d-41d9-b42f-eb5950269798"},"vehicle_type_id":"4","last_reported":1726301490,"current_range_meters":25600,"station_id":"ce4bhhh2rcd13ifvqfk0","pricing_plan_id":"cebpf4jnsgd1na2vs0mg"},{"bike_id":"5bcea731-d4da-414e-b204-cc827bfa12b3","system_id":"levelo_inurba_marseille","lat":43.27612,"lon":5.36118,"is_reserved":false,"is_disabled":false,"rental_uris":{"android":"levelo://app?vid=5bcea731-d4da-414e-b204-cc827bfa12b3","ios":"levelo://app?vid=5bcea731-d4da-414e-b204-cc827bfa12b3"},"vehicle_type_id":"4","last_reported":1726301490,"current_range_meters":39200,"station_id":"ce4bgj92rcd13ifvqbe0","pricing_plan_id":"cebpf4jnsgd1na2vs0mg"},{"bike_id":"61e00977-be43-400f-99ea-3c33330f7657","system_id":"levelo_inurba_marseille","lat":43.25009,"lon":5.38913,"is_reserved":false,"is_disabled":false,"rental_uris":{"android":"levelo://app?vid=61e00977-be43-400f-99ea-3c33330f7657","ios":"levelo://app?vid=61e00977-be43-400f-99ea-3c33330f7657"},"vehicle_type_id":"4","last_reported":1726301490,"current_range_meters":21600,"station_id":"ce4bhgp2rcd13ifvqfd0","pricing_plan_id":"cebpf4jnsgd1na2vs0mg"},