{"last_updated":1687795751,"ttl":30,"version":"2.2","data":{"bikes":[{"bike_id":"48f7a98e-53f5-43ad-ab71-5df701b1cf18","system_id":"levelo_inurba_marseille","lat":43.312085,"lon":5.368535,"is_reserved":false,"is_disabled":false,"rental_uris":{"android":"levelo://app?vid=48f7a98e-53f5-43ad-ab71-5df701b1cf18","ios":"levelo://app?vid=48f7a98e-53f5-43ad-ab71-5df701b1cf18"},"vehicle_type_id":"4","last_reported":1687795752,"current_range_meters":23200,"station_id":"","pricing_plan_id":"free"},{"bike_id":"9e5250b7-0bca-4b95-a642-9b3fcb99ecae","system_id":"levelo_inurba_marseille","lat":43.31546,"lon":5.37209,"is_reserved":false,"is_disabled":false,"rental_uris":{"android":"levelo://app?vid=9e5250b7-0bca-4b95-a642-9b3fcb99ecae","ios":"levelo://app?vid=9e5250b7-0bca-4b95-a642-9b3fcb99ecae"},"vehicle_type_id":"4","last_reported":1687795752,"current_range_meters":28000,"station_id":"","pricing_plan_id":"free"},{"bike_id":"b15a8a03-e76b-4eba-800a-0326f009150e","system_id":"levelo_inurba_marseille","lat":43.314811,"lon":5.373104,"is_reserved":false,"is_disabled":false,"rental_uris":{"android":"levelo://app?vid=b15a8a03-e76b-4eba-800a-0326f009150e","ios":"levelo://app?vid=b15a8a03-e76b-4eba-800a-0326f009150e"},"vehicle_type_id":"4","last_reported":1687795752,"current_range_meters":1600,"station_id":"ce4bgt12rcd13ifvqcd0","pricing_plan_id":"free"},{"bike_id":"f9406469-2b32-4bd5-b79a-141e7c5fff27","system_id":"levelo_inurba_marseille","lat":43.314811,"lon":5.373104,"is_reserved":false,"is_disabled":false,"rental_uris":{"android":"levelo://app?vid=f9406469-2b32-4bd5-b79a-141e7c5fff27","ios":"levelo://app?vid=f9406469-2b32-4bd5-b79a-141e7c5fff27"},"vehicle_type_id":"4","last_reported":1687795752,"current_range_meters":11200,"station_id":"ce4bgt12rcd13ifvqcd0","pricing_plan_id":"free"},{"bike_id":"09e01703-4340-497e-a1df-35544fa2248b","system_id":"levelo_inurba_marseille","lat":43.308606,"lon":5.372099,"is_reserved":false,"is_disabled":false,"rental_uris":{"android":"levelo://app?vid=09e01703-4340-497e-a1df-35544fa2248b","ios":"levelo://app?vid=09e01703-4340-497e-a1df-35544fa2248b"},"vehicle_type_id":"4","last_reported":1687795752,"current_range_meters":19200,"station_id":"ce4bguh2rcd13ifvqckg","pricing_plan_id":"free"},{"bike_id":"b200ce8e-f1be-432d-a803-5b1d311c4930","system_id":"levelo_inurba_marseille","lat":43.30888,"lon":5.37196,"is_reserved":false,"is_disabled":false,"rental_uris":{"android":"levelo://app?vid=b200ce8e-f1be-432d-a803-5b1d311c4930","ios":"levelo://app?vid=b200ce8e-f1be-432d-a803-5b1d311c4930"},"vehicle_type_id":"4","last_reported":1687795752,"current_range_meters":12000,"station_id":"","pricing_plan_id":"free"},{"bike_id":"d8690ed7-3ba4-4a46-892d-e4bcd15c7a7a","system_id":"levelo_inurba_marseille","lat":43.311125,"lon":5.377624,"is_reserved":false,"is_disabled":false,"rental_uris":{"android":"levelo://app?vid=d8690ed7-3ba4-4a46-892d-e4bcd15c7a7a","ios":"levelo://app?vid=d8690ed7-3ba4-4a46-892d-e4bcd15c7a7a"},"vehicle_type_id":"4","last_reported":1687795752,"current_range_meters":23200,"station_id":"ce4bgt92rcd13ifvqcg0","pricing_plan_id":"free"},{"bike_id":"f8acb64a-c53a-429f-901a-47ba18b3fbc6","system_id":"levelo_inurba_marseille","lat":43.311125,"lon":5.377624,"is_reserved":false,"is_disabled":false,"rental_uris":{"android":"levelo://app?vid=f8acb64a-c53a-429f-901a-47ba18b3fbc6","ios":"levelo://app?vid=f8acb64a-c53a-429f-901a-47ba18b3fbc6"},"vehicle_type_id":"4","last_reported":1687795752,"current_range_meters":15200,"station_id":"ce4bgt92rcd13ifvqcg0","pricing_plan_id":"free"},{"bike_id":"92d3eee7-3a5a-44c9-a7a6-2170c64d26f3","system_id":"levelo_inurba_marseille","lat":43.317075,"lon":5.377367,"is_reserved":false,"is_disabled":false,"rental_uris":{"android":"levelo://app?vid=92d3eee7-3a5a-44c9-a7a6-2170c64d26f3","ios":"levelo://app?vid=92d3eee7-3a5a-44c9-a7a6-2170c64d26f3"},"vehicle_type_id":"4","last_reported":1687795752,"current_range_meters":25200,"station_id":"ce4bgth2rcd13ifvqch0","pricing_plan_id":"free"},{"bike_id":"a3571552-77a5-4fa7-b0b7-83001f3122d5","system_id":"levelo_inurba_marseille","lat":43.315289,"lon":5.380349,"is_reserved":false,"is_disabled":false,"rental_uris":{"android":"levelo://app?vid=a3571552-77a5-4fa7-b0b7-83001f3122d5","ios":"levelo://app?vid=a3571552-77a5-4fa7-b0b7-83001f3122d5"},"vehicle_type_id":"4","last_reported":1687795752,"current_range_meters":8800,"station_id":"ce4bhsp2rcd13ifvqi50","pricing_plan_id":"free"},{"bike_id":"7961c058-6bbf-43fe-9e62-f3ba9264f471","system_id":"levelo_inurba_marseille","lat":43.30218,"lon":5.37386,"is_reserved":false,"is_disabled":false,"rental_uris":{"android":"levelo://app?vid=7961c058-6bbf-43fe-9e62-f3ba9264f471","ios":"levelo://app?vid=7961c058-6bbf-43fe-9e62-f3ba9264f471"},"vehicle_type_id":"4","last_reported":1687795752,"current_range_meters":0,"station_id":"","pricing_plan_id":"free"},{"bike_id":"59e2c9d0-7019-4a1d-a47b-77372e6bd64b","system_id":"levelo_inurba_marseille","lat":43.304606,"lon":5.379026,"is_reserved":false,"is_disabled":false,"rental_uris":{"android":"levelo://app?vid=59e2c9d0-7019-4a1d-a47b-77372e6bd64b","ios":"levelo://app?vid=59e2c9d0-7019-4a1d-a47b-77372e6bd64b"},"vehicle_type_id":"4","last_reported":1687795752,"current_range_meters":12400,"station_id":"ce4bgup2rcd13ifvqcn0","pricing_plan_id":"free"},{"bike_id":"1f1d3a93-e824-4235-8d1b-5272efdbe491","system_id":"levelo_inurba_marseille","lat":43.302784,"lon":5.377158,"is_reserved":false,"is_disabled":false,"rental_uris":{"android":"levelo://app?vid=1f1d3a93-e824-4235-8d1b-5272efdbe491","ios":"levelo://app?vid=1f1d3a93-e824-4235-8d1b-5272efdbe491"},"vehicle_type_id":"4","last_reported":1687795752,"current_range_meters":2800,"station_id":"ce4bguh2rcd13ifvqcj0","pricing_plan_id":"free"},{"bike_id":"60e329d0-b7e7-473b-8032-bab52a91602b","system_id":"levelo_inurba_marseille","lat":43.31368,"lon":5.38502,"is_reserved":false,"is_disabled":false,"rental_uris":{"android":"levelo://app?vid=60e329d0-b7e7-473b-8032-bab52a91602b","ios":"levelo://app?vid=60e329d0-b7e7-473b-8032-bab52a91602b"},"vehicle_type_id":"4","last_reported":1687795752,"current_range_meters":21600,"station_id":"ce4bgt92rcd13ifvqcf0","pricing_plan_id":"free"},{"bike_id":"54c845c6-8dbe-49dc-bf60-16532bf72178","system_id":"levelo_inurba_marseille","lat":43.285856,"lon":5.350771,"is_reserved":false,"is_disabled":false,"rental_uris":{"android":"levelo://app?vid=54c845c6-8dbe-49dc-bf60-16532bf72178","ios":"levelo://app?vid=54c845c6-8dbe-49dc-bf60-16532bf72178"},"vehicle_type_id":"4","last_reported":1687795752,"current_range_meters":7600,"station_id":"ce4bhch2rcd13ifvqeug","pricing_plan_id":"free"},{"bike_id":"89b8395b-38a0-4c3a-b685-b5fe3f3114df","system_id":"levelo_inurba_marseille","lat":43.311722,"lon":5.387247,"is_reserved":false,"is_disabled":false,"rental_uris":{"android":"levelo://app?vid=89b8395b-38a0-4c3a-b685-b5fe3f3114df","ios":"levelo://app?vid=89b8395b-38a0-4c3a-b685-b5fe3f3114df"},"vehicle_type_id":"4","last_reported":1687795752,"current_range_meters":27200,"station_id":"ce4bgv12rcd13ifvqcp0","pricing_plan_id":"free"},{"bike_id":"1580a472-182f-4d91-8a6c-4c3a23a9c034","system_id":"levelo_inurba_marseille","lat":43.302,"lon":5.3821,"is_reserved":false,"is_disabled":false,"rental_uris":{"android":"levelo://app?vid=1580a472-182f-4d91-8a6c-4c3a23a9c034","ios":"levelo://app?vid=1580a472-182f-4d91-8a6c-4c3a23a9c034"},"vehicle_type_id":"4","last_reported":1687795752,"current_range_meters":9200,"station_id":"","pricing_plan_id":"free"},{"bike_id":"84310711-9ffd-45bf-a8e1-79683581878e","system_id":"levelo_inurba_marseille","lat":43.328371,"lon":5.366909,"is_reserved":false,"is_disabled":false,"rental_uris":{"android":"levelo://app?vid=84310711-9ffd-45bf-a8e1-79683581878e","ios":"levelo://app?vid=84310711-9ffd-45bf-a8e1-79683581878e"},"vehicle_type_id":"4","last_reported":1687795752,"current_range_meters":16400,"station_id":"ce4bhs92rcd13ifvqi0g","pricing_plan_id":"free"},{"bike_id":"8679cc42-f60f-4d46-8ef1-a90dcd0c6845","system_id":"levelo_inurba_marseille","lat":43.328371,"lon":5.366909,"is_reserved":false,"is_disabled":false,"rental_uris":{"android":"levelo://app?vid=8679cc42-f60f-4d46-8ef1-a90dcd0c6845","ios":"levelo://app?vid=8679cc42-f60f-4d46-8ef1-a90dcd0c6845"},"vehicle_type_id":"4","last_reported":1687795752,"current_range_meters":14400,"station_id":"ce4bhs92rcd13ifvqi0g","pricing_plan_id":"free"},{"bike_id":"a7f0de62-cbcb-4f09-8e9e-1b6465dbbc67","system_id":"levelo_inurba_marseille","lat":43.328371,"lon":5.366909,"is_reserved":false,"is_disabled":false,"rental_uris":{"android":"levelo://app?vid=a7f0de62-cbcb-4f09-8e9e-1b6465dbbc67","ios":"levelo://app?vid=a7f0de62-cbcb-4f09-8e9e-1b6465dbbc67"},"vehicle_type_id":"4","last_reported":1687795752,"current_range_meters":26000,"station_id":"ce4bhs92rcd13ifvqi0g","pricing_plan_id":"free"},{"bike_id":"1a986163-fd5b-44c7-bf15-50a76c7f7598","system_id":"levelo_inurba_marseille","lat":43.328371,"lon":5.366909,"is_reserved":false,"is_disabled":false,"rental_uris":{"android":"levelo://app?vid=1a986163-fd5b-44c7-bf15-50a76c7f7598","ios":"levelo://app?vid=1a986163-fd5b-44c7-bf15-50a76c7f7598"},"vehicle_type_id":"4","last_reported":1687795752,"current_range_meters":8400,"station_id":"ce4bhs92rcd13ifvqi0g","pricing_plan_id":"free"},{"bike_id":"b6159e29-22dd-4f8a-8788-85702808985c","system_id":"levelo_inurba_marseille","lat":43.328371,"lon":5.366909,"is_reserved":false,"is_disabled":false,"rental_uris":{"android":"levelo://app?vid=b6159e29-22dd-4f8a-8788-85702808985c","ios":"levelo://app?vid=b6159e29-22dd-4f8a-8788-85702808985c"},"vehicle_type_id":"4","last_reported":1687795752,"current_range_meters":20000,"station_id":"ce4bhs92rcd13ifvqi0g","pricing_plan_id":"free"},{"bike_id":"5108659d-1431-4d89-a11a-e27336cba391","system_id":"levelo_inurba_marseille","lat":43.328371,"lon":5.366909,"is_reserved":false,"is_disabled":false,"rental_uris":{"android":"levelo://app?vid=5108659d-1431-4d89-a11a-e27336cba391","ios":"levelo://app?vid=5108659d-1431-4d89-a11a-e27336cba391"},"vehicle_type_id":"4","last_reported":1687795752,"current_range_meters":26400,"station_id":"ce4bhs92rcd13ifvqi0g","pricing_plan_id":"free"},{"bike_id":"be4c2b1e-4409-4655-b800-08e6615894b0","system_id":"levelo_inurba_marseille","lat":43.328371,"lon":5.366909,"is_reserved":false,"is_disabled":false,"rental_uris":{"android":"levelo://app?vid=be4c2b1e-4409-4655-b800-08e6615894b0","ios":"levelo://app?vid=be4c2b1e-4409-4655-b800-08e6615894b0"},"vehicle_type_id":"4","last_reported":1687795752,"current_range_meters":28800,"station_id":"ce4bhs92rcd13ifvqi0g","pricing_plan_id":"free"},{"bike_id":"c0ba4054-03d2-4233-93b4-0461723bc0b5","system_id":"levelo_inurba_marseille","lat":43.328371,"lon":5.366909,"is_reserved":false,"is_disabled":false,"rental_uris":{"android":"levelo://app?vid=c0ba4054-03d2-4233-93b4-0461723bc0b5","ios":"levelo://app?vid=c0ba4054-03d2-4233-93b4-0461723bc0b5"},"vehicle_type_id":"4","last_reported":1687795752,"current_range_meters":28800,"station_id":"ce4bhs92rcd13ifvqi0g","pricing_plan_id":"free"},{"bike_id":"e0d28c6d-cda5-4ad7-9ed5-96823da4f883","system_id":"levelo_inurba_marseille","lat":43.328371,"lon":5.366909,"is_reserved":false,"is_disabled":false,"rental_uris":{"android":"levelo://app?vid=e0d28c6d-cda5-4ad7-9ed5-96823da4f883","ios":"levelo://app?vid=e0d28c6d-cda5-4ad7-9ed5-96823da4f883"},"vehicle_type_id":"4","last_reported":1687795752,"current_range_meters":14000,"station_id":"ce4bhs92rcd13ifvqi0g","pricing_plan_id":"free"},{"bike_id":"8d98417a-cbe4-4269-8bc9-598373a7d5de","system_id":"levelo_inurba_marseille","lat":43.32872,"lon":5.36289,"is_reserved":false,"is_disabled":false,"rental_uris":{"android":"levelo://app?vid=8d98417a-cbe4-4269-8bc9-598373a7d5de","ios":"levelo://app?vid=8d98417a-cbe4-4269-8bc9-598373a7d5de"},"vehicle_type_id":"4","last_reported":1687795752,"current_range_meters":12000,"station_id":"","pricing_plan_id":"free"},{"bike_id":"a7529064-449a-4106-9feb-d56c20015c23","system_id":"levelo_inurba_marseille","lat":43.29622,"lon":5.37167,"is_reserved":false,"is_disabled":false,"rental_uris":{"android":"levelo://app?vid=a7529064-449a-4106-9feb-d56c20015c23","ios":"levelo://app?vid=a7529064-449a-4106-9feb-d56c20015c23"},"vehicle_type_id":"4","last_reported":1687795752,"current_range_meters":26000,"station_id":"","pricing_plan_id":"free"},{"bike_id":"5767a5b9-674c-4018-8c1b-474439fd854e","system_id":"levelo_inurba_marseille","lat":43.296131,"lon":5.370791,"is_reserved":false,"is_disabled":false,"rental_uris":{"android":"levelo://app?vid=5767a5b9-674c-4018-8c1b-474439fd854e","ios":"levelo://app?vid=5767a5b9-674c-4018-8c1b-474439fd854e"},"vehicle_type_id":"4","last_reported":1687795752,"current_range_meters":31200,"station_id":"ce4bgnh2rcd13ifvqc0g","pricing_plan_id":"free"},{"bike_id":"668c1a54-58d2-4cbf-9ba2-e322d9460834","system_id":"levelo_inurba_marseille","lat":43.29573,"lon":5.367355,"is_reserved":false,"is_disabled":false,"rental_uris":{"android":"levelo://app?vid=668c1a54-58d2-4cbf-9ba2-e322d9460834","ios":"levelo://app?vid=668c1a54-58d2-4cbf-9ba2-e322d9460834"},"vehicle_type_id":"4","last_reported":1687795752,"current_range_meters":30800,"station_id":"ce4bgph2rcd13ifvqc2g","pricing_plan_id":"free"},{"bike_id":"041bc147-ef2f-419b-bb81-deca3bdf89e2","system_id":"levelo_inurba_marseille","lat":43.29611,"lon":5.36046,"is_reserved":false,"is_disabled":false,"rental_uris":{"android":"levelo://app?vid=041bc147-ef2f-419b-bb81-deca3bdf89e2","ios":"levelo://app?vid=041bc147-ef2f-419b-bb81-deca3bdf89e2"},"vehicle_type_id":"4","last_reported":1687795752,"current_range_meters":0,"station_id":"","pricing_plan_id":"free"},{"bike_id":"c5e30f8c-25cd-4ced-a1cc-519d27dea763","system_id":"levelo_inurba_marseille","lat":43.296277,"lon":5.377108,"is_reserved":false,"is_disabled":false,"rental_uris":{"android":"levelo://app?vid=c5e30f8c-25cd-4ced-a1cc-519d27dea763","ios":"levelo://app?vid=c5e30f8c-25cd-4ced-a1cc-519d27dea763"},"vehicle_type_id":"4","last_reported":1687795752,"current_range_meters":0,"station_id":"ce4bgi92rcd13ifvqb90","pricing_plan_id":"free"},{"bike_id":"8205acf7-8672-44d5-b737-fbf64241bf1a","system_id":"levelo_inurba_marseille","lat":43.29566,"lon":5.37893,"is_reserved":false,"is_disabled":false,"rental_uris":{"android":"levelo://app?vid=8205acf7-8672-44d5-b737-fbf64241bf1a","ios":"levelo://app?vid=8205acf7-8672-44d5-b737-fbf64241bf1a"},"vehicle_type_id":"4","last_reported":1687795752,"current_range_meters":800,"station_id":"","pricing_plan_id":"free"},{"bike_id":"3179232a-6fd4-41e8-8fb9-339126be22d3","system_id":"levelo_inurba_marseille","lat":43.32367,"lon":5.388836,"is_reserved":false,"is_disabled":false,"rental_uris":{"android":"levelo://app?vid=3179232a-6fd4-41e8-8fb9-339126be22d3","ios":"levelo://app?vid=3179232a-6fd4-41e8-8fb9-339126be22d3"},"vehicle_type_id":"4","last_reported":1687795752,"current_range_meters":6400,"station_id":"ce4bhqp2rcd13ifvqhog","pricing_plan_id":"free"},{"bike_id":"7d067d66-ec32-4f91-84d4-3e30f6889241","system_id":"levelo_inurba_marseille","lat":43.300852,"lon":5.390859,"is_reserved":false,"is_disabled":false,"rental_uris":{"android":"levelo://app?vid=7d067d66-ec32-4f91-84d4-3e30f6889241","ios":"levelo://app?vid=7d067d66-ec32-4f91-84d4-3e30f6889241"},"vehicle_type_id":"4","last_reported":1687795752,"current_range_meters":0,"station_id":"ce4bh192rcd13ifvqdb0","pricing_plan_id":"free"},{"bike_id":"4783d9b9-a677-4f36-ad6a-330e59bc93c3","system_id":"levelo_inurba_marseille","lat":43.29309,"lon":5.37186,"is_reserved":false,"is_disabled":false,"rental_uris":{"android":"levelo://app?vid=4783d9b9-a677-4f36-ad6a-330e59bc93c3","ios":"levelo://app?vid=4783d9b9-a677-4f36-ad6a-330e59bc93c3"},"vehicle_type_id":"4","last_reported":1687795752,"current_range_meters":0,"station_id":"ce4bgh92rcd13ifvqb40","pricing_plan_id":"free"},{"bike_id":"7af6ef0f-8204-4330-874c-7a7c3e64e9cd","system_id":"levelo_inurba_marseille","lat":43.292749,"lon":5.368402,"is_reserved":false,"is_disabled":false,"rental_uris":{"android":"levelo://app?vid=7af6ef0f-8204-4330-874c-7a7c3e64e9cd","ios":"levelo://app?vid=7af6ef0f-8204-4330-874c-7a7c3e64e9cd"},"vehicle_type_id":"4","last_reported":1687795752,"current_range_meters":0,"station_id":"ce4bhbp2rcd13ifvqesg","pricing_plan_id":"free"},{"bike_id":"2d0a862c-80a6-492b-9362-82b592628f8f","system_id":"levelo_inurba_marseille","lat":43.305994,"lon":5.393687,"is_reserved":false,"is_disabled":false,"rental_uris":{"android":"levelo://app?vid=2d0a862c-80a6-492b-9362-82b592628f8f","ios":"levelo://app?vid=2d0a862c-80a6-492b-9362-82b592628f8f"},"vehicle_type_id":"4","last_reported":1687795752,"current_range_meters":1200,"station_id":"ce4bh0p2rcd13ifvqd80","pricing_plan_id":"free"},{"bike_id":"a80e61e0-f942-491a-b432-a698a7ba5cc0","system_id":"levelo_inurba_marseille","lat":43.302992,"lon":5.392136,"is_reserved":false,"is_disabled":false,"rental_uris":{"android":"levelo://app?vid=a80e61e0-f942-491a-b432-a698a7ba5cc0","ios":"levelo://app?vid=a80e61e0-f942-491a-b432-a698a7ba5cc0"},"vehicle_type_id":"4","last_reported":1687795752,"current_range_meters":0,"station_id":"ce4bgkh2rcd13ifvqbk0","pricing_plan_id":"free"},{"bike_id":"1a57431a-ab82-426d-8513-b52d9f6cc9d6","system_id":"levelo_inurba_marseille","lat":43.303002,"lon":5.392142,"is_reserved":false,"is_disabled":false,"rental_uris":{"android":"levelo://app?vid=1a57431a-ab82-426d-8513-b52d9f6cc9d6","ios":"levelo://app?vid=1a57431a-ab82-426d-8513-b52d9f6cc9d6"},"vehicle_type_id":"4","last_reported":1687795752,"current_range_meters":14000,"station_id":"ce4bgkh2rcd13ifvqbk0","pricing_plan_id":"free"},{"bike_id":"211c37c8-8be8-4114-8110-a158dbd42a71","system_id":"levelo_inurba_marseille","lat":43.2936,"lon":5.37835,"is_reserved":false,"is_disabled":false,"rental_uris":{"android":"levelo://app?vid=211c37c8-8be8-4114-8110-a158dbd42a71","ios":"levelo://app?vid=211c37c8-8be8-4114-8110-a158dbd42a71"},"vehicle_type_id":"4","last_reported":1687795752,"current_range_meters":20000,"station_id":"ce4bgjh2rcd13ifvqbf0","pricing_plan_id":"free"},{"bike_id":"7f2221f1-f88b-41a6-b136-030f73920e1c","system_id":"levelo_inurba_marseille","lat":43.300852,"lon":5.390859,"is_reserved":false,"is_disabled":false,"rental_uris":{"android":"levelo://app?vid=7f2221f1-f88b-41a6-b136-030f73920e1c","ios":"levelo://app?vid=7f2221f1-f88b-41a6-b136-030f73920e1c"},"vehicle_type_id":"4","last_reported":1687795752,"current_range_meters":1600,"station_id":"ce4bh192rcd13ifvqdb0","pricing_plan_id":"free"},{"bike_id":"0da8391f-6e1e-43bd-9b72-38b53a6e213d","system_id":"levelo_inurba_marseille","lat":43.313291,"lon":5.396838,"is_reserved":false,"is_disabled":false,"rental_uris":{"android":"levelo://app?vid=0da8391f-6e1e-43bd-9b72-38b53a6e213d","ios":"levelo://app?vid=0da8391f-6e1e-43bd-9b72-38b53a6e213d"},"vehicle_type_id":"4","last_reported":1687795752,"current_range_meters":12000,"station_id":"ce4bgvp2rcd13ifvqcu0","pricing_plan_id":"free"},{"bike_id":"065abfdb-c894-49a6-ac54-17c5cdd44c2a","system_id":"levelo_inurba_marseille","lat":43.313291,"lon":5.396838,"is_reserved":false,"is_disabled":false,"rental_uris":{"android":"levelo://app?vid=065abfdb-c894-49a6-ac54-17c5cdd44c2a","ios":"levelo://app?vid=065abfdb-c894-49a6-ac54-17c5cdd44c2a"},"vehicle_type_id":"4","last_reported":1687795752,"current_range_meters":18800,"station_id":"ce4bgvp2rcd13ifvqcu0","pricing_plan_id":"free"},{"bike_id":"20181505-f449-4699-9a04-ae8171bb7e49","system_id":"levelo_inurba_marseille","lat":43.29039,"lon":5.37563,"is_reserved":false,"is_disabled":false,"rental_uris":{"android":"levelo://app?vid=20181505-f449-4699-9a04-ae8171bb7e49","ios":"levelo://app?vid=20181505-f449-4699-9a04-ae8171bb7e49"},"vehicle_type_id":"4","last_reported":1687795752,"current_range_meters":20000,"station_id":"ce4bh692rcd13ifvqe90","pricing_plan_id":"free"},{"bike_id":"774b9d8b-4147-472d-9983-8070e4215db5","system_id":"levelo_inurba_marseille","lat":43.29418,"lon":5.386149,"is_reserved":false,"is_disabled":false,"rental_uris":{"android":"levelo://app?vid=774b9d8b-4147-472d-9983-8070e4215db5","ios":"levelo://app?vid=774b9d8b-4147-472d-9983-8070e4215db5"},"vehicle_type_id":"4","last_reported":1687795752,"current_range_meters":1200,"station_id":"","pricing_plan_id":"free"},{"bike_id":"b8c12cae-a192-4de4-a3f0-61daa08365be","system_id":"levelo_inurba_marseille","lat":43.289468,"lon":5.363719,"is_reserved":false,"is_disabled":false,"rental_uris":{"android":"levelo://app?vid=b8c12cae-a192-4de4-a3f0-61daa08365be","ios":"levelo://app?vid=b8c12cae-a192-4de4-a3f0-61daa08365be"},"vehicle_type_id":"4","last_reported":1687795752,"current_range_meters":26000,"station_id":"ce4bhc92rcd13ifvqetg","pricing_plan_id":"free"},{"bike_id":"20b2702a-2cf1-439f-b7da-41f192fa1a0a","system_id":"levelo_inurba_marseille","lat":43.29411,"lon":5.38614,"is_reserved":false,"is_disabled":false,"rental_uris":{"android":"levelo://app?vid=20b2702a-2cf1-439f-b7da-41f192fa1a0a","ios":"levelo://app?vid=20b2702a-2cf1-439f-b7da-41f192fa1a0a"},"vehicle_type_id":"4","last_reported":1687795752,"current_range_meters":10800,"station_id":"","pricing_plan_id":"free"},{"bike_id":"2dd40160-d554-4f1a-9d93-282c82f1f92a","system_id":"levelo_inurba_marseille","lat":43.294162,"lon":5.386292,"is_reserved":false,"is_disabled":false,"rental_uris":{"android":"levelo://app?vid=2dd40160-d554-4f1a-9d93-282c82f1f92a","ios":"levelo://app?vid=2dd40160-d554-4f1a-9d93-282c82f1f92a"},"vehicle_type_id":"4","last_reported":1687795752,"current_range_meters":21600,"station_id":"ce4bh2h2rcd13ifvqdh0","pricing_plan_id":"free"},{"bike_id":"b2cfb7ee-782e-4658-ac7b-8c7849b6cfdb","system_id":"levelo_inurba_marseille","lat":43.294162,"lon":5.386292,"is_reserved":false,"is_disabled":false,"rental_uris":{"android":"levelo://app?vid=b2cfb7ee-782e-4658-ac7b-8c7849b6cfdb","ios":"levelo://app?vid=b2cfb7ee-782e-4658-ac7b-8c7849b6cfdb"},"vehicle_type_id":"4","last_reported":1687795752,"current_range_meters":24000,"station_id":"ce4bh2h2rcd13ifvqdh0","pricing_plan_id":"free"},{"bike_id":"fd85e6bd-4fb8-4424-a6f1-204f77cbfdd2","system_id":"levelo_inurba_marseille","lat":43.28937,"lon":5.36637,"is_reserved":false,"is_disabled":false,"rental_uris":{"android":"levelo://app?vid=fd85e6bd-4fb8-4424-a6f1-204f77cbfdd2","ios":"levelo://app?vid=fd85e6bd-4fb8-4424-a6f1-204f77cbfdd2"},"vehicle_type_id":"4","last_reported":1687795752,"current_range_meters":31200,"station_id":"ce4bhap2rcd13ifvqek0","pricing_plan_id":"free"},{"bike_id":"045bebf3-e2ad-4ecf-9000-d679da0d4c8f","system_id":"levelo_inurba_marseille","lat":43.289468,"lon":5.363719,"is_reserved":false,"is_disabled":false,"rental_uris":{"android":"levelo://app?vid=045bebf3-e2ad-4ecf-9000-d679da0d4c8f","ios":"levelo://app?vid=045bebf3-e2ad-4ecf-9000-d679da0d4c8f"},"vehicle_type_id":"4","last_reported":1687795752,"current_range_meters":29600,"station_id":"ce4bhc92rcd13ifvqetg","pricing_plan_id":"free"},{"bike_id":"83d321f8-6007-4f53-9417-8c4fe8626d28","system_id":"levelo_inurba_marseille","lat":43.29266,"lon":5.38441,"is_reserved":false,"is_disabled":false,"rental_uris":{"android":"levelo://app?vid=83d321f8-6007-4f53-9417-8c4fe8626d28","ios":"levelo://app?vid=83d321f8-6007-4f53-9417-8c4fe8626d28"},"vehicle_type_id":"4","last_reported":1687795752,"current_range_meters":6800,"station_id":"ce4bh692rcd13ifvqea0","pricing_plan_id":"free"},{"bike_id":"db1beabb-9ce3-444b-9239-c16f8af41886","system_id":"levelo_inurba_marseille","lat":43.29259,"lon":5.38437,"is_reserved":false,"is_disabled":false,"rental_uris":{"android":"levelo://app?vid=db1beabb-9ce3-444b-9239-c16f8af41886","ios":"levelo://app?vid=db1beabb-9ce3-444b-9239-c16f8af41886"},"vehicle_type_id":"4","last_reported":1687795752,"current_range_meters":3600,"station_id":"ce4bh692rcd13ifvqea0","pricing_plan_id":"free"},{"bike_id":"856934f8-1123-45bf-9aa2-fcdb68b8d69e","system_id":"levelo_inurba_marseille","lat":43.29004,"lon":5.3562,"is_reserved":false,"is_disabled":false,"rental_uris":{"android":"levelo://app?vid=856934f8-1123-45bf-9aa2-fcdb68b8d69e","ios":"levelo://app?vid=856934f8-1123-45bf-9aa2-fcdb68b8d69e"},"vehicle_type_id":"4","last_reported":1687795752,"current_range_meters":10800,"station_id":"ce4bhb92rcd13ifvqen0","pricing_plan_id":"free"},{"bike_id":"f4246305-2f4d-41f0-beff-b2fe57c751d8","system_id":"levelo_inurba_marseille","lat":43.295169,"lon":5.390426,"is_reserved":false,"is_disabled":false,"rental_uris":{"android":"levelo://app?vid=f4246305-2f4d-41f0-beff-b2fe57c751d8","ios":"levelo://app?vid=f4246305-2f4d-41f0-beff-b2fe57c751d8"},"vehicle_type_id":"4","last_reported":1687795752,"current_range_meters":1200,"station_id":"ce4bh3p2rcd13ifvqdp0","pricing_plan_id":"free"},{"bike_id":"e4afa0c1-975a-4f18-af42-178174f3ce1c","system_id":"levelo_inurba_marseille","lat":43.28856,"lon":5.358371,"is_reserved":false,"is_disabled":false,"rental_uris":{"android":"levelo://app?vid=e4afa0c1-975a-4f18-af42-178174f3ce1c","ios":"levelo://app?vid=e4afa0c1-975a-4f18-af42-178174f3ce1c"},"vehicle_type_id":"4","last_reported":1687795752,"current_range_meters":24000,"station_id":"ce4bhb12rcd13ifvqem0","pricing_plan_id":"free"},{"bike_id":"522cf9d6-3365-48eb-ae1f-c2f23b05df78","system_id":"levelo_inurba_marseille","lat":43.28923,"lon":5.35475,"is_reserved":false,"is_disabled":false,"rental_uris":{"android":"levelo://app?vid=522cf9d6-3365-48eb-ae1f-c2f23b05df78","ios":"levelo://app?vid=522cf9d6-3365-48eb-ae1f-c2f23b05df78"},"vehicle_type_id":"4","last_reported":1687795752,"current_range_meters":800,"station_id":"ce4bhb92rcd13ifvqen0","pricing_plan_id":"free"},{"bike_id":"c180ae38-f769-441f-8a55-5a6e4930e6ad","system_id":"levelo_inurba_marseille","lat":43.3375,"lon":5.37439,"is_reserved":false,"is_disabled":false,"rental_uris":{"android":"levelo://app?vid=c180ae38-f769-441f-8a55-5a6e4930e6ad","ios":"levelo://app?vid=c180ae38-f769-441f-8a55-5a6e4930e6ad"},"vehicle_type_id":"4","last_reported":1687795752,"current_range_meters":16400,"station_id":"","pricing_plan_id":"free"},{"bike_id":"3f8a925a-6a54-4259-a38f-9cf091aab246","system_id":"levelo_inurba_marseille","lat":43.29236,"lon":5.38765,"is_reserved":false,"is_disabled":false,"rental_uris":{"android":"levelo://app?vid=3f8a925a-6a54-4259-a38f-9cf091aab246","ios":"levelo://app?vid=3f8a925a-6a54-4259-a38f-9cf091aab246"},"vehicle_type_id":"4","last_reported":1687795752,"current_range_meters":10800,"station_id":"","pricing_plan_id":"free"},{"bike_id":"7c923ee8-a52b-437e-8c33-79db24e1bad0","system_id":"levelo_inurba_marseille","lat":43.306412,"lon":5.401035,"is_reserved":false,"is_disabled":false,"rental_uris":{"android":"levelo://app?vid=7c923ee8-a52b-437e-8c33-79db24e1bad0","ios":"levelo://app?vid=7c923ee8-a52b-437e-8c33-79db24e1bad0"},"vehicle_type_id":"4","last_reported":1687795752,"current_range_meters":1600,"station_id":"ce4bh112rcd13ifvqda0","pricing_plan_id":"free"},{"bike_id":"adfeb7b7-cc40-41da-b602-957518c6a59d","system_id":"levelo_inurba_marseille","lat":43.284217,"lon":5.349697,"is_reserved":false,"is_disabled":false,"rental_uris":{"android":"levelo://app?vid=adfeb7b7-cc40-41da-b602-957518c6a59d","ios":"levelo://app?vid=adfeb7b7-cc40-41da-b602-957518c6a59d"},"vehicle_type_id":"4","last_reported":1687795752,"current_range_meters":27600,"station_id":"ce4bhbh2rcd13ifvqepg","pricing_plan_id":"free"},{"bike_id":"3bd931bd-7306-49f9-a3e2-a969389c73bc","system_id":"levelo_inurba_marseille","lat":43.30642,"lon":5.401031,"is_reserved":false,"is_disabled":false,"rental_uris":{"android":"levelo://app?vid=3bd931bd-7306-49f9-a3e2-a969389c73bc","ios":"levelo://app?vid=3bd931bd-7306-49f9-a3e2-a969389c73bc"},"vehicle_type_id":"4","last_reported":1687795752,"current_range_meters":0,"station_id":"ce4bh112rcd13ifvqda0","pricing_plan_id":"free"},{"bike_id":"31706d21-b6bb-426f-9aba-209dba8b3275","system_id":"levelo_inurba_marseille","lat":43.30642,"lon":5.401031,"is_reserved":false,"is_disabled":false,"rental_uris":{"android":"levelo://app?vid=31706d21-b6bb-426f-9aba-209dba8b3275","ios":"levelo://app?vid=31706d21-b6bb-426f-9aba-209dba8b3275"},"vehicle_type_id":"4","last_reported":1687795752,"current_range_meters":20400,"station_id":"ce4bh112rcd13ifvqda0","pricing_plan_id":"free"},{"bike_id":"a9d17386-fa1a-4be7-9e35-cb538f3c9a5e","system_id":"levelo_inurba_marseille","lat":43.301117,"lon":5.398795,"is_reserved":false,"is_disabled":false,"rental_uris":{"android":"levelo://app?vid=a9d17386-fa1a-4be7-9e35-cb538f3c9a5e","ios":"levelo://app?vid=a9d17386-fa1a-4be7-9e35-cb538f3c9a5e"},"vehicle_type_id":"4","last_reported":1687795752,"current_range_meters":0,"station_id":"ce4bh0h2rcd13ifvqd40","pricing_plan_id":"free"},{"bike_id":"a214a90f-32c3-448a-8c88-6610ac8f0a81","system_id":"levelo_inurba_marseille","lat":43.301117,"lon":5.398795,"is_reserved":false,"is_disabled":false,"rental_uris":{"android":"levelo://app?vid=a214a90f-32c3-448a-8c88-6610ac8f0a81","ios":"levelo://app?vid=a214a90f-32c3-448a-8c88-6610ac8f0a81"},"vehicle_type_id":"4","last_reported":1687795752,"current_range_meters":3600,"station_id":"ce4bh0h2rcd13ifvqd40","pricing_plan_id":"free"},{"bike_id":"30af3461-ecb7-44a6-b7b0-a73b2efe769a","system_id":"levelo_inurba_marseille","lat":43.301117,"lon":5.398795,"is_reserved":false,"is_disabled":false,"rental_uris":{"android":"levelo://app?vid=30af3461-ecb7-44a6-b7b0-a73b2efe769a","ios":"levelo://app?vid=30af3461-ecb7-44a6-b7b0-a73b2efe769a"},"vehicle_type_id":"4","last_reported":1687795752,"current_range_meters":8000,"station_id":"ce4bh0h2rcd13ifvqd40","pricing_plan_id":"free"},{"bike_id":"07fecae2-8f36-4759-a76c-e0902161f67e","system_id":"levelo_inurba_marseille","lat":43.286591,"lon":5.363346,"is_reserved":false,"is_disabled":false,"rental_uris":{"android":"levelo://app?vid=07fecae2-8f36-4759-a76c-e0902161f67e","ios":"levelo://app?vid=07fecae2-8f36-4759-a76c-e0902161f67e"},"vehicle_type_id":"4","last_reported":1687795752,"current_range_meters":11200,"station_id":"ce4bhah2rcd13ifvqej0","pricing_plan_id":"free"},{"bike_id":"43f87880-28fd-4821-9d57-b67dbbdc1d15","system_id":"levelo_inurba_marseille","lat":43.286591,"lon":5.363346,"is_reserved":false,"is_disabled":false,"rental_uris":{"android":"levelo://app?vid=43f87880-28fd-4821-9d57-b67dbbdc1d15","ios":"levelo://app?vid=43f87880-28fd-4821-9d57-b67dbbdc1d15"},"vehicle_type_id":"4","last_reported":1687795752,"current_range_meters":6000,"station_id":"ce4bhah2rcd13ifvqej0","pricing_plan_id":"free"},{"bike_id":"403714f1-6f77-45e0-aaab-b4552f1e42d1","system_id":"levelo_inurba_marseille","lat":43.286961,"lon":5.373785,"is_reserved":false,"is_disabled":false,"rental_uris":{"android":"levelo://app?vid=403714f1-6f77-45e0-aaab-b4552f1e42d1","ios":"levelo://app?vid=403714f1-6f77-45e0-aaab-b4552f1e42d1"},"vehicle_type_id":"4","last_reported":1687795752,"current_range_meters":1200,"station_id":"ce4bh3p2rcd13ifvqdq0","pricing_plan_id":"free"},{"bike_id":"7315120f-71d6-4529-9de2-dd28b1648e18","system_id":"levelo_inurba_marseille","lat":43.29537,"lon":5.39395,"is_reserved":false,"is_disabled":false,"rental_uris":{"android":"levelo://app?vid=7315120f-71d6-4529-9de2-dd28b1648e18","ios":"levelo://app?vid=7315120f-71d6-4529-9de2-dd28b1648e18"},"vehicle_type_id":"4","last_reported":1687795752,"current_range_meters":11200,"station_id":"ce4bh292rcd13ifvqdf0","pricing_plan_id":"free"},{"bike_id":"1d17b3b1-98f8-4ac9-b31f-6c637615347e","system_id":"levelo_inurba_marseille","lat":43.286591,"lon":5.363346,"is_reserved":false,"is_disabled":false,"rental_uris":{"android":"levelo://app?vid=1d17b3b1-98f8-4ac9-b31f-6c637615347e","ios":"levelo://app?vid=1d17b3b1-98f8-4ac9-b31f-6c637615347e"},"vehicle_type_id":"4","last_reported":1687795752,"current_range_meters":9600,"station_id":"ce4bhah2rcd13ifvqej0","pricing_plan_id":"free"},{"bike_id":"e72e6344-9910-4a54-80f8-f11c81225e64","system_id":"levelo_inurba_marseille","lat":43.286961,"lon":5.373785,"is_reserved":false,"is_disabled":false,"rental_uris":{"android":"levelo://app?vid=e72e6344-9910-4a54-80f8-f11c81225e64","ios":"levelo://app?vid=e72e6344-9910-4a54-80f8-f11c81225e64"},"vehicle_type_id":"4","last_reported":1687795752,"current_range_meters":2400,"station_id":"ce4bh3p2rcd13ifvqdq0","pricing_plan_id":"free"},{"bike_id":"2bc742fc-f311-47a4-8a59-ecb28e8b3ffb","system_id":"levelo_inurba_marseille","lat":43.286593,"lon":5.363346,"is_reserved":false,"is_disabled":false,"rental_uris":{"android":"levelo://app?vid=2bc742fc-f311-47a4-8a59-ecb28e8b3ffb","ios":"levelo://app?vid=2bc742fc-f311-47a4-8a59-ecb28e8b3ffb"},"vehicle_type_id":"4","last_reported":1687795752,"current_range_meters":1600,"station_id":"ce4bhah2rcd13ifvqej0","pricing_plan_id":"free"},{"bike_id":"657e5234-586e-4796-99c6-a08d47795abb","system_id":"levelo_inurba_marseille","lat":43.295194,"lon":5.39397,"is_reserved":false,"is_disabled":false,"rental_uris":{"android":"levelo://app?vid=657e5234-586e-4796-99c6-a08d47795abb","ios":"levelo://app?vid=657e5234-586e-4796-99c6-a08d47795abb"},"vehicle_type_id":"4","last_reported":1687795752,"current_range_meters":22800,"station_id":"ce4bh292rcd13ifvqdf0","pricing_plan_id":"free"},{"bike_id":"d3e4c25f-5e95-4383-b3e4-ad49e1011f69","system_id":"levelo_inurba_marseille","lat":43.30259,"lon":5.40066,"is_reserved":false,"is_disabled":false,"rental_uris":{"android":"levelo://app?vid=d3e4c25f-5e95-4383-b3e4-ad49e1011f69","ios":"levelo://app?vid=d3e4c25f-5e95-4383-b3e4-ad49e1011f69"},"vehicle_type_id":"4","last_reported":1687795752,"current_range_meters":4000,"station_id":"ce4bgvh2rcd13ifvqcs0","pricing_plan_id":"free"},{"bike_id":"635ffadd-bcf7-41ac-8356-ed24e01341f2","system_id":"levelo_inurba_marseille","lat":43.302759,"lon":5.400793,"is_reserved":false,"is_disabled":false,"rental_uris":{"android":"levelo://app?vid=635ffadd-bcf7-41ac-8356-ed24e01341f2","ios":"levelo://app?vid=635ffadd-bcf7-41ac-8356-ed24e01341f2"},"vehicle_type_id":"4","last_reported":1687795752,"current_range_meters":30000,"station_id":"ce4bgvh2rcd13ifvqcs0","pricing_plan_id":"free"},{"bike_id":"c5e685be-ca56-49d9-9102-482e7a08bd7a","system_id":"levelo_inurba_marseille","lat":43.302759,"lon":5.400793,"is_reserved":false,"is_disabled":false,"rental_uris":{"android":"levelo://app?vid=c5e685be-ca56-49d9-9102-482e7a08bd7a","ios":"levelo://app?vid=c5e685be-ca56-49d9-9102-482e7a08bd7a"},"vehicle_type_id":"4","last_reported":1687795752,"current_range_meters":6800,"station_id":"ce4bgvh2rcd13ifvqcs0","pricing_plan_id":"free"},{"bike_id":"06246a7e-e6f4-49cc-9da7-411ccbf3060f","system_id":"levelo_inurba_marseille","lat":43.287184,"lon":5.37937,"is_reserved":false,"is_disabled":false,"rental_uris":{"android":"levelo://app?vid=06246a7e-e6f4-49cc-9da7-411ccbf3060f","ios":"levelo://app?vid=06246a7e-e6f4-49cc-9da7-411ccbf3060f"},"vehicle_type_id":"4","last_reported":1687795752,"current_range_meters":28400,"station_id":"ce4bh9p2rcd13ifvqec0","pricing_plan_id":"free"},{"bike_id":"a7992ed1-4ab5-48e8-accf-94bb708c2a2f","system_id":"levelo_inurba_marseille","lat":43.31646,"lon":5.40432,"is_reserved":false,"is_disabled":false,"rental_uris":{"android":"levelo://app?vid=a7992ed1-4ab5-48e8-accf-94bb708c2a2f","ios":"levelo://app?vid=a7992ed1-4ab5-48e8-accf-94bb708c2a2f"},"vehicle_type_id":"4","last_reported":1687795752,"current_range_meters":0,"station_id":"ce4bh012rcd13ifvqd00","pricing_plan_id":"free"},{"bike_id":"bbd2d59f-af2b-426a-afb1-11143ad9b1d6","system_id":"levelo_inurba_marseille","lat":43.316517,"lon":5.404375,"is_reserved":false,"is_disabled":false,"rental_uris":{"android":"levelo://app?vid=bbd2d59f-af2b-426a-afb1-11143ad9b1d6","ios":"levelo://app?vid=bbd2d59f-af2b-426a-afb1-11143ad9b1d6"},"vehicle_type_id":"4","last_reported":1687795752,"current_range_meters":19200,"station_id":"ce4bh012rcd13ifvqd00","pricing_plan_id":"free"},{"bike_id":"d69fed3a-efe9-46fb-b1dc-1240b8978d3e","system_id":"levelo_inurba_marseille","lat":43.31648,"lon":5.4044,"is_reserved":false,"is_disabled":false,"rental_uris":{"android":"levelo://app?vid=d69fed3a-efe9-46fb-b1dc-1240b8978d3e","ios":"levelo://app?vid=d69fed3a-efe9-46fb-b1dc-1240b8978d3e"},"vehicle_type_id":"4","last_reported":1687795752,"current_range_meters":8800,"station_id":"ce4bh012rcd13ifvqd00","pricing_plan_id":"free"},{"bike_id":"b7ceaaff-6767-4022-bcb0-8231395b4581","system_id":"levelo_inurba_marseille","lat":43.29184,"lon":5.39318,"is_reserved":false,"is_disabled":false,"rental_uris":{"android":"levelo://app?vid=b7ceaaff-6767-4022-bcb0-8231395b4581","ios":"levelo://app?vid=b7ceaaff-6767-4022-bcb0-8231395b4581"},"vehicle_type_id":"4","last_reported":1687795752,"current_range_meters":0,"station_id":"","pricing_plan_id":"free"},{"bike_id":"031e545f-4329-436c-84f2-e1f2820f0f5e","system_id":"levelo_inurba_marseille","lat":43.284534,"lon":5.358662,"is_reserved":false,"is_disabled":false,"rental_uris":{"android":"levelo://app?vid=031e545f-4329-436c-84f2-e1f2820f0f5e","ios":"levelo://app?vid=031e545f-4329-436c-84f2-e1f2820f0f5e"},"vehicle_type_id":"4","last_reported":1687795752,"current_range_meters":17600,"station_id":"ce4bhah2rcd13ifvqei0","pricing_plan_id":"free"},{"bike_id":"1c6c39c3-7998-492c-8b9f-b1e9b043d065","system_id":"levelo_inurba_marseille","lat":43.2846,"lon":5.35898,"is_reserved":false,"is_disabled":false,"rental_uris":{"android":"levelo://app?vid=1c6c39c3-7998-492c-8b9f-b1e9b043d065","ios":"levelo://app?vid=1c6c39c3-7998-492c-8b9f-b1e9b043d065"},"vehicle_type_id":"4","last_reported":1687795752,"current_range_meters":5200,"station_id":"ce4bhah2rcd13ifvqei0","pricing_plan_id":"free"},{"bike_id":"e98b63db-06f5-482c-a0cd-de97dd58c4d8","system_id":"levelo_inurba_marseille","lat":43.28459,"lon":5.35894,"is_reserved":false,"is_disabled":false,"rental_uris":{"android":"levelo://app?vid=e98b63db-06f5-482c-a0cd-de97dd58c4d8","ios":"levelo://app?vid=e98b63db-06f5-482c-a0cd-de97dd58c4d8"},"vehicle_type_id":"4","last_reported":1687795752,"current_range_meters":5200,"station_id":"","pricing_plan_id":"free"},{"bike_id":"b4a384af-5969-4ab0-9b61-c886af63ff03","system_id":"levelo_inurba_marseille","lat":43.285848,"lon":5.350787,"is_reserved":false,"is_disabled":false,"rental_uris":{"android":"levelo://app?vid=b4a384af-5969-4ab0-9b61-c886af63ff03","ios":"levelo://app?vid=b4a384af-5969-4ab0-9b61-c886af63ff03"},"vehicle_type_id":"4","last_reported":1687795752,"current_range_meters":31200,"station_id":"ce4bhch2rcd13ifvqeug","pricing_plan_id":"free"},{"bike_id":"3f99e206-0b19-42ed-bcf1-77eebfa268bb","system_id":"levelo_inurba_marseille","lat":43.285848,"lon":5.350787,"is_reserved":false,"is_disabled":false,"rental_uris":{"android":"levelo://app?vid=3f99e206-0b19-42ed-bcf1-77eebfa268bb","ios":"levelo://app?vid=3f99e206-0b19-42ed-bcf1-77eebfa268bb"},"vehicle_type_id":"4","last_reported":1687795752,"current_range_meters":15600,"station_id":"ce4bhch2rcd13ifvqeug","pricing_plan_id":"free"},{"bike_id":"432b952b-f1e2-40c1-8ccf-b6a4fbd9511c","system_id":"levelo_inurba_marseille","lat":43.285848,"lon":5.350787,"is_reserved":false,"is_disabled":false,"rental_uris":{"android":"levelo://app?vid=432b952b-f1e2-40c1-8ccf-b6a4fbd9511c","ios":"levelo://app?vid=432b952b-f1e2-40c1-8ccf-b6a4fbd9511c"},"vehicle_type_id":"4","last_reported":1687795752,"current_range_meters":20000,"station_id":"ce4bhch2rcd13ifvqeug","pricing_plan_id":"free"},{"bike_id":"955ffa55-7989-4e82-8092-21973c174a63","system_id":"levelo_inurba_marseille","lat":43.285848,"lon":5.350787,"is_reserved":false,"is_disabled":false,"rental_uris":{"android":"levelo://app?vid=955ffa55-7989-4e82-8092-21973c174a63","ios":"levelo://app?vid=955ffa55-7989-4e82-8092-21973c174a63"},"vehicle_type_id":"4","last_reported":1687795752,"current_range_meters":2400,"station_id":"ce4bhch2rcd13ifvqeug","pricing_plan_id":"free"},{"bike_id":"796deca7-a04b-4561-9c74-2b2f2bd3319f","system_id":"levelo_inurba_marseille","lat":43.285848,"lon":5.350787,"is_reserved":false,"is_disabled":false,"rental_uris":{"android":"levelo://app?vid=796deca7-a04b-4561-9c74-2b2f2bd3319f","ios":"levelo://app?vid=796deca7-a04b-4561-9c74-2b2f2bd3319f"},"vehicle_type_id":"4","last_reported":1687795752,"current_range_meters":8800,"station_id":"ce4bhch2rcd13ifvqeug","pricing_plan_id":"free"},{"bike_id":"f6913d3c-3242-46c3-badd-a0afa5185d83","system_id":"levelo_inurba_marseille","lat":43.285848,"lon":5.350787,"is_reserved":false,"is_disabled":false,"rental_uris":{"android":"levelo://app?vid=f6913d3c-3242-46c3-badd-a0afa5185d83","ios":"levelo://app?vid=f6913d3c-3242-46c3-badd-a0afa5185d83"},"vehicle_type_id":"4","last_reported":1687795752,"current_range_meters":6800,"station_id":"ce4bhch2rcd13ifvqeug","pricing_plan_id":"free"},{"bike_id":"b6b30bfe-78dc-46f5-86ba-0b7f5161bb02","system_id":"levelo_inurba_marseille","lat":43.285856,"lon":5.350771,"is_reserved":false,"is_disabled":false,"rental_uris":{"android":"levelo://app?vid=b6b30bfe-78dc-46f5-86ba-0b7f5161bb02","ios":"levelo://app?vid=b6b30bfe-78dc-46f5-86ba-0b7f5161bb02"},"vehicle_type_id":"4","last_reported":1687795752,"current_range_meters":2800,"station_id":"ce4bhch2rcd13ifvqeug","pricing_plan_id":"free"},{"bike_id":"aeed07dc-d87a-4cc6-8538-efd0e911fa60","system_id":"levelo_inurba_marseille","lat":43.285856,"lon":5.350771,"is_reserved":false,"is_disabled":false,"rental_uris":{"android":"levelo://app?vid=aeed07dc-d87a-4cc6-8538-efd0e911fa60","ios":"levelo://app?vid=aeed07dc-d87a-4cc6-8538-efd0e911fa60"},"vehicle_type_id":"4","last_reported":1687795752,"current_range_meters":23600,"station_id":"ce4bhch2rcd13ifvqeug","pricing_plan_id":"free"},{"bike_id":"b5f0b6a0-22d7-4ee9-bf9e-fefecdec4b49","system_id":"levelo_inurba_marseille","lat":43.285856,"lon":5.350771,"is_reserved":false,"is_disabled":false,"rental_uris":{"android":"levelo://app?vid=b5f0b6a0-22d7-4ee9-bf9e-fefecdec4b49","ios":"levelo://app?vid=b5f0b6a0-22d7-4ee9-bf9e-fefecdec4b49"},"vehicle_type_id":"4","last_reported":1687795752,"current_range_meters":19200,"station_id":"ce4bhch2rcd13ifvqeug","pricing_plan_id":"free"},{"bike_id":"673bd843-f224-4d00-9bac-e074f2e8d772","system_id":"levelo_inurba_marseille","lat":43.285848,"lon":5.350787,"is_reserved":false,"is_disabled":false,"rental_uris":{"android":"levelo://app?vid=673bd843-f224-4d00-9bac-e074f2e8d772","ios":"levelo://app?vid=673bd843-f224-4d00-9bac-e074f2e8d772"},"vehicle_type_id":"4","last_reported":1687795752,"current_range_meters":28400,"station_id":"ce4bhch2rcd13ifvqeug","pricing_plan_id":"free"},{"bike_id":"212ae070-8c98-4529-b7ae-7306fd3a83b0","system_id":"levelo_inurba_marseille","lat":43.285848,"lon":5.350787,"is_reserved":false,"is_disabled":false,"rental_uris":{"android":"levelo://app?vid=212ae070-8c98-4529-b7ae-7306fd3a83b0","ios":"levelo://app?vid=212ae070-8c98-4529-b7ae-7306fd3a83b0"},"vehicle_type_id":"4","last_reported":1687795752,"current_range_meters":22800,"station_id":"ce4bhch2rcd13ifvqeug","pricing_plan_id":"free"},{"bike_id":"40aba745-a38c-4e3f-9126-64e6967a86da","system_id":"levelo_inurba_marseille","lat":43.285856,"lon":5.350771,"is_reserved":false,"is_disabled":false,"rental_uris":{"android":"levelo://app?vid=40aba745-a38c-4e3f-9126-64e6967a86da","ios":"levelo://app?vid=40aba745-a38c-4e3f-9126-64e6967a86da"},"vehicle_type_id":"4","last_reported":1687795752,"current_range_meters":31200,"station_id":"ce4bhch2rcd13ifvqeug","pricing_plan_id":"free"},{"bike_id":"ac91929b-5196-4476-8399-5c40a44bad91","system_id":"levelo_inurba_marseille","lat":43.285856,"lon":5.350771,"is_reserved":false,"is_disabled":false,"rental_uris":{"android":"levelo://app?vid=ac91929b-5196-4476-8399-5c40a44bad91","ios":"levelo://app?vid=ac91929b-5196-4476-8399-5c40a44bad91"},"vehicle_type_id":"4","last_reported":1687795752,"current_range_meters":6800,"station_id":"ce4bhch2rcd13ifvqeug","pricing_plan_id":"free"},{"bike_id":"17695cfc-3221-458d-9c98-6dcecb91b85b","system_id":"levelo_inurba_marseille","lat":43.285856,"lon":5.350771,"is_reserved":false,"is_disabled":false,"rental_uris":{"android":"levelo://app?vid=17695cfc-3221-458d-9c98-6dcecb91b85b","ios":"levelo://app?vid=17695cfc-3221-458d-9c98-6dcecb91b85b"},"vehicle_type_id":"4","last_reported":1687795752,"current_range_meters":2800,"station_id":"ce4bhch2rcd13ifvqeug","pricing_plan_id":"free"},{"bike_id":"f2afd2a9-21d4-42d8-b66f-45393b25e65c","system_id":"levelo_inurba_marseille","lat":43.285848,"lon":5.350787,"is_reserved":false,"is_disabled":false,"rental_uris":{"android":"levelo://app?vid=f2afd2a9-21d4-42d8-b66f-45393b25e65c","ios":"levelo://app?vid=f2afd2a9-21d4-42d8-b66f-45393b25e65c"},"vehicle_type_id":"4","last_reported":1687795752,"current_range_meters":23600,"station_id":"ce4bhch2rcd13ifvqeug","pricing_plan_id":"free"},{"bike_id":"56d331cf-4892-409f-b6c7-19c127b08210","system_id":"levelo_inurba_marseille","lat":43.285856,"lon":5.350771,"is_reserved":false,"is_disabled":false,"rental_uris":{"android":"levelo://app?vid=56d331cf-4892-409f-b6c7-19c127b08210","ios":"levelo://app?vid=56d331cf-4892-409f-b6c7-19c127b08210"},"vehicle_type_id":"4","last_reported":1687795752,"current_range_meters":4000,"station_id":"ce4bhch2rcd13ifvqeug","pricing_plan_id":"free"},{"bike_id":"7f2809c6-c8fd-4a71-b62e-8f23fa5bfab8","system_id":"levelo_inurba_marseille","lat":43.285848,"lon":5.350787,"is_reserved":false,"is_disabled":false,"rental_uris":{"android":"levelo://app?vid=7f2809c6-c8fd-4a71-b62e-8f23fa5bfab8","ios":"levelo://app?vid=7f2809c6-c8fd-4a71-b62e-8f23fa5bfab8"},"vehicle_type_id":"4","last_reported":1687795752,"current_range_meters":12000,"station_id":"ce4bhch2rcd13ifvqeug","pricing_plan_id":"free"},{"bike_id":"cfde89d8-2103-4c4d-9c9b-7210c1922112","system_id":"levelo_inurba_marseille","lat":43.285848,"lon":5.350787,"is_reserved":false,"is_disabled":false,"rental_uris":{"android":"levelo://app?vid=cfde89d8-2103-4c4d-9c9b-7210c1922112","ios":"levelo://app?vid=cfde89d8-2103-4c4d-9c9b-7210c1922112"},"vehicle_type_id":"4","last_reported":1687795752,"current_range_meters":31200,"station_id":"ce4bhch2rcd13ifvqeug","pricing_plan_id":"free"},{"bike_id":"6aaf1367-2efe-4813-8788-12b01d99028a","system_id":"levelo_inurba_marseille","lat":43.285856,"lon":5.350771,"is_reserved":false,"is_disabled":false,"rental_uris":{"android":"levelo://app?vid=6aaf1367-2efe-4813-8788-12b01d99028a","ios":"levelo://app?vid=6aaf1367-2efe-4813-8788-12b01d99028a"},"vehicle_type_id":"4","last_reported":1687795752,"current_range_meters":22800,"station_id":"ce4bhch2rcd13ifvqeug","pricing_plan_id":"free"},{"bike_id":"56a79f66-f4bf-4b75-8542-d6b9e02e31ff","system_id":"levelo_inurba_marseille","lat":43.285856,"lon":5.350771,"is_reserved":false,"is_disabled":false,"rental_uris":{"android":"levelo://app?vid=56a79f66-f4bf-4b75-8542-d6b9e02e31ff","ios":"levelo://app?vid=56a79f66-f4bf-4b75-8542-d6b9e02e31ff"},"vehicle_type_id":"4","last_reported":1687795752,"current_range_meters":31200,"station_id":"ce4bhch2rcd13ifvqeug","pricing_plan_id":"free"},{"bike_id":"9af52f3c-a910-4c46-8bc9-5f4c97fe5044","system_id":"levelo_inurba_marseille","lat":43.285856,"lon":5.350771,"is_reserved":false,"is_disabled":false,"rental_uris":{"android":"levelo://app?vid=9af52f3c-a910-4c46-8bc9-5f4c97fe5044","ios":"levelo://app?vid=9af52f3c-a910-4c46-8bc9-5f4c97fe5044"},"vehicle_type_id":"4","last_reported":1687795752,"current_range_meters":27600,"station_id":"ce4bhch2rcd13ifvqeug","pricing_plan_id":"free"},{"bike_id":"7266980a-c7c0-42d8-a68f-bad3da5a47eb","system_id":"levelo_inurba_marseille","lat":43.285856,"lon":5.350771,"is_reserved":false,"is_disabled":false,"rental_uris":{"android":"levelo://app?vid=7266980a-c7c0-42d8-a68f-bad3da5a47eb","ios":"levelo://app?vid=7266980a-c7c0-42d8-a68f-bad3da5a47eb"},"vehicle_type_id":"4","last_reported":1687795752,"current_range_meters":23200,"station_id":"ce4bhch2rcd13ifvqeug","pricing_plan_id":"free"},{"bike_id":"c47a00f5-bca6-4848-aa4a-4953bca86f43","system_id":"levelo_inurba_marseille","lat":43.283998,"lon":5.375062,"is_reserved":false,"is_disabled":false,"rental_uris":{"android":"levelo://app?vid=c47a00f5-bca6-4848-aa4a-4953bca86f43","ios":"levelo://app?vid=c47a00f5-bca6-4848-aa4a-4953bca86f43"},"vehicle_type_id":"4","last_reported":1687795752,"current_range_meters":26400,"station_id":"ce4bh412rcd13ifvqds0","pricing_plan_id":"free"},{"bike_id":"5d995f20-50bd-4b6e-afa4-374a8fe79906","system_id":"levelo_inurba_marseille","lat":43.286595,"lon":5.386795,"is_reserved":false,"is_disabled":false,"rental_uris":{"android":"levelo://app?vid=5d995f20-50bd-4b6e-afa4-374a8fe79906","ios":"levelo://app?vid=5d995f20-50bd-4b6e-afa4-374a8fe79906"},"vehicle_type_id":"4","last_reported":1687795752,"current_range_meters":8800,"station_id":"ce4bh492rcd13ifvqdug","pricing_plan_id":"free"},{"bike_id":"e1c41ebe-c45a-42c8-8249-21aa680cb70e","system_id":"levelo_inurba_marseille","lat":43.323464,"lon":5.406297,"is_reserved":false,"is_disabled":false,"rental_uris":{"android":"levelo://app?vid=e1c41ebe-c45a-42c8-8249-21aa680cb70e","ios":"levelo://app?vid=e1c41ebe-c45a-42c8-8249-21aa680cb70e"},"vehicle_type_id":"4","last_reported":1687795752,"current_range_meters":23200,"station_id":"ce4bhq92rcd13ifvqhjg","pricing_plan_id":"free"},{"bike_id":"47cf2591-be30-4574-b81b-5471f953e13f","system_id":"levelo_inurba_marseille","lat":43.323464,"lon":5.406297,"is_reserved":false,"is_disabled":false,"rental_uris":{"android":"levelo://app?vid=47cf2591-be30-4574-b81b-5471f953e13f","ios":"levelo://app?vid=47cf2591-be30-4574-b81b-5471f953e13f"},"vehicle_type_id":"4","last_reported":1687795752,"current_range_meters":25600,"station_id":"ce4bhq92rcd13ifvqhjg","pricing_plan_id":"free"},{"bike_id":"2aaf1992-a579-4e05-a6ed-c783354ec2bb","system_id":"levelo_inurba_marseille","lat":43.28482,"lon":5.38418,"is_reserved":false,"is_disabled":false,"rental_uris":{"android":"levelo://app?vid=2aaf1992-a579-4e05-a6ed-c783354ec2bb","ios":"levelo://app?vid=2aaf1992-a579-4e05-a6ed-c783354ec2bb"},"vehicle_type_id":"4","last_reported":1687795752,"current_range_meters":5600,"station_id":"ce4bh512rcd13ifvqe3g","pricing_plan_id":"free"},{"bike_id":"b4c950db-352f-4a1a-8e3c-c05101a6dad0","system_id":"levelo_inurba_marseille","lat":43.288501,"lon":5.393087,"is_reserved":false,"is_disabled":false,"rental_uris":{"android":"levelo://app?vid=b4c950db-352f-4a1a-8e3c-c05101a6dad0","ios":"levelo://app?vid=b4c950db-352f-4a1a-8e3c-c05101a6dad0"},"vehicle_type_id":"4","last_reported":1687795752,"current_range_meters":30400,"station_id":"ce4bh2p2rcd13ifvqdi0","pricing_plan_id":"free"},{"bike_id":"b14834f5-19e3-4944-840f-a0da21275289","system_id":"levelo_inurba_marseille","lat":43.30668,"lon":5.40854,"is_reserved":false,"is_disabled":false,"rental_uris":{"android":"levelo://app?vid=b14834f5-19e3-4944-840f-a0da21275289","ios":"levelo://app?vid=b14834f5-19e3-4944-840f-a0da21275289"},"vehicle_type_id":"4","last_reported":1687795752,"current_range_meters":6400,"station_id":"","pricing_plan_id":"free"},{"bike_id":"589b4c4b-8a45-430d-a955-efece629a7ea","system_id":"levelo_inurba_marseille","lat":43.284219,"lon":5.3497,"is_reserved":false,"is_disabled":false,"rental_uris":{"android":"levelo://app?vid=589b4c4b-8a45-430d-a955-efece629a7ea","ios":"levelo://app?vid=589b4c4b-8a45-430d-a955-efece629a7ea"},"vehicle_type_id":"4","last_reported":1687795752,"current_range_meters":31600,"station_id":"ce4bhbh2rcd13ifvqepg","pricing_plan_id":"free"},{"bike_id":"69e03a59-eaed-45e0-a5fb-304a277bceae","system_id":"levelo_inurba_marseille","lat":43.284219,"lon":5.3497,"is_reserved":false,"is_disabled":false,"rental_uris":{"android":"levelo://app?vid=69e03a59-eaed-45e0-a5fb-304a277bceae","ios":"levelo://app?vid=69e03a59-eaed-45e0-a5fb-304a277bceae"},"vehicle_type_id":"4","last_reported":1687795752,"current_range_meters":31600,"station_id":"ce4bhbh2rcd13ifvqepg","pricing_plan_id":"free"},{"bike_id":"868a7975-7b76-4ee6-b9fd-40bc721a83a4","system_id":"levelo_inurba_marseille","lat":43.284219,"lon":5.3497,"is_reserved":false,"is_disabled":false,"rental_uris":{"android":"levelo://app?vid=868a7975-7b76-4ee6-b9fd-40bc721a83a4","ios":"levelo://app?vid=868a7975-7b76-4ee6-b9fd-40bc721a83a4"},"vehicle_type_id":"4","last_reported":1687795752,"current_range_meters":27600,"station_id":"ce4bhbh2rcd13ifvqepg","pricing_plan_id":"free"},{"bike_id":"f9882f82-2b3f-4aa6-ba6f-2fb3f3c2405a","system_id":"levelo_inurba_marseille","lat":43.284219,"lon":5.3497,"is_reserved":false,"is_disabled":false,"rental_uris":{"android":"levelo://app?vid=f9882f82-2b3f-4aa6-ba6f-2fb3f3c2405a","ios":"levelo://app?vid=f9882f82-2b3f-4aa6-ba6f-2fb3f3c2405a"},"vehicle_type_id":"4","last_reported":1687795752,"current_range_meters":30000,"station_id":"ce4bhbh2rcd13ifvqepg","pricing_plan_id":"free"},{"bike_id":"66020921-b1b7-4d9d-b40f-dc563be6341b","system_id":"levelo_inurba_marseille","lat":43.284219,"lon":5.3497,"is_reserved":false,"is_disabled":false,"rental_uris":{"android":"levelo://app?vid=66020921-b1b7-4d9d-b40f-dc563be6341b","ios":"levelo://app?vid=66020921-b1b7-4d9d-b40f-dc563be6341b"},"vehicle_type_id":"4","last_reported":1687795752,"current_range_meters":29600,"station_id":"ce4bhbh2rcd13ifvqepg","pricing_plan_id":"free"},{"bike_id":"69d8dc3f-1e9f-4a3f-9cac-b821bcb0e023","system_id":"levelo_inurba_marseille","lat":43.284219,"lon":5.3497,"is_reserved":false,"is_disabled":false,"rental_uris":{"android":"levelo://app?vid=69d8dc3f-1e9f-4a3f-9cac-b821bcb0e023","ios":"levelo://app?vid=69d8dc3f-1e9f-4a3f-9cac-b821bcb0e023"},"vehicle_type_id":"4","last_reported":1687795752,"current_range_meters":30400,"station_id":"ce4bhbh2rcd13ifvqepg","pricing_plan_id":"free"},{"bike_id":"1b04a6e6-42b8-4afc-ad94-9d8702274b4c","system_id":"levelo_inurba_marseille","lat":43.284217,"lon":5.349697,"is_reserved":false,"is_disabled":false,"rental_uris":{"android":"levelo://app?vid=1b04a6e6-42b8-4afc-ad94-9d8702274b4c","ios":"levelo://app?vid=1b04a6e6-42b8-4afc-ad94-9d8702274b4c"},"vehicle_type_id":"4","last_reported":1687795752,"current_range_meters":24400,"station_id":"ce4bhbh2rcd13ifvqepg","pricing_plan_id":"free"},{"bike_id":"16286ddd-c94e-41b9-8999-923e3919f067","system_id":"levelo_inurba_marseille","lat":43.284217,"lon":5.349697,"is_reserved":false,"is_disabled":false,"rental_uris":{"android":"levelo://app?vid=16286ddd-c94e-41b9-8999-923e3919f067","ios":"levelo://app?vid=16286ddd-c94e-41b9-8999-923e3919f067"},"vehicle_type_id":"4","last_reported":1687795752,"current_range_meters":27200,"station_id":"ce4bhbh2rcd13ifvqepg","pricing_plan_id":"free"},{"bike_id":"04078fcd-62a8-4652-81d6-c1e8218dbff2","system_id":"levelo_inurba_marseille","lat":43.284219,"lon":5.3497,"is_reserved":false,"is_disabled":false,"rental_uris":{"android":"levelo://app?vid=04078fcd-62a8-4652-81d6-c1e8218dbff2","ios":"levelo://app?vid=04078fcd-62a8-4652-81d6-c1e8218dbff2"},"vehicle_type_id":"4","last_reported":1687795752,"current_range_meters":31600,"station_id":"ce4bhbh2rcd13ifvqepg","pricing_plan_id":"free"},{"bike_id":"8ec79220-c470-46bd-90f2-ef729d10b6e8","system_id":"levelo_inurba_marseille","lat":43.284217,"lon":5.349697,"is_reserved":false,"is_disabled":false,"rental_uris":{"android":"levelo://app?vid=8ec79220-c470-46bd-90f2-ef729d10b6e8","ios":"levelo://app?vid=8ec79220-c470-46bd-90f2-ef729d10b6e8"},"vehicle_type_id":"4","last_reported":1687795752,"current_range_meters":400,"station_id":"ce4bhbh2rcd13ifvqepg","pricing_plan_id":"free"},{"bike_id":"0e394965-7f50-49a5-ad85-7f6f3657f5b0","system_id":"levelo_inurba_marseille","lat":43.284217,"lon":5.349697,"is_reserved":false,"is_disabled":false,"rental_uris":{"android":"levelo://app?vid=0e394965-7f50-49a5-ad85-7f6f3657f5b0","ios":"levelo://app?vid=0e394965-7f50-49a5-ad85-7f6f3657f5b0"},"vehicle_type_id":"4","last_reported":1687795752,"current_range_meters":14000,"station_id":"ce4bhbh2rcd13ifvqepg","pricing_plan_id":"free"},{"bike_id":"f195b63c-9e17-42bf-9ebb-cd38eb4d804f","system_id":"levelo_inurba_marseille","lat":43.284219,"lon":5.3497,"is_reserved":false,"is_disabled":false,"rental_uris":{"android":"levelo://app?vid=f195b63c-9e17-42bf-9ebb-cd38eb4d804f","ios":"levelo://app?vid=f195b63c-9e17-42bf-9ebb-cd38eb4d804f"},"vehicle_type_id":"4","last_reported":1687795752,"current_range_meters":24800,"station_id":"ce4bhbh2rcd13ifvqepg","pricing_plan_id":"free"},{"bike_id":"b7f90104-77f4-432c-a73d-2f967a5e3b18","system_id":"levelo_inurba_marseille","lat":43.284219,"lon":5.3497,"is_reserved":false,"is_disabled":false,"rental_uris":{"android":"levelo://app?vid=b7f90104-77f4-432c-a73d-2f967a5e3b18","ios":"levelo://app?vid=b7f90104-77f4-432c-a73d-2f967a5e3b18"},"vehicle_type_id":"4","last_reported":1687795752,"current_range_meters":28000,"station_id":"ce4bhbh2rcd13ifvqepg","pricing_plan_id":"free"},{"bike_id":"821cdccf-6ee6-430e-919b-6aab2d5dca24","system_id":"levelo_inurba_marseille","lat":43.284217,"lon":5.349697,"is_reserved":false,"is_disabled":false,"rental_uris":{"android":"levelo://app?vid=821cdccf-6ee6-430e-919b-6aab2d5dca24","ios":"levelo://app?vid=821cdccf-6ee6-430e-919b-6aab2d5dca24"},"vehicle_type_id":"4","last_reported":1687795752,"current_range_meters":6000,"station_id":"ce4bhbh2rcd13ifvqepg","pricing_plan_id":"free"},{"bike_id":"7e57402e-dd8e-4e1a-ad1f-0e9234e4289c","system_id":"levelo_inurba_marseille","lat":43.284217,"lon":5.349697,"is_reserved":false,"is_disabled":false,"rental_uris":{"android":"levelo://app?vid=7e57402e-dd8e-4e1a-ad1f-0e9234e4289c","ios":"levelo://app?vid=7e57402e-dd8e-4e1a-ad1f-0e9234e4289c"},"vehicle_type_id":"4","last_reported":1687795752,"current_range_meters":22800,"station_id":"ce4bhbh2rcd13ifvqepg","pricing_plan_id":"free"},{"bike_id":"8957d524-f5b4-4034-925e-96cacef29c5a","system_id":"levelo_inurba_marseille","lat":43.30621,"lon":5.4091,"is_reserved":false,"is_disabled":false,"rental_uris":{"android":"levelo://app?vid=8957d524-f5b4-4034-925e-96cacef29c5a","ios":"levelo://app?vid=8957d524-f5b4-4034-925e-96cacef29c5a"},"vehicle_type_id":"4","last_reported":1687795752,"current_range_meters":0,"station_id":"","pricing_plan_id":"free"},{"bike_id":"4229e83d-1898-4f1b-8b19-909427cfb173","system_id":"levelo_inurba_marseille","lat":43.29266,"lon":5.4013,"is_reserved":false,"is_disabled":false,"rental_uris":{"android":"levelo://app?vid=4229e83d-1898-4f1b-8b19-909427cfb173","ios":"levelo://app?vid=4229e83d-1898-4f1b-8b19-909427cfb173"},"vehicle_type_id":"4","last_reported":1687795752,"current_range_meters":22800,"station_id":"ce4bh312rcd13ifvqdk0","pricing_plan_id":"free"},{"bike_id":"a1424db8-2188-4600-954d-67b58858f08c","system_id":"levelo_inurba_marseille","lat":43.28278,"lon":5.3509,"is_reserved":false,"is_disabled":false,"rental_uris":{"android":"levelo://app?vid=a1424db8-2188-4600-954d-67b58858f08c","ios":"levelo://app?vid=a1424db8-2188-4600-954d-67b58858f08c"},"vehicle_type_id":"4","last_reported":1687795752,"current_range_meters":20400,"station_id":"","pricing_plan_id":"free"},{"bike_id":"31d8f23c-30fd-4bd5-9e7a-a837f9d23cf3","system_id":"levelo_inurba_marseille","lat":43.32036,"lon":5.40986,"is_reserved":false,"is_disabled":false,"rental_uris":{"android":"levelo://app?vid=31d8f23c-30fd-4bd5-9e7a-a837f9d23cf3","ios":"levelo://app?vid=31d8f23c-30fd-4bd5-9e7a-a837f9d23cf3"},"vehicle_type_id":"4","last_reported":1687795752,"current_range_meters":2800,"station_id":"","pricing_plan_id":"free"},{"bike_id":"794a8cb7-c2c7-4c87-bffe-13cdfb6bd6d7","system_id":"levelo_inurba_marseille","lat":43.28277,"lon":5.35077,"is_reserved":false,"is_disabled":false,"rental_uris":{"android":"levelo://app?vid=794a8cb7-c2c7-4c87-bffe-13cdfb6bd6d7","ios":"levelo://app?vid=794a8cb7-c2c7-4c87-bffe-13cdfb6bd6d7"},"vehicle_type_id":"4","last_reported":1687795752,"current_range_meters":22000,"station_id":"ce4bhbp2rcd13ifvqerg","pricing_plan_id":"free"},{"bike_id":"bf165092-88de-4be6-b8fa-ffcd673ef145","system_id":"levelo_inurba_marseille","lat":43.28275,"lon":5.35077,"is_reserved":false,"is_disabled":false,"rental_uris":{"android":"levelo://app?vid=bf165092-88de-4be6-b8fa-ffcd673ef145","ios":"levelo://app?vid=bf165092-88de-4be6-b8fa-ffcd673ef145"},"vehicle_type_id":"4","last_reported":1687795752,"current_range_meters":30800,"station_id":"ce4bhbp2rcd13ifvqerg","pricing_plan_id":"free"},{"bike_id":"2bd2dc2a-b040-4cef-81cf-5690ea00cba6","system_id":"levelo_inurba_marseille","lat":43.28275,"lon":5.35076,"is_reserved":false,"is_disabled":false,"rental_uris":{"android":"levelo://app?vid=2bd2dc2a-b040-4cef-81cf-5690ea00cba6","ios":"levelo://app?vid=2bd2dc2a-b040-4cef-81cf-5690ea00cba6"},"vehicle_type_id":"4","last_reported":1687795752,"current_range_meters":18800,"station_id":"ce4bhbp2rcd13ifvqerg","pricing_plan_id":"free"},{"bike_id":"f0da5c07-90d7-4ec3-8790-0124fdf03b02","system_id":"levelo_inurba_marseille","lat":43.28272,"lon":5.35078,"is_reserved":false,"is_disabled":false,"rental_uris":{"android":"levelo://app?vid=f0da5c07-90d7-4ec3-8790-0124fdf03b02","ios":"levelo://app?vid=f0da5c07-90d7-4ec3-8790-0124fdf03b02"},"vehicle_type_id":"4","last_reported":1687795752,"current_range_meters":31200,"station_id":"ce4bhbp2rcd13ifvqerg","pricing_plan_id":"free"},{"bike_id":"56099592-2bbd-4175-892c-0b9644e46744","system_id":"levelo_inurba_marseille","lat":43.28268,"lon":5.35081,"is_reserved":false,"is_disabled":false,"rental_uris":{"android":"levelo://app?vid=56099592-2bbd-4175-892c-0b9644e46744","ios":"levelo://app?vid=56099592-2bbd-4175-892c-0b9644e46744"},"vehicle_type_id":"4","last_reported":1687795752,"current_range_meters":15200,"station_id":"ce4bhbp2rcd13ifvqerg","pricing_plan_id":"free"},{"bike_id":"ca1ee08e-14be-4d12-af22-57e172fc9cf3","system_id":"levelo_inurba_marseille","lat":43.28269,"lon":5.35075,"is_reserved":false,"is_disabled":false,"rental_uris":{"android":"levelo://app?vid=ca1ee08e-14be-4d12-af22-57e172fc9cf3","ios":"levelo://app?vid=ca1ee08e-14be-4d12-af22-57e172fc9cf3"},"vehicle_type_id":"4","last_reported":1687795752,"current_range_meters":12000,"station_id":"ce4bhbp2rcd13ifvqerg","pricing_plan_id":"free"},{"bike_id":"dcdba25a-8422-4333-9647-f0064e013cbd","system_id":"levelo_inurba_marseille","lat":43.28267,"lon":5.35082,"is_reserved":false,"is_disabled":false,"rental_uris":{"android":"levelo://app?vid=dcdba25a-8422-4333-9647-f0064e013cbd","ios":"levelo://app?vid=dcdba25a-8422-4333-9647-f0064e013cbd"},"vehicle_type_id":"4","last_reported":1687795752,"current_range_meters":17600,"station_id":"ce4bhbp2rcd13ifvqerg","pricing_plan_id":"free"},{"bike_id":"916341f5-c2cf-4419-9271-9d5a42d9dba4","system_id":"levelo_inurba_marseille","lat":43.28269,"lon":5.35072,"is_reserved":false,"is_disabled":false,"rental_uris":{"android":"levelo://app?vid=916341f5-c2cf-4419-9271-9d5a42d9dba4","ios":"levelo://app?vid=916341f5-c2cf-4419-9271-9d5a42d9dba4"},"vehicle_type_id":"4","last_reported":1687795752,"current_range_meters":17200,"station_id":"ce4bhbp2rcd13ifvqerg","pricing_plan_id":"free"},{"bike_id":"1562a543-b97b-46ec-9a71-6f76717c2ba4","system_id":"levelo_inurba_marseille","lat":43.2827,"lon":5.35066,"is_reserved":false,"is_disabled":false,"rental_uris":{"android":"levelo://app?vid=1562a543-b97b-46ec-9a71-6f76717c2ba4","ios":"levelo://app?vid=1562a543-b97b-46ec-9a71-6f76717c2ba4"},"vehicle_type_id":"4","last_reported":1687795752,"current_range_meters":14800,"station_id":"ce4bhbp2rcd13ifvqerg","pricing_plan_id":"free"},{"bike_id":"cda99336-10c5-40c8-98cc-c0898414f479","system_id":"levelo_inurba_marseille","lat":43.28267,"lon":5.35074,"is_reserved":false,"is_disabled":false,"rental_uris":{"android":"levelo://app?vid=cda99336-10c5-40c8-98cc-c0898414f479","ios":"levelo://app?vid=cda99336-10c5-40c8-98cc-c0898414f479"},"vehicle_type_id":"4","last_reported":1687795752,"current_range_meters":31200,"station_id":"ce4bhbp2rcd13ifvqerg","pricing_plan_id":"free"},{"bike_id":"a37d77d3-9b59-4ab5-aa35-da6a37fa51f7","system_id":"levelo_inurba_marseille","lat":43.282688,"lon":5.350675,"is_reserved":false,"is_disabled":false,"rental_uris":{"android":"levelo://app?vid=a37d77d3-9b59-4ab5-aa35-da6a37fa51f7","ios":"levelo://app?vid=a37d77d3-9b59-4ab5-aa35-da6a37fa51f7"},"vehicle_type_id":"4","last_reported":1687795752,"current_range_meters":14400,"station_id":"ce4bhbp2rcd13ifvqerg","pricing_plan_id":"free"},{"bike_id":"3ac29630-6bd6-463b-8d7b-552ecabc9f2f","system_id":"levelo_inurba_marseille","lat":43.28267,"lon":5.35071,"is_reserved":false,"is_disabled":false,"rental_uris":{"android":"levelo://app?vid=3ac29630-6bd6-463b-8d7b-552ecabc9f2f","ios":"levelo://app?vid=3ac29630-6bd6-463b-8d7b-552ecabc9f2f"},"vehicle_type_id":"4","last_reported":1687795752,"current_range_meters":12000,"station_id":"ce4bhbp2rcd13ifvqerg","pricing_plan_id":"free"},{"bike_id":"78b342c6-e99d-40d7-9e24-48236bbe12cb","system_id":"levelo_inurba_marseille","lat":43.2827,"lon":5.35059,"is_reserved":false,"is_disabled":false,"rental_uris":{"android":"levelo://app?vid=78b342c6-e99d-40d7-9e24-48236bbe12cb","ios":"levelo://app?vid=78b342c6-e99d-40d7-9e24-48236bbe12cb"},"vehicle_type_id":"4","last_reported":1687795752,"current_range_meters":16800,"station_id":"ce4bhbp2rcd13ifvqerg","pricing_plan_id":"free"},{"bike_id":"76fc88c7-25c6-4cc9-a168-7bcd02eaeb5b","system_id":"levelo_inurba_marseille","lat":43.283502,"lon":5.386471,"is_reserved":false,"is_disabled":false,"rental_uris":{"android":"levelo://app?vid=76fc88c7-25c6-4cc9-a168-7bcd02eaeb5b","ios":"levelo://app?vid=76fc88c7-25c6-4cc9-a168-7bcd02eaeb5b"},"vehicle_type_id":"4","last_reported":1687795752,"current_range_meters":0,"station_id":"ce4bh492rcd13ifvqdvg","pricing_plan_id":"free"},{"bike_id":"c7b104b2-ca8a-4012-880c-128e8a280ae3","system_id":"levelo_inurba_marseille","lat":43.28265,"lon":5.35075,"is_reserved":false,"is_disabled":false,"rental_uris":{"android":"levelo://app?vid=c7b104b2-ca8a-4012-880c-128e8a280ae3","ios":"levelo://app?vid=c7b104b2-ca8a-4012-880c-128e8a280ae3"},"vehicle_type_id":"4","last_reported":1687795752,"current_range_meters":28400,"station_id":"ce4bhbp2rcd13ifvqerg","pricing_plan_id":"free"},{"bike_id":"93337539-9f52-41ea-9377-f31f8e2af6bf","system_id":"levelo_inurba_marseille","lat":43.28268,"lon":5.35064,"is_reserved":false,"is_disabled":false,"rental_uris":{"android":"levelo://app?vid=93337539-9f52-41ea-9377-f31f8e2af6bf","ios":"levelo://app?vid=93337539-9f52-41ea-9377-f31f8e2af6bf"},"vehicle_type_id":"4","last_reported":1687795752,"current_range_meters":31200,"station_id":"ce4bhbp2rcd13ifvqerg","pricing_plan_id":"free"},{"bike_id":"474294ba-265a-4fcf-be7c-471fedee7c51","system_id":"levelo_inurba_marseille","lat":43.28264,"lon":5.35076,"is_reserved":false,"is_disabled":false,"rental_uris":{"android":"levelo://app?vid=474294ba-265a-4fcf-be7c-471fedee7c51","ios":"levelo://app?vid=474294ba-265a-4fcf-be7c-471fedee7c51"},"vehicle_type_id":"4","last_reported":1687795752,"current_range_meters":11200,"station_id":"ce4bhbp2rcd13ifvqerg","pricing_plan_id":"free"},{"bike_id":"8829188b-8937-4a7b-bf1f-49a70fdd135a","system_id":"levelo_inurba_marseille","lat":43.28268,"lon":5.35062,"is_reserved":false,"is_disabled":false,"rental_uris":{"android":"levelo://app?vid=8829188b-8937-4a7b-bf1f-49a70fdd135a","ios":"levelo://app?vid=8829188b-8937-4a7b-bf1f-49a70fdd135a"},"vehicle_type_id":"4","last_reported":1687795752,"current_range_meters":0,"station_id":"ce4bhbp2rcd13ifvqerg","pricing_plan_id":"free"},{"bike_id":"bef51922-76cc-4c94-9117-d7d8d2372246","system_id":"levelo_inurba_marseille","lat":43.28265,"lon":5.35072,"is_reserved":false,"is_disabled":false,"rental_uris":{"android":"levelo://app?vid=bef51922-76cc-4c94-9117-d7d8d2372246","ios":"levelo://app?vid=bef51922-76cc-4c94-9117-d7d8d2372246"},"vehicle_type_id":"4","last_reported":1687795752,"current_range_meters":26000,"station_id":"ce4bhbp2rcd13ifvqerg","pricing_plan_id":"free"},{"bike_id":"2c6e2d55-14d3-4d3b-b0ea-783b99b739f2","system_id":"levelo_inurba_marseille","lat":43.28266,"lon":5.35061,"is_reserved":false,"is_disabled":false,"rental_uris":{"android":"levelo://app?vid=2c6e2d55-14d3-4d3b-b0ea-783b99b739f2","ios":"levelo://app?vid=2c6e2d55-14d3-4d3b-b0ea-783b99b739f2"},"vehicle_type_id":"4","last_reported":1687795752,"current_range_meters":24400,"station_id":"ce4bhbp2rcd13ifvqerg","pricing_plan_id":"free"},{"bike_id":"b57e79c3-71e8-4df3-9c4f-f78ce967e271","system_id":"levelo_inurba_marseille","lat":43.28265,"lon":5.35063,"is_reserved":false,"is_disabled":false,"rental_uris":{"android":"levelo://app?vid=b57e79c3-71e8-4df3-9c4f-f78ce967e271","ios":"levelo://app?vid=b57e79c3-71e8-4df3-9c4f-f78ce967e271"},"vehicle_type_id":"4","last_reported":1687795752,"current_range_meters":24400,"station_id":"ce4bhbp2rcd13ifvqerg","pricing_plan_id":"free"},{"bike_id":"6392fecd-2f9e-4a71-910b-e22864dc06a5","system_id":"levelo_inurba_marseille","lat":43.28261,"lon":5.35066,"is_reserved":false,"is_disabled":false,"rental_uris":{"android":"levelo://app?vid=6392fecd-2f9e-4a71-910b-e22864dc06a5","ios":"levelo://app?vid=6392fecd-2f9e-4a71-910b-e22864dc06a5"},"vehicle_type_id":"4","last_reported":1687795752,"current_range_meters":24400,"station_id":"ce4bhbp2rcd13ifvqerg","pricing_plan_id":"free"},{"bike_id":"982c19ee-b653-4ac3-9938-41e552d1d0c4","system_id":"levelo_inurba_marseille","lat":43.282744,"lon":5.350533,"is_reserved":false,"is_disabled":false,"rental_uris":{"android":"levelo://app?vid=982c19ee-b653-4ac3-9938-41e552d1d0c4","ios":"levelo://app?vid=982c19ee-b653-4ac3-9938-41e552d1d0c4"},"vehicle_type_id":"4","last_reported":1687795752,"current_range_meters":19600,"station_id":"ce4bhbp2rcd13ifvqerg","pricing_plan_id":"free"},{"bike_id":"2c2293a6-a243-41ef-8fcd-5341db18a080","system_id":"levelo_inurba_marseille","lat":43.2826,"lon":5.35061,"is_reserved":false,"is_disabled":false,"rental_uris":{"android":"levelo://app?vid=2c2293a6-a243-41ef-8fcd-5341db18a080","ios":"levelo://app?vid=2c2293a6-a243-41ef-8fcd-5341db18a080"},"vehicle_type_id":"4","last_reported":1687795752,"current_range_meters":22400,"station_id":"ce4bhbp2rcd13ifvqerg","pricing_plan_id":"free"},{"bike_id":"67cbb3ed-aadc-4197-af3d-0e659f036172","system_id":"levelo_inurba_marseille","lat":43.28258,"lon":5.35061,"is_reserved":false,"is_disabled":false,"rental_uris":{"android":"levelo://app?vid=67cbb3ed-aadc-4197-af3d-0e659f036172","ios":"levelo://app?vid=67cbb3ed-aadc-4197-af3d-0e659f036172"},"vehicle_type_id":"4","last_reported":1687795752,"current_range_meters":15600,"station_id":"ce4bhbp2rcd13ifvqerg","pricing_plan_id":"free"},{"bike_id":"f8b42c49-ec30-464e-88f3-de83afdc85e2","system_id":"levelo_inurba_marseille","lat":43.280382,"lon":5.369291,"is_reserved":false,"is_disabled":false,"rental_uris":{"android":"levelo://app?vid=f8b42c49-ec30-464e-88f3-de83afdc85e2","ios":"levelo://app?vid=f8b42c49-ec30-464e-88f3-de83afdc85e2"},"vehicle_type_id":"4","last_reported":1687795752,"current_range_meters":30000,"station_id":"ce4bha12rcd13ifvqef0","pricing_plan_id":"free"},{"bike_id":"7bcfea63-2e91-4f95-90fd-276ecefc3dd2","system_id":"levelo_inurba_marseille","lat":43.28039,"lon":5.369297,"is_reserved":false,"is_disabled":false,"rental_uris":{"android":"levelo://app?vid=7bcfea63-2e91-4f95-90fd-276ecefc3dd2","ios":"levelo://app?vid=7bcfea63-2e91-4f95-90fd-276ecefc3dd2"},"vehicle_type_id":"4","last_reported":1687795752,"current_range_meters":26800,"station_id":"ce4bha12rcd13ifvqef0","pricing_plan_id":"free"},{"bike_id":"3b3ef276-4c4e-4a6e-864a-7f13d6b308c2","system_id":"levelo_inurba_marseille","lat":43.296263,"lon":5.40601,"is_reserved":false,"is_disabled":false,"rental_uris":{"android":"levelo://app?vid=3b3ef276-4c4e-4a6e-864a-7f13d6b308c2","ios":"levelo://app?vid=3b3ef276-4c4e-4a6e-864a-7f13d6b308c2"},"vehicle_type_id":"4","last_reported":1687795752,"current_range_meters":23200,"station_id":"ce4bh0h2rcd13ifvqd60","pricing_plan_id":"free"},{"bike_id":"c9408247-9a5f-4ce4-b121-2fd7bff10dc8","system_id":"levelo_inurba_marseille","lat":43.296263,"lon":5.40601,"is_reserved":false,"is_disabled":false,"rental_uris":{"android":"levelo://app?vid=c9408247-9a5f-4ce4-b121-2fd7bff10dc8","ios":"levelo://app?vid=c9408247-9a5f-4ce4-b121-2fd7bff10dc8"},"vehicle_type_id":"4","last_reported":1687795752,"current_range_meters":10000,"station_id":"ce4bh0h2rcd13ifvqd60","pricing_plan_id":"free"},{"bike_id":"cafe7315-5323-49e8-a003-d5af89f6283e","system_id":"levelo_inurba_marseille","lat":43.31028,"lon":5.41221,"is_reserved":false,"is_disabled":false,"rental_uris":{"android":"levelo://app?vid=cafe7315-5323-49e8-a003-d5af89f6283e","ios":"levelo://app?vid=cafe7315-5323-49e8-a003-d5af89f6283e"},"vehicle_type_id":"4","last_reported":1687795752,"current_range_meters":8800,"station_id":"","pricing_plan_id":"free"},{"bike_id":"fb18b198-ad40-4a12-8748-a303e6242ac5","system_id":"levelo_inurba_marseille","lat":43.284462,"lon":5.392121,"is_reserved":false,"is_disabled":false,"rental_uris":{"android":"levelo://app?vid=fb18b198-ad40-4a12-8748-a303e6242ac5","ios":"levelo://app?vid=fb18b198-ad40-4a12-8748-a303e6242ac5"},"vehicle_type_id":"4","last_reported":1687795752,"current_range_meters":26000,"station_id":"ce4bhoh2rcd13ifvqh5g","pricing_plan_id":"free"},{"bike_id":"f620f046-901c-45b8-92e7-467d86b8808b","system_id":"levelo_inurba_marseille","lat":43.28573,"lon":5.394992,"is_reserved":false,"is_disabled":false,"rental_uris":{"android":"levelo://app?vid=f620f046-901c-45b8-92e7-467d86b8808b","ios":"levelo://app?vid=f620f046-901c-45b8-92e7-467d86b8808b"},"vehicle_type_id":"4","last_reported":1687795752,"current_range_meters":11600,"station_id":"ce4bh292rcd13ifvqdg0","pricing_plan_id":"free"},{"bike_id":"8484d7f4-bcb0-4992-a271-4a5fd098881c","system_id":"levelo_inurba_marseille","lat":43.284462,"lon":5.392121,"is_reserved":false,"is_disabled":false,"rental_uris":{"android":"levelo://app?vid=8484d7f4-bcb0-4992-a271-4a5fd098881c","ios":"levelo://app?vid=8484d7f4-bcb0-4992-a271-4a5fd098881c"},"vehicle_type_id":"4","last_reported":1687795752,"current_range_meters":4400,"station_id":"ce4bhoh2rcd13ifvqh5g","pricing_plan_id":"free"},{"bike_id":"d6866fac-1f8a-49a3-94a1-81633e4892a9","system_id":"levelo_inurba_marseille","lat":43.28573,"lon":5.394992,"is_reserved":false,"is_disabled":false,"rental_uris":{"android":"levelo://app?vid=d6866fac-1f8a-49a3-94a1-81633e4892a9","ios":"levelo://app?vid=d6866fac-1f8a-49a3-94a1-81633e4892a9"},"vehicle_type_id":"4","last_reported":1687795752,"current_range_meters":24400,"station_id":"ce4bh292rcd13ifvqdg0","pricing_plan_id":"free"},{"bike_id":"c05667d2-4412-42d8-a130-1c384a31a9ad","system_id":"levelo_inurba_marseille","lat":43.28573,"lon":5.394992,"is_reserved":false,"is_disabled":false,"rental_uris":{"android":"levelo://app?vid=c05667d2-4412-42d8-a130-1c384a31a9ad","ios":"levelo://app?vid=c05667d2-4412-42d8-a130-1c384a31a9ad"},"vehicle_type_id":"4","last_reported":1687795752,"current_range_meters":18000,"station_id":"ce4bh292rcd13ifvqdg0","pricing_plan_id":"free"},{"bike_id":"2a45a1c7-80f6-419e-a019-ef87509a817a","system_id":"levelo_inurba_marseille","lat":43.326605,"lon":5.409903,"is_reserved":false,"is_disabled":false,"rental_uris":{"android":"levelo://app?vid=2a45a1c7-80f6-419e-a019-ef87509a817a","ios":"levelo://app?vid=2a45a1c7-80f6-419e-a019-ef87509a817a"},"vehicle_type_id":"4","last_reported":1687795752,"current_range_meters":30000,"station_id":"ce4bhpp2rcd13ifvqhgg","pricing_plan_id":"free"},{"bike_id":"0c9eee73-532e-4f1f-8b23-5a0693e22298","system_id":"levelo_inurba_marseille","lat":43.32658,"lon":5.40996,"is_reserved":false,"is_disabled":false,"rental_uris":{"android":"levelo://app?vid=0c9eee73-532e-4f1f-8b23-5a0693e22298","ios":"levelo://app?vid=0c9eee73-532e-4f1f-8b23-5a0693e22298"},"vehicle_type_id":"4","last_reported":1687795752,"current_range_meters":27600,"station_id":"ce4bhpp2rcd13ifvqhgg","pricing_plan_id":"free"},{"bike_id":"7f4e5f33-3d6b-4470-b773-9bb881f7fc86","system_id":"levelo_inurba_marseille","lat":43.326551,"lon":5.409982,"is_reserved":false,"is_disabled":false,"rental_uris":{"android":"levelo://app?vid=7f4e5f33-3d6b-4470-b773-9bb881f7fc86","ios":"levelo://app?vid=7f4e5f33-3d6b-4470-b773-9bb881f7fc86"},"vehicle_type_id":"4","last_reported":1687795752,"current_range_meters":0,"station_id":"ce4bhpp2rcd13ifvqhgg","pricing_plan_id":"free"},{"bike_id":"f374911d-5ee6-41ac-adb6-f9314adca0aa","system_id":"levelo_inurba_marseille","lat":43.304188,"lon":5.412904,"is_reserved":false,"is_disabled":false,"rental_uris":{"android":"levelo://app?vid=f374911d-5ee6-41ac-adb6-f9314adca0aa","ios":"levelo://app?vid=f374911d-5ee6-41ac-adb6-f9314adca0aa"},"vehicle_type_id":"4","last_reported":1687795752,"current_range_meters":0,"station_id":"ce4bhop2rcd13ifvqh8g","pricing_plan_id":"free"},{"bike_id":"50fd953c-9754-45f4-aec7-ae52bb9eb6fe","system_id":"levelo_inurba_marseille","lat":43.28712,"lon":5.39997,"is_reserved":false,"is_disabled":false,"rental_uris":{"android":"levelo://app?vid=50fd953c-9754-45f4-aec7-ae52bb9eb6fe","ios":"levelo://app?vid=50fd953c-9754-45f4-aec7-ae52bb9eb6fe"},"vehicle_type_id":"4","last_reported":1687795752,"current_range_meters":31200,"station_id":"ce4bho92rcd13ifvqh3g","pricing_plan_id":"free"},{"bike_id":"9f3db0a4-63b4-4dc1-8e5f-d42d6781149c","system_id":"levelo_inurba_marseille","lat":43.31954,"lon":5.41538,"is_reserved":false,"is_disabled":false,"rental_uris":{"android":"levelo://app?vid=9f3db0a4-63b4-4dc1-8e5f-d42d6781149c","ios":"levelo://app?vid=9f3db0a4-63b4-4dc1-8e5f-d42d6781149c"},"vehicle_type_id":"4","last_reported":1687795752,"current_range_meters":31200,"station_id":"","pricing_plan_id":"free"},{"bike_id":"0124ded5-fc20-4012-9150-34bfc18ae2af","system_id":"levelo_inurba_marseille","lat":43.320045,"lon":5.415046,"is_reserved":false,"is_disabled":false,"rental_uris":{"android":"levelo://app?vid=0124ded5-fc20-4012-9150-34bfc18ae2af","ios":"levelo://app?vid=0124ded5-fc20-4012-9150-34bfc18ae2af"},"vehicle_type_id":"4","last_reported":1687795752,"current_range_meters":30000,"station_id":"ce4bhq92rcd13ifvqhkg","pricing_plan_id":"free"},{"bike_id":"9aaf7d7e-bfc6-4fa5-b90c-4a37d79ca54f","system_id":"levelo_inurba_marseille","lat":43.299579,"lon":5.413255,"is_reserved":false,"is_disabled":false,"rental_uris":{"android":"levelo://app?vid=9aaf7d7e-bfc6-4fa5-b90c-4a37d79ca54f","ios":"levelo://app?vid=9aaf7d7e-bfc6-4fa5-b90c-4a37d79ca54f"},"vehicle_type_id":"4","last_reported":1687795752,"current_range_meters":5200,"station_id":"ce4bhp12rcd13ifvqh9g","pricing_plan_id":"free"},{"bike_id":"3b710767-5a05-4c81-a54a-de5f3410a46f","system_id":"levelo_inurba_marseille","lat":43.29957,"lon":5.41317,"is_reserved":false,"is_disabled":false,"rental_uris":{"android":"levelo://app?vid=3b710767-5a05-4c81-a54a-de5f3410a46f","ios":"levelo://app?vid=3b710767-5a05-4c81-a54a-de5f3410a46f"},"vehicle_type_id":"4","last_reported":1687795752,"current_range_meters":24800,"station_id":"ce4bhp12rcd13ifvqh9g","pricing_plan_id":"free"},{"bike_id":"073f5aee-64eb-411f-9ac7-1d0c8ea2505c","system_id":"levelo_inurba_marseille","lat":43.279742,"lon":5.38744,"is_reserved":false,"is_disabled":false,"rental_uris":{"android":"levelo://app?vid=073f5aee-64eb-411f-9ac7-1d0c8ea2505c","ios":"levelo://app?vid=073f5aee-64eb-411f-9ac7-1d0c8ea2505c"},"vehicle_type_id":"4","last_reported":1687795752,"current_range_meters":25600,"station_id":"ce4bhg12rcd13ifvqf80","pricing_plan_id":"free"},{"bike_id":"a6d1a747-d23d-44ee-a766-d69814aec316","system_id":"levelo_inurba_marseille","lat":43.27966,"lon":5.38731,"is_reserved":false,"is_disabled":false,"rental_uris":{"android":"levelo://app?vid=a6d1a747-d23d-44ee-a766-d69814aec316","ios":"levelo://app?vid=a6d1a747-d23d-44ee-a766-d69814aec316"},"vehicle_type_id":"4","last_reported":1687795752,"current_range_meters":2000,"station_id":"ce4bhg12rcd13ifvqf80","pricing_plan_id":"free"},{"bike_id":"51c13d08-1c39-401a-b4bc-d4a9d99dd5ca","system_id":"levelo_inurba_marseille","lat":43.325233,"lon":5.414318,"is_reserved":false,"is_disabled":false,"rental_uris":{"android":"levelo://app?vid=51c13d08-1c39-401a-b4bc-d4a9d99dd5ca","ios":"levelo://app?vid=51c13d08-1c39-401a-b4bc-d4a9d99dd5ca"},"vehicle_type_id":"4","last_reported":1687795752,"current_range_meters":31200,"station_id":"ce4bhq12rcd13ifvqhhg","pricing_plan_id":"free"},{"bike_id":"80ca9f74-4b2f-4399-8f8a-a1b792741e96","system_id":"levelo_inurba_marseille","lat":43.325233,"lon":5.414318,"is_reserved":false,"is_disabled":false,"rental_uris":{"android":"levelo://app?vid=80ca9f74-4b2f-4399-8f8a-a1b792741e96","ios":"levelo://app?vid=80ca9f74-4b2f-4399-8f8a-a1b792741e96"},"vehicle_type_id":"4","last_reported":1687795752,"current_range_meters":31200,"station_id":"ce4bhq12rcd13ifvqhhg","pricing_plan_id":"free"},{"bike_id":"e650ec3e-004c-4fdd-805a-dc0a20191311","system_id":"levelo_inurba_marseille","lat":43.280784,"lon":5.396622,"is_reserved":false,"is_disabled":false,"rental_uris":{"android":"levelo://app?vid=e650ec3e-004c-4fdd-805a-dc0a20191311","ios":"levelo://app?vid=e650ec3e-004c-4fdd-805a-dc0a20191311"},"vehicle_type_id":"4","last_reported":1687795752,"current_range_meters":19600,"station_id":"ce4bho12rcd13ifvqh2g","pricing_plan_id":"free"},{"bike_id":"8e730da4-4bfe-4419-8df6-b964affb85f8","system_id":"levelo_inurba_marseille","lat":43.280784,"lon":5.396622,"is_reserved":false,"is_disabled":false,"rental_uris":{"android":"levelo://app?vid=8e730da4-4bfe-4419-8df6-b964affb85f8","ios":"levelo://app?vid=8e730da4-4bfe-4419-8df6-b964affb85f8"},"vehicle_type_id":"4","last_reported":1687795752,"current_range_meters":20800,"station_id":"ce4bho12rcd13ifvqh2g","pricing_plan_id":"free"},{"bike_id":"413210a6-eb00-470a-9ccb-cf018cf22123","system_id":"levelo_inurba_marseille","lat":43.280784,"lon":5.396622,"is_reserved":false,"is_disabled":false,"rental_uris":{"android":"levelo://app?vid=413210a6-eb00-470a-9ccb-cf018cf22123","ios":"levelo://app?vid=413210a6-eb00-470a-9ccb-cf018cf22123"},"vehicle_type_id":"4","last_reported":1687795752,"current_range_meters":28000,"station_id":"ce4bho12rcd13ifvqh2g","pricing_plan_id":"free"},{"bike_id":"dd9b480b-b317-4423-9aeb-58c468c4d18b","system_id":"levelo_inurba_marseille","lat":43.303837,"lon":5.418724,"is_reserved":false,"is_disabled":false,"rental_uris":{"android":"levelo://app?vid=dd9b480b-b317-4423-9aeb-58c468c4d18b","ios":"levelo://app?vid=dd9b480b-b317-4423-9aeb-58c468c4d18b"},"vehicle_type_id":"4","last_reported":1687795752,"current_range_meters":19600,"station_id":"ce4bhop2rcd13ifvqh7g","pricing_plan_id":"free"},{"bike_id":"78ded248-71f7-4e48-b904-0bd5f544111a","system_id":"levelo_inurba_marseille","lat":43.273613,"lon":5.362705,"is_reserved":false,"is_disabled":false,"rental_uris":{"android":"levelo://app?vid=78ded248-71f7-4e48-b904-0bd5f544111a","ios":"levelo://app?vid=78ded248-71f7-4e48-b904-0bd5f544111a"},"vehicle_type_id":"4","last_reported":1687795752,"current_range_meters":31600,"station_id":"ce4bhbh2rcd13ifvqeo0","pricing_plan_id":"free"},{"bike_id":"b390053e-b1b2-4577-a6e0-e6203ceaddc4","system_id":"levelo_inurba_marseille","lat":43.273613,"lon":5.362705,"is_reserved":false,"is_disabled":false,"rental_uris":{"android":"levelo://app?vid=b390053e-b1b2-4577-a6e0-e6203ceaddc4","ios":"levelo://app?vid=b390053e-b1b2-4577-a6e0-e6203ceaddc4"},"vehicle_type_id":"4","last_reported":1687795752,"current_range_meters":26800,"station_id":"ce4bhbh2rcd13ifvqeo0","pricing_plan_id":"free"},{"bike_id":"c59e0b10-dd8e-4925-9244-83b417cf8097","system_id":"levelo_inurba_marseille","lat":43.273613,"lon":5.362705,"is_reserved":false,"is_disabled":false,"rental_uris":{"android":"levelo://app?vid=c59e0b10-dd8e-4925-9244-83b417cf8097","ios":"levelo://app?vid=c59e0b10-dd8e-4925-9244-83b417cf8097"},"vehicle_type_id":"4","last_reported":1687795752,"current_range_meters":16000,"station_id":"ce4bhbh2rcd13ifvqeo0","pricing_plan_id":"free"},{"bike_id":"cf4eb617-c12d-493c-96c1-f8ef14b8305d","system_id":"levelo_inurba_marseille","lat":43.273613,"lon":5.362705,"is_reserved":false,"is_disabled":false,"rental_uris":{"android":"levelo://app?vid=cf4eb617-c12d-493c-96c1-f8ef14b8305d","ios":"levelo://app?vid=cf4eb617-c12d-493c-96c1-f8ef14b8305d"},"vehicle_type_id":"4","last_reported":1687795752,"current_range_meters":31200,"station_id":"ce4bhbh2rcd13ifvqeo0","pricing_plan_id":"free"},{"bike_id":"a6866d73-0995-40ef-afc3-b56aede42d01","system_id":"levelo_inurba_marseille","lat":43.273613,"lon":5.362705,"is_reserved":false,"is_disabled":false,"rental_uris":{"android":"levelo://app?vid=a6866d73-0995-40ef-afc3-b56aede42d01","ios":"levelo://app?vid=a6866d73-0995-40ef-afc3-b56aede42d01"},"vehicle_type_id":"4","last_reported":1687795752,"current_range_meters":22800,"station_id":"ce4bhbh2rcd13ifvqeo0","pricing_plan_id":"free"},{"bike_id":"1236112e-9f5a-4c46-8d92-32a243ce799c","system_id":"levelo_inurba_marseille","lat":43.27379,"lon":5.3626,"is_reserved":false,"is_disabled":false,"rental_uris":{"android":"levelo://app?vid=1236112e-9f5a-4c46-8d92-32a243ce799c","ios":"levelo://app?vid=1236112e-9f5a-4c46-8d92-32a243ce799c"},"vehicle_type_id":"4","last_reported":1687795752,"current_range_meters":14400,"station_id":"ce4bhbh2rcd13ifvqeo0","pricing_plan_id":"free"},{"bike_id":"b7ef18f4-4814-4d47-8b9a-8dcacea86f4c","system_id":"levelo_inurba_marseille","lat":43.273613,"lon":5.362705,"is_reserved":false,"is_disabled":false,"rental_uris":{"android":"levelo://app?vid=b7ef18f4-4814-4d47-8b9a-8dcacea86f4c","ios":"levelo://app?vid=b7ef18f4-4814-4d47-8b9a-8dcacea86f4c"},"vehicle_type_id":"4","last_reported":1687795752,"current_range_meters":31200,"station_id":"ce4bhbh2rcd13ifvqeo0","pricing_plan_id":"free"},{"bike_id":"2aa632a1-0236-4115-996e-69880e08cf38","system_id":"levelo_inurba_marseille","lat":43.27375,"lon":5.36266,"is_reserved":false,"is_disabled":false,"rental_uris":{"android":"levelo://app?vid=2aa632a1-0236-4115-996e-69880e08cf38","ios":"levelo://app?vid=2aa632a1-0236-4115-996e-69880e08cf38"},"vehicle_type_id":"4","last_reported":1687795752,"current_range_meters":3600,"station_id":"ce4bhbh2rcd13ifvqeo0","pricing_plan_id":"free"},{"bike_id":"e0f9ef9a-22da-4dfa-90f8-dd4cbe0343b1","system_id":"levelo_inurba_marseille","lat":43.273748,"lon":5.362632,"is_reserved":false,"is_disabled":false,"rental_uris":{"android":"levelo://app?vid=e0f9ef9a-22da-4dfa-90f8-dd4cbe0343b1","ios":"levelo://app?vid=e0f9ef9a-22da-4dfa-90f8-dd4cbe0343b1"},"vehicle_type_id":"4","last_reported":1687795752,"current_range_meters":5200,"station_id":"ce4bhbh2rcd13ifvqeo0","pricing_plan_id":"free"},{"bike_id":"20865cf9-ded4-4328-a3f7-a8c3cd22b59c","system_id":"levelo_inurba_marseille","lat":43.273609,"lon":5.362708,"is_reserved":false,"is_disabled":false,"rental_uris":{"android":"levelo://app?vid=20865cf9-ded4-4328-a3f7-a8c3cd22b59c","ios":"levelo://app?vid=20865cf9-ded4-4328-a3f7-a8c3cd22b59c"},"vehicle_type_id":"4","last_reported":1687795752,"current_range_meters":15200,"station_id":"ce4bhbh2rcd13ifvqeo0","pricing_plan_id":"free"},{"bike_id":"c1260938-2221-43bf-bb59-f13f5f20f10e","system_id":"levelo_inurba_marseille","lat":43.27374,"lon":5.36264,"is_reserved":false,"is_disabled":false,"rental_uris":{"android":"levelo://app?vid=c1260938-2221-43bf-bb59-f13f5f20f10e","ios":"levelo://app?vid=c1260938-2221-43bf-bb59-f13f5f20f10e"},"vehicle_type_id":"4","last_reported":1687795752,"current_range_meters":16800,"station_id":"ce4bhbh2rcd13ifvqeo0","pricing_plan_id":"free"},{"bike_id":"c30855d8-3d7f-455e-ae26-9198ea9bda51","system_id":"levelo_inurba_marseille","lat":43.27374,"lon":5.36263,"is_reserved":false,"is_disabled":false,"rental_uris":{"android":"levelo://app?vid=c30855d8-3d7f-455e-ae26-9198ea9bda51","ios":"levelo://app?vid=c30855d8-3d7f-455e-ae26-9198ea9bda51"},"vehicle_type_id":"4","last_reported":1687795752,"current_range_meters":0,"station_id":"ce4bhbh2rcd13ifvqeo0","pricing_plan_id":"free"},{"bike_id":"45ce5d5e-a8e6-47b3-b7d1-7e131b93c660","system_id":"levelo_inurba_marseille","lat":43.273609,"lon":5.362708,"is_reserved":false,"is_disabled":false,"rental_uris":{"android":"levelo://app?vid=45ce5d5e-a8e6-47b3-b7d1-7e131b93c660","ios":"levelo://app?vid=45ce5d5e-a8e6-47b3-b7d1-7e131b93c660"},"vehicle_type_id":"4","last_reported":1687795752,"current_range_meters":31200,"station_id":"ce4bhbh2rcd13ifvqeo0","pricing_plan_id":"free"},{"bike_id":"ad086661-6b6e-4f4f-b62c-39c252011fa9","system_id":"levelo_inurba_marseille","lat":43.27374,"lon":5.36262,"is_reserved":false,"is_disabled":false,"rental_uris":{"android":"levelo://app?vid=ad086661-6b6e-4f4f-b62c-39c252011fa9","ios":"levelo://app?vid=ad086661-6b6e-4f4f-b62c-39c252011fa9"},"vehicle_type_id":"4","last_reported":1687795752,"current_range_meters":22400,"station_id":"ce4bhbh2rcd13ifvqeo0","pricing_plan_id":"free"},{"bike_id":"544bfa54-663a-4713-898c-13666cd4a64f","system_id":"levelo_inurba_marseille","lat":43.27373,"lon":5.362596,"is_reserved":false,"is_disabled":false,"rental_uris":{"android":"levelo://app?vid=544bfa54-663a-4713-898c-13666cd4a64f","ios":"levelo://app?vid=544bfa54-663a-4713-898c-13666cd4a64f"},"vehicle_type_id":"4","last_reported":1687795752,"current_range_meters":9200,"station_id":"ce4bhbh2rcd13ifvqeo0","pricing_plan_id":"free"},{"bike_id":"b84c39b6-9f5c-4a95-9009-fa3178e28449","system_id":"levelo_inurba_marseille","lat":43.273609,"lon":5.362708,"is_reserved":false,"is_disabled":false,"rental_uris":{"android":"levelo://app?vid=b84c39b6-9f5c-4a95-9009-fa3178e28449","ios":"levelo://app?vid=b84c39b6-9f5c-4a95-9009-fa3178e28449"},"vehicle_type_id":"4","last_reported":1687795752,"current_range_meters":25600,"station_id":"ce4bhbh2rcd13ifvqeo0","pricing_plan_id":"free"},{"bike_id":"f6d15d12-5449-43f5-95b0-d788c3c8af96","system_id":"levelo_inurba_marseille","lat":43.273609,"lon":5.362708,"is_reserved":false,"is_disabled":false,"rental_uris":{"android":"levelo://app?vid=f6d15d12-5449-43f5-95b0-d788c3c8af96","ios":"levelo://app?vid=f6d15d12-5449-43f5-95b0-d788c3c8af96"},"vehicle_type_id":"4","last_reported":1687795752,"current_range_meters":31200,"station_id":"ce4bhbh2rcd13ifvqeo0","pricing_plan_id":"free"},{"bike_id":"34ae1dd3-d19d-4ada-9f35-5714a9eb2f62","system_id":"levelo_inurba_marseille","lat":43.273609,"lon":5.362708,"is_reserved":false,"is_disabled":false,"rental_uris":{"android":"levelo://app?vid=34ae1dd3-d19d-4ada-9f35-5714a9eb2f62","ios":"levelo://app?vid=34ae1dd3-d19d-4ada-9f35-5714a9eb2f62"},"vehicle_type_id":"4","last_reported":1687795752,"current_range_meters":22400,"station_id":"ce4bhbh2rcd13ifvqeo0","pricing_plan_id":"free"},{"bike_id":"e199e9fa-4077-4737-bb59-888324e60103","system_id":"levelo_inurba_marseille","lat":43.273609,"lon":5.362708,"is_reserved":false,"is_disabled":false,"rental_uris":{"android":"levelo://app?vid=e199e9fa-4077-4737-bb59-888324e60103","ios":"levelo://app?vid=e199e9fa-4077-4737-bb59-888324e60103"},"vehicle_type_id":"4","last_reported":1687795752,"current_range_meters":31200,"station_id":"ce4bhbh2rcd13ifvqeo0","pricing_plan_id":"free"},{"bike_id":"036286c3-51f0-4050-af54-418795f22c0a","system_id":"levelo_inurba_marseille","lat":43.273609,"lon":5.362708,"is_reserved":false,"is_disabled":false,"rental_uris":{"android":"levelo://app?vid=036286c3-51f0-4050-af54-418795f22c0a","ios":"levelo://app?vid=036286c3-51f0-4050-af54-418795f22c0a"},"vehicle_type_id":"4","last_reported":1687795752,"current_range_meters":14000,"station_id":"ce4bhbh2rcd13ifvqeo0","pricing_plan_id":"free"},{"bike_id":"2d19a93e-7ef9-4cff-85a0-dbffc9c2ac5c","system_id":"levelo_inurba_marseille","lat":43.273609,"lon":5.362708,"is_reserved":false,"is_disabled":false,"rental_uris":{"android":"levelo://app?vid=2d19a93e-7ef9-4cff-85a0-dbffc9c2ac5c","ios":"levelo://app?vid=2d19a93e-7ef9-4cff-85a0-dbffc9c2ac5c"},"vehicle_type_id":"4","last_reported":1687795752,"current_range_meters":31200,"station_id":"ce4bhbh2rcd13ifvqeo0","pricing_plan_id":"free"},{"bike_id":"74fe3e8e-7393-4589-9e65-28268a39379b","system_id":"levelo_inurba_marseille","lat":43.273609,"lon":5.362708,"is_reserved":false,"is_disabled":false,"rental_uris":{"android":"levelo://app?vid=74fe3e8e-7393-4589-9e65-28268a39379b","ios":"levelo://app?vid=74fe3e8e-7393-4589-9e65-28268a39379b"},"vehicle_type_id":"4","last_reported":1687795752,"current_range_meters":18000,"station_id":"ce4bhbh2rcd13ifvqeo0","pricing_plan_id":"free"},{"bike_id":"ed0aab38-6e05-4846-a1e4-b820a18180e4","system_id":"levelo_inurba_marseille","lat":43.273609,"lon":5.362708,"is_reserved":false,"is_disabled":false,"rental_uris":{"android":"levelo://app?vid=ed0aab38-6e05-4846-a1e4-b820a18180e4","ios":"levelo://app?vid=ed0aab38-6e05-4846-a1e4-b820a18180e4"},"vehicle_type_id":"4","last_reported":1687795752,"current_range_meters":31200,"station_id":"ce4bhbh2rcd13ifvqeo0","pricing_plan_id":"free"},{"bike_id":"6c24bff0-9472-4130-8ee3-ead31c467793","system_id":"levelo_inurba_marseille","lat":43.317121,"lon":5.423936,"is_reserved":false,"is_disabled":false,"rental_uris":{"android":"levelo://app?vid=6c24bff0-9472-4130-8ee3-ead31c467793","ios":"levelo://app?vid=6c24bff0-9472-4130-8ee3-ead31c467793"},"vehicle_type_id":"4","last_reported":1687795752,"current_range_meters":19200,"station_id":"ce4bhp92rcd13ifvqhbg","pricing_plan_id":"free"},{"bike_id":"c70c4029-7a13-43f7-beae-afb2298ec9fb","system_id":"levelo_inurba_marseille","lat":43.31083,"lon":5.42431,"is_reserved":false,"is_disabled":false,"rental_uris":{"android":"levelo://app?vid=c70c4029-7a13-43f7-beae-afb2298ec9fb","ios":"levelo://app?vid=c70c4029-7a13-43f7-beae-afb2298ec9fb"},"vehicle_type_id":"4","last_reported":1687795752,"current_range_meters":19600,"station_id":"ce4bhp92rcd13ifvqhag","pricing_plan_id":"free"},{"bike_id":"e982b1a0-28e6-4311-ae2f-ade0ab586085","system_id":"levelo_inurba_marseille","lat":43.310785,"lon":5.424305,"is_reserved":false,"is_disabled":false,"rental_uris":{"android":"levelo://app?vid=e982b1a0-28e6-4311-ae2f-ade0ab586085","ios":"levelo://app?vid=e982b1a0-28e6-4311-ae2f-ade0ab586085"},"vehicle_type_id":"4","last_reported":1687795752,"current_range_meters":28800,"station_id":"ce4bhp92rcd13ifvqhag","pricing_plan_id":"free"},{"bike_id":"c87c1360-a75b-4862-ac8b-a4e254f6b771","system_id":"levelo_inurba_marseille","lat":43.310785,"lon":5.424305,"is_reserved":false,"is_disabled":false,"rental_uris":{"android":"levelo://app?vid=c87c1360-a75b-4862-ac8b-a4e254f6b771","ios":"levelo://app?vid=c87c1360-a75b-4862-ac8b-a4e254f6b771"},"vehicle_type_id":"4","last_reported":1687795752,"current_range_meters":19200,"station_id":"ce4bhp92rcd13ifvqhag","pricing_plan_id":"free"},{"bike_id":"4d3c5685-b66d-4ebb-a114-ca9b7fe89a76","system_id":"levelo_inurba_marseille","lat":43.31075,"lon":5.42436,"is_reserved":false,"is_disabled":false,"rental_uris":{"android":"levelo://app?vid=4d3c5685-b66d-4ebb-a114-ca9b7fe89a76","ios":"levelo://app?vid=4d3c5685-b66d-4ebb-a114-ca9b7fe89a76"},"vehicle_type_id":"4","last_reported":1687795752,"current_range_meters":31200,"station_id":"ce4bhp92rcd13ifvqhag","pricing_plan_id":"free"},{"bike_id":"7bfcb41c-6c4f-4082-bbca-609376a23a83","system_id":"levelo_inurba_marseille","lat":43.27407,"lon":5.38957,"is_reserved":false,"is_disabled":false,"rental_uris":{"android":"levelo://app?vid=7bfcb41c-6c4f-4082-bbca-609376a23a83","ios":"levelo://app?vid=7bfcb41c-6c4f-4082-bbca-609376a23a83"},"vehicle_type_id":"4","last_reported":1687795752,"current_range_meters":1200,"station_id":"","pricing_plan_id":"free"},{"bike_id":"c65fc361-a300-4f1c-ac3b-f9daf2d8a980","system_id":"levelo_inurba_marseille","lat":43.27427,"lon":5.39408,"is_reserved":false,"is_disabled":false,"rental_uris":{"android":"levelo://app?vid=c65fc361-a300-4f1c-ac3b-f9daf2d8a980","ios":"levelo://app?vid=c65fc361-a300-4f1c-ac3b-f9daf2d8a980"},"vehicle_type_id":"4","last_reported":1687795752,"current_range_meters":2400,"station_id":"","pricing_plan_id":"free"},{"bike_id":"96761b24-d4f6-4bd5-a705-a9d7ff5f7cea","system_id":"levelo_inurba_marseille","lat":43.27427,"lon":5.39409,"is_reserved":false,"is_disabled":false,"rental_uris":{"android":"levelo://app?vid=96761b24-d4f6-4bd5-a705-a9d7ff5f7cea","ios":"levelo://app?vid=96761b24-d4f6-4bd5-a705-a9d7ff5f7cea"},"vehicle_type_id":"4","last_reported":1687795752,"current_range_meters":4400,"station_id":"","pricing_plan_id":"free"},{"bike_id":"71f486c0-9c74-4a10-a527-cb13f1dea552","system_id":"levelo_inurba_marseille","lat":43.27422,"lon":5.39412,"is_reserved":false,"is_disabled":false,"rental_uris":{"android":"levelo://app?vid=71f486c0-9c74-4a10-a527-cb13f1dea552","ios":"levelo://app?vid=71f486c0-9c74-4a10-a527-cb13f1dea552"},"vehicle_type_id":"4","last_reported":1687795752,"current_range_meters":0,"station_id":"","pricing_plan_id":"free"},{"bike_id":"86cefedf-4c56-4628-8840-1e4c858a857b","system_id":"levelo_inurba_marseille","lat":43.295511,"lon":5.422926,"is_reserved":false,"is_disabled":false,"rental_uris":{"android":"levelo://app?vid=86cefedf-4c56-4628-8840-1e4c858a857b","ios":"levelo://app?vid=86cefedf-4c56-4628-8840-1e4c858a857b"},"vehicle_type_id":"4","last_reported":1687795752,"current_range_meters":30400,"station_id":"ce4bhph2rcd13ifvqhdg","pricing_plan_id":"free"},{"bike_id":"4fa21102-9c5c-4785-8da0-3d7f957b0c31","system_id":"levelo_inurba_marseille","lat":43.272116,"lon":5.391747,"is_reserved":false,"is_disabled":false,"rental_uris":{"android":"levelo://app?vid=4fa21102-9c5c-4785-8da0-3d7f957b0c31","ios":"levelo://app?vid=4fa21102-9c5c-4785-8da0-3d7f957b0c31"},"vehicle_type_id":"4","last_reported":1687795752,"current_range_meters":30000,"station_id":"ce4bhhp2rcd13ifvqfm0","pricing_plan_id":"free"},{"bike_id":"27a353b2-668b-4dc8-8010-28b6be7b712b","system_id":"levelo_inurba_marseille","lat":43.27056,"lon":5.3883,"is_reserved":false,"is_disabled":false,"rental_uris":{"android":"levelo://app?vid=27a353b2-668b-4dc8-8010-28b6be7b712b","ios":"levelo://app?vid=27a353b2-668b-4dc8-8010-28b6be7b712b"},"vehicle_type_id":"4","last_reported":1687795752,"current_range_meters":29600,"station_id":"","pricing_plan_id":"free"},{"bike_id":"28841e41-0220-4400-8678-ac544bc2e5d1","system_id":"levelo_inurba_marseille","lat":43.278128,"lon":5.407195,"is_reserved":false,"is_disabled":false,"rental_uris":{"android":"levelo://app?vid=28841e41-0220-4400-8678-ac544bc2e5d1","ios":"levelo://app?vid=28841e41-0220-4400-8678-ac544bc2e5d1"},"vehicle_type_id":"4","last_reported":1687795752,"current_range_meters":24800,"station_id":"ce4bhnh2rcd13ifvqgtg","pricing_plan_id":"free"},{"bike_id":"b8443121-90c8-49f9-822e-d94ad5b788e3","system_id":"levelo_inurba_marseille","lat":43.269319,"lon":5.389397,"is_reserved":false,"is_disabled":false,"rental_uris":{"android":"levelo://app?vid=b8443121-90c8-49f9-822e-d94ad5b788e3","ios":"levelo://app?vid=b8443121-90c8-49f9-822e-d94ad5b788e3"},"vehicle_type_id":"4","last_reported":1687795752,"current_range_meters":15600,"station_id":"ce4bhhh2rcd13ifvqfl0","pricing_plan_id":"free"},{"bike_id":"0f103931-46ef-4453-9a50-985476094e37","system_id":"levelo_inurba_marseille","lat":43.269319,"lon":5.389397,"is_reserved":false,"is_disabled":false,"rental_uris":{"android":"levelo://app?vid=0f103931-46ef-4453-9a50-985476094e37","ios":"levelo://app?vid=0f103931-46ef-4453-9a50-985476094e37"},"vehicle_type_id":"4","last_reported":1687795752,"current_range_meters":6400,"station_id":"ce4bhhh2rcd13ifvqfl0","pricing_plan_id":"free"},{"bike_id":"8507a227-e46e-4bf6-9211-687eafa8a9d5","system_id":"levelo_inurba_marseille","lat":43.27992,"lon":5.41664,"is_reserved":false,"is_disabled":false,"rental_uris":{"android":"levelo://app?vid=8507a227-e46e-4bf6-9211-687eafa8a9d5","ios":"levelo://app?vid=8507a227-e46e-4bf6-9211-687eafa8a9d5"},"vehicle_type_id":"4","last_reported":1687795752,"current_range_meters":2800,"station_id":"ce4bho12rcd13ifvqh1g","pricing_plan_id":"free"},{"bike_id":"87fe6466-1f4f-4d2f-8d9c-de67a62e28de","system_id":"levelo_inurba_marseille","lat":43.27992,"lon":5.41665,"is_reserved":false,"is_disabled":false,"rental_uris":{"android":"levelo://app?vid=87fe6466-1f4f-4d2f-8d9c-de67a62e28de","ios":"levelo://app?vid=87fe6466-1f4f-4d2f-8d9c-de67a62e28de"},"vehicle_type_id":"4","last_reported":1687795752,"current_range_meters":12000,"station_id":"ce4bho12rcd13ifvqh1g","pricing_plan_id":"free"},{"bike_id":"73c4fbdf-1503-42c0-848a-d39d4c672bf5","system_id":"levelo_inurba_marseille","lat":43.261782,"lon":5.374515,"is_reserved":false,"is_disabled":false,"rental_uris":{"android":"levelo://app?vid=73c4fbdf-1503-42c0-848a-d39d4c672bf5","ios":"levelo://app?vid=73c4fbdf-1503-42c0-848a-d39d4c672bf5"},"vehicle_type_id":"4","last_reported":1687795752,"current_range_meters":31200,"station_id":"ce4bhgp2rcd13ifvqfc0","pricing_plan_id":"free"},