{"last_updated":1749579295,"ttl":60,"version":"2.2","data":{"bikes":[{"bike_id":"f492f55e-d024-4e23-8b09-b5871f35b570","system_id":"levelo_inurba_marseille","lat":43.29881,"lon":5.38906,"is_reserved":false,"is_disabled":false,"rental_uris":{"android":"levelo://app?vid=f492f55e-d024-4e23-8b09-b5871f35b570","ios":"levelo://app?vid=f492f55e-d024-4e23-8b09-b5871f35b570"},"vehicle_type_id":"4","last_reported":1749579296,"current_range_meters":2800,"station_id":"ce4bh392rcd13ifvqdl0","pricing_plan_id":"cebpf4jnsgd1na2vs0mg"},{"bike_id":"101c1ca4-be9a-4d80-a86f-ec128900de59","system_id":"levelo_inurba_marseille","lat":43.23961,"lon":5.36638,"is_reserved":false,"is_disabled":false,"rental_uris":{"android":"levelo://app?vid=101c1ca4-be9a-4d80-a86f-ec128900de59","ios":"levelo://app?vid=101c1ca4-be9a-4d80-a86f-ec128900de59"},"vehicle_type_id":"4","last_reported":1749579296,"current_range_meters":2800,"station_id":"ce4bhi12rcd13ifvqfp0","pricing_plan_id":"cebpf4jnsgd1na2vs0mg"},{"bike_id":"90814203-bfe9-47c5-89d0-c4359bc1ad5b","system_id":"levelo_inurba_marseille","lat":43.30137,"lon":5.3878,"is_reserved":false,"is_disabled":false,"rental_uris":{"android":"levelo://app?vid=90814203-bfe9-47c5-89d0-c4359bc1ad5b","ios":"levelo://app?vid=90814203-bfe9-47c5-89d0-c4359bc1ad5b"},"vehicle_type_id":"4","last_reported":1749579296,"current_range_meters":2800,"station_id":"ce4bghh2rcd13ifvqb60","pricing_plan_id":"cebpf4jnsgd1na2vs0mg"},{"bike_id":"61ea8614-463e-42f7-9677-82b343c5f208","system_id":"levelo_inurba_marseille","lat":43.24167,"lon":5.36396,"is_reserved":false,"is_disabled":false,"rental_uris":{"android":"levelo://app?vid=61ea8614-463e-42f7-9677-82b343c5f208","ios":"levelo://app?vid=61ea8614-463e-42f7-9677-82b343c5f208"},"vehicle_type_id":"4","last_reported":1749579296,"current_range_meters":2800,"station_id":"cpo36qri1sfpv3e86is0","pricing_plan_id":"cebpf4jnsgd1na2vs0mg"},{"bike_id":"afd81a45-5f7c-4b20-b5d9-6a534bda2078","system_id":"levelo_inurba_marseille","lat":43.31895,"lon":5.40746,"is_reserved":false,"is_disabled":false,"rental_uris":{"android":"levelo://app?vid=afd81a45-5f7c-4b20-b5d9-6a534bda2078","ios":"levelo://app?vid=afd81a45-5f7c-4b20-b5d9-6a534bda2078"},"vehicle_type_id":"4","last_reported":1749579296,"current_range_meters":2800,"station_id":"ce4bhq12rcd13ifvqhig","pricing_plan_id":"cebpf4jnsgd1na2vs0mg"},{"bike_id":"0b627a3f-af91-4441-9390-36b6b6b76dc1","system_id":"levelo_inurba_marseille","lat":43.25586,"lon":5.38228,"is_reserved":false,"is_disabled":false,"rental_uris":{"android":"levelo://app?vid=0b627a3f-af91-4441-9390-36b6b6b76dc1","ios":"levelo://app?vid=0b627a3f-af91-4441-9390-36b6b6b76dc1"},"vehicle_type_id":"4","last_reported":1749579296,"current_range_meters":2800,"station_id":"ce4bhih2rcd13ifvqfs0","pricing_plan_id":"cebpf4jnsgd1na2vs0mg"},{"bike_id":"a7c1e436-b3e1-4605-a84c-761d90c780b7","system_id":"levelo_inurba_marseille","lat":43.28728,"lon":5.37933,"is_reserved":false,"is_disabled":false,"rental_uris":{"android":"levelo://app?vid=a7c1e436-b3e1-4605-a84c-761d90c780b7","ios":"levelo://app?vid=a7c1e436-b3e1-4605-a84c-761d90c780b7"},"vehicle_type_id":"4","last_reported":1749579296,"current_range_meters":2800,"station_id":"ce4bh9p2rcd13ifvqec0","pricing_plan_id":"cebpf4jnsgd1na2vs0mg"},{"bike_id":"287ea59b-29de-497f-8f26-dfc33448a059","system_id":"levelo_inurba_marseille","lat":43.30922,"lon":5.4014,"is_reserved":false,"is_disabled":true,"rental_uris":{"android":"levelo://app?vid=287ea59b-29de-497f-8f26-dfc33448a059","ios":"levelo://app?vid=287ea59b-29de-497f-8f26-dfc33448a059"},"vehicle_type_id":"4","last_reported":1749579296,"current_range_meters":2800,"station_id":"ce4bgvp2rcd13ifvqct0","pricing_plan_id":"cebpf4jnsgd1na2vs0mg"},{"bike_id":"3036949f-d149-4080-8172-bb1d595a594d","system_id":"levelo_inurba_marseille","lat":43.29263,"lon":5.38448,"is_reserved":false,"is_disabled":false,"rental_uris":{"android":"levelo://app?vid=3036949f-d149-4080-8172-bb1d595a594d","ios":"levelo://app?vid=3036949f-d149-4080-8172-bb1d595a594d"},"vehicle_type_id":"4","last_reported":1749579296,"current_range_meters":3200,"station_id":"ce4bh692rcd13ifvqea0","pricing_plan_id":"cebpf4jnsgd1na2vs0mg"},{"bike_id":"d3219378-1c9f-44e6-a11f-100a2e6b52d4","system_id":"levelo_inurba_marseille","lat":43.276168,"lon":5.361029,"is_reserved":false,"is_disabled":false,"rental_uris":{"android":"levelo://app?vid=d3219378-1c9f-44e6-a11f-100a2e6b52d4","ios":"levelo://app?vid=d3219378-1c9f-44e6-a11f-100a2e6b52d4"},"vehicle_type_id":"4","last_reported":1749579296,"current_range_meters":3200,"station_id":"ce4bgj92rcd13ifvqbe0","pricing_plan_id":"cebpf4jnsgd1na2vs0mg"},{"bike_id":"34ea4f5e-255b-4ccd-9720-ee462ee71870","system_id":"levelo_inurba_marseille","lat":43.2468,"lon":5.37728,"is_reserved":false,"is_disabled":false,"rental_uris":{"android":"levelo://app?vid=34ea4f5e-255b-4ccd-9720-ee462ee71870","ios":"levelo://app?vid=34ea4f5e-255b-4ccd-9720-ee462ee71870"},"vehicle_type_id":"4","last_reported":1749579296,"current_range_meters":3200,"station_id":"","pricing_plan_id":"cebpf4jnsgd1na2vs0mg"},{"bike_id":"bad2212f-13da-4de1-a0ee-0e06a172012a","system_id":"levelo_inurba_marseille","lat":43.30429,"lon":5.38893,"is_reserved":false,"is_disabled":false,"rental_uris":{"android":"levelo://app?vid=bad2212f-13da-4de1-a0ee-0e06a172012a","ios":"levelo://app?vid=bad2212f-13da-4de1-a0ee-0e06a172012a"},"vehicle_type_id":"4","last_reported":1749579296,"current_range_meters":3600,"station_id":"ce4bgk12rcd13ifvqbi0","pricing_plan_id":"cebpf4jnsgd1na2vs0mg"},{"bike_id":"6071baf0-fc29-44ef-a2d9-74bca11c7f8c","system_id":"levelo_inurba_marseille","lat":43.2868,"lon":5.38662,"is_reserved":false,"is_disabled":false,"rental_uris":{"android":"levelo://app?vid=6071baf0-fc29-44ef-a2d9-74bca11c7f8c","ios":"levelo://app?vid=6071baf0-fc29-44ef-a2d9-74bca11c7f8c"},"vehicle_type_id":"4","last_reported":1749579296,"current_range_meters":6000,"station_id":"ce4bh492rcd13ifvqdug","pricing_plan_id":"cebpf4jnsgd1na2vs0mg"},{"bike_id":"2e35a7c0-9609-428d-ad43-d98408607dc4","system_id":"levelo_inurba_marseille","lat":43.30587,"lon":5.3935,"is_reserved":false,"is_disabled":false,"rental_uris":{"android":"levelo://app?vid=2e35a7c0-9609-428d-ad43-d98408607dc4","ios":"levelo://app?vid=2e35a7c0-9609-428d-ad43-d98408607dc4"},"vehicle_type_id":"4","last_reported":1749579296,"current_range_meters":3600,"station_id":"ce4bh0p2rcd13ifvqd80","pricing_plan_id":"cebpf4jnsgd1na2vs0mg"},{"bike_id":"28fb93fc-61e3-41de-bce3-9dd7d07da551","system_id":"levelo_inurba_marseille","lat":43.31072,"lon":5.38357,"is_reserved":false,"is_disabled":false,"rental_uris":{"android":"levelo://app?vid=28fb93fc-61e3-41de-bce3-9dd7d07da551","ios":"levelo://app?vid=28fb93fc-61e3-41de-bce3-9dd7d07da551"},"vehicle_type_id":"4","last_reported":1749579296,"current_range_meters":2000,"station_id":"ce4bgv92rcd13ifvqcr0","pricing_plan_id":"cebpf4jnsgd1na2vs0mg"},{"bike_id":"b064b174-e67f-4834-9293-cac3777cc06c","system_id":"levelo_inurba_marseille","lat":43.29707,"lon":5.36612,"is_reserved":false,"is_disabled":false,"rental_uris":{"android":"levelo://app?vid=b064b174-e67f-4834-9293-cac3777cc06c","ios":"levelo://app?vid=b064b174-e67f-4834-9293-cac3777cc06c"},"vehicle_type_id":"4","last_reported":1749579296,"current_range_meters":3600,"station_id":"ce4bgn12rcd13ifvqbt0","pricing_plan_id":"cebpf4jnsgd1na2vs0mg"},{"bike_id":"3cb6a75e-52a4-4a20-bcc6-368e1ab0ad3d","system_id":"levelo_inurba_marseille","lat":43.29174,"lon":5.37158,"is_reserved":false,"is_disabled":false,"rental_uris":{"android":"levelo://app?vid=3cb6a75e-52a4-4a20-bcc6-368e1ab0ad3d","ios":"levelo://app?vid=3cb6a75e-52a4-4a20-bcc6-368e1ab0ad3d"},"vehicle_type_id":"4","last_reported":1749579296,"current_range_meters":3600,"station_id":"ce4bha92rcd13ifvqeh0","pricing_plan_id":"cebpf4jnsgd1na2vs0mg"},{"bike_id":"8e1e393f-98c7-432c-87df-2a8932e596d1","system_id":"levelo_inurba_marseille","lat":43.29263,"lon":5.3844,"is_reserved":false,"is_disabled":false,"rental_uris":{"android":"levelo://app?vid=8e1e393f-98c7-432c-87df-2a8932e596d1","ios":"levelo://app?vid=8e1e393f-98c7-432c-87df-2a8932e596d1"},"vehicle_type_id":"4","last_reported":1749579296,"current_range_meters":3600,"station_id":"ce4bh692rcd13ifvqea0","pricing_plan_id":"cebpf4jnsgd1na2vs0mg"},{"bike_id":"4eb5cd56-9b97-4f1a-afca-812bdadb0764","system_id":"levelo_inurba_marseille","lat":43.27972,"lon":5.38738,"is_reserved":false,"is_disabled":false,"rental_uris":{"android":"levelo://app?vid=4eb5cd56-9b97-4f1a-afca-812bdadb0764","ios":"levelo://app?vid=4eb5cd56-9b97-4f1a-afca-812bdadb0764"},"vehicle_type_id":"4","last_reported":1749579296,"current_range_meters":4000,"station_id":"ce4bhg12rcd13ifvqf80","pricing_plan_id":"cebpf4jnsgd1na2vs0mg"},{"bike_id":"c136b089-d994-4b9b-a4c5-2a3f0ad0598e","system_id":"levelo_inurba_marseille","lat":43.32274,"lon":5.38285,"is_reserved":false,"is_disabled":false,"rental_uris":{"android":"levelo://app?vid=c136b089-d994-4b9b-a4c5-2a3f0ad0598e","ios":"levelo://app?vid=c136b089-d994-4b9b-a4c5-2a3f0ad0598e"},"vehicle_type_id":"4","last_reported":1749579296,"current_range_meters":4400,"station_id":"ce4bhr12rcd13ifvqhqg","pricing_plan_id":"cebpf4jnsgd1na2vs0mg"},{"bike_id":"f78636ca-8d63-4dc9-b4f4-673a4461aa48","system_id":"levelo_inurba_marseille","lat":43.28726,"lon":5.36081,"is_reserved":false,"is_disabled":false,"rental_uris":{"android":"levelo://app?vid=f78636ca-8d63-4dc9-b4f4-673a4461aa48","ios":"levelo://app?vid=f78636ca-8d63-4dc9-b4f4-673a4461aa48"},"vehicle_type_id":"4","last_reported":1749579296,"current_range_meters":4400,"station_id":"cki0cbj6b192h4jlfktg","pricing_plan_id":"cebpf4jnsgd1na2vs0mg"},{"bike_id":"4ad34cdb-a16f-404a-94eb-4036062be2c3","system_id":"levelo_inurba_marseille","lat":43.28611,"lon":5.35107,"is_reserved":false,"is_disabled":false,"rental_uris":{"android":"levelo://app?vid=4ad34cdb-a16f-404a-94eb-4036062be2c3","ios":"levelo://app?vid=4ad34cdb-a16f-404a-94eb-4036062be2c3"},"vehicle_type_id":"4","last_reported":1749579296,"current_range_meters":4400,"station_id":"ce4bhch2rcd13ifvqeug","pricing_plan_id":"cebpf4jnsgd1na2vs0mg"},{"bike_id":"46cc1f49-aac4-493b-b009-0a4959c465ff","system_id":"levelo_inurba_marseille","lat":43.29505,"lon":5.39395,"is_reserved":false,"is_disabled":false,"rental_uris":{"android":"levelo://app?vid=46cc1f49-aac4-493b-b009-0a4959c465ff","ios":"levelo://app?vid=46cc1f49-aac4-493b-b009-0a4959c465ff"},"vehicle_type_id":"4","last_reported":1749579296,"current_range_meters":4400,"station_id":"ce4bh292rcd13ifvqdf0","pricing_plan_id":"cebpf4jnsgd1na2vs0mg"},{"bike_id":"74111bcb-249c-4743-ae00-26cd4525fd43","system_id":"levelo_inurba_marseille","lat":43.31077,"lon":5.42429,"is_reserved":false,"is_disabled":false,"rental_uris":{"android":"levelo://app?vid=74111bcb-249c-4743-ae00-26cd4525fd43","ios":"levelo://app?vid=74111bcb-249c-4743-ae00-26cd4525fd43"},"vehicle_type_id":"4","last_reported":1749579296,"current_range_meters":4400,"station_id":"ce4bhp92rcd13ifvqhag","pricing_plan_id":"cebpf4jnsgd1na2vs0mg"},{"bike_id":"ea4690c2-a60c-4d49-82a1-c1a711278a78","system_id":"levelo_inurba_marseille","lat":43.24071,"lon":5.37764,"is_reserved":false,"is_disabled":false,"rental_uris":{"android":"levelo://app?vid=ea4690c2-a60c-4d49-82a1-c1a711278a78","ios":"levelo://app?vid=ea4690c2-a60c-4d49-82a1-c1a711278a78"},"vehicle_type_id":"4","last_reported":1749579296,"current_range_meters":4800,"station_id":"ce4bhnp2rcd13ifvqgvg","pricing_plan_id":"cebpf4jnsgd1na2vs0mg"},{"bike_id":"935b8ffb-09d7-411b-be30-0e132fa87471","system_id":"levelo_inurba_marseille","lat":43.29803,"lon":5.40409,"is_reserved":false,"is_disabled":false,"rental_uris":{"android":"levelo://app?vid=935b8ffb-09d7-411b-be30-0e132fa87471","ios":"levelo://app?vid=935b8ffb-09d7-411b-be30-0e132fa87471"},"vehicle_type_id":"4","last_reported":1749579296,"current_range_meters":4800,"station_id":"ce4bh112rcd13ifvqd90","pricing_plan_id":"cebpf4jnsgd1na2vs0mg"},{"bike_id":"a978208a-2d52-48d3-8fe9-16fcea9e714e","system_id":"levelo_inurba_marseille","lat":43.30424,"lon":5.41272,"is_reserved":false,"is_disabled":false,"rental_uris":{"android":"levelo://app?vid=a978208a-2d52-48d3-8fe9-16fcea9e714e","ios":"levelo://app?vid=a978208a-2d52-48d3-8fe9-16fcea9e714e"},"vehicle_type_id":"4","last_reported":1749579296,"current_range_meters":4800,"station_id":"ce4bhop2rcd13ifvqh8g","pricing_plan_id":"cebpf4jnsgd1na2vs0mg"},{"bike_id":"dd67f108-95bf-4a1e-b619-4bb77e009c5b","system_id":"levelo_inurba_marseille","lat":43.29072,"lon":5.42764,"is_reserved":false,"is_disabled":false,"rental_uris":{"android":"levelo://app?vid=dd67f108-95bf-4a1e-b619-4bb77e009c5b","ios":"levelo://app?vid=dd67f108-95bf-4a1e-b619-4bb77e009c5b"},"vehicle_type_id":"4","last_reported":1749579296,"current_range_meters":4800,"station_id":"","pricing_plan_id":"cebpf4jnsgd1na2vs0mg"},{"bike_id":"97d28401-9be8-4207-8c56-dd5da11fbefb","system_id":"levelo_inurba_marseille","lat":43.29011,"lon":5.35608,"is_reserved":false,"is_disabled":false,"rental_uris":{"android":"levelo://app?vid=97d28401-9be8-4207-8c56-dd5da11fbefb","ios":"levelo://app?vid=97d28401-9be8-4207-8c56-dd5da11fbefb"},"vehicle_type_id":"4","last_reported":1749579296,"current_range_meters":4800,"station_id":"ce4bhb92rcd13ifvqen0","pricing_plan_id":"cebpf4jnsgd1na2vs0mg"},{"bike_id":"d7924f03-a449-44bc-a723-ecb1cc13b7f3","system_id":"levelo_inurba_marseille","lat":43.29006,"lon":5.3561,"is_reserved":false,"is_disabled":false,"rental_uris":{"android":"levelo://app?vid=d7924f03-a449-44bc-a723-ecb1cc13b7f3","ios":"levelo://app?vid=d7924f03-a449-44bc-a723-ecb1cc13b7f3"},"vehicle_type_id":"4","last_reported":1749579296,"current_range_meters":4800,"station_id":"ce4bhb92rcd13ifvqen0","pricing_plan_id":"cebpf4jnsgd1na2vs0mg"},{"bike_id":"b323ce18-6ea8-4a24-8888-4341d364e764","system_id":"levelo_inurba_marseille","lat":43.28751,"lon":5.36174,"is_reserved":false,"is_disabled":false,"rental_uris":{"android":"levelo://app?vid=b323ce18-6ea8-4a24-8888-4341d364e764","ios":"levelo://app?vid=b323ce18-6ea8-4a24-8888-4341d364e764"},"vehicle_type_id":"4","last_reported":1749579296,"current_range_meters":5600,"station_id":"","pricing_plan_id":"cebpf4jnsgd1na2vs0mg"},{"bike_id":"50540d50-cbb7-4856-9dc2-071a373e8633","system_id":"levelo_inurba_marseille","lat":43.27946,"lon":5.41048,"is_reserved":false,"is_disabled":false,"rental_uris":{"android":"levelo://app?vid=50540d50-cbb7-4856-9dc2-071a373e8633","ios":"levelo://app?vid=50540d50-cbb7-4856-9dc2-071a373e8633"},"vehicle_type_id":"4","last_reported":1749579296,"current_range_meters":5600,"station_id":"ce4bhnp2rcd13ifvqh0g","pricing_plan_id":"cebpf4jnsgd1na2vs0mg"},{"bike_id":"a6074c08-1c91-4ef1-b0fb-8ec3c7333e17","system_id":"levelo_inurba_marseille","lat":43.29418,"lon":5.38621,"is_reserved":false,"is_disabled":false,"rental_uris":{"android":"levelo://app?vid=a6074c08-1c91-4ef1-b0fb-8ec3c7333e17","ios":"levelo://app?vid=a6074c08-1c91-4ef1-b0fb-8ec3c7333e17"},"vehicle_type_id":"4","last_reported":1749579296,"current_range_meters":6000,"station_id":"ce4bh2h2rcd13ifvqdh0","pricing_plan_id":"cebpf4jnsgd1na2vs0mg"},{"bike_id":"f70a2e35-c58f-4d70-b500-0b80b3bf6e8a","system_id":"levelo_inurba_marseille","lat":43.21749,"lon":5.34599,"is_reserved":false,"is_disabled":false,"rental_uris":{"android":"levelo://app?vid=f70a2e35-c58f-4d70-b500-0b80b3bf6e8a","ios":"levelo://app?vid=f70a2e35-c58f-4d70-b500-0b80b3bf6e8a"},"vehicle_type_id":"4","last_reported":1749579296,"current_range_meters":6000,"station_id":"st_cvj6r9ubvosntc0bgbag","pricing_plan_id":"cebpf4jnsgd1na2vs0mg"},{"bike_id":"b8c9adcb-9322-4d46-8dc0-94ad49d64b1f","system_id":"levelo_inurba_marseille","lat":43.24807,"lon":5.37446,"is_reserved":false,"is_disabled":false,"rental_uris":{"android":"levelo://app?vid=b8c9adcb-9322-4d46-8dc0-94ad49d64b1f","ios":"levelo://app?vid=b8c9adcb-9322-4d46-8dc0-94ad49d64b1f"},"vehicle_type_id":"4","last_reported":1749579296,"current_range_meters":6000,"station_id":"ce4bhgh2rcd13ifvqfb0","pricing_plan_id":"cebpf4jnsgd1na2vs0mg"},{"bike_id":"e530a37c-c2eb-4b27-a1ef-49bd2e12bd02","system_id":"levelo_inurba_marseille","lat":43.29016,"lon":5.356,"is_reserved":false,"is_disabled":false,"rental_uris":{"android":"levelo://app?vid=e530a37c-c2eb-4b27-a1ef-49bd2e12bd02","ios":"levelo://app?vid=e530a37c-c2eb-4b27-a1ef-49bd2e12bd02"},"vehicle_type_id":"4","last_reported":1749579296,"current_range_meters":6000,"station_id":"ce4bhb92rcd13ifvqen0","pricing_plan_id":"cebpf4jnsgd1na2vs0mg"},{"bike_id":"c1e19232-2254-45cd-ab4d-7d9b5ed8d8d3","system_id":"levelo_inurba_marseille","lat":43.29022,"lon":5.38627,"is_reserved":false,"is_disabled":false,"rental_uris":{"android":"levelo://app?vid=c1e19232-2254-45cd-ab4d-7d9b5ed8d8d3","ios":"levelo://app?vid=c1e19232-2254-45cd-ab4d-7d9b5ed8d8d3"},"vehicle_type_id":"4","last_reported":1749579296,"current_range_meters":6400,"station_id":"ce4bh4p2rcd13ifvqe0g","pricing_plan_id":"cebpf4jnsgd1na2vs0mg"},{"bike_id":"4314380e-37d4-44cc-9cd0-bb0a082a1651","system_id":"levelo_inurba_marseille","lat":43.28615,"lon":5.35105,"is_reserved":false,"is_disabled":false,"rental_uris":{"android":"levelo://app?vid=4314380e-37d4-44cc-9cd0-bb0a082a1651","ios":"levelo://app?vid=4314380e-37d4-44cc-9cd0-bb0a082a1651"},"vehicle_type_id":"4","last_reported":1749579296,"current_range_meters":6400,"station_id":"ce4bhch2rcd13ifvqeug","pricing_plan_id":"cebpf4jnsgd1na2vs0mg"},{"bike_id":"b4cd78d9-3eed-4fde-b02f-1264e85cd686","system_id":"levelo_inurba_marseille","lat":43.26034,"lon":5.37543,"is_reserved":false,"is_disabled":false,"rental_uris":{"android":"levelo://app?vid=b4cd78d9-3eed-4fde-b02f-1264e85cd686","ios":"levelo://app?vid=b4cd78d9-3eed-4fde-b02f-1264e85cd686"},"vehicle_type_id":"4","last_reported":1749579296,"current_range_meters":6400,"station_id":"ce4bhgh2rcd13ifvqfa0","pricing_plan_id":"cebpf4jnsgd1na2vs0mg"},{"bike_id":"f5abc2de-330f-45ef-9d98-82a7be2ec8b3","system_id":"levelo_inurba_marseille","lat":43.28274,"lon":5.35069,"is_reserved":false,"is_disabled":false,"rental_uris":{"android":"levelo://app?vid=f5abc2de-330f-45ef-9d98-82a7be2ec8b3","ios":"levelo://app?vid=f5abc2de-330f-45ef-9d98-82a7be2ec8b3"},"vehicle_type_id":"4","last_reported":1749579296,"current_range_meters":6400,"station_id":"ce4bhbp2rcd13ifvqerg","pricing_plan_id":"cebpf4jnsgd1na2vs0mg"},{"bike_id":"95cacff3-c2e4-42c2-9f0c-6a9bed31440f","system_id":"levelo_inurba_marseille","lat":43.29876,"lon":5.39719,"is_reserved":false,"is_disabled":false,"rental_uris":{"android":"levelo://app?vid=95cacff3-c2e4-42c2-9f0c-6a9bed31440f","ios":"levelo://app?vid=95cacff3-c2e4-42c2-9f0c-6a9bed31440f"},"vehicle_type_id":"4","last_reported":1749579296,"current_range_meters":6400,"station_id":"ce4bh0h2rcd13ifvqd50","pricing_plan_id":"cebpf4jnsgd1na2vs0mg"},{"bike_id":"ba075e1f-e399-44af-8168-6d9e5d4566dd","system_id":"levelo_inurba_marseille","lat":43.246675,"lon":5.381567,"is_reserved":false,"is_disabled":false,"rental_uris":{"android":"levelo://app?vid=ba075e1f-e399-44af-8168-6d9e5d4566dd","ios":"levelo://app?vid=ba075e1f-e399-44af-8168-6d9e5d4566dd"},"vehicle_type_id":"4","last_reported":1749579296,"current_range_meters":4800,"station_id":"ce4bhih2rcd13ifvqfr0","pricing_plan_id":"cebpf4jnsgd1na2vs0mg"},{"bike_id":"fe52c15f-5aec-4b7e-998e-284a85843b2f","system_id":"levelo_inurba_marseille","lat":43.32115,"lon":5.36762,"is_reserved":false,"is_disabled":false,"rental_uris":{"android":"levelo://app?vid=fe52c15f-5aec-4b7e-998e-284a85843b2f","ios":"levelo://app?vid=fe52c15f-5aec-4b7e-998e-284a85843b2f"},"vehicle_type_id":"4","last_reported":1749579296,"current_range_meters":6400,"station_id":"ce4bhrh2rcd13ifvqhug","pricing_plan_id":"cebpf4jnsgd1na2vs0mg"},{"bike_id":"5de3bfcc-5906-4422-8f99-37580ebf094e","system_id":"levelo_inurba_marseille","lat":43.2952,"lon":5.39032,"is_reserved":false,"is_disabled":false,"rental_uris":{"android":"levelo://app?vid=5de3bfcc-5906-4422-8f99-37580ebf094e","ios":"levelo://app?vid=5de3bfcc-5906-4422-8f99-37580ebf094e"},"vehicle_type_id":"4","last_reported":1749579296,"current_range_meters":8000,"station_id":"ce4bh3p2rcd13ifvqdp0","pricing_plan_id":"cebpf4jnsgd1na2vs0mg"},{"bike_id":"fac5393b-7fef-4250-ad0b-706940b1ec1c","system_id":"levelo_inurba_marseille","lat":43.29042,"lon":5.37561,"is_reserved":false,"is_disabled":false,"rental_uris":{"android":"levelo://app?vid=fac5393b-7fef-4250-ad0b-706940b1ec1c","ios":"levelo://app?vid=fac5393b-7fef-4250-ad0b-706940b1ec1c"},"vehicle_type_id":"4","last_reported":1749579296,"current_range_meters":6800,"station_id":"ce4bh692rcd13ifvqe90","pricing_plan_id":"cebpf4jnsgd1na2vs0mg"},{"bike_id":"3f74ef80-b8c0-4683-9931-e66e51fd96af","system_id":"levelo_inurba_marseille","lat":43.30421,"lon":5.41285,"is_reserved":false,"is_disabled":false,"rental_uris":{"android":"levelo://app?vid=3f74ef80-b8c0-4683-9931-e66e51fd96af","ios":"levelo://app?vid=3f74ef80-b8c0-4683-9931-e66e51fd96af"},"vehicle_type_id":"4","last_reported":1749579296,"current_range_meters":6800,"station_id":"ce4bhop2rcd13ifvqh8g","pricing_plan_id":"cebpf4jnsgd1na2vs0mg"},{"bike_id":"291ab0bc-bb52-4ad0-a840-58f1558e3677","system_id":"levelo_inurba_marseille","lat":43.21765,"lon":5.34575,"is_reserved":false,"is_disabled":false,"rental_uris":{"android":"levelo://app?vid=291ab0bc-bb52-4ad0-a840-58f1558e3677","ios":"levelo://app?vid=291ab0bc-bb52-4ad0-a840-58f1558e3677"},"vehicle_type_id":"4","last_reported":1749579296,"current_range_meters":6800,"station_id":"st_cvj6r9ubvosntc0bgbag","pricing_plan_id":"cebpf4jnsgd1na2vs0mg"},{"bike_id":"b00b2d8a-4fd2-4037-89b9-9f9c325a3d9a","system_id":"levelo_inurba_marseille","lat":43.31328,"lon":5.39689,"is_reserved":false,"is_disabled":false,"rental_uris":{"android":"levelo://app?vid=b00b2d8a-4fd2-4037-89b9-9f9c325a3d9a","ios":"levelo://app?vid=b00b2d8a-4fd2-4037-89b9-9f9c325a3d9a"},"vehicle_type_id":"4","last_reported":1749579296,"current_range_meters":6800,"station_id":"ce4bgvp2rcd13ifvqcu0","pricing_plan_id":"cebpf4jnsgd1na2vs0mg"},{"bike_id":"da14da1f-7442-42b5-98f6-365f4fbd4c56","system_id":"levelo_inurba_marseille","lat":43.32632,"lon":5.41033,"is_reserved":false,"is_disabled":false,"rental_uris":{"android":"levelo://app?vid=da14da1f-7442-42b5-98f6-365f4fbd4c56","ios":"levelo://app?vid=da14da1f-7442-42b5-98f6-365f4fbd4c56"},"vehicle_type_id":"4","last_reported":1749579296,"current_range_meters":6800,"station_id":"ce4bhpp2rcd13ifvqhgg","pricing_plan_id":"cebpf4jnsgd1na2vs0mg"},{"bike_id":"329a7ca7-2988-4c52-8f41-8ee9c899130d","system_id":"levelo_inurba_marseille","lat":43.30948,"lon":5.39036,"is_reserved":false,"is_disabled":false,"rental_uris":{"android":"levelo://app?vid=329a7ca7-2988-4c52-8f41-8ee9c899130d","ios":"levelo://app?vid=329a7ca7-2988-4c52-8f41-8ee9c899130d"},"vehicle_type_id":"4","last_reported":1749579296,"current_range_meters":6800,"station_id":"ce4bgup2rcd13ifvqco0","pricing_plan_id":"cebpf4jnsgd1na2vs0mg"},{"bike_id":"f0782932-4f65-40fc-9cee-a635f880f137","system_id":"levelo_inurba_marseille","lat":43.32365,"lon":5.36684,"is_reserved":false,"is_disabled":false,"rental_uris":{"android":"levelo://app?vid=f0782932-4f65-40fc-9cee-a635f880f137","ios":"levelo://app?vid=f0782932-4f65-40fc-9cee-a635f880f137"},"vehicle_type_id":"4","last_reported":1749579296,"current_range_meters":7200,"station_id":"ce4bhsh2rcd13ifvqi2g","pricing_plan_id":"cebpf4jnsgd1na2vs0mg"},{"bike_id":"28073708-df89-457b-a0ef-7b782b34d403","system_id":"levelo_inurba_marseille","lat":43.28611,"lon":5.351,"is_reserved":false,"is_disabled":false,"rental_uris":{"android":"levelo://app?vid=28073708-df89-457b-a0ef-7b782b34d403","ios":"levelo://app?vid=28073708-df89-457b-a0ef-7b782b34d403"},"vehicle_type_id":"4","last_reported":1749579296,"current_range_meters":7200,"station_id":"ce4bhch2rcd13ifvqeug","pricing_plan_id":"cebpf4jnsgd1na2vs0mg"},{"bike_id":"eb4e6210-f987-47ed-ade5-cd0cb8b70a2c","system_id":"levelo_inurba_marseille","lat":43.28748,"lon":5.379346,"is_reserved":false,"is_disabled":false,"rental_uris":{"android":"levelo://app?vid=eb4e6210-f987-47ed-ade5-cd0cb8b70a2c","ios":"levelo://app?vid=eb4e6210-f987-47ed-ade5-cd0cb8b70a2c"},"vehicle_type_id":"4","last_reported":1749579296,"current_range_meters":4800,"station_id":"ce4bh9p2rcd13ifvqec0","pricing_plan_id":"cebpf4jnsgd1na2vs0mg"},{"bike_id":"0f86fe50-9abc-4c9b-8edd-90afab5cc0ee","system_id":"levelo_inurba_marseille","lat":43.24387,"lon":5.37054,"is_reserved":false,"is_disabled":false,"rental_uris":{"android":"levelo://app?vid=0f86fe50-9abc-4c9b-8edd-90afab5cc0ee","ios":"levelo://app?vid=0f86fe50-9abc-4c9b-8edd-90afab5cc0ee"},"vehicle_type_id":"4","last_reported":1749579296,"current_range_meters":8400,"station_id":"ce4bhhh2rcd13ifvqfk0","pricing_plan_id":"cebpf4jnsgd1na2vs0mg"},{"bike_id":"72a529f8-a9f9-45ad-9865-ae075b7e66c2","system_id":"levelo_inurba_marseille","lat":43.24169,"lon":5.36388,"is_reserved":false,"is_disabled":false,"rental_uris":{"android":"levelo://app?vid=72a529f8-a9f9-45ad-9865-ae075b7e66c2","ios":"levelo://app?vid=72a529f8-a9f9-45ad-9865-ae075b7e66c2"},"vehicle_type_id":"4","last_reported":1749579296,"current_range_meters":8000,"station_id":"cpo36qri1sfpv3e86is0","pricing_plan_id":"cebpf4jnsgd1na2vs0mg"},{"bike_id":"c111e740-37c8-4b3c-a8a3-3b87906e944e","system_id":"levelo_inurba_marseille","lat":43.2963,"lon":5.40591,"is_reserved":false,"is_disabled":false,"rental_uris":{"android":"levelo://app?vid=c111e740-37c8-4b3c-a8a3-3b87906e944e","ios":"levelo://app?vid=c111e740-37c8-4b3c-a8a3-3b87906e944e"},"vehicle_type_id":"4","last_reported":1749579296,"current_range_meters":8000,"station_id":"ce4bh0h2rcd13ifvqd60","pricing_plan_id":"cebpf4jnsgd1na2vs0mg"},{"bike_id":"06fdbc0d-e77d-4037-901e-719a153aa1ac","system_id":"levelo_inurba_marseille","lat":43.25106,"lon":5.40331,"is_reserved":false,"is_disabled":false,"rental_uris":{"android":"levelo://app?vid=06fdbc0d-e77d-4037-901e-719a153aa1ac","ios":"levelo://app?vid=06fdbc0d-e77d-4037-901e-719a153aa1ac"},"vehicle_type_id":"4","last_reported":1749579296,"current_range_meters":9600,"station_id":"ce4bhlh2rcd13ifvqgig","pricing_plan_id":"cebpf4jnsgd1na2vs0mg"},{"bike_id":"88113087-f0bb-4133-ab2a-bbfce1f3d99a","system_id":"levelo_inurba_marseille","lat":43.31713,"lon":5.40457,"is_reserved":false,"is_disabled":true,"rental_uris":{"android":"levelo://app?vid=88113087-f0bb-4133-ab2a-bbfce1f3d99a","ios":"levelo://app?vid=88113087-f0bb-4133-ab2a-bbfce1f3d99a"},"vehicle_type_id":"4","last_reported":1749579296,"current_range_meters":8000,"station_id":"ce4bh012rcd13ifvqd00","pricing_plan_id":"cebpf4jnsgd1na2vs0mg"},{"bike_id":"4a4021bd-30b6-4ddf-81b5-3d985b8a8d99","system_id":"levelo_inurba_marseille","lat":43.29196,"lon":5.35813,"is_reserved":false,"is_disabled":false,"rental_uris":{"android":"levelo://app?vid=4a4021bd-30b6-4ddf-81b5-3d985b8a8d99","ios":"levelo://app?vid=4a4021bd-30b6-4ddf-81b5-3d985b8a8d99"},"vehicle_type_id":"4","last_reported":1749579296,"current_range_meters":8000,"station_id":"ce4bhb12rcd13ifvqel0","pricing_plan_id":"cebpf4jnsgd1na2vs0mg"},{"bike_id":"e0813469-923b-4ce8-b154-7554de758fcd","system_id":"levelo_inurba_marseille","lat":43.29265,"lon":5.38443,"is_reserved":false,"is_disabled":false,"rental_uris":{"android":"levelo://app?vid=e0813469-923b-4ce8-b154-7554de758fcd","ios":"levelo://app?vid=e0813469-923b-4ce8-b154-7554de758fcd"},"vehicle_type_id":"4","last_reported":1749579296,"current_range_meters":8000,"station_id":"ce4bh692rcd13ifvqea0","pricing_plan_id":"cebpf4jnsgd1na2vs0mg"},{"bike_id":"fb33ed28-dadb-43b8-bd76-d34dc98c1b33","system_id":"levelo_inurba_marseille","lat":43.292665,"lon":5.384245,"is_reserved":false,"is_disabled":false,"rental_uris":{"android":"levelo://app?vid=fb33ed28-dadb-43b8-bd76-d34dc98c1b33","ios":"levelo://app?vid=fb33ed28-dadb-43b8-bd76-d34dc98c1b33"},"vehicle_type_id":"4","last_reported":1749579296,"current_range_meters":8000,"station_id":"ce4bh692rcd13ifvqea0","pricing_plan_id":"cebpf4jnsgd1na2vs0mg"},{"bike_id":"73b18cd3-59d4-4328-a044-9e85f78dfebb","system_id":"levelo_inurba_marseille","lat":43.23195,"lon":5.35559,"is_reserved":false,"is_disabled":false,"rental_uris":{"android":"levelo://app?vid=73b18cd3-59d4-4328-a044-9e85f78dfebb","ios":"levelo://app?vid=73b18cd3-59d4-4328-a044-9e85f78dfebb"},"vehicle_type_id":"4","last_reported":1749579296,"current_range_meters":8400,"station_id":"ce4bhu92rcd13ifvqi70","pricing_plan_id":"cebpf4jnsgd1na2vs0mg"},{"bike_id":"a691012a-3a21-4bf0-a57c-8c71486cafb1","system_id":"levelo_inurba_marseille","lat":43.28271,"lon":5.3506,"is_reserved":false,"is_disabled":false,"rental_uris":{"android":"levelo://app?vid=a691012a-3a21-4bf0-a57c-8c71486cafb1","ios":"levelo://app?vid=a691012a-3a21-4bf0-a57c-8c71486cafb1"},"vehicle_type_id":"4","last_reported":1749579296,"current_range_meters":9200,"station_id":"ce4bhbp2rcd13ifvqerg","pricing_plan_id":"cebpf4jnsgd1na2vs0mg"},{"bike_id":"14c057c3-f1d7-452c-8e59-64dccd9771d0","system_id":"levelo_inurba_marseille","lat":43.29421,"lon":5.38625,"is_reserved":false,"is_disabled":false,"rental_uris":{"android":"levelo://app?vid=14c057c3-f1d7-452c-8e59-64dccd9771d0","ios":"levelo://app?vid=14c057c3-f1d7-452c-8e59-64dccd9771d0"},"vehicle_type_id":"4","last_reported":1749579296,"current_range_meters":8400,"station_id":"ce4bh2h2rcd13ifvqdh0","pricing_plan_id":"cebpf4jnsgd1na2vs0mg"},{"bike_id":"924de977-49ab-4820-9468-a4da483a4b0c","system_id":"levelo_inurba_marseille","lat":43.2849,"lon":5.38412,"is_reserved":false,"is_disabled":false,"rental_uris":{"android":"levelo://app?vid=924de977-49ab-4820-9468-a4da483a4b0c","ios":"levelo://app?vid=924de977-49ab-4820-9468-a4da483a4b0c"},"vehicle_type_id":"4","last_reported":1749579296,"current_range_meters":8800,"station_id":"ce4bh512rcd13ifvqe3g","pricing_plan_id":"cebpf4jnsgd1na2vs0mg"},{"bike_id":"5cc2f18b-f77a-4a52-8784-0e4b0690b774","system_id":"levelo_inurba_marseille","lat":43.26209,"lon":5.37441,"is_reserved":false,"is_disabled":false,"rental_uris":{"android":"levelo://app?vid=5cc2f18b-f77a-4a52-8784-0e4b0690b774","ios":"levelo://app?vid=5cc2f18b-f77a-4a52-8784-0e4b0690b774"},"vehicle_type_id":"4","last_reported":1749579296,"current_range_meters":8800,"station_id":"ce4bhgp2rcd13ifvqfc0","pricing_plan_id":"cebpf4jnsgd1na2vs0mg"},{"bike_id":"ba509714-11ea-4d63-9ff5-405d995db14c","system_id":"levelo_inurba_marseille","lat":43.217457,"lon":5.346084,"is_reserved":false,"is_disabled":false,"rental_uris":{"android":"levelo://app?vid=ba509714-11ea-4d63-9ff5-405d995db14c","ios":"levelo://app?vid=ba509714-11ea-4d63-9ff5-405d995db14c"},"vehicle_type_id":"4","last_reported":1749579296,"current_range_meters":8800,"station_id":"st_cvj6r9ubvosntc0bgbag","pricing_plan_id":"cebpf4jnsgd1na2vs0mg"},{"bike_id":"49917676-8f98-444e-a341-5e35575ebdc8","system_id":"levelo_inurba_marseille","lat":43.28426,"lon":5.34986,"is_reserved":false,"is_disabled":false,"rental_uris":{"android":"levelo://app?vid=49917676-8f98-444e-a341-5e35575ebdc8","ios":"levelo://app?vid=49917676-8f98-444e-a341-5e35575ebdc8"},"vehicle_type_id":"4","last_reported":1749579296,"current_range_meters":8800,"station_id":"ce4bhbh2rcd13ifvqepg","pricing_plan_id":"cebpf4jnsgd1na2vs0mg"},{"bike_id":"ada8e7bc-bbaf-4ed5-9fe4-d53d15373130","system_id":"levelo_inurba_marseille","lat":43.2407,"lon":5.37802,"is_reserved":false,"is_disabled":false,"rental_uris":{"android":"levelo://app?vid=ada8e7bc-bbaf-4ed5-9fe4-d53d15373130","ios":"levelo://app?vid=ada8e7bc-bbaf-4ed5-9fe4-d53d15373130"},"vehicle_type_id":"4","last_reported":1749579296,"current_range_meters":9200,"station_id":"ce4bhnp2rcd13ifvqgvg","pricing_plan_id":"cebpf4jnsgd1na2vs0mg"},{"bike_id":"cb2cec04-5927-434a-816e-81d57013a9d0","system_id":"levelo_inurba_marseille","lat":43.31882,"lon":5.40737,"is_reserved":false,"is_disabled":false,"rental_uris":{"android":"levelo://app?vid=cb2cec04-5927-434a-816e-81d57013a9d0","ios":"levelo://app?vid=cb2cec04-5927-434a-816e-81d57013a9d0"},"vehicle_type_id":"4","last_reported":1749579296,"current_range_meters":8800,"station_id":"ce4bhq12rcd13ifvqhig","pricing_plan_id":"cebpf4jnsgd1na2vs0mg"},{"bike_id":"f986d8d8-f2ac-4d3a-b7fa-5006bddbdb66","system_id":"levelo_inurba_marseille","lat":43.28945,"lon":5.36391,"is_reserved":false,"is_disabled":false,"rental_uris":{"android":"levelo://app?vid=f986d8d8-f2ac-4d3a-b7fa-5006bddbdb66","ios":"levelo://app?vid=f986d8d8-f2ac-4d3a-b7fa-5006bddbdb66"},"vehicle_type_id":"4","last_reported":1749579296,"current_range_meters":9200,"station_id":"ce4bhc92rcd13ifvqetg","pricing_plan_id":"cebpf4jnsgd1na2vs0mg"},{"bike_id":"68946f1a-34bf-4637-bc13-d706deacea68","system_id":"levelo_inurba_marseille","lat":43.27994,"lon":5.40025,"is_reserved":false,"is_disabled":false,"rental_uris":{"android":"levelo://app?vid=68946f1a-34bf-4637-bc13-d706deacea68","ios":"levelo://app?vid=68946f1a-34bf-4637-bc13-d706deacea68"},"vehicle_type_id":"4","last_reported":1749579296,"current_range_meters":9200,"station_id":"ce4bho92rcd13ifvqh4g","pricing_plan_id":"cebpf4jnsgd1na2vs0mg"},{"bike_id":"b6285f6b-e9e7-470d-9b6d-1afe99ab71bf","system_id":"levelo_inurba_marseille","lat":43.26193,"lon":5.42066,"is_reserved":false,"is_disabled":false,"rental_uris":{"android":"levelo://app?vid=b6285f6b-e9e7-470d-9b6d-1afe99ab71bf","ios":"levelo://app?vid=b6285f6b-e9e7-470d-9b6d-1afe99ab71bf"},"vehicle_type_id":"4","last_reported":1749579296,"current_range_meters":9600,"station_id":"","pricing_plan_id":"cebpf4jnsgd1na2vs0mg"},{"bike_id":"d3a40302-6b3e-4b46-bcbd-596ef9ce612d","system_id":"levelo_inurba_marseille","lat":43.31225,"lon":5.36832,"is_reserved":false,"is_disabled":false,"rental_uris":{"android":"levelo://app?vid=d3a40302-6b3e-4b46-bcbd-596ef9ce612d","ios":"levelo://app?vid=d3a40302-6b3e-4b46-bcbd-596ef9ce612d"},"vehicle_type_id":"4","last_reported":1749579296,"current_range_meters":9600,"station_id":"ce4bgl92rcd13ifvqbq0","pricing_plan_id":"cebpf4jnsgd1na2vs0mg"},{"bike_id":"3d59d2ec-b59a-43e8-abae-40ac02fdcdb8","system_id":"levelo_inurba_marseille","lat":43.2955,"lon":5.42287,"is_reserved":false,"is_disabled":false,"rental_uris":{"android":"levelo://app?vid=3d59d2ec-b59a-43e8-abae-40ac02fdcdb8","ios":"levelo://app?vid=3d59d2ec-b59a-43e8-abae-40ac02fdcdb8"},"vehicle_type_id":"4","last_reported":1749579296,"current_range_meters":9600,"station_id":"ce4bhph2rcd13ifvqhdg","pricing_plan_id":"cebpf4jnsgd1na2vs0mg"},{"bike_id":"74177e21-2bd6-4f57-9322-12f4cf2ab05f","system_id":"levelo_inurba_marseille","lat":43.2997,"lon":5.37171,"is_reserved":false,"is_disabled":false,"rental_uris":{"android":"levelo://app?vid=74177e21-2bd6-4f57-9322-12f4cf2ab05f","ios":"levelo://app?vid=74177e21-2bd6-4f57-9322-12f4cf2ab05f"},"vehicle_type_id":"4","last_reported":1749579296,"current_range_meters":9200,"station_id":"ce4bgr92rcd13ifvqc7g","pricing_plan_id":"cebpf4jnsgd1na2vs0mg"},{"bike_id":"39d32260-51d5-455a-ba53-6471389bd255","system_id":"levelo_inurba_marseille","lat":43.31978,"lon":5.37623,"is_reserved":false,"is_disabled":false,"rental_uris":{"android":"levelo://app?vid=39d32260-51d5-455a-ba53-6471389bd255","ios":"levelo://app?vid=39d32260-51d5-455a-ba53-6471389bd255"},"vehicle_type_id":"4","last_reported":1749579296,"current_range_meters":9600,"station_id":"","pricing_plan_id":"cebpf4jnsgd1na2vs0mg"},{"bike_id":"283e2097-6771-4bf2-ba37-c854b98585c5","system_id":"levelo_inurba_marseille","lat":43.24168,"lon":5.36392,"is_reserved":false,"is_disabled":false,"rental_uris":{"android":"levelo://app?vid=283e2097-6771-4bf2-ba37-c854b98585c5","ios":"levelo://app?vid=283e2097-6771-4bf2-ba37-c854b98585c5"},"vehicle_type_id":"4","last_reported":1749579296,"current_range_meters":9600,"station_id":"cpo36qri1sfpv3e86is0","pricing_plan_id":"cebpf4jnsgd1na2vs0mg"},{"bike_id":"15cfbd01-b79e-465a-b4a7-6e1f565f521c","system_id":"levelo_inurba_marseille","lat":43.31756,"lon":5.39014,"is_reserved":false,"is_disabled":false,"rental_uris":{"android":"levelo://app?vid=15cfbd01-b79e-465a-b4a7-6e1f565f521c","ios":"levelo://app?vid=15cfbd01-b79e-465a-b4a7-6e1f565f521c"},"vehicle_type_id":"4","last_reported":1749579296,"current_range_meters":12800,"station_id":"ce4bhqp2rcd13ifvqhng","pricing_plan_id":"cebpf4jnsgd1na2vs0mg"},{"bike_id":"09fc93df-1b5b-4565-bebf-a33c16f5f13b","system_id":"levelo_inurba_marseille","lat":43.330249,"lon":5.390394,"is_reserved":false,"is_disabled":false,"rental_uris":{"android":"levelo://app?vid=09fc93df-1b5b-4565-bebf-a33c16f5f13b","ios":"levelo://app?vid=09fc93df-1b5b-4565-bebf-a33c16f5f13b"},"vehicle_type_id":"4","last_reported":1749579296,"current_range_meters":10000,"station_id":"ce4bhr92rcd13ifvqhrg","pricing_plan_id":"cebpf4jnsgd1na2vs0mg"},{"bike_id":"ef46ed7a-c59b-4dd2-81ae-79114e5db0a7","system_id":"levelo_inurba_marseille","lat":43.29619,"lon":5.371599,"is_reserved":false,"is_disabled":false,"rental_uris":{"android":"levelo://app?vid=ef46ed7a-c59b-4dd2-81ae-79114e5db0a7","ios":"levelo://app?vid=ef46ed7a-c59b-4dd2-81ae-79114e5db0a7"},"vehicle_type_id":"4","last_reported":1749579296,"current_range_meters":10000,"station_id":"","pricing_plan_id":"cebpf4jnsgd1na2vs0mg"},{"bike_id":"8728183e-bf98-4b19-9132-5122f747c6bb","system_id":"levelo_inurba_marseille","lat":43.29527,"lon":5.38554,"is_reserved":false,"is_disabled":false,"rental_uris":{"android":"levelo://app?vid=8728183e-bf98-4b19-9132-5122f747c6bb","ios":"levelo://app?vid=8728183e-bf98-4b19-9132-5122f747c6bb"},"vehicle_type_id":"4","last_reported":1749579296,"current_range_meters":10000,"station_id":"ce4bgih2rcd13ifvqba0","pricing_plan_id":"cebpf4jnsgd1na2vs0mg"},{"bike_id":"90a95777-113d-482a-a493-34cc28c0b633","system_id":"levelo_inurba_marseille","lat":43.30884,"lon":5.39654,"is_reserved":false,"is_disabled":false,"rental_uris":{"android":"levelo://app?vid=90a95777-113d-482a-a493-34cc28c0b633","ios":"levelo://app?vid=90a95777-113d-482a-a493-34cc28c0b633"},"vehicle_type_id":"4","last_reported":1749579296,"current_range_meters":10000,"station_id":"ce4bh012rcd13ifvqcv0","pricing_plan_id":"cebpf4jnsgd1na2vs0mg"},{"bike_id":"b940f1d9-c915-4a72-9bbb-0a862bd9d716","system_id":"levelo_inurba_marseille","lat":43.27617,"lon":5.36116,"is_reserved":false,"is_disabled":false,"rental_uris":{"android":"levelo://app?vid=b940f1d9-c915-4a72-9bbb-0a862bd9d716","ios":"levelo://app?vid=b940f1d9-c915-4a72-9bbb-0a862bd9d716"},"vehicle_type_id":"4","last_reported":1749579296,"current_range_meters":10000,"station_id":"ce4bgj92rcd13ifvqbe0","pricing_plan_id":"cebpf4jnsgd1na2vs0mg"},{"bike_id":"f21590a7-bb79-473d-87f0-3dda054257cd","system_id":"levelo_inurba_marseille","lat":43.29431,"lon":5.38614,"is_reserved":false,"is_disabled":false,"rental_uris":{"android":"levelo://app?vid=f21590a7-bb79-473d-87f0-3dda054257cd","ios":"levelo://app?vid=f21590a7-bb79-473d-87f0-3dda054257cd"},"vehicle_type_id":"4","last_reported":1749579296,"current_range_meters":10000,"station_id":"ce4bh2h2rcd13ifvqdh0","pricing_plan_id":"cebpf4jnsgd1na2vs0mg"},{"bike_id":"f28caeda-ec91-46f8-adb1-3df589f54775","system_id":"levelo_inurba_marseille","lat":43.29037,"lon":5.37563,"is_reserved":false,"is_disabled":false,"rental_uris":{"android":"levelo://app?vid=f28caeda-ec91-46f8-adb1-3df589f54775","ios":"levelo://app?vid=f28caeda-ec91-46f8-adb1-3df589f54775"},"vehicle_type_id":"4","last_reported":1749579296,"current_range_meters":10000,"station_id":"ce4bh692rcd13ifvqe90","pricing_plan_id":"cebpf4jnsgd1na2vs0mg"},{"bike_id":"6890b9e2-87e1-40b6-9e0f-8af99f456400","system_id":"levelo_inurba_marseille","lat":43.29632,"lon":5.38064,"is_reserved":false,"is_disabled":true,"rental_uris":{"android":"levelo://app?vid=6890b9e2-87e1-40b6-9e0f-8af99f456400","ios":"levelo://app?vid=6890b9e2-87e1-40b6-9e0f-8af99f456400"},"vehicle_type_id":"4","last_reported":1749579296,"current_range_meters":10000,"station_id":"ce4bgl12rcd13ifvqbo0","pricing_plan_id":"cebpf4jnsgd1na2vs0mg"},{"bike_id":"8dac0fc1-eba5-4385-84e4-cc3e4d29f39d","system_id":"levelo_inurba_marseille","lat":43.28414,"lon":5.34991,"is_reserved":false,"is_disabled":false,"rental_uris":{"android":"levelo://app?vid=8dac0fc1-eba5-4385-84e4-cc3e4d29f39d","ios":"levelo://app?vid=8dac0fc1-eba5-4385-84e4-cc3e4d29f39d"},"vehicle_type_id":"4","last_reported":1749579296,"current_range_meters":10000,"station_id":"ce4bhbh2rcd13ifvqepg","pricing_plan_id":"cebpf4jnsgd1na2vs0mg"},{"bike_id":"955c930c-c336-417f-bb8a-3d2b0a0f3d0c","system_id":"levelo_inurba_marseille","lat":43.2784,"lon":5.39198,"is_reserved":false,"is_disabled":true,"rental_uris":{"android":"levelo://app?vid=955c930c-c336-417f-bb8a-3d2b0a0f3d0c","ios":"levelo://app?vid=955c930c-c336-417f-bb8a-3d2b0a0f3d0c"},"vehicle_type_id":"4","last_reported":1749579296,"current_range_meters":10000,"station_id":"ce4bhjp2rcd13ifvqga0","pricing_plan_id":"cebpf4jnsgd1na2vs0mg"},{"bike_id":"5e6b1e47-16fd-488b-b7eb-507767b76ee6","system_id":"levelo_inurba_marseille","lat":43.2682,"lon":5.39069,"is_reserved":false,"is_disabled":false,"rental_uris":{"android":"levelo://app?vid=5e6b1e47-16fd-488b-b7eb-507767b76ee6","ios":"levelo://app?vid=5e6b1e47-16fd-488b-b7eb-507767b76ee6"},"vehicle_type_id":"4","last_reported":1749579296,"current_range_meters":10000,"station_id":"","pricing_plan_id":"cebpf4jnsgd1na2vs0mg"},{"bike_id":"f4cbc844-5d4d-40ae-bce8-4f895373c420","system_id":"levelo_inurba_marseille","lat":43.28391,"lon":5.34997,"is_reserved":false,"is_disabled":false,"rental_uris":{"android":"levelo://app?vid=f4cbc844-5d4d-40ae-bce8-4f895373c420","ios":"levelo://app?vid=f4cbc844-5d4d-40ae-bce8-4f895373c420"},"vehicle_type_id":"4","last_reported":1749579296,"current_range_meters":10000,"station_id":"ce4bhbh2rcd13ifvqepg","pricing_plan_id":"cebpf4jnsgd1na2vs0mg"},{"bike_id":"4e643616-64a8-4cb4-a699-5c99f31870eb","system_id":"levelo_inurba_marseille","lat":43.21761,"lon":5.34601,"is_reserved":false,"is_disabled":false,"rental_uris":{"android":"levelo://app?vid=4e643616-64a8-4cb4-a699-5c99f31870eb","ios":"levelo://app?vid=4e643616-64a8-4cb4-a699-5c99f31870eb"},"vehicle_type_id":"4","last_reported":1749579296,"current_range_meters":10000,"station_id":"st_cvj6r9ubvosntc0bgbag","pricing_plan_id":"cebpf4jnsgd1na2vs0mg"},{"bike_id":"3abf55fd-d1f1-4c1b-a3bd-aa3d50412500","system_id":"levelo_inurba_marseille","lat":43.26955,"lon":5.3863,"is_reserved":false,"is_disabled":true,"rental_uris":{"android":"levelo://app?vid=3abf55fd-d1f1-4c1b-a3bd-aa3d50412500","ios":"levelo://app?vid=3abf55fd-d1f1-4c1b-a3bd-aa3d50412500"},"vehicle_type_id":"4","last_reported":1749579296,"current_range_meters":10000,"station_id":"ce4bhh92rcd13ifvqfh0","pricing_plan_id":"cebpf4jnsgd1na2vs0mg"},{"bike_id":"ace4c0d4-05f2-4619-ae40-0b21150d8652","system_id":"levelo_inurba_marseille","lat":43.269393,"lon":5.386288,"is_reserved":false,"is_disabled":false,"rental_uris":{"android":"levelo://app?vid=ace4c0d4-05f2-4619-ae40-0b21150d8652","ios":"levelo://app?vid=ace4c0d4-05f2-4619-ae40-0b21150d8652"},"vehicle_type_id":"4","last_reported":1749579296,"current_range_meters":10000,"station_id":"ce4bhh92rcd13ifvqfh0","pricing_plan_id":"cebpf4jnsgd1na2vs0mg"},{"bike_id":"5077581b-cebb-46fc-ba69-4fa8272d4810","system_id":"levelo_inurba_marseille","lat":43.21367,"lon":5.35515,"is_reserved":false,"is_disabled":false,"rental_uris":{"android":"levelo://app?vid=5077581b-cebb-46fc-ba69-4fa8272d4810","ios":"levelo://app?vid=5077581b-cebb-46fc-ba69-4fa8272d4810"},"vehicle_type_id":"4","last_reported":1749579296,"current_range_meters":10800,"station_id":"","pricing_plan_id":"cebpf4jnsgd1na2vs0mg"},{"bike_id":"2078938b-0b4d-43f1-b99e-091fde07e95a","system_id":"levelo_inurba_marseille","lat":43.31112,"lon":5.37781,"is_reserved":false,"is_disabled":false,"rental_uris":{"android":"levelo://app?vid=2078938b-0b4d-43f1-b99e-091fde07e95a","ios":"levelo://app?vid=2078938b-0b4d-43f1-b99e-091fde07e95a"},"vehicle_type_id":"4","last_reported":1749579296,"current_range_meters":10800,"station_id":"ce4bgt92rcd13ifvqcg0","pricing_plan_id":"cebpf4jnsgd1na2vs0mg"},{"bike_id":"b7adeb01-974b-42d9-9826-b285e58b9510","system_id":"levelo_inurba_marseille","lat":43.29713,"lon":5.36606,"is_reserved":false,"is_disabled":false,"rental_uris":{"android":"levelo://app?vid=b7adeb01-974b-42d9-9826-b285e58b9510","ios":"levelo://app?vid=b7adeb01-974b-42d9-9826-b285e58b9510"},"vehicle_type_id":"4","last_reported":1749579296,"current_range_meters":10800,"station_id":"ce4bgn12rcd13ifvqbt0","pricing_plan_id":"cebpf4jnsgd1na2vs0mg"},{"bike_id":"ef555bdb-3115-4b1f-9398-9c76776e1204","system_id":"levelo_inurba_marseille","lat":43.26032,"lon":5.37425,"is_reserved":false,"is_disabled":false,"rental_uris":{"android":"levelo://app?vid=ef555bdb-3115-4b1f-9398-9c76776e1204","ios":"levelo://app?vid=ef555bdb-3115-4b1f-9398-9c76776e1204"},"vehicle_type_id":"4","last_reported":1749579296,"current_range_meters":10800,"station_id":"","pricing_plan_id":"cebpf4jnsgd1na2vs0mg"},{"bike_id":"3586e912-27df-4a5a-bb26-c48e158ca6d0","system_id":"levelo_inurba_marseille","lat":43.29418,"lon":5.38623,"is_reserved":false,"is_disabled":false,"rental_uris":{"android":"levelo://app?vid=3586e912-27df-4a5a-bb26-c48e158ca6d0","ios":"levelo://app?vid=3586e912-27df-4a5a-bb26-c48e158ca6d0"},"vehicle_type_id":"4","last_reported":1749579296,"current_range_meters":9200,"station_id":"ce4bh2h2rcd13ifvqdh0","pricing_plan_id":"cebpf4jnsgd1na2vs0mg"},{"bike_id":"30343dc2-3aeb-4088-b357-ad9af998992a","system_id":"levelo_inurba_marseille","lat":43.29004,"lon":5.3561,"is_reserved":false,"is_disabled":false,"rental_uris":{"android":"levelo://app?vid=30343dc2-3aeb-4088-b357-ad9af998992a","ios":"levelo://app?vid=30343dc2-3aeb-4088-b357-ad9af998992a"},"vehicle_type_id":"4","last_reported":1749579296,"current_range_meters":8800,"station_id":"ce4bhb92rcd13ifvqen0","pricing_plan_id":"cebpf4jnsgd1na2vs0mg"},{"bike_id":"02b17f18-7a88-440d-9012-58a28560d8c1","system_id":"levelo_inurba_marseille","lat":43.29271,"lon":5.38446,"is_reserved":false,"is_disabled":false,"rental_uris":{"android":"levelo://app?vid=02b17f18-7a88-440d-9012-58a28560d8c1","ios":"levelo://app?vid=02b17f18-7a88-440d-9012-58a28560d8c1"},"vehicle_type_id":"4","last_reported":1749579296,"current_range_meters":10800,"station_id":"ce4bh692rcd13ifvqea0","pricing_plan_id":"cebpf4jnsgd1na2vs0mg"},{"bike_id":"11be1020-e5a2-4e88-8d2c-7bcffd29dbcd","system_id":"levelo_inurba_marseille","lat":43.29574,"lon":5.39968,"is_reserved":false,"is_disabled":false,"rental_uris":{"android":"levelo://app?vid=11be1020-e5a2-4e88-8d2c-7bcffd29dbcd","ios":"levelo://app?vid=11be1020-e5a2-4e88-8d2c-7bcffd29dbcd"},"vehicle_type_id":"4","last_reported":1749579296,"current_range_meters":10800,"station_id":"ce4bh312rcd13ifvqdj0","pricing_plan_id":"cebpf4jnsgd1na2vs0mg"},{"bike_id":"b908d6ad-3c75-4b69-b847-ea52aaa92ec7","system_id":"levelo_inurba_marseille","lat":43.2952,"lon":5.39399,"is_reserved":false,"is_disabled":false,"rental_uris":{"android":"levelo://app?vid=b908d6ad-3c75-4b69-b847-ea52aaa92ec7","ios":"levelo://app?vid=b908d6ad-3c75-4b69-b847-ea52aaa92ec7"},"vehicle_type_id":"4","last_reported":1749579296,"current_range_meters":10800,"station_id":"ce4bh292rcd13ifvqdf0","pricing_plan_id":"cebpf4jnsgd1na2vs0mg"},{"bike_id":"9ca66eee-50df-4528-8c8a-87962fe097e1","system_id":"levelo_inurba_marseille","lat":43.2958,"lon":5.36739,"is_reserved":false,"is_disabled":false,"rental_uris":{"android":"levelo://app?vid=9ca66eee-50df-4528-8c8a-87962fe097e1","ios":"levelo://app?vid=9ca66eee-50df-4528-8c8a-87962fe097e1"},"vehicle_type_id":"4","last_reported":1749579296,"current_range_meters":10800,"station_id":"ce4bgph2rcd13ifvqc2g","pricing_plan_id":"cebpf4jnsgd1na2vs0mg"},{"bike_id":"610f1b5f-ae90-442e-abea-37fd46f58658","system_id":"levelo_inurba_marseille","lat":43.31323,"lon":5.39694,"is_reserved":false,"is_disabled":false,"rental_uris":{"android":"levelo://app?vid=610f1b5f-ae90-442e-abea-37fd46f58658","ios":"levelo://app?vid=610f1b5f-ae90-442e-abea-37fd46f58658"},"vehicle_type_id":"4","last_reported":1749579296,"current_range_meters":10800,"station_id":"ce4bgvp2rcd13ifvqcu0","pricing_plan_id":"cebpf4jnsgd1na2vs0mg"},{"bike_id":"ca3e5cbc-d76a-40be-8467-39cc9a810212","system_id":"levelo_inurba_marseille","lat":43.29555,"lon":5.42289,"is_reserved":false,"is_disabled":false,"rental_uris":{"android":"levelo://app?vid=ca3e5cbc-d76a-40be-8467-39cc9a810212","ios":"levelo://app?vid=ca3e5cbc-d76a-40be-8467-39cc9a810212"},"vehicle_type_id":"4","last_reported":1749579296,"current_range_meters":11200,"station_id":"ce4bhph2rcd13ifvqhdg","pricing_plan_id":"cebpf4jnsgd1na2vs0mg"},{"bike_id":"5487cbca-d1ef-4849-ae50-99cceaae243a","system_id":"levelo_inurba_marseille","lat":43.28622,"lon":5.35101,"is_reserved":false,"is_disabled":false,"rental_uris":{"android":"levelo://app?vid=5487cbca-d1ef-4849-ae50-99cceaae243a","ios":"levelo://app?vid=5487cbca-d1ef-4849-ae50-99cceaae243a"},"vehicle_type_id":"4","last_reported":1749579296,"current_range_meters":11200,"station_id":"ce4bhch2rcd13ifvqeug","pricing_plan_id":"cebpf4jnsgd1na2vs0mg"},{"bike_id":"0762674f-1e89-4d4c-aa36-9ccaf8f24fa7","system_id":"levelo_inurba_marseille","lat":43.28425,"lon":5.34952,"is_reserved":false,"is_disabled":false,"rental_uris":{"android":"levelo://app?vid=0762674f-1e89-4d4c-aa36-9ccaf8f24fa7","ios":"levelo://app?vid=0762674f-1e89-4d4c-aa36-9ccaf8f24fa7"},"vehicle_type_id":"4","last_reported":1749579296,"current_range_meters":11200,"station_id":"ce4bhbh2rcd13ifvqepg","pricing_plan_id":"cebpf4jnsgd1na2vs0mg"},{"bike_id":"2fb82a4e-0ee1-4839-87e1-0819fb18ed3d","system_id":"levelo_inurba_marseille","lat":43.27083,"lon":5.42284,"is_reserved":false,"is_disabled":true,"rental_uris":{"android":"levelo://app?vid=2fb82a4e-0ee1-4839-87e1-0819fb18ed3d","ios":"levelo://app?vid=2fb82a4e-0ee1-4839-87e1-0819fb18ed3d"},"vehicle_type_id":"4","last_reported":1749579296,"current_range_meters":11200,"station_id":"ce4bhk92rcd13ifvqgb0","pricing_plan_id":"cebpf4jnsgd1na2vs0mg"},{"bike_id":"126c7f0f-d5a0-42ea-bafd-f05f98bbbf24","system_id":"levelo_inurba_marseille","lat":43.289347,"lon":5.384062,"is_reserved":false,"is_disabled":false,"rental_uris":{"android":"levelo://app?vid=126c7f0f-d5a0-42ea-bafd-f05f98bbbf24","ios":"levelo://app?vid=126c7f0f-d5a0-42ea-bafd-f05f98bbbf24"},"vehicle_type_id":"4","last_reported":1749579296,"current_range_meters":11200,"station_id":"ce4bh612rcd13ifvqe6g","pricing_plan_id":"cebpf4jnsgd1na2vs0mg"},{"bike_id":"568af691-c2ec-4046-acb5-c6545b0747e6","system_id":"levelo_inurba_marseille","lat":43.2175,"lon":5.346,"is_reserved":false,"is_disabled":false,"rental_uris":{"android":"levelo://app?vid=568af691-c2ec-4046-acb5-c6545b0747e6","ios":"levelo://app?vid=568af691-c2ec-4046-acb5-c6545b0747e6"},"vehicle_type_id":"4","last_reported":1749579296,"current_range_meters":11200,"station_id":"st_cvj6r9ubvosntc0bgbag","pricing_plan_id":"cebpf4jnsgd1na2vs0mg"},{"bike_id":"4ee4ccb1-d4ec-4316-ad54-31cc9c2487f3","system_id":"levelo_inurba_marseille","lat":43.2572,"lon":5.41113,"is_reserved":false,"is_disabled":false,"rental_uris":{"android":"levelo://app?vid=4ee4ccb1-d4ec-4316-ad54-31cc9c2487f3","ios":"levelo://app?vid=4ee4ccb1-d4ec-4316-ad54-31cc9c2487f3"},"vehicle_type_id":"4","last_reported":1749579296,"current_range_meters":11200,"station_id":"ce4bhkp2rcd13ifvqgd0","pricing_plan_id":"cebpf4jnsgd1na2vs0mg"},{"bike_id":"6928e466-519a-43b8-8ee0-554ccb89f881","system_id":"levelo_inurba_marseille","lat":43.284271,"lon":5.349953,"is_reserved":false,"is_disabled":false,"rental_uris":{"android":"levelo://app?vid=6928e466-519a-43b8-8ee0-554ccb89f881","ios":"levelo://app?vid=6928e466-519a-43b8-8ee0-554ccb89f881"},"vehicle_type_id":"4","last_reported":1749579296,"current_range_meters":11600,"station_id":"ce4bhbh2rcd13ifvqepg","pricing_plan_id":"cebpf4jnsgd1na2vs0mg"},{"bike_id":"5b08a3ce-c489-4d97-83fb-f002539fe672","system_id":"levelo_inurba_marseille","lat":43.28271,"lon":5.35053,"is_reserved":false,"is_disabled":false,"rental_uris":{"android":"levelo://app?vid=5b08a3ce-c489-4d97-83fb-f002539fe672","ios":"levelo://app?vid=5b08a3ce-c489-4d97-83fb-f002539fe672"},"vehicle_type_id":"4","last_reported":1749579296,"current_range_meters":11600,"station_id":"ce4bhbp2rcd13ifvqerg","pricing_plan_id":"cebpf4jnsgd1na2vs0mg"},{"bike_id":"a1d9ce3e-4570-483c-a726-570870571b0f","system_id":"levelo_inurba_marseille","lat":43.30267,"lon":5.40078,"is_reserved":false,"is_disabled":false,"rental_uris":{"android":"levelo://app?vid=a1d9ce3e-4570-483c-a726-570870571b0f","ios":"levelo://app?vid=a1d9ce3e-4570-483c-a726-570870571b0f"},"vehicle_type_id":"4","last_reported":1749579296,"current_range_meters":11600,"station_id":"ce4bgvh2rcd13ifvqcs0","pricing_plan_id":"cebpf4jnsgd1na2vs0mg"},{"bike_id":"85bc40cf-1cc3-4860-8731-379836ec9e25","system_id":"levelo_inurba_marseille","lat":43.308826,"lon":5.396548,"is_reserved":false,"is_disabled":false,"rental_uris":{"android":"levelo://app?vid=85bc40cf-1cc3-4860-8731-379836ec9e25","ios":"levelo://app?vid=85bc40cf-1cc3-4860-8731-379836ec9e25"},"vehicle_type_id":"4","last_reported":1749579296,"current_range_meters":11600,"station_id":"ce4bh012rcd13ifvqcv0","pricing_plan_id":"cebpf4jnsgd1na2vs0mg"},{"bike_id":"2fb77abd-3112-4fce-99a6-71b8052ec74f","system_id":"levelo_inurba_marseille","lat":43.279335,"lon":5.410578,"is_reserved":false,"is_disabled":false,"rental_uris":{"android":"levelo://app?vid=2fb77abd-3112-4fce-99a6-71b8052ec74f","ios":"levelo://app?vid=2fb77abd-3112-4fce-99a6-71b8052ec74f"},"vehicle_type_id":"4","last_reported":1749579296,"current_range_meters":11600,"station_id":"ce4bhnp2rcd13ifvqh0g","pricing_plan_id":"cebpf4jnsgd1na2vs0mg"},{"bike_id":"c96b2cb2-0df6-4ee8-992d-1c437bf5786b","system_id":"levelo_inurba_marseille","lat":43.270604,"lon":5.402583,"is_reserved":false,"is_disabled":true,"rental_uris":{"android":"levelo://app?vid=c96b2cb2-0df6-4ee8-992d-1c437bf5786b","ios":"levelo://app?vid=c96b2cb2-0df6-4ee8-992d-1c437bf5786b"},"vehicle_type_id":"4","last_reported":1749579296,"current_range_meters":11600,"station_id":"ce4bhk92rcd13ifvqgc0","pricing_plan_id":"cebpf4jnsgd1na2vs0mg"},{"bike_id":"ba185aaa-30d9-4450-b59c-f9108896a189","system_id":"levelo_inurba_marseille","lat":43.27941,"lon":5.41043,"is_reserved":false,"is_disabled":false,"rental_uris":{"android":"levelo://app?vid=ba185aaa-30d9-4450-b59c-f9108896a189","ios":"levelo://app?vid=ba185aaa-30d9-4450-b59c-f9108896a189"},"vehicle_type_id":"4","last_reported":1749579296,"current_range_meters":11600,"station_id":"ce4bhnp2rcd13ifvqh0g","pricing_plan_id":"cebpf4jnsgd1na2vs0mg"},{"bike_id":"7d4ece47-5b37-4726-82c3-148bd40e2823","system_id":"levelo_inurba_marseille","lat":43.295554,"lon":5.422855,"is_reserved":false,"is_disabled":false,"rental_uris":{"android":"levelo://app?vid=7d4ece47-5b37-4726-82c3-148bd40e2823","ios":"levelo://app?vid=7d4ece47-5b37-4726-82c3-148bd40e2823"},"vehicle_type_id":"4","last_reported":1749579296,"current_range_meters":7200,"station_id":"ce4bhph2rcd13ifvqhdg","pricing_plan_id":"cebpf4jnsgd1na2vs0mg"},{"bike_id":"67185576-b92e-4041-951a-39a449671466","system_id":"levelo_inurba_marseille","lat":43.273771,"lon":5.362566,"is_reserved":false,"is_disabled":false,"rental_uris":{"android":"levelo://app?vid=67185576-b92e-4041-951a-39a449671466","ios":"levelo://app?vid=67185576-b92e-4041-951a-39a449671466"},"vehicle_type_id":"4","last_reported":1749579296,"current_range_meters":12000,"station_id":"ce4bhbh2rcd13ifvqeo0","pricing_plan_id":"cebpf4jnsgd1na2vs0mg"},{"bike_id":"f23d1d35-c48f-4b1a-926f-10572b13a74e","system_id":"levelo_inurba_marseille","lat":43.28855,"lon":5.35857,"is_reserved":false,"is_disabled":false,"rental_uris":{"android":"levelo://app?vid=f23d1d35-c48f-4b1a-926f-10572b13a74e","ios":"levelo://app?vid=f23d1d35-c48f-4b1a-926f-10572b13a74e"},"vehicle_type_id":"4","last_reported":1749579296,"current_range_meters":12000,"station_id":"ce4bhb12rcd13ifvqem0","pricing_plan_id":"cebpf4jnsgd1na2vs0mg"},{"bike_id":"ca517458-3fab-4faa-b8e1-1a97f0fe1f5f","system_id":"levelo_inurba_marseille","lat":43.30645,"lon":5.40077,"is_reserved":false,"is_disabled":false,"rental_uris":{"android":"levelo://app?vid=ca517458-3fab-4faa-b8e1-1a97f0fe1f5f","ios":"levelo://app?vid=ca517458-3fab-4faa-b8e1-1a97f0fe1f5f"},"vehicle_type_id":"4","last_reported":1749579296,"current_range_meters":12000,"station_id":"ce4bh112rcd13ifvqda0","pricing_plan_id":"cebpf4jnsgd1na2vs0mg"},{"bike_id":"94be72bd-f34b-4293-94aa-4975a7e5f183","system_id":"levelo_inurba_marseille","lat":43.24067,"lon":5.37759,"is_reserved":false,"is_disabled":false,"rental_uris":{"android":"levelo://app?vid=94be72bd-f34b-4293-94aa-4975a7e5f183","ios":"levelo://app?vid=94be72bd-f34b-4293-94aa-4975a7e5f183"},"vehicle_type_id":"4","last_reported":1749579296,"current_range_meters":12000,"station_id":"ce4bhnp2rcd13ifvqgvg","pricing_plan_id":"cebpf4jnsgd1na2vs0mg"},{"bike_id":"3675382d-3f8b-4760-b6bd-7d96cf92b8bb","system_id":"levelo_inurba_marseille","lat":43.286704,"lon":5.386522,"is_reserved":false,"is_disabled":false,"rental_uris":{"android":"levelo://app?vid=3675382d-3f8b-4760-b6bd-7d96cf92b8bb","ios":"levelo://app?vid=3675382d-3f8b-4760-b6bd-7d96cf92b8bb"},"vehicle_type_id":"4","last_reported":1749579296,"current_range_meters":12000,"station_id":"ce4bh492rcd13ifvqdug","pricing_plan_id":"cebpf4jnsgd1na2vs0mg"},{"bike_id":"63d36127-297a-4b85-8b92-31d454391a71","system_id":"levelo_inurba_marseille","lat":43.281172,"lon":5.426501,"is_reserved":false,"is_disabled":false,"rental_uris":{"android":"levelo://app?vid=63d36127-297a-4b85-8b92-31d454391a71","ios":"levelo://app?vid=63d36127-297a-4b85-8b92-31d454391a71"},"vehicle_type_id":"4","last_reported":1749579296,"current_range_meters":12000,"station_id":"ce4bhnh2rcd13ifvqgug","pricing_plan_id":"cebpf4jnsgd1na2vs0mg"},{"bike_id":"ca27e12a-1f2d-4cf2-be29-12a2b9ff1547","system_id":"levelo_inurba_marseille","lat":43.31703,"lon":5.42431,"is_reserved":false,"is_disabled":false,"rental_uris":{"android":"levelo://app?vid=ca27e12a-1f2d-4cf2-be29-12a2b9ff1547","ios":"levelo://app?vid=ca27e12a-1f2d-4cf2-be29-12a2b9ff1547"},"vehicle_type_id":"4","last_reported":1749579296,"current_range_meters":12000,"station_id":"ce4bhp92rcd13ifvqhbg","pricing_plan_id":"cebpf4jnsgd1na2vs0mg"},{"bike_id":"e12392b6-8378-4e14-bce2-d1e8fa2eccc4","system_id":"levelo_inurba_marseille","lat":43.28354,"lon":5.38636,"is_reserved":false,"is_disabled":false,"rental_uris":{"android":"levelo://app?vid=e12392b6-8378-4e14-bce2-d1e8fa2eccc4","ios":"levelo://app?vid=e12392b6-8378-4e14-bce2-d1e8fa2eccc4"},"vehicle_type_id":"4","last_reported":1749579296,"current_range_meters":11600,"station_id":"ce4bh492rcd13ifvqdvg","pricing_plan_id":"cebpf4jnsgd1na2vs0mg"},{"bike_id":"1e11feb0-0a6e-4b0e-aa98-d035d3992658","system_id":"levelo_inurba_marseille","lat":43.324822,"lon":5.424309,"is_reserved":false,"is_disabled":false,"rental_uris":{"android":"levelo://app?vid=1e11feb0-0a6e-4b0e-aa98-d035d3992658","ios":"levelo://app?vid=1e11feb0-0a6e-4b0e-aa98-d035d3992658"},"vehicle_type_id":"4","last_reported":1749579296,"current_range_meters":12000,"station_id":"","pricing_plan_id":"cebpf4jnsgd1na2vs0mg"},{"bike_id":"8a487642-fc5a-4da2-ba80-5f79cc8826b7","system_id":"levelo_inurba_marseille","lat":43.2407,"lon":5.37764,"is_reserved":false,"is_disabled":false,"rental_uris":{"android":"levelo://app?vid=8a487642-fc5a-4da2-ba80-5f79cc8826b7","ios":"levelo://app?vid=8a487642-fc5a-4da2-ba80-5f79cc8826b7"},"vehicle_type_id":"4","last_reported":1749579296,"current_range_meters":12400,"station_id":"ce4bhnp2rcd13ifvqgvg","pricing_plan_id":"cebpf4jnsgd1na2vs0mg"},{"bike_id":"ae0ae792-0180-49a5-a2bf-5b9d9ceae65d","system_id":"levelo_inurba_marseille","lat":43.246587,"lon":5.381753,"is_reserved":false,"is_disabled":false,"rental_uris":{"android":"levelo://app?vid=ae0ae792-0180-49a5-a2bf-5b9d9ceae65d","ios":"levelo://app?vid=ae0ae792-0180-49a5-a2bf-5b9d9ceae65d"},"vehicle_type_id":"4","last_reported":1749579296,"current_range_meters":12400,"station_id":"ce4bhih2rcd13ifvqfr0","pricing_plan_id":"cebpf4jnsgd1na2vs0mg"},{"bike_id":"f5e7b4d1-016d-4e5c-bdea-6b4bae0120ac","system_id":"levelo_inurba_marseille","lat":43.25729,"lon":5.41076,"is_reserved":false,"is_disabled":false,"rental_uris":{"android":"levelo://app?vid=f5e7b4d1-016d-4e5c-bdea-6b4bae0120ac","ios":"levelo://app?vid=f5e7b4d1-016d-4e5c-bdea-6b4bae0120ac"},"vehicle_type_id":"4","last_reported":1749579296,"current_range_meters":12400,"station_id":"ce4bhkp2rcd13ifvqgd0","pricing_plan_id":"cebpf4jnsgd1na2vs0mg"},{"bike_id":"0e90946c-2cdd-47cf-8128-502f76b0b80e","system_id":"levelo_inurba_marseille","lat":43.31078,"lon":5.38345,"is_reserved":false,"is_disabled":false,"rental_uris":{"android":"levelo://app?vid=0e90946c-2cdd-47cf-8128-502f76b0b80e","ios":"levelo://app?vid=0e90946c-2cdd-47cf-8128-502f76b0b80e"},"vehicle_type_id":"4","last_reported":1749579296,"current_range_meters":12400,"station_id":"ce4bgv92rcd13ifvqcr0","pricing_plan_id":"cebpf4jnsgd1na2vs0mg"},{"bike_id":"187b0a7b-e256-4c19-9794-bb250a6c5653","system_id":"levelo_inurba_marseille","lat":43.31843,"lon":5.37948,"is_reserved":false,"is_disabled":false,"rental_uris":{"android":"levelo://app?vid=187b0a7b-e256-4c19-9794-bb250a6c5653","ios":"levelo://app?vid=187b0a7b-e256-4c19-9794-bb250a6c5653"},"vehicle_type_id":"4","last_reported":1749579296,"current_range_meters":12400,"station_id":"","pricing_plan_id":"cebpf4jnsgd1na2vs0mg"},{"bike_id":"36e4b5ca-1753-4190-8ee6-7cccfb3f74c6","system_id":"levelo_inurba_marseille","lat":43.2737,"lon":5.3626,"is_reserved":false,"is_disabled":false,"rental_uris":{"android":"levelo://app?vid=36e4b5ca-1753-4190-8ee6-7cccfb3f74c6","ios":"levelo://app?vid=36e4b5ca-1753-4190-8ee6-7cccfb3f74c6"},"vehicle_type_id":"4","last_reported":1749579296,"current_range_meters":12800,"station_id":"ce4bhbh2rcd13ifvqeo0","pricing_plan_id":"cebpf4jnsgd1na2vs0mg"},{"bike_id":"c89b662e-2b5d-4f8b-b22a-611085af4faf","system_id":"levelo_inurba_marseille","lat":43.266846,"lon":5.382724,"is_reserved":false,"is_disabled":false,"rental_uris":{"android":"levelo://app?vid=c89b662e-2b5d-4f8b-b22a-611085af4faf","ios":"levelo://app?vid=c89b662e-2b5d-4f8b-b22a-611085af4faf"},"vehicle_type_id":"4","last_reported":1749579296,"current_range_meters":12800,"station_id":"ce4bhg92rcd13ifvqf90","pricing_plan_id":"cebpf4jnsgd1na2vs0mg"},{"bike_id":"d32ef587-5652-4325-816c-1dbad6f1fd8f","system_id":"levelo_inurba_marseille","lat":43.29579,"lon":5.36741,"is_reserved":false,"is_disabled":false,"rental_uris":{"android":"levelo://app?vid=d32ef587-5652-4325-816c-1dbad6f1fd8f","ios":"levelo://app?vid=d32ef587-5652-4325-816c-1dbad6f1fd8f"},"vehicle_type_id":"4","last_reported":1749579296,"current_range_meters":12800,"station_id":"ce4bgph2rcd13ifvqc2g","pricing_plan_id":"cebpf4jnsgd1na2vs0mg"},{"bike_id":"2e81e860-3d3c-400f-a782-f30455f3464e","system_id":"levelo_inurba_marseille","lat":43.29978,"lon":5.37162,"is_reserved":false,"is_disabled":false,"rental_uris":{"android":"levelo://app?vid=2e81e860-3d3c-400f-a782-f30455f3464e","ios":"levelo://app?vid=2e81e860-3d3c-400f-a782-f30455f3464e"},"vehicle_type_id":"4","last_reported":1749579296,"current_range_meters":12800,"station_id":"ce4bgr92rcd13ifvqc7g","pricing_plan_id":"cebpf4jnsgd1na2vs0mg"},{"bike_id":"3e60a3b7-0941-432b-bb5c-bdc22ea62202","system_id":"levelo_inurba_marseille","lat":43.27376,"lon":5.36252,"is_reserved":false,"is_disabled":false,"rental_uris":{"android":"levelo://app?vid=3e60a3b7-0941-432b-bb5c-bdc22ea62202","ios":"levelo://app?vid=3e60a3b7-0941-432b-bb5c-bdc22ea62202"},"vehicle_type_id":"4","last_reported":1749579296,"current_range_meters":12800,"station_id":"ce4bhbh2rcd13ifvqeo0","pricing_plan_id":"cebpf4jnsgd1na2vs0mg"},{"bike_id":"307d79cb-8a5a-4ab1-95d3-ce13028251df","system_id":"levelo_inurba_marseille","lat":43.3153,"lon":5.38021,"is_reserved":false,"is_disabled":false,"rental_uris":{"android":"levelo://app?vid=307d79cb-8a5a-4ab1-95d3-ce13028251df","ios":"levelo://app?vid=307d79cb-8a5a-4ab1-95d3-ce13028251df"},"vehicle_type_id":"4","last_reported":1749579296,"current_range_meters":12800,"station_id":"ce4bhsp2rcd13ifvqi50","pricing_plan_id":"cebpf4jnsgd1na2vs0mg"},{"bike_id":"15138ce4-9850-4a09-9eb2-0da12393d0d8","system_id":"levelo_inurba_marseille","lat":43.317093,"lon":5.437056,"is_reserved":false,"is_disabled":false,"rental_uris":{"android":"levelo://app?vid=15138ce4-9850-4a09-9eb2-0da12393d0d8","ios":"levelo://app?vid=15138ce4-9850-4a09-9eb2-0da12393d0d8"},"vehicle_type_id":"4","last_reported":1749579296,"current_range_meters":12800,"station_id":"ce4bhp92rcd13ifvqhcg","pricing_plan_id":"cebpf4jnsgd1na2vs0mg"},{"bike_id":"d0432adb-3673-4357-a708-5a9cf78b0e93","system_id":"levelo_inurba_marseille","lat":43.3026,"lon":5.40059,"is_reserved":false,"is_disabled":false,"rental_uris":{"android":"levelo://app?vid=d0432adb-3673-4357-a708-5a9cf78b0e93","ios":"levelo://app?vid=d0432adb-3673-4357-a708-5a9cf78b0e93"},"vehicle_type_id":"4","last_reported":1749579296,"current_range_meters":13600,"station_id":"ce4bgvh2rcd13ifvqcs0","pricing_plan_id":"cebpf4jnsgd1na2vs0mg"},{"bike_id":"4f641c8c-521a-482d-aa75-36566bdce19f","system_id":"levelo_inurba_marseille","lat":43.28456,"lon":5.35879,"is_reserved":false,"is_disabled":false,"rental_uris":{"android":"levelo://app?vid=4f641c8c-521a-482d-aa75-36566bdce19f","ios":"levelo://app?vid=4f641c8c-521a-482d-aa75-36566bdce19f"},"vehicle_type_id":"4","last_reported":1749579296,"current_range_meters":13600,"station_id":"ce4bhah2rcd13ifvqei0","pricing_plan_id":"cebpf4jnsgd1na2vs0mg"},{"bike_id":"db4dddf3-74e8-4bed-8bc0-61c5228782d8","system_id":"levelo_inurba_marseille","lat":43.30406,"lon":5.41303,"is_reserved":false,"is_disabled":false,"rental_uris":{"android":"levelo://app?vid=db4dddf3-74e8-4bed-8bc0-61c5228782d8","ios":"levelo://app?vid=db4dddf3-74e8-4bed-8bc0-61c5228782d8"},"vehicle_type_id":"4","last_reported":1749579296,"current_range_meters":13600,"station_id":"ce4bhop2rcd13ifvqh8g","pricing_plan_id":"cebpf4jnsgd1na2vs0mg"},{"bike_id":"03987622-f916-4e09-b1fb-b388037295a5","system_id":"levelo_inurba_marseille","lat":43.23953,"lon":5.36653,"is_reserved":false,"is_disabled":false,"rental_uris":{"android":"levelo://app?vid=03987622-f916-4e09-b1fb-b388037295a5","ios":"levelo://app?vid=03987622-f916-4e09-b1fb-b388037295a5"},"vehicle_type_id":"4","last_reported":1749579296,"current_range_meters":13600,"station_id":"ce4bhi12rcd13ifvqfp0","pricing_plan_id":"cebpf4jnsgd1na2vs0mg"},{"bike_id":"d308fd5f-114d-4c8d-acf2-a21c562bff36","system_id":"levelo_inurba_marseille","lat":43.28612,"lon":5.3706,"is_reserved":false,"is_disabled":false,"rental_uris":{"android":"levelo://app?vid=d308fd5f-114d-4c8d-acf2-a21c562bff36","ios":"levelo://app?vid=d308fd5f-114d-4c8d-acf2-a21c562bff36"},"vehicle_type_id":"4","last_reported":1749579296,"current_range_meters":13600,"station_id":"ce4bht12rcd13ifvqi60","pricing_plan_id":"cebpf4jnsgd1na2vs0mg"},{"bike_id":"1e20f032-0f6a-40b2-ad29-e4d2225496fa","system_id":"levelo_inurba_marseille","lat":43.302843,"lon":5.370625,"is_reserved":false,"is_disabled":false,"rental_uris":{"android":"levelo://app?vid=1e20f032-0f6a-40b2-ad29-e4d2225496fa","ios":"levelo://app?vid=1e20f032-0f6a-40b2-ad29-e4d2225496fa"},"vehicle_type_id":"4","last_reported":1749579296,"current_range_meters":13600,"station_id":"","pricing_plan_id":"cebpf4jnsgd1na2vs0mg"},{"bike_id":"045e0085-1e16-40e4-851e-18791844b3ca","system_id":"levelo_inurba_marseille","lat":43.28725,"lon":5.36085,"is_reserved":false,"is_disabled":false,"rental_uris":{"android":"levelo://app?vid=045e0085-1e16-40e4-851e-18791844b3ca","ios":"levelo://app?vid=045e0085-1e16-40e4-851e-18791844b3ca"},"vehicle_type_id":"4","last_reported":1749579296,"current_range_meters":12800,"station_id":"cki0cbj6b192h4jlfktg","pricing_plan_id":"cebpf4jnsgd1na2vs0mg"},{"bike_id":"ab5d796b-6f87-4b6e-a5bd-6ac051fcacd1","system_id":"levelo_inurba_marseille","lat":43.32491,"lon":5.36567,"is_reserved":false,"is_disabled":false,"rental_uris":{"android":"levelo://app?vid=ab5d796b-6f87-4b6e-a5bd-6ac051fcacd1","ios":"levelo://app?vid=ab5d796b-6f87-4b6e-a5bd-6ac051fcacd1"},"vehicle_type_id":"4","last_reported":1749579296,"current_range_meters":13600,"station_id":"ce4bhs12rcd13ifvqhvg","pricing_plan_id":"cebpf4jnsgd1na2vs0mg"},{"bike_id":"8fb2eb87-e053-4392-8fb6-944dd1f1048d","system_id":"levelo_inurba_marseille","lat":43.29282,"lon":5.40115,"is_reserved":false,"is_disabled":false,"rental_uris":{"android":"levelo://app?vid=8fb2eb87-e053-4392-8fb6-944dd1f1048d","ios":"levelo://app?vid=8fb2eb87-e053-4392-8fb6-944dd1f1048d"},"vehicle_type_id":"4","last_reported":1749579296,"current_range_meters":13600,"station_id":"ce4bh312rcd13ifvqdk0","pricing_plan_id":"cebpf4jnsgd1na2vs0mg"},{"bike_id":"7b3d5749-b569-4c40-8922-b357eb5afb06","system_id":"levelo_inurba_marseille","lat":43.29173,"lon":5.3716,"is_reserved":false,"is_disabled":false,"rental_uris":{"android":"levelo://app?vid=7b3d5749-b569-4c40-8922-b357eb5afb06","ios":"levelo://app?vid=7b3d5749-b569-4c40-8922-b357eb5afb06"},"vehicle_type_id":"4","last_reported":1749579296,"current_range_meters":13600,"station_id":"ce4bha92rcd13ifvqeh0","pricing_plan_id":"cebpf4jnsgd1na2vs0mg"},{"bike_id":"26de1e5f-1aa1-427d-a704-a5f8c110fe75","system_id":"levelo_inurba_marseille","lat":43.29069,"lon":5.37161,"is_reserved":false,"is_disabled":false,"rental_uris":{"android":"levelo://app?vid=26de1e5f-1aa1-427d-a704-a5f8c110fe75","ios":"levelo://app?vid=26de1e5f-1aa1-427d-a704-a5f8c110fe75"},"vehicle_type_id":"4","last_reported":1749579296,"current_range_meters":14000,"station_id":"ce4bh5p2rcd13ifvqe4g","pricing_plan_id":"cebpf4jnsgd1na2vs0mg"},{"bike_id":"c50ba8e4-13a9-423b-8677-05d631ab5fc2","system_id":"levelo_inurba_marseille","lat":43.26193,"lon":5.37449,"is_reserved":false,"is_disabled":false,"rental_uris":{"android":"levelo://app?vid=c50ba8e4-13a9-423b-8677-05d631ab5fc2","ios":"levelo://app?vid=c50ba8e4-13a9-423b-8677-05d631ab5fc2"},"vehicle_type_id":"4","last_reported":1749579296,"current_range_meters":14000,"station_id":"ce4bhgp2rcd13ifvqfc0","pricing_plan_id":"cebpf4jnsgd1na2vs0mg"},{"bike_id":"8b50e97d-f6cb-414d-aa53-bc309cbf12bc","system_id":"levelo_inurba_marseille","lat":43.28003,"lon":5.4166,"is_reserved":false,"is_disabled":false,"rental_uris":{"android":"levelo://app?vid=8b50e97d-f6cb-414d-aa53-bc309cbf12bc","ios":"levelo://app?vid=8b50e97d-f6cb-414d-aa53-bc309cbf12bc"},"vehicle_type_id":"4","last_reported":1749579296,"current_range_meters":14000,"station_id":"ce4bho12rcd13ifvqh1g","pricing_plan_id":"cebpf4jnsgd1na2vs0mg"},{"bike_id":"8bdfcded-ec80-454c-a961-1a0e2c147b05","system_id":"levelo_inurba_marseille","lat":43.31713,"lon":5.37738,"is_reserved":false,"is_disabled":false,"rental_uris":{"android":"levelo://app?vid=8bdfcded-ec80-454c-a961-1a0e2c147b05","ios":"levelo://app?vid=8bdfcded-ec80-454c-a961-1a0e2c147b05"},"vehicle_type_id":"4","last_reported":1749579296,"current_range_meters":14000,"station_id":"ce4bgth2rcd13ifvqch0","pricing_plan_id":"cebpf4jnsgd1na2vs0mg"},{"bike_id":"c30dbedc-c866-492b-a092-32c1ee0c1f22","system_id":"levelo_inurba_marseille","lat":43.29547,"lon":5.38526,"is_reserved":false,"is_disabled":true,"rental_uris":{"android":"levelo://app?vid=c30dbedc-c866-492b-a092-32c1ee0c1f22","ios":"levelo://app?vid=c30dbedc-c866-492b-a092-32c1ee0c1f22"},"vehicle_type_id":"4","last_reported":1749579296,"current_range_meters":14000,"station_id":"ce4bgih2rcd13ifvqba0","pricing_plan_id":"cebpf4jnsgd1na2vs0mg"},{"bike_id":"84afe418-fe21-40a3-ad70-f1a51ce14628","system_id":"levelo_inurba_marseille","lat":43.31098,"lon":5.42408,"is_reserved":false,"is_disabled":false,"rental_uris":{"android":"levelo://app?vid=84afe418-fe21-40a3-ad70-f1a51ce14628","ios":"levelo://app?vid=84afe418-fe21-40a3-ad70-f1a51ce14628"},"vehicle_type_id":"4","last_reported":1749579296,"current_range_meters":14000,"station_id":"ce4bhp92rcd13ifvqhag","pricing_plan_id":"cebpf4jnsgd1na2vs0mg"},{"bike_id":"a9852dcc-dd97-4bc8-b4c9-f6b78967f3c6","system_id":"levelo_inurba_marseille","lat":43.23189,"lon":5.39981,"is_reserved":false,"is_disabled":false,"rental_uris":{"android":"levelo://app?vid=a9852dcc-dd97-4bc8-b4c9-f6b78967f3c6","ios":"levelo://app?vid=a9852dcc-dd97-4bc8-b4c9-f6b78967f3c6"},"vehicle_type_id":"4","last_reported":1749579296,"current_range_meters":14000,"station_id":"ce4bhn12rcd13ifvqgqg","pricing_plan_id":"cebpf4jnsgd1na2vs0mg"},{"bike_id":"3848ad06-7de7-4d7c-8cc5-805659ff310a","system_id":"levelo_inurba_marseille","lat":43.295349,"lon":5.385558,"is_reserved":false,"is_disabled":false,"rental_uris":{"android":"levelo://app?vid=3848ad06-7de7-4d7c-8cc5-805659ff310a","ios":"levelo://app?vid=3848ad06-7de7-4d7c-8cc5-805659ff310a"},"vehicle_type_id":"4","last_reported":1749579296,"current_range_meters":14000,"station_id":"ce4bgih2rcd13ifvqba0","pricing_plan_id":"cebpf4jnsgd1na2vs0mg"},{"bike_id":"8e1895e8-f102-4cf2-b40e-b15e855d0379","system_id":"levelo_inurba_marseille","lat":43.2794,"lon":5.4105,"is_reserved":false,"is_disabled":false,"rental_uris":{"android":"levelo://app?vid=8e1895e8-f102-4cf2-b40e-b15e855d0379","ios":"levelo://app?vid=8e1895e8-f102-4cf2-b40e-b15e855d0379"},"vehicle_type_id":"4","last_reported":1749579296,"current_range_meters":14000,"station_id":"ce4bhnp2rcd13ifvqh0g","pricing_plan_id":"cebpf4jnsgd1na2vs0mg"},{"bike_id":"583239c9-1e4b-44e0-9fba-59c5decc96d9","system_id":"levelo_inurba_marseille","lat":43.26941,"lon":5.40257,"is_reserved":false,"is_disabled":false,"rental_uris":{"android":"levelo://app?vid=583239c9-1e4b-44e0-9fba-59c5decc96d9","ios":"levelo://app?vid=583239c9-1e4b-44e0-9fba-59c5decc96d9"},"vehicle_type_id":"4","last_reported":1749579296,"current_range_meters":14800,"station_id":"cjm6bp8fraef2m0cb0m0","pricing_plan_id":"cebpf4jnsgd1na2vs0mg"},{"bike_id":"e823d034-8cdd-4045-8cf3-abaef9eca64e","system_id":"levelo_inurba_marseille","lat":43.30933,"lon":5.40136,"is_reserved":false,"is_disabled":false,"rental_uris":{"android":"levelo://app?vid=e823d034-8cdd-4045-8cf3-abaef9eca64e","ios":"levelo://app?vid=e823d034-8cdd-4045-8cf3-abaef9eca64e"},"vehicle_type_id":"4","last_reported":1749579296,"current_range_meters":14400,"station_id":"ce4bgvp2rcd13ifvqct0","pricing_plan_id":"cebpf4jnsgd1na2vs0mg"},{"bike_id":"c329c16e-48e0-4133-a71b-37d13fc4681c","system_id":"levelo_inurba_marseille","lat":43.27375,"lon":5.36256,"is_reserved":false,"is_disabled":false,"rental_uris":{"android":"levelo://app?vid=c329c16e-48e0-4133-a71b-37d13fc4681c","ios":"levelo://app?vid=c329c16e-48e0-4133-a71b-37d13fc4681c"},"vehicle_type_id":"4","last_reported":1749579296,"current_range_meters":14800,"station_id":"ce4bhbh2rcd13ifvqeo0","pricing_plan_id":"cebpf4jnsgd1na2vs0mg"},{"bike_id":"d6c82700-6ef8-4988-b92b-4e7d70084d02","system_id":"levelo_inurba_marseille","lat":43.29202,"lon":5.35802,"is_reserved":false,"is_disabled":false,"rental_uris":{"android":"levelo://app?vid=d6c82700-6ef8-4988-b92b-4e7d70084d02","ios":"levelo://app?vid=d6c82700-6ef8-4988-b92b-4e7d70084d02"},"vehicle_type_id":"4","last_reported":1749579296,"current_range_meters":14800,"station_id":"ce4bhb12rcd13ifvqel0","pricing_plan_id":"cebpf4jnsgd1na2vs0mg"},{"bike_id":"d32292d1-b771-46e3-b9fb-b00cee9d9dc9","system_id":"levelo_inurba_marseille","lat":43.31743,"lon":5.37683,"is_reserved":false,"is_disabled":false,"rental_uris":{"android":"levelo://app?vid=d32292d1-b771-46e3-b9fb-b00cee9d9dc9","ios":"levelo://app?vid=d32292d1-b771-46e3-b9fb-b00cee9d9dc9"},"vehicle_type_id":"4","last_reported":1749579296,"current_range_meters":14800,"station_id":"","pricing_plan_id":"cebpf4jnsgd1na2vs0mg"},{"bike_id":"e61a5abb-c900-4d6e-8217-a46fab06e9f4","system_id":"levelo_inurba_marseille","lat":43.3303,"lon":5.39235,"is_reserved":false,"is_disabled":false,"rental_uris":{"android":"levelo://app?vid=e61a5abb-c900-4d6e-8217-a46fab06e9f4","ios":"levelo://app?vid=e61a5abb-c900-4d6e-8217-a46fab06e9f4"},"vehicle_type_id":"4","last_reported":1749579296,"current_range_meters":14800,"station_id":"","pricing_plan_id":"cebpf4jnsgd1na2vs0mg"},{"bike_id":"72a94b25-2fe0-4919-8521-e8b66695aa46","system_id":"levelo_inurba_marseille","lat":43.286987,"lon":5.399945,"is_reserved":false,"is_disabled":false,"rental_uris":{"android":"levelo://app?vid=72a94b25-2fe0-4919-8521-e8b66695aa46","ios":"levelo://app?vid=72a94b25-2fe0-4919-8521-e8b66695aa46"},"vehicle_type_id":"4","last_reported":1749579296,"current_range_meters":14800,"station_id":"","pricing_plan_id":"cebpf4jnsgd1na2vs0mg"},{"bike_id":"2a22d440-c0d5-4db1-9d70-0729cd897b9e","system_id":"levelo_inurba_marseille","lat":43.29527,"lon":5.38547,"is_reserved":false,"is_disabled":false,"rental_uris":{"android":"levelo://app?vid=2a22d440-c0d5-4db1-9d70-0729cd897b9e","ios":"levelo://app?vid=2a22d440-c0d5-4db1-9d70-0729cd897b9e"},"vehicle_type_id":"4","last_reported":1749579296,"current_range_meters":14800,"station_id":"ce4bgih2rcd13ifvqba0","pricing_plan_id":"cebpf4jnsgd1na2vs0mg"},{"bike_id":"1726ad47-2817-49c5-892a-2a6f2f78fde4","system_id":"levelo_inurba_marseille","lat":43.28728,"lon":5.36087,"is_reserved":false,"is_disabled":false,"rental_uris":{"android":"levelo://app?vid=1726ad47-2817-49c5-892a-2a6f2f78fde4","ios":"levelo://app?vid=1726ad47-2817-49c5-892a-2a6f2f78fde4"},"vehicle_type_id":"4","last_reported":1749579296,"current_range_meters":14800,"station_id":"cki0cbj6b192h4jlfktg","pricing_plan_id":"cebpf4jnsgd1na2vs0mg"},{"bike_id":"84f5a926-1dd6-4535-b647-2764ce0ca103","system_id":"levelo_inurba_marseille","lat":43.3211,"lon":5.36765,"is_reserved":false,"is_disabled":false,"rental_uris":{"android":"levelo://app?vid=84f5a926-1dd6-4535-b647-2764ce0ca103","ios":"levelo://app?vid=84f5a926-1dd6-4535-b647-2764ce0ca103"},"vehicle_type_id":"4","last_reported":1749579296,"current_range_meters":14800,"station_id":"ce4bhrh2rcd13ifvqhug","pricing_plan_id":"cebpf4jnsgd1na2vs0mg"},{"bike_id":"7426ce77-4786-458d-abba-3b74ab0c43fc","system_id":"levelo_inurba_marseille","lat":43.31225,"lon":5.36841,"is_reserved":false,"is_disabled":false,"rental_uris":{"android":"levelo://app?vid=7426ce77-4786-458d-abba-3b74ab0c43fc","ios":"levelo://app?vid=7426ce77-4786-458d-abba-3b74ab0c43fc"},"vehicle_type_id":"4","last_reported":1749579296,"current_range_meters":15200,"station_id":"ce4bgl92rcd13ifvqbq0","pricing_plan_id":"cebpf4jnsgd1na2vs0mg"},{"bike_id":"262903a9-22b9-4b2d-96c2-2e5dbd155090","system_id":"levelo_inurba_marseille","lat":43.3247,"lon":5.36578,"is_reserved":false,"is_disabled":false,"rental_uris":{"android":"levelo://app?vid=262903a9-22b9-4b2d-96c2-2e5dbd155090","ios":"levelo://app?vid=262903a9-22b9-4b2d-96c2-2e5dbd155090"},"vehicle_type_id":"4","last_reported":1749579296,"current_range_meters":15200,"station_id":"ce4bhs12rcd13ifvqhvg","pricing_plan_id":"cebpf4jnsgd1na2vs0mg"},{"bike_id":"099b325a-30ef-4475-909d-ca18d2254b4c","system_id":"levelo_inurba_marseille","lat":43.2739,"lon":5.36257,"is_reserved":false,"is_disabled":false,"rental_uris":{"android":"levelo://app?vid=099b325a-30ef-4475-909d-ca18d2254b4c","ios":"levelo://app?vid=099b325a-30ef-4475-909d-ca18d2254b4c"},"vehicle_type_id":"4","last_reported":1749579296,"current_range_meters":15200,"station_id":"ce4bhbh2rcd13ifvqeo0","pricing_plan_id":"cebpf4jnsgd1na2vs0mg"},{"bike_id":"6a0edc38-4fe2-4f6e-8bb0-1b8c01ef784e","system_id":"levelo_inurba_marseille","lat":43.28611,"lon":5.35098,"is_reserved":false,"is_disabled":false,"rental_uris":{"android":"levelo://app?vid=6a0edc38-4fe2-4f6e-8bb0-1b8c01ef784e","ios":"levelo://app?vid=6a0edc38-4fe2-4f6e-8bb0-1b8c01ef784e"},"vehicle_type_id":"4","last_reported":1749579296,"current_range_meters":15200,"station_id":"ce4bhch2rcd13ifvqeug","pricing_plan_id":"cebpf4jnsgd1na2vs0mg"},{"bike_id":"90339940-2cdf-4ddd-8de1-b7847042a641","system_id":"levelo_inurba_marseille","lat":43.24805,"lon":5.37455,"is_reserved":false,"is_disabled":false,"rental_uris":{"android":"levelo://app?vid=90339940-2cdf-4ddd-8de1-b7847042a641","ios":"levelo://app?vid=90339940-2cdf-4ddd-8de1-b7847042a641"},"vehicle_type_id":"4","last_reported":1749579296,"current_range_meters":15200,"station_id":"ce4bhgh2rcd13ifvqfb0","pricing_plan_id":"cebpf4jnsgd1na2vs0mg"},{"bike_id":"1cb49127-83c2-42e5-a0c1-a209212b201e","system_id":"levelo_inurba_marseille","lat":43.28434,"lon":5.35006,"is_reserved":false,"is_disabled":false,"rental_uris":{"android":"levelo://app?vid=1cb49127-83c2-42e5-a0c1-a209212b201e","ios":"levelo://app?vid=1cb49127-83c2-42e5-a0c1-a209212b201e"},"vehicle_type_id":"4","last_reported":1749579296,"current_range_meters":15200,"station_id":"ce4bhbh2rcd13ifvqepg","pricing_plan_id":"cebpf4jnsgd1na2vs0mg"},{"bike_id":"b0316941-e57c-44d9-a6d1-53a4979de36d","system_id":"levelo_inurba_marseille","lat":43.294081,"lon":5.386293,"is_reserved":false,"is_disabled":false,"rental_uris":{"android":"levelo://app?vid=b0316941-e57c-44d9-a6d1-53a4979de36d","ios":"levelo://app?vid=b0316941-e57c-44d9-a6d1-53a4979de36d"},"vehicle_type_id":"4","last_reported":1749579296,"current_range_meters":15200,"station_id":"ce4bh2h2rcd13ifvqdh0","pricing_plan_id":"cebpf4jnsgd1na2vs0mg"},{"bike_id":"d59db2ac-bac5-4944-90e1-cdfef7914127","system_id":"levelo_inurba_marseille","lat":43.29522,"lon":5.39407,"is_reserved":false,"is_disabled":false,"rental_uris":{"android":"levelo://app?vid=d59db2ac-bac5-4944-90e1-cdfef7914127","ios":"levelo://app?vid=d59db2ac-bac5-4944-90e1-cdfef7914127"},"vehicle_type_id":"4","last_reported":1749579296,"current_range_meters":15200,"station_id":"ce4bh292rcd13ifvqdf0","pricing_plan_id":"cebpf4jnsgd1na2vs0mg"},{"bike_id":"002ad4e8-6140-4bdd-b14b-f38ee707447e","system_id":"levelo_inurba_marseille","lat":43.30987,"lon":5.38578,"is_reserved":false,"is_disabled":false,"rental_uris":{"android":"levelo://app?vid=002ad4e8-6140-4bdd-b14b-f38ee707447e","ios":"levelo://app?vid=002ad4e8-6140-4bdd-b14b-f38ee707447e"},"vehicle_type_id":"4","last_reported":1749579296,"current_range_meters":15200,"station_id":"","pricing_plan_id":"cebpf4jnsgd1na2vs0mg"},{"bike_id":"347c65d6-be30-40c0-b6c4-2b0db662fbc7","system_id":"levelo_inurba_marseille","lat":43.29549,"lon":5.42286,"is_reserved":false,"is_disabled":false,"rental_uris":{"android":"levelo://app?vid=347c65d6-be30-40c0-b6c4-2b0db662fbc7","ios":"levelo://app?vid=347c65d6-be30-40c0-b6c4-2b0db662fbc7"},"vehicle_type_id":"4","last_reported":1749579296,"current_range_meters":15200,"station_id":"ce4bhph2rcd13ifvqhdg","pricing_plan_id":"cebpf4jnsgd1na2vs0mg"},{"bike_id":"499243b5-25ff-46fc-b719-dbfa16692082","system_id":"levelo_inurba_marseille","lat":43.31705,"lon":5.377292,"is_reserved":false,"is_disabled":false,"rental_uris":{"android":"levelo://app?vid=499243b5-25ff-46fc-b719-dbfa16692082","ios":"levelo://app?vid=499243b5-25ff-46fc-b719-dbfa16692082"},"vehicle_type_id":"4","last_reported":1749579296,"current_range_meters":15200,"station_id":"ce4bgth2rcd13ifvqch0","pricing_plan_id":"cebpf4jnsgd1na2vs0mg"},{"bike_id":"a1398c8d-901e-440a-b762-8c889f8f1582","system_id":"levelo_inurba_marseille","lat":43.32368,"lon":5.38888,"is_reserved":false,"is_disabled":false,"rental_uris":{"android":"levelo://app?vid=a1398c8d-901e-440a-b762-8c889f8f1582","ios":"levelo://app?vid=a1398c8d-901e-440a-b762-8c889f8f1582"},"vehicle_type_id":"4","last_reported":1749579296,"current_range_meters":15200,"station_id":"ce4bhqp2rcd13ifvqhog","pricing_plan_id":"cebpf4jnsgd1na2vs0mg"},{"bike_id":"72befdc9-9f00-42fe-9fa3-196160650a86","system_id":"levelo_inurba_marseille","lat":43.28625,"lon":5.35096,"is_reserved":false,"is_disabled":false,"rental_uris":{"android":"levelo://app?vid=72befdc9-9f00-42fe-9fa3-196160650a86","ios":"levelo://app?vid=72befdc9-9f00-42fe-9fa3-196160650a86"},"vehicle_type_id":"4","last_reported":1749579296,"current_range_meters":16000,"station_id":"ce4bhch2rcd13ifvqeug","pricing_plan_id":"cebpf4jnsgd1na2vs0mg"},{"bike_id":"f86c871e-5691-4061-a487-aa146b09dc41","system_id":"levelo_inurba_marseille","lat":43.28424,"lon":5.34987,"is_reserved":false,"is_disabled":false,"rental_uris":{"android":"levelo://app?vid=f86c871e-5691-4061-a487-aa146b09dc41","ios":"levelo://app?vid=f86c871e-5691-4061-a487-aa146b09dc41"},"vehicle_type_id":"4","last_reported":1749579296,"current_range_meters":16000,"station_id":"ce4bhbh2rcd13ifvqepg","pricing_plan_id":"cebpf4jnsgd1na2vs0mg"},{"bike_id":"03b5290d-c596-4067-adda-74fb07463890","system_id":"levelo_inurba_marseille","lat":43.286152,"lon":5.351056,"is_reserved":false,"is_disabled":false,"rental_uris":{"android":"levelo://app?vid=03b5290d-c596-4067-adda-74fb07463890","ios":"levelo://app?vid=03b5290d-c596-4067-adda-74fb07463890"},"vehicle_type_id":"4","last_reported":1749579296,"current_range_meters":16000,"station_id":"ce4bhch2rcd13ifvqeug","pricing_plan_id":"cebpf4jnsgd1na2vs0mg"},{"bike_id":"550f8228-d554-4819-a428-97c5e8f98831","system_id":"levelo_inurba_marseille","lat":43.32536,"lon":5.42507,"is_reserved":false,"is_disabled":false,"rental_uris":{"android":"levelo://app?vid=550f8228-d554-4819-a428-97c5e8f98831","ios":"levelo://app?vid=550f8228-d554-4819-a428-97c5e8f98831"},"vehicle_type_id":"4","last_reported":1749579296,"current_range_meters":16000,"station_id":"","pricing_plan_id":"cebpf4jnsgd1na2vs0mg"},{"bike_id":"e857b26f-e98d-4e5b-a472-9489934cc3bc","system_id":"levelo_inurba_marseille","lat":43.309252,"lon":5.401493,"is_reserved":false,"is_disabled":true,"rental_uris":{"android":"levelo://app?vid=e857b26f-e98d-4e5b-a472-9489934cc3bc","ios":"levelo://app?vid=e857b26f-e98d-4e5b-a472-9489934cc3bc"},"vehicle_type_id":"4","last_reported":1749579296,"current_range_meters":16000,"station_id":"ce4bgvp2rcd13ifvqct0","pricing_plan_id":"cebpf4jnsgd1na2vs0mg"},{"bike_id":"3b1a103f-3782-4e6f-a220-fe3c249d1b53","system_id":"levelo_inurba_marseille","lat":43.23197,"lon":5.35551,"is_reserved":false,"is_disabled":false,"rental_uris":{"android":"levelo://app?vid=3b1a103f-3782-4e6f-a220-fe3c249d1b53","ios":"levelo://app?vid=3b1a103f-3782-4e6f-a220-fe3c249d1b53"},"vehicle_type_id":"4","last_reported":1749579296,"current_range_meters":16000,"station_id":"ce4bhu92rcd13ifvqi70","pricing_plan_id":"cebpf4jnsgd1na2vs0mg"},{"bike_id":"21c32cf0-9fff-4197-8409-5b26012f94c3","system_id":"levelo_inurba_marseille","lat":43.27823,"lon":5.40693,"is_reserved":false,"is_disabled":false,"rental_uris":{"android":"levelo://app?vid=21c32cf0-9fff-4197-8409-5b26012f94c3","ios":"levelo://app?vid=21c32cf0-9fff-4197-8409-5b26012f94c3"},"vehicle_type_id":"4","last_reported":1749579296,"current_range_meters":16000,"station_id":"ce4bhnh2rcd13ifvqgtg","pricing_plan_id":"cebpf4jnsgd1na2vs0mg"},{"bike_id":"459ca737-6f77-471f-8093-5a88355f5584","system_id":"levelo_inurba_marseille","lat":43.27496,"lon":5.42446,"is_reserved":false,"is_disabled":false,"rental_uris":{"android":"levelo://app?vid=459ca737-6f77-471f-8093-5a88355f5584","ios":"levelo://app?vid=459ca737-6f77-471f-8093-5a88355f5584"},"vehicle_type_id":"4","last_reported":1749579296,"current_range_meters":16000,"station_id":"ce4bhn92rcd13ifvqgrg","pricing_plan_id":"cebpf4jnsgd1na2vs0mg"},{"bike_id":"fd1d14a0-1a3e-4eb9-b19e-044738f5d1c3","system_id":"levelo_inurba_marseille","lat":43.29001,"lon":5.35607,"is_reserved":false,"is_disabled":true,"rental_uris":{"android":"levelo://app?vid=fd1d14a0-1a3e-4eb9-b19e-044738f5d1c3","ios":"levelo://app?vid=fd1d14a0-1a3e-4eb9-b19e-044738f5d1c3"},"vehicle_type_id":"4","last_reported":1749579296,"current_range_meters":16000,"station_id":"ce4bhb92rcd13ifvqen0","pricing_plan_id":"cebpf4jnsgd1na2vs0mg"},{"bike_id":"eda97c0c-f47f-447a-a1dc-800b1f2b0fa7","system_id":"levelo_inurba_marseille","lat":43.29717,"lon":5.36602,"is_reserved":false,"is_disabled":false,"rental_uris":{"android":"levelo://app?vid=eda97c0c-f47f-447a-a1dc-800b1f2b0fa7","ios":"levelo://app?vid=eda97c0c-f47f-447a-a1dc-800b1f2b0fa7"},"vehicle_type_id":"4","last_reported":1749579296,"current_range_meters":16000,"station_id":"ce4bgn12rcd13ifvqbt0","pricing_plan_id":"cebpf4jnsgd1na2vs0mg"},{"bike_id":"dc0cc1d4-b59d-4f94-9922-0bf0110a5fbb","system_id":"levelo_inurba_marseille","lat":43.28409,"lon":5.34988,"is_reserved":false,"is_disabled":false,"rental_uris":{"android":"levelo://app?vid=dc0cc1d4-b59d-4f94-9922-0bf0110a5fbb","ios":"levelo://app?vid=dc0cc1d4-b59d-4f94-9922-0bf0110a5fbb"},"vehicle_type_id":"4","last_reported":1749579296,"current_range_meters":16400,"station_id":"ce4bhbh2rcd13ifvqepg","pricing_plan_id":"cebpf4jnsgd1na2vs0mg"},{"bike_id":"b350c8e9-ed32-4415-aae6-ec1b9bd87516","system_id":"levelo_inurba_marseille","lat":43.28651,"lon":5.36355,"is_reserved":false,"is_disabled":false,"rental_uris":{"android":"levelo://app?vid=b350c8e9-ed32-4415-aae6-ec1b9bd87516","ios":"levelo://app?vid=b350c8e9-ed32-4415-aae6-ec1b9bd87516"},"vehicle_type_id":"4","last_reported":1749579296,"current_range_meters":16400,"station_id":"ce4bhah2rcd13ifvqej0","pricing_plan_id":"cebpf4jnsgd1na2vs0mg"},{"bike_id":"954bc31e-ac81-4b16-a52e-53936d90930b","system_id":"levelo_inurba_marseille","lat":43.24167,"lon":5.3639,"is_reserved":false,"is_disabled":false,"rental_uris":{"android":"levelo://app?vid=954bc31e-ac81-4b16-a52e-53936d90930b","ios":"levelo://app?vid=954bc31e-ac81-4b16-a52e-53936d90930b"},"vehicle_type_id":"4","last_reported":1749579296,"current_range_meters":16400,"station_id":"cpo36qri1sfpv3e86is0","pricing_plan_id":"cebpf4jnsgd1na2vs0mg"},{"bike_id":"53ad8fa1-d150-4303-9608-ed288946d58c","system_id":"levelo_inurba_marseille","lat":43.3131,"lon":5.3971,"is_reserved":false,"is_disabled":false,"rental_uris":{"android":"levelo://app?vid=53ad8fa1-d150-4303-9608-ed288946d58c","ios":"levelo://app?vid=53ad8fa1-d150-4303-9608-ed288946d58c"},"vehicle_type_id":"4","last_reported":1749579296,"current_range_meters":16400,"station_id":"ce4bgvp2rcd13ifvqcu0","pricing_plan_id":"cebpf4jnsgd1na2vs0mg"},{"bike_id":"4ca292d1-739c-46b9-8d87-7dce39f2a65d","system_id":"levelo_inurba_marseille","lat":43.28412,"lon":5.34992,"is_reserved":false,"is_disabled":false,"rental_uris":{"android":"levelo://app?vid=4ca292d1-739c-46b9-8d87-7dce39f2a65d","ios":"levelo://app?vid=4ca292d1-739c-46b9-8d87-7dce39f2a65d"},"vehicle_type_id":"4","last_reported":1749579296,"current_range_meters":16400,"station_id":"ce4bhbh2rcd13ifvqepg","pricing_plan_id":"cebpf4jnsgd1na2vs0mg"},{"bike_id":"03904622-8df8-4893-be19-790eab439f47","system_id":"levelo_inurba_marseille","lat":43.27068,"lon":5.42279,"is_reserved":false,"is_disabled":false,"rental_uris":{"android":"levelo://app?vid=03904622-8df8-4893-be19-790eab439f47","ios":"levelo://app?vid=03904622-8df8-4893-be19-790eab439f47"},"vehicle_type_id":"4","last_reported":1749579296,"current_range_meters":16400,"station_id":"ce4bhk92rcd13ifvqgb0","pricing_plan_id":"cebpf4jnsgd1na2vs0mg"},{"bike_id":"1acfb620-cad7-48c0-8901-d7a5b74a5b65","system_id":"levelo_inurba_marseille","lat":43.33751,"lon":5.37456,"is_reserved":false,"is_disabled":false,"rental_uris":{"android":"levelo://app?vid=1acfb620-cad7-48c0-8901-d7a5b74a5b65","ios":"levelo://app?vid=1acfb620-cad7-48c0-8901-d7a5b74a5b65"},"vehicle_type_id":"4","last_reported":1749579296,"current_range_meters":16400,"station_id":"","pricing_plan_id":"cebpf4jnsgd1na2vs0mg"},{"bike_id":"c25d961b-7952-48d3-8115-b3a897d04bff","system_id":"levelo_inurba_marseille","lat":43.28141,"lon":5.42611,"is_reserved":false,"is_disabled":false,"rental_uris":{"android":"levelo://app?vid=c25d961b-7952-48d3-8115-b3a897d04bff","ios":"levelo://app?vid=c25d961b-7952-48d3-8115-b3a897d04bff"},"vehicle_type_id":"4","last_reported":1749579296,"current_range_meters":16800,"station_id":"ce4bhnh2rcd13ifvqgug","pricing_plan_id":"cebpf4jnsgd1na2vs0mg"},{"bike_id":"997854c7-15e3-447d-839d-4eca6b3ab90c","system_id":"levelo_inurba_marseille","lat":43.29263,"lon":5.38447,"is_reserved":false,"is_disabled":false,"rental_uris":{"android":"levelo://app?vid=997854c7-15e3-447d-839d-4eca6b3ab90c","ios":"levelo://app?vid=997854c7-15e3-447d-839d-4eca6b3ab90c"},"vehicle_type_id":"4","last_reported":1749579296,"current_range_meters":16800,"station_id":"ce4bh692rcd13ifvqea0","pricing_plan_id":"cebpf4jnsgd1na2vs0mg"},{"bike_id":"1a48ca44-c214-4684-b419-fece5b121709","system_id":"levelo_inurba_marseille","lat":43.31111,"lon":5.37787,"is_reserved":false,"is_disabled":false,"rental_uris":{"android":"levelo://app?vid=1a48ca44-c214-4684-b419-fece5b121709","ios":"levelo://app?vid=1a48ca44-c214-4684-b419-fece5b121709"},"vehicle_type_id":"4","last_reported":1749579296,"current_range_meters":16800,"station_id":"ce4bgt92rcd13ifvqcg0","pricing_plan_id":"cebpf4jnsgd1na2vs0mg"},{"bike_id":"70fce5ee-4ae3-409d-9d87-80af1bd3a8b1","system_id":"levelo_inurba_marseille","lat":43.28003,"lon":5.41656,"is_reserved":false,"is_disabled":false,"rental_uris":{"android":"levelo://app?vid=70fce5ee-4ae3-409d-9d87-80af1bd3a8b1","ios":"levelo://app?vid=70fce5ee-4ae3-409d-9d87-80af1bd3a8b1"},"vehicle_type_id":"4","last_reported":1749579296,"current_range_meters":16800,"station_id":"ce4bho12rcd13ifvqh1g","pricing_plan_id":"cebpf4jnsgd1na2vs0mg"},{"bike_id":"cd9f2e85-1ea0-44a2-8603-4a9d8de6027b","system_id":"levelo_inurba_marseille","lat":43.26212,"lon":5.3744,"is_reserved":false,"is_disabled":false,"rental_uris":{"android":"levelo://app?vid=cd9f2e85-1ea0-44a2-8603-4a9d8de6027b","ios":"levelo://app?vid=cd9f2e85-1ea0-44a2-8603-4a9d8de6027b"},"vehicle_type_id":"4","last_reported":1749579296,"current_range_meters":16800,"station_id":"ce4bhgp2rcd13ifvqfc0","pricing_plan_id":"cebpf4jnsgd1na2vs0mg"},{"bike_id":"2dfe92e9-372d-42ab-8473-a70bfdbc401f","system_id":"levelo_inurba_marseille","lat":43.29442,"lon":5.39744,"is_reserved":false,"is_disabled":false,"rental_uris":{"android":"levelo://app?vid=2dfe92e9-372d-42ab-8473-a70bfdbc401f","ios":"levelo://app?vid=2dfe92e9-372d-42ab-8473-a70bfdbc401f"},"vehicle_type_id":"4","last_reported":1749579296,"current_range_meters":16800,"station_id":"ce4bh3h2rcd13ifvqdo0","pricing_plan_id":"cebpf4jnsgd1na2vs0mg"},{"bike_id":"9bd6db66-5c57-43a0-819b-98c196e1424c","system_id":"levelo_inurba_marseille","lat":43.29516,"lon":5.39045,"is_reserved":false,"is_disabled":false,"rental_uris":{"android":"levelo://app?vid=9bd6db66-5c57-43a0-819b-98c196e1424c","ios":"levelo://app?vid=9bd6db66-5c57-43a0-819b-98c196e1424c"},"vehicle_type_id":"4","last_reported":1749579296,"current_range_meters":16800,"station_id":"ce4bh3p2rcd13ifvqdp0","pricing_plan_id":"cebpf4jnsgd1na2vs0mg"},{"bike_id":"4f277a40-c562-419c-82d0-1686b6d2030f","system_id":"levelo_inurba_marseille","lat":43.28429,"lon":5.34997,"is_reserved":false,"is_disabled":false,"rental_uris":{"android":"levelo://app?vid=4f277a40-c562-419c-82d0-1686b6d2030f","ios":"levelo://app?vid=4f277a40-c562-419c-82d0-1686b6d2030f"},"vehicle_type_id":"4","last_reported":1749579296,"current_range_meters":16800,"station_id":"ce4bhbh2rcd13ifvqepg","pricing_plan_id":"cebpf4jnsgd1na2vs0mg"},{"bike_id":"b9dce34d-aeb2-409b-9fbd-9266ac903aaa","system_id":"levelo_inurba_marseille","lat":43.28988,"lon":5.3783,"is_reserved":false,"is_disabled":true,"rental_uris":{"android":"levelo://app?vid=b9dce34d-aeb2-409b-9fbd-9266ac903aaa","ios":"levelo://app?vid=b9dce34d-aeb2-409b-9fbd-9266ac903aaa"},"vehicle_type_id":"4","last_reported":1749579296,"current_range_meters":16800,"station_id":"ce4bh9p2rcd13ifvqed0","pricing_plan_id":"cebpf4jnsgd1na2vs0mg"},{"bike_id":"6c94968f-89a6-4fb7-ae2e-d69d165df813","system_id":"levelo_inurba_marseille","lat":43.31078,"lon":5.38333,"is_reserved":false,"is_disabled":false,"rental_uris":{"android":"levelo://app?vid=6c94968f-89a6-4fb7-ae2e-d69d165df813","ios":"levelo://app?vid=6c94968f-89a6-4fb7-ae2e-d69d165df813"},"vehicle_type_id":"4","last_reported":1749579296,"current_range_meters":16800,"station_id":"ce4bgv92rcd13ifvqcr0","pricing_plan_id":"cebpf4jnsgd1na2vs0mg"},{"bike_id":"1f65fe5e-a9fa-4e29-815f-d51b565edc50","system_id":"levelo_inurba_marseille","lat":43.27375,"lon":5.3625,"is_reserved":false,"is_disabled":false,"rental_uris":{"android":"levelo://app?vid=1f65fe5e-a9fa-4e29-815f-d51b565edc50","ios":"levelo://app?vid=1f65fe5e-a9fa-4e29-815f-d51b565edc50"},"vehicle_type_id":"4","last_reported":1749579296,"current_range_meters":16800,"station_id":"ce4bhbh2rcd13ifvqeo0","pricing_plan_id":"cebpf4jnsgd1na2vs0mg"},{"bike_id":"8e0321e5-37e7-42db-8f94-649e6f019671","system_id":"levelo_inurba_marseille","lat":43.27567,"lon":5.38431,"is_reserved":false,"is_disabled":false,"rental_uris":{"android":"levelo://app?vid=8e0321e5-37e7-42db-8f94-649e6f019671","ios":"levelo://app?vid=8e0321e5-37e7-42db-8f94-649e6f019671"},"vehicle_type_id":"4","last_reported":1749579296,"current_range_meters":17200,"station_id":"ce4bhh92rcd13ifvqfi0","pricing_plan_id":"cebpf4jnsgd1na2vs0mg"},{"bike_id":"96e43918-8ec3-441c-a94d-b4834cca4e49","system_id":"levelo_inurba_marseille","lat":43.29265,"lon":5.38438,"is_reserved":false,"is_disabled":false,"rental_uris":{"android":"levelo://app?vid=96e43918-8ec3-441c-a94d-b4834cca4e49","ios":"levelo://app?vid=96e43918-8ec3-441c-a94d-b4834cca4e49"},"vehicle_type_id":"4","last_reported":1749579296,"current_range_meters":17200,"station_id":"ce4bh692rcd13ifvqea0","pricing_plan_id":"cebpf4jnsgd1na2vs0mg"},{"bike_id":"1f642583-87fb-44d7-b24f-8a8030e6eec4","system_id":"levelo_inurba_marseille","lat":43.24806,"lon":5.37454,"is_reserved":false,"is_disabled":false,"rental_uris":{"android":"levelo://app?vid=1f642583-87fb-44d7-b24f-8a8030e6eec4","ios":"levelo://app?vid=1f642583-87fb-44d7-b24f-8a8030e6eec4"},"vehicle_type_id":"4","last_reported":1749579296,"current_range_meters":17200,"station_id":"ce4bhgh2rcd13ifvqfb0","pricing_plan_id":"cebpf4jnsgd1na2vs0mg"},{"bike_id":"03ff7327-9d80-465b-bc3e-d109526df4c5","system_id":"levelo_inurba_marseille","lat":43.2623,"lon":5.40447,"is_reserved":false,"is_disabled":false,"rental_uris":{"android":"levelo://app?vid=03ff7327-9d80-465b-bc3e-d109526df4c5","ios":"levelo://app?vid=03ff7327-9d80-465b-bc3e-d109526df4c5"},"vehicle_type_id":"4","last_reported":1749579296,"current_range_meters":17200,"station_id":"ce4bhmh2rcd13ifvqgmg","pricing_plan_id":"cebpf4jnsgd1na2vs0mg"},{"bike_id":"b75b229d-15a5-49f3-b534-17e1dcbc9520","system_id":"levelo_inurba_marseille","lat":43.29048,"lon":5.35908,"is_reserved":false,"is_disabled":false,"rental_uris":{"android":"levelo://app?vid=b75b229d-15a5-49f3-b534-17e1dcbc9520","ios":"levelo://app?vid=b75b229d-15a5-49f3-b534-17e1dcbc9520"},"vehicle_type_id":"4","last_reported":1749579296,"current_range_meters":17200,"station_id":"ce4bha92rcd13ifvqeg0","pricing_plan_id":"cebpf4jnsgd1na2vs0mg"},{"bike_id":"1f42e774-0b65-4738-b3e3-0aae7ec0e65c","system_id":"levelo_inurba_marseille","lat":43.29576,"lon":5.37501,"is_reserved":false,"is_disabled":true,"rental_uris":{"android":"levelo://app?vid=1f42e774-0b65-4738-b3e3-0aae7ec0e65c","ios":"levelo://app?vid=1f42e774-0b65-4738-b3e3-0aae7ec0e65c"},"vehicle_type_id":"4","last_reported":1749579296,"current_range_meters":17200,"station_id":"ce4bgh92rcd13ifvqb50","pricing_plan_id":"cebpf4jnsgd1na2vs0mg"},{"bike_id":"450d299c-f026-43e2-9b80-ae0ae1fea823","system_id":"levelo_inurba_marseille","lat":43.23177,"lon":5.3999,"is_reserved":false,"is_disabled":false,"rental_uris":{"android":"levelo://app?vid=450d299c-f026-43e2-9b80-ae0ae1fea823","ios":"levelo://app?vid=450d299c-f026-43e2-9b80-ae0ae1fea823"},"vehicle_type_id":"4","last_reported":1749579296,"current_range_meters":17200,"station_id":"ce4bhn12rcd13ifvqgqg","pricing_plan_id":"cebpf4jnsgd1na2vs0mg"},{"bike_id":"be7b970f-61d2-4f52-9c00-e82085958720","system_id":"levelo_inurba_marseille","lat":43.28853,"lon":5.35851,"is_reserved":false,"is_disabled":false,"rental_uris":{"android":"levelo://app?vid=be7b970f-61d2-4f52-9c00-e82085958720","ios":"levelo://app?vid=be7b970f-61d2-4f52-9c00-e82085958720"},"vehicle_type_id":"4","last_reported":1749579296,"current_range_meters":17200,"station_id":"ce4bhb12rcd13ifvqem0","pricing_plan_id":"cebpf4jnsgd1na2vs0mg"},{"bike_id":"d49963c9-4a74-4b7c-ae71-2e7f71f19deb","system_id":"levelo_inurba_marseille","lat":43.29589,"lon":5.36742,"is_reserved":false,"is_disabled":true,"rental_uris":{"android":"levelo://app?vid=d49963c9-4a74-4b7c-ae71-2e7f71f19deb","ios":"levelo://app?vid=d49963c9-4a74-4b7c-ae71-2e7f71f19deb"},"vehicle_type_id":"4","last_reported":1749579296,"current_range_meters":17600,"station_id":"ce4bgph2rcd13ifvqc2g","pricing_plan_id":"cebpf4jnsgd1na2vs0mg"},