{"last_updated":1708452621,"ttl":30,"version":"2.2","data":{"bikes":[{"bike_id":"94ff2941-d5a3-474c-acd1-955365cf4a3a","system_id":"levelo_inurba_marseille","lat":43.312239,"lon":5.368562,"is_reserved":false,"is_disabled":false,"rental_uris":{"android":"levelo://app?vid=94ff2941-d5a3-474c-acd1-955365cf4a3a","ios":"levelo://app?vid=94ff2941-d5a3-474c-acd1-955365cf4a3a"},"vehicle_type_id":"4","last_reported":1708452621,"current_range_meters":0,"station_id":"ce4bgl92rcd13ifvqbq0","pricing_plan_id":"cebpf4jnsgd1na2vs0mg"},{"bike_id":"57a45736-a2f9-441e-bbfe-255b8432bc76","system_id":"levelo_inurba_marseille","lat":43.31217,"lon":5.36865,"is_reserved":false,"is_disabled":false,"rental_uris":{"android":"levelo://app?vid=57a45736-a2f9-441e-bbfe-255b8432bc76","ios":"levelo://app?vid=57a45736-a2f9-441e-bbfe-255b8432bc76"},"vehicle_type_id":"4","last_reported":1708452621,"current_range_meters":0,"station_id":"ce4bgl92rcd13ifvqbq0","pricing_plan_id":"cebpf4jnsgd1na2vs0mg"},{"bike_id":"80b1c46d-53fa-4f54-bab2-1fbd74438ee1","system_id":"levelo_inurba_marseille","lat":43.309034,"lon":5.371783,"is_reserved":false,"is_disabled":false,"rental_uris":{"android":"levelo://app?vid=80b1c46d-53fa-4f54-bab2-1fbd74438ee1","ios":"levelo://app?vid=80b1c46d-53fa-4f54-bab2-1fbd74438ee1"},"vehicle_type_id":"4","last_reported":1708452621,"current_range_meters":21600,"station_id":"ce4bguh2rcd13ifvqckg","pricing_plan_id":"cebpf4jnsgd1na2vs0mg"},{"bike_id":"39d51683-1974-4eea-af8e-96a5561b0920","system_id":"levelo_inurba_marseille","lat":43.309039,"lon":5.371797,"is_reserved":false,"is_disabled":false,"rental_uris":{"android":"levelo://app?vid=39d51683-1974-4eea-af8e-96a5561b0920","ios":"levelo://app?vid=39d51683-1974-4eea-af8e-96a5561b0920"},"vehicle_type_id":"4","last_reported":1708452621,"current_range_meters":7200,"station_id":"ce4bguh2rcd13ifvqckg","pricing_plan_id":"cebpf4jnsgd1na2vs0mg"},{"bike_id":"a37491e9-a45d-4e10-9950-4dd4c0aac8df","system_id":"levelo_inurba_marseille","lat":43.309039,"lon":5.371797,"is_reserved":false,"is_disabled":false,"rental_uris":{"android":"levelo://app?vid=a37491e9-a45d-4e10-9950-4dd4c0aac8df","ios":"levelo://app?vid=a37491e9-a45d-4e10-9950-4dd4c0aac8df"},"vehicle_type_id":"4","last_reported":1708452621,"current_range_meters":3600,"station_id":"ce4bguh2rcd13ifvqckg","pricing_plan_id":"cebpf4jnsgd1na2vs0mg"},{"bike_id":"7a6af4a7-c5ab-4b3b-86cb-65b4fc981a05","system_id":"levelo_inurba_marseille","lat":43.305368,"lon":5.367343,"is_reserved":false,"is_disabled":false,"rental_uris":{"android":"levelo://app?vid=7a6af4a7-c5ab-4b3b-86cb-65b4fc981a05","ios":"levelo://app?vid=7a6af4a7-c5ab-4b3b-86cb-65b4fc981a05"},"vehicle_type_id":"4","last_reported":1708452621,"current_range_meters":30800,"station_id":"ce4bgrp2rcd13ifvqc9g","pricing_plan_id":"cebpf4jnsgd1na2vs0mg"},{"bike_id":"b97fe9d2-633a-4dfc-add9-ebc3bf02234d","system_id":"levelo_inurba_marseille","lat":43.305989,"lon":5.37225,"is_reserved":false,"is_disabled":false,"rental_uris":{"android":"levelo://app?vid=b97fe9d2-633a-4dfc-add9-ebc3bf02234d","ios":"levelo://app?vid=b97fe9d2-633a-4dfc-add9-ebc3bf02234d"},"vehicle_type_id":"4","last_reported":1708452621,"current_range_meters":26400,"station_id":"ce4bgqh2rcd13ifvqc4g","pricing_plan_id":"cebpf4jnsgd1na2vs0mg"},{"bike_id":"a7dc07d0-0a42-4ef8-8d15-8f831c57b369","system_id":"levelo_inurba_marseille","lat":43.314811,"lon":5.373104,"is_reserved":false,"is_disabled":false,"rental_uris":{"android":"levelo://app?vid=a7dc07d0-0a42-4ef8-8d15-8f831c57b369","ios":"levelo://app?vid=a7dc07d0-0a42-4ef8-8d15-8f831c57b369"},"vehicle_type_id":"4","last_reported":1708452621,"current_range_meters":0,"station_id":"ce4bgt12rcd13ifvqcd0","pricing_plan_id":"cebpf4jnsgd1na2vs0mg"},{"bike_id":"dc22c28f-522a-4fb4-b7ab-c6251b90de82","system_id":"levelo_inurba_marseille","lat":43.31654,"lon":5.37675,"is_reserved":false,"is_disabled":false,"rental_uris":{"android":"levelo://app?vid=dc22c28f-522a-4fb4-b7ab-c6251b90de82","ios":"levelo://app?vid=dc22c28f-522a-4fb4-b7ab-c6251b90de82"},"vehicle_type_id":"4","last_reported":1708452621,"current_range_meters":30400,"station_id":"","pricing_plan_id":"cebpf4jnsgd1na2vs0mg"},{"bike_id":"33a96e32-3c53-4652-a654-1a6a61a79c82","system_id":"levelo_inurba_marseille","lat":43.301939,"lon":5.366286,"is_reserved":false,"is_disabled":false,"rental_uris":{"android":"levelo://app?vid=33a96e32-3c53-4652-a654-1a6a61a79c82","ios":"levelo://app?vid=33a96e32-3c53-4652-a654-1a6a61a79c82"},"vehicle_type_id":"4","last_reported":1708452621,"current_range_meters":13200,"station_id":"ce4bgrh2rcd13ifvqc8g","pricing_plan_id":"cebpf4jnsgd1na2vs0mg"},{"bike_id":"38087315-df70-4ffd-b193-66bbe51a6709","system_id":"levelo_inurba_marseille","lat":43.301939,"lon":5.366286,"is_reserved":false,"is_disabled":false,"rental_uris":{"android":"levelo://app?vid=38087315-df70-4ffd-b193-66bbe51a6709","ios":"levelo://app?vid=38087315-df70-4ffd-b193-66bbe51a6709"},"vehicle_type_id":"4","last_reported":1708452621,"current_range_meters":8800,"station_id":"ce4bgrh2rcd13ifvqc8g","pricing_plan_id":"cebpf4jnsgd1na2vs0mg"},{"bike_id":"1c5a84ad-ddbc-4cc2-88e4-c7239546b7ce","system_id":"levelo_inurba_marseille","lat":43.301939,"lon":5.366286,"is_reserved":false,"is_disabled":false,"rental_uris":{"android":"levelo://app?vid=1c5a84ad-ddbc-4cc2-88e4-c7239546b7ce","ios":"levelo://app?vid=1c5a84ad-ddbc-4cc2-88e4-c7239546b7ce"},"vehicle_type_id":"4","last_reported":1708452621,"current_range_meters":26800,"station_id":"ce4bgrh2rcd13ifvqc8g","pricing_plan_id":"cebpf4jnsgd1na2vs0mg"},{"bike_id":"183cd242-7e80-4e9a-a385-0f1b2d9a0078","system_id":"levelo_inurba_marseille","lat":43.308012,"lon":5.381511,"is_reserved":false,"is_disabled":false,"rental_uris":{"android":"levelo://app?vid=183cd242-7e80-4e9a-a385-0f1b2d9a0078","ios":"levelo://app?vid=183cd242-7e80-4e9a-a385-0f1b2d9a0078"},"vehicle_type_id":"4","last_reported":1708452621,"current_range_meters":2000,"station_id":"ce4bgt12rcd13ifvqce0","pricing_plan_id":"cebpf4jnsgd1na2vs0mg"},{"bike_id":"cbdeef89-6162-4650-9411-28d860b8a30e","system_id":"levelo_inurba_marseille","lat":43.308012,"lon":5.381511,"is_reserved":false,"is_disabled":false,"rental_uris":{"android":"levelo://app?vid=cbdeef89-6162-4650-9411-28d860b8a30e","ios":"levelo://app?vid=cbdeef89-6162-4650-9411-28d860b8a30e"},"vehicle_type_id":"4","last_reported":1708452621,"current_range_meters":7600,"station_id":"ce4bgt12rcd13ifvqce0","pricing_plan_id":"cebpf4jnsgd1na2vs0mg"},{"bike_id":"05d4fedc-c52b-4b43-b1c4-528fadb4fe5e","system_id":"levelo_inurba_marseille","lat":43.304606,"lon":5.379026,"is_reserved":false,"is_disabled":false,"rental_uris":{"android":"levelo://app?vid=05d4fedc-c52b-4b43-b1c4-528fadb4fe5e","ios":"levelo://app?vid=05d4fedc-c52b-4b43-b1c4-528fadb4fe5e"},"vehicle_type_id":"4","last_reported":1708452621,"current_range_meters":18000,"station_id":"ce4bgup2rcd13ifvqcn0","pricing_plan_id":"cebpf4jnsgd1na2vs0mg"},{"bike_id":"b83d9c2a-6163-4c5b-812d-d0274de71af3","system_id":"levelo_inurba_marseille","lat":43.304606,"lon":5.379026,"is_reserved":false,"is_disabled":false,"rental_uris":{"android":"levelo://app?vid=b83d9c2a-6163-4c5b-812d-d0274de71af3","ios":"levelo://app?vid=b83d9c2a-6163-4c5b-812d-d0274de71af3"},"vehicle_type_id":"4","last_reported":1708452621,"current_range_meters":19600,"station_id":"ce4bgup2rcd13ifvqcn0","pricing_plan_id":"cebpf4jnsgd1na2vs0mg"},{"bike_id":"3f5a95a1-d15b-49dd-b6f4-3a88962268c4","system_id":"levelo_inurba_marseille","lat":43.324771,"lon":5.36557,"is_reserved":false,"is_disabled":false,"rental_uris":{"android":"levelo://app?vid=3f5a95a1-d15b-49dd-b6f4-3a88962268c4","ios":"levelo://app?vid=3f5a95a1-d15b-49dd-b6f4-3a88962268c4"},"vehicle_type_id":"4","last_reported":1708452621,"current_range_meters":29200,"station_id":"ce4bhs12rcd13ifvqhvg","pricing_plan_id":"cebpf4jnsgd1na2vs0mg"},{"bike_id":"70758381-3d6f-46b2-be33-04712ddb86d6","system_id":"levelo_inurba_marseille","lat":43.324771,"lon":5.36557,"is_reserved":false,"is_disabled":false,"rental_uris":{"android":"levelo://app?vid=70758381-3d6f-46b2-be33-04712ddb86d6","ios":"levelo://app?vid=70758381-3d6f-46b2-be33-04712ddb86d6"},"vehicle_type_id":"4","last_reported":1708452621,"current_range_meters":3600,"station_id":"ce4bhs12rcd13ifvqhvg","pricing_plan_id":"cebpf4jnsgd1na2vs0mg"},{"bike_id":"4cd60cd3-101b-4a05-9703-76840434a255","system_id":"levelo_inurba_marseille","lat":43.324771,"lon":5.36557,"is_reserved":false,"is_disabled":false,"rental_uris":{"android":"levelo://app?vid=4cd60cd3-101b-4a05-9703-76840434a255","ios":"levelo://app?vid=4cd60cd3-101b-4a05-9703-76840434a255"},"vehicle_type_id":"4","last_reported":1708452621,"current_range_meters":24400,"station_id":"ce4bhs12rcd13ifvqhvg","pricing_plan_id":"cebpf4jnsgd1na2vs0mg"},{"bike_id":"cda8eb5b-2134-4fe4-b0ac-1209e0bbc329","system_id":"levelo_inurba_marseille","lat":43.324771,"lon":5.36557,"is_reserved":false,"is_disabled":false,"rental_uris":{"android":"levelo://app?vid=cda8eb5b-2134-4fe4-b0ac-1209e0bbc329","ios":"levelo://app?vid=cda8eb5b-2134-4fe4-b0ac-1209e0bbc329"},"vehicle_type_id":"4","last_reported":1708452621,"current_range_meters":17200,"station_id":"ce4bhs12rcd13ifvqhvg","pricing_plan_id":"cebpf4jnsgd1na2vs0mg"},{"bike_id":"5f3727da-be6d-4245-8b7a-5c108328736b","system_id":"levelo_inurba_marseille","lat":43.324771,"lon":5.36557,"is_reserved":false,"is_disabled":false,"rental_uris":{"android":"levelo://app?vid=5f3727da-be6d-4245-8b7a-5c108328736b","ios":"levelo://app?vid=5f3727da-be6d-4245-8b7a-5c108328736b"},"vehicle_type_id":"4","last_reported":1708452621,"current_range_meters":0,"station_id":"ce4bhs12rcd13ifvqhvg","pricing_plan_id":"cebpf4jnsgd1na2vs0mg"},{"bike_id":"0c3af452-9de0-48fe-bbc2-fad1f6653323","system_id":"levelo_inurba_marseille","lat":43.32482,"lon":5.36564,"is_reserved":false,"is_disabled":false,"rental_uris":{"android":"levelo://app?vid=0c3af452-9de0-48fe-bbc2-fad1f6653323","ios":"levelo://app?vid=0c3af452-9de0-48fe-bbc2-fad1f6653323"},"vehicle_type_id":"4","last_reported":1708452621,"current_range_meters":15600,"station_id":"ce4bhs12rcd13ifvqhvg","pricing_plan_id":"cebpf4jnsgd1na2vs0mg"},{"bike_id":"787b97fd-3045-418a-93db-948f0d624107","system_id":"levelo_inurba_marseille","lat":43.324771,"lon":5.36557,"is_reserved":false,"is_disabled":false,"rental_uris":{"android":"levelo://app?vid=787b97fd-3045-418a-93db-948f0d624107","ios":"levelo://app?vid=787b97fd-3045-418a-93db-948f0d624107"},"vehicle_type_id":"4","last_reported":1708452621,"current_range_meters":18400,"station_id":"ce4bhs12rcd13ifvqhvg","pricing_plan_id":"cebpf4jnsgd1na2vs0mg"},{"bike_id":"caaf26f8-fbed-445b-be7b-3ecf625cc521","system_id":"levelo_inurba_marseille","lat":43.324771,"lon":5.36557,"is_reserved":false,"is_disabled":false,"rental_uris":{"android":"levelo://app?vid=caaf26f8-fbed-445b-be7b-3ecf625cc521","ios":"levelo://app?vid=caaf26f8-fbed-445b-be7b-3ecf625cc521"},"vehicle_type_id":"4","last_reported":1708452621,"current_range_meters":30000,"station_id":"ce4bhs12rcd13ifvqhvg","pricing_plan_id":"cebpf4jnsgd1na2vs0mg"},{"bike_id":"e1e73a2d-e9bf-4c53-9c5b-297958314c2b","system_id":"levelo_inurba_marseille","lat":43.30277,"lon":5.37718,"is_reserved":false,"is_disabled":false,"rental_uris":{"android":"levelo://app?vid=e1e73a2d-e9bf-4c53-9c5b-297958314c2b","ios":"levelo://app?vid=e1e73a2d-e9bf-4c53-9c5b-297958314c2b"},"vehicle_type_id":"4","last_reported":1708452621,"current_range_meters":10400,"station_id":"ce4bguh2rcd13ifvqcj0","pricing_plan_id":"cebpf4jnsgd1na2vs0mg"},{"bike_id":"e65e16bf-af00-46cf-92b0-04d4a16655fe","system_id":"levelo_inurba_marseille","lat":43.302784,"lon":5.377158,"is_reserved":false,"is_disabled":false,"rental_uris":{"android":"levelo://app?vid=e65e16bf-af00-46cf-92b0-04d4a16655fe","ios":"levelo://app?vid=e65e16bf-af00-46cf-92b0-04d4a16655fe"},"vehicle_type_id":"4","last_reported":1708452621,"current_range_meters":12400,"station_id":"ce4bguh2rcd13ifvqcj0","pricing_plan_id":"cebpf4jnsgd1na2vs0mg"},{"bike_id":"28ac92c8-3492-4bb4-bfaf-10fd4ee37ea4","system_id":"levelo_inurba_marseille","lat":43.319935,"lon":5.381699,"is_reserved":false,"is_disabled":false,"rental_uris":{"android":"levelo://app?vid=28ac92c8-3492-4bb4-bfaf-10fd4ee37ea4","ios":"levelo://app?vid=28ac92c8-3492-4bb4-bfaf-10fd4ee37ea4"},"vehicle_type_id":"4","last_reported":1708452621,"current_range_meters":0,"station_id":"ce4bhr12rcd13ifvqhpg","pricing_plan_id":"cebpf4jnsgd1na2vs0mg"},{"bike_id":"4da0bc28-1f1b-4133-aeb1-e5fa264d8ee7","system_id":"levelo_inurba_marseille","lat":43.3154,"lon":5.38455,"is_reserved":false,"is_disabled":false,"rental_uris":{"android":"levelo://app?vid=4da0bc28-1f1b-4133-aeb1-e5fa264d8ee7","ios":"levelo://app?vid=4da0bc28-1f1b-4133-aeb1-e5fa264d8ee7"},"vehicle_type_id":"4","last_reported":1708452621,"current_range_meters":25600,"station_id":"","pricing_plan_id":"cebpf4jnsgd1na2vs0mg"},{"bike_id":"3b645207-a6c2-40ef-a774-cb8596ff47d4","system_id":"levelo_inurba_marseille","lat":43.313571,"lon":5.384829,"is_reserved":false,"is_disabled":false,"rental_uris":{"android":"levelo://app?vid=3b645207-a6c2-40ef-a774-cb8596ff47d4","ios":"levelo://app?vid=3b645207-a6c2-40ef-a774-cb8596ff47d4"},"vehicle_type_id":"4","last_reported":1708452621,"current_range_meters":2000,"station_id":"ce4bgt92rcd13ifvqcf0","pricing_plan_id":"cebpf4jnsgd1na2vs0mg"},{"bike_id":"fc0d0e5c-8f64-49fa-809e-227aa8ca729c","system_id":"levelo_inurba_marseille","lat":43.313571,"lon":5.384829,"is_reserved":false,"is_disabled":false,"rental_uris":{"android":"levelo://app?vid=fc0d0e5c-8f64-49fa-809e-227aa8ca729c","ios":"levelo://app?vid=fc0d0e5c-8f64-49fa-809e-227aa8ca729c"},"vehicle_type_id":"4","last_reported":1708452621,"current_range_meters":19600,"station_id":"ce4bgt92rcd13ifvqcf0","pricing_plan_id":"cebpf4jnsgd1na2vs0mg"},{"bike_id":"4c17f5fb-ab1b-4f88-9495-f2305792ba0a","system_id":"levelo_inurba_marseille","lat":43.313571,"lon":5.384829,"is_reserved":false,"is_disabled":false,"rental_uris":{"android":"levelo://app?vid=4c17f5fb-ab1b-4f88-9495-f2305792ba0a","ios":"levelo://app?vid=4c17f5fb-ab1b-4f88-9495-f2305792ba0a"},"vehicle_type_id":"4","last_reported":1708452621,"current_range_meters":5600,"station_id":"ce4bgt92rcd13ifvqcf0","pricing_plan_id":"cebpf4jnsgd1na2vs0mg"},{"bike_id":"44009f75-4b92-44b9-b40c-40086f71eea2","system_id":"levelo_inurba_marseille","lat":43.313571,"lon":5.384829,"is_reserved":false,"is_disabled":false,"rental_uris":{"android":"levelo://app?vid=44009f75-4b92-44b9-b40c-40086f71eea2","ios":"levelo://app?vid=44009f75-4b92-44b9-b40c-40086f71eea2"},"vehicle_type_id":"4","last_reported":1708452621,"current_range_meters":14400,"station_id":"ce4bgt92rcd13ifvqcf0","pricing_plan_id":"cebpf4jnsgd1na2vs0mg"},{"bike_id":"73ecdf09-2fe3-44ec-9835-3024b6b59ba7","system_id":"levelo_inurba_marseille","lat":43.313571,"lon":5.384829,"is_reserved":false,"is_disabled":false,"rental_uris":{"android":"levelo://app?vid=73ecdf09-2fe3-44ec-9835-3024b6b59ba7","ios":"levelo://app?vid=73ecdf09-2fe3-44ec-9835-3024b6b59ba7"},"vehicle_type_id":"4","last_reported":1708452621,"current_range_meters":19600,"station_id":"ce4bgt92rcd13ifvqcf0","pricing_plan_id":"cebpf4jnsgd1na2vs0mg"},{"bike_id":"b0993cc8-b54c-473a-ac60-556ead205019","system_id":"levelo_inurba_marseille","lat":43.302851,"lon":5.379076,"is_reserved":false,"is_disabled":false,"rental_uris":{"android":"levelo://app?vid=b0993cc8-b54c-473a-ac60-556ead205019","ios":"levelo://app?vid=b0993cc8-b54c-473a-ac60-556ead205019"},"vehicle_type_id":"4","last_reported":1708452621,"current_range_meters":3200,"station_id":"ce4bguh2rcd13ifvqcj0","pricing_plan_id":"cebpf4jnsgd1na2vs0mg"},{"bike_id":"e87dbd50-e28f-4dbd-9c1b-b5668543bb91","system_id":"levelo_inurba_marseille","lat":43.299222,"lon":5.365554,"is_reserved":false,"is_disabled":false,"rental_uris":{"android":"levelo://app?vid=e87dbd50-e28f-4dbd-9c1b-b5668543bb91","ios":"levelo://app?vid=e87dbd50-e28f-4dbd-9c1b-b5668543bb91"},"vehicle_type_id":"4","last_reported":1708452621,"current_range_meters":31200,"station_id":"ce4bgm92rcd13ifvqbr0","pricing_plan_id":"cebpf4jnsgd1na2vs0mg"},{"bike_id":"1c54a1b2-0475-4b92-8874-0f8b2c7560a5","system_id":"levelo_inurba_marseille","lat":43.299724,"lon":5.371829,"is_reserved":false,"is_disabled":false,"rental_uris":{"android":"levelo://app?vid=1c54a1b2-0475-4b92-8874-0f8b2c7560a5","ios":"levelo://app?vid=1c54a1b2-0475-4b92-8874-0f8b2c7560a5"},"vehicle_type_id":"4","last_reported":1708452621,"current_range_meters":12400,"station_id":"ce4bgr92rcd13ifvqc7g","pricing_plan_id":"cebpf4jnsgd1na2vs0mg"},{"bike_id":"acae9bfd-9ff7-4559-8ae0-dd67a5fbd53a","system_id":"levelo_inurba_marseille","lat":43.299243,"lon":5.37481,"is_reserved":false,"is_disabled":false,"rental_uris":{"android":"levelo://app?vid=acae9bfd-9ff7-4559-8ae0-dd67a5fbd53a","ios":"levelo://app?vid=acae9bfd-9ff7-4559-8ae0-dd67a5fbd53a"},"vehicle_type_id":"4","last_reported":1708452621,"current_range_meters":14000,"station_id":"ce4bgjh2rcd13ifvqbg0","pricing_plan_id":"cebpf4jnsgd1na2vs0mg"},{"bike_id":"f6a86732-d769-4a07-8a0f-0c7f0b7570df","system_id":"levelo_inurba_marseille","lat":43.311722,"lon":5.387247,"is_reserved":false,"is_disabled":false,"rental_uris":{"android":"levelo://app?vid=f6a86732-d769-4a07-8a0f-0c7f0b7570df","ios":"levelo://app?vid=f6a86732-d769-4a07-8a0f-0c7f0b7570df"},"vehicle_type_id":"4","last_reported":1708452621,"current_range_meters":5200,"station_id":"ce4bgv12rcd13ifvqcp0","pricing_plan_id":"cebpf4jnsgd1na2vs0mg"},{"bike_id":"098eaae3-c91c-4c4e-9a14-70e940012909","system_id":"levelo_inurba_marseille","lat":43.29806,"lon":5.36216,"is_reserved":false,"is_disabled":false,"rental_uris":{"android":"levelo://app?vid=098eaae3-c91c-4c4e-9a14-70e940012909","ios":"levelo://app?vid=098eaae3-c91c-4c4e-9a14-70e940012909"},"vehicle_type_id":"4","last_reported":1708452621,"current_range_meters":21200,"station_id":"","pricing_plan_id":"cebpf4jnsgd1na2vs0mg"},{"bike_id":"79b54601-dd27-44fc-91ca-5befd5594d9b","system_id":"levelo_inurba_marseille","lat":43.322872,"lon":5.382756,"is_reserved":false,"is_disabled":false,"rental_uris":{"android":"levelo://app?vid=79b54601-dd27-44fc-91ca-5befd5594d9b","ios":"levelo://app?vid=79b54601-dd27-44fc-91ca-5befd5594d9b"},"vehicle_type_id":"4","last_reported":1708452621,"current_range_meters":23600,"station_id":"ce4bhr12rcd13ifvqhqg","pricing_plan_id":"cebpf4jnsgd1na2vs0mg"},{"bike_id":"3ef6b703-e056-421a-9179-5e7d94b25453","system_id":"levelo_inurba_marseille","lat":43.32289,"lon":5.38274,"is_reserved":false,"is_disabled":false,"rental_uris":{"android":"levelo://app?vid=3ef6b703-e056-421a-9179-5e7d94b25453","ios":"levelo://app?vid=3ef6b703-e056-421a-9179-5e7d94b25453"},"vehicle_type_id":"4","last_reported":1708452621,"current_range_meters":24000,"station_id":"ce4bhr12rcd13ifvqhqg","pricing_plan_id":"cebpf4jnsgd1na2vs0mg"},{"bike_id":"25fc5026-6ec5-4002-b696-3e1c3a41c330","system_id":"levelo_inurba_marseille","lat":43.32287,"lon":5.38279,"is_reserved":false,"is_disabled":false,"rental_uris":{"android":"levelo://app?vid=25fc5026-6ec5-4002-b696-3e1c3a41c330","ios":"levelo://app?vid=25fc5026-6ec5-4002-b696-3e1c3a41c330"},"vehicle_type_id":"4","last_reported":1708452621,"current_range_meters":6400,"station_id":"ce4bhr12rcd13ifvqhqg","pricing_plan_id":"cebpf4jnsgd1na2vs0mg"},{"bike_id":"04da13fe-603e-4106-a037-9997a932cac0","system_id":"levelo_inurba_marseille","lat":43.296129,"lon":5.370777,"is_reserved":false,"is_disabled":false,"rental_uris":{"android":"levelo://app?vid=04da13fe-603e-4106-a037-9997a932cac0","ios":"levelo://app?vid=04da13fe-603e-4106-a037-9997a932cac0"},"vehicle_type_id":"4","last_reported":1708452621,"current_range_meters":25600,"station_id":"ce4bgnh2rcd13ifvqc0g","pricing_plan_id":"cebpf4jnsgd1na2vs0mg"},{"bike_id":"ca85c15b-f326-4208-8fe9-07ff1b35c403","system_id":"levelo_inurba_marseille","lat":43.29573,"lon":5.367355,"is_reserved":false,"is_disabled":false,"rental_uris":{"android":"levelo://app?vid=ca85c15b-f326-4208-8fe9-07ff1b35c403","ios":"levelo://app?vid=ca85c15b-f326-4208-8fe9-07ff1b35c403"},"vehicle_type_id":"4","last_reported":1708452621,"current_range_meters":0,"station_id":"ce4bgph2rcd13ifvqc2g","pricing_plan_id":"cebpf4jnsgd1na2vs0mg"},{"bike_id":"79c09fe6-fbb5-4e2e-a7f6-f49a128a77cc","system_id":"levelo_inurba_marseille","lat":43.296131,"lon":5.370791,"is_reserved":false,"is_disabled":false,"rental_uris":{"android":"levelo://app?vid=79c09fe6-fbb5-4e2e-a7f6-f49a128a77cc","ios":"levelo://app?vid=79c09fe6-fbb5-4e2e-a7f6-f49a128a77cc"},"vehicle_type_id":"4","last_reported":1708452621,"current_range_meters":30000,"station_id":"ce4bgnh2rcd13ifvqc0g","pricing_plan_id":"cebpf4jnsgd1na2vs0mg"},{"bike_id":"a0b65e77-9c3e-4d63-b349-f2c391755ffe","system_id":"levelo_inurba_marseille","lat":43.299028,"lon":5.381509,"is_reserved":false,"is_disabled":false,"rental_uris":{"android":"levelo://app?vid=a0b65e77-9c3e-4d63-b349-f2c391755ffe","ios":"levelo://app?vid=a0b65e77-9c3e-4d63-b349-f2c391755ffe"},"vehicle_type_id":"4","last_reported":1708452621,"current_range_meters":26800,"station_id":"ce4bgj12rcd13ifvqbc0","pricing_plan_id":"cebpf4jnsgd1na2vs0mg"},{"bike_id":"db0c58d5-0978-4a43-b5dd-0507404c35dc","system_id":"levelo_inurba_marseille","lat":43.296921,"lon":5.376579,"is_reserved":false,"is_disabled":false,"rental_uris":{"android":"levelo://app?vid=db0c58d5-0978-4a43-b5dd-0507404c35dc","ios":"levelo://app?vid=db0c58d5-0978-4a43-b5dd-0507404c35dc"},"vehicle_type_id":"4","last_reported":1708452621,"current_range_meters":18400,"station_id":"ce4bgkh2rcd13ifvqbl0","pricing_plan_id":"cebpf4jnsgd1na2vs0mg"},{"bike_id":"c7084a34-df4c-476a-a442-9e632d7f09f6","system_id":"levelo_inurba_marseille","lat":43.32232,"lon":5.38653,"is_reserved":false,"is_disabled":false,"rental_uris":{"android":"levelo://app?vid=c7084a34-df4c-476a-a442-9e632d7f09f6","ios":"levelo://app?vid=c7084a34-df4c-476a-a442-9e632d7f09f6"},"vehicle_type_id":"4","last_reported":1708452621,"current_range_meters":24400,"station_id":"","pricing_plan_id":"cebpf4jnsgd1na2vs0mg"},{"bike_id":"32f20806-6a0a-471e-bedb-c8f6cfabec16","system_id":"levelo_inurba_marseille","lat":43.309487,"lon":5.390265,"is_reserved":false,"is_disabled":false,"rental_uris":{"android":"levelo://app?vid=32f20806-6a0a-471e-bedb-c8f6cfabec16","ios":"levelo://app?vid=32f20806-6a0a-471e-bedb-c8f6cfabec16"},"vehicle_type_id":"4","last_reported":1708452621,"current_range_meters":10400,"station_id":"ce4bgup2rcd13ifvqco0","pricing_plan_id":"cebpf4jnsgd1na2vs0mg"},{"bike_id":"f1fbaa20-d2e6-42c9-97ab-ee39defb5a06","system_id":"levelo_inurba_marseille","lat":43.299028,"lon":5.381509,"is_reserved":false,"is_disabled":false,"rental_uris":{"android":"levelo://app?vid=f1fbaa20-d2e6-42c9-97ab-ee39defb5a06","ios":"levelo://app?vid=f1fbaa20-d2e6-42c9-97ab-ee39defb5a06"},"vehicle_type_id":"4","last_reported":1708452621,"current_range_meters":8400,"station_id":"ce4bgj12rcd13ifvqbc0","pricing_plan_id":"cebpf4jnsgd1na2vs0mg"},{"bike_id":"3112cca4-35a9-43c6-b494-d9bada2a1c61","system_id":"levelo_inurba_marseille","lat":43.309589,"lon":5.390258,"is_reserved":false,"is_disabled":false,"rental_uris":{"android":"levelo://app?vid=3112cca4-35a9-43c6-b494-d9bada2a1c61","ios":"levelo://app?vid=3112cca4-35a9-43c6-b494-d9bada2a1c61"},"vehicle_type_id":"4","last_reported":1708452621,"current_range_meters":15600,"station_id":"ce4bgup2rcd13ifvqco0","pricing_plan_id":"cebpf4jnsgd1na2vs0mg"},{"bike_id":"0cf92d10-3e8a-459f-8a18-e5d24f71da0e","system_id":"levelo_inurba_marseille","lat":43.309589,"lon":5.390258,"is_reserved":false,"is_disabled":false,"rental_uris":{"android":"levelo://app?vid=0cf92d10-3e8a-459f-8a18-e5d24f71da0e","ios":"levelo://app?vid=0cf92d10-3e8a-459f-8a18-e5d24f71da0e"},"vehicle_type_id":"4","last_reported":1708452621,"current_range_meters":10400,"station_id":"ce4bgup2rcd13ifvqco0","pricing_plan_id":"cebpf4jnsgd1na2vs0mg"},{"bike_id":"92c31691-7907-4c6c-bd4b-da6963e283e6","system_id":"levelo_inurba_marseille","lat":43.309589,"lon":5.390258,"is_reserved":false,"is_disabled":false,"rental_uris":{"android":"levelo://app?vid=92c31691-7907-4c6c-bd4b-da6963e283e6","ios":"levelo://app?vid=92c31691-7907-4c6c-bd4b-da6963e283e6"},"vehicle_type_id":"4","last_reported":1708452621,"current_range_meters":21200,"station_id":"ce4bgup2rcd13ifvqco0","pricing_plan_id":"cebpf4jnsgd1na2vs0mg"},{"bike_id":"7ece8d37-e144-4419-b174-ce9e41a20895","system_id":"levelo_inurba_marseille","lat":43.309589,"lon":5.390258,"is_reserved":false,"is_disabled":false,"rental_uris":{"android":"levelo://app?vid=7ece8d37-e144-4419-b174-ce9e41a20895","ios":"levelo://app?vid=7ece8d37-e144-4419-b174-ce9e41a20895"},"vehicle_type_id":"4","last_reported":1708452621,"current_range_meters":2000,"station_id":"ce4bgup2rcd13ifvqco0","pricing_plan_id":"cebpf4jnsgd1na2vs0mg"},{"bike_id":"80e15578-3dcb-4feb-9946-f3bbe18c55da","system_id":"levelo_inurba_marseille","lat":43.309589,"lon":5.390258,"is_reserved":false,"is_disabled":false,"rental_uris":{"android":"levelo://app?vid=80e15578-3dcb-4feb-9946-f3bbe18c55da","ios":"levelo://app?vid=80e15578-3dcb-4feb-9946-f3bbe18c55da"},"vehicle_type_id":"4","last_reported":1708452621,"current_range_meters":23600,"station_id":"ce4bgup2rcd13ifvqco0","pricing_plan_id":"cebpf4jnsgd1na2vs0mg"},{"bike_id":"709449f5-e857-471f-a017-038efc025a48","system_id":"levelo_inurba_marseille","lat":43.317557,"lon":5.390173,"is_reserved":false,"is_disabled":false,"rental_uris":{"android":"levelo://app?vid=709449f5-e857-471f-a017-038efc025a48","ios":"levelo://app?vid=709449f5-e857-471f-a017-038efc025a48"},"vehicle_type_id":"4","last_reported":1708452621,"current_range_meters":3600,"station_id":"ce4bhqp2rcd13ifvqhng","pricing_plan_id":"cebpf4jnsgd1na2vs0mg"},{"bike_id":"c645a06f-8daa-44f7-acec-6d3d9a264b55","system_id":"levelo_inurba_marseille","lat":43.317557,"lon":5.390173,"is_reserved":false,"is_disabled":false,"rental_uris":{"android":"levelo://app?vid=c645a06f-8daa-44f7-acec-6d3d9a264b55","ios":"levelo://app?vid=c645a06f-8daa-44f7-acec-6d3d9a264b55"},"vehicle_type_id":"4","last_reported":1708452621,"current_range_meters":6000,"station_id":"ce4bhqp2rcd13ifvqhng","pricing_plan_id":"cebpf4jnsgd1na2vs0mg"},{"bike_id":"d8e199a1-664b-4dd0-82eb-aea7c746ff0e","system_id":"levelo_inurba_marseille","lat":43.317557,"lon":5.390173,"is_reserved":false,"is_disabled":false,"rental_uris":{"android":"levelo://app?vid=d8e199a1-664b-4dd0-82eb-aea7c746ff0e","ios":"levelo://app?vid=d8e199a1-664b-4dd0-82eb-aea7c746ff0e"},"vehicle_type_id":"4","last_reported":1708452621,"current_range_meters":8400,"station_id":"ce4bhqp2rcd13ifvqhng","pricing_plan_id":"cebpf4jnsgd1na2vs0mg"},{"bike_id":"82ddf22c-e6a0-4303-9baf-4615fd6774e1","system_id":"levelo_inurba_marseille","lat":43.304278,"lon":5.388868,"is_reserved":false,"is_disabled":false,"rental_uris":{"android":"levelo://app?vid=82ddf22c-e6a0-4303-9baf-4615fd6774e1","ios":"levelo://app?vid=82ddf22c-e6a0-4303-9baf-4615fd6774e1"},"vehicle_type_id":"4","last_reported":1708452621,"current_range_meters":19600,"station_id":"ce4bgk12rcd13ifvqbi0","pricing_plan_id":"cebpf4jnsgd1na2vs0mg"},{"bike_id":"8ac46acd-1a47-43d7-b7b3-f37eb131f1fa","system_id":"levelo_inurba_marseille","lat":43.298037,"lon":5.381066,"is_reserved":false,"is_disabled":false,"rental_uris":{"android":"levelo://app?vid=8ac46acd-1a47-43d7-b7b3-f37eb131f1fa","ios":"levelo://app?vid=8ac46acd-1a47-43d7-b7b3-f37eb131f1fa"},"vehicle_type_id":"4","last_reported":1708452621,"current_range_meters":3600,"station_id":"ce4bgip2rcd13ifvqbb0","pricing_plan_id":"cebpf4jnsgd1na2vs0mg"},{"bike_id":"f2c79383-5542-4aa7-9295-3bc848714849","system_id":"levelo_inurba_marseille","lat":43.29799,"lon":5.381,"is_reserved":false,"is_disabled":false,"rental_uris":{"android":"levelo://app?vid=f2c79383-5542-4aa7-9295-3bc848714849","ios":"levelo://app?vid=f2c79383-5542-4aa7-9295-3bc848714849"},"vehicle_type_id":"4","last_reported":1708452621,"current_range_meters":0,"station_id":"ce4bgip2rcd13ifvqbb0","pricing_plan_id":"cebpf4jnsgd1na2vs0mg"},{"bike_id":"ccd30ab2-b09d-449c-b56b-7708ee1291a0","system_id":"levelo_inurba_marseille","lat":43.304274,"lon":5.388873,"is_reserved":false,"is_disabled":false,"rental_uris":{"android":"levelo://app?vid=ccd30ab2-b09d-449c-b56b-7708ee1291a0","ios":"levelo://app?vid=ccd30ab2-b09d-449c-b56b-7708ee1291a0"},"vehicle_type_id":"4","last_reported":1708452621,"current_range_meters":27200,"station_id":"ce4bgk12rcd13ifvqbi0","pricing_plan_id":"cebpf4jnsgd1na2vs0mg"},{"bike_id":"bbccac65-12ef-421b-84b2-61e5f2fee6bc","system_id":"levelo_inurba_marseille","lat":43.295748,"lon":5.37522,"is_reserved":false,"is_disabled":false,"rental_uris":{"android":"levelo://app?vid=bbccac65-12ef-421b-84b2-61e5f2fee6bc","ios":"levelo://app?vid=bbccac65-12ef-421b-84b2-61e5f2fee6bc"},"vehicle_type_id":"4","last_reported":1708452621,"current_range_meters":0,"station_id":"ce4bgh92rcd13ifvqb50","pricing_plan_id":"cebpf4jnsgd1na2vs0mg"},{"bike_id":"824626e2-85cb-465f-b927-ed089244574e","system_id":"levelo_inurba_marseille","lat":43.304274,"lon":5.388873,"is_reserved":false,"is_disabled":false,"rental_uris":{"android":"levelo://app?vid=824626e2-85cb-465f-b927-ed089244574e","ios":"levelo://app?vid=824626e2-85cb-465f-b927-ed089244574e"},"vehicle_type_id":"4","last_reported":1708452621,"current_range_meters":14000,"station_id":"ce4bgk12rcd13ifvqbi0","pricing_plan_id":"cebpf4jnsgd1na2vs0mg"},{"bike_id":"2a065a59-3e8c-4d3e-b4af-f19a12f389e6","system_id":"levelo_inurba_marseille","lat":43.304274,"lon":5.388873,"is_reserved":false,"is_disabled":false,"rental_uris":{"android":"levelo://app?vid=2a065a59-3e8c-4d3e-b4af-f19a12f389e6","ios":"levelo://app?vid=2a065a59-3e8c-4d3e-b4af-f19a12f389e6"},"vehicle_type_id":"4","last_reported":1708452621,"current_range_meters":1600,"station_id":"ce4bgk12rcd13ifvqbi0","pricing_plan_id":"cebpf4jnsgd1na2vs0mg"},{"bike_id":"860f2371-be8e-4c8a-9a24-d95b00f5cc64","system_id":"levelo_inurba_marseille","lat":43.298037,"lon":5.381066,"is_reserved":false,"is_disabled":false,"rental_uris":{"android":"levelo://app?vid=860f2371-be8e-4c8a-9a24-d95b00f5cc64","ios":"levelo://app?vid=860f2371-be8e-4c8a-9a24-d95b00f5cc64"},"vehicle_type_id":"4","last_reported":1708452621,"current_range_meters":3200,"station_id":"ce4bgip2rcd13ifvqbb0","pricing_plan_id":"cebpf4jnsgd1na2vs0mg"},{"bike_id":"480596e2-22dd-4b6b-96cf-423c47ddbc09","system_id":"levelo_inurba_marseille","lat":43.304278,"lon":5.388868,"is_reserved":false,"is_disabled":false,"rental_uris":{"android":"levelo://app?vid=480596e2-22dd-4b6b-96cf-423c47ddbc09","ios":"levelo://app?vid=480596e2-22dd-4b6b-96cf-423c47ddbc09"},"vehicle_type_id":"4","last_reported":1708452621,"current_range_meters":4000,"station_id":"ce4bgk12rcd13ifvqbi0","pricing_plan_id":"cebpf4jnsgd1na2vs0mg"},{"bike_id":"f4a13744-ea3e-4605-84f1-3738afc32e09","system_id":"levelo_inurba_marseille","lat":43.304278,"lon":5.388868,"is_reserved":false,"is_disabled":false,"rental_uris":{"android":"levelo://app?vid=f4a13744-ea3e-4605-84f1-3738afc32e09","ios":"levelo://app?vid=f4a13744-ea3e-4605-84f1-3738afc32e09"},"vehicle_type_id":"4","last_reported":1708452621,"current_range_meters":10800,"station_id":"ce4bgk12rcd13ifvqbi0","pricing_plan_id":"cebpf4jnsgd1na2vs0mg"},{"bike_id":"355dd538-dcaf-4d18-85d5-09fa5fa3989c","system_id":"levelo_inurba_marseille","lat":43.304278,"lon":5.388868,"is_reserved":false,"is_disabled":false,"rental_uris":{"android":"levelo://app?vid=355dd538-dcaf-4d18-85d5-09fa5fa3989c","ios":"levelo://app?vid=355dd538-dcaf-4d18-85d5-09fa5fa3989c"},"vehicle_type_id":"4","last_reported":1708452621,"current_range_meters":31200,"station_id":"ce4bgk12rcd13ifvqbi0","pricing_plan_id":"cebpf4jnsgd1na2vs0mg"},{"bike_id":"1fc75f87-acfa-49aa-a046-6d61081598ab","system_id":"levelo_inurba_marseille","lat":43.29609,"lon":5.37719,"is_reserved":false,"is_disabled":false,"rental_uris":{"android":"levelo://app?vid=1fc75f87-acfa-49aa-a046-6d61081598ab","ios":"levelo://app?vid=1fc75f87-acfa-49aa-a046-6d61081598ab"},"vehicle_type_id":"4","last_reported":1708452621,"current_range_meters":30400,"station_id":"","pricing_plan_id":"cebpf4jnsgd1na2vs0mg"},{"bike_id":"3a8ac2c1-b94e-4570-bd9c-3667ca2cbb6b","system_id":"levelo_inurba_marseille","lat":43.29597,"lon":5.37693,"is_reserved":false,"is_disabled":false,"rental_uris":{"android":"levelo://app?vid=3a8ac2c1-b94e-4570-bd9c-3667ca2cbb6b","ios":"levelo://app?vid=3a8ac2c1-b94e-4570-bd9c-3667ca2cbb6b"},"vehicle_type_id":"4","last_reported":1708452621,"current_range_meters":27600,"station_id":"ce4bgi92rcd13ifvqb90","pricing_plan_id":"cebpf4jnsgd1na2vs0mg"},{"bike_id":"0027059a-e008-4086-a6c5-e02277b17bfe","system_id":"levelo_inurba_marseille","lat":43.29979,"lon":5.38478,"is_reserved":false,"is_disabled":false,"rental_uris":{"android":"levelo://app?vid=0027059a-e008-4086-a6c5-e02277b17bfe","ios":"levelo://app?vid=0027059a-e008-4086-a6c5-e02277b17bfe"},"vehicle_type_id":"4","last_reported":1708452621,"current_range_meters":23200,"station_id":"ce4bgj92rcd13ifvqbd0","pricing_plan_id":"cebpf4jnsgd1na2vs0mg"},{"bike_id":"3e707d50-759d-44b2-8297-671ed3979337","system_id":"levelo_inurba_marseille","lat":43.299707,"lon":5.384859,"is_reserved":false,"is_disabled":false,"rental_uris":{"android":"levelo://app?vid=3e707d50-759d-44b2-8297-671ed3979337","ios":"levelo://app?vid=3e707d50-759d-44b2-8297-671ed3979337"},"vehicle_type_id":"4","last_reported":1708452621,"current_range_meters":0,"station_id":"ce4bgj92rcd13ifvqbd0","pricing_plan_id":"cebpf4jnsgd1na2vs0mg"},{"bike_id":"aeadfe48-5cf3-4060-8444-ff97aa0dbdd1","system_id":"levelo_inurba_marseille","lat":43.299707,"lon":5.384859,"is_reserved":false,"is_disabled":false,"rental_uris":{"android":"levelo://app?vid=aeadfe48-5cf3-4060-8444-ff97aa0dbdd1","ios":"levelo://app?vid=aeadfe48-5cf3-4060-8444-ff97aa0dbdd1"},"vehicle_type_id":"4","last_reported":1708452621,"current_range_meters":24000,"station_id":"ce4bgj92rcd13ifvqbd0","pricing_plan_id":"cebpf4jnsgd1na2vs0mg"},{"bike_id":"76164448-3adb-4298-874d-c41506d8e982","system_id":"levelo_inurba_marseille","lat":43.299707,"lon":5.384859,"is_reserved":false,"is_disabled":false,"rental_uris":{"android":"levelo://app?vid=76164448-3adb-4298-874d-c41506d8e982","ios":"levelo://app?vid=76164448-3adb-4298-874d-c41506d8e982"},"vehicle_type_id":"4","last_reported":1708452621,"current_range_meters":14800,"station_id":"ce4bgj92rcd13ifvqbd0","pricing_plan_id":"cebpf4jnsgd1na2vs0mg"},{"bike_id":"3dab5d92-f509-4fb3-bb91-13475edbad85","system_id":"levelo_inurba_marseille","lat":43.299707,"lon":5.384859,"is_reserved":false,"is_disabled":false,"rental_uris":{"android":"levelo://app?vid=3dab5d92-f509-4fb3-bb91-13475edbad85","ios":"levelo://app?vid=3dab5d92-f509-4fb3-bb91-13475edbad85"},"vehicle_type_id":"4","last_reported":1708452621,"current_range_meters":21200,"station_id":"ce4bgj92rcd13ifvqbd0","pricing_plan_id":"cebpf4jnsgd1na2vs0mg"},{"bike_id":"f314e7bd-ca06-4cf9-8637-e99985ffad64","system_id":"levelo_inurba_marseille","lat":43.299717,"lon":5.384845,"is_reserved":false,"is_disabled":false,"rental_uris":{"android":"levelo://app?vid=f314e7bd-ca06-4cf9-8637-e99985ffad64","ios":"levelo://app?vid=f314e7bd-ca06-4cf9-8637-e99985ffad64"},"vehicle_type_id":"4","last_reported":1708452621,"current_range_meters":14400,"station_id":"ce4bgj92rcd13ifvqbd0","pricing_plan_id":"cebpf4jnsgd1na2vs0mg"},{"bike_id":"e0090849-7543-434c-a453-9768f295c103","system_id":"levelo_inurba_marseille","lat":43.29963,"lon":5.3849,"is_reserved":false,"is_disabled":false,"rental_uris":{"android":"levelo://app?vid=e0090849-7543-434c-a453-9768f295c103","ios":"levelo://app?vid=e0090849-7543-434c-a453-9768f295c103"},"vehicle_type_id":"4","last_reported":1708452621,"current_range_meters":1200,"station_id":"ce4bgj92rcd13ifvqbd0","pricing_plan_id":"cebpf4jnsgd1na2vs0mg"},{"bike_id":"5047a16e-f319-4509-bfd4-16fafddace6e","system_id":"levelo_inurba_marseille","lat":43.299717,"lon":5.384845,"is_reserved":false,"is_disabled":false,"rental_uris":{"android":"levelo://app?vid=5047a16e-f319-4509-bfd4-16fafddace6e","ios":"levelo://app?vid=5047a16e-f319-4509-bfd4-16fafddace6e"},"vehicle_type_id":"4","last_reported":1708452621,"current_range_meters":10000,"station_id":"ce4bgj92rcd13ifvqbd0","pricing_plan_id":"cebpf4jnsgd1na2vs0mg"},{"bike_id":"a2b4db2d-6cbf-4404-8e06-a42f312276eb","system_id":"levelo_inurba_marseille","lat":43.299724,"lon":5.384848,"is_reserved":false,"is_disabled":false,"rental_uris":{"android":"levelo://app?vid=a2b4db2d-6cbf-4404-8e06-a42f312276eb","ios":"levelo://app?vid=a2b4db2d-6cbf-4404-8e06-a42f312276eb"},"vehicle_type_id":"4","last_reported":1708452621,"current_range_meters":2800,"station_id":"ce4bgj92rcd13ifvqbd0","pricing_plan_id":"cebpf4jnsgd1na2vs0mg"},{"bike_id":"d8b48207-a2e3-4362-9eb8-e609b6bad274","system_id":"levelo_inurba_marseille","lat":43.29967,"lon":5.38498,"is_reserved":false,"is_disabled":false,"rental_uris":{"android":"levelo://app?vid=d8b48207-a2e3-4362-9eb8-e609b6bad274","ios":"levelo://app?vid=d8b48207-a2e3-4362-9eb8-e609b6bad274"},"vehicle_type_id":"4","last_reported":1708452621,"current_range_meters":0,"station_id":"ce4bgj92rcd13ifvqbd0","pricing_plan_id":"cebpf4jnsgd1na2vs0mg"},{"bike_id":"668c6e2e-a966-4b6b-a3e7-54fd978c50f4","system_id":"levelo_inurba_marseille","lat":43.299707,"lon":5.384859,"is_reserved":false,"is_disabled":false,"rental_uris":{"android":"levelo://app?vid=668c6e2e-a966-4b6b-a3e7-54fd978c50f4","ios":"levelo://app?vid=668c6e2e-a966-4b6b-a3e7-54fd978c50f4"},"vehicle_type_id":"4","last_reported":1708452621,"current_range_meters":14800,"station_id":"ce4bgj92rcd13ifvqbd0","pricing_plan_id":"cebpf4jnsgd1na2vs0mg"},{"bike_id":"b160e9cf-bcdb-477e-bb15-daa7e1ca0434","system_id":"levelo_inurba_marseille","lat":43.29964,"lon":5.385,"is_reserved":false,"is_disabled":false,"rental_uris":{"android":"levelo://app?vid=b160e9cf-bcdb-477e-bb15-daa7e1ca0434","ios":"levelo://app?vid=b160e9cf-bcdb-477e-bb15-daa7e1ca0434"},"vehicle_type_id":"4","last_reported":1708452621,"current_range_meters":11600,"station_id":"ce4bgj92rcd13ifvqbd0","pricing_plan_id":"cebpf4jnsgd1na2vs0mg"},{"bike_id":"a0e3ade2-d77e-4635-a1c2-de592294fb05","system_id":"levelo_inurba_marseille","lat":43.299717,"lon":5.384845,"is_reserved":false,"is_disabled":false,"rental_uris":{"android":"levelo://app?vid=a0e3ade2-d77e-4635-a1c2-de592294fb05","ios":"levelo://app?vid=a0e3ade2-d77e-4635-a1c2-de592294fb05"},"vehicle_type_id":"4","last_reported":1708452621,"current_range_meters":18800,"station_id":"ce4bgj92rcd13ifvqbd0","pricing_plan_id":"cebpf4jnsgd1na2vs0mg"},{"bike_id":"1cf06669-1684-4981-8da5-206b3de18ce1","system_id":"levelo_inurba_marseille","lat":43.296535,"lon":5.379856,"is_reserved":false,"is_disabled":false,"rental_uris":{"android":"levelo://app?vid=1cf06669-1684-4981-8da5-206b3de18ce1","ios":"levelo://app?vid=1cf06669-1684-4981-8da5-206b3de18ce1"},"vehicle_type_id":"4","last_reported":1708452621,"current_range_meters":24000,"station_id":"","pricing_plan_id":"cebpf4jnsgd1na2vs0mg"},{"bike_id":"dd2b6e6b-c5cd-4fb5-8350-793453cf72be","system_id":"levelo_inurba_marseille","lat":43.299534,"lon":5.385324,"is_reserved":false,"is_disabled":false,"rental_uris":{"android":"levelo://app?vid=dd2b6e6b-c5cd-4fb5-8350-793453cf72be","ios":"levelo://app?vid=dd2b6e6b-c5cd-4fb5-8350-793453cf72be"},"vehicle_type_id":"4","last_reported":1708452621,"current_range_meters":22400,"station_id":"ce4bgj92rcd13ifvqbd0","pricing_plan_id":"cebpf4jnsgd1na2vs0mg"},{"bike_id":"7671d002-68d4-4024-8203-235f9470c257","system_id":"levelo_inurba_marseille","lat":43.3232,"lon":5.38887,"is_reserved":false,"is_disabled":false,"rental_uris":{"android":"levelo://app?vid=7671d002-68d4-4024-8203-235f9470c257","ios":"levelo://app?vid=7671d002-68d4-4024-8203-235f9470c257"},"vehicle_type_id":"4","last_reported":1708452621,"current_range_meters":20800,"station_id":"","pricing_plan_id":"cebpf4jnsgd1na2vs0mg"},{"bike_id":"f6d70e1a-28a8-4fd6-82cd-ab78aeaef9da","system_id":"levelo_inurba_marseille","lat":43.32367,"lon":5.388836,"is_reserved":false,"is_disabled":false,"rental_uris":{"android":"levelo://app?vid=f6d70e1a-28a8-4fd6-82cd-ab78aeaef9da","ios":"levelo://app?vid=f6d70e1a-28a8-4fd6-82cd-ab78aeaef9da"},"vehicle_type_id":"4","last_reported":1708452621,"current_range_meters":27600,"station_id":"ce4bhqp2rcd13ifvqhog","pricing_plan_id":"cebpf4jnsgd1na2vs0mg"},{"bike_id":"146e877e-91b7-4571-b34e-bca68e9e556b","system_id":"levelo_inurba_marseille","lat":43.32367,"lon":5.388836,"is_reserved":false,"is_disabled":false,"rental_uris":{"android":"levelo://app?vid=146e877e-91b7-4571-b34e-bca68e9e556b","ios":"levelo://app?vid=146e877e-91b7-4571-b34e-bca68e9e556b"},"vehicle_type_id":"4","last_reported":1708452621,"current_range_meters":25200,"station_id":"ce4bhqp2rcd13ifvqhog","pricing_plan_id":"cebpf4jnsgd1na2vs0mg"},{"bike_id":"0605d24d-f576-4560-a092-4bccfadc3a33","system_id":"levelo_inurba_marseille","lat":43.32367,"lon":5.388836,"is_reserved":false,"is_disabled":false,"rental_uris":{"android":"levelo://app?vid=0605d24d-f576-4560-a092-4bccfadc3a33","ios":"levelo://app?vid=0605d24d-f576-4560-a092-4bccfadc3a33"},"vehicle_type_id":"4","last_reported":1708452621,"current_range_meters":9200,"station_id":"ce4bhqp2rcd13ifvqhog","pricing_plan_id":"cebpf4jnsgd1na2vs0mg"},{"bike_id":"5d13dbc0-e515-4e3c-bf53-5a83d8b7fc54","system_id":"levelo_inurba_marseille","lat":43.32367,"lon":5.388836,"is_reserved":false,"is_disabled":false,"rental_uris":{"android":"levelo://app?vid=5d13dbc0-e515-4e3c-bf53-5a83d8b7fc54","ios":"levelo://app?vid=5d13dbc0-e515-4e3c-bf53-5a83d8b7fc54"},"vehicle_type_id":"4","last_reported":1708452621,"current_range_meters":6400,"station_id":"ce4bhqp2rcd13ifvqhog","pricing_plan_id":"cebpf4jnsgd1na2vs0mg"},{"bike_id":"b8ee4cd7-d179-4e5b-8d8a-3a0572209906","system_id":"levelo_inurba_marseille","lat":43.29602,"lon":5.381084,"is_reserved":false,"is_disabled":false,"rental_uris":{"android":"levelo://app?vid=b8ee4cd7-d179-4e5b-8d8a-3a0572209906","ios":"levelo://app?vid=b8ee4cd7-d179-4e5b-8d8a-3a0572209906"},"vehicle_type_id":"4","last_reported":1708452621,"current_range_meters":28400,"station_id":"ce4bgl12rcd13ifvqbo0","pricing_plan_id":"cebpf4jnsgd1na2vs0mg"},{"bike_id":"feda843c-1469-46a1-a853-bf9dd6924fe4","system_id":"levelo_inurba_marseille","lat":43.29602,"lon":5.381084,"is_reserved":false,"is_disabled":false,"rental_uris":{"android":"levelo://app?vid=feda843c-1469-46a1-a853-bf9dd6924fe4","ios":"levelo://app?vid=feda843c-1469-46a1-a853-bf9dd6924fe4"},"vehicle_type_id":"4","last_reported":1708452621,"current_range_meters":26800,"station_id":"ce4bgl12rcd13ifvqbo0","pricing_plan_id":"cebpf4jnsgd1na2vs0mg"},{"bike_id":"60fb84eb-23b5-468f-bb51-46332a69afcb","system_id":"levelo_inurba_marseille","lat":43.29602,"lon":5.381084,"is_reserved":false,"is_disabled":false,"rental_uris":{"android":"levelo://app?vid=60fb84eb-23b5-468f-bb51-46332a69afcb","ios":"levelo://app?vid=60fb84eb-23b5-468f-bb51-46332a69afcb"},"vehicle_type_id":"4","last_reported":1708452621,"current_range_meters":18800,"station_id":"ce4bgl12rcd13ifvqbo0","pricing_plan_id":"cebpf4jnsgd1na2vs0mg"},{"bike_id":"e729bff1-4bcf-4bcd-9ba7-15a0a8de70bb","system_id":"levelo_inurba_marseille","lat":43.29601,"lon":5.381084,"is_reserved":false,"is_disabled":false,"rental_uris":{"android":"levelo://app?vid=e729bff1-4bcf-4bcd-9ba7-15a0a8de70bb","ios":"levelo://app?vid=e729bff1-4bcf-4bcd-9ba7-15a0a8de70bb"},"vehicle_type_id":"4","last_reported":1708452621,"current_range_meters":2000,"station_id":"ce4bgl12rcd13ifvqbo0","pricing_plan_id":"cebpf4jnsgd1na2vs0mg"},{"bike_id":"ff8783e8-c8ad-4ed0-8344-9ef03f30b01e","system_id":"levelo_inurba_marseille","lat":43.29599,"lon":5.38106,"is_reserved":false,"is_disabled":false,"rental_uris":{"android":"levelo://app?vid=ff8783e8-c8ad-4ed0-8344-9ef03f30b01e","ios":"levelo://app?vid=ff8783e8-c8ad-4ed0-8344-9ef03f30b01e"},"vehicle_type_id":"4","last_reported":1708452621,"current_range_meters":1200,"station_id":"ce4bgl12rcd13ifvqbo0","pricing_plan_id":"cebpf4jnsgd1na2vs0mg"},{"bike_id":"ae98451a-23c3-46c1-867b-331f26a4298f","system_id":"levelo_inurba_marseille","lat":43.292749,"lon":5.368402,"is_reserved":false,"is_disabled":false,"rental_uris":{"android":"levelo://app?vid=ae98451a-23c3-46c1-867b-331f26a4298f","ios":"levelo://app?vid=ae98451a-23c3-46c1-867b-331f26a4298f"},"vehicle_type_id":"4","last_reported":1708452621,"current_range_meters":17600,"station_id":"ce4bhbp2rcd13ifvqesg","pricing_plan_id":"cebpf4jnsgd1na2vs0mg"},{"bike_id":"7f4b6f5f-7e5f-414a-b1ee-1d586d0410bf","system_id":"levelo_inurba_marseille","lat":43.292749,"lon":5.368398,"is_reserved":false,"is_disabled":false,"rental_uris":{"android":"levelo://app?vid=7f4b6f5f-7e5f-414a-b1ee-1d586d0410bf","ios":"levelo://app?vid=7f4b6f5f-7e5f-414a-b1ee-1d586d0410bf"},"vehicle_type_id":"4","last_reported":1708452621,"current_range_meters":0,"station_id":"ce4bhbp2rcd13ifvqesg","pricing_plan_id":"cebpf4jnsgd1na2vs0mg"},{"bike_id":"41196f64-9c75-48a1-99e3-9eec0c523bec","system_id":"levelo_inurba_marseille","lat":43.292749,"lon":5.368398,"is_reserved":false,"is_disabled":false,"rental_uris":{"android":"levelo://app?vid=41196f64-9c75-48a1-99e3-9eec0c523bec","ios":"levelo://app?vid=41196f64-9c75-48a1-99e3-9eec0c523bec"},"vehicle_type_id":"4","last_reported":1708452621,"current_range_meters":0,"station_id":"ce4bhbp2rcd13ifvqesg","pricing_plan_id":"cebpf4jnsgd1na2vs0mg"},{"bike_id":"1d3b8529-bab1-4976-90bf-0179ad3877a4","system_id":"levelo_inurba_marseille","lat":43.29238,"lon":5.36555,"is_reserved":false,"is_disabled":false,"rental_uris":{"android":"levelo://app?vid=1d3b8529-bab1-4976-90bf-0179ad3877a4","ios":"levelo://app?vid=1d3b8529-bab1-4976-90bf-0179ad3877a4"},"vehicle_type_id":"4","last_reported":1708452621,"current_range_meters":0,"station_id":"","pricing_plan_id":"cebpf4jnsgd1na2vs0mg"},{"bike_id":"57d7e38c-bcdc-4b38-a06e-be63f2e8ad2b","system_id":"levelo_inurba_marseille","lat":43.305994,"lon":5.393687,"is_reserved":false,"is_disabled":false,"rental_uris":{"android":"levelo://app?vid=57d7e38c-bcdc-4b38-a06e-be63f2e8ad2b","ios":"levelo://app?vid=57d7e38c-bcdc-4b38-a06e-be63f2e8ad2b"},"vehicle_type_id":"4","last_reported":1708452621,"current_range_meters":0,"station_id":"ce4bh0p2rcd13ifvqd80","pricing_plan_id":"cebpf4jnsgd1na2vs0mg"},{"bike_id":"f650d0ae-68e9-4ac4-b728-d088e7bc27da","system_id":"levelo_inurba_marseille","lat":43.2936,"lon":5.37835,"is_reserved":false,"is_disabled":false,"rental_uris":{"android":"levelo://app?vid=f650d0ae-68e9-4ac4-b728-d088e7bc27da","ios":"levelo://app?vid=f650d0ae-68e9-4ac4-b728-d088e7bc27da"},"vehicle_type_id":"4","last_reported":1708452621,"current_range_meters":7600,"station_id":"ce4bgjh2rcd13ifvqbf0","pricing_plan_id":"cebpf4jnsgd1na2vs0mg"},{"bike_id":"f39b31b9-ff31-43c7-a82b-2207f5e8398c","system_id":"levelo_inurba_marseille","lat":43.303002,"lon":5.392142,"is_reserved":false,"is_disabled":false,"rental_uris":{"android":"levelo://app?vid=f39b31b9-ff31-43c7-a82b-2207f5e8398c","ios":"levelo://app?vid=f39b31b9-ff31-43c7-a82b-2207f5e8398c"},"vehicle_type_id":"4","last_reported":1708452621,"current_range_meters":0,"station_id":"ce4bgkh2rcd13ifvqbk0","pricing_plan_id":"cebpf4jnsgd1na2vs0mg"},{"bike_id":"ced04b86-ef37-48ff-8101-83188245b1bb","system_id":"levelo_inurba_marseille","lat":43.29368,"lon":5.378588,"is_reserved":false,"is_disabled":false,"rental_uris":{"android":"levelo://app?vid=ced04b86-ef37-48ff-8101-83188245b1bb","ios":"levelo://app?vid=ced04b86-ef37-48ff-8101-83188245b1bb"},"vehicle_type_id":"4","last_reported":1708452621,"current_range_meters":0,"station_id":"","pricing_plan_id":"cebpf4jnsgd1na2vs0mg"},{"bike_id":"608e8385-984b-43b5-9138-b2cd76668502","system_id":"levelo_inurba_marseille","lat":43.30085,"lon":5.390856,"is_reserved":false,"is_disabled":false,"rental_uris":{"android":"levelo://app?vid=608e8385-984b-43b5-9138-b2cd76668502","ios":"levelo://app?vid=608e8385-984b-43b5-9138-b2cd76668502"},"vehicle_type_id":"4","last_reported":1708452621,"current_range_meters":19200,"station_id":"ce4bh192rcd13ifvqdb0","pricing_plan_id":"cebpf4jnsgd1na2vs0mg"},{"bike_id":"cc80f94e-2d97-4191-b63b-0e84436960b1","system_id":"levelo_inurba_marseille","lat":43.29226,"lon":5.36058,"is_reserved":false,"is_disabled":false,"rental_uris":{"android":"levelo://app?vid=cc80f94e-2d97-4191-b63b-0e84436960b1","ios":"levelo://app?vid=cc80f94e-2d97-4191-b63b-0e84436960b1"},"vehicle_type_id":"4","last_reported":1708452621,"current_range_meters":4400,"station_id":"ce4bhbh2rcd13ifvqeqg","pricing_plan_id":"cebpf4jnsgd1na2vs0mg"},{"bike_id":"d5d07e11-507f-4841-8ca4-e3ea412f6f3b","system_id":"levelo_inurba_marseille","lat":43.29226,"lon":5.36058,"is_reserved":false,"is_disabled":false,"rental_uris":{"android":"levelo://app?vid=d5d07e11-507f-4841-8ca4-e3ea412f6f3b","ios":"levelo://app?vid=d5d07e11-507f-4841-8ca4-e3ea412f6f3b"},"vehicle_type_id":"4","last_reported":1708452621,"current_range_meters":12400,"station_id":"ce4bhbh2rcd13ifvqeqg","pricing_plan_id":"cebpf4jnsgd1na2vs0mg"},{"bike_id":"777abd95-740d-438f-b914-cd4e68f1e25f","system_id":"levelo_inurba_marseille","lat":43.300852,"lon":5.390859,"is_reserved":false,"is_disabled":false,"rental_uris":{"android":"levelo://app?vid=777abd95-740d-438f-b914-cd4e68f1e25f","ios":"levelo://app?vid=777abd95-740d-438f-b914-cd4e68f1e25f"},"vehicle_type_id":"4","last_reported":1708452621,"current_range_meters":16000,"station_id":"ce4bh192rcd13ifvqdb0","pricing_plan_id":"cebpf4jnsgd1na2vs0mg"},{"bike_id":"52243034-39d1-4aa0-a095-b332e969772b","system_id":"levelo_inurba_marseille","lat":43.291675,"lon":5.371583,"is_reserved":false,"is_disabled":false,"rental_uris":{"android":"levelo://app?vid=52243034-39d1-4aa0-a095-b332e969772b","ios":"levelo://app?vid=52243034-39d1-4aa0-a095-b332e969772b"},"vehicle_type_id":"4","last_reported":1708452621,"current_range_meters":21200,"station_id":"ce4bha92rcd13ifvqeh0","pricing_plan_id":"cebpf4jnsgd1na2vs0mg"},{"bike_id":"592c8551-e0f3-4efb-bf27-e001406eca21","system_id":"levelo_inurba_marseille","lat":43.2988,"lon":5.38912,"is_reserved":false,"is_disabled":false,"rental_uris":{"android":"levelo://app?vid=592c8551-e0f3-4efb-bf27-e001406eca21","ios":"levelo://app?vid=592c8551-e0f3-4efb-bf27-e001406eca21"},"vehicle_type_id":"4","last_reported":1708452621,"current_range_meters":0,"station_id":"ce4bh392rcd13ifvqdl0","pricing_plan_id":"cebpf4jnsgd1na2vs0mg"},{"bike_id":"fe13eb72-9e00-4ac5-b014-7f2008d66011","system_id":"levelo_inurba_marseille","lat":43.298764,"lon":5.388973,"is_reserved":false,"is_disabled":false,"rental_uris":{"android":"levelo://app?vid=fe13eb72-9e00-4ac5-b014-7f2008d66011","ios":"levelo://app?vid=fe13eb72-9e00-4ac5-b014-7f2008d66011"},"vehicle_type_id":"4","last_reported":1708452621,"current_range_meters":21200,"station_id":"ce4bh392rcd13ifvqdl0","pricing_plan_id":"cebpf4jnsgd1na2vs0mg"},{"bike_id":"7e2f6f40-b64d-44d4-bdea-8e9952787b4d","system_id":"levelo_inurba_marseille","lat":43.291923,"lon":5.358077,"is_reserved":false,"is_disabled":false,"rental_uris":{"android":"levelo://app?vid=7e2f6f40-b64d-44d4-bdea-8e9952787b4d","ios":"levelo://app?vid=7e2f6f40-b64d-44d4-bdea-8e9952787b4d"},"vehicle_type_id":"4","last_reported":1708452621,"current_range_meters":3600,"station_id":"ce4bhb12rcd13ifvqel0","pricing_plan_id":"cebpf4jnsgd1na2vs0mg"},{"bike_id":"c7675864-b47b-4d37-a757-396a5e51116a","system_id":"levelo_inurba_marseille","lat":43.313291,"lon":5.396838,"is_reserved":false,"is_disabled":false,"rental_uris":{"android":"levelo://app?vid=c7675864-b47b-4d37-a757-396a5e51116a","ios":"levelo://app?vid=c7675864-b47b-4d37-a757-396a5e51116a"},"vehicle_type_id":"4","last_reported":1708452621,"current_range_meters":30800,"station_id":"ce4bgvp2rcd13ifvqcu0","pricing_plan_id":"cebpf4jnsgd1na2vs0mg"},{"bike_id":"7b5bebcc-d8aa-460e-9f1e-57f4d270ae6a","system_id":"levelo_inurba_marseille","lat":43.291994,"lon":5.357886,"is_reserved":false,"is_disabled":false,"rental_uris":{"android":"levelo://app?vid=7b5bebcc-d8aa-460e-9f1e-57f4d270ae6a","ios":"levelo://app?vid=7b5bebcc-d8aa-460e-9f1e-57f4d270ae6a"},"vehicle_type_id":"4","last_reported":1708452621,"current_range_meters":31200,"station_id":"ce4bhb12rcd13ifvqel0","pricing_plan_id":"cebpf4jnsgd1na2vs0mg"},{"bike_id":"ce0d55f0-c31f-41ce-987c-cb204d8270cf","system_id":"levelo_inurba_marseille","lat":43.313291,"lon":5.396838,"is_reserved":false,"is_disabled":false,"rental_uris":{"android":"levelo://app?vid=ce0d55f0-c31f-41ce-987c-cb204d8270cf","ios":"levelo://app?vid=ce0d55f0-c31f-41ce-987c-cb204d8270cf"},"vehicle_type_id":"4","last_reported":1708452621,"current_range_meters":17600,"station_id":"ce4bgvp2rcd13ifvqcu0","pricing_plan_id":"cebpf4jnsgd1na2vs0mg"},{"bike_id":"5f4a6c0a-75cb-4c23-bdb8-6b2a402dc2d4","system_id":"levelo_inurba_marseille","lat":43.313291,"lon":5.396838,"is_reserved":false,"is_disabled":false,"rental_uris":{"android":"levelo://app?vid=5f4a6c0a-75cb-4c23-bdb8-6b2a402dc2d4","ios":"levelo://app?vid=5f4a6c0a-75cb-4c23-bdb8-6b2a402dc2d4"},"vehicle_type_id":"4","last_reported":1708452621,"current_range_meters":24800,"station_id":"ce4bgvp2rcd13ifvqcu0","pricing_plan_id":"cebpf4jnsgd1na2vs0mg"},{"bike_id":"613bf604-d8d9-4ffb-89ae-506cd677d251","system_id":"levelo_inurba_marseille","lat":43.291994,"lon":5.357886,"is_reserved":false,"is_disabled":false,"rental_uris":{"android":"levelo://app?vid=613bf604-d8d9-4ffb-89ae-506cd677d251","ios":"levelo://app?vid=613bf604-d8d9-4ffb-89ae-506cd677d251"},"vehicle_type_id":"4","last_reported":1708452621,"current_range_meters":26800,"station_id":"ce4bhb12rcd13ifvqel0","pricing_plan_id":"cebpf4jnsgd1na2vs0mg"},{"bike_id":"40f39dc4-8fb3-4f76-9e18-c38ddbfb0357","system_id":"levelo_inurba_marseille","lat":43.290779,"lon":5.371482,"is_reserved":false,"is_disabled":false,"rental_uris":{"android":"levelo://app?vid=40f39dc4-8fb3-4f76-9e18-c38ddbfb0357","ios":"levelo://app?vid=40f39dc4-8fb3-4f76-9e18-c38ddbfb0357"},"vehicle_type_id":"4","last_reported":1708452621,"current_range_meters":14000,"station_id":"ce4bh5p2rcd13ifvqe4g","pricing_plan_id":"cebpf4jnsgd1na2vs0mg"},{"bike_id":"ba169a91-c032-4c72-a776-3023ee1ce0ee","system_id":"levelo_inurba_marseille","lat":43.291994,"lon":5.357886,"is_reserved":false,"is_disabled":false,"rental_uris":{"android":"levelo://app?vid=ba169a91-c032-4c72-a776-3023ee1ce0ee","ios":"levelo://app?vid=ba169a91-c032-4c72-a776-3023ee1ce0ee"},"vehicle_type_id":"4","last_reported":1708452621,"current_range_meters":17600,"station_id":"ce4bhb12rcd13ifvqel0","pricing_plan_id":"cebpf4jnsgd1na2vs0mg"},{"bike_id":"a18a8e53-a21d-4f1c-b971-a459b3adfcde","system_id":"levelo_inurba_marseille","lat":43.313291,"lon":5.396838,"is_reserved":false,"is_disabled":false,"rental_uris":{"android":"levelo://app?vid=a18a8e53-a21d-4f1c-b971-a459b3adfcde","ios":"levelo://app?vid=a18a8e53-a21d-4f1c-b971-a459b3adfcde"},"vehicle_type_id":"4","last_reported":1708452621,"current_range_meters":8400,"station_id":"ce4bgvp2rcd13ifvqcu0","pricing_plan_id":"cebpf4jnsgd1na2vs0mg"},{"bike_id":"7a0398e1-3895-40a6-9cc4-11ace95086c3","system_id":"levelo_inurba_marseille","lat":43.313291,"lon":5.396838,"is_reserved":false,"is_disabled":false,"rental_uris":{"android":"levelo://app?vid=7a0398e1-3895-40a6-9cc4-11ace95086c3","ios":"levelo://app?vid=7a0398e1-3895-40a6-9cc4-11ace95086c3"},"vehicle_type_id":"4","last_reported":1708452621,"current_range_meters":21600,"station_id":"ce4bgvp2rcd13ifvqcu0","pricing_plan_id":"cebpf4jnsgd1na2vs0mg"},{"bike_id":"34a78d8f-16a7-48c2-9f83-7a325f0f9681","system_id":"levelo_inurba_marseille","lat":43.313291,"lon":5.396838,"is_reserved":false,"is_disabled":false,"rental_uris":{"android":"levelo://app?vid=34a78d8f-16a7-48c2-9f83-7a325f0f9681","ios":"levelo://app?vid=34a78d8f-16a7-48c2-9f83-7a325f0f9681"},"vehicle_type_id":"4","last_reported":1708452621,"current_range_meters":20000,"station_id":"ce4bgvp2rcd13ifvqcu0","pricing_plan_id":"cebpf4jnsgd1na2vs0mg"},{"bike_id":"2c890d0c-1c30-42bd-b1d6-d77bb908a57a","system_id":"levelo_inurba_marseille","lat":43.29189,"lon":5.358,"is_reserved":false,"is_disabled":false,"rental_uris":{"android":"levelo://app?vid=2c890d0c-1c30-42bd-b1d6-d77bb908a57a","ios":"levelo://app?vid=2c890d0c-1c30-42bd-b1d6-d77bb908a57a"},"vehicle_type_id":"4","last_reported":1708452621,"current_range_meters":0,"station_id":"ce4bhb12rcd13ifvqel0","pricing_plan_id":"cebpf4jnsgd1na2vs0mg"},{"bike_id":"75de3240-a397-439e-bc4c-2c62d3c50054","system_id":"levelo_inurba_marseille","lat":43.291994,"lon":5.357886,"is_reserved":false,"is_disabled":false,"rental_uris":{"android":"levelo://app?vid=75de3240-a397-439e-bc4c-2c62d3c50054","ios":"levelo://app?vid=75de3240-a397-439e-bc4c-2c62d3c50054"},"vehicle_type_id":"4","last_reported":1708452621,"current_range_meters":6000,"station_id":"ce4bhb12rcd13ifvqel0","pricing_plan_id":"cebpf4jnsgd1na2vs0mg"},{"bike_id":"5ea256f7-79fa-451a-8ab5-05cb3615da89","system_id":"levelo_inurba_marseille","lat":43.313291,"lon":5.396838,"is_reserved":false,"is_disabled":false,"rental_uris":{"android":"levelo://app?vid=5ea256f7-79fa-451a-8ab5-05cb3615da89","ios":"levelo://app?vid=5ea256f7-79fa-451a-8ab5-05cb3615da89"},"vehicle_type_id":"4","last_reported":1708452621,"current_range_meters":7600,"station_id":"ce4bgvp2rcd13ifvqcu0","pricing_plan_id":"cebpf4jnsgd1na2vs0mg"},{"bike_id":"1c8e05e1-50a2-495d-b73e-83b1c65be716","system_id":"levelo_inurba_marseille","lat":43.313291,"lon":5.396838,"is_reserved":false,"is_disabled":false,"rental_uris":{"android":"levelo://app?vid=1c8e05e1-50a2-495d-b73e-83b1c65be716","ios":"levelo://app?vid=1c8e05e1-50a2-495d-b73e-83b1c65be716"},"vehicle_type_id":"4","last_reported":1708452621,"current_range_meters":7600,"station_id":"ce4bgvp2rcd13ifvqcu0","pricing_plan_id":"cebpf4jnsgd1na2vs0mg"},{"bike_id":"e52bcb7d-5436-447c-a776-072e4dc09cdb","system_id":"levelo_inurba_marseille","lat":43.313291,"lon":5.396838,"is_reserved":false,"is_disabled":false,"rental_uris":{"android":"levelo://app?vid=e52bcb7d-5436-447c-a776-072e4dc09cdb","ios":"levelo://app?vid=e52bcb7d-5436-447c-a776-072e4dc09cdb"},"vehicle_type_id":"4","last_reported":1708452621,"current_range_meters":14800,"station_id":"ce4bgvp2rcd13ifvqcu0","pricing_plan_id":"cebpf4jnsgd1na2vs0mg"},{"bike_id":"7bc15d07-8276-49cc-bc1b-3acb384dec26","system_id":"levelo_inurba_marseille","lat":43.313291,"lon":5.396838,"is_reserved":false,"is_disabled":false,"rental_uris":{"android":"levelo://app?vid=7bc15d07-8276-49cc-bc1b-3acb384dec26","ios":"levelo://app?vid=7bc15d07-8276-49cc-bc1b-3acb384dec26"},"vehicle_type_id":"4","last_reported":1708452621,"current_range_meters":15600,"station_id":"ce4bgvp2rcd13ifvqcu0","pricing_plan_id":"cebpf4jnsgd1na2vs0mg"},{"bike_id":"fec329f5-37a2-408b-95c8-85ae581c72f4","system_id":"levelo_inurba_marseille","lat":43.29529,"lon":5.385581,"is_reserved":false,"is_disabled":false,"rental_uris":{"android":"levelo://app?vid=fec329f5-37a2-408b-95c8-85ae581c72f4","ios":"levelo://app?vid=fec329f5-37a2-408b-95c8-85ae581c72f4"},"vehicle_type_id":"4","last_reported":1708452621,"current_range_meters":5200,"station_id":"ce4bgih2rcd13ifvqba0","pricing_plan_id":"cebpf4jnsgd1na2vs0mg"},{"bike_id":"b1cdee1f-53dd-45d2-9675-5659e7800e6a","system_id":"levelo_inurba_marseille","lat":43.29529,"lon":5.385581,"is_reserved":false,"is_disabled":false,"rental_uris":{"android":"levelo://app?vid=b1cdee1f-53dd-45d2-9675-5659e7800e6a","ios":"levelo://app?vid=b1cdee1f-53dd-45d2-9675-5659e7800e6a"},"vehicle_type_id":"4","last_reported":1708452621,"current_range_meters":27600,"station_id":"ce4bgih2rcd13ifvqba0","pricing_plan_id":"cebpf4jnsgd1na2vs0mg"},{"bike_id":"7c8f723f-02dd-4d45-888b-456568f05e8f","system_id":"levelo_inurba_marseille","lat":43.29529,"lon":5.385581,"is_reserved":false,"is_disabled":false,"rental_uris":{"android":"levelo://app?vid=7c8f723f-02dd-4d45-888b-456568f05e8f","ios":"levelo://app?vid=7c8f723f-02dd-4d45-888b-456568f05e8f"},"vehicle_type_id":"4","last_reported":1708452621,"current_range_meters":31200,"station_id":"ce4bgih2rcd13ifvqba0","pricing_plan_id":"cebpf4jnsgd1na2vs0mg"},{"bike_id":"f2277338-aba9-4424-bdae-8aef019ec3a8","system_id":"levelo_inurba_marseille","lat":43.29529,"lon":5.385581,"is_reserved":false,"is_disabled":false,"rental_uris":{"android":"levelo://app?vid=f2277338-aba9-4424-bdae-8aef019ec3a8","ios":"levelo://app?vid=f2277338-aba9-4424-bdae-8aef019ec3a8"},"vehicle_type_id":"4","last_reported":1708452621,"current_range_meters":18800,"station_id":"ce4bgih2rcd13ifvqba0","pricing_plan_id":"cebpf4jnsgd1na2vs0mg"},{"bike_id":"a58c8f17-7fde-4074-aef5-26dca2e9eef8","system_id":"levelo_inurba_marseille","lat":43.29529,"lon":5.385581,"is_reserved":false,"is_disabled":false,"rental_uris":{"android":"levelo://app?vid=a58c8f17-7fde-4074-aef5-26dca2e9eef8","ios":"levelo://app?vid=a58c8f17-7fde-4074-aef5-26dca2e9eef8"},"vehicle_type_id":"4","last_reported":1708452621,"current_range_meters":24400,"station_id":"ce4bgih2rcd13ifvqba0","pricing_plan_id":"cebpf4jnsgd1na2vs0mg"},{"bike_id":"eede4189-8500-446d-a0f6-360faad9081d","system_id":"levelo_inurba_marseille","lat":43.29533,"lon":5.38543,"is_reserved":false,"is_disabled":false,"rental_uris":{"android":"levelo://app?vid=eede4189-8500-446d-a0f6-360faad9081d","ios":"levelo://app?vid=eede4189-8500-446d-a0f6-360faad9081d"},"vehicle_type_id":"4","last_reported":1708452621,"current_range_meters":8400,"station_id":"ce4bgih2rcd13ifvqba0","pricing_plan_id":"cebpf4jnsgd1na2vs0mg"},{"bike_id":"11e75439-0608-4dc7-b736-35c651d34ca3","system_id":"levelo_inurba_marseille","lat":43.29531,"lon":5.38541,"is_reserved":false,"is_disabled":false,"rental_uris":{"android":"levelo://app?vid=11e75439-0608-4dc7-b736-35c651d34ca3","ios":"levelo://app?vid=11e75439-0608-4dc7-b736-35c651d34ca3"},"vehicle_type_id":"4","last_reported":1708452621,"current_range_meters":7600,"station_id":"ce4bgih2rcd13ifvqba0","pricing_plan_id":"cebpf4jnsgd1na2vs0mg"},{"bike_id":"dac86187-5c50-4c3f-964b-962e150e53cf","system_id":"levelo_inurba_marseille","lat":43.29529,"lon":5.385581,"is_reserved":false,"is_disabled":false,"rental_uris":{"android":"levelo://app?vid=dac86187-5c50-4c3f-964b-962e150e53cf","ios":"levelo://app?vid=dac86187-5c50-4c3f-964b-962e150e53cf"},"vehicle_type_id":"4","last_reported":1708452621,"current_range_meters":21200,"station_id":"ce4bgih2rcd13ifvqba0","pricing_plan_id":"cebpf4jnsgd1na2vs0mg"},{"bike_id":"4d2f8640-1087-4682-90b1-e35a69e8851c","system_id":"levelo_inurba_marseille","lat":43.29529,"lon":5.385581,"is_reserved":false,"is_disabled":false,"rental_uris":{"android":"levelo://app?vid=4d2f8640-1087-4682-90b1-e35a69e8851c","ios":"levelo://app?vid=4d2f8640-1087-4682-90b1-e35a69e8851c"},"vehicle_type_id":"4","last_reported":1708452621,"current_range_meters":400,"station_id":"ce4bgih2rcd13ifvqba0","pricing_plan_id":"cebpf4jnsgd1na2vs0mg"},{"bike_id":"4ec7dc53-5a0a-4f4f-bbc5-a58d6335c317","system_id":"levelo_inurba_marseille","lat":43.29529,"lon":5.385581,"is_reserved":false,"is_disabled":false,"rental_uris":{"android":"levelo://app?vid=4ec7dc53-5a0a-4f4f-bbc5-a58d6335c317","ios":"levelo://app?vid=4ec7dc53-5a0a-4f4f-bbc5-a58d6335c317"},"vehicle_type_id":"4","last_reported":1708452621,"current_range_meters":24800,"station_id":"ce4bgih2rcd13ifvqba0","pricing_plan_id":"cebpf4jnsgd1na2vs0mg"},{"bike_id":"ee6804ee-042c-413c-baf3-e1aaddb63717","system_id":"levelo_inurba_marseille","lat":43.29529,"lon":5.385581,"is_reserved":false,"is_disabled":false,"rental_uris":{"android":"levelo://app?vid=ee6804ee-042c-413c-baf3-e1aaddb63717","ios":"levelo://app?vid=ee6804ee-042c-413c-baf3-e1aaddb63717"},"vehicle_type_id":"4","last_reported":1708452621,"current_range_meters":10800,"station_id":"ce4bgih2rcd13ifvqba0","pricing_plan_id":"cebpf4jnsgd1na2vs0mg"},{"bike_id":"5b0d3e8b-ec14-48e2-8805-1eeb295505a8","system_id":"levelo_inurba_marseille","lat":43.29528,"lon":5.38545,"is_reserved":false,"is_disabled":false,"rental_uris":{"android":"levelo://app?vid=5b0d3e8b-ec14-48e2-8805-1eeb295505a8","ios":"levelo://app?vid=5b0d3e8b-ec14-48e2-8805-1eeb295505a8"},"vehicle_type_id":"4","last_reported":1708452621,"current_range_meters":7600,"station_id":"ce4bgih2rcd13ifvqba0","pricing_plan_id":"cebpf4jnsgd1na2vs0mg"},{"bike_id":"8fd64954-2b88-4e62-916e-5a54c2246f3a","system_id":"levelo_inurba_marseille","lat":43.29529,"lon":5.385581,"is_reserved":false,"is_disabled":false,"rental_uris":{"android":"levelo://app?vid=8fd64954-2b88-4e62-916e-5a54c2246f3a","ios":"levelo://app?vid=8fd64954-2b88-4e62-916e-5a54c2246f3a"},"vehicle_type_id":"4","last_reported":1708452621,"current_range_meters":26400,"station_id":"ce4bgih2rcd13ifvqba0","pricing_plan_id":"cebpf4jnsgd1na2vs0mg"},{"bike_id":"cf3944bc-4ca4-4bc8-bdaa-185c778f9910","system_id":"levelo_inurba_marseille","lat":43.29078,"lon":5.37161,"is_reserved":false,"is_disabled":false,"rental_uris":{"android":"levelo://app?vid=cf3944bc-4ca4-4bc8-bdaa-185c778f9910","ios":"levelo://app?vid=cf3944bc-4ca4-4bc8-bdaa-185c778f9910"},"vehicle_type_id":"4","last_reported":1708452621,"current_range_meters":5200,"station_id":"ce4bh5p2rcd13ifvqe4g","pricing_plan_id":"cebpf4jnsgd1na2vs0mg"},{"bike_id":"a8ee379d-a4b6-4da5-b4e0-c5f79af6490c","system_id":"levelo_inurba_marseille","lat":43.29075,"lon":5.37146,"is_reserved":false,"is_disabled":false,"rental_uris":{"android":"levelo://app?vid=a8ee379d-a4b6-4da5-b4e0-c5f79af6490c","ios":"levelo://app?vid=a8ee379d-a4b6-4da5-b4e0-c5f79af6490c"},"vehicle_type_id":"4","last_reported":1708452621,"current_range_meters":3200,"station_id":"ce4bh5p2rcd13ifvqe4g","pricing_plan_id":"cebpf4jnsgd1na2vs0mg"},{"bike_id":"2a67bff5-207b-4592-a946-c5c9896acf5c","system_id":"levelo_inurba_marseille","lat":43.29071,"lon":5.37152,"is_reserved":false,"is_disabled":false,"rental_uris":{"android":"levelo://app?vid=2a67bff5-207b-4592-a946-c5c9896acf5c","ios":"levelo://app?vid=2a67bff5-207b-4592-a946-c5c9896acf5c"},"vehicle_type_id":"4","last_reported":1708452621,"current_range_meters":0,"station_id":"ce4bh5p2rcd13ifvqe4g","pricing_plan_id":"cebpf4jnsgd1na2vs0mg"},{"bike_id":"aa9c07fe-10a9-4245-9189-1d91e672967f","system_id":"levelo_inurba_marseille","lat":43.290779,"lon":5.371482,"is_reserved":false,"is_disabled":false,"rental_uris":{"android":"levelo://app?vid=aa9c07fe-10a9-4245-9189-1d91e672967f","ios":"levelo://app?vid=aa9c07fe-10a9-4245-9189-1d91e672967f"},"vehicle_type_id":"4","last_reported":1708452621,"current_range_meters":1200,"station_id":"ce4bh5p2rcd13ifvqe4g","pricing_plan_id":"cebpf4jnsgd1na2vs0mg"},{"bike_id":"7d142064-d61b-4610-b1b7-edc102b19879","system_id":"levelo_inurba_marseille","lat":43.313291,"lon":5.396838,"is_reserved":false,"is_disabled":false,"rental_uris":{"android":"levelo://app?vid=7d142064-d61b-4610-b1b7-edc102b19879","ios":"levelo://app?vid=7d142064-d61b-4610-b1b7-edc102b19879"},"vehicle_type_id":"4","last_reported":1708452621,"current_range_meters":7600,"station_id":"ce4bgvp2rcd13ifvqcu0","pricing_plan_id":"cebpf4jnsgd1na2vs0mg"},{"bike_id":"20bc340f-40b8-42ba-ac8d-08dd3d7db221","system_id":"levelo_inurba_marseille","lat":43.302008,"lon":5.394694,"is_reserved":false,"is_disabled":false,"rental_uris":{"android":"levelo://app?vid=20bc340f-40b8-42ba-ac8d-08dd3d7db221","ios":"levelo://app?vid=20bc340f-40b8-42ba-ac8d-08dd3d7db221"},"vehicle_type_id":"4","last_reported":1708452621,"current_range_meters":0,"station_id":"ce4bh0p2rcd13ifvqd70","pricing_plan_id":"cebpf4jnsgd1na2vs0mg"},{"bike_id":"0959b3c1-686d-4c14-a9e7-d1bb7eda1d4a","system_id":"levelo_inurba_marseille","lat":43.290631,"lon":5.359244,"is_reserved":false,"is_disabled":false,"rental_uris":{"android":"levelo://app?vid=0959b3c1-686d-4c14-a9e7-d1bb7eda1d4a","ios":"levelo://app?vid=0959b3c1-686d-4c14-a9e7-d1bb7eda1d4a"},"vehicle_type_id":"4","last_reported":1708452621,"current_range_meters":2800,"station_id":"ce4bha92rcd13ifvqeg0","pricing_plan_id":"cebpf4jnsgd1na2vs0mg"},{"bike_id":"abff4a3f-811f-4675-8d9c-d5fe6e6e18a3","system_id":"levelo_inurba_marseille","lat":43.290624,"lon":5.359245,"is_reserved":false,"is_disabled":false,"rental_uris":{"android":"levelo://app?vid=abff4a3f-811f-4675-8d9c-d5fe6e6e18a3","ios":"levelo://app?vid=abff4a3f-811f-4675-8d9c-d5fe6e6e18a3"},"vehicle_type_id":"4","last_reported":1708452621,"current_range_meters":0,"station_id":"ce4bha92rcd13ifvqeg0","pricing_plan_id":"cebpf4jnsgd1na2vs0mg"},{"bike_id":"eaf5afeb-6fac-4477-8710-3a8c6a3c142e","system_id":"levelo_inurba_marseille","lat":43.290631,"lon":5.359244,"is_reserved":false,"is_disabled":false,"rental_uris":{"android":"levelo://app?vid=eaf5afeb-6fac-4477-8710-3a8c6a3c142e","ios":"levelo://app?vid=eaf5afeb-6fac-4477-8710-3a8c6a3c142e"},"vehicle_type_id":"4","last_reported":1708452621,"current_range_meters":14800,"station_id":"ce4bha92rcd13ifvqeg0","pricing_plan_id":"cebpf4jnsgd1na2vs0mg"},{"bike_id":"e1f10d98-dbae-447a-a279-86c5d730fae6","system_id":"levelo_inurba_marseille","lat":43.29422,"lon":5.38622,"is_reserved":false,"is_disabled":false,"rental_uris":{"android":"levelo://app?vid=e1f10d98-dbae-447a-a279-86c5d730fae6","ios":"levelo://app?vid=e1f10d98-dbae-447a-a279-86c5d730fae6"},"vehicle_type_id":"4","last_reported":1708452621,"current_range_meters":16800,"station_id":"ce4bh2h2rcd13ifvqdh0","pricing_plan_id":"cebpf4jnsgd1na2vs0mg"},{"bike_id":"7910332d-ac7b-43b8-8058-fdde510f2567","system_id":"levelo_inurba_marseille","lat":43.289184,"lon":5.366408,"is_reserved":false,"is_disabled":false,"rental_uris":{"android":"levelo://app?vid=7910332d-ac7b-43b8-8058-fdde510f2567","ios":"levelo://app?vid=7910332d-ac7b-43b8-8058-fdde510f2567"},"vehicle_type_id":"4","last_reported":1708452621,"current_range_meters":24000,"station_id":"ce4bhap2rcd13ifvqek0","pricing_plan_id":"cebpf4jnsgd1na2vs0mg"},{"bike_id":"cab739b2-ff10-48d1-930c-9a302712067a","system_id":"levelo_inurba_marseille","lat":43.294153,"lon":5.386305,"is_reserved":false,"is_disabled":false,"rental_uris":{"android":"levelo://app?vid=cab739b2-ff10-48d1-930c-9a302712067a","ios":"levelo://app?vid=cab739b2-ff10-48d1-930c-9a302712067a"},"vehicle_type_id":"4","last_reported":1708452621,"current_range_meters":16400,"station_id":"ce4bh2h2rcd13ifvqdh0","pricing_plan_id":"cebpf4jnsgd1na2vs0mg"},{"bike_id":"03e1884a-3b45-4260-aa9c-de664e0999d7","system_id":"levelo_inurba_marseille","lat":43.290327,"lon":5.375711,"is_reserved":false,"is_disabled":false,"rental_uris":{"android":"levelo://app?vid=03e1884a-3b45-4260-aa9c-de664e0999d7","ios":"levelo://app?vid=03e1884a-3b45-4260-aa9c-de664e0999d7"},"vehicle_type_id":"4","last_reported":1708452621,"current_range_meters":26000,"station_id":"ce4bh692rcd13ifvqe90","pricing_plan_id":"cebpf4jnsgd1na2vs0mg"},{"bike_id":"50f4670b-1122-485b-9616-bf26103d4b38","system_id":"levelo_inurba_marseille","lat":43.29417,"lon":5.38622,"is_reserved":false,"is_disabled":false,"rental_uris":{"android":"levelo://app?vid=50f4670b-1122-485b-9616-bf26103d4b38","ios":"levelo://app?vid=50f4670b-1122-485b-9616-bf26103d4b38"},"vehicle_type_id":"4","last_reported":1708452621,"current_range_meters":8000,"station_id":"ce4bh2h2rcd13ifvqdh0","pricing_plan_id":"cebpf4jnsgd1na2vs0mg"},{"bike_id":"65cf0844-088e-46c1-b778-dc8803f4b824","system_id":"levelo_inurba_marseille","lat":43.290327,"lon":5.375711,"is_reserved":false,"is_disabled":false,"rental_uris":{"android":"levelo://app?vid=65cf0844-088e-46c1-b778-dc8803f4b824","ios":"levelo://app?vid=65cf0844-088e-46c1-b778-dc8803f4b824"},"vehicle_type_id":"4","last_reported":1708452621,"current_range_meters":0,"station_id":"ce4bh692rcd13ifvqe90","pricing_plan_id":"cebpf4jnsgd1na2vs0mg"},{"bike_id":"b723bb30-dbb4-4f56-9e9a-7cc0d075d08e","system_id":"levelo_inurba_marseille","lat":43.29415,"lon":5.38624,"is_reserved":false,"is_disabled":false,"rental_uris":{"android":"levelo://app?vid=b723bb30-dbb4-4f56-9e9a-7cc0d075d08e","ios":"levelo://app?vid=b723bb30-dbb4-4f56-9e9a-7cc0d075d08e"},"vehicle_type_id":"4","last_reported":1708452621,"current_range_meters":0,"station_id":"ce4bh2h2rcd13ifvqdh0","pricing_plan_id":"cebpf4jnsgd1na2vs0mg"},{"bike_id":"5d99c559-cccb-4e88-a1fc-e7703fb8eeee","system_id":"levelo_inurba_marseille","lat":43.29415,"lon":5.38626,"is_reserved":false,"is_disabled":false,"rental_uris":{"android":"levelo://app?vid=5d99c559-cccb-4e88-a1fc-e7703fb8eeee","ios":"levelo://app?vid=5d99c559-cccb-4e88-a1fc-e7703fb8eeee"},"vehicle_type_id":"4","last_reported":1708452621,"current_range_meters":26800,"station_id":"ce4bh2h2rcd13ifvqdh0","pricing_plan_id":"cebpf4jnsgd1na2vs0mg"},{"bike_id":"4b442917-8bdb-4e12-8092-641e177c619a","system_id":"levelo_inurba_marseille","lat":43.29028,"lon":5.37552,"is_reserved":false,"is_disabled":false,"rental_uris":{"android":"levelo://app?vid=4b442917-8bdb-4e12-8092-641e177c619a","ios":"levelo://app?vid=4b442917-8bdb-4e12-8092-641e177c619a"},"vehicle_type_id":"4","last_reported":1708452621,"current_range_meters":0,"station_id":"ce4bh692rcd13ifvqe90","pricing_plan_id":"cebpf4jnsgd1na2vs0mg"},{"bike_id":"e46667de-922d-4499-93b0-8643dcea8885","system_id":"levelo_inurba_marseille","lat":43.28942,"lon":5.36622,"is_reserved":false,"is_disabled":false,"rental_uris":{"android":"levelo://app?vid=e46667de-922d-4499-93b0-8643dcea8885","ios":"levelo://app?vid=e46667de-922d-4499-93b0-8643dcea8885"},"vehicle_type_id":"4","last_reported":1708452621,"current_range_meters":30000,"station_id":"ce4bhap2rcd13ifvqek0","pricing_plan_id":"cebpf4jnsgd1na2vs0mg"},{"bike_id":"ba3f2bf0-f485-4d5b-a58a-278713024782","system_id":"levelo_inurba_marseille","lat":43.28938,"lon":5.36629,"is_reserved":false,"is_disabled":false,"rental_uris":{"android":"levelo://app?vid=ba3f2bf0-f485-4d5b-a58a-278713024782","ios":"levelo://app?vid=ba3f2bf0-f485-4d5b-a58a-278713024782"},"vehicle_type_id":"4","last_reported":1708452621,"current_range_meters":25200,"station_id":"ce4bhap2rcd13ifvqek0","pricing_plan_id":"cebpf4jnsgd1na2vs0mg"},{"bike_id":"2cdd0905-52d6-4fc5-a1a7-5056dbcbed26","system_id":"levelo_inurba_marseille","lat":43.28937,"lon":5.3663,"is_reserved":false,"is_disabled":false,"rental_uris":{"android":"levelo://app?vid=2cdd0905-52d6-4fc5-a1a7-5056dbcbed26","ios":"levelo://app?vid=2cdd0905-52d6-4fc5-a1a7-5056dbcbed26"},"vehicle_type_id":"4","last_reported":1708452621,"current_range_meters":30000,"station_id":"ce4bhap2rcd13ifvqek0","pricing_plan_id":"cebpf4jnsgd1na2vs0mg"},{"bike_id":"fd43081d-44e8-45b2-831a-30b9e66eb2c9","system_id":"levelo_inurba_marseille","lat":43.289337,"lon":5.366413,"is_reserved":false,"is_disabled":false,"rental_uris":{"android":"levelo://app?vid=fd43081d-44e8-45b2-831a-30b9e66eb2c9","ios":"levelo://app?vid=fd43081d-44e8-45b2-831a-30b9e66eb2c9"},"vehicle_type_id":"4","last_reported":1708452621,"current_range_meters":30400,"station_id":"ce4bhap2rcd13ifvqek0","pricing_plan_id":"cebpf4jnsgd1na2vs0mg"},{"bike_id":"b260e0ac-00a9-488d-abf3-65aa20519797","system_id":"levelo_inurba_marseille","lat":43.289184,"lon":5.366408,"is_reserved":false,"is_disabled":false,"rental_uris":{"android":"levelo://app?vid=b260e0ac-00a9-488d-abf3-65aa20519797","ios":"levelo://app?vid=b260e0ac-00a9-488d-abf3-65aa20519797"},"vehicle_type_id":"4","last_reported":1708452621,"current_range_meters":8400,"station_id":"ce4bhap2rcd13ifvqek0","pricing_plan_id":"cebpf4jnsgd1na2vs0mg"},{"bike_id":"16a02c23-b1a3-4ba1-8c25-4cea140bb0a6","system_id":"levelo_inurba_marseille","lat":43.289345,"lon":5.363938,"is_reserved":false,"is_disabled":false,"rental_uris":{"android":"levelo://app?vid=16a02c23-b1a3-4ba1-8c25-4cea140bb0a6","ios":"levelo://app?vid=16a02c23-b1a3-4ba1-8c25-4cea140bb0a6"},"vehicle_type_id":"4","last_reported":1708452621,"current_range_meters":25200,"station_id":"ce4bhc92rcd13ifvqetg","pricing_plan_id":"cebpf4jnsgd1na2vs0mg"},{"bike_id":"029539cc-b2e8-40ea-a0f1-0e9ccf5fd2bc","system_id":"levelo_inurba_marseille","lat":43.2928,"lon":5.38435,"is_reserved":false,"is_disabled":false,"rental_uris":{"android":"levelo://app?vid=029539cc-b2e8-40ea-a0f1-0e9ccf5fd2bc","ios":"levelo://app?vid=029539cc-b2e8-40ea-a0f1-0e9ccf5fd2bc"},"vehicle_type_id":"4","last_reported":1708452621,"current_range_meters":20000,"station_id":"ce4bh692rcd13ifvqea0","pricing_plan_id":"cebpf4jnsgd1na2vs0mg"},{"bike_id":"ce98a232-f2df-4caa-ac44-5e4c1af2de41","system_id":"levelo_inurba_marseille","lat":43.29278,"lon":5.38446,"is_reserved":false,"is_disabled":false,"rental_uris":{"android":"levelo://app?vid=ce98a232-f2df-4caa-ac44-5e4c1af2de41","ios":"levelo://app?vid=ce98a232-f2df-4caa-ac44-5e4c1af2de41"},"vehicle_type_id":"4","last_reported":1708452621,"current_range_meters":4400,"station_id":"ce4bh692rcd13ifvqea0","pricing_plan_id":"cebpf4jnsgd1na2vs0mg"},{"bike_id":"5bc09d91-8544-4f5d-b7cf-714f59824b77","system_id":"levelo_inurba_marseille","lat":43.292642,"lon":5.384254,"is_reserved":false,"is_disabled":false,"rental_uris":{"android":"levelo://app?vid=5bc09d91-8544-4f5d-b7cf-714f59824b77","ios":"levelo://app?vid=5bc09d91-8544-4f5d-b7cf-714f59824b77"},"vehicle_type_id":"4","last_reported":1708452621,"current_range_meters":26400,"station_id":"ce4bh692rcd13ifvqea0","pricing_plan_id":"cebpf4jnsgd1na2vs0mg"},{"bike_id":"3df7843d-e670-45a3-b768-8a7b4937bdf2","system_id":"levelo_inurba_marseille","lat":43.29269,"lon":5.38439,"is_reserved":false,"is_disabled":false,"rental_uris":{"android":"levelo://app?vid=3df7843d-e670-45a3-b768-8a7b4937bdf2","ios":"levelo://app?vid=3df7843d-e670-45a3-b768-8a7b4937bdf2"},"vehicle_type_id":"4","last_reported":1708452621,"current_range_meters":1200,"station_id":"ce4bh692rcd13ifvqea0","pricing_plan_id":"cebpf4jnsgd1na2vs0mg"},{"bike_id":"7f371267-7ed6-4052-8974-47647d6272f6","system_id":"levelo_inurba_marseille","lat":43.29269,"lon":5.38439,"is_reserved":false,"is_disabled":false,"rental_uris":{"android":"levelo://app?vid=7f371267-7ed6-4052-8974-47647d6272f6","ios":"levelo://app?vid=7f371267-7ed6-4052-8974-47647d6272f6"},"vehicle_type_id":"4","last_reported":1708452621,"current_range_meters":26400,"station_id":"ce4bh692rcd13ifvqea0","pricing_plan_id":"cebpf4jnsgd1na2vs0mg"},{"bike_id":"b921c74b-63a3-432a-8995-402c6dcee1b3","system_id":"levelo_inurba_marseille","lat":43.292642,"lon":5.384254,"is_reserved":false,"is_disabled":false,"rental_uris":{"android":"levelo://app?vid=b921c74b-63a3-432a-8995-402c6dcee1b3","ios":"levelo://app?vid=b921c74b-63a3-432a-8995-402c6dcee1b3"},"vehicle_type_id":"4","last_reported":1708452621,"current_range_meters":0,"station_id":"ce4bh692rcd13ifvqea0","pricing_plan_id":"cebpf4jnsgd1na2vs0mg"},{"bike_id":"f1a8d203-42a7-4f50-ad77-4e340867fadd","system_id":"levelo_inurba_marseille","lat":43.29268,"lon":5.38448,"is_reserved":false,"is_disabled":false,"rental_uris":{"android":"levelo://app?vid=f1a8d203-42a7-4f50-ad77-4e340867fadd","ios":"levelo://app?vid=f1a8d203-42a7-4f50-ad77-4e340867fadd"},"vehicle_type_id":"4","last_reported":1708452621,"current_range_meters":11600,"station_id":"ce4bh692rcd13ifvqea0","pricing_plan_id":"cebpf4jnsgd1na2vs0mg"},{"bike_id":"62fedc8d-0503-4d4b-b040-286e1835004c","system_id":"levelo_inurba_marseille","lat":43.29264,"lon":5.384403,"is_reserved":false,"is_disabled":false,"rental_uris":{"android":"levelo://app?vid=62fedc8d-0503-4d4b-b040-286e1835004c","ios":"levelo://app?vid=62fedc8d-0503-4d4b-b040-286e1835004c"},"vehicle_type_id":"4","last_reported":1708452621,"current_range_meters":12000,"station_id":"ce4bh692rcd13ifvqea0","pricing_plan_id":"cebpf4jnsgd1na2vs0mg"},{"bike_id":"876a2874-ef5c-494d-81a1-7a05ffb17095","system_id":"levelo_inurba_marseille","lat":43.292642,"lon":5.384254,"is_reserved":false,"is_disabled":false,"rental_uris":{"android":"levelo://app?vid=876a2874-ef5c-494d-81a1-7a05ffb17095","ios":"levelo://app?vid=876a2874-ef5c-494d-81a1-7a05ffb17095"},"vehicle_type_id":"4","last_reported":1708452621,"current_range_meters":14000,"station_id":"ce4bh692rcd13ifvqea0","pricing_plan_id":"cebpf4jnsgd1na2vs0mg"},{"bike_id":"ddaf321a-8bd8-4cab-9112-8dcef06dadfa","system_id":"levelo_inurba_marseille","lat":43.29263,"lon":5.38441,"is_reserved":false,"is_disabled":false,"rental_uris":{"android":"levelo://app?vid=ddaf321a-8bd8-4cab-9112-8dcef06dadfa","ios":"levelo://app?vid=ddaf321a-8bd8-4cab-9112-8dcef06dadfa"},"vehicle_type_id":"4","last_reported":1708452621,"current_range_meters":0,"station_id":"ce4bh692rcd13ifvqea0","pricing_plan_id":"cebpf4jnsgd1na2vs0mg"},{"bike_id":"ed377c52-3a8c-44fa-819b-c38f0daec16d","system_id":"levelo_inurba_marseille","lat":43.29265,"lon":5.38447,"is_reserved":false,"is_disabled":false,"rental_uris":{"android":"levelo://app?vid=ed377c52-3a8c-44fa-819b-c38f0daec16d","ios":"levelo://app?vid=ed377c52-3a8c-44fa-819b-c38f0daec16d"},"vehicle_type_id":"4","last_reported":1708452621,"current_range_meters":0,"station_id":"ce4bh692rcd13ifvqea0","pricing_plan_id":"cebpf4jnsgd1na2vs0mg"},{"bike_id":"6b8df521-25e6-4bdb-b239-5dcbb85f9bbb","system_id":"levelo_inurba_marseille","lat":43.29263,"lon":5.3845,"is_reserved":false,"is_disabled":false,"rental_uris":{"android":"levelo://app?vid=6b8df521-25e6-4bdb-b239-5dcbb85f9bbb","ios":"levelo://app?vid=6b8df521-25e6-4bdb-b239-5dcbb85f9bbb"},"vehicle_type_id":"4","last_reported":1708452621,"current_range_meters":4400,"station_id":"ce4bh692rcd13ifvqea0","pricing_plan_id":"cebpf4jnsgd1na2vs0mg"},{"bike_id":"1e720c21-cb7f-43c5-93f6-c392f7dbb9e0","system_id":"levelo_inurba_marseille","lat":43.2926,"lon":5.38453,"is_reserved":false,"is_disabled":false,"rental_uris":{"android":"levelo://app?vid=1e720c21-cb7f-43c5-93f6-c392f7dbb9e0","ios":"levelo://app?vid=1e720c21-cb7f-43c5-93f6-c392f7dbb9e0"},"vehicle_type_id":"4","last_reported":1708452621,"current_range_meters":4800,"station_id":"ce4bh692rcd13ifvqea0","pricing_plan_id":"cebpf4jnsgd1na2vs0mg"},{"bike_id":"77ebddb2-e905-4b16-84ae-779bb176bf9d","system_id":"levelo_inurba_marseille","lat":43.29258,"lon":5.38449,"is_reserved":false,"is_disabled":false,"rental_uris":{"android":"levelo://app?vid=77ebddb2-e905-4b16-84ae-779bb176bf9d","ios":"levelo://app?vid=77ebddb2-e905-4b16-84ae-779bb176bf9d"},"vehicle_type_id":"4","last_reported":1708452621,"current_range_meters":0,"station_id":"ce4bh692rcd13ifvqea0","pricing_plan_id":"cebpf4jnsgd1na2vs0mg"},{"bike_id":"d0f642e7-234c-42c3-8a42-eb60a5f6798e","system_id":"levelo_inurba_marseille","lat":43.289184,"lon":5.366408,"is_reserved":false,"is_disabled":false,"rental_uris":{"android":"levelo://app?vid=d0f642e7-234c-42c3-8a42-eb60a5f6798e","ios":"levelo://app?vid=d0f642e7-234c-42c3-8a42-eb60a5f6798e"},"vehicle_type_id":"4","last_reported":1708452621,"current_range_meters":13600,"station_id":"ce4bhap2rcd13ifvqek0","pricing_plan_id":"cebpf4jnsgd1na2vs0mg"},{"bike_id":"64c8a977-e817-4529-bbbf-d54830de4873","system_id":"levelo_inurba_marseille","lat":43.29103,"lon":5.38085,"is_reserved":false,"is_disabled":false,"rental_uris":{"android":"levelo://app?vid=64c8a977-e817-4529-bbbf-d54830de4873","ios":"levelo://app?vid=64c8a977-e817-4529-bbbf-d54830de4873"},"vehicle_type_id":"4","last_reported":1708452621,"current_range_meters":12400,"station_id":"","pricing_plan_id":"cebpf4jnsgd1na2vs0mg"},{"bike_id":"c7a002ec-4ed9-465a-9b03-4309d606c548","system_id":"levelo_inurba_marseille","lat":43.294162,"lon":5.386292,"is_reserved":false,"is_disabled":false,"rental_uris":{"android":"levelo://app?vid=c7a002ec-4ed9-465a-9b03-4309d606c548","ios":"levelo://app?vid=c7a002ec-4ed9-465a-9b03-4309d606c548"},"vehicle_type_id":"4","last_reported":1708452621,"current_range_meters":10000,"station_id":"ce4bh2h2rcd13ifvqdh0","pricing_plan_id":"cebpf4jnsgd1na2vs0mg"},{"bike_id":"89c7f595-c9a7-4a14-a71e-4bfaac1f8575","system_id":"levelo_inurba_marseille","lat":43.290104,"lon":5.356111,"is_reserved":false,"is_disabled":false,"rental_uris":{"android":"levelo://app?vid=89c7f595-c9a7-4a14-a71e-4bfaac1f8575","ios":"levelo://app?vid=89c7f595-c9a7-4a14-a71e-4bfaac1f8575"},"vehicle_type_id":"4","last_reported":1708452621,"current_range_meters":5200,"station_id":"ce4bhb92rcd13ifvqen0","pricing_plan_id":"cebpf4jnsgd1na2vs0mg"},{"bike_id":"e3fde03e-ae5a-4384-90d9-9cb4d5358d7a","system_id":"levelo_inurba_marseille","lat":43.290104,"lon":5.356111,"is_reserved":false,"is_disabled":false,"rental_uris":{"android":"levelo://app?vid=e3fde03e-ae5a-4384-90d9-9cb4d5358d7a","ios":"levelo://app?vid=e3fde03e-ae5a-4384-90d9-9cb4d5358d7a"},"vehicle_type_id":"4","last_reported":1708452621,"current_range_meters":3200,"station_id":"ce4bhb92rcd13ifvqen0","pricing_plan_id":"cebpf4jnsgd1na2vs0mg"},{"bike_id":"742489f5-24e6-4dc1-a139-711c770616de","system_id":"levelo_inurba_marseille","lat":43.29005,"lon":5.35611,"is_reserved":false,"is_disabled":false,"rental_uris":{"android":"levelo://app?vid=742489f5-24e6-4dc1-a139-711c770616de","ios":"levelo://app?vid=742489f5-24e6-4dc1-a139-711c770616de"},"vehicle_type_id":"4","last_reported":1708452621,"current_range_meters":10000,"station_id":"ce4bhb92rcd13ifvqen0","pricing_plan_id":"cebpf4jnsgd1na2vs0mg"},{"bike_id":"91b9cac8-1969-4762-9b1d-30b13b83dca7","system_id":"levelo_inurba_marseille","lat":43.292642,"lon":5.384254,"is_reserved":false,"is_disabled":false,"rental_uris":{"android":"levelo://app?vid=91b9cac8-1969-4762-9b1d-30b13b83dca7","ios":"levelo://app?vid=91b9cac8-1969-4762-9b1d-30b13b83dca7"},"vehicle_type_id":"4","last_reported":1708452621,"current_range_meters":24400,"station_id":"ce4bh692rcd13ifvqea0","pricing_plan_id":"cebpf4jnsgd1na2vs0mg"},{"bike_id":"b19856d8-46fc-47bb-90b0-cf1c83f71374","system_id":"levelo_inurba_marseille","lat":43.290995,"lon":5.381361,"is_reserved":false,"is_disabled":false,"rental_uris":{"android":"levelo://app?vid=b19856d8-46fc-47bb-90b0-cf1c83f71374","ios":"levelo://app?vid=b19856d8-46fc-47bb-90b0-cf1c83f71374"},"vehicle_type_id":"4","last_reported":1708452621,"current_range_meters":23600,"station_id":"ce4bh512rcd13ifvqe2g","pricing_plan_id":"cebpf4jnsgd1na2vs0mg"},{"bike_id":"1547c70c-4fc7-4708-b438-b105c683f475","system_id":"levelo_inurba_marseille","lat":43.290995,"lon":5.381361,"is_reserved":false,"is_disabled":false,"rental_uris":{"android":"levelo://app?vid=1547c70c-4fc7-4708-b438-b105c683f475","ios":"levelo://app?vid=1547c70c-4fc7-4708-b438-b105c683f475"},"vehicle_type_id":"4","last_reported":1708452621,"current_range_meters":0,"station_id":"ce4bh512rcd13ifvqe2g","pricing_plan_id":"cebpf4jnsgd1na2vs0mg"},{"bike_id":"cbd0e5ec-4671-45d0-9243-2a6a9e381160","system_id":"levelo_inurba_marseille","lat":43.290995,"lon":5.381361,"is_reserved":false,"is_disabled":false,"rental_uris":{"android":"levelo://app?vid=cbd0e5ec-4671-45d0-9243-2a6a9e381160","ios":"levelo://app?vid=cbd0e5ec-4671-45d0-9243-2a6a9e381160"},"vehicle_type_id":"4","last_reported":1708452621,"current_range_meters":4400,"station_id":"ce4bh512rcd13ifvqe2g","pricing_plan_id":"cebpf4jnsgd1na2vs0mg"},{"bike_id":"cfa6ff4d-8c66-413c-a41a-9736b0430fab","system_id":"levelo_inurba_marseille","lat":43.297815,"lon":5.393548,"is_reserved":false,"is_disabled":false,"rental_uris":{"android":"levelo://app?vid=cfa6ff4d-8c66-413c-a41a-9736b0430fab","ios":"levelo://app?vid=cfa6ff4d-8c66-413c-a41a-9736b0430fab"},"vehicle_type_id":"4","last_reported":1708452621,"current_range_meters":16800,"station_id":"chh1huq6cuj3fo74tm60","pricing_plan_id":"cebpf4jnsgd1na2vs0mg"},{"bike_id":"d879b9ed-680d-4f43-a0b0-59142860b41d","system_id":"levelo_inurba_marseille","lat":43.295169,"lon":5.390426,"is_reserved":false,"is_disabled":false,"rental_uris":{"android":"levelo://app?vid=d879b9ed-680d-4f43-a0b0-59142860b41d","ios":"levelo://app?vid=d879b9ed-680d-4f43-a0b0-59142860b41d"},"vehicle_type_id":"4","last_reported":1708452621,"current_range_meters":22000,"station_id":"ce4bh3p2rcd13ifvqdp0","pricing_plan_id":"cebpf4jnsgd1na2vs0mg"},{"bike_id":"e2ecf281-cd05-4395-a703-3d49acc9a7d0","system_id":"levelo_inurba_marseille","lat":43.297815,"lon":5.393548,"is_reserved":false,"is_disabled":false,"rental_uris":{"android":"levelo://app?vid=e2ecf281-cd05-4395-a703-3d49acc9a7d0","ios":"levelo://app?vid=e2ecf281-cd05-4395-a703-3d49acc9a7d0"},"vehicle_type_id":"4","last_reported":1708452621,"current_range_meters":7200,"station_id":"chh1huq6cuj3fo74tm60","pricing_plan_id":"cebpf4jnsgd1na2vs0mg"},{"bike_id":"0c66d45f-e5b6-46b6-b48d-4c2e169469d5","system_id":"levelo_inurba_marseille","lat":43.330442,"lon":5.389148,"is_reserved":false,"is_disabled":false,"rental_uris":{"android":"levelo://app?vid=0c66d45f-e5b6-46b6-b48d-4c2e169469d5","ios":"levelo://app?vid=0c66d45f-e5b6-46b6-b48d-4c2e169469d5"},"vehicle_type_id":"4","last_reported":1708452621,"current_range_meters":0,"station_id":"ce4bhr92rcd13ifvqhrg","pricing_plan_id":"cebpf4jnsgd1na2vs0mg"},{"bike_id":"4012e222-27fb-4df6-ab75-3051f919d866","system_id":"levelo_inurba_marseille","lat":43.295169,"lon":5.390426,"is_reserved":false,"is_disabled":false,"rental_uris":{"android":"levelo://app?vid=4012e222-27fb-4df6-ab75-3051f919d866","ios":"levelo://app?vid=4012e222-27fb-4df6-ab75-3051f919d866"},"vehicle_type_id":"4","last_reported":1708452621,"current_range_meters":13600,"station_id":"ce4bh3p2rcd13ifvqdp0","pricing_plan_id":"cebpf4jnsgd1na2vs0mg"},{"bike_id":"a4f2e61f-fb62-4278-b6f8-aa1032f104d0","system_id":"levelo_inurba_marseille","lat":43.330442,"lon":5.389148,"is_reserved":false,"is_disabled":false,"rental_uris":{"android":"levelo://app?vid=a4f2e61f-fb62-4278-b6f8-aa1032f104d0","ios":"levelo://app?vid=a4f2e61f-fb62-4278-b6f8-aa1032f104d0"},"vehicle_type_id":"4","last_reported":1708452621,"current_range_meters":26800,"station_id":"ce4bhr92rcd13ifvqhrg","pricing_plan_id":"cebpf4jnsgd1na2vs0mg"},{"bike_id":"b124f330-af79-4e08-bcbe-ef6d3048f514","system_id":"levelo_inurba_marseille","lat":43.330442,"lon":5.389148,"is_reserved":false,"is_disabled":false,"rental_uris":{"android":"levelo://app?vid=b124f330-af79-4e08-bcbe-ef6d3048f514","ios":"levelo://app?vid=b124f330-af79-4e08-bcbe-ef6d3048f514"},"vehicle_type_id":"4","last_reported":1708452621,"current_range_meters":4000,"station_id":"ce4bhr92rcd13ifvqhrg","pricing_plan_id":"cebpf4jnsgd1na2vs0mg"},{"bike_id":"56e1ad8c-3224-44aa-85f7-d09020a80fbc","system_id":"levelo_inurba_marseille","lat":43.297815,"lon":5.393548,"is_reserved":false,"is_disabled":false,"rental_uris":{"android":"levelo://app?vid=56e1ad8c-3224-44aa-85f7-d09020a80fbc","ios":"levelo://app?vid=56e1ad8c-3224-44aa-85f7-d09020a80fbc"},"vehicle_type_id":"4","last_reported":1708452621,"current_range_meters":4800,"station_id":"chh1huq6cuj3fo74tm60","pricing_plan_id":"cebpf4jnsgd1na2vs0mg"},{"bike_id":"4c1e26da-1daa-47cb-a1b0-68f224959241","system_id":"levelo_inurba_marseille","lat":43.28856,"lon":5.358371,"is_reserved":false,"is_disabled":false,"rental_uris":{"android":"levelo://app?vid=4c1e26da-1daa-47cb-a1b0-68f224959241","ios":"levelo://app?vid=4c1e26da-1daa-47cb-a1b0-68f224959241"},"vehicle_type_id":"4","last_reported":1708452621,"current_range_meters":31200,"station_id":"ce4bhb12rcd13ifvqem0","pricing_plan_id":"cebpf4jnsgd1na2vs0mg"},{"bike_id":"578a0353-9712-4729-952c-585c16d29e60","system_id":"levelo_inurba_marseille","lat":43.28856,"lon":5.358371,"is_reserved":false,"is_disabled":false,"rental_uris":{"android":"levelo://app?vid=578a0353-9712-4729-952c-585c16d29e60","ios":"levelo://app?vid=578a0353-9712-4729-952c-585c16d29e60"},"vehicle_type_id":"4","last_reported":1708452621,"current_range_meters":31200,"station_id":"ce4bhb12rcd13ifvqem0","pricing_plan_id":"cebpf4jnsgd1na2vs0mg"},{"bike_id":"2063369d-60eb-4267-9bc0-ea9253b911fa","system_id":"levelo_inurba_marseille","lat":43.2885,"lon":5.35843,"is_reserved":false,"is_disabled":false,"rental_uris":{"android":"levelo://app?vid=2063369d-60eb-4267-9bc0-ea9253b911fa","ios":"levelo://app?vid=2063369d-60eb-4267-9bc0-ea9253b911fa"},"vehicle_type_id":"4","last_reported":1708452621,"current_range_meters":4000,"station_id":"","pricing_plan_id":"cebpf4jnsgd1na2vs0mg"},{"bike_id":"2be182b9-5982-4ef4-bf5c-f85b3c86bd84","system_id":"levelo_inurba_marseille","lat":43.28856,"lon":5.358371,"is_reserved":false,"is_disabled":false,"rental_uris":{"android":"levelo://app?vid=2be182b9-5982-4ef4-bf5c-f85b3c86bd84","ios":"levelo://app?vid=2be182b9-5982-4ef4-bf5c-f85b3c86bd84"},"vehicle_type_id":"4","last_reported":1708452621,"current_range_meters":4800,"station_id":"ce4bhb12rcd13ifvqem0","pricing_plan_id":"cebpf4jnsgd1na2vs0mg"},{"bike_id":"c1468d7e-1f6b-4a4b-baf6-7dbfd34e7699","system_id":"levelo_inurba_marseille","lat":43.28856,"lon":5.358371,"is_reserved":false,"is_disabled":false,"rental_uris":{"android":"levelo://app?vid=c1468d7e-1f6b-4a4b-baf6-7dbfd34e7699","ios":"levelo://app?vid=c1468d7e-1f6b-4a4b-baf6-7dbfd34e7699"},"vehicle_type_id":"4","last_reported":1708452621,"current_range_meters":0,"station_id":"ce4bhb12rcd13ifvqem0","pricing_plan_id":"cebpf4jnsgd1na2vs0mg"},{"bike_id":"c16ad630-5ed6-4874-a3b0-17bd3019c794","system_id":"levelo_inurba_marseille","lat":43.290345,"lon":5.38646,"is_reserved":false,"is_disabled":false,"rental_uris":{"android":"levelo://app?vid=c16ad630-5ed6-4874-a3b0-17bd3019c794","ios":"levelo://app?vid=c16ad630-5ed6-4874-a3b0-17bd3019c794"},"vehicle_type_id":"4","last_reported":1708452621,"current_range_meters":0,"station_id":"ce4bh4p2rcd13ifvqe0g","pricing_plan_id":"cebpf4jnsgd1na2vs0mg"},{"bike_id":"d70e5a3e-0393-4b8d-b6ed-e215b1d2851f","system_id":"levelo_inurba_marseille","lat":43.312609,"lon":5.401662,"is_reserved":false,"is_disabled":false,"rental_uris":{"android":"levelo://app?vid=d70e5a3e-0393-4b8d-b6ed-e215b1d2851f","ios":"levelo://app?vid=d70e5a3e-0393-4b8d-b6ed-e215b1d2851f"},"vehicle_type_id":"4","last_reported":1708452621,"current_range_meters":9600,"station_id":"ce4bh092rcd13ifvqd30","pricing_plan_id":"cebpf4jnsgd1na2vs0mg"},{"bike_id":"4aa48e0d-8e07-4f7b-8a5d-c69a56188a6c","system_id":"levelo_inurba_marseille","lat":43.313291,"lon":5.396838,"is_reserved":false,"is_disabled":false,"rental_uris":{"android":"levelo://app?vid=4aa48e0d-8e07-4f7b-8a5d-c69a56188a6c","ios":"levelo://app?vid=4aa48e0d-8e07-4f7b-8a5d-c69a56188a6c"},"vehicle_type_id":"4","last_reported":1708452621,"current_range_meters":6000,"station_id":"ce4bgvp2rcd13ifvqcu0","pricing_plan_id":"cebpf4jnsgd1na2vs0mg"},{"bike_id":"bee98f28-a687-44a1-a0fc-44985e86dc27","system_id":"levelo_inurba_marseille","lat":43.337364,"lon":5.374587,"is_reserved":false,"is_disabled":false,"rental_uris":{"android":"levelo://app?vid=bee98f28-a687-44a1-a0fc-44985e86dc27","ios":"levelo://app?vid=bee98f28-a687-44a1-a0fc-44985e86dc27"},"vehicle_type_id":"4","last_reported":1708452621,"current_range_meters":10800,"station_id":"","pricing_plan_id":"cebpf4jnsgd1na2vs0mg"},{"bike_id":"e75b5b35-9d60-44b2-ace0-a6b67ad4cb52","system_id":"levelo_inurba_marseille","lat":43.309371,"lon":5.401449,"is_reserved":false,"is_disabled":false,"rental_uris":{"android":"levelo://app?vid=e75b5b35-9d60-44b2-ace0-a6b67ad4cb52","ios":"levelo://app?vid=e75b5b35-9d60-44b2-ace0-a6b67ad4cb52"},"vehicle_type_id":"4","last_reported":1708452621,"current_range_meters":0,"station_id":"ce4bgvp2rcd13ifvqct0","pricing_plan_id":"cebpf4jnsgd1na2vs0mg"},{"bike_id":"254db809-d603-4868-be95-eb61ba19bc37","system_id":"levelo_inurba_marseille","lat":43.337461,"lon":5.374631,"is_reserved":false,"is_disabled":false,"rental_uris":{"android":"levelo://app?vid=254db809-d603-4868-be95-eb61ba19bc37","ios":"levelo://app?vid=254db809-d603-4868-be95-eb61ba19bc37"},"vehicle_type_id":"4","last_reported":1708452621,"current_range_meters":25200,"station_id":"","pricing_plan_id":"cebpf4jnsgd1na2vs0mg"},{"bike_id":"672af493-05ad-4417-a2af-b42054a8c83c","system_id":"levelo_inurba_marseille","lat":43.312609,"lon":5.401662,"is_reserved":false,"is_disabled":false,"rental_uris":{"android":"levelo://app?vid=672af493-05ad-4417-a2af-b42054a8c83c","ios":"levelo://app?vid=672af493-05ad-4417-a2af-b42054a8c83c"},"vehicle_type_id":"4","last_reported":1708452621,"current_range_meters":19600,"station_id":"ce4bh092rcd13ifvqd30","pricing_plan_id":"cebpf4jnsgd1na2vs0mg"},{"bike_id":"0d98e20e-38d8-4d53-9459-6f49f113492b","system_id":"levelo_inurba_marseille","lat":43.309371,"lon":5.401449,"is_reserved":false,"is_disabled":false,"rental_uris":{"android":"levelo://app?vid=0d98e20e-38d8-4d53-9459-6f49f113492b","ios":"levelo://app?vid=0d98e20e-38d8-4d53-9459-6f49f113492b"},"vehicle_type_id":"4","last_reported":1708452621,"current_range_meters":10800,"station_id":"ce4bgvp2rcd13ifvqct0","pricing_plan_id":"cebpf4jnsgd1na2vs0mg"},{"bike_id":"8032f488-736d-4f91-b5b8-9c785931ead9","system_id":"levelo_inurba_marseille","lat":43.309371,"lon":5.401449,"is_reserved":false,"is_disabled":false,"rental_uris":{"android":"levelo://app?vid=8032f488-736d-4f91-b5b8-9c785931ead9","ios":"levelo://app?vid=8032f488-736d-4f91-b5b8-9c785931ead9"},"vehicle_type_id":"4","last_reported":1708452621,"current_range_meters":14400,"station_id":"ce4bgvp2rcd13ifvqct0","pricing_plan_id":"cebpf4jnsgd1na2vs0mg"},{"bike_id":"dc6c7821-6be7-48d7-b4ce-1b6cbfcb0c36","system_id":"levelo_inurba_marseille","lat":43.312609,"lon":5.401662,"is_reserved":false,"is_disabled":false,"rental_uris":{"android":"levelo://app?vid=dc6c7821-6be7-48d7-b4ce-1b6cbfcb0c36","ios":"levelo://app?vid=dc6c7821-6be7-48d7-b4ce-1b6cbfcb0c36"},"vehicle_type_id":"4","last_reported":1708452621,"current_range_meters":10000,"station_id":"ce4bh092rcd13ifvqd30","pricing_plan_id":"cebpf4jnsgd1na2vs0mg"},{"bike_id":"2f1767d6-a3ef-4f2b-9c77-b9920e4f6b05","system_id":"levelo_inurba_marseille","lat":43.309371,"lon":5.401449,"is_reserved":false,"is_disabled":false,"rental_uris":{"android":"levelo://app?vid=2f1767d6-a3ef-4f2b-9c77-b9920e4f6b05","ios":"levelo://app?vid=2f1767d6-a3ef-4f2b-9c77-b9920e4f6b05"},"vehicle_type_id":"4","last_reported":1708452621,"current_range_meters":5600,"station_id":"ce4bgvp2rcd13ifvqct0","pricing_plan_id":"cebpf4jnsgd1na2vs0mg"},{"bike_id":"b1c83910-604f-4632-ba4e-8963b40857c4","system_id":"levelo_inurba_marseille","lat":43.309371,"lon":5.401449,"is_reserved":false,"is_disabled":false,"rental_uris":{"android":"levelo://app?vid=b1c83910-604f-4632-ba4e-8963b40857c4","ios":"levelo://app?vid=b1c83910-604f-4632-ba4e-8963b40857c4"},"vehicle_type_id":"4","last_reported":1708452621,"current_range_meters":18800,"station_id":"ce4bgvp2rcd13ifvqct0","pricing_plan_id":"cebpf4jnsgd1na2vs0mg"},{"bike_id":"7ebec270-0b81-4ea9-bd04-2ebfec73ac1e","system_id":"levelo_inurba_marseille","lat":43.30642,"lon":5.401031,"is_reserved":false,"is_disabled":false,"rental_uris":{"android":"levelo://app?vid=7ebec270-0b81-4ea9-bd04-2ebfec73ac1e","ios":"levelo://app?vid=7ebec270-0b81-4ea9-bd04-2ebfec73ac1e"},"vehicle_type_id":"4","last_reported":1708452621,"current_range_meters":6800,"station_id":"ce4bh112rcd13ifvqda0","pricing_plan_id":"cebpf4jnsgd1na2vs0mg"},{"bike_id":"84305231-85a3-4980-b0e4-e1830fefa078","system_id":"levelo_inurba_marseille","lat":43.306412,"lon":5.401035,"is_reserved":false,"is_disabled":false,"rental_uris":{"android":"levelo://app?vid=84305231-85a3-4980-b0e4-e1830fefa078","ios":"levelo://app?vid=84305231-85a3-4980-b0e4-e1830fefa078"},"vehicle_type_id":"4","last_reported":1708452621,"current_range_meters":19600,"station_id":"ce4bh112rcd13ifvqda0","pricing_plan_id":"cebpf4jnsgd1na2vs0mg"},{"bike_id":"c6b0e60b-f38c-4ed4-a344-40c2ee55092d","system_id":"levelo_inurba_marseille","lat":43.30642,"lon":5.401031,"is_reserved":false,"is_disabled":false,"rental_uris":{"android":"levelo://app?vid=c6b0e60b-f38c-4ed4-a344-40c2ee55092d","ios":"levelo://app?vid=c6b0e60b-f38c-4ed4-a344-40c2ee55092d"},"vehicle_type_id":"4","last_reported":1708452621,"current_range_meters":26000,"station_id":"ce4bh112rcd13ifvqda0","pricing_plan_id":"cebpf4jnsgd1na2vs0mg"},{"bike_id":"35ae2947-0a26-4b57-8f16-3c8612e08fc2","system_id":"levelo_inurba_marseille","lat":43.30642,"lon":5.401031,"is_reserved":false,"is_disabled":false,"rental_uris":{"android":"levelo://app?vid=35ae2947-0a26-4b57-8f16-3c8612e08fc2","ios":"levelo://app?vid=35ae2947-0a26-4b57-8f16-3c8612e08fc2"},"vehicle_type_id":"4","last_reported":1708452621,"current_range_meters":0,"station_id":"ce4bh112rcd13ifvqda0","pricing_plan_id":"cebpf4jnsgd1na2vs0mg"},{"bike_id":"94092ff3-d392-4aa2-8757-a487a5a0c09e","system_id":"levelo_inurba_marseille","lat":43.306412,"lon":5.401035,"is_reserved":false,"is_disabled":false,"rental_uris":{"android":"levelo://app?vid=94092ff3-d392-4aa2-8757-a487a5a0c09e","ios":"levelo://app?vid=94092ff3-d392-4aa2-8757-a487a5a0c09e"},"vehicle_type_id":"4","last_reported":1708452621,"current_range_meters":6000,"station_id":"ce4bh112rcd13ifvqda0","pricing_plan_id":"cebpf4jnsgd1na2vs0mg"},