{"last_updated":1734545636,"ttl":60,"version":"2.2","data":{"bikes":[{"bike_id":"6aeffd61-a658-456d-bd95-06669e27ae15","system_id":"levelo_inurba_marseille","lat":43.31275,"lon":5.40177,"is_reserved":false,"is_disabled":false,"rental_uris":{"android":"levelo://app?vid=6aeffd61-a658-456d-bd95-06669e27ae15","ios":"levelo://app?vid=6aeffd61-a658-456d-bd95-06669e27ae15"},"vehicle_type_id":"4","last_reported":1734545636,"current_range_meters":35200,"station_id":"ce4bh092rcd13ifvqd30","pricing_plan_id":"cebpf4jnsgd1na2vs0mg"},{"bike_id":"da3a22ad-914a-45b7-806b-7552265aba0d","system_id":"levelo_inurba_marseille","lat":43.30256,"lon":5.40053,"is_reserved":false,"is_disabled":false,"rental_uris":{"android":"levelo://app?vid=da3a22ad-914a-45b7-806b-7552265aba0d","ios":"levelo://app?vid=da3a22ad-914a-45b7-806b-7552265aba0d"},"vehicle_type_id":"4","last_reported":1734545636,"current_range_meters":29600,"station_id":"ce4bgvh2rcd13ifvqcs0","pricing_plan_id":"cebpf4jnsgd1na2vs0mg"},{"bike_id":"d6c5a21c-8319-4530-8253-5e2f5c741994","system_id":"levelo_inurba_marseille","lat":43.23966,"lon":5.36629,"is_reserved":false,"is_disabled":false,"rental_uris":{"android":"levelo://app?vid=d6c5a21c-8319-4530-8253-5e2f5c741994","ios":"levelo://app?vid=d6c5a21c-8319-4530-8253-5e2f5c741994"},"vehicle_type_id":"4","last_reported":1734545636,"current_range_meters":38800,"station_id":"ce4bhi12rcd13ifvqfp0","pricing_plan_id":"cebpf4jnsgd1na2vs0mg"},{"bike_id":"3dccce06-28d4-4303-a7c2-56b29d7f1ddd","system_id":"levelo_inurba_marseille","lat":43.2586,"lon":5.39896,"is_reserved":false,"is_disabled":false,"rental_uris":{"android":"levelo://app?vid=3dccce06-28d4-4303-a7c2-56b29d7f1ddd","ios":"levelo://app?vid=3dccce06-28d4-4303-a7c2-56b29d7f1ddd"},"vehicle_type_id":"4","last_reported":1734545636,"current_range_meters":19200,"station_id":"ce4bhl92rcd13ifvqghg","pricing_plan_id":"cebpf4jnsgd1na2vs0mg"},{"bike_id":"03e99c21-e0c7-4691-a693-5f0c23ffd6a9","system_id":"levelo_inurba_marseille","lat":43.25718,"lon":5.41107,"is_reserved":false,"is_disabled":false,"rental_uris":{"android":"levelo://app?vid=03e99c21-e0c7-4691-a693-5f0c23ffd6a9","ios":"levelo://app?vid=03e99c21-e0c7-4691-a693-5f0c23ffd6a9"},"vehicle_type_id":"4","last_reported":1734545636,"current_range_meters":19600,"station_id":"ce4bhkp2rcd13ifvqgd0","pricing_plan_id":"cebpf4jnsgd1na2vs0mg"},{"bike_id":"4c2d0d6f-364a-4366-98d0-3e665160052d","system_id":"levelo_inurba_marseille","lat":43.2979,"lon":5.40411,"is_reserved":false,"is_disabled":false,"rental_uris":{"android":"levelo://app?vid=4c2d0d6f-364a-4366-98d0-3e665160052d","ios":"levelo://app?vid=4c2d0d6f-364a-4366-98d0-3e665160052d"},"vehicle_type_id":"4","last_reported":1734545636,"current_range_meters":16800,"station_id":"ce4bh112rcd13ifvqd90","pricing_plan_id":"cebpf4jnsgd1na2vs0mg"},{"bike_id":"81d3e597-3bce-470f-a24f-c70eb8e49aa7","system_id":"levelo_inurba_marseille","lat":43.28281,"lon":5.35076,"is_reserved":false,"is_disabled":false,"rental_uris":{"android":"levelo://app?vid=81d3e597-3bce-470f-a24f-c70eb8e49aa7","ios":"levelo://app?vid=81d3e597-3bce-470f-a24f-c70eb8e49aa7"},"vehicle_type_id":"4","last_reported":1734545636,"current_range_meters":12000,"station_id":"ce4bhbp2rcd13ifvqerg","pricing_plan_id":"cebpf4jnsgd1na2vs0mg"},{"bike_id":"405271ad-c78f-47c4-8c7c-83c3dfe74dc6","system_id":"levelo_inurba_marseille","lat":43.25121,"lon":5.40315,"is_reserved":false,"is_disabled":false,"rental_uris":{"android":"levelo://app?vid=405271ad-c78f-47c4-8c7c-83c3dfe74dc6","ios":"levelo://app?vid=405271ad-c78f-47c4-8c7c-83c3dfe74dc6"},"vehicle_type_id":"4","last_reported":1734545636,"current_range_meters":10800,"station_id":"ce4bhlh2rcd13ifvqgig","pricing_plan_id":"cebpf4jnsgd1na2vs0mg"},{"bike_id":"b49dde4c-0c71-4a1c-9680-edf0bf24f291","system_id":"levelo_inurba_marseille","lat":43.27205,"lon":5.39178,"is_reserved":false,"is_disabled":false,"rental_uris":{"android":"levelo://app?vid=b49dde4c-0c71-4a1c-9680-edf0bf24f291","ios":"levelo://app?vid=b49dde4c-0c71-4a1c-9680-edf0bf24f291"},"vehicle_type_id":"4","last_reported":1734545636,"current_range_meters":29600,"station_id":"ce4bhhp2rcd13ifvqfm0","pricing_plan_id":"cebpf4jnsgd1na2vs0mg"},{"bike_id":"f19b052e-236c-40ae-981b-cc65e3b41eb4","system_id":"levelo_inurba_marseille","lat":43.30788,"lon":5.37652,"is_reserved":false,"is_disabled":false,"rental_uris":{"android":"levelo://app?vid=f19b052e-236c-40ae-981b-cc65e3b41eb4","ios":"levelo://app?vid=f19b052e-236c-40ae-981b-cc65e3b41eb4"},"vehicle_type_id":"4","last_reported":1734545636,"current_range_meters":34800,"station_id":"ce4bgv92rcd13ifvqcq0","pricing_plan_id":"cebpf4jnsgd1na2vs0mg"},{"bike_id":"2570ccc6-12ce-4b53-a241-08e0ed0c5756","system_id":"levelo_inurba_marseille","lat":43.29887,"lon":5.38902,"is_reserved":false,"is_disabled":false,"rental_uris":{"android":"levelo://app?vid=2570ccc6-12ce-4b53-a241-08e0ed0c5756","ios":"levelo://app?vid=2570ccc6-12ce-4b53-a241-08e0ed0c5756"},"vehicle_type_id":"4","last_reported":1734545636,"current_range_meters":5600,"station_id":"ce4bh392rcd13ifvqdl0","pricing_plan_id":"cebpf4jnsgd1na2vs0mg"},{"bike_id":"470d05f1-4620-48b9-80d9-52ce45a32a84","system_id":"levelo_inurba_marseille","lat":43.2901,"lon":5.35616,"is_reserved":false,"is_disabled":false,"rental_uris":{"android":"levelo://app?vid=470d05f1-4620-48b9-80d9-52ce45a32a84","ios":"levelo://app?vid=470d05f1-4620-48b9-80d9-52ce45a32a84"},"vehicle_type_id":"4","last_reported":1734545636,"current_range_meters":32000,"station_id":"ce4bhb92rcd13ifvqen0","pricing_plan_id":"cebpf4jnsgd1na2vs0mg"},{"bike_id":"2acebb6f-d7e7-4a95-98b3-f64c016c0020","system_id":"levelo_inurba_marseille","lat":43.31203,"lon":5.3687,"is_reserved":false,"is_disabled":false,"rental_uris":{"android":"levelo://app?vid=2acebb6f-d7e7-4a95-98b3-f64c016c0020","ios":"levelo://app?vid=2acebb6f-d7e7-4a95-98b3-f64c016c0020"},"vehicle_type_id":"4","last_reported":1734545636,"current_range_meters":10800,"station_id":"ce4bgl92rcd13ifvqbq0","pricing_plan_id":"cebpf4jnsgd1na2vs0mg"},{"bike_id":"a5bab296-af15-45a1-81e9-5b6f00bc7788","system_id":"levelo_inurba_marseille","lat":43.2695,"lon":5.40221,"is_reserved":false,"is_disabled":false,"rental_uris":{"android":"levelo://app?vid=a5bab296-af15-45a1-81e9-5b6f00bc7788","ios":"levelo://app?vid=a5bab296-af15-45a1-81e9-5b6f00bc7788"},"vehicle_type_id":"4","last_reported":1734545636,"current_range_meters":34000,"station_id":"cjm6bp8fraef2m0cb0m0","pricing_plan_id":"cebpf4jnsgd1na2vs0mg"},{"bike_id":"37068882-55e2-4a73-aacd-e439bc8e76eb","system_id":"levelo_inurba_marseille","lat":43.3128,"lon":5.40151,"is_reserved":false,"is_disabled":false,"rental_uris":{"android":"levelo://app?vid=37068882-55e2-4a73-aacd-e439bc8e76eb","ios":"levelo://app?vid=37068882-55e2-4a73-aacd-e439bc8e76eb"},"vehicle_type_id":"4","last_reported":1734545636,"current_range_meters":38800,"station_id":"ce4bh092rcd13ifvqd30","pricing_plan_id":"cebpf4jnsgd1na2vs0mg"},{"bike_id":"a14962ee-b10b-4fa6-b053-87a54e92294c","system_id":"levelo_inurba_marseille","lat":43.29283,"lon":5.37442,"is_reserved":false,"is_disabled":false,"rental_uris":{"android":"levelo://app?vid=a14962ee-b10b-4fa6-b053-87a54e92294c","ios":"levelo://app?vid=a14962ee-b10b-4fa6-b053-87a54e92294c"},"vehicle_type_id":"4","last_reported":1734545636,"current_range_meters":12800,"station_id":"ce4bgi12rcd13ifvqb70","pricing_plan_id":"cebpf4jnsgd1na2vs0mg"},{"bike_id":"a2b9b703-df2e-4bbb-a35f-fefa1283b805","system_id":"levelo_inurba_marseille","lat":43.26055,"lon":5.39397,"is_reserved":false,"is_disabled":false,"rental_uris":{"android":"levelo://app?vid=a2b9b703-df2e-4bbb-a35f-fefa1283b805","ios":"levelo://app?vid=a2b9b703-df2e-4bbb-a35f-fefa1283b805"},"vehicle_type_id":"4","last_reported":1734545636,"current_range_meters":9600,"station_id":"ce4bhh92rcd13ifvqfj0","pricing_plan_id":"cebpf4jnsgd1na2vs0mg"},{"bike_id":"5a74ab2f-8361-414a-bbbf-cea10cfd87e3","system_id":"levelo_inurba_marseille","lat":43.30291,"lon":5.37709,"is_reserved":false,"is_disabled":false,"rental_uris":{"android":"levelo://app?vid=5a74ab2f-8361-414a-bbbf-cea10cfd87e3","ios":"levelo://app?vid=5a74ab2f-8361-414a-bbbf-cea10cfd87e3"},"vehicle_type_id":"4","last_reported":1734545636,"current_range_meters":37600,"station_id":"ce4bguh2rcd13ifvqcj0","pricing_plan_id":"cebpf4jnsgd1na2vs0mg"},{"bike_id":"1f834613-72c8-4bef-a54d-6ea138016033","system_id":"levelo_inurba_marseille","lat":43.23193,"lon":5.35545,"is_reserved":false,"is_disabled":false,"rental_uris":{"android":"levelo://app?vid=1f834613-72c8-4bef-a54d-6ea138016033","ios":"levelo://app?vid=1f834613-72c8-4bef-a54d-6ea138016033"},"vehicle_type_id":"4","last_reported":1734545636,"current_range_meters":39200,"station_id":"ce4bhu92rcd13ifvqi70","pricing_plan_id":"cebpf4jnsgd1na2vs0mg"},{"bike_id":"3b1ac175-91d1-4b9c-85e2-6fe97104d7c4","system_id":"levelo_inurba_marseille","lat":43.31073,"lon":5.3834,"is_reserved":false,"is_disabled":true,"rental_uris":{"android":"levelo://app?vid=3b1ac175-91d1-4b9c-85e2-6fe97104d7c4","ios":"levelo://app?vid=3b1ac175-91d1-4b9c-85e2-6fe97104d7c4"},"vehicle_type_id":"4","last_reported":1734545636,"current_range_meters":0,"station_id":"ce4bgv92rcd13ifvqcr0","pricing_plan_id":"cebpf4jnsgd1na2vs0mg"},{"bike_id":"f23c72e0-53e6-497e-a874-03021934ba2b","system_id":"levelo_inurba_marseille","lat":43.31336,"lon":5.39684,"is_reserved":false,"is_disabled":false,"rental_uris":{"android":"levelo://app?vid=f23c72e0-53e6-497e-a874-03021934ba2b","ios":"levelo://app?vid=f23c72e0-53e6-497e-a874-03021934ba2b"},"vehicle_type_id":"4","last_reported":1734545636,"current_range_meters":28400,"station_id":"ce4bgvp2rcd13ifvqcu0","pricing_plan_id":"cebpf4jnsgd1na2vs0mg"},{"bike_id":"124e6c05-4926-4207-84f5-da69a7334d60","system_id":"levelo_inurba_marseille","lat":43.29018,"lon":5.38147,"is_reserved":false,"is_disabled":true,"rental_uris":{"android":"levelo://app?vid=124e6c05-4926-4207-84f5-da69a7334d60","ios":"levelo://app?vid=124e6c05-4926-4207-84f5-da69a7334d60"},"vehicle_type_id":"4","last_reported":1734545636,"current_range_meters":33200,"station_id":"ce4bh4p2rcd13ifvqe1g","pricing_plan_id":"cebpf4jnsgd1na2vs0mg"},{"bike_id":"cece21bd-76d6-4f19-b3ff-0220eec8a48b","system_id":"levelo_inurba_marseille","lat":43.29193,"lon":5.35788,"is_reserved":false,"is_disabled":false,"rental_uris":{"android":"levelo://app?vid=cece21bd-76d6-4f19-b3ff-0220eec8a48b","ios":"levelo://app?vid=cece21bd-76d6-4f19-b3ff-0220eec8a48b"},"vehicle_type_id":"4","last_reported":1734545636,"current_range_meters":38800,"station_id":"ce4bhb12rcd13ifvqel0","pricing_plan_id":"cebpf4jnsgd1na2vs0mg"},{"bike_id":"8053e015-991c-4910-88bd-a36827ef7539","system_id":"levelo_inurba_marseille","lat":43.24809,"lon":5.37457,"is_reserved":false,"is_disabled":false,"rental_uris":{"android":"levelo://app?vid=8053e015-991c-4910-88bd-a36827ef7539","ios":"levelo://app?vid=8053e015-991c-4910-88bd-a36827ef7539"},"vehicle_type_id":"4","last_reported":1734545636,"current_range_meters":38800,"station_id":"ce4bhgh2rcd13ifvqfb0","pricing_plan_id":"cebpf4jnsgd1na2vs0mg"},{"bike_id":"ef0ddfae-8964-4351-aa76-8487b220c22f","system_id":"levelo_inurba_marseille","lat":43.27821,"lon":5.40696,"is_reserved":false,"is_disabled":false,"rental_uris":{"android":"levelo://app?vid=ef0ddfae-8964-4351-aa76-8487b220c22f","ios":"levelo://app?vid=ef0ddfae-8964-4351-aa76-8487b220c22f"},"vehicle_type_id":"4","last_reported":1734545636,"current_range_meters":32400,"station_id":"ce4bhnh2rcd13ifvqgtg","pricing_plan_id":"cebpf4jnsgd1na2vs0mg"},{"bike_id":"11967985-ab75-4fa4-9376-f6167802d4ee","system_id":"levelo_inurba_marseille","lat":43.28851,"lon":5.35847,"is_reserved":false,"is_disabled":false,"rental_uris":{"android":"levelo://app?vid=11967985-ab75-4fa4-9376-f6167802d4ee","ios":"levelo://app?vid=11967985-ab75-4fa4-9376-f6167802d4ee"},"vehicle_type_id":"4","last_reported":1734545636,"current_range_meters":37600,"station_id":"ce4bhb12rcd13ifvqem0","pricing_plan_id":"cebpf4jnsgd1na2vs0mg"},{"bike_id":"b85a5589-efe9-4ac5-99bc-1965ef08c317","system_id":"levelo_inurba_marseille","lat":43.30132,"lon":5.39834,"is_reserved":false,"is_disabled":false,"rental_uris":{"android":"levelo://app?vid=b85a5589-efe9-4ac5-99bc-1965ef08c317","ios":"levelo://app?vid=b85a5589-efe9-4ac5-99bc-1965ef08c317"},"vehicle_type_id":"4","last_reported":1734545636,"current_range_meters":30400,"station_id":"ce4bh0h2rcd13ifvqd40","pricing_plan_id":"cebpf4jnsgd1na2vs0mg"},{"bike_id":"2491c714-f3f7-493b-9790-9992e16c8fb6","system_id":"levelo_inurba_marseille","lat":43.34143,"lon":5.40894,"is_reserved":false,"is_disabled":true,"rental_uris":{"android":"levelo://app?vid=2491c714-f3f7-493b-9790-9992e16c8fb6","ios":"levelo://app?vid=2491c714-f3f7-493b-9790-9992e16c8fb6"},"vehicle_type_id":"4","last_reported":1734545636,"current_range_meters":38800,"station_id":"ce4bhqh2rcd13ifvqhlg","pricing_plan_id":"cebpf4jnsgd1na2vs0mg"},{"bike_id":"067a33a2-2207-4251-a8f2-939cdc678233","system_id":"levelo_inurba_marseille","lat":43.24997,"lon":5.38929,"is_reserved":false,"is_disabled":false,"rental_uris":{"android":"levelo://app?vid=067a33a2-2207-4251-a8f2-939cdc678233","ios":"levelo://app?vid=067a33a2-2207-4251-a8f2-939cdc678233"},"vehicle_type_id":"4","last_reported":1734545636,"current_range_meters":29600,"station_id":"ce4bhgp2rcd13ifvqfd0","pricing_plan_id":"cebpf4jnsgd1na2vs0mg"},{"bike_id":"ea1ee0a0-f240-4d25-84d9-e6fb6fc7a18c","system_id":"levelo_inurba_marseille","lat":43.33807,"lon":5.42078,"is_reserved":false,"is_disabled":true,"rental_uris":{"android":"levelo://app?vid=ea1ee0a0-f240-4d25-84d9-e6fb6fc7a18c","ios":"levelo://app?vid=ea1ee0a0-f240-4d25-84d9-e6fb6fc7a18c"},"vehicle_type_id":"4","last_reported":1734545636,"current_range_meters":0,"station_id":"","pricing_plan_id":"cebpf4jnsgd1na2vs0mg"},{"bike_id":"6cf6c224-34d5-4633-a2a4-7a3051492045","system_id":"levelo_inurba_marseille","lat":43.29275,"lon":5.368507,"is_reserved":false,"is_disabled":false,"rental_uris":{"android":"levelo://app?vid=6cf6c224-34d5-4633-a2a4-7a3051492045","ios":"levelo://app?vid=6cf6c224-34d5-4633-a2a4-7a3051492045"},"vehicle_type_id":"4","last_reported":1734545636,"current_range_meters":35600,"station_id":"ce4bhbp2rcd13ifvqesg","pricing_plan_id":"cebpf4jnsgd1na2vs0mg"},{"bike_id":"7b62b014-b50d-4f34-b025-3fcc6c6def08","system_id":"levelo_inurba_marseille","lat":43.29038,"lon":5.3756,"is_reserved":false,"is_disabled":false,"rental_uris":{"android":"levelo://app?vid=7b62b014-b50d-4f34-b025-3fcc6c6def08","ios":"levelo://app?vid=7b62b014-b50d-4f34-b025-3fcc6c6def08"},"vehicle_type_id":"4","last_reported":1734545636,"current_range_meters":19600,"station_id":"ce4bh692rcd13ifvqe90","pricing_plan_id":"cebpf4jnsgd1na2vs0mg"},{"bike_id":"48029d50-c28d-4a6b-9b84-14c3877f1ddb","system_id":"levelo_inurba_marseille","lat":43.31173,"lon":5.38718,"is_reserved":false,"is_disabled":false,"rental_uris":{"android":"levelo://app?vid=48029d50-c28d-4a6b-9b84-14c3877f1ddb","ios":"levelo://app?vid=48029d50-c28d-4a6b-9b84-14c3877f1ddb"},"vehicle_type_id":"4","last_reported":1734545636,"current_range_meters":20400,"station_id":"ce4bgv12rcd13ifvqcp0","pricing_plan_id":"cebpf4jnsgd1na2vs0mg"},{"bike_id":"2eac59f4-801a-4292-994d-1f9e83ffa5a8","system_id":"levelo_inurba_marseille","lat":43.26925,"lon":5.38911,"is_reserved":false,"is_disabled":true,"rental_uris":{"android":"levelo://app?vid=2eac59f4-801a-4292-994d-1f9e83ffa5a8","ios":"levelo://app?vid=2eac59f4-801a-4292-994d-1f9e83ffa5a8"},"vehicle_type_id":"4","last_reported":1734545636,"current_range_meters":0,"station_id":"ce4bhhh2rcd13ifvqfl0","pricing_plan_id":"cebpf4jnsgd1na2vs0mg"},{"bike_id":"bc84c838-198d-40a0-a261-a1e23761d14f","system_id":"levelo_inurba_marseille","lat":43.2693,"lon":5.40249,"is_reserved":false,"is_disabled":false,"rental_uris":{"android":"levelo://app?vid=bc84c838-198d-40a0-a261-a1e23761d14f","ios":"levelo://app?vid=bc84c838-198d-40a0-a261-a1e23761d14f"},"vehicle_type_id":"4","last_reported":1734545636,"current_range_meters":16400,"station_id":"cjm6bp8fraef2m0cb0m0","pricing_plan_id":"cebpf4jnsgd1na2vs0mg"},{"bike_id":"f3d55861-005c-437f-a8a5-561270127cff","system_id":"levelo_inurba_marseille","lat":43.296,"lon":5.38105,"is_reserved":false,"is_disabled":false,"rental_uris":{"android":"levelo://app?vid=f3d55861-005c-437f-a8a5-561270127cff","ios":"levelo://app?vid=f3d55861-005c-437f-a8a5-561270127cff"},"vehicle_type_id":"4","last_reported":1734545636,"current_range_meters":18000,"station_id":"ce4bgl12rcd13ifvqbo0","pricing_plan_id":"cebpf4jnsgd1na2vs0mg"},{"bike_id":"3551be41-7101-4e0b-974c-43abe71c6bc1","system_id":"levelo_inurba_marseille","lat":43.31321,"lon":5.39696,"is_reserved":false,"is_disabled":false,"rental_uris":{"android":"levelo://app?vid=3551be41-7101-4e0b-974c-43abe71c6bc1","ios":"levelo://app?vid=3551be41-7101-4e0b-974c-43abe71c6bc1"},"vehicle_type_id":"4","last_reported":1734545636,"current_range_meters":3200,"station_id":"ce4bgvp2rcd13ifvqcu0","pricing_plan_id":"cebpf4jnsgd1na2vs0mg"},{"bike_id":"8bfac80e-1fb6-4c29-8a7a-e5d1d210dc81","system_id":"levelo_inurba_marseille","lat":43.31016,"lon":5.38061,"is_reserved":false,"is_disabled":false,"rental_uris":{"android":"levelo://app?vid=8bfac80e-1fb6-4c29-8a7a-e5d1d210dc81","ios":"levelo://app?vid=8bfac80e-1fb6-4c29-8a7a-e5d1d210dc81"},"vehicle_type_id":"4","last_reported":1734545636,"current_range_meters":22800,"station_id":"","pricing_plan_id":"cebpf4jnsgd1na2vs0mg"},{"bike_id":"4f2b2e7b-acb7-48ac-9678-c8c97e08f2e4","system_id":"levelo_inurba_marseille","lat":43.278162,"lon":5.407153,"is_reserved":false,"is_disabled":false,"rental_uris":{"android":"levelo://app?vid=4f2b2e7b-acb7-48ac-9678-c8c97e08f2e4","ios":"levelo://app?vid=4f2b2e7b-acb7-48ac-9678-c8c97e08f2e4"},"vehicle_type_id":"4","last_reported":1734545636,"current_range_meters":28000,"station_id":"ce4bhnh2rcd13ifvqgtg","pricing_plan_id":"cebpf4jnsgd1na2vs0mg"},{"bike_id":"717b808b-eaaf-43be-9456-34f8c352dd94","system_id":"levelo_inurba_marseille","lat":43.28446,"lon":5.35891,"is_reserved":false,"is_disabled":false,"rental_uris":{"android":"levelo://app?vid=717b808b-eaaf-43be-9456-34f8c352dd94","ios":"levelo://app?vid=717b808b-eaaf-43be-9456-34f8c352dd94"},"vehicle_type_id":"4","last_reported":1734545636,"current_range_meters":12000,"station_id":"ce4bhah2rcd13ifvqei0","pricing_plan_id":"cebpf4jnsgd1na2vs0mg"},{"bike_id":"7e30603b-cef4-461d-a4f3-104f5e4c5ba3","system_id":"levelo_inurba_marseille","lat":43.29878,"lon":5.39739,"is_reserved":false,"is_disabled":false,"rental_uris":{"android":"levelo://app?vid=7e30603b-cef4-461d-a4f3-104f5e4c5ba3","ios":"levelo://app?vid=7e30603b-cef4-461d-a4f3-104f5e4c5ba3"},"vehicle_type_id":"4","last_reported":1734545636,"current_range_meters":25200,"station_id":"ce4bh0h2rcd13ifvqd50","pricing_plan_id":"cebpf4jnsgd1na2vs0mg"},{"bike_id":"f38e2cb0-8a3d-48d1-b764-6221ec6718f3","system_id":"levelo_inurba_marseille","lat":43.335901,"lon":5.410213,"is_reserved":false,"is_disabled":false,"rental_uris":{"android":"levelo://app?vid=f38e2cb0-8a3d-48d1-b764-6221ec6718f3","ios":"levelo://app?vid=f38e2cb0-8a3d-48d1-b764-6221ec6718f3"},"vehicle_type_id":"4","last_reported":1734545636,"current_range_meters":9600,"station_id":"ce4bhqh2rcd13ifvqhmg","pricing_plan_id":"cebpf4jnsgd1na2vs0mg"},{"bike_id":"09796d07-c27f-4976-9137-4cdeed496e98","system_id":"levelo_inurba_marseille","lat":43.29842,"lon":5.36288,"is_reserved":false,"is_disabled":false,"rental_uris":{"android":"levelo://app?vid=09796d07-c27f-4976-9137-4cdeed496e98","ios":"levelo://app?vid=09796d07-c27f-4976-9137-4cdeed496e98"},"vehicle_type_id":"4","last_reported":1734545636,"current_range_meters":9200,"station_id":"ce4bgpp2rcd13ifvqc3g","pricing_plan_id":"cebpf4jnsgd1na2vs0mg"},{"bike_id":"e2724d8d-cac7-4504-a77d-9ed3a7a53d09","system_id":"levelo_inurba_marseille","lat":43.25858,"lon":5.39909,"is_reserved":false,"is_disabled":false,"rental_uris":{"android":"levelo://app?vid=e2724d8d-cac7-4504-a77d-9ed3a7a53d09","ios":"levelo://app?vid=e2724d8d-cac7-4504-a77d-9ed3a7a53d09"},"vehicle_type_id":"4","last_reported":1734545636,"current_range_meters":6800,"station_id":"ce4bhl92rcd13ifvqghg","pricing_plan_id":"cebpf4jnsgd1na2vs0mg"},{"bike_id":"19113779-e647-4105-868a-7c3772c8771f","system_id":"levelo_inurba_marseille","lat":43.28616,"lon":5.35101,"is_reserved":false,"is_disabled":false,"rental_uris":{"android":"levelo://app?vid=19113779-e647-4105-868a-7c3772c8771f","ios":"levelo://app?vid=19113779-e647-4105-868a-7c3772c8771f"},"vehicle_type_id":"4","last_reported":1734545636,"current_range_meters":10000,"station_id":"ce4bhch2rcd13ifvqeug","pricing_plan_id":"cebpf4jnsgd1na2vs0mg"},{"bike_id":"ddfe2d0a-c50f-4c3b-b956-b2611c2b7923","system_id":"levelo_inurba_marseille","lat":43.29871,"lon":5.39733,"is_reserved":false,"is_disabled":false,"rental_uris":{"android":"levelo://app?vid=ddfe2d0a-c50f-4c3b-b956-b2611c2b7923","ios":"levelo://app?vid=ddfe2d0a-c50f-4c3b-b956-b2611c2b7923"},"vehicle_type_id":"4","last_reported":1734545636,"current_range_meters":8400,"station_id":"ce4bh0h2rcd13ifvqd50","pricing_plan_id":"cebpf4jnsgd1na2vs0mg"},{"bike_id":"dc1f4e02-fcff-4945-882d-c1fc5c0b241d","system_id":"levelo_inurba_marseille","lat":43.27916,"lon":5.39577,"is_reserved":false,"is_disabled":true,"rental_uris":{"android":"levelo://app?vid=dc1f4e02-fcff-4945-882d-c1fc5c0b241d","ios":"levelo://app?vid=dc1f4e02-fcff-4945-882d-c1fc5c0b241d"},"vehicle_type_id":"4","last_reported":1734545636,"current_range_meters":0,"station_id":"ce4bhf92rcd13ifvqf40","pricing_plan_id":"cebpf4jnsgd1na2vs0mg"},{"bike_id":"0d4cf357-cd32-43d3-8971-89a7a2f06824","system_id":"levelo_inurba_marseille","lat":43.25577,"lon":5.3823,"is_reserved":false,"is_disabled":true,"rental_uris":{"android":"levelo://app?vid=0d4cf357-cd32-43d3-8971-89a7a2f06824","ios":"levelo://app?vid=0d4cf357-cd32-43d3-8971-89a7a2f06824"},"vehicle_type_id":"4","last_reported":1734545636,"current_range_meters":1200,"station_id":"ce4bhih2rcd13ifvqfs0","pricing_plan_id":"cebpf4jnsgd1na2vs0mg"},{"bike_id":"2ea5e87b-01fb-430b-ac72-4db16b665dab","system_id":"levelo_inurba_marseille","lat":43.32498,"lon":5.37475,"is_reserved":false,"is_disabled":false,"rental_uris":{"android":"levelo://app?vid=2ea5e87b-01fb-430b-ac72-4db16b665dab","ios":"levelo://app?vid=2ea5e87b-01fb-430b-ac72-4db16b665dab"},"vehicle_type_id":"4","last_reported":1734545636,"current_range_meters":18000,"station_id":"","pricing_plan_id":"cebpf4jnsgd1na2vs0mg"},{"bike_id":"a6959561-4351-486c-ad61-f95a555a7f5a","system_id":"levelo_inurba_marseille","lat":43.265502,"lon":5.385939,"is_reserved":false,"is_disabled":false,"rental_uris":{"android":"levelo://app?vid=a6959561-4351-486c-ad61-f95a555a7f5a","ios":"levelo://app?vid=a6959561-4351-486c-ad61-f95a555a7f5a"},"vehicle_type_id":"4","last_reported":1734545636,"current_range_meters":22000,"station_id":"ce4bhip2rcd13ifvqft0","pricing_plan_id":"cebpf4jnsgd1na2vs0mg"},{"bike_id":"fcb8317a-8b51-4fbd-80d3-34200695d9a8","system_id":"levelo_inurba_marseille","lat":43.28931,"lon":5.38389,"is_reserved":false,"is_disabled":false,"rental_uris":{"android":"levelo://app?vid=fcb8317a-8b51-4fbd-80d3-34200695d9a8","ios":"levelo://app?vid=fcb8317a-8b51-4fbd-80d3-34200695d9a8"},"vehicle_type_id":"4","last_reported":1734545636,"current_range_meters":20000,"station_id":"ce4bh612rcd13ifvqe6g","pricing_plan_id":"cebpf4jnsgd1na2vs0mg"},{"bike_id":"72492ff3-d3e5-4b81-822b-1d3357339451","system_id":"levelo_inurba_marseille","lat":43.29078,"lon":5.39924,"is_reserved":false,"is_disabled":true,"rental_uris":{"android":"levelo://app?vid=72492ff3-d3e5-4b81-822b-1d3357339451","ios":"levelo://app?vid=72492ff3-d3e5-4b81-822b-1d3357339451"},"vehicle_type_id":"4","last_reported":1734545636,"current_range_meters":38000,"station_id":"","pricing_plan_id":"cebpf4jnsgd1na2vs0mg"},{"bike_id":"c9aecb48-1552-47ad-af23-8b6bab0d2fdf","system_id":"levelo_inurba_marseille","lat":43.2507,"lon":5.39515,"is_reserved":false,"is_disabled":false,"rental_uris":{"android":"levelo://app?vid=c9aecb48-1552-47ad-af23-8b6bab0d2fdf","ios":"levelo://app?vid=c9aecb48-1552-47ad-af23-8b6bab0d2fdf"},"vehicle_type_id":"4","last_reported":1734545636,"current_range_meters":38800,"station_id":"ce4bhm12rcd13ifvqgkg","pricing_plan_id":"cebpf4jnsgd1na2vs0mg"},{"bike_id":"921bbff8-28d4-4d0d-80af-4b13aeca41c1","system_id":"levelo_inurba_marseille","lat":43.26917,"lon":5.40863,"is_reserved":false,"is_disabled":false,"rental_uris":{"android":"levelo://app?vid=921bbff8-28d4-4d0d-80af-4b13aeca41c1","ios":"levelo://app?vid=921bbff8-28d4-4d0d-80af-4b13aeca41c1"},"vehicle_type_id":"4","last_reported":1734545636,"current_range_meters":27200,"station_id":"","pricing_plan_id":"cebpf4jnsgd1na2vs0mg"},{"bike_id":"8c63ec5d-fd7e-4b6e-b8ce-983da6bfb3e1","system_id":"levelo_inurba_marseille","lat":43.265487,"lon":5.372753,"is_reserved":false,"is_disabled":false,"rental_uris":{"android":"levelo://app?vid=8c63ec5d-fd7e-4b6e-b8ce-983da6bfb3e1","ios":"levelo://app?vid=8c63ec5d-fd7e-4b6e-b8ce-983da6bfb3e1"},"vehicle_type_id":"4","last_reported":1734545636,"current_range_meters":10800,"station_id":"ce4bhg12rcd13ifvqf70","pricing_plan_id":"cebpf4jnsgd1na2vs0mg"},{"bike_id":"d701d942-3097-416b-ba9e-ba9024999f6c","system_id":"levelo_inurba_marseille","lat":43.29527,"lon":5.38538,"is_reserved":false,"is_disabled":false,"rental_uris":{"android":"levelo://app?vid=d701d942-3097-416b-ba9e-ba9024999f6c","ios":"levelo://app?vid=d701d942-3097-416b-ba9e-ba9024999f6c"},"vehicle_type_id":"4","last_reported":1734545636,"current_range_meters":9200,"station_id":"ce4bgih2rcd13ifvqba0","pricing_plan_id":"cebpf4jnsgd1na2vs0mg"},{"bike_id":"a4dde816-4ecf-477b-919c-356ad5d577c2","system_id":"levelo_inurba_marseille","lat":43.29205,"lon":5.36051,"is_reserved":false,"is_disabled":false,"rental_uris":{"android":"levelo://app?vid=a4dde816-4ecf-477b-919c-356ad5d577c2","ios":"levelo://app?vid=a4dde816-4ecf-477b-919c-356ad5d577c2"},"vehicle_type_id":"4","last_reported":1734545636,"current_range_meters":35200,"station_id":"ce4bhbh2rcd13ifvqeqg","pricing_plan_id":"cebpf4jnsgd1na2vs0mg"},{"bike_id":"518a92cc-7bc3-48b0-94c7-dd391d521cd8","system_id":"levelo_inurba_marseille","lat":43.30417,"lon":5.3974,"is_reserved":false,"is_disabled":false,"rental_uris":{"android":"levelo://app?vid=518a92cc-7bc3-48b0-94c7-dd391d521cd8","ios":"levelo://app?vid=518a92cc-7bc3-48b0-94c7-dd391d521cd8"},"vehicle_type_id":"4","last_reported":1734545636,"current_range_meters":24800,"station_id":"ce4bh092rcd13ifvqd20","pricing_plan_id":"cebpf4jnsgd1na2vs0mg"},{"bike_id":"e96c1dd3-0691-4900-983f-0685d7cc1cdc","system_id":"levelo_inurba_marseille","lat":43.29532,"lon":5.39406,"is_reserved":false,"is_disabled":false,"rental_uris":{"android":"levelo://app?vid=e96c1dd3-0691-4900-983f-0685d7cc1cdc","ios":"levelo://app?vid=e96c1dd3-0691-4900-983f-0685d7cc1cdc"},"vehicle_type_id":"4","last_reported":1734545636,"current_range_meters":37600,"station_id":"ce4bh292rcd13ifvqdf0","pricing_plan_id":"cebpf4jnsgd1na2vs0mg"},{"bike_id":"8166c4b5-8a23-4644-93c9-5c7137a7e89f","system_id":"levelo_inurba_marseille","lat":43.30355,"lon":5.41884,"is_reserved":false,"is_disabled":true,"rental_uris":{"android":"levelo://app?vid=8166c4b5-8a23-4644-93c9-5c7137a7e89f","ios":"levelo://app?vid=8166c4b5-8a23-4644-93c9-5c7137a7e89f"},"vehicle_type_id":"4","last_reported":1734545636,"current_range_meters":0,"station_id":"ce4bhop2rcd13ifvqh7g","pricing_plan_id":"cebpf4jnsgd1na2vs0mg"},{"bike_id":"ce5df149-3064-48f7-87cc-2a61b10ecf4e","system_id":"levelo_inurba_marseille","lat":43.23972,"lon":5.36621,"is_reserved":false,"is_disabled":false,"rental_uris":{"android":"levelo://app?vid=ce5df149-3064-48f7-87cc-2a61b10ecf4e","ios":"levelo://app?vid=ce5df149-3064-48f7-87cc-2a61b10ecf4e"},"vehicle_type_id":"4","last_reported":1734545636,"current_range_meters":38800,"station_id":"ce4bhi12rcd13ifvqfp0","pricing_plan_id":"cebpf4jnsgd1na2vs0mg"},{"bike_id":"03ab9c1b-bf6a-4af6-8cb4-ef9e26878086","system_id":"levelo_inurba_marseille","lat":43.29553,"lon":5.42293,"is_reserved":false,"is_disabled":false,"rental_uris":{"android":"levelo://app?vid=03ab9c1b-bf6a-4af6-8cb4-ef9e26878086","ios":"levelo://app?vid=03ab9c1b-bf6a-4af6-8cb4-ef9e26878086"},"vehicle_type_id":"4","last_reported":1734545636,"current_range_meters":27600,"station_id":"ce4bhph2rcd13ifvqhdg","pricing_plan_id":"cebpf4jnsgd1na2vs0mg"},{"bike_id":"782bcbf2-b7de-4b04-bebc-aaa0329dd90c","system_id":"levelo_inurba_marseille","lat":43.23194,"lon":5.35555,"is_reserved":false,"is_disabled":false,"rental_uris":{"android":"levelo://app?vid=782bcbf2-b7de-4b04-bebc-aaa0329dd90c","ios":"levelo://app?vid=782bcbf2-b7de-4b04-bebc-aaa0329dd90c"},"vehicle_type_id":"4","last_reported":1734545636,"current_range_meters":38800,"station_id":"ce4bhu92rcd13ifvqi70","pricing_plan_id":"cebpf4jnsgd1na2vs0mg"},{"bike_id":"2f6c2d5f-3df2-49a3-af14-1bb6fe7b7e12","system_id":"levelo_inurba_marseille","lat":43.25119,"lon":5.40304,"is_reserved":false,"is_disabled":false,"rental_uris":{"android":"levelo://app?vid=2f6c2d5f-3df2-49a3-af14-1bb6fe7b7e12","ios":"levelo://app?vid=2f6c2d5f-3df2-49a3-af14-1bb6fe7b7e12"},"vehicle_type_id":"4","last_reported":1734545636,"current_range_meters":5600,"station_id":"ce4bhlh2rcd13ifvqgig","pricing_plan_id":"cebpf4jnsgd1na2vs0mg"},{"bike_id":"96ff88dc-8cf7-4b0f-a345-fa00220da932","system_id":"levelo_inurba_marseille","lat":43.27418,"lon":5.42394,"is_reserved":false,"is_disabled":true,"rental_uris":{"android":"levelo://app?vid=96ff88dc-8cf7-4b0f-a345-fa00220da932","ios":"levelo://app?vid=96ff88dc-8cf7-4b0f-a345-fa00220da932"},"vehicle_type_id":"4","last_reported":1734545636,"current_range_meters":0,"station_id":"","pricing_plan_id":"cebpf4jnsgd1na2vs0mg"},{"bike_id":"d033e481-cf2c-436a-88d8-e136b48caeda","system_id":"levelo_inurba_marseille","lat":43.24381,"lon":5.37058,"is_reserved":false,"is_disabled":false,"rental_uris":{"android":"levelo://app?vid=d033e481-cf2c-436a-88d8-e136b48caeda","ios":"levelo://app?vid=d033e481-cf2c-436a-88d8-e136b48caeda"},"vehicle_type_id":"4","last_reported":1734545636,"current_range_meters":18000,"station_id":"ce4bhhh2rcd13ifvqfk0","pricing_plan_id":"cebpf4jnsgd1na2vs0mg"},{"bike_id":"5654a558-cefd-4b06-9c09-58d1b662d5cd","system_id":"levelo_inurba_marseille","lat":43.24181,"lon":5.3972,"is_reserved":false,"is_disabled":false,"rental_uris":{"android":"levelo://app?vid=5654a558-cefd-4b06-9c09-58d1b662d5cd","ios":"levelo://app?vid=5654a558-cefd-4b06-9c09-58d1b662d5cd"},"vehicle_type_id":"4","last_reported":1734545636,"current_range_meters":38000,"station_id":"ce4bhn12rcd13ifvqgpg","pricing_plan_id":"cebpf4jnsgd1na2vs0mg"},{"bike_id":"bc97dd5a-7e73-4c91-9e26-acdfe24812ab","system_id":"levelo_inurba_marseille","lat":43.29415,"lon":5.38624,"is_reserved":false,"is_disabled":true,"rental_uris":{"android":"levelo://app?vid=bc97dd5a-7e73-4c91-9e26-acdfe24812ab","ios":"levelo://app?vid=bc97dd5a-7e73-4c91-9e26-acdfe24812ab"},"vehicle_type_id":"4","last_reported":1734545636,"current_range_meters":0,"station_id":"ce4bh2h2rcd13ifvqdh0","pricing_plan_id":"cebpf4jnsgd1na2vs0mg"},{"bike_id":"d8f444b6-976e-48fe-8536-ca4151c3cac0","system_id":"levelo_inurba_marseille","lat":43.30799,"lon":5.38149,"is_reserved":false,"is_disabled":true,"rental_uris":{"android":"levelo://app?vid=d8f444b6-976e-48fe-8536-ca4151c3cac0","ios":"levelo://app?vid=d8f444b6-976e-48fe-8536-ca4151c3cac0"},"vehicle_type_id":"4","last_reported":1734545636,"current_range_meters":0,"station_id":"ce4bgt12rcd13ifvqce0","pricing_plan_id":"cebpf4jnsgd1na2vs0mg"},{"bike_id":"8d22bae6-db5b-4219-9bf6-3f87beca267e","system_id":"levelo_inurba_marseille","lat":43.29374,"lon":5.37847,"is_reserved":false,"is_disabled":true,"rental_uris":{"android":"levelo://app?vid=8d22bae6-db5b-4219-9bf6-3f87beca267e","ios":"levelo://app?vid=8d22bae6-db5b-4219-9bf6-3f87beca267e"},"vehicle_type_id":"4","last_reported":1734545636,"current_range_meters":16800,"station_id":"ce4bgjh2rcd13ifvqbf0","pricing_plan_id":"cebpf4jnsgd1na2vs0mg"},{"bike_id":"37a3e5bf-6f53-427b-9a89-d96d119f0635","system_id":"levelo_inurba_marseille","lat":43.26595,"lon":5.37279,"is_reserved":false,"is_disabled":true,"rental_uris":{"android":"levelo://app?vid=37a3e5bf-6f53-427b-9a89-d96d119f0635","ios":"levelo://app?vid=37a3e5bf-6f53-427b-9a89-d96d119f0635"},"vehicle_type_id":"4","last_reported":1734545636,"current_range_meters":0,"station_id":"ce4bhg12rcd13ifvqf70","pricing_plan_id":"cebpf4jnsgd1na2vs0mg"},{"bike_id":"cd662eb7-69ad-44c3-96b8-64676dd03ecd","system_id":"levelo_inurba_marseille","lat":43.28103,"lon":5.39637,"is_reserved":false,"is_disabled":false,"rental_uris":{"android":"levelo://app?vid=cd662eb7-69ad-44c3-96b8-64676dd03ecd","ios":"levelo://app?vid=cd662eb7-69ad-44c3-96b8-64676dd03ecd"},"vehicle_type_id":"4","last_reported":1734545636,"current_range_meters":29600,"station_id":"ce4bho12rcd13ifvqh2g","pricing_plan_id":"cebpf4jnsgd1na2vs0mg"},{"bike_id":"6c28fc10-0e8b-4b3c-99fa-036f0b69cf71","system_id":"levelo_inurba_marseille","lat":43.30935,"lon":5.40138,"is_reserved":false,"is_disabled":false,"rental_uris":{"android":"levelo://app?vid=6c28fc10-0e8b-4b3c-99fa-036f0b69cf71","ios":"levelo://app?vid=6c28fc10-0e8b-4b3c-99fa-036f0b69cf71"},"vehicle_type_id":"4","last_reported":1734545636,"current_range_meters":4000,"station_id":"ce4bgvp2rcd13ifvqct0","pricing_plan_id":"cebpf4jnsgd1na2vs0mg"},{"bike_id":"2228c431-6a44-4614-b8de-b37b4447afaa","system_id":"levelo_inurba_marseille","lat":43.27811,"lon":5.40708,"is_reserved":false,"is_disabled":false,"rental_uris":{"android":"levelo://app?vid=2228c431-6a44-4614-b8de-b37b4447afaa","ios":"levelo://app?vid=2228c431-6a44-4614-b8de-b37b4447afaa"},"vehicle_type_id":"4","last_reported":1734545636,"current_range_meters":6000,"station_id":"ce4bhnh2rcd13ifvqgtg","pricing_plan_id":"cebpf4jnsgd1na2vs0mg"},{"bike_id":"88510cc1-d9fe-438a-a531-0fa1e89c9e0b","system_id":"levelo_inurba_marseille","lat":43.231893,"lon":5.399827,"is_reserved":false,"is_disabled":false,"rental_uris":{"android":"levelo://app?vid=88510cc1-d9fe-438a-a531-0fa1e89c9e0b","ios":"levelo://app?vid=88510cc1-d9fe-438a-a531-0fa1e89c9e0b"},"vehicle_type_id":"4","last_reported":1734545636,"current_range_meters":39200,"station_id":"ce4bhn12rcd13ifvqgqg","pricing_plan_id":"cebpf4jnsgd1na2vs0mg"},{"bike_id":"97fa7a5d-a7ef-4e16-876a-146c6b539c7c","system_id":"levelo_inurba_marseille","lat":43.276728,"lon":5.389063,"is_reserved":false,"is_disabled":false,"rental_uris":{"android":"levelo://app?vid=97fa7a5d-a7ef-4e16-876a-146c6b539c7c","ios":"levelo://app?vid=97fa7a5d-a7ef-4e16-876a-146c6b539c7c"},"vehicle_type_id":"4","last_reported":1734545636,"current_range_meters":8000,"station_id":"ce4bhi12rcd13ifvqfo0","pricing_plan_id":"cebpf4jnsgd1na2vs0mg"},{"bike_id":"09cbd1d0-9199-44b6-a102-66523e4e3f53","system_id":"levelo_inurba_marseille","lat":43.29096,"lon":5.38126,"is_reserved":false,"is_disabled":false,"rental_uris":{"android":"levelo://app?vid=09cbd1d0-9199-44b6-a102-66523e4e3f53","ios":"levelo://app?vid=09cbd1d0-9199-44b6-a102-66523e4e3f53"},"vehicle_type_id":"4","last_reported":1734545636,"current_range_meters":25600,"station_id":"ce4bh512rcd13ifvqe2g","pricing_plan_id":"cebpf4jnsgd1na2vs0mg"},{"bike_id":"ab258363-2d67-491f-8f99-402ac5561cbe","system_id":"levelo_inurba_marseille","lat":43.29526,"lon":5.38543,"is_reserved":false,"is_disabled":false,"rental_uris":{"android":"levelo://app?vid=ab258363-2d67-491f-8f99-402ac5561cbe","ios":"levelo://app?vid=ab258363-2d67-491f-8f99-402ac5561cbe"},"vehicle_type_id":"4","last_reported":1734545636,"current_range_meters":31200,"station_id":"ce4bgih2rcd13ifvqba0","pricing_plan_id":"cebpf4jnsgd1na2vs0mg"},{"bike_id":"0b6b3976-68e9-4711-87f7-55c52ecdf475","system_id":"levelo_inurba_marseille","lat":43.29299,"lon":5.37164,"is_reserved":false,"is_disabled":false,"rental_uris":{"android":"levelo://app?vid=0b6b3976-68e9-4711-87f7-55c52ecdf475","ios":"levelo://app?vid=0b6b3976-68e9-4711-87f7-55c52ecdf475"},"vehicle_type_id":"4","last_reported":1734545636,"current_range_meters":9200,"station_id":"ce4bgh92rcd13ifvqb40","pricing_plan_id":"cebpf4jnsgd1na2vs0mg"},{"bike_id":"c47861ea-6543-42ee-98ba-1f076e9b307c","system_id":"levelo_inurba_marseille","lat":43.29575,"lon":5.36736,"is_reserved":false,"is_disabled":false,"rental_uris":{"android":"levelo://app?vid=c47861ea-6543-42ee-98ba-1f076e9b307c","ios":"levelo://app?vid=c47861ea-6543-42ee-98ba-1f076e9b307c"},"vehicle_type_id":"4","last_reported":1734545636,"current_range_meters":17600,"station_id":"ce4bgph2rcd13ifvqc2g","pricing_plan_id":"cebpf4jnsgd1na2vs0mg"},{"bike_id":"ba60245e-88fd-4aa5-9df5-baee3ef1d4e4","system_id":"levelo_inurba_marseille","lat":43.28726,"lon":5.37922,"is_reserved":false,"is_disabled":true,"rental_uris":{"android":"levelo://app?vid=ba60245e-88fd-4aa5-9df5-baee3ef1d4e4","ios":"levelo://app?vid=ba60245e-88fd-4aa5-9df5-baee3ef1d4e4"},"vehicle_type_id":"4","last_reported":1734545636,"current_range_meters":25600,"station_id":"ce4bh9p2rcd13ifvqec0","pricing_plan_id":"cebpf4jnsgd1na2vs0mg"},{"bike_id":"2706d02d-aaff-40a5-9926-c7426882c786","system_id":"levelo_inurba_marseille","lat":43.30805,"lon":5.43513,"is_reserved":false,"is_disabled":false,"rental_uris":{"android":"levelo://app?vid=2706d02d-aaff-40a5-9926-c7426882c786","ios":"levelo://app?vid=2706d02d-aaff-40a5-9926-c7426882c786"},"vehicle_type_id":"4","last_reported":1734545636,"current_range_meters":10800,"station_id":"ce4bhph2rcd13ifvqheg","pricing_plan_id":"cebpf4jnsgd1na2vs0mg"},{"bike_id":"4c8b14c1-a279-4e3d-b684-d6545dbf4d61","system_id":"levelo_inurba_marseille","lat":43.31058,"lon":5.37564,"is_reserved":false,"is_disabled":false,"rental_uris":{"android":"levelo://app?vid=4c8b14c1-a279-4e3d-b684-d6545dbf4d61","ios":"levelo://app?vid=4c8b14c1-a279-4e3d-b684-d6545dbf4d61"},"vehicle_type_id":"4","last_reported":1734545636,"current_range_meters":32400,"station_id":"","pricing_plan_id":"cebpf4jnsgd1na2vs0mg"},{"bike_id":"dece50d5-78ec-49a4-af77-5488072baa57","system_id":"levelo_inurba_marseille","lat":43.29419,"lon":5.38621,"is_reserved":false,"is_disabled":true,"rental_uris":{"android":"levelo://app?vid=dece50d5-78ec-49a4-af77-5488072baa57","ios":"levelo://app?vid=dece50d5-78ec-49a4-af77-5488072baa57"},"vehicle_type_id":"4","last_reported":1734545636,"current_range_meters":1200,"station_id":"ce4bh2h2rcd13ifvqdh0","pricing_plan_id":"cebpf4jnsgd1na2vs0mg"},{"bike_id":"e0c2eddf-4ba9-4754-b0b5-efd80badee74","system_id":"levelo_inurba_marseille","lat":43.25866,"lon":5.39421,"is_reserved":false,"is_disabled":true,"rental_uris":{"android":"levelo://app?vid=e0c2eddf-4ba9-4754-b0b5-efd80badee74","ios":"levelo://app?vid=e0c2eddf-4ba9-4754-b0b5-efd80badee74"},"vehicle_type_id":"4","last_reported":1734545636,"current_range_meters":0,"station_id":"","pricing_plan_id":"cebpf4jnsgd1na2vs0mg"},{"bike_id":"d546bd4d-aeb5-4ee9-82a2-b3f374fd1e77","system_id":"levelo_inurba_marseille","lat":43.29412,"lon":5.3862,"is_reserved":false,"is_disabled":false,"rental_uris":{"android":"levelo://app?vid=d546bd4d-aeb5-4ee9-82a2-b3f374fd1e77","ios":"levelo://app?vid=d546bd4d-aeb5-4ee9-82a2-b3f374fd1e77"},"vehicle_type_id":"4","last_reported":1734545636,"current_range_meters":22000,"station_id":"ce4bh2h2rcd13ifvqdh0","pricing_plan_id":"cebpf4jnsgd1na2vs0mg"},{"bike_id":"7a39c6d7-285c-4252-88a3-1c4993ad18ff","system_id":"levelo_inurba_marseille","lat":43.2926,"lon":5.38434,"is_reserved":false,"is_disabled":false,"rental_uris":{"android":"levelo://app?vid=7a39c6d7-285c-4252-88a3-1c4993ad18ff","ios":"levelo://app?vid=7a39c6d7-285c-4252-88a3-1c4993ad18ff"},"vehicle_type_id":"4","last_reported":1734545636,"current_range_meters":38800,"station_id":"ce4bh692rcd13ifvqea0","pricing_plan_id":"cebpf4jnsgd1na2vs0mg"},{"bike_id":"ff6c6cb2-193d-4cda-989d-8ff0aca58427","system_id":"levelo_inurba_marseille","lat":43.3061,"lon":5.37165,"is_reserved":false,"is_disabled":true,"rental_uris":{"android":"levelo://app?vid=ff6c6cb2-193d-4cda-989d-8ff0aca58427","ios":"levelo://app?vid=ff6c6cb2-193d-4cda-989d-8ff0aca58427"},"vehicle_type_id":"4","last_reported":1734545636,"current_range_meters":0,"station_id":"ce4bgqh2rcd13ifvqc4g","pricing_plan_id":"cebpf4jnsgd1na2vs0mg"},{"bike_id":"68907ca0-038a-4705-886b-af6c122ac485","system_id":"levelo_inurba_marseille","lat":43.23185,"lon":5.39983,"is_reserved":false,"is_disabled":false,"rental_uris":{"android":"levelo://app?vid=68907ca0-038a-4705-886b-af6c122ac485","ios":"levelo://app?vid=68907ca0-038a-4705-886b-af6c122ac485"},"vehicle_type_id":"4","last_reported":1734545636,"current_range_meters":39200,"station_id":"ce4bhn12rcd13ifvqgqg","pricing_plan_id":"cebpf4jnsgd1na2vs0mg"},{"bike_id":"9e523466-8b3e-4b26-a0d6-bfa12e80e7d8","system_id":"levelo_inurba_marseille","lat":43.29895,"lon":5.43668,"is_reserved":false,"is_disabled":true,"rental_uris":{"android":"levelo://app?vid=9e523466-8b3e-4b26-a0d6-bfa12e80e7d8","ios":"levelo://app?vid=9e523466-8b3e-4b26-a0d6-bfa12e80e7d8"},"vehicle_type_id":"4","last_reported":1734545636,"current_range_meters":2000,"station_id":"ce4bhpp2rcd13ifvqhfg","pricing_plan_id":"cebpf4jnsgd1na2vs0mg"},{"bike_id":"f208fd4c-46e2-4df1-a8fe-0c92147325cb","system_id":"levelo_inurba_marseille","lat":43.2782,"lon":5.40692,"is_reserved":false,"is_disabled":false,"rental_uris":{"android":"levelo://app?vid=f208fd4c-46e2-4df1-a8fe-0c92147325cb","ios":"levelo://app?vid=f208fd4c-46e2-4df1-a8fe-0c92147325cb"},"vehicle_type_id":"4","last_reported":1734545636,"current_range_meters":17200,"station_id":"ce4bhnh2rcd13ifvqgtg","pricing_plan_id":"cebpf4jnsgd1na2vs0mg"},{"bike_id":"4555f763-ea00-4e7c-8aa5-f978e6e69cfd","system_id":"levelo_inurba_marseille","lat":43.29305,"lon":5.37174,"is_reserved":false,"is_disabled":false,"rental_uris":{"android":"levelo://app?vid=4555f763-ea00-4e7c-8aa5-f978e6e69cfd","ios":"levelo://app?vid=4555f763-ea00-4e7c-8aa5-f978e6e69cfd"},"vehicle_type_id":"4","last_reported":1734545636,"current_range_meters":4800,"station_id":"ce4bgh92rcd13ifvqb40","pricing_plan_id":"cebpf4jnsgd1na2vs0mg"},{"bike_id":"1a851090-6b64-47dd-84c4-9376c5e86a7c","system_id":"levelo_inurba_marseille","lat":43.31994,"lon":5.38164,"is_reserved":false,"is_disabled":false,"rental_uris":{"android":"levelo://app?vid=1a851090-6b64-47dd-84c4-9376c5e86a7c","ios":"levelo://app?vid=1a851090-6b64-47dd-84c4-9376c5e86a7c"},"vehicle_type_id":"4","last_reported":1734545636,"current_range_meters":34800,"station_id":"ce4bhr12rcd13ifvqhpg","pricing_plan_id":"cebpf4jnsgd1na2vs0mg"},{"bike_id":"41afa7a8-5fa4-4d1b-bbc9-fd39a358e8bc","system_id":"levelo_inurba_marseille","lat":43.26058,"lon":5.39392,"is_reserved":false,"is_disabled":true,"rental_uris":{"android":"levelo://app?vid=41afa7a8-5fa4-4d1b-bbc9-fd39a358e8bc","ios":"levelo://app?vid=41afa7a8-5fa4-4d1b-bbc9-fd39a358e8bc"},"vehicle_type_id":"4","last_reported":1734545636,"current_range_meters":0,"station_id":"ce4bhh92rcd13ifvqfj0","pricing_plan_id":"cebpf4jnsgd1na2vs0mg"},{"bike_id":"d4d41f91-3461-4b8c-8aee-51c41fd54cb3","system_id":"levelo_inurba_marseille","lat":43.29529,"lon":5.38544,"is_reserved":false,"is_disabled":false,"rental_uris":{"android":"levelo://app?vid=d4d41f91-3461-4b8c-8aee-51c41fd54cb3","ios":"levelo://app?vid=d4d41f91-3461-4b8c-8aee-51c41fd54cb3"},"vehicle_type_id":"4","last_reported":1734545636,"current_range_meters":38000,"station_id":"ce4bgih2rcd13ifvqba0","pricing_plan_id":"cebpf4jnsgd1na2vs0mg"},{"bike_id":"2174837b-d6d6-4f1e-8209-8a824dc33723","system_id":"levelo_inurba_marseille","lat":43.28699,"lon":5.39986,"is_reserved":false,"is_disabled":false,"rental_uris":{"android":"levelo://app?vid=2174837b-d6d6-4f1e-8209-8a824dc33723","ios":"levelo://app?vid=2174837b-d6d6-4f1e-8209-8a824dc33723"},"vehicle_type_id":"4","last_reported":1734545636,"current_range_meters":8000,"station_id":"ce4bho92rcd13ifvqh3g","pricing_plan_id":"cebpf4jnsgd1na2vs0mg"},{"bike_id":"bb337245-7c41-4671-900b-a4d92ae562c6","system_id":"levelo_inurba_marseille","lat":43.29522,"lon":5.39019,"is_reserved":false,"is_disabled":true,"rental_uris":{"android":"levelo://app?vid=bb337245-7c41-4671-900b-a4d92ae562c6","ios":"levelo://app?vid=bb337245-7c41-4671-900b-a4d92ae562c6"},"vehicle_type_id":"4","last_reported":1734545636,"current_range_meters":0,"station_id":"ce4bh3p2rcd13ifvqdp0","pricing_plan_id":"cebpf4jnsgd1na2vs0mg"},{"bike_id":"24d297fb-709d-4710-b130-11b8162a08c7","system_id":"levelo_inurba_marseille","lat":43.33022,"lon":5.39046,"is_reserved":false,"is_disabled":false,"rental_uris":{"android":"levelo://app?vid=24d297fb-709d-4710-b130-11b8162a08c7","ios":"levelo://app?vid=24d297fb-709d-4710-b130-11b8162a08c7"},"vehicle_type_id":"4","last_reported":1734545636,"current_range_meters":12800,"station_id":"ce4bhr92rcd13ifvqhrg","pricing_plan_id":"cebpf4jnsgd1na2vs0mg"},{"bike_id":"3a30fa53-0518-4637-abf4-6bd8e0ccd9e8","system_id":"levelo_inurba_marseille","lat":43.32014,"lon":5.41597,"is_reserved":false,"is_disabled":false,"rental_uris":{"android":"levelo://app?vid=3a30fa53-0518-4637-abf4-6bd8e0ccd9e8","ios":"levelo://app?vid=3a30fa53-0518-4637-abf4-6bd8e0ccd9e8"},"vehicle_type_id":"4","last_reported":1734545636,"current_range_meters":30800,"station_id":"ce4bhq92rcd13ifvqhkg","pricing_plan_id":"cebpf4jnsgd1na2vs0mg"},{"bike_id":"a20ec238-5539-4c05-873a-4d8a4f2c98a5","system_id":"levelo_inurba_marseille","lat":43.3079,"lon":5.37654,"is_reserved":false,"is_disabled":false,"rental_uris":{"android":"levelo://app?vid=a20ec238-5539-4c05-873a-4d8a4f2c98a5","ios":"levelo://app?vid=a20ec238-5539-4c05-873a-4d8a4f2c98a5"},"vehicle_type_id":"4","last_reported":1734545636,"current_range_meters":20400,"station_id":"ce4bgv92rcd13ifvqcq0","pricing_plan_id":"cebpf4jnsgd1na2vs0mg"},{"bike_id":"399c33b8-65af-4e4d-8174-1835ed2d8368","system_id":"levelo_inurba_marseille","lat":43.3118,"lon":5.38712,"is_reserved":false,"is_disabled":false,"rental_uris":{"android":"levelo://app?vid=399c33b8-65af-4e4d-8174-1835ed2d8368","ios":"levelo://app?vid=399c33b8-65af-4e4d-8174-1835ed2d8368"},"vehicle_type_id":"4","last_reported":1734545636,"current_range_meters":20000,"station_id":"ce4bgv12rcd13ifvqcp0","pricing_plan_id":"cebpf4jnsgd1na2vs0mg"},{"bike_id":"c531b867-ddb4-45ab-b91c-248cadb3d355","system_id":"levelo_inurba_marseille","lat":43.294215,"lon":5.386242,"is_reserved":false,"is_disabled":true,"rental_uris":{"android":"levelo://app?vid=c531b867-ddb4-45ab-b91c-248cadb3d355","ios":"levelo://app?vid=c531b867-ddb4-45ab-b91c-248cadb3d355"},"vehicle_type_id":"4","last_reported":1734545636,"current_range_meters":0,"station_id":"ce4bh2h2rcd13ifvqdh0","pricing_plan_id":"cebpf4jnsgd1na2vs0mg"},{"bike_id":"3dfa884f-31fa-456b-be9b-b06d2b605c51","system_id":"levelo_inurba_marseille","lat":43.28933,"lon":5.36644,"is_reserved":false,"is_disabled":false,"rental_uris":{"android":"levelo://app?vid=3dfa884f-31fa-456b-be9b-b06d2b605c51","ios":"levelo://app?vid=3dfa884f-31fa-456b-be9b-b06d2b605c51"},"vehicle_type_id":"4","last_reported":1734545636,"current_range_meters":18000,"station_id":"ce4bhap2rcd13ifvqek0","pricing_plan_id":"cebpf4jnsgd1na2vs0mg"},{"bike_id":"e0bdc0f3-aa58-4f4b-9220-eb848c2d608c","system_id":"levelo_inurba_marseille","lat":43.28932,"lon":5.36638,"is_reserved":false,"is_disabled":false,"rental_uris":{"android":"levelo://app?vid=e0bdc0f3-aa58-4f4b-9220-eb848c2d608c","ios":"levelo://app?vid=e0bdc0f3-aa58-4f4b-9220-eb848c2d608c"},"vehicle_type_id":"4","last_reported":1734545636,"current_range_meters":39200,"station_id":"ce4bhap2rcd13ifvqek0","pricing_plan_id":"cebpf4jnsgd1na2vs0mg"},{"bike_id":"723ca84d-3575-485b-8896-1fa235344c22","system_id":"levelo_inurba_marseille","lat":43.30781,"lon":5.37655,"is_reserved":false,"is_disabled":false,"rental_uris":{"android":"levelo://app?vid=723ca84d-3575-485b-8896-1fa235344c22","ios":"levelo://app?vid=723ca84d-3575-485b-8896-1fa235344c22"},"vehicle_type_id":"4","last_reported":1734545636,"current_range_meters":33600,"station_id":"ce4bgv92rcd13ifvqcq0","pricing_plan_id":"cebpf4jnsgd1na2vs0mg"},{"bike_id":"3bec605b-2ea4-40c6-8567-2dcb62a17266","system_id":"levelo_inurba_marseille","lat":43.29272,"lon":5.36835,"is_reserved":false,"is_disabled":true,"rental_uris":{"android":"levelo://app?vid=3bec605b-2ea4-40c6-8567-2dcb62a17266","ios":"levelo://app?vid=3bec605b-2ea4-40c6-8567-2dcb62a17266"},"vehicle_type_id":"4","last_reported":1734545636,"current_range_meters":35200,"station_id":"ce4bhbp2rcd13ifvqesg","pricing_plan_id":"cebpf4jnsgd1na2vs0mg"},{"bike_id":"6151c655-fbaf-4f04-82fd-7b322394b3b9","system_id":"levelo_inurba_marseille","lat":43.29527,"lon":5.39052,"is_reserved":false,"is_disabled":false,"rental_uris":{"android":"levelo://app?vid=6151c655-fbaf-4f04-82fd-7b322394b3b9","ios":"levelo://app?vid=6151c655-fbaf-4f04-82fd-7b322394b3b9"},"vehicle_type_id":"4","last_reported":1734545636,"current_range_meters":30800,"station_id":"ce4bh3p2rcd13ifvqdp0","pricing_plan_id":"cebpf4jnsgd1na2vs0mg"},{"bike_id":"17b2d2b0-9855-46b4-a478-0bd9c7277056","system_id":"levelo_inurba_marseille","lat":43.30912,"lon":5.37844,"is_reserved":false,"is_disabled":true,"rental_uris":{"android":"levelo://app?vid=17b2d2b0-9855-46b4-a478-0bd9c7277056","ios":"levelo://app?vid=17b2d2b0-9855-46b4-a478-0bd9c7277056"},"vehicle_type_id":"4","last_reported":1734545636,"current_range_meters":0,"station_id":"","pricing_plan_id":"cebpf4jnsgd1na2vs0mg"},{"bike_id":"d134b5ae-4cd1-4a36-9619-11bd3792bf50","system_id":"levelo_inurba_marseille","lat":43.28933,"lon":5.36637,"is_reserved":false,"is_disabled":true,"rental_uris":{"android":"levelo://app?vid=d134b5ae-4cd1-4a36-9619-11bd3792bf50","ios":"levelo://app?vid=d134b5ae-4cd1-4a36-9619-11bd3792bf50"},"vehicle_type_id":"4","last_reported":1734545636,"current_range_meters":2000,"station_id":"ce4bhap2rcd13ifvqek0","pricing_plan_id":"cebpf4jnsgd1na2vs0mg"},{"bike_id":"a762c04b-37ca-4bfb-884a-e4dc66cc2207","system_id":"levelo_inurba_marseille","lat":43.28854,"lon":5.35843,"is_reserved":false,"is_disabled":true,"rental_uris":{"android":"levelo://app?vid=a762c04b-37ca-4bfb-884a-e4dc66cc2207","ios":"levelo://app?vid=a762c04b-37ca-4bfb-884a-e4dc66cc2207"},"vehicle_type_id":"4","last_reported":1734545636,"current_range_meters":0,"station_id":"ce4bhb12rcd13ifvqem0","pricing_plan_id":"cebpf4jnsgd1na2vs0mg"},{"bike_id":"9f97f512-1b19-443a-b67f-86de027e5577","system_id":"levelo_inurba_marseille","lat":43.34549,"lon":5.37605,"is_reserved":false,"is_disabled":false,"rental_uris":{"android":"levelo://app?vid=9f97f512-1b19-443a-b67f-86de027e5577","ios":"levelo://app?vid=9f97f512-1b19-443a-b67f-86de027e5577"},"vehicle_type_id":"4","last_reported":1734545636,"current_range_meters":26000,"station_id":"","pricing_plan_id":"cebpf4jnsgd1na2vs0mg"},{"bike_id":"813043e7-22f5-4b5c-8ed4-b44447ad9cc0","system_id":"levelo_inurba_marseille","lat":43.29421,"lon":5.38617,"is_reserved":false,"is_disabled":false,"rental_uris":{"android":"levelo://app?vid=813043e7-22f5-4b5c-8ed4-b44447ad9cc0","ios":"levelo://app?vid=813043e7-22f5-4b5c-8ed4-b44447ad9cc0"},"vehicle_type_id":"4","last_reported":1734545636,"current_range_meters":24000,"station_id":"ce4bh2h2rcd13ifvqdh0","pricing_plan_id":"cebpf4jnsgd1na2vs0mg"},{"bike_id":"dd983f0d-e62b-4e34-8e6e-45d4d37aa766","system_id":"levelo_inurba_marseille","lat":43.31065,"lon":5.38354,"is_reserved":false,"is_disabled":false,"rental_uris":{"android":"levelo://app?vid=dd983f0d-e62b-4e34-8e6e-45d4d37aa766","ios":"levelo://app?vid=dd983f0d-e62b-4e34-8e6e-45d4d37aa766"},"vehicle_type_id":"4","last_reported":1734545636,"current_range_meters":8800,"station_id":"ce4bgv92rcd13ifvqcr0","pricing_plan_id":"cebpf4jnsgd1na2vs0mg"},{"bike_id":"99b54e92-5058-4a53-a41a-5f71a85a59e5","system_id":"levelo_inurba_marseille","lat":43.30787,"lon":5.37639,"is_reserved":false,"is_disabled":false,"rental_uris":{"android":"levelo://app?vid=99b54e92-5058-4a53-a41a-5f71a85a59e5","ios":"levelo://app?vid=99b54e92-5058-4a53-a41a-5f71a85a59e5"},"vehicle_type_id":"4","last_reported":1734545636,"current_range_meters":24800,"station_id":"ce4bgv92rcd13ifvqcq0","pricing_plan_id":"cebpf4jnsgd1na2vs0mg"},{"bike_id":"5bafae3d-3b43-4378-baac-382eb7a072c0","system_id":"levelo_inurba_marseille","lat":43.29303,"lon":5.37164,"is_reserved":false,"is_disabled":false,"rental_uris":{"android":"levelo://app?vid=5bafae3d-3b43-4378-baac-382eb7a072c0","ios":"levelo://app?vid=5bafae3d-3b43-4378-baac-382eb7a072c0"},"vehicle_type_id":"4","last_reported":1734545636,"current_range_meters":12400,"station_id":"ce4bgh92rcd13ifvqb40","pricing_plan_id":"cebpf4jnsgd1na2vs0mg"},{"bike_id":"da708de4-c602-4244-8495-8ce716405c97","system_id":"levelo_inurba_marseille","lat":43.324456,"lon":5.406605,"is_reserved":false,"is_disabled":true,"rental_uris":{"android":"levelo://app?vid=da708de4-c602-4244-8495-8ce716405c97","ios":"levelo://app?vid=da708de4-c602-4244-8495-8ce716405c97"},"vehicle_type_id":"4","last_reported":1734545636,"current_range_meters":0,"station_id":"ce4bhq92rcd13ifvqhjg","pricing_plan_id":"cebpf4jnsgd1na2vs0mg"},{"bike_id":"da8f53ac-584d-4e89-8f7f-4c361b7948e6","system_id":"levelo_inurba_marseille","lat":43.232,"lon":5.35554,"is_reserved":false,"is_disabled":true,"rental_uris":{"android":"levelo://app?vid=da8f53ac-584d-4e89-8f7f-4c361b7948e6","ios":"levelo://app?vid=da8f53ac-584d-4e89-8f7f-4c361b7948e6"},"vehicle_type_id":"4","last_reported":1734545636,"current_range_meters":1600,"station_id":"ce4bhu92rcd13ifvqi70","pricing_plan_id":"cebpf4jnsgd1na2vs0mg"},{"bike_id":"aa067405-a7b8-4bf7-b8af-d142c22aed60","system_id":"levelo_inurba_marseille","lat":43.27947,"lon":5.41024,"is_reserved":false,"is_disabled":false,"rental_uris":{"android":"levelo://app?vid=aa067405-a7b8-4bf7-b8af-d142c22aed60","ios":"levelo://app?vid=aa067405-a7b8-4bf7-b8af-d142c22aed60"},"vehicle_type_id":"4","last_reported":1734545636,"current_range_meters":7200,"station_id":"ce4bhnp2rcd13ifvqh0g","pricing_plan_id":"cebpf4jnsgd1na2vs0mg"},{"bike_id":"63ac9ec0-94d0-4b1e-8838-1ee7b4295fda","system_id":"levelo_inurba_marseille","lat":43.32101,"lon":5.3677,"is_reserved":false,"is_disabled":true,"rental_uris":{"android":"levelo://app?vid=63ac9ec0-94d0-4b1e-8838-1ee7b4295fda","ios":"levelo://app?vid=63ac9ec0-94d0-4b1e-8838-1ee7b4295fda"},"vehicle_type_id":"4","last_reported":1734545636,"current_range_meters":0,"station_id":"ce4bhrh2rcd13ifvqhug","pricing_plan_id":"cebpf4jnsgd1na2vs0mg"},{"bike_id":"1aa0baa0-c9b7-4ead-8923-ce2dfe650cd7","system_id":"levelo_inurba_marseille","lat":43.27666,"lon":5.3888,"is_reserved":false,"is_disabled":false,"rental_uris":{"android":"levelo://app?vid=1aa0baa0-c9b7-4ead-8923-ce2dfe650cd7","ios":"levelo://app?vid=1aa0baa0-c9b7-4ead-8923-ce2dfe650cd7"},"vehicle_type_id":"4","last_reported":1734545636,"current_range_meters":16400,"station_id":"ce4bhi12rcd13ifvqfo0","pricing_plan_id":"cebpf4jnsgd1na2vs0mg"},{"bike_id":"f27d7f85-4fd1-4557-a463-866e916e15c6","system_id":"levelo_inurba_marseille","lat":43.2942,"lon":5.38619,"is_reserved":false,"is_disabled":false,"rental_uris":{"android":"levelo://app?vid=f27d7f85-4fd1-4557-a463-866e916e15c6","ios":"levelo://app?vid=f27d7f85-4fd1-4557-a463-866e916e15c6"},"vehicle_type_id":"4","last_reported":1734545636,"current_range_meters":3200,"station_id":"ce4bh2h2rcd13ifvqdh0","pricing_plan_id":"cebpf4jnsgd1na2vs0mg"},{"bike_id":"0a2d6b5c-3423-489b-919b-2f4ec6a2cdc3","system_id":"levelo_inurba_marseille","lat":43.28,"lon":5.40006,"is_reserved":false,"is_disabled":false,"rental_uris":{"android":"levelo://app?vid=0a2d6b5c-3423-489b-919b-2f4ec6a2cdc3","ios":"levelo://app?vid=0a2d6b5c-3423-489b-919b-2f4ec6a2cdc3"},"vehicle_type_id":"4","last_reported":1734545636,"current_range_meters":16400,"station_id":"ce4bho92rcd13ifvqh4g","pricing_plan_id":"cebpf4jnsgd1na2vs0mg"},{"bike_id":"e49249f7-67ae-4467-9089-d0be452ea2b0","system_id":"levelo_inurba_marseille","lat":43.27193,"lon":5.40982,"is_reserved":false,"is_disabled":false,"rental_uris":{"android":"levelo://app?vid=e49249f7-67ae-4467-9089-d0be452ea2b0","ios":"levelo://app?vid=e49249f7-67ae-4467-9089-d0be452ea2b0"},"vehicle_type_id":"4","last_reported":1734545636,"current_range_meters":38000,"station_id":"ce4bhl12rcd13ifvqgf0","pricing_plan_id":"cebpf4jnsgd1na2vs0mg"},{"bike_id":"882de910-9b3d-43e3-b04c-ac39dcd38f96","system_id":"levelo_inurba_marseille","lat":43.30614,"lon":5.36744,"is_reserved":false,"is_disabled":false,"rental_uris":{"android":"levelo://app?vid=882de910-9b3d-43e3-b04c-ac39dcd38f96","ios":"levelo://app?vid=882de910-9b3d-43e3-b04c-ac39dcd38f96"},"vehicle_type_id":"4","last_reported":1734545636,"current_range_meters":38000,"station_id":"ce4bgrp2rcd13ifvqc9g","pricing_plan_id":"cebpf4jnsgd1na2vs0mg"},{"bike_id":"8f47caf5-39de-4bf3-ac18-4171c646141f","system_id":"levelo_inurba_marseille","lat":43.2902,"lon":5.38641,"is_reserved":false,"is_disabled":false,"rental_uris":{"android":"levelo://app?vid=8f47caf5-39de-4bf3-ac18-4171c646141f","ios":"levelo://app?vid=8f47caf5-39de-4bf3-ac18-4171c646141f"},"vehicle_type_id":"4","last_reported":1734545636,"current_range_meters":8400,"station_id":"ce4bh4p2rcd13ifvqe0g","pricing_plan_id":"cebpf4jnsgd1na2vs0mg"},{"bike_id":"7e876e85-730f-4bb1-8e78-bc65c4d6fe75","system_id":"levelo_inurba_marseille","lat":43.29041,"lon":5.35916,"is_reserved":false,"is_disabled":false,"rental_uris":{"android":"levelo://app?vid=7e876e85-730f-4bb1-8e78-bc65c4d6fe75","ios":"levelo://app?vid=7e876e85-730f-4bb1-8e78-bc65c4d6fe75"},"vehicle_type_id":"4","last_reported":1734545636,"current_range_meters":25600,"station_id":"ce4bha92rcd13ifvqeg0","pricing_plan_id":"cebpf4jnsgd1na2vs0mg"},{"bike_id":"647a24ea-8723-4b44-a66c-e4feebd50d69","system_id":"levelo_inurba_marseille","lat":43.305482,"lon":5.366942,"is_reserved":false,"is_disabled":false,"rental_uris":{"android":"levelo://app?vid=647a24ea-8723-4b44-a66c-e4feebd50d69","ios":"levelo://app?vid=647a24ea-8723-4b44-a66c-e4feebd50d69"},"vehicle_type_id":"4","last_reported":1734545636,"current_range_meters":32800,"station_id":"ce4bgrp2rcd13ifvqc9g","pricing_plan_id":"cebpf4jnsgd1na2vs0mg"},{"bike_id":"460959ba-eb71-4998-8228-de2465ef93ce","system_id":"levelo_inurba_marseille","lat":43.2907,"lon":5.37156,"is_reserved":false,"is_disabled":false,"rental_uris":{"android":"levelo://app?vid=460959ba-eb71-4998-8228-de2465ef93ce","ios":"levelo://app?vid=460959ba-eb71-4998-8228-de2465ef93ce"},"vehicle_type_id":"4","last_reported":1734545636,"current_range_meters":26800,"station_id":"ce4bh5p2rcd13ifvqe4g","pricing_plan_id":"cebpf4jnsgd1na2vs0mg"},{"bike_id":"8d833c2e-d7f7-481b-a7e3-80ccf07e3a9e","system_id":"levelo_inurba_marseille","lat":43.29272,"lon":5.40126,"is_reserved":false,"is_disabled":false,"rental_uris":{"android":"levelo://app?vid=8d833c2e-d7f7-481b-a7e3-80ccf07e3a9e","ios":"levelo://app?vid=8d833c2e-d7f7-481b-a7e3-80ccf07e3a9e"},"vehicle_type_id":"4","last_reported":1734545636,"current_range_meters":38800,"station_id":"ce4bh312rcd13ifvqdk0","pricing_plan_id":"cebpf4jnsgd1na2vs0mg"},{"bike_id":"0ba2cc58-146e-4791-af13-2a3524842812","system_id":"levelo_inurba_marseille","lat":43.2792,"lon":5.38009,"is_reserved":false,"is_disabled":false,"rental_uris":{"android":"levelo://app?vid=0ba2cc58-146e-4791-af13-2a3524842812","ios":"levelo://app?vid=0ba2cc58-146e-4791-af13-2a3524842812"},"vehicle_type_id":"4","last_reported":1734545636,"current_range_meters":39200,"station_id":"ce4bhf92rcd13ifvqf50","pricing_plan_id":"cebpf4jnsgd1na2vs0mg"},{"bike_id":"f59e51d7-6956-44a2-8b63-f753e24e5f45","system_id":"levelo_inurba_marseille","lat":43.30211,"lon":5.39471,"is_reserved":false,"is_disabled":false,"rental_uris":{"android":"levelo://app?vid=f59e51d7-6956-44a2-8b63-f753e24e5f45","ios":"levelo://app?vid=f59e51d7-6956-44a2-8b63-f753e24e5f45"},"vehicle_type_id":"4","last_reported":1734545636,"current_range_meters":24000,"station_id":"ce4bh0p2rcd13ifvqd70","pricing_plan_id":"cebpf4jnsgd1na2vs0mg"},{"bike_id":"7f4f7b7f-b63d-46e6-85c6-ad252ca2b08a","system_id":"levelo_inurba_marseille","lat":43.313235,"lon":5.396776,"is_reserved":false,"is_disabled":false,"rental_uris":{"android":"levelo://app?vid=7f4f7b7f-b63d-46e6-85c6-ad252ca2b08a","ios":"levelo://app?vid=7f4f7b7f-b63d-46e6-85c6-ad252ca2b08a"},"vehicle_type_id":"4","last_reported":1734545636,"current_range_meters":6800,"station_id":"ce4bgvp2rcd13ifvqcu0","pricing_plan_id":"cebpf4jnsgd1na2vs0mg"},{"bike_id":"a3c5629d-815a-4b9f-981c-aecf81ac260d","system_id":"levelo_inurba_marseille","lat":43.29093,"lon":5.38136,"is_reserved":false,"is_disabled":true,"rental_uris":{"android":"levelo://app?vid=a3c5629d-815a-4b9f-981c-aecf81ac260d","ios":"levelo://app?vid=a3c5629d-815a-4b9f-981c-aecf81ac260d"},"vehicle_type_id":"4","last_reported":1734545636,"current_range_meters":0,"station_id":"ce4bh512rcd13ifvqe2g","pricing_plan_id":"cebpf4jnsgd1na2vs0mg"},{"bike_id":"e50e2e9e-c072-4b73-aa9f-3fd2bca335ae","system_id":"levelo_inurba_marseille","lat":43.28469,"lon":5.38416,"is_reserved":false,"is_disabled":true,"rental_uris":{"android":"levelo://app?vid=e50e2e9e-c072-4b73-aa9f-3fd2bca335ae","ios":"levelo://app?vid=e50e2e9e-c072-4b73-aa9f-3fd2bca335ae"},"vehicle_type_id":"4","last_reported":1734545636,"current_range_meters":0,"station_id":"ce4bh512rcd13ifvqe3g","pricing_plan_id":"cebpf4jnsgd1na2vs0mg"},{"bike_id":"36c2df9b-fbbf-46e8-8904-727df602a134","system_id":"levelo_inurba_marseille","lat":43.26948,"lon":5.38623,"is_reserved":false,"is_disabled":false,"rental_uris":{"android":"levelo://app?vid=36c2df9b-fbbf-46e8-8904-727df602a134","ios":"levelo://app?vid=36c2df9b-fbbf-46e8-8904-727df602a134"},"vehicle_type_id":"4","last_reported":1734545636,"current_range_meters":16800,"station_id":"ce4bhh92rcd13ifvqfh0","pricing_plan_id":"cebpf4jnsgd1na2vs0mg"},{"bike_id":"e433bf1f-7ea0-4011-b520-f914e36843b5","system_id":"levelo_inurba_marseille","lat":43.31331,"lon":5.39711,"is_reserved":false,"is_disabled":true,"rental_uris":{"android":"levelo://app?vid=e433bf1f-7ea0-4011-b520-f914e36843b5","ios":"levelo://app?vid=e433bf1f-7ea0-4011-b520-f914e36843b5"},"vehicle_type_id":"4","last_reported":1734545636,"current_range_meters":800,"station_id":"ce4bgvp2rcd13ifvqcu0","pricing_plan_id":"cebpf4jnsgd1na2vs0mg"},{"bike_id":"53586763-e6eb-40b6-bde6-7786af1effe6","system_id":"levelo_inurba_marseille","lat":43.31215,"lon":5.36818,"is_reserved":false,"is_disabled":true,"rental_uris":{"android":"levelo://app?vid=53586763-e6eb-40b6-bde6-7786af1effe6","ios":"levelo://app?vid=53586763-e6eb-40b6-bde6-7786af1effe6"},"vehicle_type_id":"4","last_reported":1734545636,"current_range_meters":26800,"station_id":"ce4bgl92rcd13ifvqbq0","pricing_plan_id":"cebpf4jnsgd1na2vs0mg"},{"bike_id":"283c4773-4001-45ea-ba2a-de39cca6ed50","system_id":"levelo_inurba_marseille","lat":43.28923,"lon":5.38389,"is_reserved":false,"is_disabled":false,"rental_uris":{"android":"levelo://app?vid=283c4773-4001-45ea-ba2a-de39cca6ed50","ios":"levelo://app?vid=283c4773-4001-45ea-ba2a-de39cca6ed50"},"vehicle_type_id":"4","last_reported":1734545636,"current_range_meters":28800,"station_id":"ce4bh612rcd13ifvqe6g","pricing_plan_id":"cebpf4jnsgd1na2vs0mg"},{"bike_id":"78f5dcee-b6ca-4cfa-ae6f-ebcf64be1236","system_id":"levelo_inurba_marseille","lat":43.32342,"lon":5.40612,"is_reserved":false,"is_disabled":false,"rental_uris":{"android":"levelo://app?vid=78f5dcee-b6ca-4cfa-ae6f-ebcf64be1236","ios":"levelo://app?vid=78f5dcee-b6ca-4cfa-ae6f-ebcf64be1236"},"vehicle_type_id":"4","last_reported":1734545636,"current_range_meters":38800,"station_id":"ce4bhq92rcd13ifvqhjg","pricing_plan_id":"cebpf4jnsgd1na2vs0mg"},{"bike_id":"dd8c5b4c-64c3-4fbb-8df7-3b1a11a1b585","system_id":"levelo_inurba_marseille","lat":43.27617,"lon":5.361,"is_reserved":false,"is_disabled":false,"rental_uris":{"android":"levelo://app?vid=dd8c5b4c-64c3-4fbb-8df7-3b1a11a1b585","ios":"levelo://app?vid=dd8c5b4c-64c3-4fbb-8df7-3b1a11a1b585"},"vehicle_type_id":"4","last_reported":1734545636,"current_range_meters":7200,"station_id":"ce4bgj92rcd13ifvqbe0","pricing_plan_id":"cebpf4jnsgd1na2vs0mg"},{"bike_id":"a3fe9182-6092-4817-bfd1-df6035ae169c","system_id":"levelo_inurba_marseille","lat":43.27215,"lon":5.39179,"is_reserved":false,"is_disabled":false,"rental_uris":{"android":"levelo://app?vid=a3fe9182-6092-4817-bfd1-df6035ae169c","ios":"levelo://app?vid=a3fe9182-6092-4817-bfd1-df6035ae169c"},"vehicle_type_id":"4","last_reported":1734545636,"current_range_meters":27200,"station_id":"ce4bhhp2rcd13ifvqfm0","pricing_plan_id":"cebpf4jnsgd1na2vs0mg"},{"bike_id":"9294b7c4-f950-43f8-8e30-fdbb56a51003","system_id":"levelo_inurba_marseille","lat":43.33024,"lon":5.39039,"is_reserved":false,"is_disabled":false,"rental_uris":{"android":"levelo://app?vid=9294b7c4-f950-43f8-8e30-fdbb56a51003","ios":"levelo://app?vid=9294b7c4-f950-43f8-8e30-fdbb56a51003"},"vehicle_type_id":"4","last_reported":1734545636,"current_range_meters":15200,"station_id":"ce4bhr92rcd13ifvqhrg","pricing_plan_id":"cebpf4jnsgd1na2vs0mg"},{"bike_id":"350c97be-5cf2-490d-b4cc-0e0571d0e83c","system_id":"levelo_inurba_marseille","lat":43.29627,"lon":5.40602,"is_reserved":false,"is_disabled":false,"rental_uris":{"android":"levelo://app?vid=350c97be-5cf2-490d-b4cc-0e0571d0e83c","ios":"levelo://app?vid=350c97be-5cf2-490d-b4cc-0e0571d0e83c"},"vehicle_type_id":"4","last_reported":1734545636,"current_range_meters":27200,"station_id":"ce4bh0h2rcd13ifvqd60","pricing_plan_id":"cebpf4jnsgd1na2vs0mg"},{"bike_id":"967d65ca-998b-4ada-9ddc-f11753d5d662","system_id":"levelo_inurba_marseille","lat":43.313297,"lon":5.396896,"is_reserved":false,"is_disabled":false,"rental_uris":{"android":"levelo://app?vid=967d65ca-998b-4ada-9ddc-f11753d5d662","ios":"levelo://app?vid=967d65ca-998b-4ada-9ddc-f11753d5d662"},"vehicle_type_id":"4","last_reported":1734545636,"current_range_meters":38800,"station_id":"ce4bgvp2rcd13ifvqcu0","pricing_plan_id":"cebpf4jnsgd1na2vs0mg"},{"bike_id":"30ce2539-4b66-4514-b3cb-1cdc26705e1b","system_id":"levelo_inurba_marseille","lat":43.248156,"lon":5.374658,"is_reserved":false,"is_disabled":false,"rental_uris":{"android":"levelo://app?vid=30ce2539-4b66-4514-b3cb-1cdc26705e1b","ios":"levelo://app?vid=30ce2539-4b66-4514-b3cb-1cdc26705e1b"},"vehicle_type_id":"4","last_reported":1734545636,"current_range_meters":31200,"station_id":"ce4bhgh2rcd13ifvqfb0","pricing_plan_id":"cebpf4jnsgd1na2vs0mg"},{"bike_id":"a777bea5-09ee-47d2-8cc2-f927b484ee03","system_id":"levelo_inurba_marseille","lat":43.26497,"lon":5.39538,"is_reserved":false,"is_disabled":false,"rental_uris":{"android":"levelo://app?vid=a777bea5-09ee-47d2-8cc2-f927b484ee03","ios":"levelo://app?vid=a777bea5-09ee-47d2-8cc2-f927b484ee03"},"vehicle_type_id":"4","last_reported":1734545636,"current_range_meters":12800,"station_id":"ce4bhi12rcd13ifvqfq0","pricing_plan_id":"cebpf4jnsgd1na2vs0mg"},{"bike_id":"e57d7f02-3c7c-49ad-b24d-2290b7f781a7","system_id":"levelo_inurba_marseille","lat":43.26552,"lon":5.37283,"is_reserved":false,"is_disabled":false,"rental_uris":{"android":"levelo://app?vid=e57d7f02-3c7c-49ad-b24d-2290b7f781a7","ios":"levelo://app?vid=e57d7f02-3c7c-49ad-b24d-2290b7f781a7"},"vehicle_type_id":"4","last_reported":1734545636,"current_range_meters":32400,"station_id":"ce4bhg12rcd13ifvqf70","pricing_plan_id":"cebpf4jnsgd1na2vs0mg"},{"bike_id":"a3232108-6d4d-45f4-ac66-cd85d6391bc7","system_id":"levelo_inurba_marseille","lat":43.23062,"lon":5.3548,"is_reserved":false,"is_disabled":false,"rental_uris":{"android":"levelo://app?vid=a3232108-6d4d-45f4-ac66-cd85d6391bc7","ios":"levelo://app?vid=a3232108-6d4d-45f4-ac66-cd85d6391bc7"},"vehicle_type_id":"4","last_reported":1734545636,"current_range_meters":37600,"station_id":"cpo3342slgdg3j2ifvpg","pricing_plan_id":"cebpf4jnsgd1na2vs0mg"},{"bike_id":"e4329dd0-99fa-4ed2-8b46-5a30af40d99b","system_id":"levelo_inurba_marseille","lat":43.29284,"lon":5.40123,"is_reserved":false,"is_disabled":false,"rental_uris":{"android":"levelo://app?vid=e4329dd0-99fa-4ed2-8b46-5a30af40d99b","ios":"levelo://app?vid=e4329dd0-99fa-4ed2-8b46-5a30af40d99b"},"vehicle_type_id":"4","last_reported":1734545636,"current_range_meters":33200,"station_id":"ce4bh312rcd13ifvqdk0","pricing_plan_id":"cebpf4jnsgd1na2vs0mg"},{"bike_id":"32c98ab6-fe20-4209-aaad-3325b93af7bf","system_id":"levelo_inurba_marseille","lat":43.29191,"lon":5.35792,"is_reserved":false,"is_disabled":false,"rental_uris":{"android":"levelo://app?vid=32c98ab6-fe20-4209-aaad-3325b93af7bf","ios":"levelo://app?vid=32c98ab6-fe20-4209-aaad-3325b93af7bf"},"vehicle_type_id":"4","last_reported":1734545636,"current_range_meters":31200,"station_id":"ce4bhb12rcd13ifvqel0","pricing_plan_id":"cebpf4jnsgd1na2vs0mg"},{"bike_id":"5f268945-074c-44ed-9099-05e8aa15f651","system_id":"levelo_inurba_marseille","lat":43.26059,"lon":5.39388,"is_reserved":false,"is_disabled":false,"rental_uris":{"android":"levelo://app?vid=5f268945-074c-44ed-9099-05e8aa15f651","ios":"levelo://app?vid=5f268945-074c-44ed-9099-05e8aa15f651"},"vehicle_type_id":"4","last_reported":1734545636,"current_range_meters":35600,"station_id":"ce4bhh92rcd13ifvqfj0","pricing_plan_id":"cebpf4jnsgd1na2vs0mg"},{"bike_id":"1f85f844-031e-4abc-a842-f34e73f3cb0b","system_id":"levelo_inurba_marseille","lat":43.28112,"lon":5.37823,"is_reserved":false,"is_disabled":false,"rental_uris":{"android":"levelo://app?vid=1f85f844-031e-4abc-a842-f34e73f3cb0b","ios":"levelo://app?vid=1f85f844-031e-4abc-a842-f34e73f3cb0b"},"vehicle_type_id":"4","last_reported":1734545636,"current_range_meters":32000,"station_id":"ce4bha12rcd13ifvqee0","pricing_plan_id":"cebpf4jnsgd1na2vs0mg"},{"bike_id":"b1cbe82a-e1bb-446f-b3b0-49851b44fd45","system_id":"levelo_inurba_marseille","lat":43.3021,"lon":5.39472,"is_reserved":false,"is_disabled":false,"rental_uris":{"android":"levelo://app?vid=b1cbe82a-e1bb-446f-b3b0-49851b44fd45","ios":"levelo://app?vid=b1cbe82a-e1bb-446f-b3b0-49851b44fd45"},"vehicle_type_id":"4","last_reported":1734545636,"current_range_meters":11200,"station_id":"ce4bh0p2rcd13ifvqd70","pricing_plan_id":"cebpf4jnsgd1na2vs0mg"},{"bike_id":"53d84b51-ea35-479a-9800-092de6548357","system_id":"levelo_inurba_marseille","lat":43.27832,"lon":5.39207,"is_reserved":false,"is_disabled":false,"rental_uris":{"android":"levelo://app?vid=53d84b51-ea35-479a-9800-092de6548357","ios":"levelo://app?vid=53d84b51-ea35-479a-9800-092de6548357"},"vehicle_type_id":"4","last_reported":1734545636,"current_range_meters":8400,"station_id":"ce4bhjp2rcd13ifvqga0","pricing_plan_id":"cebpf4jnsgd1na2vs0mg"},{"bike_id":"cc714d77-98c3-4d9b-bcf4-aabc7bcc80b2","system_id":"levelo_inurba_marseille","lat":43.2861,"lon":5.35106,"is_reserved":false,"is_disabled":true,"rental_uris":{"android":"levelo://app?vid=cc714d77-98c3-4d9b-bcf4-aabc7bcc80b2","ios":"levelo://app?vid=cc714d77-98c3-4d9b-bcf4-aabc7bcc80b2"},"vehicle_type_id":"4","last_reported":1734545636,"current_range_meters":0,"station_id":"ce4bhch2rcd13ifvqeug","pricing_plan_id":"cebpf4jnsgd1na2vs0mg"},{"bike_id":"d7aecd96-2a3a-4f6b-bb85-1c716b4405c0","system_id":"levelo_inurba_marseille","lat":43.28103,"lon":5.3783,"is_reserved":false,"is_disabled":false,"rental_uris":{"android":"levelo://app?vid=d7aecd96-2a3a-4f6b-bb85-1c716b4405c0","ios":"levelo://app?vid=d7aecd96-2a3a-4f6b-bb85-1c716b4405c0"},"vehicle_type_id":"4","last_reported":1734545636,"current_range_meters":16800,"station_id":"ce4bha12rcd13ifvqee0","pricing_plan_id":"cebpf4jnsgd1na2vs0mg"},{"bike_id":"6a330eda-a52b-4169-b919-8bc8799977cf","system_id":"levelo_inurba_marseille","lat":43.28099,"lon":5.37834,"is_reserved":false,"is_disabled":false,"rental_uris":{"android":"levelo://app?vid=6a330eda-a52b-4169-b919-8bc8799977cf","ios":"levelo://app?vid=6a330eda-a52b-4169-b919-8bc8799977cf"},"vehicle_type_id":"4","last_reported":1734545636,"current_range_meters":25200,"station_id":"ce4bha12rcd13ifvqee0","pricing_plan_id":"cebpf4jnsgd1na2vs0mg"},{"bike_id":"614ca12a-3413-46a7-8fd1-4e5043baf841","system_id":"levelo_inurba_marseille","lat":43.23168,"lon":5.39974,"is_reserved":false,"is_disabled":false,"rental_uris":{"android":"levelo://app?vid=614ca12a-3413-46a7-8fd1-4e5043baf841","ios":"levelo://app?vid=614ca12a-3413-46a7-8fd1-4e5043baf841"},"vehicle_type_id":"4","last_reported":1734545636,"current_range_meters":31200,"station_id":"ce4bhn12rcd13ifvqgqg","pricing_plan_id":"cebpf4jnsgd1na2vs0mg"},{"bike_id":"3ccb061e-b350-4225-8cb8-73955b7d2ce3","system_id":"levelo_inurba_marseille","lat":43.27993,"lon":5.40012,"is_reserved":false,"is_disabled":false,"rental_uris":{"android":"levelo://app?vid=3ccb061e-b350-4225-8cb8-73955b7d2ce3","ios":"levelo://app?vid=3ccb061e-b350-4225-8cb8-73955b7d2ce3"},"vehicle_type_id":"4","last_reported":1734545636,"current_range_meters":21600,"station_id":"ce4bho92rcd13ifvqh4g","pricing_plan_id":"cebpf4jnsgd1na2vs0mg"},{"bike_id":"f9c80a9f-aef8-4eaa-89a2-fbd089398801","system_id":"levelo_inurba_marseille","lat":43.29263,"lon":5.38443,"is_reserved":false,"is_disabled":false,"rental_uris":{"android":"levelo://app?vid=f9c80a9f-aef8-4eaa-89a2-fbd089398801","ios":"levelo://app?vid=f9c80a9f-aef8-4eaa-89a2-fbd089398801"},"vehicle_type_id":"4","last_reported":1734545636,"current_range_meters":28800,"station_id":"ce4bh692rcd13ifvqea0","pricing_plan_id":"cebpf4jnsgd1na2vs0mg"},{"bike_id":"639be716-803f-4da1-9062-c0eb31c8e7af","system_id":"levelo_inurba_marseille","lat":43.29417,"lon":5.38633,"is_reserved":false,"is_disabled":true,"rental_uris":{"android":"levelo://app?vid=639be716-803f-4da1-9062-c0eb31c8e7af","ios":"levelo://app?vid=639be716-803f-4da1-9062-c0eb31c8e7af"},"vehicle_type_id":"4","last_reported":1734545636,"current_range_meters":1200,"station_id":"ce4bh2h2rcd13ifvqdh0","pricing_plan_id":"cebpf4jnsgd1na2vs0mg"},{"bike_id":"c16d5533-a9e0-4c8b-977b-db13951a0ecf","system_id":"levelo_inurba_marseille","lat":43.29975,"lon":5.38487,"is_reserved":false,"is_disabled":true,"rental_uris":{"android":"levelo://app?vid=c16d5533-a9e0-4c8b-977b-db13951a0ecf","ios":"levelo://app?vid=c16d5533-a9e0-4c8b-977b-db13951a0ecf"},"vehicle_type_id":"4","last_reported":1734545636,"current_range_meters":1200,"station_id":"ce4bgj92rcd13ifvqbd0","pricing_plan_id":"cebpf4jnsgd1na2vs0mg"},{"bike_id":"c8399855-72d4-4f25-aa5a-52a18924a7b8","system_id":"levelo_inurba_marseille","lat":43.24164,"lon":5.36396,"is_reserved":false,"is_disabled":false,"rental_uris":{"android":"levelo://app?vid=c8399855-72d4-4f25-aa5a-52a18924a7b8","ios":"levelo://app?vid=c8399855-72d4-4f25-aa5a-52a18924a7b8"},"vehicle_type_id":"4","last_reported":1734545636,"current_range_meters":38800,"station_id":"cpo36qri1sfpv3e86is0","pricing_plan_id":"cebpf4jnsgd1na2vs0mg"},{"bike_id":"3cca3bbe-1c2d-4610-9300-81bfc82525ee","system_id":"levelo_inurba_marseille","lat":43.29525,"lon":5.38538,"is_reserved":false,"is_disabled":false,"rental_uris":{"android":"levelo://app?vid=3cca3bbe-1c2d-4610-9300-81bfc82525ee","ios":"levelo://app?vid=3cca3bbe-1c2d-4610-9300-81bfc82525ee"},"vehicle_type_id":"4","last_reported":1734545636,"current_range_meters":31200,"station_id":"ce4bgih2rcd13ifvqba0","pricing_plan_id":"cebpf4jnsgd1na2vs0mg"},{"bike_id":"77ec8ecf-7796-4eff-a342-b020b50a847d","system_id":"levelo_inurba_marseille","lat":43.30949,"lon":5.39029,"is_reserved":false,"is_disabled":false,"rental_uris":{"android":"levelo://app?vid=77ec8ecf-7796-4eff-a342-b020b50a847d","ios":"levelo://app?vid=77ec8ecf-7796-4eff-a342-b020b50a847d"},"vehicle_type_id":"4","last_reported":1734545636,"current_range_meters":12400,"station_id":"ce4bgup2rcd13ifvqco0","pricing_plan_id":"cebpf4jnsgd1na2vs0mg"},{"bike_id":"5fa37ef0-d23c-4edd-8932-a4908a87d631","system_id":"levelo_inurba_marseille","lat":43.29572,"lon":5.37501,"is_reserved":false,"is_disabled":false,"rental_uris":{"android":"levelo://app?vid=5fa37ef0-d23c-4edd-8932-a4908a87d631","ios":"levelo://app?vid=5fa37ef0-d23c-4edd-8932-a4908a87d631"},"vehicle_type_id":"4","last_reported":1734545636,"current_range_meters":38800,"station_id":"ce4bgh92rcd13ifvqb50","pricing_plan_id":"cebpf4jnsgd1na2vs0mg"},{"bike_id":"149f6e59-92f2-4391-ad8d-a3c211e76bb2","system_id":"levelo_inurba_marseille","lat":43.23206,"lon":5.35544,"is_reserved":false,"is_disabled":false,"rental_uris":{"android":"levelo://app?vid=149f6e59-92f2-4391-ad8d-a3c211e76bb2","ios":"levelo://app?vid=149f6e59-92f2-4391-ad8d-a3c211e76bb2"},"vehicle_type_id":"4","last_reported":1734545636,"current_range_meters":39200,"station_id":"ce4bhu92rcd13ifvqi70","pricing_plan_id":"cebpf4jnsgd1na2vs0mg"},{"bike_id":"a4e960ac-517b-4b66-b9b3-f4cddd65e283","system_id":"levelo_inurba_marseille","lat":43.29008,"lon":5.35612,"is_reserved":false,"is_disabled":false,"rental_uris":{"android":"levelo://app?vid=a4e960ac-517b-4b66-b9b3-f4cddd65e283","ios":"levelo://app?vid=a4e960ac-517b-4b66-b9b3-f4cddd65e283"},"vehicle_type_id":"4","last_reported":1734545636,"current_range_meters":11200,"station_id":"ce4bhb92rcd13ifvqen0","pricing_plan_id":"cebpf4jnsgd1na2vs0mg"},{"bike_id":"e7b3b112-1e6f-425c-9328-449aa376e9cf","system_id":"levelo_inurba_marseille","lat":43.29418,"lon":5.38614,"is_reserved":false,"is_disabled":false,"rental_uris":{"android":"levelo://app?vid=e7b3b112-1e6f-425c-9328-449aa376e9cf","ios":"levelo://app?vid=e7b3b112-1e6f-425c-9328-449aa376e9cf"},"vehicle_type_id":"4","last_reported":1734545636,"current_range_meters":28800,"station_id":"ce4bh2h2rcd13ifvqdh0","pricing_plan_id":"cebpf4jnsgd1na2vs0mg"},{"bike_id":"254ea2fb-d253-4a79-8caf-9e8924646c83","system_id":"levelo_inurba_marseille","lat":43.2903,"lon":5.38641,"is_reserved":false,"is_disabled":false,"rental_uris":{"android":"levelo://app?vid=254ea2fb-d253-4a79-8caf-9e8924646c83","ios":"levelo://app?vid=254ea2fb-d253-4a79-8caf-9e8924646c83"},"vehicle_type_id":"4","last_reported":1734545636,"current_range_meters":33600,"station_id":"ce4bh4p2rcd13ifvqe0g","pricing_plan_id":"cebpf4jnsgd1na2vs0mg"},{"bike_id":"0964a333-009c-43df-a369-e7b7f1f82c22","system_id":"levelo_inurba_marseille","lat":43.30536,"lon":5.36693,"is_reserved":false,"is_disabled":true,"rental_uris":{"android":"levelo://app?vid=0964a333-009c-43df-a369-e7b7f1f82c22","ios":"levelo://app?vid=0964a333-009c-43df-a369-e7b7f1f82c22"},"vehicle_type_id":"4","last_reported":1734545636,"current_range_meters":28000,"station_id":"","pricing_plan_id":"cebpf4jnsgd1na2vs0mg"},{"bike_id":"4b4a938e-a9b1-4dd1-b99e-ac05927b9abf","system_id":"levelo_inurba_marseille","lat":43.30323,"lon":5.40433,"is_reserved":false,"is_disabled":false,"rental_uris":{"android":"levelo://app?vid=4b4a938e-a9b1-4dd1-b99e-ac05927b9abf","ios":"levelo://app?vid=4b4a938e-a9b1-4dd1-b99e-ac05927b9abf"},"vehicle_type_id":"4","last_reported":1734545636,"current_range_meters":20400,"station_id":"ce4bh012rcd13ifvqd10","pricing_plan_id":"cebpf4jnsgd1na2vs0mg"},{"bike_id":"25fbff89-a5d7-4935-bafe-3a7a2f605c5a","system_id":"levelo_inurba_marseille","lat":43.31172,"lon":5.3872,"is_reserved":false,"is_disabled":true,"rental_uris":{"android":"levelo://app?vid=25fbff89-a5d7-4935-bafe-3a7a2f605c5a","ios":"levelo://app?vid=25fbff89-a5d7-4935-bafe-3a7a2f605c5a"},"vehicle_type_id":"4","last_reported":1734545636,"current_range_meters":6000,"station_id":"ce4bgv12rcd13ifvqcp0","pricing_plan_id":"cebpf4jnsgd1na2vs0mg"},{"bike_id":"56795d50-8d26-4766-8d9f-e01f0b85bee9","system_id":"levelo_inurba_marseille","lat":43.29064,"lon":5.37158,"is_reserved":false,"is_disabled":false,"rental_uris":{"android":"levelo://app?vid=56795d50-8d26-4766-8d9f-e01f0b85bee9","ios":"levelo://app?vid=56795d50-8d26-4766-8d9f-e01f0b85bee9"},"vehicle_type_id":"4","last_reported":1734545636,"current_range_meters":38000,"station_id":"ce4bh5p2rcd13ifvqe4g","pricing_plan_id":"cebpf4jnsgd1na2vs0mg"},{"bike_id":"9d2aefec-f4a3-4a23-a13a-c09b46ffe2e4","system_id":"levelo_inurba_marseille","lat":43.31228,"lon":5.36757,"is_reserved":false,"is_disabled":false,"rental_uris":{"android":"levelo://app?vid=9d2aefec-f4a3-4a23-a13a-c09b46ffe2e4","ios":"levelo://app?vid=9d2aefec-f4a3-4a23-a13a-c09b46ffe2e4"},"vehicle_type_id":"4","last_reported":1734545636,"current_range_meters":36800,"station_id":"","pricing_plan_id":"cebpf4jnsgd1na2vs0mg"},{"bike_id":"a0cf83bb-abff-4f31-b978-937e18c5d25c","system_id":"levelo_inurba_marseille","lat":43.31229,"lon":5.36905,"is_reserved":false,"is_disabled":false,"rental_uris":{"android":"levelo://app?vid=a0cf83bb-abff-4f31-b978-937e18c5d25c","ios":"levelo://app?vid=a0cf83bb-abff-4f31-b978-937e18c5d25c"},"vehicle_type_id":"4","last_reported":1734545636,"current_range_meters":10000,"station_id":"ce4bgl92rcd13ifvqbq0","pricing_plan_id":"cebpf4jnsgd1na2vs0mg"},{"bike_id":"a25070a1-0342-4fbf-a274-be1b0adbed38","system_id":"levelo_inurba_marseille","lat":43.28664,"lon":5.36356,"is_reserved":false,"is_disabled":false,"rental_uris":{"android":"levelo://app?vid=a25070a1-0342-4fbf-a274-be1b0adbed38","ios":"levelo://app?vid=a25070a1-0342-4fbf-a274-be1b0adbed38"},"vehicle_type_id":"4","last_reported":1734545636,"current_range_meters":27600,"station_id":"ce4bhah2rcd13ifvqej0","pricing_plan_id":"cebpf4jnsgd1na2vs0mg"},{"bike_id":"57954547-4075-4060-ade6-d1a194367e48","system_id":"levelo_inurba_marseille","lat":43.28935,"lon":5.36637,"is_reserved":false,"is_disabled":false,"rental_uris":{"android":"levelo://app?vid=57954547-4075-4060-ade6-d1a194367e48","ios":"levelo://app?vid=57954547-4075-4060-ade6-d1a194367e48"},"vehicle_type_id":"4","last_reported":1734545636,"current_range_meters":38800,"station_id":"ce4bhap2rcd13ifvqek0","pricing_plan_id":"cebpf4jnsgd1na2vs0mg"},{"bike_id":"adedeed0-3592-4d19-98d6-39bd21012629","system_id":"levelo_inurba_marseille","lat":43.23197,"lon":5.35558,"is_reserved":false,"is_disabled":false,"rental_uris":{"android":"levelo://app?vid=adedeed0-3592-4d19-98d6-39bd21012629","ios":"levelo://app?vid=adedeed0-3592-4d19-98d6-39bd21012629"},"vehicle_type_id":"4","last_reported":1734545636,"current_range_meters":36000,"station_id":"ce4bhu92rcd13ifvqi70","pricing_plan_id":"cebpf4jnsgd1na2vs0mg"},{"bike_id":"7bbe4f69-9e9f-4835-b498-698cbd730d5c","system_id":"levelo_inurba_marseille","lat":43.30878,"lon":5.3965,"is_reserved":false,"is_disabled":true,"rental_uris":{"android":"levelo://app?vid=7bbe4f69-9e9f-4835-b498-698cbd730d5c","ios":"levelo://app?vid=7bbe4f69-9e9f-4835-b498-698cbd730d5c"},"vehicle_type_id":"4","last_reported":1734545636,"current_range_meters":0,"station_id":"ce4bh012rcd13ifvqcv0","pricing_plan_id":"cebpf4jnsgd1na2vs0mg"},{"bike_id":"82f7f145-591c-4ce0-8f76-660882a2845e","system_id":"levelo_inurba_marseille","lat":43.33611,"lon":5.41034,"is_reserved":false,"is_disabled":true,"rental_uris":{"android":"levelo://app?vid=82f7f145-591c-4ce0-8f76-660882a2845e","ios":"levelo://app?vid=82f7f145-591c-4ce0-8f76-660882a2845e"},"vehicle_type_id":"4","last_reported":1734545636,"current_range_meters":28400,"station_id":"ce4bhqh2rcd13ifvqhmg","pricing_plan_id":"cebpf4jnsgd1na2vs0mg"},{"bike_id":"c43144b8-701d-4fef-8260-134b7f7dba42","system_id":"levelo_inurba_marseille","lat":43.26204,"lon":5.37935,"is_reserved":false,"is_disabled":true,"rental_uris":{"android":"levelo://app?vid=c43144b8-701d-4fef-8260-134b7f7dba42","ios":"levelo://app?vid=c43144b8-701d-4fef-8260-134b7f7dba42"},"vehicle_type_id":"4","last_reported":1734545636,"current_range_meters":400,"station_id":"ce4bhjp2rcd13ifvqg90","pricing_plan_id":"cebpf4jnsgd1na2vs0mg"},{"bike_id":"6a4af47d-d166-4e75-b998-3733898b02cc","system_id":"levelo_inurba_marseille","lat":43.308,"lon":5.38144,"is_reserved":false,"is_disabled":true,"rental_uris":{"android":"levelo://app?vid=6a4af47d-d166-4e75-b998-3733898b02cc","ios":"levelo://app?vid=6a4af47d-d166-4e75-b998-3733898b02cc"},"vehicle_type_id":"4","last_reported":1734545636,"current_range_meters":400,"station_id":"ce4bgt12rcd13ifvqce0","pricing_plan_id":"cebpf4jnsgd1na2vs0mg"},{"bike_id":"ac7c5f56-daad-496c-965f-9103737000e8","system_id":"levelo_inurba_marseille","lat":43.23972,"lon":5.36627,"is_reserved":false,"is_disabled":false,"rental_uris":{"android":"levelo://app?vid=ac7c5f56-daad-496c-965f-9103737000e8","ios":"levelo://app?vid=ac7c5f56-daad-496c-965f-9103737000e8"},"vehicle_type_id":"4","last_reported":1734545636,"current_range_meters":38800,"station_id":"ce4bhi12rcd13ifvqfp0","pricing_plan_id":"cebpf4jnsgd1na2vs0mg"},{"bike_id":"a3323bcc-2dd7-4687-8bb1-49555c16f8e9","system_id":"levelo_inurba_marseille","lat":43.30135,"lon":5.38066,"is_reserved":false,"is_disabled":false,"rental_uris":{"android":"levelo://app?vid=a3323bcc-2dd7-4687-8bb1-49555c16f8e9","ios":"levelo://app?vid=a3323bcc-2dd7-4687-8bb1-49555c16f8e9"},"vehicle_type_id":"4","last_reported":1734545636,"current_range_meters":4000,"station_id":"ce4bgjp2rcd13ifvqbh0","pricing_plan_id":"cebpf4jnsgd1na2vs0mg"},{"bike_id":"9b6721f9-a260-4878-b173-cf950bb58068","system_id":"levelo_inurba_marseille","lat":43.30324,"lon":5.40428,"is_reserved":false,"is_disabled":false,"rental_uris":{"android":"levelo://app?vid=9b6721f9-a260-4878-b173-cf950bb58068","ios":"levelo://app?vid=9b6721f9-a260-4878-b173-cf950bb58068"},"vehicle_type_id":"4","last_reported":1734545636,"current_range_meters":8000,"station_id":"ce4bh012rcd13ifvqd10","pricing_plan_id":"cebpf4jnsgd1na2vs0mg"},{"bike_id":"19d07322-c64a-461f-acf5-9f589c5bfb4f","system_id":"levelo_inurba_marseille","lat":43.31116,"lon":5.37764,"is_reserved":false,"is_disabled":true,"rental_uris":{"android":"levelo://app?vid=19d07322-c64a-461f-acf5-9f589c5bfb4f","ios":"levelo://app?vid=19d07322-c64a-461f-acf5-9f589c5bfb4f"},"vehicle_type_id":"4","last_reported":1734545636,"current_range_meters":1200,"station_id":"ce4bgt92rcd13ifvqcg0","pricing_plan_id":"cebpf4jnsgd1na2vs0mg"},{"bike_id":"1bea5e18-dcba-4817-8ac5-8e7f9c048378","system_id":"levelo_inurba_marseille","lat":43.24807,"lon":5.37456,"is_reserved":false,"is_disabled":false,"rental_uris":{"android":"levelo://app?vid=1bea5e18-dcba-4817-8ac5-8e7f9c048378","ios":"levelo://app?vid=1bea5e18-dcba-4817-8ac5-8e7f9c048378"},"vehicle_type_id":"4","last_reported":1734545636,"current_range_meters":8400,"station_id":"ce4bhgh2rcd13ifvqfb0","pricing_plan_id":"cebpf4jnsgd1na2vs0mg"},{"bike_id":"649f7453-c7b5-4539-834b-b837b81d202a","system_id":"levelo_inurba_marseille","lat":43.29981,"lon":5.38485,"is_reserved":false,"is_disabled":false,"rental_uris":{"android":"levelo://app?vid=649f7453-c7b5-4539-834b-b837b81d202a","ios":"levelo://app?vid=649f7453-c7b5-4539-834b-b837b81d202a"},"vehicle_type_id":"4","last_reported":1734545636,"current_range_meters":28800,"station_id":"ce4bgj92rcd13ifvqbd0","pricing_plan_id":"cebpf4jnsgd1na2vs0mg"},{"bike_id":"d908618f-8da1-4d41-a49b-8864e8a5d208","system_id":"levelo_inurba_marseille","lat":43.24552,"lon":5.39513,"is_reserved":false,"is_disabled":false,"rental_uris":{"android":"levelo://app?vid=d908618f-8da1-4d41-a49b-8864e8a5d208","ios":"levelo://app?vid=d908618f-8da1-4d41-a49b-8864e8a5d208"},"vehicle_type_id":"4","last_reported":1734545636,"current_range_meters":27200,"station_id":"ce4bhlp2rcd13ifvqgjg","pricing_plan_id":"cebpf4jnsgd1na2vs0mg"},{"bike_id":"5fcc1a76-f734-4d94-bcc2-17cb92a8b7ef","system_id":"levelo_inurba_marseille","lat":43.28461,"lon":5.35881,"is_reserved":false,"is_disabled":false,"rental_uris":{"android":"levelo://app?vid=5fcc1a76-f734-4d94-bcc2-17cb92a8b7ef","ios":"levelo://app?vid=5fcc1a76-f734-4d94-bcc2-17cb92a8b7ef"},"vehicle_type_id":"4","last_reported":1734545636,"current_range_meters":10800,"station_id":"ce4bhah2rcd13ifvqei0","pricing_plan_id":"cebpf4jnsgd1na2vs0mg"},{"bike_id":"bc90ffe5-dd22-4e90-ac95-363bc5c5b4ab","system_id":"levelo_inurba_marseille","lat":43.29061,"lon":5.37151,"is_reserved":false,"is_disabled":false,"rental_uris":{"android":"levelo://app?vid=bc90ffe5-dd22-4e90-ac95-363bc5c5b4ab","ios":"levelo://app?vid=bc90ffe5-dd22-4e90-ac95-363bc5c5b4ab"},"vehicle_type_id":"4","last_reported":1734545636,"current_range_meters":38800,"station_id":"ce4bh5p2rcd13ifvqe4g","pricing_plan_id":"cebpf4jnsgd1na2vs0mg"},{"bike_id":"94dbe6ce-ba1d-41dd-b0cf-1f05a50be5b3","system_id":"levelo_inurba_marseille","lat":43.23179,"lon":5.35562,"is_reserved":false,"is_disabled":false,"rental_uris":{"android":"levelo://app?vid=94dbe6ce-ba1d-41dd-b0cf-1f05a50be5b3","ios":"levelo://app?vid=94dbe6ce-ba1d-41dd-b0cf-1f05a50be5b3"},"vehicle_type_id":"4","last_reported":1734545636,"current_range_meters":29600,"station_id":"ce4bhu92rcd13ifvqi70","pricing_plan_id":"cebpf4jnsgd1na2vs0mg"},{"bike_id":"1a9e1483-31ea-4b88-87a9-e5ce512a5cbd","system_id":"levelo_inurba_marseille","lat":43.2955,"lon":5.42294,"is_reserved":false,"is_disabled":false,"rental_uris":{"android":"levelo://app?vid=1a9e1483-31ea-4b88-87a9-e5ce512a5cbd","ios":"levelo://app?vid=1a9e1483-31ea-4b88-87a9-e5ce512a5cbd"},"vehicle_type_id":"4","last_reported":1734545636,"current_range_meters":24800,"station_id":"ce4bhph2rcd13ifvqhdg","pricing_plan_id":"cebpf4jnsgd1na2vs0mg"},{"bike_id":"7b305c6f-361b-46c6-bcc8-6b2d9fd084fa","system_id":"levelo_inurba_marseille","lat":43.28119,"lon":5.4422,"is_reserved":false,"is_disabled":true,"rental_uris":{"android":"levelo://app?vid=7b305c6f-361b-46c6-bcc8-6b2d9fd084fa","ios":"levelo://app?vid=7b305c6f-361b-46c6-bcc8-6b2d9fd084fa"},"vehicle_type_id":"4","last_reported":1734545636,"current_range_meters":0,"station_id":"","pricing_plan_id":"cebpf4jnsgd1na2vs0mg"},{"bike_id":"b39afbb0-96a7-4701-b2ff-06f89acd1953","system_id":"levelo_inurba_marseille","lat":43.33011,"lon":5.39056,"is_reserved":false,"is_disabled":false,"rental_uris":{"android":"levelo://app?vid=b39afbb0-96a7-4701-b2ff-06f89acd1953","ios":"levelo://app?vid=b39afbb0-96a7-4701-b2ff-06f89acd1953"},"vehicle_type_id":"4","last_reported":1734545636,"current_range_meters":38400,"station_id":"ce4bhr92rcd13ifvqhrg","pricing_plan_id":"cebpf4jnsgd1na2vs0mg"},{"bike_id":"cde5e894-1056-4f83-b615-a85c94c5dc4e","system_id":"levelo_inurba_marseille","lat":43.27812,"lon":5.40693,"is_reserved":false,"is_disabled":false,"rental_uris":{"android":"levelo://app?vid=cde5e894-1056-4f83-b615-a85c94c5dc4e","ios":"levelo://app?vid=cde5e894-1056-4f83-b615-a85c94c5dc4e"},"vehicle_type_id":"4","last_reported":1734545636,"current_range_meters":32000,"station_id":"ce4bhnh2rcd13ifvqgtg","pricing_plan_id":"cebpf4jnsgd1na2vs0mg"},{"bike_id":"5e006376-15e6-4397-98fe-7fc27eb12234","system_id":"levelo_inurba_marseille","lat":43.27996,"lon":5.40022,"is_reserved":false,"is_disabled":false,"rental_uris":{"android":"levelo://app?vid=5e006376-15e6-4397-98fe-7fc27eb12234","ios":"levelo://app?vid=5e006376-15e6-4397-98fe-7fc27eb12234"},"vehicle_type_id":"4","last_reported":1734545636,"current_range_meters":28800,"station_id":"ce4bho92rcd13ifvqh4g","pricing_plan_id":"cebpf4jnsgd1na2vs0mg"},{"bike_id":"c81d12c0-b3b4-4b91-a004-bb72046d4aaa","system_id":"levelo_inurba_marseille","lat":43.29943,"lon":5.37499,"is_reserved":false,"is_disabled":false,"rental_uris":{"android":"levelo://app?vid=c81d12c0-b3b4-4b91-a004-bb72046d4aaa","ios":"levelo://app?vid=c81d12c0-b3b4-4b91-a004-bb72046d4aaa"},"vehicle_type_id":"4","last_reported":1734545636,"current_range_meters":28000,"station_id":"ce4bgjh2rcd13ifvqbg0","pricing_plan_id":"cebpf4jnsgd1na2vs0mg"},{"bike_id":"ced5b7d9-4c87-4a78-964d-4ef0ef94869e","system_id":"levelo_inurba_marseille","lat":43.28701,"lon":5.39981,"is_reserved":false,"is_disabled":false,"rental_uris":{"android":"levelo://app?vid=ced5b7d9-4c87-4a78-964d-4ef0ef94869e","ios":"levelo://app?vid=ced5b7d9-4c87-4a78-964d-4ef0ef94869e"},"vehicle_type_id":"4","last_reported":1734545636,"current_range_meters":21600,"station_id":"ce4bho92rcd13ifvqh3g","pricing_plan_id":"cebpf4jnsgd1na2vs0mg"},{"bike_id":"ee01a507-8893-4440-bbe0-75da356e3a4f","system_id":"levelo_inurba_marseille","lat":43.29901,"lon":5.38143,"is_reserved":false,"is_disabled":true,"rental_uris":{"android":"levelo://app?vid=ee01a507-8893-4440-bbe0-75da356e3a4f","ios":"levelo://app?vid=ee01a507-8893-4440-bbe0-75da356e3a4f"},"vehicle_type_id":"4","last_reported":1734545636,"current_range_meters":0,"station_id":"ce4bgj12rcd13ifvqbc0","pricing_plan_id":"cebpf4jnsgd1na2vs0mg"},{"bike_id":"065296b9-c1b1-4295-be5f-ba6a4ae67e1e","system_id":"levelo_inurba_marseille","lat":43.27364,"lon":5.36252,"is_reserved":false,"is_disabled":false,"rental_uris":{"android":"levelo://app?vid=065296b9-c1b1-4295-be5f-ba6a4ae67e1e","ios":"levelo://app?vid=065296b9-c1b1-4295-be5f-ba6a4ae67e1e"},"vehicle_type_id":"4","last_reported":1734545636,"current_range_meters":38800,"station_id":"ce4bhbh2rcd13ifvqeo0","pricing_plan_id":"cebpf4jnsgd1na2vs0mg"},{"bike_id":"db096120-123f-4da5-ad64-583f4719ba51","system_id":"levelo_inurba_marseille","lat":43.31112,"lon":5.37791,"is_reserved":false,"is_disabled":true,"rental_uris":{"android":"levelo://app?vid=db096120-123f-4da5-ad64-583f4719ba51","ios":"levelo://app?vid=db096120-123f-4da5-ad64-583f4719ba51"},"vehicle_type_id":"4","last_reported":1734545636,"current_range_meters":0,"station_id":"ce4bgt92rcd13ifvqcg0","pricing_plan_id":"cebpf4jnsgd1na2vs0mg"},{"bike_id":"e994d190-f1f8-49e9-b9dd-4c78430b5189","system_id":"levelo_inurba_marseille","lat":43.27566,"lon":5.38429,"is_reserved":false,"is_disabled":false,"rental_uris":{"android":"levelo://app?vid=e994d190-f1f8-49e9-b9dd-4c78430b5189","ios":"levelo://app?vid=e994d190-f1f8-49e9-b9dd-4c78430b5189"},"vehicle_type_id":"4","last_reported":1734545636,"current_range_meters":20800,"station_id":"ce4bhh92rcd13ifvqfi0","pricing_plan_id":"cebpf4jnsgd1na2vs0mg"},{"bike_id":"c965dca8-9d21-49b9-add0-eb345c116033","system_id":"levelo_inurba_marseille","lat":43.29862,"lon":5.38378,"is_reserved":false,"is_disabled":false,"rental_uris":{"android":"levelo://app?vid=c965dca8-9d21-49b9-add0-eb345c116033","ios":"levelo://app?vid=c965dca8-9d21-49b9-add0-eb345c116033"},"vehicle_type_id":"4","last_reported":1734545636,"current_range_meters":7200,"station_id":"","pricing_plan_id":"cebpf4jnsgd1na2vs0mg"},{"bike_id":"0202ef24-b792-4759-baea-d0a792040129","system_id":"levelo_inurba_marseille","lat":43.25816,"lon":5.39419,"is_reserved":false,"is_disabled":false,"rental_uris":{"android":"levelo://app?vid=0202ef24-b792-4759-baea-d0a792040129","ios":"levelo://app?vid=0202ef24-b792-4759-baea-d0a792040129"},"vehicle_type_id":"4","last_reported":1734545636,"current_range_meters":39200,"station_id":"ce4bhip2rcd13ifvqft0","pricing_plan_id":"cebpf4jnsgd1na2vs0mg"},{"bike_id":"10ed53f7-8ba7-4334-9782-9a507220d8b7","system_id":"levelo_inurba_marseille","lat":43.2894,"lon":5.36638,"is_reserved":false,"is_disabled":false,"rental_uris":{"android":"levelo://app?vid=10ed53f7-8ba7-4334-9782-9a507220d8b7","ios":"levelo://app?vid=10ed53f7-8ba7-4334-9782-9a507220d8b7"},"vehicle_type_id":"4","last_reported":1734545636,"current_range_meters":14400,"station_id":"ce4bhap2rcd13ifvqek0","pricing_plan_id":"cebpf4jnsgd1na2vs0mg"},{"bike_id":"f03bf3a7-d85d-4c18-bb3a-c371cea58361","system_id":"levelo_inurba_marseille","lat":43.30547,"lon":5.36523,"is_reserved":false,"is_disabled":true,"rental_uris":{"android":"levelo://app?vid=f03bf3a7-d85d-4c18-bb3a-c371cea58361","ios":"levelo://app?vid=f03bf3a7-d85d-4c18-bb3a-c371cea58361"},"vehicle_type_id":"4","last_reported":1734545636,"current_range_meters":400,"station_id":"ce4bgs12rcd13ifvqcag","pricing_plan_id":"cebpf4jnsgd1na2vs0mg"},{"bike_id":"c13edf77-2970-42c5-b0ec-391282375bc1","system_id":"levelo_inurba_marseille","lat":43.3302,"lon":5.39036,"is_reserved":false,"is_disabled":false,"rental_uris":{"android":"levelo://app?vid=c13edf77-2970-42c5-b0ec-391282375bc1","ios":"levelo://app?vid=c13edf77-2970-42c5-b0ec-391282375bc1"},"vehicle_type_id":"4","last_reported":1734545636,"current_range_meters":28000,"station_id":"ce4bhr92rcd13ifvqhrg","pricing_plan_id":"cebpf4jnsgd1na2vs0mg"},{"bike_id":"46e750c8-733c-45b4-84d3-c0e593f563b2","system_id":"levelo_inurba_marseille","lat":43.25865,"lon":5.39892,"is_reserved":false,"is_disabled":false,"rental_uris":{"android":"levelo://app?vid=46e750c8-733c-45b4-84d3-c0e593f563b2","ios":"levelo://app?vid=46e750c8-733c-45b4-84d3-c0e593f563b2"},"vehicle_type_id":"4","last_reported":1734545636,"current_range_meters":30800,"station_id":"ce4bhl92rcd13ifvqghg","pricing_plan_id":"cebpf4jnsgd1na2vs0mg"},{"bike_id":"15b06ab3-5941-43b5-a9a5-ceb90aabbb54","system_id":"levelo_inurba_marseille","lat":43.22934,"lon":5.35373,"is_reserved":false,"is_disabled":false,"rental_uris":{"android":"levelo://app?vid=15b06ab3-5941-43b5-a9a5-ceb90aabbb54","ios":"levelo://app?vid=15b06ab3-5941-43b5-a9a5-ceb90aabbb54"},"vehicle_type_id":"4","last_reported":1734545636,"current_range_meters":38800,"station_id":"cpo3532slgdg3j2ikp40","pricing_plan_id":"cebpf4jnsgd1na2vs0mg"},{"bike_id":"d85a8ef0-3e26-4457-943a-90f55e137bf2","system_id":"levelo_inurba_marseille","lat":43.30551,"lon":5.36709,"is_reserved":false,"is_disabled":false,"rental_uris":{"android":"levelo://app?vid=d85a8ef0-3e26-4457-943a-90f55e137bf2","ios":"levelo://app?vid=d85a8ef0-3e26-4457-943a-90f55e137bf2"},"vehicle_type_id":"4","last_reported":1734545636,"current_range_meters":38800,"station_id":"ce4bgrp2rcd13ifvqc9g","pricing_plan_id":"cebpf4jnsgd1na2vs0mg"},{"bike_id":"e9efdce3-c6ef-413a-95d3-f15a9719b5b5","system_id":"levelo_inurba_marseille","lat":43.24386,"lon":5.37055,"is_reserved":false,"is_disabled":false,"rental_uris":{"android":"levelo://app?vid=e9efdce3-c6ef-413a-95d3-f15a9719b5b5","ios":"levelo://app?vid=e9efdce3-c6ef-413a-95d3-f15a9719b5b5"},"vehicle_type_id":"4","last_reported":1734545636,"current_range_meters":38400,"station_id":"ce4bhhh2rcd13ifvqfk0","pricing_plan_id":"cebpf4jnsgd1na2vs0mg"},{"bike_id":"d316c6df-36fe-460e-ae4f-ef14f8e5b5e1","system_id":"levelo_inurba_marseille","lat":43.31713,"lon":5.43697,"is_reserved":false,"is_disabled":false,"rental_uris":{"android":"levelo://app?vid=d316c6df-36fe-460e-ae4f-ef14f8e5b5e1","ios":"levelo://app?vid=d316c6df-36fe-460e-ae4f-ef14f8e5b5e1"},"vehicle_type_id":"4","last_reported":1734545636,"current_range_meters":29600,"station_id":"ce4bhp92rcd13ifvqhcg","pricing_plan_id":"cebpf4jnsgd1na2vs0mg"},{"bike_id":"daba369a-9773-4528-86f6-5e43cbda1d07","system_id":"levelo_inurba_marseille","lat":43.29571,"lon":5.3752,"is_reserved":false,"is_disabled":false,"rental_uris":{"android":"levelo://app?vid=daba369a-9773-4528-86f6-5e43cbda1d07","ios":"levelo://app?vid=daba369a-9773-4528-86f6-5e43cbda1d07"},"vehicle_type_id":"4","last_reported":1734545636,"current_range_meters":38000,"station_id":"ce4bgh92rcd13ifvqb50","pricing_plan_id":"cebpf4jnsgd1na2vs0mg"},{"bike_id":"e3423766-ff70-4b7b-a941-b3f451968318","system_id":"levelo_inurba_marseille","lat":43.29552,"lon":5.42283,"is_reserved":false,"is_disabled":true,"rental_uris":{"android":"levelo://app?vid=e3423766-ff70-4b7b-a941-b3f451968318","ios":"levelo://app?vid=e3423766-ff70-4b7b-a941-b3f451968318"},"vehicle_type_id":"4","last_reported":1734545636,"current_range_meters":39200,"station_id":"ce4bhph2rcd13ifvqhdg","pricing_plan_id":"cebpf4jnsgd1na2vs0mg"},{"bike_id":"72b411f8-eec9-4c8b-a039-ec2990a50057","system_id":"levelo_inurba_marseille","lat":43.29527,"lon":5.38547,"is_reserved":false,"is_disabled":false,"rental_uris":{"android":"levelo://app?vid=72b411f8-eec9-4c8b-a039-ec2990a50057","ios":"levelo://app?vid=72b411f8-eec9-4c8b-a039-ec2990a50057"},"vehicle_type_id":"4","last_reported":1734545636,"current_range_meters":19600,"station_id":"ce4bgih2rcd13ifvqba0","pricing_plan_id":"cebpf4jnsgd1na2vs0mg"},{"bike_id":"ee4c4cbd-161d-40d0-b545-1983eed33917","system_id":"levelo_inurba_marseille","lat":43.27368,"lon":5.36258,"is_reserved":false,"is_disabled":true,"rental_uris":{"android":"levelo://app?vid=ee4c4cbd-161d-40d0-b545-1983eed33917","ios":"levelo://app?vid=ee4c4cbd-161d-40d0-b545-1983eed33917"},"vehicle_type_id":"4","last_reported":1734545636,"current_range_meters":0,"station_id":"ce4bhbh2rcd13ifvqeo0","pricing_plan_id":"cebpf4jnsgd1na2vs0mg"},{"bike_id":"a3397a91-89e8-462c-b840-d431785fbaf3","system_id":"levelo_inurba_marseille","lat":43.27943,"lon":5.41042,"is_reserved":false,"is_disabled":false,"rental_uris":{"android":"levelo://app?vid=a3397a91-89e8-462c-b840-d431785fbaf3","ios":"levelo://app?vid=a3397a91-89e8-462c-b840-d431785fbaf3"},"vehicle_type_id":"4","last_reported":1734545636,"current_range_meters":38400,"station_id":"ce4bhnp2rcd13ifvqh0g","pricing_plan_id":"cebpf4jnsgd1na2vs0mg"},{"bike_id":"e3aa5bba-154e-46ea-aa76-06672844f11e","system_id":"levelo_inurba_marseille","lat":43.27612,"lon":5.36113,"is_reserved":false,"is_disabled":false,"rental_uris":{"android":"levelo://app?vid=e3aa5bba-154e-46ea-aa76-06672844f11e","ios":"levelo://app?vid=e3aa5bba-154e-46ea-aa76-06672844f11e"},