{"last_updated":1769026773,"ttl":60,"version":"2.2","data":{"bikes":[{"bike_id":"bbcff232-a9c1-46d3-b5ff-49e0b3356ab0","system_id":"levelo_inurba_marseille","lat":43.28723,"lon":5.36093,"is_reserved":false,"is_disabled":false,"rental_uris":{"android":"levelo://app?vid=bbcff232-a9c1-46d3-b5ff-49e0b3356ab0","ios":"levelo://app?vid=bbcff232-a9c1-46d3-b5ff-49e0b3356ab0"},"vehicle_type_id":"4","last_reported":1769026773,"current_range_meters":2800,"station_id":"cki0cbj6b192h4jlfktg","pricing_plan_id":"cebpf4jnsgd1na2vs0mg"},{"bike_id":"04d1fa74-7078-4e54-86c0-c9d3f7b08c45","system_id":"levelo_inurba_marseille","lat":43.2558,"lon":5.38249,"is_reserved":false,"is_disabled":false,"rental_uris":{"android":"levelo://app?vid=04d1fa74-7078-4e54-86c0-c9d3f7b08c45","ios":"levelo://app?vid=04d1fa74-7078-4e54-86c0-c9d3f7b08c45"},"vehicle_type_id":"4","last_reported":1769026773,"current_range_meters":2800,"station_id":"ce4bhih2rcd13ifvqfs0","pricing_plan_id":"cebpf4jnsgd1na2vs0mg"},{"bike_id":"b318d1a4-0139-4921-946d-abc7fce11cff","system_id":"levelo_inurba_marseille","lat":43.27993,"lon":5.40003,"is_reserved":false,"is_disabled":false,"rental_uris":{"android":"levelo://app?vid=b318d1a4-0139-4921-946d-abc7fce11cff","ios":"levelo://app?vid=b318d1a4-0139-4921-946d-abc7fce11cff"},"vehicle_type_id":"4","last_reported":1769026773,"current_range_meters":2800,"station_id":"ce4bho92rcd13ifvqh4g","pricing_plan_id":"cebpf4jnsgd1na2vs0mg"},{"bike_id":"07c4194e-c79b-42c5-8538-5a3b0e5689c2","system_id":"levelo_inurba_marseille","lat":43.23778,"lon":5.36613,"is_reserved":false,"is_disabled":false,"rental_uris":{"android":"levelo://app?vid=07c4194e-c79b-42c5-8538-5a3b0e5689c2","ios":"levelo://app?vid=07c4194e-c79b-42c5-8538-5a3b0e5689c2"},"vehicle_type_id":"4","last_reported":1769026773,"current_range_meters":2800,"station_id":"st_d3nk18o9ro0c73en2l3g","pricing_plan_id":"cebpf4jnsgd1na2vs0mg"},{"bike_id":"99cc9e90-7181-4fdd-ba81-e426a1ee511c","system_id":"levelo_inurba_marseille","lat":43.29522,"lon":5.39038,"is_reserved":false,"is_disabled":false,"rental_uris":{"android":"levelo://app?vid=99cc9e90-7181-4fdd-ba81-e426a1ee511c","ios":"levelo://app?vid=99cc9e90-7181-4fdd-ba81-e426a1ee511c"},"vehicle_type_id":"4","last_reported":1769026773,"current_range_meters":2800,"station_id":"ce4bh3p2rcd13ifvqdp0","pricing_plan_id":"cebpf4jnsgd1na2vs0mg"},{"bike_id":"fd690e66-c2a4-46a4-a49e-74d3defa3526","system_id":"levelo_inurba_marseille","lat":43.29892,"lon":5.436623,"is_reserved":false,"is_disabled":false,"rental_uris":{"android":"levelo://app?vid=fd690e66-c2a4-46a4-a49e-74d3defa3526","ios":"levelo://app?vid=fd690e66-c2a4-46a4-a49e-74d3defa3526"},"vehicle_type_id":"4","last_reported":1769026773,"current_range_meters":2800,"station_id":"ce4bhpp2rcd13ifvqhfg","pricing_plan_id":"cebpf4jnsgd1na2vs0mg"},{"bike_id":"e6704954-594f-4ad0-82b4-0c5d5710ced9","system_id":"levelo_inurba_marseille","lat":43.24646,"lon":5.38899,"is_reserved":false,"is_disabled":false,"rental_uris":{"android":"levelo://app?vid=e6704954-594f-4ad0-82b4-0c5d5710ced9","ios":"levelo://app?vid=e6704954-594f-4ad0-82b4-0c5d5710ced9"},"vehicle_type_id":"4","last_reported":1769026773,"current_range_meters":2800,"station_id":"ce4bhg12rcd13ifvqf60","pricing_plan_id":"cebpf4jnsgd1na2vs0mg"},{"bike_id":"3b8b1e12-f2b5-43fa-b06e-f28981ea6ba5","system_id":"levelo_inurba_marseille","lat":43.28423,"lon":5.39217,"is_reserved":false,"is_disabled":false,"rental_uris":{"android":"levelo://app?vid=3b8b1e12-f2b5-43fa-b06e-f28981ea6ba5","ios":"levelo://app?vid=3b8b1e12-f2b5-43fa-b06e-f28981ea6ba5"},"vehicle_type_id":"4","last_reported":1769026773,"current_range_meters":2800,"station_id":"ce4bhoh2rcd13ifvqh5g","pricing_plan_id":"cebpf4jnsgd1na2vs0mg"},{"bike_id":"208ffd30-b78e-4e10-8a77-792cb6a1f320","system_id":"levelo_inurba_marseille","lat":43.26208,"lon":5.40423,"is_reserved":false,"is_disabled":false,"rental_uris":{"android":"levelo://app?vid=208ffd30-b78e-4e10-8a77-792cb6a1f320","ios":"levelo://app?vid=208ffd30-b78e-4e10-8a77-792cb6a1f320"},"vehicle_type_id":"4","last_reported":1769026773,"current_range_meters":2800,"station_id":"ce4bhmh2rcd13ifvqgmg","pricing_plan_id":"cebpf4jnsgd1na2vs0mg"},{"bike_id":"aba7d3ea-7de0-44e7-8338-576767d8d352","system_id":"levelo_inurba_marseille","lat":43.301,"lon":5.3906,"is_reserved":false,"is_disabled":false,"rental_uris":{"android":"levelo://app?vid=aba7d3ea-7de0-44e7-8338-576767d8d352","ios":"levelo://app?vid=aba7d3ea-7de0-44e7-8338-576767d8d352"},"vehicle_type_id":"4","last_reported":1769026773,"current_range_meters":2800,"station_id":"ce4bh192rcd13ifvqdb0","pricing_plan_id":"cebpf4jnsgd1na2vs0mg"},{"bike_id":"77321c92-4e75-4d10-a065-584501435f47","system_id":"levelo_inurba_marseille","lat":43.279962,"lon":5.400109,"is_reserved":false,"is_disabled":false,"rental_uris":{"android":"levelo://app?vid=77321c92-4e75-4d10-a065-584501435f47","ios":"levelo://app?vid=77321c92-4e75-4d10-a065-584501435f47"},"vehicle_type_id":"4","last_reported":1769026773,"current_range_meters":2800,"station_id":"","pricing_plan_id":"cebpf4jnsgd1na2vs0mg"},{"bike_id":"66160d64-23f9-4d70-b989-daa254cf260e","system_id":"levelo_inurba_marseille","lat":43.28154,"lon":5.42628,"is_reserved":false,"is_disabled":true,"rental_uris":{"android":"levelo://app?vid=66160d64-23f9-4d70-b989-daa254cf260e","ios":"levelo://app?vid=66160d64-23f9-4d70-b989-daa254cf260e"},"vehicle_type_id":"4","last_reported":1769026773,"current_range_meters":2800,"station_id":"ce4bhnh2rcd13ifvqgug","pricing_plan_id":"cebpf4jnsgd1na2vs0mg"},{"bike_id":"fe0756b3-2d5b-441a-82e7-f5b58e884324","system_id":"levelo_inurba_marseille","lat":43.28104,"lon":5.37829,"is_reserved":false,"is_disabled":false,"rental_uris":{"android":"levelo://app?vid=fe0756b3-2d5b-441a-82e7-f5b58e884324","ios":"levelo://app?vid=fe0756b3-2d5b-441a-82e7-f5b58e884324"},"vehicle_type_id":"4","last_reported":1769026773,"current_range_meters":2800,"station_id":"ce4bha12rcd13ifvqee0","pricing_plan_id":"cebpf4jnsgd1na2vs0mg"},{"bike_id":"d7ffb497-21fb-432f-9120-a3d95d6b8ce1","system_id":"levelo_inurba_marseille","lat":43.27056,"lon":5.4025,"is_reserved":false,"is_disabled":false,"rental_uris":{"android":"levelo://app?vid=d7ffb497-21fb-432f-9120-a3d95d6b8ce1","ios":"levelo://app?vid=d7ffb497-21fb-432f-9120-a3d95d6b8ce1"},"vehicle_type_id":"4","last_reported":1769026773,"current_range_meters":2800,"station_id":"ce4bhk92rcd13ifvqgc0","pricing_plan_id":"cebpf4jnsgd1na2vs0mg"},{"bike_id":"d64808fa-6727-414b-a04f-16fee77f78aa","system_id":"levelo_inurba_marseille","lat":43.282104,"lon":5.390577,"is_reserved":false,"is_disabled":false,"rental_uris":{"android":"levelo://app?vid=d64808fa-6727-414b-a04f-16fee77f78aa","ios":"levelo://app?vid=d64808fa-6727-414b-a04f-16fee77f78aa"},"vehicle_type_id":"4","last_reported":1769026773,"current_range_meters":2800,"station_id":"ce4bgip2rcd13ifvqbb0","pricing_plan_id":"cebpf4jnsgd1na2vs0mg"},{"bike_id":"ace6dc7b-844d-48b9-85a1-bde754a67228","system_id":"levelo_inurba_marseille","lat":43.31492,"lon":5.37312,"is_reserved":false,"is_disabled":false,"rental_uris":{"android":"levelo://app?vid=ace6dc7b-844d-48b9-85a1-bde754a67228","ios":"levelo://app?vid=ace6dc7b-844d-48b9-85a1-bde754a67228"},"vehicle_type_id":"4","last_reported":1769026773,"current_range_meters":2800,"station_id":"ce4bgt12rcd13ifvqcd0","pricing_plan_id":"cebpf4jnsgd1na2vs0mg"},{"bike_id":"0c4b5bb9-a8e3-46b7-bb86-539d3a3ea7fd","system_id":"levelo_inurba_marseille","lat":43.2845,"lon":5.39207,"is_reserved":false,"is_disabled":false,"rental_uris":{"android":"levelo://app?vid=0c4b5bb9-a8e3-46b7-bb86-539d3a3ea7fd","ios":"levelo://app?vid=0c4b5bb9-a8e3-46b7-bb86-539d3a3ea7fd"},"vehicle_type_id":"4","last_reported":1769026773,"current_range_meters":3200,"station_id":"ce4bhoh2rcd13ifvqh5g","pricing_plan_id":"cebpf4jnsgd1na2vs0mg"},{"bike_id":"0b857ada-bed9-47df-869a-44f8e17a76e1","system_id":"levelo_inurba_marseille","lat":43.22573,"lon":5.41627,"is_reserved":false,"is_disabled":false,"rental_uris":{"android":"levelo://app?vid=0b857ada-bed9-47df-869a-44f8e17a76e1","ios":"levelo://app?vid=0b857ada-bed9-47df-869a-44f8e17a76e1"},"vehicle_type_id":"4","last_reported":1769026773,"current_range_meters":3200,"station_id":"st_d2o4gvlbi1j2169b742g","pricing_plan_id":"cebpf4jnsgd1na2vs0mg"},{"bike_id":"ecac6204-9957-4a52-86e3-53db53394c89","system_id":"levelo_inurba_marseille","lat":43.25729,"lon":5.41107,"is_reserved":false,"is_disabled":false,"rental_uris":{"android":"levelo://app?vid=ecac6204-9957-4a52-86e3-53db53394c89","ios":"levelo://app?vid=ecac6204-9957-4a52-86e3-53db53394c89"},"vehicle_type_id":"4","last_reported":1769026773,"current_range_meters":3200,"station_id":"ce4bhkp2rcd13ifvqgd0","pricing_plan_id":"cebpf4jnsgd1na2vs0mg"},{"bike_id":"e8fee6c6-7b97-491f-b611-2895b23fd80b","system_id":"levelo_inurba_marseille","lat":43.26703,"lon":5.38273,"is_reserved":false,"is_disabled":true,"rental_uris":{"android":"levelo://app?vid=e8fee6c6-7b97-491f-b611-2895b23fd80b","ios":"levelo://app?vid=e8fee6c6-7b97-491f-b611-2895b23fd80b"},"vehicle_type_id":"4","last_reported":1769026773,"current_range_meters":3200,"station_id":"ce4bhg92rcd13ifvqf90","pricing_plan_id":"cebpf4jnsgd1na2vs0mg"},{"bike_id":"e44dfb94-5cd4-480c-b825-9b07ead49d70","system_id":"levelo_inurba_marseille","lat":43.269582,"lon":5.386212,"is_reserved":false,"is_disabled":false,"rental_uris":{"android":"levelo://app?vid=e44dfb94-5cd4-480c-b825-9b07ead49d70","ios":"levelo://app?vid=e44dfb94-5cd4-480c-b825-9b07ead49d70"},"vehicle_type_id":"4","last_reported":1769026773,"current_range_meters":3200,"station_id":"ce4bhh92rcd13ifvqfh0","pricing_plan_id":"cebpf4jnsgd1na2vs0mg"},{"bike_id":"2ab78053-6793-4d71-a2da-e67c98ccf4a4","system_id":"levelo_inurba_marseille","lat":43.2869,"lon":5.38664,"is_reserved":false,"is_disabled":false,"rental_uris":{"android":"levelo://app?vid=2ab78053-6793-4d71-a2da-e67c98ccf4a4","ios":"levelo://app?vid=2ab78053-6793-4d71-a2da-e67c98ccf4a4"},"vehicle_type_id":"4","last_reported":1769026773,"current_range_meters":3200,"station_id":"ce4bh492rcd13ifvqdug","pricing_plan_id":"cebpf4jnsgd1na2vs0mg"},{"bike_id":"5dbfcf3f-7cec-4c29-8168-14f9c37f7762","system_id":"levelo_inurba_marseille","lat":43.22562,"lon":5.41635,"is_reserved":false,"is_disabled":false,"rental_uris":{"android":"levelo://app?vid=5dbfcf3f-7cec-4c29-8168-14f9c37f7762","ios":"levelo://app?vid=5dbfcf3f-7cec-4c29-8168-14f9c37f7762"},"vehicle_type_id":"4","last_reported":1769026773,"current_range_meters":3200,"station_id":"st_d2o4gvlbi1j2169b742g","pricing_plan_id":"cebpf4jnsgd1na2vs0mg"},{"bike_id":"56aebe64-5e14-40af-99f2-62c233e94a99","system_id":"levelo_inurba_marseille","lat":43.29737,"lon":5.3874,"is_reserved":false,"is_disabled":false,"rental_uris":{"android":"levelo://app?vid=56aebe64-5e14-40af-99f2-62c233e94a99","ios":"levelo://app?vid=56aebe64-5e14-40af-99f2-62c233e94a99"},"vehicle_type_id":"4","last_reported":1769026773,"current_range_meters":3200,"station_id":"","pricing_plan_id":"cebpf4jnsgd1na2vs0mg"},{"bike_id":"35eb0f0f-42a8-4fd5-956e-bec6aa3f7ee3","system_id":"levelo_inurba_marseille","lat":43.231788,"lon":5.399988,"is_reserved":false,"is_disabled":false,"rental_uris":{"android":"levelo://app?vid=35eb0f0f-42a8-4fd5-956e-bec6aa3f7ee3","ios":"levelo://app?vid=35eb0f0f-42a8-4fd5-956e-bec6aa3f7ee3"},"vehicle_type_id":"4","last_reported":1769026773,"current_range_meters":3200,"station_id":"ce4bhn12rcd13ifvqgqg","pricing_plan_id":"cebpf4jnsgd1na2vs0mg"},{"bike_id":"2cf1ea64-26bb-4964-939a-03465aee6659","system_id":"levelo_inurba_marseille","lat":43.22567,"lon":5.41622,"is_reserved":false,"is_disabled":false,"rental_uris":{"android":"levelo://app?vid=2cf1ea64-26bb-4964-939a-03465aee6659","ios":"levelo://app?vid=2cf1ea64-26bb-4964-939a-03465aee6659"},"vehicle_type_id":"4","last_reported":1769026773,"current_range_meters":3200,"station_id":"st_d2o4gvlbi1j2169b742g","pricing_plan_id":"cebpf4jnsgd1na2vs0mg"},{"bike_id":"620c768c-60e8-4740-af4e-bec02b1b06f1","system_id":"levelo_inurba_marseille","lat":43.32916,"lon":5.38776,"is_reserved":false,"is_disabled":false,"rental_uris":{"android":"levelo://app?vid=620c768c-60e8-4740-af4e-bec02b1b06f1","ios":"levelo://app?vid=620c768c-60e8-4740-af4e-bec02b1b06f1"},"vehicle_type_id":"4","last_reported":1769026773,"current_range_meters":3200,"station_id":"","pricing_plan_id":"cebpf4jnsgd1na2vs0mg"},{"bike_id":"78231eba-f45a-43d5-8156-62d08ebd873b","system_id":"levelo_inurba_marseille","lat":43.29322,"lon":5.37154,"is_reserved":false,"is_disabled":false,"rental_uris":{"android":"levelo://app?vid=78231eba-f45a-43d5-8156-62d08ebd873b","ios":"levelo://app?vid=78231eba-f45a-43d5-8156-62d08ebd873b"},"vehicle_type_id":"4","last_reported":1769026773,"current_range_meters":3200,"station_id":"ce4bgh92rcd13ifvqb40","pricing_plan_id":"cebpf4jnsgd1na2vs0mg"},{"bike_id":"126844c0-bf2a-40d5-a858-d01c8062a9ea","system_id":"levelo_inurba_marseille","lat":43.31243,"lon":5.40157,"is_reserved":false,"is_disabled":false,"rental_uris":{"android":"levelo://app?vid=126844c0-bf2a-40d5-a858-d01c8062a9ea","ios":"levelo://app?vid=126844c0-bf2a-40d5-a858-d01c8062a9ea"},"vehicle_type_id":"4","last_reported":1769026773,"current_range_meters":3200,"station_id":"ce4bh092rcd13ifvqd30","pricing_plan_id":"cebpf4jnsgd1na2vs0mg"},{"bike_id":"10e48f23-3a9c-4643-8bde-8aebfcd1870f","system_id":"levelo_inurba_marseille","lat":43.24658,"lon":5.38155,"is_reserved":false,"is_disabled":false,"rental_uris":{"android":"levelo://app?vid=10e48f23-3a9c-4643-8bde-8aebfcd1870f","ios":"levelo://app?vid=10e48f23-3a9c-4643-8bde-8aebfcd1870f"},"vehicle_type_id":"4","last_reported":1769026773,"current_range_meters":3200,"station_id":"ce4bhih2rcd13ifvqfr0","pricing_plan_id":"cebpf4jnsgd1na2vs0mg"},{"bike_id":"b879bdb0-3364-4e43-95d1-60b6b5fbc4d0","system_id":"levelo_inurba_marseille","lat":43.24646,"lon":5.38925,"is_reserved":false,"is_disabled":false,"rental_uris":{"android":"levelo://app?vid=b879bdb0-3364-4e43-95d1-60b6b5fbc4d0","ios":"levelo://app?vid=b879bdb0-3364-4e43-95d1-60b6b5fbc4d0"},"vehicle_type_id":"4","last_reported":1769026773,"current_range_meters":3600,"station_id":"ce4bhg12rcd13ifvqf60","pricing_plan_id":"cebpf4jnsgd1na2vs0mg"},{"bike_id":"e9cf4d98-a47d-4cc7-82f6-b2e075f45c6a","system_id":"levelo_inurba_marseille","lat":43.22565,"lon":5.41642,"is_reserved":false,"is_disabled":false,"rental_uris":{"android":"levelo://app?vid=e9cf4d98-a47d-4cc7-82f6-b2e075f45c6a","ios":"levelo://app?vid=e9cf4d98-a47d-4cc7-82f6-b2e075f45c6a"},"vehicle_type_id":"4","last_reported":1769026773,"current_range_meters":3600,"station_id":"st_d2o4gvlbi1j2169b742g","pricing_plan_id":"cebpf4jnsgd1na2vs0mg"},{"bike_id":"bd263ecd-e110-47eb-9c35-c2199c34085a","system_id":"levelo_inurba_marseille","lat":43.280007,"lon":5.40015,"is_reserved":false,"is_disabled":false,"rental_uris":{"android":"levelo://app?vid=bd263ecd-e110-47eb-9c35-c2199c34085a","ios":"levelo://app?vid=bd263ecd-e110-47eb-9c35-c2199c34085a"},"vehicle_type_id":"4","last_reported":1769026773,"current_range_meters":3600,"station_id":"ce4bho92rcd13ifvqh4g","pricing_plan_id":"cebpf4jnsgd1na2vs0mg"},{"bike_id":"dedd883c-ff49-46e7-a27b-31461077bfed","system_id":"levelo_inurba_marseille","lat":43.29281,"lon":5.40118,"is_reserved":false,"is_disabled":false,"rental_uris":{"android":"levelo://app?vid=dedd883c-ff49-46e7-a27b-31461077bfed","ios":"levelo://app?vid=dedd883c-ff49-46e7-a27b-31461077bfed"},"vehicle_type_id":"4","last_reported":1769026773,"current_range_meters":3600,"station_id":"ce4bh312rcd13ifvqdk0","pricing_plan_id":"cebpf4jnsgd1na2vs0mg"},{"bike_id":"9c481355-ba5a-469d-96d2-7861ae02ba70","system_id":"levelo_inurba_marseille","lat":43.28677,"lon":5.38656,"is_reserved":false,"is_disabled":false,"rental_uris":{"android":"levelo://app?vid=9c481355-ba5a-469d-96d2-7861ae02ba70","ios":"levelo://app?vid=9c481355-ba5a-469d-96d2-7861ae02ba70"},"vehicle_type_id":"4","last_reported":1769026773,"current_range_meters":3600,"station_id":"ce4bh492rcd13ifvqdug","pricing_plan_id":"cebpf4jnsgd1na2vs0mg"},{"bike_id":"ee0649f4-b809-4aef-add5-3c8ad98310f4","system_id":"levelo_inurba_marseille","lat":43.250021,"lon":5.389175,"is_reserved":false,"is_disabled":false,"rental_uris":{"android":"levelo://app?vid=ee0649f4-b809-4aef-add5-3c8ad98310f4","ios":"levelo://app?vid=ee0649f4-b809-4aef-add5-3c8ad98310f4"},"vehicle_type_id":"4","last_reported":1769026773,"current_range_meters":3600,"station_id":"ce4bhgp2rcd13ifvqfd0","pricing_plan_id":"cebpf4jnsgd1na2vs0mg"},{"bike_id":"386404ee-f0ba-457d-90aa-b174a4c2d2a3","system_id":"levelo_inurba_marseille","lat":43.30319,"lon":5.40433,"is_reserved":false,"is_disabled":false,"rental_uris":{"android":"levelo://app?vid=386404ee-f0ba-457d-90aa-b174a4c2d2a3","ios":"levelo://app?vid=386404ee-f0ba-457d-90aa-b174a4c2d2a3"},"vehicle_type_id":"4","last_reported":1769026773,"current_range_meters":3600,"station_id":"ce4bh012rcd13ifvqd10","pricing_plan_id":"cebpf4jnsgd1na2vs0mg"},{"bike_id":"3874a6ee-13e4-43e5-a7bd-0b07cc0b1b05","system_id":"levelo_inurba_marseille","lat":43.26566,"lon":5.40323,"is_reserved":false,"is_disabled":false,"rental_uris":{"android":"levelo://app?vid=3874a6ee-13e4-43e5-a7bd-0b07cc0b1b05","ios":"levelo://app?vid=3874a6ee-13e4-43e5-a7bd-0b07cc0b1b05"},"vehicle_type_id":"4","last_reported":1769026773,"current_range_meters":3600,"station_id":"ce4bhmp2rcd13ifvqgng","pricing_plan_id":"cebpf4jnsgd1na2vs0mg"},{"bike_id":"8bde9110-7abb-43a4-b4a8-f2f156ca8811","system_id":"levelo_inurba_marseille","lat":43.27096,"lon":5.42302,"is_reserved":false,"is_disabled":false,"rental_uris":{"android":"levelo://app?vid=8bde9110-7abb-43a4-b4a8-f2f156ca8811","ios":"levelo://app?vid=8bde9110-7abb-43a4-b4a8-f2f156ca8811"},"vehicle_type_id":"4","last_reported":1769026773,"current_range_meters":3600,"station_id":"ce4bhk92rcd13ifvqgb0","pricing_plan_id":"cebpf4jnsgd1na2vs0mg"},{"bike_id":"7d155fb5-752a-48c7-b8d1-f2570fc4a915","system_id":"levelo_inurba_marseille","lat":43.31274,"lon":5.40171,"is_reserved":false,"is_disabled":false,"rental_uris":{"android":"levelo://app?vid=7d155fb5-752a-48c7-b8d1-f2570fc4a915","ios":"levelo://app?vid=7d155fb5-752a-48c7-b8d1-f2570fc4a915"},"vehicle_type_id":"4","last_reported":1769026773,"current_range_meters":3600,"station_id":"ce4bh092rcd13ifvqd30","pricing_plan_id":"cebpf4jnsgd1na2vs0mg"},{"bike_id":"1a42f3a8-2ec5-42b6-a29c-4fd0023ddc50","system_id":"levelo_inurba_marseille","lat":43.287176,"lon":5.379352,"is_reserved":false,"is_disabled":true,"rental_uris":{"android":"levelo://app?vid=1a42f3a8-2ec5-42b6-a29c-4fd0023ddc50","ios":"levelo://app?vid=1a42f3a8-2ec5-42b6-a29c-4fd0023ddc50"},"vehicle_type_id":"4","last_reported":1769026773,"current_range_meters":3600,"station_id":"ce4bh9p2rcd13ifvqec0","pricing_plan_id":"cebpf4jnsgd1na2vs0mg"},{"bike_id":"e298d5b4-24e2-44bb-9d8c-10ffd7cc7e7a","system_id":"levelo_inurba_marseille","lat":43.25008,"lon":5.38911,"is_reserved":false,"is_disabled":false,"rental_uris":{"android":"levelo://app?vid=e298d5b4-24e2-44bb-9d8c-10ffd7cc7e7a","ios":"levelo://app?vid=e298d5b4-24e2-44bb-9d8c-10ffd7cc7e7a"},"vehicle_type_id":"4","last_reported":1769026773,"current_range_meters":3600,"station_id":"ce4bhgp2rcd13ifvqfd0","pricing_plan_id":"cebpf4jnsgd1na2vs0mg"},{"bike_id":"5fef5d79-e9c3-4339-983d-afdd19e6bdcf","system_id":"levelo_inurba_marseille","lat":43.2925,"lon":5.38425,"is_reserved":false,"is_disabled":false,"rental_uris":{"android":"levelo://app?vid=5fef5d79-e9c3-4339-983d-afdd19e6bdcf","ios":"levelo://app?vid=5fef5d79-e9c3-4339-983d-afdd19e6bdcf"},"vehicle_type_id":"4","last_reported":1769026773,"current_range_meters":3600,"station_id":"ce4bh692rcd13ifvqea0","pricing_plan_id":"cebpf4jnsgd1na2vs0mg"},{"bike_id":"ea437f88-145f-4dfa-a3b1-3b48500f6748","system_id":"levelo_inurba_marseille","lat":43.24468,"lon":5.425563,"is_reserved":false,"is_disabled":false,"rental_uris":{"android":"levelo://app?vid=ea437f88-145f-4dfa-a3b1-3b48500f6748","ios":"levelo://app?vid=ea437f88-145f-4dfa-a3b1-3b48500f6748"},"vehicle_type_id":"4","last_reported":1769026773,"current_range_meters":3600,"station_id":"","pricing_plan_id":"cebpf4jnsgd1na2vs0mg"},{"bike_id":"48214cab-a20a-430a-8300-e70f3a4adf2b","system_id":"levelo_inurba_marseille","lat":43.295226,"lon":5.390481,"is_reserved":false,"is_disabled":false,"rental_uris":{"android":"levelo://app?vid=48214cab-a20a-430a-8300-e70f3a4adf2b","ios":"levelo://app?vid=48214cab-a20a-430a-8300-e70f3a4adf2b"},"vehicle_type_id":"4","last_reported":1769026773,"current_range_meters":3600,"station_id":"ce4bh3p2rcd13ifvqdp0","pricing_plan_id":"cebpf4jnsgd1na2vs0mg"},{"bike_id":"45057b36-4e0d-49b2-a5fd-921afaa91c78","system_id":"levelo_inurba_marseille","lat":43.280008,"lon":5.416648,"is_reserved":false,"is_disabled":false,"rental_uris":{"android":"levelo://app?vid=45057b36-4e0d-49b2-a5fd-921afaa91c78","ios":"levelo://app?vid=45057b36-4e0d-49b2-a5fd-921afaa91c78"},"vehicle_type_id":"4","last_reported":1769026773,"current_range_meters":3600,"station_id":"ce4bho12rcd13ifvqh1g","pricing_plan_id":"cebpf4jnsgd1na2vs0mg"},{"bike_id":"8071b732-6495-4355-8bd2-d391f59dfffd","system_id":"levelo_inurba_marseille","lat":43.21775,"lon":5.34604,"is_reserved":false,"is_disabled":false,"rental_uris":{"android":"levelo://app?vid=8071b732-6495-4355-8bd2-d391f59dfffd","ios":"levelo://app?vid=8071b732-6495-4355-8bd2-d391f59dfffd"},"vehicle_type_id":"4","last_reported":1769026773,"current_range_meters":3600,"station_id":"","pricing_plan_id":"cebpf4jnsgd1na2vs0mg"},{"bike_id":"0eb8c54e-7421-4c99-9fb6-0c0d669d5715","system_id":"levelo_inurba_marseille","lat":43.29295,"lon":5.37139,"is_reserved":false,"is_disabled":false,"rental_uris":{"android":"levelo://app?vid=0eb8c54e-7421-4c99-9fb6-0c0d669d5715","ios":"levelo://app?vid=0eb8c54e-7421-4c99-9fb6-0c0d669d5715"},"vehicle_type_id":"4","last_reported":1769026773,"current_range_meters":3600,"station_id":"ce4bgh92rcd13ifvqb40","pricing_plan_id":"cebpf4jnsgd1na2vs0mg"},{"bike_id":"37b9b189-94d2-4e18-82aa-b813b05c81f5","system_id":"levelo_inurba_marseille","lat":43.27332,"lon":5.391,"is_reserved":false,"is_disabled":false,"rental_uris":{"android":"levelo://app?vid=37b9b189-94d2-4e18-82aa-b813b05c81f5","ios":"levelo://app?vid=37b9b189-94d2-4e18-82aa-b813b05c81f5"},"vehicle_type_id":"4","last_reported":1769026773,"current_range_meters":3600,"station_id":"ce4bhgp2rcd13ifvqfe0","pricing_plan_id":"cebpf4jnsgd1na2vs0mg"},{"bike_id":"78314424-a006-4500-8dca-544a7641653c","system_id":"levelo_inurba_marseille","lat":43.29275,"lon":5.40134,"is_reserved":false,"is_disabled":false,"rental_uris":{"android":"levelo://app?vid=78314424-a006-4500-8dca-544a7641653c","ios":"levelo://app?vid=78314424-a006-4500-8dca-544a7641653c"},"vehicle_type_id":"4","last_reported":1769026773,"current_range_meters":3600,"station_id":"ce4bh312rcd13ifvqdk0","pricing_plan_id":"cebpf4jnsgd1na2vs0mg"},{"bike_id":"bcd3d6d4-62c6-4126-bacd-c20f19a53f49","system_id":"levelo_inurba_marseille","lat":43.29759,"lon":5.42776,"is_reserved":false,"is_disabled":false,"rental_uris":{"android":"levelo://app?vid=bcd3d6d4-62c6-4126-bacd-c20f19a53f49","ios":"levelo://app?vid=bcd3d6d4-62c6-4126-bacd-c20f19a53f49"},"vehicle_type_id":"4","last_reported":1769026773,"current_range_meters":4000,"station_id":"st_d3md5207bmas73dh9klg","pricing_plan_id":"cebpf4jnsgd1na2vs0mg"},{"bike_id":"02b19501-ae2b-4d21-ae93-ce26586838ae","system_id":"levelo_inurba_marseille","lat":43.29569,"lon":5.42306,"is_reserved":false,"is_disabled":false,"rental_uris":{"android":"levelo://app?vid=02b19501-ae2b-4d21-ae93-ce26586838ae","ios":"levelo://app?vid=02b19501-ae2b-4d21-ae93-ce26586838ae"},"vehicle_type_id":"4","last_reported":1769026773,"current_range_meters":4000,"station_id":"ce4bhph2rcd13ifvqhdg","pricing_plan_id":"cebpf4jnsgd1na2vs0mg"},{"bike_id":"836c81e2-f192-454e-b003-dbad80208c28","system_id":"levelo_inurba_marseille","lat":43.258235,"lon":5.394311,"is_reserved":false,"is_disabled":false,"rental_uris":{"android":"levelo://app?vid=836c81e2-f192-454e-b003-dbad80208c28","ios":"levelo://app?vid=836c81e2-f192-454e-b003-dbad80208c28"},"vehicle_type_id":"4","last_reported":1769026773,"current_range_meters":4000,"station_id":"ce4bhip2rcd13ifvqft0","pricing_plan_id":"cebpf4jnsgd1na2vs0mg"},{"bike_id":"8c0baf1f-0d9d-4f67-943a-8f76d79f7793","system_id":"levelo_inurba_marseille","lat":43.28439,"lon":5.39216,"is_reserved":false,"is_disabled":false,"rental_uris":{"android":"levelo://app?vid=8c0baf1f-0d9d-4f67-943a-8f76d79f7793","ios":"levelo://app?vid=8c0baf1f-0d9d-4f67-943a-8f76d79f7793"},"vehicle_type_id":"4","last_reported":1769026773,"current_range_meters":4000,"station_id":"ce4bhoh2rcd13ifvqh5g","pricing_plan_id":"cebpf4jnsgd1na2vs0mg"},{"bike_id":"674e3ad4-0057-4a66-86e9-d4ef9e8f9d7f","system_id":"levelo_inurba_marseille","lat":43.25339,"lon":5.42167,"is_reserved":false,"is_disabled":false,"rental_uris":{"android":"levelo://app?vid=674e3ad4-0057-4a66-86e9-d4ef9e8f9d7f","ios":"levelo://app?vid=674e3ad4-0057-4a66-86e9-d4ef9e8f9d7f"},"vehicle_type_id":"4","last_reported":1769026773,"current_range_meters":4000,"station_id":"st_d2m65c5bi1j21697t3ng","pricing_plan_id":"cebpf4jnsgd1na2vs0mg"},{"bike_id":"e33484e0-7a35-4b93-ab20-96b6be2bd7f2","system_id":"levelo_inurba_marseille","lat":43.317544,"lon":5.39021,"is_reserved":false,"is_disabled":false,"rental_uris":{"android":"levelo://app?vid=e33484e0-7a35-4b93-ab20-96b6be2bd7f2","ios":"levelo://app?vid=e33484e0-7a35-4b93-ab20-96b6be2bd7f2"},"vehicle_type_id":"4","last_reported":1769026773,"current_range_meters":4000,"station_id":"ce4bhqp2rcd13ifvqhng","pricing_plan_id":"cebpf4jnsgd1na2vs0mg"},{"bike_id":"ba5cf8bf-3fab-4906-a539-9829815d5bcb","system_id":"levelo_inurba_marseille","lat":43.2706,"lon":5.40263,"is_reserved":false,"is_disabled":false,"rental_uris":{"android":"levelo://app?vid=ba5cf8bf-3fab-4906-a539-9829815d5bcb","ios":"levelo://app?vid=ba5cf8bf-3fab-4906-a539-9829815d5bcb"},"vehicle_type_id":"4","last_reported":1769026773,"current_range_meters":4000,"station_id":"ce4bhk92rcd13ifvqgc0","pricing_plan_id":"cebpf4jnsgd1na2vs0mg"},{"bike_id":"5e6a2e23-cc18-498f-9f67-276968f75f61","system_id":"levelo_inurba_marseille","lat":43.274249,"lon":5.394067,"is_reserved":false,"is_disabled":false,"rental_uris":{"android":"levelo://app?vid=5e6a2e23-cc18-498f-9f67-276968f75f61","ios":"levelo://app?vid=5e6a2e23-cc18-498f-9f67-276968f75f61"},"vehicle_type_id":"4","last_reported":1769026773,"current_range_meters":4000,"station_id":"ce4bhdp2rcd13ifvqf20","pricing_plan_id":"cebpf4jnsgd1na2vs0mg"},{"bike_id":"8fd37eb2-3b65-4481-aaea-413cb5168da8","system_id":"levelo_inurba_marseille","lat":43.33353,"lon":5.41061,"is_reserved":false,"is_disabled":false,"rental_uris":{"android":"levelo://app?vid=8fd37eb2-3b65-4481-aaea-413cb5168da8","ios":"levelo://app?vid=8fd37eb2-3b65-4481-aaea-413cb5168da8"},"vehicle_type_id":"4","last_reported":1769026773,"current_range_meters":4000,"station_id":"","pricing_plan_id":"cebpf4jnsgd1na2vs0mg"},{"bike_id":"ba77a363-a500-48e6-bc8a-24b330f60862","system_id":"levelo_inurba_marseille","lat":43.29263,"lon":5.38419,"is_reserved":false,"is_disabled":false,"rental_uris":{"android":"levelo://app?vid=ba77a363-a500-48e6-bc8a-24b330f60862","ios":"levelo://app?vid=ba77a363-a500-48e6-bc8a-24b330f60862"},"vehicle_type_id":"4","last_reported":1769026773,"current_range_meters":4000,"station_id":"ce4bh692rcd13ifvqea0","pricing_plan_id":"cebpf4jnsgd1na2vs0mg"},{"bike_id":"a22dff2c-fc26-400c-95c2-739de4d20e68","system_id":"levelo_inurba_marseille","lat":43.28678,"lon":5.38668,"is_reserved":false,"is_disabled":false,"rental_uris":{"android":"levelo://app?vid=a22dff2c-fc26-400c-95c2-739de4d20e68","ios":"levelo://app?vid=a22dff2c-fc26-400c-95c2-739de4d20e68"},"vehicle_type_id":"4","last_reported":1769026773,"current_range_meters":4000,"station_id":"ce4bh492rcd13ifvqdug","pricing_plan_id":"cebpf4jnsgd1na2vs0mg"},{"bike_id":"a2424baa-0e5e-4ed2-9ae6-78591e46955c","system_id":"levelo_inurba_marseille","lat":43.28471,"lon":5.48406,"is_reserved":false,"is_disabled":false,"rental_uris":{"android":"levelo://app?vid=a2424baa-0e5e-4ed2-9ae6-78591e46955c","ios":"levelo://app?vid=a2424baa-0e5e-4ed2-9ae6-78591e46955c"},"vehicle_type_id":"4","last_reported":1769026773,"current_range_meters":4000,"station_id":"st_d3svhcjqgbts73a3dn0g","pricing_plan_id":"cebpf4jnsgd1na2vs0mg"},{"bike_id":"2a5f5e2c-a450-48d8-bdee-1f523895da20","system_id":"levelo_inurba_marseille","lat":43.27972,"lon":5.40055,"is_reserved":false,"is_disabled":false,"rental_uris":{"android":"levelo://app?vid=2a5f5e2c-a450-48d8-bdee-1f523895da20","ios":"levelo://app?vid=2a5f5e2c-a450-48d8-bdee-1f523895da20"},"vehicle_type_id":"4","last_reported":1769026773,"current_range_meters":4400,"station_id":"ce4bho92rcd13ifvqh4g","pricing_plan_id":"cebpf4jnsgd1na2vs0mg"},{"bike_id":"f32f99ba-3ead-4e04-9bcb-0439bdc4e6db","system_id":"levelo_inurba_marseille","lat":43.29903,"lon":5.40323,"is_reserved":false,"is_disabled":false,"rental_uris":{"android":"levelo://app?vid=f32f99ba-3ead-4e04-9bcb-0439bdc4e6db","ios":"levelo://app?vid=f32f99ba-3ead-4e04-9bcb-0439bdc4e6db"},"vehicle_type_id":"4","last_reported":1769026773,"current_range_meters":4400,"station_id":"","pricing_plan_id":"cebpf4jnsgd1na2vs0mg"},{"bike_id":"8069f374-6bb2-4df8-950d-be2e50fcd180","system_id":"levelo_inurba_marseille","lat":43.31125,"lon":5.37762,"is_reserved":false,"is_disabled":true,"rental_uris":{"android":"levelo://app?vid=8069f374-6bb2-4df8-950d-be2e50fcd180","ios":"levelo://app?vid=8069f374-6bb2-4df8-950d-be2e50fcd180"},"vehicle_type_id":"4","last_reported":1769026773,"current_range_meters":4400,"station_id":"ce4bgt92rcd13ifvqcg0","pricing_plan_id":"cebpf4jnsgd1na2vs0mg"},{"bike_id":"3c5d2fc6-2a7b-434b-bb80-73e4b09df88b","system_id":"levelo_inurba_marseille","lat":43.29697,"lon":5.36609,"is_reserved":false,"is_disabled":false,"rental_uris":{"android":"levelo://app?vid=3c5d2fc6-2a7b-434b-bb80-73e4b09df88b","ios":"levelo://app?vid=3c5d2fc6-2a7b-434b-bb80-73e4b09df88b"},"vehicle_type_id":"4","last_reported":1769026773,"current_range_meters":4400,"station_id":"ce4bgn12rcd13ifvqbt0","pricing_plan_id":"cebpf4jnsgd1na2vs0mg"},{"bike_id":"ca40cb4e-9b16-4c76-accb-546c53420377","system_id":"levelo_inurba_marseille","lat":43.29263,"lon":5.38435,"is_reserved":false,"is_disabled":false,"rental_uris":{"android":"levelo://app?vid=ca40cb4e-9b16-4c76-accb-546c53420377","ios":"levelo://app?vid=ca40cb4e-9b16-4c76-accb-546c53420377"},"vehicle_type_id":"4","last_reported":1769026773,"current_range_meters":4400,"station_id":"ce4bh692rcd13ifvqea0","pricing_plan_id":"cebpf4jnsgd1na2vs0mg"},{"bike_id":"67370279-4b9b-4f25-9ed0-0eac2f0763ac","system_id":"levelo_inurba_marseille","lat":43.29738,"lon":5.37691,"is_reserved":false,"is_disabled":false,"rental_uris":{"android":"levelo://app?vid=67370279-4b9b-4f25-9ed0-0eac2f0763ac","ios":"levelo://app?vid=67370279-4b9b-4f25-9ed0-0eac2f0763ac"},"vehicle_type_id":"4","last_reported":1769026773,"current_range_meters":4400,"station_id":"ce4bgkh2rcd13ifvqbl0","pricing_plan_id":"cebpf4jnsgd1na2vs0mg"},{"bike_id":"0d039f66-11a1-4daa-9c3e-527b4b511ff8","system_id":"levelo_inurba_marseille","lat":43.26057,"lon":5.39395,"is_reserved":false,"is_disabled":true,"rental_uris":{"android":"levelo://app?vid=0d039f66-11a1-4daa-9c3e-527b4b511ff8","ios":"levelo://app?vid=0d039f66-11a1-4daa-9c3e-527b4b511ff8"},"vehicle_type_id":"4","last_reported":1769026773,"current_range_meters":4400,"station_id":"ce4bhh92rcd13ifvqfj0","pricing_plan_id":"cebpf4jnsgd1na2vs0mg"},{"bike_id":"94b856bc-8a8a-49fc-9052-35a630264686","system_id":"levelo_inurba_marseille","lat":43.27329,"lon":5.39046,"is_reserved":false,"is_disabled":false,"rental_uris":{"android":"levelo://app?vid=94b856bc-8a8a-49fc-9052-35a630264686","ios":"levelo://app?vid=94b856bc-8a8a-49fc-9052-35a630264686"},"vehicle_type_id":"4","last_reported":1769026773,"current_range_meters":4400,"station_id":"ce4bhgp2rcd13ifvqfe0","pricing_plan_id":"cebpf4jnsgd1na2vs0mg"},{"bike_id":"5f6a0a0c-aaf7-41c1-be98-33b50db68fe6","system_id":"levelo_inurba_marseille","lat":43.26487,"lon":5.3956,"is_reserved":false,"is_disabled":true,"rental_uris":{"android":"levelo://app?vid=5f6a0a0c-aaf7-41c1-be98-33b50db68fe6","ios":"levelo://app?vid=5f6a0a0c-aaf7-41c1-be98-33b50db68fe6"},"vehicle_type_id":"4","last_reported":1769026773,"current_range_meters":4400,"station_id":"ce4bhi12rcd13ifvqfq0","pricing_plan_id":"cebpf4jnsgd1na2vs0mg"},{"bike_id":"9ed85f30-2205-4d4d-9b08-e4294486deeb","system_id":"levelo_inurba_marseille","lat":43.27216,"lon":5.39079,"is_reserved":false,"is_disabled":false,"rental_uris":{"android":"levelo://app?vid=9ed85f30-2205-4d4d-9b08-e4294486deeb","ios":"levelo://app?vid=9ed85f30-2205-4d4d-9b08-e4294486deeb"},"vehicle_type_id":"4","last_reported":1769026773,"current_range_meters":4400,"station_id":"","pricing_plan_id":"cebpf4jnsgd1na2vs0mg"},{"bike_id":"cce149ec-a99d-44c4-9dd1-ee56040aed78","system_id":"levelo_inurba_marseille","lat":43.29255,"lon":5.38441,"is_reserved":false,"is_disabled":false,"rental_uris":{"android":"levelo://app?vid=cce149ec-a99d-44c4-9dd1-ee56040aed78","ios":"levelo://app?vid=cce149ec-a99d-44c4-9dd1-ee56040aed78"},"vehicle_type_id":"4","last_reported":1769026773,"current_range_meters":4400,"station_id":"ce4bh692rcd13ifvqea0","pricing_plan_id":"cebpf4jnsgd1na2vs0mg"},{"bike_id":"825af1f4-1bd1-4b16-b2f0-e543612fc713","system_id":"levelo_inurba_marseille","lat":43.29094,"lon":5.38145,"is_reserved":false,"is_disabled":false,"rental_uris":{"android":"levelo://app?vid=825af1f4-1bd1-4b16-b2f0-e543612fc713","ios":"levelo://app?vid=825af1f4-1bd1-4b16-b2f0-e543612fc713"},"vehicle_type_id":"4","last_reported":1769026773,"current_range_meters":4400,"station_id":"ce4bh512rcd13ifvqe2g","pricing_plan_id":"cebpf4jnsgd1na2vs0mg"},{"bike_id":"1c9f2e94-25b8-432d-aac8-42f703544d49","system_id":"levelo_inurba_marseille","lat":43.225325,"lon":5.34829,"is_reserved":false,"is_disabled":false,"rental_uris":{"android":"levelo://app?vid=1c9f2e94-25b8-432d-aac8-42f703544d49","ios":"levelo://app?vid=1c9f2e94-25b8-432d-aac8-42f703544d49"},"vehicle_type_id":"4","last_reported":1769026773,"current_range_meters":4400,"station_id":"","pricing_plan_id":"cebpf4jnsgd1na2vs0mg"},{"bike_id":"75d212f5-2dae-4b21-9e67-495cb3723ca2","system_id":"levelo_inurba_marseille","lat":43.23961,"lon":5.36635,"is_reserved":false,"is_disabled":false,"rental_uris":{"android":"levelo://app?vid=75d212f5-2dae-4b21-9e67-495cb3723ca2","ios":"levelo://app?vid=75d212f5-2dae-4b21-9e67-495cb3723ca2"},"vehicle_type_id":"4","last_reported":1769026773,"current_range_meters":4400,"station_id":"ce4bhi12rcd13ifvqfp0","pricing_plan_id":"cebpf4jnsgd1na2vs0mg"},{"bike_id":"7dec8c94-369e-4111-95bd-94da7a72318c","system_id":"levelo_inurba_marseille","lat":43.28361,"lon":5.38111,"is_reserved":false,"is_disabled":false,"rental_uris":{"android":"levelo://app?vid=7dec8c94-369e-4111-95bd-94da7a72318c","ios":"levelo://app?vid=7dec8c94-369e-4111-95bd-94da7a72318c"},"vehicle_type_id":"4","last_reported":1769026773,"current_range_meters":4400,"station_id":"ce4bh412rcd13ifvqdr0","pricing_plan_id":"cebpf4jnsgd1na2vs0mg"},{"bike_id":"6ce3afbb-a674-4742-9e73-f5def118c644","system_id":"levelo_inurba_marseille","lat":43.2893,"lon":5.3839,"is_reserved":false,"is_disabled":false,"rental_uris":{"android":"levelo://app?vid=6ce3afbb-a674-4742-9e73-f5def118c644","ios":"levelo://app?vid=6ce3afbb-a674-4742-9e73-f5def118c644"},"vehicle_type_id":"4","last_reported":1769026773,"current_range_meters":4400,"station_id":"ce4bh612rcd13ifvqe6g","pricing_plan_id":"cebpf4jnsgd1na2vs0mg"},{"bike_id":"5ccd4b49-397b-4ce5-a22c-752ca0560289","system_id":"levelo_inurba_marseille","lat":43.29577,"lon":5.39971,"is_reserved":false,"is_disabled":false,"rental_uris":{"android":"levelo://app?vid=5ccd4b49-397b-4ce5-a22c-752ca0560289","ios":"levelo://app?vid=5ccd4b49-397b-4ce5-a22c-752ca0560289"},"vehicle_type_id":"4","last_reported":1769026773,"current_range_meters":4800,"station_id":"ce4bh312rcd13ifvqdj0","pricing_plan_id":"cebpf4jnsgd1na2vs0mg"},{"bike_id":"951d8829-e976-4f3c-b7cf-ce8d37c31a72","system_id":"levelo_inurba_marseille","lat":43.26564,"lon":5.39013,"is_reserved":false,"is_disabled":false,"rental_uris":{"android":"levelo://app?vid=951d8829-e976-4f3c-b7cf-ce8d37c31a72","ios":"levelo://app?vid=951d8829-e976-4f3c-b7cf-ce8d37c31a72"},"vehicle_type_id":"4","last_reported":1769026773,"current_range_meters":4800,"station_id":"ce4bhe12rcd13ifvqf30","pricing_plan_id":"cebpf4jnsgd1na2vs0mg"},{"bike_id":"fc4e3a66-55ac-450e-a159-861862597655","system_id":"levelo_inurba_marseille","lat":43.27305,"lon":5.39064,"is_reserved":false,"is_disabled":false,"rental_uris":{"android":"levelo://app?vid=fc4e3a66-55ac-450e-a159-861862597655","ios":"levelo://app?vid=fc4e3a66-55ac-450e-a159-861862597655"},"vehicle_type_id":"4","last_reported":1769026773,"current_range_meters":4800,"station_id":"ce4bhgp2rcd13ifvqfe0","pricing_plan_id":"cebpf4jnsgd1na2vs0mg"},{"bike_id":"ce4542fd-c035-493f-a9d3-5c3c2123e535","system_id":"levelo_inurba_marseille","lat":43.299168,"lon":5.374817,"is_reserved":false,"is_disabled":false,"rental_uris":{"android":"levelo://app?vid=ce4542fd-c035-493f-a9d3-5c3c2123e535","ios":"levelo://app?vid=ce4542fd-c035-493f-a9d3-5c3c2123e535"},"vehicle_type_id":"4","last_reported":1769026773,"current_range_meters":4800,"station_id":"ce4bgjh2rcd13ifvqbg0","pricing_plan_id":"cebpf4jnsgd1na2vs0mg"},{"bike_id":"3639d55f-2c56-4a01-8e17-429ca48b3f11","system_id":"levelo_inurba_marseille","lat":43.30076,"lon":5.39055,"is_reserved":false,"is_disabled":false,"rental_uris":{"android":"levelo://app?vid=3639d55f-2c56-4a01-8e17-429ca48b3f11","ios":"levelo://app?vid=3639d55f-2c56-4a01-8e17-429ca48b3f11"},"vehicle_type_id":"4","last_reported":1769026773,"current_range_meters":4800,"station_id":"ce4bh192rcd13ifvqdb0","pricing_plan_id":"cebpf4jnsgd1na2vs0mg"},{"bike_id":"56496f15-285b-4dff-92b3-54ffdff3e399","system_id":"levelo_inurba_marseille","lat":43.2684,"lon":5.3963,"is_reserved":false,"is_disabled":false,"rental_uris":{"android":"levelo://app?vid=56496f15-285b-4dff-92b3-54ffdff3e399","ios":"levelo://app?vid=56496f15-285b-4dff-92b3-54ffdff3e399"},"vehicle_type_id":"4","last_reported":1769026773,"current_range_meters":4800,"station_id":"","pricing_plan_id":"cebpf4jnsgd1na2vs0mg"},{"bike_id":"c5f1dd13-1281-4386-b64d-18e80e862569","system_id":"levelo_inurba_marseille","lat":43.28946,"lon":5.36627,"is_reserved":false,"is_disabled":false,"rental_uris":{"android":"levelo://app?vid=c5f1dd13-1281-4386-b64d-18e80e862569","ios":"levelo://app?vid=c5f1dd13-1281-4386-b64d-18e80e862569"},"vehicle_type_id":"4","last_reported":1769026773,"current_range_meters":4800,"station_id":"ce4bhap2rcd13ifvqek0","pricing_plan_id":"cebpf4jnsgd1na2vs0mg"},{"bike_id":"dd8f2106-b4b0-48aa-b8fa-0c70f00deb72","system_id":"levelo_inurba_marseille","lat":43.30437,"lon":5.38889,"is_reserved":false,"is_disabled":false,"rental_uris":{"android":"levelo://app?vid=dd8f2106-b4b0-48aa-b8fa-0c70f00deb72","ios":"levelo://app?vid=dd8f2106-b4b0-48aa-b8fa-0c70f00deb72"},"vehicle_type_id":"4","last_reported":1769026773,"current_range_meters":4800,"station_id":"ce4bgk12rcd13ifvqbi0","pricing_plan_id":"cebpf4jnsgd1na2vs0mg"},{"bike_id":"12d50624-36fb-429d-be6d-b5122cf2de21","system_id":"levelo_inurba_marseille","lat":43.317556,"lon":5.389988,"is_reserved":false,"is_disabled":false,"rental_uris":{"android":"levelo://app?vid=12d50624-36fb-429d-be6d-b5122cf2de21","ios":"levelo://app?vid=12d50624-36fb-429d-be6d-b5122cf2de21"},"vehicle_type_id":"4","last_reported":1769026773,"current_range_meters":4800,"station_id":"ce4bhqp2rcd13ifvqhng","pricing_plan_id":"cebpf4jnsgd1na2vs0mg"},{"bike_id":"94cd4065-2da4-4578-bc78-c1ec4a590ca1","system_id":"levelo_inurba_marseille","lat":43.27647,"lon":5.42471,"is_reserved":false,"is_disabled":false,"rental_uris":{"android":"levelo://app?vid=94cd4065-2da4-4578-bc78-c1ec4a590ca1","ios":"levelo://app?vid=94cd4065-2da4-4578-bc78-c1ec4a590ca1"},"vehicle_type_id":"4","last_reported":1769026773,"current_range_meters":4800,"station_id":"","pricing_plan_id":"cebpf4jnsgd1na2vs0mg"},{"bike_id":"00b937db-a2ad-4ae8-a0bd-5b7deb088884","system_id":"levelo_inurba_marseille","lat":43.2953,"lon":5.38529,"is_reserved":false,"is_disabled":false,"rental_uris":{"android":"levelo://app?vid=00b937db-a2ad-4ae8-a0bd-5b7deb088884","ios":"levelo://app?vid=00b937db-a2ad-4ae8-a0bd-5b7deb088884"},"vehicle_type_id":"4","last_reported":1769026773,"current_range_meters":4800,"station_id":"ce4bgih2rcd13ifvqba0","pricing_plan_id":"cebpf4jnsgd1na2vs0mg"},{"bike_id":"93c7a025-127d-40b2-862c-98919fbc02da","system_id":"levelo_inurba_marseille","lat":43.23191,"lon":5.39985,"is_reserved":false,"is_disabled":false,"rental_uris":{"android":"levelo://app?vid=93c7a025-127d-40b2-862c-98919fbc02da","ios":"levelo://app?vid=93c7a025-127d-40b2-862c-98919fbc02da"},"vehicle_type_id":"4","last_reported":1769026773,"current_range_meters":4800,"station_id":"ce4bhn12rcd13ifvqgqg","pricing_plan_id":"cebpf4jnsgd1na2vs0mg"},{"bike_id":"81e064df-319d-4cae-bb05-3e047943ab91","system_id":"levelo_inurba_marseille","lat":43.24082,"lon":5.37756,"is_reserved":false,"is_disabled":false,"rental_uris":{"android":"levelo://app?vid=81e064df-319d-4cae-bb05-3e047943ab91","ios":"levelo://app?vid=81e064df-319d-4cae-bb05-3e047943ab91"},"vehicle_type_id":"4","last_reported":1769026773,"current_range_meters":4800,"station_id":"ce4bhnp2rcd13ifvqgvg","pricing_plan_id":"cebpf4jnsgd1na2vs0mg"},{"bike_id":"bc53fded-5652-4ab5-920f-ec142a69c388","system_id":"levelo_inurba_marseille","lat":43.29791,"lon":5.39356,"is_reserved":false,"is_disabled":false,"rental_uris":{"android":"levelo://app?vid=bc53fded-5652-4ab5-920f-ec142a69c388","ios":"levelo://app?vid=bc53fded-5652-4ab5-920f-ec142a69c388"},"vehicle_type_id":"4","last_reported":1769026773,"current_range_meters":4800,"station_id":"chh1huq6cuj3fo74tm60","pricing_plan_id":"cebpf4jnsgd1na2vs0mg"},{"bike_id":"1e9683fd-3419-4707-ab97-e3b80d5f4bea","system_id":"levelo_inurba_marseille","lat":43.27158,"lon":5.40458,"is_reserved":false,"is_disabled":false,"rental_uris":{"android":"levelo://app?vid=1e9683fd-3419-4707-ab97-e3b80d5f4bea","ios":"levelo://app?vid=1e9683fd-3419-4707-ab97-e3b80d5f4bea"},"vehicle_type_id":"4","last_reported":1769026773,"current_range_meters":4800,"station_id":"","pricing_plan_id":"cebpf4jnsgd1na2vs0mg"},{"bike_id":"80961886-c044-4dc9-892b-45ec7cb487cd","system_id":"levelo_inurba_marseille","lat":43.29599,"lon":5.38078,"is_reserved":false,"is_disabled":false,"rental_uris":{"android":"levelo://app?vid=80961886-c044-4dc9-892b-45ec7cb487cd","ios":"levelo://app?vid=80961886-c044-4dc9-892b-45ec7cb487cd"},"vehicle_type_id":"4","last_reported":1769026773,"current_range_meters":4800,"station_id":"ce4bgl12rcd13ifvqbo0","pricing_plan_id":"cebpf4jnsgd1na2vs0mg"},{"bike_id":"29bfec45-ad76-429c-882a-34b6f5ca4191","system_id":"levelo_inurba_marseille","lat":43.32096,"lon":5.36782,"is_reserved":false,"is_disabled":false,"rental_uris":{"android":"levelo://app?vid=29bfec45-ad76-429c-882a-34b6f5ca4191","ios":"levelo://app?vid=29bfec45-ad76-429c-882a-34b6f5ca4191"},"vehicle_type_id":"4","last_reported":1769026773,"current_range_meters":4800,"station_id":"ce4bhrh2rcd13ifvqhug","pricing_plan_id":"cebpf4jnsgd1na2vs0mg"},{"bike_id":"e9a42ead-0d12-40f0-b190-b1b6a6eb7802","system_id":"levelo_inurba_marseille","lat":43.24807,"lon":5.37469,"is_reserved":false,"is_disabled":false,"rental_uris":{"android":"levelo://app?vid=e9a42ead-0d12-40f0-b190-b1b6a6eb7802","ios":"levelo://app?vid=e9a42ead-0d12-40f0-b190-b1b6a6eb7802"},"vehicle_type_id":"4","last_reported":1769026773,"current_range_meters":4800,"station_id":"ce4bhgh2rcd13ifvqfb0","pricing_plan_id":"cebpf4jnsgd1na2vs0mg"},{"bike_id":"00d13be8-f5ba-411a-9ab3-e17b60014e24","system_id":"levelo_inurba_marseille","lat":43.28011,"lon":5.39999,"is_reserved":false,"is_disabled":false,"rental_uris":{"android":"levelo://app?vid=00d13be8-f5ba-411a-9ab3-e17b60014e24","ios":"levelo://app?vid=00d13be8-f5ba-411a-9ab3-e17b60014e24"},"vehicle_type_id":"4","last_reported":1769026773,"current_range_meters":5600,"station_id":"ce4bho92rcd13ifvqh4g","pricing_plan_id":"cebpf4jnsgd1na2vs0mg"},{"bike_id":"a1ebd82e-18a2-4548-ad48-e31931514400","system_id":"levelo_inurba_marseille","lat":43.26486,"lon":5.39549,"is_reserved":false,"is_disabled":false,"rental_uris":{"android":"levelo://app?vid=a1ebd82e-18a2-4548-ad48-e31931514400","ios":"levelo://app?vid=a1ebd82e-18a2-4548-ad48-e31931514400"},"vehicle_type_id":"4","last_reported":1769026773,"current_range_meters":5600,"station_id":"ce4bhi12rcd13ifvqfq0","pricing_plan_id":"cebpf4jnsgd1na2vs0mg"},{"bike_id":"92627d90-ac48-4227-8b3f-dad6aa59d4b3","system_id":"levelo_inurba_marseille","lat":43.21192,"lon":5.35084,"is_reserved":false,"is_disabled":false,"rental_uris":{"android":"levelo://app?vid=92627d90-ac48-4227-8b3f-dad6aa59d4b3","ios":"levelo://app?vid=92627d90-ac48-4227-8b3f-dad6aa59d4b3"},"vehicle_type_id":"4","last_reported":1769026773,"current_range_meters":5600,"station_id":"","pricing_plan_id":"cebpf4jnsgd1na2vs0mg"},{"bike_id":"fb2014f7-1d5f-4062-89cd-f41381344fc0","system_id":"levelo_inurba_marseille","lat":43.26918,"lon":5.40285,"is_reserved":false,"is_disabled":false,"rental_uris":{"android":"levelo://app?vid=fb2014f7-1d5f-4062-89cd-f41381344fc0","ios":"levelo://app?vid=fb2014f7-1d5f-4062-89cd-f41381344fc0"},"vehicle_type_id":"4","last_reported":1769026773,"current_range_meters":5600,"station_id":"cjm6bp8fraef2m0cb0m0","pricing_plan_id":"cebpf4jnsgd1na2vs0mg"},{"bike_id":"281dc760-b2ec-40e0-bd5a-ad13f340bfcc","system_id":"levelo_inurba_marseille","lat":43.30591,"lon":5.39352,"is_reserved":false,"is_disabled":false,"rental_uris":{"android":"levelo://app?vid=281dc760-b2ec-40e0-bd5a-ad13f340bfcc","ios":"levelo://app?vid=281dc760-b2ec-40e0-bd5a-ad13f340bfcc"},"vehicle_type_id":"4","last_reported":1769026773,"current_range_meters":5600,"station_id":"ce4bh0p2rcd13ifvqd80","pricing_plan_id":"cebpf4jnsgd1na2vs0mg"},{"bike_id":"99d65f09-c0e6-4f0f-b72f-6e110c0f1bd4","system_id":"levelo_inurba_marseille","lat":43.28991,"lon":5.37605,"is_reserved":false,"is_disabled":false,"rental_uris":{"android":"levelo://app?vid=99d65f09-c0e6-4f0f-b72f-6e110c0f1bd4","ios":"levelo://app?vid=99d65f09-c0e6-4f0f-b72f-6e110c0f1bd4"},"vehicle_type_id":"4","last_reported":1769026773,"current_range_meters":5600,"station_id":"","pricing_plan_id":"cebpf4jnsgd1na2vs0mg"},{"bike_id":"326f44ae-8bca-474a-a550-118850761da4","system_id":"levelo_inurba_marseille","lat":43.27911,"lon":5.38015,"is_reserved":false,"is_disabled":false,"rental_uris":{"android":"levelo://app?vid=326f44ae-8bca-474a-a550-118850761da4","ios":"levelo://app?vid=326f44ae-8bca-474a-a550-118850761da4"},"vehicle_type_id":"4","last_reported":1769026773,"current_range_meters":5600,"station_id":"ce4bhf92rcd13ifvqf50","pricing_plan_id":"cebpf4jnsgd1na2vs0mg"},{"bike_id":"9fe9b7fa-bf5e-456b-b148-d56a572e2392","system_id":"levelo_inurba_marseille","lat":43.22559,"lon":5.41628,"is_reserved":false,"is_disabled":false,"rental_uris":{"android":"levelo://app?vid=9fe9b7fa-bf5e-456b-b148-d56a572e2392","ios":"levelo://app?vid=9fe9b7fa-bf5e-456b-b148-d56a572e2392"},"vehicle_type_id":"4","last_reported":1769026773,"current_range_meters":5600,"station_id":"st_d2o4gvlbi1j2169b742g","pricing_plan_id":"cebpf4jnsgd1na2vs0mg"},{"bike_id":"2351e1c9-97c0-42ed-8ba7-93d168c64106","system_id":"levelo_inurba_marseille","lat":43.297674,"lon":5.427724,"is_reserved":false,"is_disabled":false,"rental_uris":{"android":"levelo://app?vid=2351e1c9-97c0-42ed-8ba7-93d168c64106","ios":"levelo://app?vid=2351e1c9-97c0-42ed-8ba7-93d168c64106"},"vehicle_type_id":"4","last_reported":1769026773,"current_range_meters":5600,"station_id":"st_d3md5207bmas73dh9klg","pricing_plan_id":"cebpf4jnsgd1na2vs0mg"},{"bike_id":"00729f81-defe-4949-ab38-da427b717ebf","system_id":"levelo_inurba_marseille","lat":43.26215,"lon":5.40449,"is_reserved":false,"is_disabled":false,"rental_uris":{"android":"levelo://app?vid=00729f81-defe-4949-ab38-da427b717ebf","ios":"levelo://app?vid=00729f81-defe-4949-ab38-da427b717ebf"},"vehicle_type_id":"4","last_reported":1769026773,"current_range_meters":5600,"station_id":"ce4bhmh2rcd13ifvqgmg","pricing_plan_id":"cebpf4jnsgd1na2vs0mg"},{"bike_id":"b4ef7c1d-fb57-46cf-ad45-a6305bfba0ef","system_id":"levelo_inurba_marseille","lat":43.29583,"lon":5.40061,"is_reserved":false,"is_disabled":false,"rental_uris":{"android":"levelo://app?vid=b4ef7c1d-fb57-46cf-ad45-a6305bfba0ef","ios":"levelo://app?vid=b4ef7c1d-fb57-46cf-ad45-a6305bfba0ef"},"vehicle_type_id":"4","last_reported":1769026773,"current_range_meters":5600,"station_id":"ce4bh312rcd13ifvqdj0","pricing_plan_id":"cebpf4jnsgd1na2vs0mg"},{"bike_id":"879af67b-1660-4e82-aa1c-7cf08d2076b6","system_id":"levelo_inurba_marseille","lat":43.28472,"lon":5.38499,"is_reserved":false,"is_disabled":false,"rental_uris":{"android":"levelo://app?vid=879af67b-1660-4e82-aa1c-7cf08d2076b6","ios":"levelo://app?vid=879af67b-1660-4e82-aa1c-7cf08d2076b6"},"vehicle_type_id":"4","last_reported":1769026773,"current_range_meters":5600,"station_id":"ce4bh8p2rcd13ifvqeb0","pricing_plan_id":"cebpf4jnsgd1na2vs0mg"},{"bike_id":"6b0a7910-4f3c-47d6-b165-5319282e4ed9","system_id":"levelo_inurba_marseille","lat":43.33544,"lon":5.37461,"is_reserved":false,"is_disabled":false,"rental_uris":{"android":"levelo://app?vid=6b0a7910-4f3c-47d6-b165-5319282e4ed9","ios":"levelo://app?vid=6b0a7910-4f3c-47d6-b165-5319282e4ed9"},"vehicle_type_id":"4","last_reported":1769026773,"current_range_meters":5600,"station_id":"","pricing_plan_id":"cebpf4jnsgd1na2vs0mg"},{"bike_id":"3949a607-bb2d-4ed5-be69-f48824ee846c","system_id":"levelo_inurba_marseille","lat":43.29865,"lon":5.36493,"is_reserved":false,"is_disabled":false,"rental_uris":{"android":"levelo://app?vid=3949a607-bb2d-4ed5-be69-f48824ee846c","ios":"levelo://app?vid=3949a607-bb2d-4ed5-be69-f48824ee846c"},"vehicle_type_id":"4","last_reported":1769026773,"current_range_meters":5600,"station_id":"","pricing_plan_id":"cebpf4jnsgd1na2vs0mg"},{"bike_id":"dd884f9c-4374-4acb-82b1-707a0b464290","system_id":"levelo_inurba_marseille","lat":43.2952,"lon":5.39046,"is_reserved":false,"is_disabled":false,"rental_uris":{"android":"levelo://app?vid=dd884f9c-4374-4acb-82b1-707a0b464290","ios":"levelo://app?vid=dd884f9c-4374-4acb-82b1-707a0b464290"},"vehicle_type_id":"4","last_reported":1769026773,"current_range_meters":5600,"station_id":"ce4bh3p2rcd13ifvqdp0","pricing_plan_id":"cebpf4jnsgd1na2vs0mg"},{"bike_id":"f72efe51-12d3-4c91-8eb1-b0d276f7cb47","system_id":"levelo_inurba_marseille","lat":43.248039,"lon":5.374545,"is_reserved":false,"is_disabled":false,"rental_uris":{"android":"levelo://app?vid=f72efe51-12d3-4c91-8eb1-b0d276f7cb47","ios":"levelo://app?vid=f72efe51-12d3-4c91-8eb1-b0d276f7cb47"},"vehicle_type_id":"4","last_reported":1769026773,"current_range_meters":5600,"station_id":"ce4bhgh2rcd13ifvqfb0","pricing_plan_id":"cebpf4jnsgd1na2vs0mg"},{"bike_id":"d60d69f0-11b1-4196-a1a6-b500cf4e2e4c","system_id":"levelo_inurba_marseille","lat":43.28936,"lon":5.36619,"is_reserved":false,"is_disabled":false,"rental_uris":{"android":"levelo://app?vid=d60d69f0-11b1-4196-a1a6-b500cf4e2e4c","ios":"levelo://app?vid=d60d69f0-11b1-4196-a1a6-b500cf4e2e4c"},"vehicle_type_id":"4","last_reported":1769026773,"current_range_meters":5600,"station_id":"ce4bhap2rcd13ifvqek0","pricing_plan_id":"cebpf4jnsgd1na2vs0mg"},{"bike_id":"d9d259ef-225c-4373-ba75-518a5c906d5f","system_id":"levelo_inurba_marseille","lat":43.292272,"lon":5.360598,"is_reserved":false,"is_disabled":false,"rental_uris":{"android":"levelo://app?vid=d9d259ef-225c-4373-ba75-518a5c906d5f","ios":"levelo://app?vid=d9d259ef-225c-4373-ba75-518a5c906d5f"},"vehicle_type_id":"4","last_reported":1769026773,"current_range_meters":5600,"station_id":"ce4bhbh2rcd13ifvqeqg","pricing_plan_id":"cebpf4jnsgd1na2vs0mg"},{"bike_id":"b642efed-2622-4265-b5d7-cc947cf196cf","system_id":"levelo_inurba_marseille","lat":43.2799,"lon":5.40019,"is_reserved":false,"is_disabled":false,"rental_uris":{"android":"levelo://app?vid=b642efed-2622-4265-b5d7-cc947cf196cf","ios":"levelo://app?vid=b642efed-2622-4265-b5d7-cc947cf196cf"},"vehicle_type_id":"4","last_reported":1769026773,"current_range_meters":5600,"station_id":"ce4bho92rcd13ifvqh4g","pricing_plan_id":"cebpf4jnsgd1na2vs0mg"},{"bike_id":"83e6ea8d-a8a8-4108-97ed-ff888d57fd49","system_id":"levelo_inurba_marseille","lat":43.292542,"lon":5.409104,"is_reserved":false,"is_disabled":false,"rental_uris":{"android":"levelo://app?vid=83e6ea8d-a8a8-4108-97ed-ff888d57fd49","ios":"levelo://app?vid=83e6ea8d-a8a8-4108-97ed-ff888d57fd49"},"vehicle_type_id":"4","last_reported":1769026773,"current_range_meters":5600,"station_id":"ce4bh192rcd13ifvqdc0","pricing_plan_id":"cebpf4jnsgd1na2vs0mg"},{"bike_id":"b29267bf-a8a7-4156-9c11-82ab3b4c31aa","system_id":"levelo_inurba_marseille","lat":43.31335,"lon":5.39689,"is_reserved":false,"is_disabled":false,"rental_uris":{"android":"levelo://app?vid=b29267bf-a8a7-4156-9c11-82ab3b4c31aa","ios":"levelo://app?vid=b29267bf-a8a7-4156-9c11-82ab3b4c31aa"},"vehicle_type_id":"4","last_reported":1769026773,"current_range_meters":5600,"station_id":"ce4bgvp2rcd13ifvqcu0","pricing_plan_id":"cebpf4jnsgd1na2vs0mg"},{"bike_id":"db5d2ae9-661d-4bd4-882c-5d15aebf5423","system_id":"levelo_inurba_marseille","lat":43.29521,"lon":5.39049,"is_reserved":false,"is_disabled":false,"rental_uris":{"android":"levelo://app?vid=db5d2ae9-661d-4bd4-882c-5d15aebf5423","ios":"levelo://app?vid=db5d2ae9-661d-4bd4-882c-5d15aebf5423"},"vehicle_type_id":"4","last_reported":1769026773,"current_range_meters":6000,"station_id":"ce4bh3p2rcd13ifvqdp0","pricing_plan_id":"cebpf4jnsgd1na2vs0mg"},{"bike_id":"5f477738-733e-4c98-961a-33429c5938fd","system_id":"levelo_inurba_marseille","lat":43.260586,"lon":5.393984,"is_reserved":false,"is_disabled":false,"rental_uris":{"android":"levelo://app?vid=5f477738-733e-4c98-961a-33429c5938fd","ios":"levelo://app?vid=5f477738-733e-4c98-961a-33429c5938fd"},"vehicle_type_id":"4","last_reported":1769026773,"current_range_meters":6000,"station_id":"ce4bhh92rcd13ifvqfj0","pricing_plan_id":"cebpf4jnsgd1na2vs0mg"},{"bike_id":"5bdad711-817a-42cc-84b1-10d4beae812a","system_id":"levelo_inurba_marseille","lat":43.2256,"lon":5.41623,"is_reserved":false,"is_disabled":false,"rental_uris":{"android":"levelo://app?vid=5bdad711-817a-42cc-84b1-10d4beae812a","ios":"levelo://app?vid=5bdad711-817a-42cc-84b1-10d4beae812a"},"vehicle_type_id":"4","last_reported":1769026773,"current_range_meters":6000,"station_id":"st_d2o4gvlbi1j2169b742g","pricing_plan_id":"cebpf4jnsgd1na2vs0mg"},{"bike_id":"8c36defc-1a89-466d-92c7-53e8f006f347","system_id":"levelo_inurba_marseille","lat":43.28273,"lon":5.3506,"is_reserved":false,"is_disabled":false,"rental_uris":{"android":"levelo://app?vid=8c36defc-1a89-466d-92c7-53e8f006f347","ios":"levelo://app?vid=8c36defc-1a89-466d-92c7-53e8f006f347"},"vehicle_type_id":"4","last_reported":1769026773,"current_range_meters":6000,"station_id":"ce4bhbp2rcd13ifvqerg","pricing_plan_id":"cebpf4jnsgd1na2vs0mg"},{"bike_id":"8c9d9dd5-6ae3-4a8b-ab79-ea51ac5d3931","system_id":"levelo_inurba_marseille","lat":43.27989,"lon":5.41657,"is_reserved":false,"is_disabled":false,"rental_uris":{"android":"levelo://app?vid=8c9d9dd5-6ae3-4a8b-ab79-ea51ac5d3931","ios":"levelo://app?vid=8c9d9dd5-6ae3-4a8b-ab79-ea51ac5d3931"},"vehicle_type_id":"4","last_reported":1769026773,"current_range_meters":6000,"station_id":"ce4bho12rcd13ifvqh1g","pricing_plan_id":"cebpf4jnsgd1na2vs0mg"},{"bike_id":"55357c2a-5abe-4dc3-ab12-fe87c9f9a8ba","system_id":"levelo_inurba_marseille","lat":43.28979,"lon":5.37834,"is_reserved":false,"is_disabled":false,"rental_uris":{"android":"levelo://app?vid=55357c2a-5abe-4dc3-ab12-fe87c9f9a8ba","ios":"levelo://app?vid=55357c2a-5abe-4dc3-ab12-fe87c9f9a8ba"},"vehicle_type_id":"4","last_reported":1769026773,"current_range_meters":6000,"station_id":"ce4bh9p2rcd13ifvqed0","pricing_plan_id":"cebpf4jnsgd1na2vs0mg"},{"bike_id":"dd88ee0a-9abf-45c4-893e-6addebd74a1a","system_id":"levelo_inurba_marseille","lat":43.29845,"lon":5.3628,"is_reserved":false,"is_disabled":false,"rental_uris":{"android":"levelo://app?vid=dd88ee0a-9abf-45c4-893e-6addebd74a1a","ios":"levelo://app?vid=dd88ee0a-9abf-45c4-893e-6addebd74a1a"},"vehicle_type_id":"4","last_reported":1769026773,"current_range_meters":6000,"station_id":"ce4bgpp2rcd13ifvqc3g","pricing_plan_id":"cebpf4jnsgd1na2vs0mg"},{"bike_id":"31c21be6-18ca-494d-8d01-2f205767068d","system_id":"levelo_inurba_marseille","lat":43.31863,"lon":5.37485,"is_reserved":false,"is_disabled":false,"rental_uris":{"android":"levelo://app?vid=31c21be6-18ca-494d-8d01-2f205767068d","ios":"levelo://app?vid=31c21be6-18ca-494d-8d01-2f205767068d"},"vehicle_type_id":"4","last_reported":1769026773,"current_range_meters":6000,"station_id":"","pricing_plan_id":"cebpf4jnsgd1na2vs0mg"},{"bike_id":"1b7535e7-29f2-4cef-a34e-eae7e23e0ac7","system_id":"levelo_inurba_marseille","lat":43.25726,"lon":5.41105,"is_reserved":false,"is_disabled":false,"rental_uris":{"android":"levelo://app?vid=1b7535e7-29f2-4cef-a34e-eae7e23e0ac7","ios":"levelo://app?vid=1b7535e7-29f2-4cef-a34e-eae7e23e0ac7"},"vehicle_type_id":"4","last_reported":1769026773,"current_range_meters":6000,"station_id":"ce4bhkp2rcd13ifvqgd0","pricing_plan_id":"cebpf4jnsgd1na2vs0mg"},{"bike_id":"aecc1364-4859-4c9d-9738-c9f63f1d04b2","system_id":"levelo_inurba_marseille","lat":43.26685,"lon":5.38266,"is_reserved":false,"is_disabled":false,"rental_uris":{"android":"levelo://app?vid=aecc1364-4859-4c9d-9738-c9f63f1d04b2","ios":"levelo://app?vid=aecc1364-4859-4c9d-9738-c9f63f1d04b2"},"vehicle_type_id":"4","last_reported":1769026773,"current_range_meters":6000,"station_id":"ce4bhg92rcd13ifvqf90","pricing_plan_id":"cebpf4jnsgd1na2vs0mg"},{"bike_id":"5d5e6254-e5e8-477d-b13b-b8c0bb7b8104","system_id":"levelo_inurba_marseille","lat":43.31288,"lon":5.40176,"is_reserved":false,"is_disabled":false,"rental_uris":{"android":"levelo://app?vid=5d5e6254-e5e8-477d-b13b-b8c0bb7b8104","ios":"levelo://app?vid=5d5e6254-e5e8-477d-b13b-b8c0bb7b8104"},"vehicle_type_id":"4","last_reported":1769026773,"current_range_meters":6000,"station_id":"ce4bh092rcd13ifvqd30","pricing_plan_id":"cebpf4jnsgd1na2vs0mg"},{"bike_id":"0e37b52c-57cd-4fc7-b10e-ab1e434f4b99","system_id":"levelo_inurba_marseille","lat":43.29071,"lon":5.371589,"is_reserved":false,"is_disabled":false,"rental_uris":{"android":"levelo://app?vid=0e37b52c-57cd-4fc7-b10e-ab1e434f4b99","ios":"levelo://app?vid=0e37b52c-57cd-4fc7-b10e-ab1e434f4b99"},"vehicle_type_id":"4","last_reported":1769026773,"current_range_meters":6000,"station_id":"","pricing_plan_id":"cebpf4jnsgd1na2vs0mg"},{"bike_id":"e6df6fb7-994b-4037-99d6-76175fe9a7d0","system_id":"levelo_inurba_marseille","lat":43.23181,"lon":5.3999,"is_reserved":false,"is_disabled":false,"rental_uris":{"android":"levelo://app?vid=e6df6fb7-994b-4037-99d6-76175fe9a7d0","ios":"levelo://app?vid=e6df6fb7-994b-4037-99d6-76175fe9a7d0"},"vehicle_type_id":"4","last_reported":1769026773,"current_range_meters":6000,"station_id":"ce4bhn12rcd13ifvqgqg","pricing_plan_id":"cebpf4jnsgd1na2vs0mg"},{"bike_id":"17e3837d-c9c2-4dda-a2b0-afa55c7ec00c","system_id":"levelo_inurba_marseille","lat":43.29229,"lon":5.36069,"is_reserved":false,"is_disabled":false,"rental_uris":{"android":"levelo://app?vid=17e3837d-c9c2-4dda-a2b0-afa55c7ec00c","ios":"levelo://app?vid=17e3837d-c9c2-4dda-a2b0-afa55c7ec00c"},"vehicle_type_id":"4","last_reported":1769026773,"current_range_meters":6000,"station_id":"ce4bhbh2rcd13ifvqeqg","pricing_plan_id":"cebpf4jnsgd1na2vs0mg"},{"bike_id":"09708090-eb01-48c4-a317-0b7bbbd48bc6","system_id":"levelo_inurba_marseille","lat":43.27675,"lon":5.36161,"is_reserved":false,"is_disabled":false,"rental_uris":{"android":"levelo://app?vid=09708090-eb01-48c4-a317-0b7bbbd48bc6","ios":"levelo://app?vid=09708090-eb01-48c4-a317-0b7bbbd48bc6"},"vehicle_type_id":"4","last_reported":1769026773,"current_range_meters":6000,"station_id":"","pricing_plan_id":"cebpf4jnsgd1na2vs0mg"},{"bike_id":"fd603ab1-7fba-4f8b-9938-c63d3924c1a0","system_id":"levelo_inurba_marseille","lat":43.276242,"lon":5.361057,"is_reserved":false,"is_disabled":false,"rental_uris":{"android":"levelo://app?vid=fd603ab1-7fba-4f8b-9938-c63d3924c1a0","ios":"levelo://app?vid=fd603ab1-7fba-4f8b-9938-c63d3924c1a0"},"vehicle_type_id":"4","last_reported":1769026773,"current_range_meters":6000,"station_id":"ce4bgj92rcd13ifvqbe0","pricing_plan_id":"cebpf4jnsgd1na2vs0mg"},{"bike_id":"416786c9-5441-4ae2-97be-8dd18ff4a833","system_id":"levelo_inurba_marseille","lat":43.26563,"lon":5.40314,"is_reserved":false,"is_disabled":false,"rental_uris":{"android":"levelo://app?vid=416786c9-5441-4ae2-97be-8dd18ff4a833","ios":"levelo://app?vid=416786c9-5441-4ae2-97be-8dd18ff4a833"},"vehicle_type_id":"4","last_reported":1769026773,"current_range_meters":6000,"station_id":"ce4bhmp2rcd13ifvqgng","pricing_plan_id":"cebpf4jnsgd1na2vs0mg"},{"bike_id":"36379ecc-f580-4cc3-ac28-1068980e3530","system_id":"levelo_inurba_marseille","lat":43.290017,"lon":5.356116,"is_reserved":false,"is_disabled":false,"rental_uris":{"android":"levelo://app?vid=36379ecc-f580-4cc3-ac28-1068980e3530","ios":"levelo://app?vid=36379ecc-f580-4cc3-ac28-1068980e3530"},"vehicle_type_id":"4","last_reported":1769026773,"current_range_meters":6000,"station_id":"ce4bhbh2rcd13ifvqeo0","pricing_plan_id":"cebpf4jnsgd1na2vs0mg"},{"bike_id":"b00dfef7-7bd8-430c-8f9b-967c38477859","system_id":"levelo_inurba_marseille","lat":43.2587,"lon":5.3989,"is_reserved":false,"is_disabled":false,"rental_uris":{"android":"levelo://app?vid=b00dfef7-7bd8-430c-8f9b-967c38477859","ios":"levelo://app?vid=b00dfef7-7bd8-430c-8f9b-967c38477859"},"vehicle_type_id":"4","last_reported":1769026773,"current_range_meters":6000,"station_id":"ce4bhl92rcd13ifvqghg","pricing_plan_id":"cebpf4jnsgd1na2vs0mg"},{"bike_id":"f09c06aa-a05d-4b00-b228-d8bee2b62b4f","system_id":"levelo_inurba_marseille","lat":43.32348,"lon":5.36735,"is_reserved":false,"is_disabled":false,"rental_uris":{"android":"levelo://app?vid=f09c06aa-a05d-4b00-b228-d8bee2b62b4f","ios":"levelo://app?vid=f09c06aa-a05d-4b00-b228-d8bee2b62b4f"},"vehicle_type_id":"4","last_reported":1769026773,"current_range_meters":6400,"station_id":"ce4bhsh2rcd13ifvqi2g","pricing_plan_id":"cebpf4jnsgd1na2vs0mg"},{"bike_id":"4455ca85-6dc7-433d-ba56-810118fb0bb6","system_id":"levelo_inurba_marseille","lat":43.29472,"lon":5.43327,"is_reserved":false,"is_disabled":false,"rental_uris":{"android":"levelo://app?vid=4455ca85-6dc7-433d-ba56-810118fb0bb6","ios":"levelo://app?vid=4455ca85-6dc7-433d-ba56-810118fb0bb6"},"vehicle_type_id":"4","last_reported":1769026773,"current_range_meters":6400,"station_id":"st_d3j5ugp08ojc73fj9d10","pricing_plan_id":"cebpf4jnsgd1na2vs0mg"},{"bike_id":"64562a8f-fe86-4a1b-b14c-4a382af5be03","system_id":"levelo_inurba_marseille","lat":43.2903,"lon":5.38631,"is_reserved":false,"is_disabled":false,"rental_uris":{"android":"levelo://app?vid=64562a8f-fe86-4a1b-b14c-4a382af5be03","ios":"levelo://app?vid=64562a8f-fe86-4a1b-b14c-4a382af5be03"},"vehicle_type_id":"4","last_reported":1769026773,"current_range_meters":6400,"station_id":"ce4bh4p2rcd13ifvqe0g","pricing_plan_id":"cebpf4jnsgd1na2vs0mg"},{"bike_id":"f73788f7-dec5-4308-a431-6e346b811946","system_id":"levelo_inurba_marseille","lat":43.3017,"lon":5.38149,"is_reserved":false,"is_disabled":false,"rental_uris":{"android":"levelo://app?vid=f73788f7-dec5-4308-a431-6e346b811946","ios":"levelo://app?vid=f73788f7-dec5-4308-a431-6e346b811946"},"vehicle_type_id":"4","last_reported":1769026773,"current_range_meters":6400,"station_id":"","pricing_plan_id":"cebpf4jnsgd1na2vs0mg"},{"bike_id":"6f1b9a2a-353a-4450-9878-491b3917ba7d","system_id":"levelo_inurba_marseille","lat":43.26569,"lon":5.39027,"is_reserved":false,"is_disabled":false,"rental_uris":{"android":"levelo://app?vid=6f1b9a2a-353a-4450-9878-491b3917ba7d","ios":"levelo://app?vid=6f1b9a2a-353a-4450-9878-491b3917ba7d"},"vehicle_type_id":"4","last_reported":1769026773,"current_range_meters":6400,"station_id":"ce4bhe12rcd13ifvqf30","pricing_plan_id":"cebpf4jnsgd1na2vs0mg"},{"bike_id":"68ec9f8f-1c6a-40b3-81f1-d4d82bb1838c","system_id":"levelo_inurba_marseille","lat":43.28214,"lon":5.40565,"is_reserved":false,"is_disabled":false,"rental_uris":{"android":"levelo://app?vid=68ec9f8f-1c6a-40b3-81f1-d4d82bb1838c","ios":"levelo://app?vid=68ec9f8f-1c6a-40b3-81f1-d4d82bb1838c"},"vehicle_type_id":"4","last_reported":1769026773,"current_range_meters":6400,"station_id":"","pricing_plan_id":"cebpf4jnsgd1na2vs0mg"},{"bike_id":"807e90ad-0ff9-48b5-bf41-cf6ac6ee1c04","system_id":"levelo_inurba_marseille","lat":43.30676,"lon":5.40078,"is_reserved":false,"is_disabled":false,"rental_uris":{"android":"levelo://app?vid=807e90ad-0ff9-48b5-bf41-cf6ac6ee1c04","ios":"levelo://app?vid=807e90ad-0ff9-48b5-bf41-cf6ac6ee1c04"},"vehicle_type_id":"4","last_reported":1769026773,"current_range_meters":6400,"station_id":"ce4bh112rcd13ifvqda0","pricing_plan_id":"cebpf4jnsgd1na2vs0mg"},{"bike_id":"07334ae3-a27a-46ae-b685-938785481481","system_id":"levelo_inurba_marseille","lat":43.28527,"lon":5.44082,"is_reserved":false,"is_disabled":false,"rental_uris":{"android":"levelo://app?vid=07334ae3-a27a-46ae-b685-938785481481","ios":"levelo://app?vid=07334ae3-a27a-46ae-b685-938785481481"},"vehicle_type_id":"4","last_reported":1769026773,"current_range_meters":6400,"station_id":"st_d3j3df2ikq2c7380ej80","pricing_plan_id":"cebpf4jnsgd1na2vs0mg"},{"bike_id":"7523f353-a006-4738-ad50-c0450ef0ab91","system_id":"levelo_inurba_marseille","lat":43.29183,"lon":5.37155,"is_reserved":false,"is_disabled":false,"rental_uris":{"android":"levelo://app?vid=7523f353-a006-4738-ad50-c0450ef0ab91","ios":"levelo://app?vid=7523f353-a006-4738-ad50-c0450ef0ab91"},"vehicle_type_id":"4","last_reported":1769026773,"current_range_meters":6400,"station_id":"ce4bha92rcd13ifvqeh0","pricing_plan_id":"cebpf4jnsgd1na2vs0mg"},{"bike_id":"054e163b-1e47-4a0a-a038-a7939885860e","system_id":"levelo_inurba_marseille","lat":43.32359,"lon":5.36763,"is_reserved":false,"is_disabled":false,"rental_uris":{"android":"levelo://app?vid=054e163b-1e47-4a0a-a038-a7939885860e","ios":"levelo://app?vid=054e163b-1e47-4a0a-a038-a7939885860e"},"vehicle_type_id":"4","last_reported":1769026773,"current_range_meters":6400,"station_id":"ce4bhsh2rcd13ifvqi2g","pricing_plan_id":"cebpf4jnsgd1na2vs0mg"},{"bike_id":"f9bb0ce4-18f3-401e-9ec8-0504228dbd0f","system_id":"levelo_inurba_marseille","lat":43.27059,"lon":5.40243,"is_reserved":false,"is_disabled":false,"rental_uris":{"android":"levelo://app?vid=f9bb0ce4-18f3-401e-9ec8-0504228dbd0f","ios":"levelo://app?vid=f9bb0ce4-18f3-401e-9ec8-0504228dbd0f"},"vehicle_type_id":"4","last_reported":1769026773,"current_range_meters":6400,"station_id":"ce4bhk92rcd13ifvqgc0","pricing_plan_id":"cebpf4jnsgd1na2vs0mg"},{"bike_id":"965dd989-517a-4115-966e-a14093e50092","system_id":"levelo_inurba_marseille","lat":43.27055,"lon":5.40275,"is_reserved":false,"is_disabled":false,"rental_uris":{"android":"levelo://app?vid=965dd989-517a-4115-966e-a14093e50092","ios":"levelo://app?vid=965dd989-517a-4115-966e-a14093e50092"},"vehicle_type_id":"4","last_reported":1769026773,"current_range_meters":6400,"station_id":"ce4bhk92rcd13ifvqgc0","pricing_plan_id":"cebpf4jnsgd1na2vs0mg"},{"bike_id":"b178fe28-787e-4cf2-8e9f-53564dafc878","system_id":"levelo_inurba_marseille","lat":43.290776,"lon":5.386771,"is_reserved":false,"is_disabled":false,"rental_uris":{"android":"levelo://app?vid=b178fe28-787e-4cf2-8e9f-53564dafc878","ios":"levelo://app?vid=b178fe28-787e-4cf2-8e9f-53564dafc878"},"vehicle_type_id":"4","last_reported":1769026773,"current_range_meters":6400,"station_id":"ce4bh4p2rcd13ifvqe0g","pricing_plan_id":"cebpf4jnsgd1na2vs0mg"},{"bike_id":"26bd1e32-0e40-488f-8b10-e954188f606f","system_id":"levelo_inurba_marseille","lat":43.31506,"lon":5.37299,"is_reserved":false,"is_disabled":false,"rental_uris":{"android":"levelo://app?vid=26bd1e32-0e40-488f-8b10-e954188f606f","ios":"levelo://app?vid=26bd1e32-0e40-488f-8b10-e954188f606f"},"vehicle_type_id":"4","last_reported":1769026773,"current_range_meters":6400,"station_id":"ce4bgt12rcd13ifvqcd0","pricing_plan_id":"cebpf4jnsgd1na2vs0mg"},{"bike_id":"96e91d79-3d41-40c6-a88f-710f9a15ad4a","system_id":"levelo_inurba_marseille","lat":43.29604,"lon":5.38093,"is_reserved":false,"is_disabled":false,"rental_uris":{"android":"levelo://app?vid=96e91d79-3d41-40c6-a88f-710f9a15ad4a","ios":"levelo://app?vid=96e91d79-3d41-40c6-a88f-710f9a15ad4a"},"vehicle_type_id":"4","last_reported":1769026773,"current_range_meters":6400,"station_id":"ce4bgl12rcd13ifvqbo0","pricing_plan_id":"cebpf4jnsgd1na2vs0mg"},{"bike_id":"4a7d9bed-8b10-48f0-a622-035f246ec140","system_id":"levelo_inurba_marseille","lat":43.26188,"lon":5.37892,"is_reserved":false,"is_disabled":false,"rental_uris":{"android":"levelo://app?vid=4a7d9bed-8b10-48f0-a622-035f246ec140","ios":"levelo://app?vid=4a7d9bed-8b10-48f0-a622-035f246ec140"},"vehicle_type_id":"4","last_reported":1769026773,"current_range_meters":6400,"station_id":"ce4bhjp2rcd13ifvqg90","pricing_plan_id":"cebpf4jnsgd1na2vs0mg"},{"bike_id":"ec3505f8-2e5f-442c-868b-c38116e6be45","system_id":"levelo_inurba_marseille","lat":43.24808,"lon":5.37456,"is_reserved":false,"is_disabled":false,"rental_uris":{"android":"levelo://app?vid=ec3505f8-2e5f-442c-868b-c38116e6be45","ios":"levelo://app?vid=ec3505f8-2e5f-442c-868b-c38116e6be45"},"vehicle_type_id":"4","last_reported":1769026773,"current_range_meters":6400,"station_id":"ce4bhgh2rcd13ifvqfb0","pricing_plan_id":"cebpf4jnsgd1na2vs0mg"},{"bike_id":"971ebd27-c95b-46d2-918b-36cfd0fbea03","system_id":"levelo_inurba_marseille","lat":43.29272,"lon":5.36845,"is_reserved":false,"is_disabled":false,"rental_uris":{"android":"levelo://app?vid=971ebd27-c95b-46d2-918b-36cfd0fbea03","ios":"levelo://app?vid=971ebd27-c95b-46d2-918b-36cfd0fbea03"},"vehicle_type_id":"4","last_reported":1769026773,"current_range_meters":6400,"station_id":"ce4bhbp2rcd13ifvqesg","pricing_plan_id":"cebpf4jnsgd1na2vs0mg"},{"bike_id":"87376c51-7b52-4611-acd2-49441baafe3f","system_id":"levelo_inurba_marseille","lat":43.24615,"lon":5.40229,"is_reserved":false,"is_disabled":false,"rental_uris":{"android":"levelo://app?vid=87376c51-7b52-4611-acd2-49441baafe3f","ios":"levelo://app?vid=87376c51-7b52-4611-acd2-49441baafe3f"},"vehicle_type_id":"4","last_reported":1769026773,"current_range_meters":6400,"station_id":"","pricing_plan_id":"cebpf4jnsgd1na2vs0mg"},{"bike_id":"72e1655d-aec3-4349-93c1-06571442ed3a","system_id":"levelo_inurba_marseille","lat":43.24657,"lon":5.38136,"is_reserved":false,"is_disabled":false,"rental_uris":{"android":"levelo://app?vid=72e1655d-aec3-4349-93c1-06571442ed3a","ios":"levelo://app?vid=72e1655d-aec3-4349-93c1-06571442ed3a"},"vehicle_type_id":"4","last_reported":1769026773,"current_range_meters":6400,"station_id":"ce4bhih2rcd13ifvqfr0","pricing_plan_id":"cebpf4jnsgd1na2vs0mg"},{"bike_id":"30e9475e-272a-4733-b2e3-f83e91a39f25","system_id":"levelo_inurba_marseille","lat":43.29262,"lon":5.38442,"is_reserved":false,"is_disabled":false,"rental_uris":{"android":"levelo://app?vid=30e9475e-272a-4733-b2e3-f83e91a39f25","ios":"levelo://app?vid=30e9475e-272a-4733-b2e3-f83e91a39f25"},"vehicle_type_id":"4","last_reported":1769026773,"current_range_meters":6400,"station_id":"ce4bh692rcd13ifvqea0","pricing_plan_id":"cebpf4jnsgd1na2vs0mg"},{"bike_id":"d2ec55a1-c4ea-476d-8c68-889f5964200d","system_id":"levelo_inurba_marseille","lat":43.29573,"lon":5.37518,"is_reserved":false,"is_disabled":false,"rental_uris":{"android":"levelo://app?vid=d2ec55a1-c4ea-476d-8c68-889f5964200d","ios":"levelo://app?vid=d2ec55a1-c4ea-476d-8c68-889f5964200d"},"vehicle_type_id":"4","last_reported":1769026773,"current_range_meters":6400,"station_id":"ce4bgh92rcd13ifvqb50","pricing_plan_id":"cebpf4jnsgd1na2vs0mg"},{"bike_id":"c055199c-bd62-490e-8577-d64c0f179897","system_id":"levelo_inurba_marseille","lat":43.285354,"lon":5.440965,"is_reserved":false,"is_disabled":false,"rental_uris":{"android":"levelo://app?vid=c055199c-bd62-490e-8577-d64c0f179897","ios":"levelo://app?vid=c055199c-bd62-490e-8577-d64c0f179897"},"vehicle_type_id":"4","last_reported":1769026773,"current_range_meters":6400,"station_id":"st_d3j3df2ikq2c7380ej80","pricing_plan_id":"cebpf4jnsgd1na2vs0mg"},{"bike_id":"6bf73f42-e7a1-4a58-b72e-624135013594","system_id":"levelo_inurba_marseille","lat":43.31327,"lon":5.39673,"is_reserved":false,"is_disabled":false,"rental_uris":{"android":"levelo://app?vid=6bf73f42-e7a1-4a58-b72e-624135013594","ios":"levelo://app?vid=6bf73f42-e7a1-4a58-b72e-624135013594"},"vehicle_type_id":"4","last_reported":1769026773,"current_range_meters":6800,"station_id":"ce4bgvp2rcd13ifvqcu0","pricing_plan_id":"cebpf4jnsgd1na2vs0mg"},{"bike_id":"8dd5e1ae-27b7-4b13-84ee-a9d2cf511ca0","system_id":"levelo_inurba_marseille","lat":43.279,"lon":5.37998,"is_reserved":false,"is_disabled":false,"rental_uris":{"android":"levelo://app?vid=8dd5e1ae-27b7-4b13-84ee-a9d2cf511ca0","ios":"levelo://app?vid=8dd5e1ae-27b7-4b13-84ee-a9d2cf511ca0"},"vehicle_type_id":"4","last_reported":1769026773,"current_range_meters":6800,"station_id":"ce4bhf92rcd13ifvqf50","pricing_plan_id":"cebpf4jnsgd1na2vs0mg"},{"bike_id":"f1bb088f-7852-4bdc-bd02-6065110d0872","system_id":"levelo_inurba_marseille","lat":43.28537,"lon":5.441005,"is_reserved":false,"is_disabled":false,"rental_uris":{"android":"levelo://app?vid=f1bb088f-7852-4bdc-bd02-6065110d0872","ios":"levelo://app?vid=f1bb088f-7852-4bdc-bd02-6065110d0872"},"vehicle_type_id":"4","last_reported":1769026773,"current_range_meters":6800,"station_id":"st_d3j3df2ikq2c7380ej80","pricing_plan_id":"cebpf4jnsgd1na2vs0mg"},{"bike_id":"40b9fc55-5f2a-4946-bf7e-c20949cda247","system_id":"levelo_inurba_marseille","lat":43.27581,"lon":5.38452,"is_reserved":false,"is_disabled":false,"rental_uris":{"android":"levelo://app?vid=40b9fc55-5f2a-4946-bf7e-c20949cda247","ios":"levelo://app?vid=40b9fc55-5f2a-4946-bf7e-c20949cda247"},"vehicle_type_id":"4","last_reported":1769026773,"current_range_meters":6800,"station_id":"ce4bhh92rcd13ifvqfi0","pricing_plan_id":"cebpf4jnsgd1na2vs0mg"},{"bike_id":"ffabd398-f54b-45bd-9851-1b3115defcf6","system_id":"levelo_inurba_marseille","lat":43.24189,"lon":5.39695,"is_reserved":false,"is_disabled":false,"rental_uris":{"android":"levelo://app?vid=ffabd398-f54b-45bd-9851-1b3115defcf6","ios":"levelo://app?vid=ffabd398-f54b-45bd-9851-1b3115defcf6"},"vehicle_type_id":"4","last_reported":1769026773,"current_range_meters":6800,"station_id":"ce4bhn12rcd13ifvqgpg","pricing_plan_id":"cebpf4jnsgd1na2vs0mg"},{"bike_id":"0d7f695a-89f3-4581-8a80-db75af0beef8","system_id":"levelo_inurba_marseille","lat":43.31886,"lon":5.40724,"is_reserved":false,"is_disabled":false,"rental_uris":{"android":"levelo://app?vid=0d7f695a-89f3-4581-8a80-db75af0beef8","ios":"levelo://app?vid=0d7f695a-89f3-4581-8a80-db75af0beef8"},"vehicle_type_id":"4","last_reported":1769026773,"current_range_meters":6800,"station_id":"ce4bhq12rcd13ifvqhig","pricing_plan_id":"cebpf4jnsgd1na2vs0mg"},{"bike_id":"c7c76144-23b1-416e-a9ce-18579fb71224","system_id":"levelo_inurba_marseille","lat":43.29048,"lon":5.37181,"is_reserved":false,"is_disabled":false,"rental_uris":{"android":"levelo://app?vid=c7c76144-23b1-416e-a9ce-18579fb71224","ios":"levelo://app?vid=c7c76144-23b1-416e-a9ce-18579fb71224"},"vehicle_type_id":"4","last_reported":1769026773,"current_range_meters":6800,"station_id":"ce4bh5p2rcd13ifvqe4g","pricing_plan_id":"cebpf4jnsgd1na2vs0mg"},{"bike_id":"e3006b68-2895-43e3-a6a3-f525aa75c699","system_id":"levelo_inurba_marseille","lat":43.24096,"lon":5.37768,"is_reserved":false,"is_disabled":false,"rental_uris":{"android":"levelo://app?vid=e3006b68-2895-43e3-a6a3-f525aa75c699","ios":"levelo://app?vid=e3006b68-2895-43e3-a6a3-f525aa75c699"},"vehicle_type_id":"4","last_reported":1769026773,"current_range_meters":6800,"station_id":"ce4bhnp2rcd13ifvqgvg","pricing_plan_id":"cebpf4jnsgd1na2vs0mg"},{"bike_id":"e26301b9-2ba6-4110-823c-43c3e31eef15","system_id":"levelo_inurba_marseille","lat":43.306359,"lon":5.39307,"is_reserved":false,"is_disabled":false,"rental_uris":{"android":"levelo://app?vid=e26301b9-2ba6-4110-823c-43c3e31eef15","ios":"levelo://app?vid=e26301b9-2ba6-4110-823c-43c3e31eef15"},"vehicle_type_id":"4","last_reported":1769026773,"current_range_meters":6800,"station_id":"","pricing_plan_id":"cebpf4jnsgd1na2vs0mg"},{"bike_id":"262d432a-029e-454d-af7f-4b6e3ce3afdf","system_id":"levelo_inurba_marseille","lat":43.287018,"lon":5.373892,"is_reserved":false,"is_disabled":false,"rental_uris":{"android":"levelo://app?vid=262d432a-029e-454d-af7f-4b6e3ce3afdf","ios":"levelo://app?vid=262d432a-029e-454d-af7f-4b6e3ce3afdf"},"vehicle_type_id":"4","last_reported":1769026773,"current_range_meters":6800,"station_id":"ce4bh3p2rcd13ifvqdq0","pricing_plan_id":"cebpf4jnsgd1na2vs0mg"},{"bike_id":"d68cd528-87dc-4a28-8471-721b0cea6df0","system_id":"levelo_inurba_marseille","lat":43.28183,"lon":5.39243,"is_reserved":false,"is_disabled":false,"rental_uris":{"android":"levelo://app?vid=d68cd528-87dc-4a28-8471-721b0cea6df0","ios":"levelo://app?vid=d68cd528-87dc-4a28-8471-721b0cea6df0"},"vehicle_type_id":"4","last_reported":1769026773,"current_range_meters":6800,"station_id":"","pricing_plan_id":"cebpf4jnsgd1na2vs0mg"},{"bike_id":"c70e0bb4-fab0-4654-bdca-7c1110702f66","system_id":"levelo_inurba_marseille","lat":43.23959,"lon":5.3665,"is_reserved":false,"is_disabled":false,"rental_uris":{"android":"levelo://app?vid=c70e0bb4-fab0-4654-bdca-7c1110702f66","ios":"levelo://app?vid=c70e0bb4-fab0-4654-bdca-7c1110702f66"},"vehicle_type_id":"4","last_reported":1769026773,"current_range_meters":6800,"station_id":"ce4bhi12rcd13ifvqfp0","pricing_plan_id":"cebpf4jnsgd1na2vs0mg"},{"bike_id":"673852a4-6416-4b33-a80d-5a20f826521f","system_id":"levelo_inurba_marseille","lat":43.28992,"lon":5.39023,"is_reserved":false,"is_disabled":false,"rental_uris":{"android":"levelo://app?vid=673852a4-6416-4b33-a80d-5a20f826521f","ios":"levelo://app?vid=673852a4-6416-4b33-a80d-5a20f826521f"},"vehicle_type_id":"4","last_reported":1769026773,"current_range_meters":6800,"station_id":"","pricing_plan_id":"cebpf4jnsgd1na2vs0mg"},{"bike_id":"931d0778-a635-46fb-9f8d-a6fe55f0479a","system_id":"levelo_inurba_marseille","lat":43.3061,"lon":5.37239,"is_reserved":false,"is_disabled":false,"rental_uris":{"android":"levelo://app?vid=931d0778-a635-46fb-9f8d-a6fe55f0479a","ios":"levelo://app?vid=931d0778-a635-46fb-9f8d-a6fe55f0479a"},"vehicle_type_id":"4","last_reported":1769026773,"current_range_meters":6800,"station_id":"ce4bgqh2rcd13ifvqc4g","pricing_plan_id":"cebpf4jnsgd1na2vs0mg"},{"bike_id":"43448dd5-9537-449d-8160-6a955b585b98","system_id":"levelo_inurba_marseille","lat":43.25582,"lon":5.38236,"is_reserved":false,"is_disabled":false,"rental_uris":{"android":"levelo://app?vid=43448dd5-9537-449d-8160-6a955b585b98","ios":"levelo://app?vid=43448dd5-9537-449d-8160-6a955b585b98"},"vehicle_type_id":"4","last_reported":1769026773,"current_range_meters":6800,"station_id":"ce4bhih2rcd13ifvqfs0","pricing_plan_id":"cebpf4jnsgd1na2vs0mg"},{"bike_id":"778f0eaf-54be-4513-b373-b1605eeed242","system_id":"levelo_inurba_marseille","lat":43.29777,"lon":5.42777,"is_reserved":false,"is_disabled":false,"rental_uris":{"android":"levelo://app?vid=778f0eaf-54be-4513-b373-b1605eeed242","ios":"levelo://app?vid=778f0eaf-54be-4513-b373-b1605eeed242"},"vehicle_type_id":"4","last_reported":1769026773,"current_range_meters":6800,"station_id":"st_d3md5207bmas73dh9klg","pricing_plan_id":"cebpf4jnsgd1na2vs0mg"},{"bike_id":"e98c2dda-b4d2-4d96-8dea-9dab28d39185","system_id":"levelo_inurba_marseille","lat":43.274976,"lon":5.424465,"is_reserved":false,"is_disabled":false,"rental_uris":{"android":"levelo://app?vid=e98c2dda-b4d2-4d96-8dea-9dab28d39185","ios":"levelo://app?vid=e98c2dda-b4d2-4d96-8dea-9dab28d39185"},"vehicle_type_id":"4","last_reported":1769026773,"current_range_meters":6800,"station_id":"ce4bhn92rcd13ifvqgrg","pricing_plan_id":"cebpf4jnsgd1na2vs0mg"},{"bike_id":"65fd7955-07dd-47da-bfed-ae167c3de24b","system_id":"levelo_inurba_marseille","lat":43.27312,"lon":5.39128,"is_reserved":false,"is_disabled":false,"rental_uris":{"android":"levelo://app?vid=65fd7955-07dd-47da-bfed-ae167c3de24b","ios":"levelo://app?vid=65fd7955-07dd-47da-bfed-ae167c3de24b"},"vehicle_type_id":"4","last_reported":1769026773,"current_range_meters":7200,"station_id":"ce4bhgp2rcd13ifvqfe0","pricing_plan_id":"cebpf4jnsgd1na2vs0mg"},{"bike_id":"f5df5dab-005e-4afd-ac33-6b6937a1daf8","system_id":"levelo_inurba_marseille","lat":43.27993,"lon":5.40018,"is_reserved":false,"is_disabled":false,"rental_uris":{"android":"levelo://app?vid=f5df5dab-005e-4afd-ac33-6b6937a1daf8","ios":"levelo://app?vid=f5df5dab-005e-4afd-ac33-6b6937a1daf8"},"vehicle_type_id":"4","last_reported":1769026773,"current_range_meters":7200,"station_id":"ce4bho92rcd13ifvqh4g","pricing_plan_id":"cebpf4jnsgd1na2vs0mg"},{"bike_id":"1c5b23bd-2ff7-41ce-9b81-d371fc2b68a7","system_id":"levelo_inurba_marseille","lat":43.29524,"lon":5.39044,"is_reserved":false,"is_disabled":false,"rental_uris":{"android":"levelo://app?vid=1c5b23bd-2ff7-41ce-9b81-d371fc2b68a7","ios":"levelo://app?vid=1c5b23bd-2ff7-41ce-9b81-d371fc2b68a7"},"vehicle_type_id":"4","last_reported":1769026773,"current_range_meters":7200,"station_id":"ce4bh3p2rcd13ifvqdp0","pricing_plan_id":"cebpf4jnsgd1na2vs0mg"},{"bike_id":"19c9b524-76f1-4e5d-8be9-000b11a19079","system_id":"levelo_inurba_marseille","lat":43.25012,"lon":5.3892,"is_reserved":false,"is_disabled":false,"rental_uris":{"android":"levelo://app?vid=19c9b524-76f1-4e5d-8be9-000b11a19079","ios":"levelo://app?vid=19c9b524-76f1-4e5d-8be9-000b11a19079"},"vehicle_type_id":"4","last_reported":1769026773,"current_range_meters":7200,"station_id":"ce4bhgp2rcd13ifvqfd0","pricing_plan_id":"cebpf4jnsgd1na2vs0mg"},{"bike_id":"cf17c03a-4692-41b2-bc2a-ab4052bf2ea9","system_id":"levelo_inurba_marseille","lat":43.291645,"lon":5.371507,"is_reserved":false,"is_disabled":false,"rental_uris":{"android":"levelo://app?vid=cf17c03a-4692-41b2-bc2a-ab4052bf2ea9","ios":"levelo://app?vid=cf17c03a-4692-41b2-bc2a-ab4052bf2ea9"},"vehicle_type_id":"4","last_reported":1769026773,"current_range_meters":7200,"station_id":"ce4bha92rcd13ifvqeh0","pricing_plan_id":"cebpf4jnsgd1na2vs0mg"},{"bike_id":"fca00d5f-2997-436f-ba8d-58032d11c09e","system_id":"levelo_inurba_marseille","lat":43.27973,"lon":5.38743,"is_reserved":false,"is_disabled":true,"rental_uris":{"android":"levelo://app?vid=fca00d5f-2997-436f-ba8d-58032d11c09e","ios":"levelo://app?vid=fca00d5f-2997-436f-ba8d-58032d11c09e"},"vehicle_type_id":"4","last_reported":1769026773,"current_range_meters":7200,"station_id":"ce4bhg12rcd13ifvqf80","pricing_plan_id":"cebpf4jnsgd1na2vs0mg"},{"bike_id":"fe2a828f-710f-491e-b529-f22ca09a8365","system_id":"levelo_inurba_marseille","lat":43.30766,"lon":5.40904,"is_reserved":false,"is_disabled":false,"rental_uris":{"android":"levelo://app?vid=fe2a828f-710f-491e-b529-f22ca09a8365","ios":"levelo://app?vid=fe2a828f-710f-491e-b529-f22ca09a8365"},"vehicle_type_id":"4","last_reported":1769026773,"current_range_meters":7200,"station_id":"","pricing_plan_id":"cebpf4jnsgd1na2vs0mg"},{"bike_id":"f3a01c85-86e9-4a7c-837b-602faf4bbfde","system_id":"levelo_inurba_marseille","lat":43.28018,"lon":5.38724,"is_reserved":false,"is_disabled":false,"rental_uris":{"android":"levelo://app?vid=f3a01c85-86e9-4a7c-837b-602faf4bbfde","ios":"levelo://app?vid=f3a01c85-86e9-4a7c-837b-602faf4bbfde"},"vehicle_type_id":"4","last_reported":1769026773,"current_range_meters":7200,"station_id":"","pricing_plan_id":"cebpf4jnsgd1na2vs0mg"},{"bike_id":"eaad7dcc-c797-4d78-96ea-aa702bdcc172","system_id":"levelo_inurba_marseille","lat":43.31546,"lon":5.38033,"is_reserved":false,"is_disabled":false,"rental_uris":{"android":"levelo://app?vid=eaad7dcc-c797-4d78-96ea-aa702bdcc172","ios":"levelo://app?vid=eaad7dcc-c797-4d78-96ea-aa702bdcc172"},"vehicle_type_id":"4","last_reported":1769026773,"current_range_meters":7200,"station_id":"ce4bhsp2rcd13ifvqi50","pricing_plan_id":"cebpf4jnsgd1na2vs0mg"},{"bike_id":"370a6405-fdf1-423e-a465-6cdd23b50ee2","system_id":"levelo_inurba_marseille","lat":43.29041,"lon":5.38676,"is_reserved":false,"is_disabled":true,"rental_uris":{"android":"levelo://app?vid=370a6405-fdf1-423e-a465-6cdd23b50ee2","ios":"levelo://app?vid=370a6405-fdf1-423e-a465-6cdd23b50ee2"},"vehicle_type_id":"4","last_reported":1769026773,"current_range_meters":7200,"station_id":"ce4bh4p2rcd13ifvqe0g","pricing_plan_id":"cebpf4jnsgd1na2vs0mg"},{"bike_id":"fddbb7cb-a21d-46ff-8d07-df9eecd44019","system_id":"levelo_inurba_marseille","lat":43.32092,"lon":5.36795,"is_reserved":false,"is_disabled":false,"rental_uris":{"android":"levelo://app?vid=fddbb7cb-a21d-46ff-8d07-df9eecd44019","ios":"levelo://app?vid=fddbb7cb-a21d-46ff-8d07-df9eecd44019"},"vehicle_type_id":"4","last_reported":1769026773,"current_range_meters":7200,"station_id":"ce4bhrh2rcd13ifvqhug","pricing_plan_id":"cebpf4jnsgd1na2vs0mg"},{"bike_id":"0b64e895-792b-4498-9172-5f40249c5668","system_id":"levelo_inurba_marseille","lat":43.26054,"lon":5.39389,"is_reserved":false,"is_disabled":false,"rental_uris":{"android":"levelo://app?vid=0b64e895-792b-4498-9172-5f40249c5668","ios":"levelo://app?vid=0b64e895-792b-4498-9172-5f40249c5668"},"vehicle_type_id":"4","last_reported":1769026773,"current_range_meters":7200,"station_id":"ce4bhh92rcd13ifvqfj0","pricing_plan_id":"cebpf4jnsgd1na2vs0mg"},{"bike_id":"dde7b0e0-bbd1-44de-82f6-999f8e69694c","system_id":"levelo_inurba_marseille","lat":43.25502,"lon":5.37657,"is_reserved":false,"is_disabled":false,"rental_uris":{"android":"levelo://app?vid=dde7b0e0-bbd1-44de-82f6-999f8e69694c","ios":"levelo://app?vid=dde7b0e0-bbd1-44de-82f6-999f8e69694c"},"vehicle_type_id":"4","last_reported":1769026773,"current_range_meters":7200,"station_id":"ce4bhh12rcd13ifvqff0","pricing_plan_id":"cebpf4jnsgd1na2vs0mg"},{"bike_id":"800ac751-b72d-4eb8-b5ef-7e899db1abd8","system_id":"levelo_inurba_marseille","lat":43.32714,"lon":5.39247,"is_reserved":false,"is_disabled":false,"rental_uris":{"android":"levelo://app?vid=800ac751-b72d-4eb8-b5ef-7e899db1abd8","ios":"levelo://app?vid=800ac751-b72d-4eb8-b5ef-7e899db1abd8"},"vehicle_type_id":"4","last_reported":1769026773,"current_range_meters":7200,"station_id":"","pricing_plan_id":"cebpf4jnsgd1na2vs0mg"},{"bike_id":"052a8f55-8b1f-45ac-9aac-5d17aee8eabe","system_id":"levelo_inurba_marseille","lat":43.26788,"lon":5.39424,"is_reserved":false,"is_disabled":false,"rental_uris":{"android":"levelo://app?vid=052a8f55-8b1f-45ac-9aac-5d17aee8eabe","ios":"levelo://app?vid=052a8f55-8b1f-45ac-9aac-5d17aee8eabe"},"vehicle_type_id":"4","last_reported":1769026773,"current_range_meters":7200,"station_id":"ce4bhh12rcd13ifvqfg0","pricing_plan_id":"cebpf4jnsgd1na2vs0mg"},{"bike_id":"d7f223be-d352-47ac-be6c-4943c001592d","system_id":"levelo_inurba_marseille","lat":43.29609,"lon":5.38098,"is_reserved":false,"is_disabled":false,"rental_uris":{"android":"levelo://app?vid=d7f223be-d352-47ac-be6c-4943c001592d","ios":"levelo://app?vid=d7f223be-d352-47ac-be6c-4943c001592d"},"vehicle_type_id":"4","last_reported":1769026773,"current_range_meters":7200,"station_id":"ce4bgl12rcd13ifvqbo0","pricing_plan_id":"cebpf4jnsgd1na2vs0mg"},{"bike_id":"37f70443-56d8-4bc3-aa3d-cbd2ce8313bb","system_id":"levelo_inurba_marseille","lat":43.2933,"lon":5.37154,"is_reserved":false,"is_disabled":false,"rental_uris":{"android":"levelo://app?vid=37f70443-56d8-4bc3-aa3d-cbd2ce8313bb","ios":"levelo://app?vid=37f70443-56d8-4bc3-aa3d-cbd2ce8313bb"},"vehicle_type_id":"4","last_reported":1769026773,"current_range_meters":7200,"station_id":"ce4bgh92rcd13ifvqb40","pricing_plan_id":"cebpf4jnsgd1na2vs0mg"},{"bike_id":"13c816e9-5043-41d0-a44f-0b67121a9c07","system_id":"levelo_inurba_marseille","lat":43.2793,"lon":5.39156,"is_reserved":false,"is_disabled":false,"rental_uris":{"android":"levelo://app?vid=13c816e9-5043-41d0-a44f-0b67121a9c07","ios":"levelo://app?vid=13c816e9-5043-41d0-a44f-0b67121a9c07"},"vehicle_type_id":"4","last_reported":1769026773,"current_range_meters":7200,"station_id":"ce4bhjp2rcd13ifvqga0","pricing_plan_id":"cebpf4jnsgd1na2vs0mg"},{"bike_id":"83ecd522-a8d2-4336-b0fb-e5c0bb589a52","system_id":"levelo_inurba_marseille","lat":43.28006,"lon":5.39992,"is_reserved":false,"is_disabled":false,"rental_uris":{"android":"levelo://app?vid=83ecd522-a8d2-4336-b0fb-e5c0bb589a52","ios":"levelo://app?vid=83ecd522-a8d2-4336-b0fb-e5c0bb589a52"},"vehicle_type_id":"4","last_reported":1769026773,"current_range_meters":7200,"station_id":"ce4bho92rcd13ifvqh4g","pricing_plan_id":"cebpf4jnsgd1na2vs0mg"},{"bike_id":"6131e764-e5b9-44aa-a66a-1b45fe019e3f","system_id":"levelo_inurba_marseille","lat":43.275692,"lon":5.384182,"is_reserved":false,"is_disabled":false,"rental_uris":{"android":"levelo://app?vid=6131e764-e5b9-44aa-a66a-1b45fe019e3f","ios":"levelo://app?vid=6131e764-e5b9-44aa-a66a-1b45fe019e3f"},"vehicle_type_id":"4","last_reported":1769026773,"current_range_meters":7200,"station_id":"ce4bhh92rcd13ifvqfi0","pricing_plan_id":"cebpf4jnsgd1na2vs0mg"},{"bike_id":"db5c533d-ad6a-4cca-9da6-b7b91ac05bc1","system_id":"levelo_inurba_marseille","lat":43.21749,"lon":5.34594,"is_reserved":false,"is_disabled":false,"rental_uris":{"android":"levelo://app?vid=db5c533d-ad6a-4cca-9da6-b7b91ac05bc1","ios":"levelo://app?vid=db5c533d-ad6a-4cca-9da6-b7b91ac05bc1"},"vehicle_type_id":"4","last_reported":1769026773,"current_range_meters":7200,"station_id":"st_cvj6r9ubvosntc0bgbag","pricing_plan_id":"cebpf4jnsgd1na2vs0mg"},{"bike_id":"30471bf1-4e97-480f-9e18-3f7a93804303","system_id":"levelo_inurba_marseille","lat":43.24071,"lon":5.3776,"is_reserved":false,"is_disabled":false,"rental_uris":{"android":"levelo://app?vid=30471bf1-4e97-480f-9e18-3f7a93804303","ios":"levelo://app?vid=30471bf1-4e97-480f-9e18-3f7a93804303"},"vehicle_type_id":"4","last_reported":1769026773,"current_range_meters":7200,"station_id":"ce4bhnp2rcd13ifvqgvg","pricing_plan_id":"cebpf4jnsgd1na2vs0mg"},{"bike_id":"bfce9820-3542-42b9-90ce-6a3b06eb39fb","system_id":"levelo_inurba_marseille","lat":43.295354,"lon":5.385475,"is_reserved":false,"is_disabled":false,"rental_uris":{"android":"levelo://app?vid=bfce9820-3542-42b9-90ce-6a3b06eb39fb","ios":"levelo://app?vid=bfce9820-3542-42b9-90ce-6a3b06eb39fb"},"vehicle_type_id":"4","last_reported":1769026773,"current_range_meters":7200,"station_id":"ce4bgih2rcd13ifvqba0","pricing_plan_id":"cebpf4jnsgd1na2vs0mg"},{"bike_id":"2b9973f0-956a-4483-a970-a38a9630dc7c","system_id":"levelo_inurba_marseille","lat":43.2931,"lon":5.37181,"is_reserved":false,"is_disabled":false,"rental_uris":{"android":"levelo://app?vid=2b9973f0-956a-4483-a970-a38a9630dc7c","ios":"levelo://app?vid=2b9973f0-956a-4483-a970-a38a9630dc7c"},"vehicle_type_id":"4","last_reported":1769026773,"current_range_meters":7200,"station_id":"ce4bgh92rcd13ifvqb40","pricing_plan_id":"cebpf4jnsgd1na2vs0mg"},{"bike_id":"2200e9d2-1068-424e-9d7a-bd6973ee7562","system_id":"levelo_inurba_marseille","lat":43.26588,"lon":5.39041,"is_reserved":false,"is_disabled":false,"rental_uris":{"android":"levelo://app?vid=2200e9d2-1068-424e-9d7a-bd6973ee7562","ios":"levelo://app?vid=2200e9d2-1068-424e-9d7a-bd6973ee7562"},"vehicle_type_id":"4","last_reported":1769026773,"current_range_meters":7200,"station_id":"ce4bhe12rcd13ifvqf30","pricing_plan_id":"cebpf4jnsgd1na2vs0mg"},{"bike_id":"131d083d-d299-49de-ae79-91ebeb210640","system_id":"levelo_inurba_marseille","lat":43.2572,"lon":5.41816,"is_reserved":false,"is_disabled":false,"rental_uris":{"android":"levelo://app?vid=131d083d-d299-49de-ae79-91ebeb210640","ios":"levelo://app?vid=131d083d-d299-49de-ae79-91ebeb210640"},"vehicle_type_id":"4","last_reported":1769026773,"current_range_meters":7200,"station_id":"","pricing_plan_id":"cebpf4jnsgd1na2vs0mg"},{"bike_id":"9f267b1b-9ecb-4537-8b3b-db033635a9b6","system_id":"levelo_inurba_marseille","lat":43.27351,"lon":5.39107,"is_reserved":false,"is_disabled":false,"rental_uris":{"android":"levelo://app?vid=9f267b1b-9ecb-4537-8b3b-db033635a9b6","ios":"levelo://app?vid=9f267b1b-9ecb-4537-8b3b-db033635a9b6"},"vehicle_type_id":"4","last_reported":1769026773,"current_range_meters":7200,"station_id":"","pricing_plan_id":"cebpf4jnsgd1na2vs0mg"},{"bike_id":"3ec43c3a-0e17-47c3-ac2d-117d7f9da16b","system_id":"levelo_inurba_marseille","lat":43.29263,"lon":5.38442,"is_reserved":false,"is_disabled":false,"rental_uris":{"android":"levelo://app?vid=3ec43c3a-0e17-47c3-ac2d-117d7f9da16b","ios":"levelo://app?vid=3ec43c3a-0e17-47c3-ac2d-117d7f9da16b"},"vehicle_type_id":"4","last_reported":1769026773,"current_range_meters":8000,"station_id":"ce4bh692rcd13ifvqea0","pricing_plan_id":"cebpf4jnsgd1na2vs0mg"},{"bike_id":"ebc59118-e1a4-482d-84d0-eafb34b0b9ea","system_id":"levelo_inurba_marseille","lat":43.23777,"lon":5.36606,"is_reserved":false,"is_disabled":false,"rental_uris":{"android":"levelo://app?vid=ebc59118-e1a4-482d-84d0-eafb34b0b9ea","ios":"levelo://app?vid=ebc59118-e1a4-482d-84d0-eafb34b0b9ea"},"vehicle_type_id":"4","last_reported":1769026773,"current_range_meters":8000,"station_id":"st_d3nk18o9ro0c73en2l3g","pricing_plan_id":"cebpf4jnsgd1na2vs0mg"},{"bike_id":"db3f14e4-220b-415c-9e28-2fe041e49f9a","system_id":"levelo_inurba_marseille","lat":43.26077,"lon":5.39387,"is_reserved":false,"is_disabled":false,"rental_uris":{"android":"levelo://app?vid=db3f14e4-220b-415c-9e28-2fe041e49f9a","ios":"levelo://app?vid=db3f14e4-220b-415c-9e28-2fe041e49f9a"},"vehicle_type_id":"4","last_reported":1769026773,"current_range_meters":8000,"station_id":"ce4bhh92rcd13ifvqfj0","pricing_plan_id":"cebpf4jnsgd1na2vs0mg"},{"bike_id":"58cd0546-ee0c-4f92-ba44-6393bfd47c70","system_id":"levelo_inurba_marseille","lat":43.26571,"lon":5.39023,"is_reserved":false,"is_disabled":false,"rental_uris":{"android":"levelo://app?vid=58cd0546-ee0c-4f92-ba44-6393bfd47c70","ios":"levelo://app?vid=58cd0546-ee0c-4f92-ba44-6393bfd47c70"},"vehicle_type_id":"4","last_reported":1769026773,"current_range_meters":8000,"station_id":"ce4bhe12rcd13ifvqf30","pricing_plan_id":"cebpf4jnsgd1na2vs0mg"},{"bike_id":"607c435d-5fb0-4f63-b221-a58bdcfdc9c2","system_id":"levelo_inurba_marseille","lat":43.25,"lon":5.38932,"is_reserved":false,"is_disabled":false,"rental_uris":{"android":"levelo://app?vid=607c435d-5fb0-4f63-b221-a58bdcfdc9c2","ios":"levelo://app?vid=607c435d-5fb0-4f63-b221-a58bdcfdc9c2"},"vehicle_type_id":"4","last_reported":1769026773,"current_range_meters":8000,"station_id":"ce4bhgp2rcd13ifvqfd0","pricing_plan_id":"cebpf4jnsgd1na2vs0mg"},{"bike_id":"1043358a-6540-44be-a175-76e81d531b51","system_id":"levelo_inurba_marseille","lat":43.27887,"lon":5.37986,"is_reserved":false,"is_disabled":false,"rental_uris":{"android":"levelo://app?vid=1043358a-6540-44be-a175-76e81d531b51","ios":"levelo://app?vid=1043358a-6540-44be-a175-76e81d531b51"},"vehicle_type_id":"4","last_reported":1769026773,"current_range_meters":8000,"station_id":"ce4bhf92rcd13ifvqf50","pricing_plan_id":"cebpf4jnsgd1na2vs0mg"},{"bike_id":"49aa8cdc-9053-45c6-bda8-40fd9d73c628","system_id":"levelo_inurba_marseille","lat":43.2919,"lon":5.39319,"is_reserved":false,"is_disabled":false,"rental_uris":{"android":"levelo://app?vid=49aa8cdc-9053-45c6-bda8-40fd9d73c628","ios":"levelo://app?vid=49aa8cdc-9053-45c6-bda8-40fd9d73c628"},"vehicle_type_id":"4","last_reported":1769026773,"current_range_meters":8000,"station_id":"ce4bh192rcd13ifvqdd0","pricing_plan_id":"cebpf4jnsgd1na2vs0mg"},{"bike_id":"bf9df301-dc0d-41cc-96a1-27301e9f819b","system_id":"levelo_inurba_marseille","lat":43.28482,"lon":5.48382,"is_reserved":false,"is_disabled":false,"rental_uris":{"android":"levelo://app?vid=bf9df301-dc0d-41cc-96a1-27301e9f819b","ios":"levelo://app?vid=bf9df301-dc0d-41cc-96a1-27301e9f819b"},"vehicle_type_id":"4","last_reported":1769026773,"current_range_meters":8000,"station_id":"","pricing_plan_id":"cebpf4jnsgd1na2vs0mg"},{"bike_id":"1dbba7d4-d9cb-48ab-92f3-971042a326c1","system_id":"levelo_inurba_marseille","lat":43.2315,"lon":5.43677,"is_reserved":false,"is_disabled":false,"rental_uris":{"android":"levelo://app?vid=1dbba7d4-d9cb-48ab-92f3-971042a326c1","ios":"levelo://app?vid=1dbba7d4-d9cb-48ab-92f3-971042a326c1"},"vehicle_type_id":"4","last_reported":1769026773,"current_range_meters":8000,"station_id":"ce4bhmp2rcd13ifvqgog","pricing_plan_id":"cebpf4jnsgd1na2vs0mg"},{"bike_id":"92a7b094-8419-42a8-92bc-cde61631e7f4","system_id":"levelo_inurba_marseille","lat":43.29285,"lon":5.36852,"is_reserved":false,"is_disabled":false,"rental_uris":{"android":"levelo://app?vid=92a7b094-8419-42a8-92bc-cde61631e7f4","ios":"levelo://app?vid=92a7b094-8419-42a8-92bc-cde61631e7f4"},"vehicle_type_id":"4","last_reported":1769026773,"current_range_meters":8000,"station_id":"ce4bhbp2rcd13ifvqesg","pricing_plan_id":"cebpf4jnsgd1na2vs0mg"},{"bike_id":"488d3d36-c3f0-4390-80be-f0194a76248a","system_id":"levelo_inurba_marseille","lat":43.25589,"lon":5.40421,"is_reserved":false,"is_disabled":false,"rental_uris":{"android":"levelo://app?vid=488d3d36-c3f0-4390-80be-f0194a76248a","ios":"levelo://app?vid=488d3d36-c3f0-4390-80be-f0194a76248a"},"vehicle_type_id":"4","last_reported":1769026773,"current_range_meters":8000,"station_id":"","pricing_plan_id":"cebpf4jnsgd1na2vs0mg"},{"bike_id":"f67035e4-7e2f-4f61-9362-74370903fc82","system_id":"levelo_inurba_marseille","lat":43.26944,"lon":5.40264,"is_reserved":false,"is_disabled":false,"rental_uris":{"android":"levelo://app?vid=f67035e4-7e2f-4f61-9362-74370903fc82","ios":"levelo://app?vid=f67035e4-7e2f-4f61-9362-74370903fc82"},"vehicle_type_id":"4","last_reported":1769026773,"current_range_meters":8000,"station_id":"cjm6bp8fraef2m0cb0m0","pricing_plan_id":"cebpf4jnsgd1na2vs0mg"},{"bike_id":"aec5c08c-9f05-47e9-bb02-2d63b83fc483","system_id":"levelo_inurba_marseille","lat":43.26715,"lon":5.39234,"is_reserved":false,"is_disabled":false,"rental_uris":{"android":"levelo://app?vid=aec5c08c-9f05-47e9-bb02-2d63b83fc483","ios":"levelo://app?vid=aec5c08c-9f05-47e9-bb02-2d63b83fc483"},"vehicle_type_id":"4","last_reported":1769026773,"current_range_meters":8000,"station_id":"","pricing_plan_id":"cebpf4jnsgd1na2vs0mg"},{"bike_id":"42ad3ecc-0a5c-4850-9931-a019c27979e1","system_id":"levelo_inurba_marseille","lat":43.28616,"lon":5.35086,"is_reserved":false,"is_disabled":false,"rental_uris":{"android":"levelo://app?vid=42ad3ecc-0a5c-4850-9931-a019c27979e1","ios":"levelo://app?vid=42ad3ecc-0a5c-4850-9931-a019c27979e1"},"vehicle_type_id":"4","last_reported":1769026773,"current_range_meters":8000,"station_id":"ce4bhch2rcd13ifvqeug","pricing_plan_id":"cebpf4jnsgd1na2vs0mg"},{"bike_id":"019ceb53-5592-4d8b-8ed7-8ec71fe45a46","system_id":"levelo_inurba_marseille","lat":43.29246,"lon":5.38443,"is_reserved":false,"is_disabled":false,"rental_uris":{"android":"levelo://app?vid=019ceb53-5592-4d8b-8ed7-8ec71fe45a46","ios":"levelo://app?vid=019ceb53-5592-4d8b-8ed7-8ec71fe45a46"},"vehicle_type_id":"4","last_reported":1769026773,"current_range_meters":8000,"station_id":"ce4bh692rcd13ifvqea0","pricing_plan_id":"cebpf4jnsgd1na2vs0mg"},{"bike_id":"83461687-2d6f-44e3-8195-fb721f9fb181","system_id":"levelo_inurba_marseille","lat":43.28478,"lon":5.48405,"is_reserved":false,"is_disabled":false,"rental_uris":{"android":"levelo://app?vid=83461687-2d6f-44e3-8195-fb721f9fb181","ios":"levelo://app?vid=83461687-2d6f-44e3-8195-fb721f9fb181"},"vehicle_type_id":"4","last_reported":1769026773,"current_range_meters":8000,"station_id":"","pricing_plan_id":"cebpf4jnsgd1na2vs0mg"},{"bike_id":"e7fa5a02-5141-47ca-bd0e-673584f4860d","system_id":"levelo_inurba_marseille","lat":43.32493,"lon":5.38303,"is_reserved":false,"is_disabled":false,"rental_uris":{"android":"levelo://app?vid=e7fa5a02-5141-47ca-bd0e-673584f4860d","ios":"levelo://app?vid=e7fa5a02-5141-47ca-bd0e-673584f4860d"},"vehicle_type_id":"4","last_reported":1769026773,"current_range_meters":8000,"station_id":"st_d4asgbiv49dc73anf9m0","pricing_plan_id":"cebpf4jnsgd1na2vs0mg"},