{"last_updated":1727240966,"ttl":60,"version":"2.2","data":{"bikes":[{"bike_id":"dc929efc-0c43-486c-9a16-d8a71128110d","system_id":"levelo_inurba_marseille","lat":43.28431,"lon":5.34994,"is_reserved":false,"is_disabled":false,"rental_uris":{"android":"levelo://app?vid=dc929efc-0c43-486c-9a16-d8a71128110d","ios":"levelo://app?vid=dc929efc-0c43-486c-9a16-d8a71128110d"},"vehicle_type_id":"4","last_reported":1727240966,"current_range_meters":38400,"station_id":"ce4bhbh2rcd13ifvqepg","pricing_plan_id":"cebpf4jnsgd1na2vs0mg"},{"bike_id":"8ee7fb84-da46-476f-a091-3c35d33d7645","system_id":"levelo_inurba_marseille","lat":43.27938,"lon":5.41031,"is_reserved":false,"is_disabled":false,"rental_uris":{"android":"levelo://app?vid=8ee7fb84-da46-476f-a091-3c35d33d7645","ios":"levelo://app?vid=8ee7fb84-da46-476f-a091-3c35d33d7645"},"vehicle_type_id":"4","last_reported":1727240966,"current_range_meters":11600,"station_id":"ce4bhnp2rcd13ifvqh0g","pricing_plan_id":"cebpf4jnsgd1na2vs0mg"},{"bike_id":"a867207d-ca9d-438a-92e2-8cf8e679686d","system_id":"levelo_inurba_marseille","lat":43.279005,"lon":5.3801,"is_reserved":false,"is_disabled":false,"rental_uris":{"android":"levelo://app?vid=a867207d-ca9d-438a-92e2-8cf8e679686d","ios":"levelo://app?vid=a867207d-ca9d-438a-92e2-8cf8e679686d"},"vehicle_type_id":"4","last_reported":1727240966,"current_range_meters":38800,"station_id":"ce4bhf92rcd13ifvqf50","pricing_plan_id":"cebpf4jnsgd1na2vs0mg"},{"bike_id":"c85c3ac1-ec61-453b-a260-9f3875c4a0d0","system_id":"levelo_inurba_marseille","lat":43.27955,"lon":5.4105,"is_reserved":false,"is_disabled":false,"rental_uris":{"android":"levelo://app?vid=c85c3ac1-ec61-453b-a260-9f3875c4a0d0","ios":"levelo://app?vid=c85c3ac1-ec61-453b-a260-9f3875c4a0d0"},"vehicle_type_id":"4","last_reported":1727240966,"current_range_meters":27600,"station_id":"ce4bhnp2rcd13ifvqh0g","pricing_plan_id":"cebpf4jnsgd1na2vs0mg"},{"bike_id":"72784618-c3e2-44b5-babf-8d7f67e9e3a2","system_id":"levelo_inurba_marseille","lat":43.308973,"lon":5.396419,"is_reserved":false,"is_disabled":false,"rental_uris":{"android":"levelo://app?vid=72784618-c3e2-44b5-babf-8d7f67e9e3a2","ios":"levelo://app?vid=72784618-c3e2-44b5-babf-8d7f67e9e3a2"},"vehicle_type_id":"4","last_reported":1727240966,"current_range_meters":38400,"station_id":"ce4bh012rcd13ifvqcv0","pricing_plan_id":"cebpf4jnsgd1na2vs0mg"},{"bike_id":"b3d911e4-2b36-4572-8f8c-79db27f5545f","system_id":"levelo_inurba_marseille","lat":43.28434,"lon":5.39204,"is_reserved":false,"is_disabled":false,"rental_uris":{"android":"levelo://app?vid=b3d911e4-2b36-4572-8f8c-79db27f5545f","ios":"levelo://app?vid=b3d911e4-2b36-4572-8f8c-79db27f5545f"},"vehicle_type_id":"4","last_reported":1727240966,"current_range_meters":38000,"station_id":"ce4bhoh2rcd13ifvqh5g","pricing_plan_id":"cebpf4jnsgd1na2vs0mg"},{"bike_id":"827805a9-165a-411b-9d0c-f0ead5d66ca6","system_id":"levelo_inurba_marseille","lat":43.28156,"lon":5.4264,"is_reserved":false,"is_disabled":false,"rental_uris":{"android":"levelo://app?vid=827805a9-165a-411b-9d0c-f0ead5d66ca6","ios":"levelo://app?vid=827805a9-165a-411b-9d0c-f0ead5d66ca6"},"vehicle_type_id":"4","last_reported":1727240966,"current_range_meters":23200,"station_id":"ce4bhnh2rcd13ifvqgug","pricing_plan_id":"cebpf4jnsgd1na2vs0mg"},{"bike_id":"fd1aa1ae-79f8-4d42-a8d1-b39762946286","system_id":"levelo_inurba_marseille","lat":43.257239,"lon":5.411076,"is_reserved":false,"is_disabled":false,"rental_uris":{"android":"levelo://app?vid=fd1aa1ae-79f8-4d42-a8d1-b39762946286","ios":"levelo://app?vid=fd1aa1ae-79f8-4d42-a8d1-b39762946286"},"vehicle_type_id":"4","last_reported":1727240966,"current_range_meters":38800,"station_id":"ce4bhkp2rcd13ifvqgd0","pricing_plan_id":"cebpf4jnsgd1na2vs0mg"},{"bike_id":"3c374343-aa99-421a-8521-b9bd189598db","system_id":"levelo_inurba_marseille","lat":43.28266,"lon":5.35074,"is_reserved":false,"is_disabled":false,"rental_uris":{"android":"levelo://app?vid=3c374343-aa99-421a-8521-b9bd189598db","ios":"levelo://app?vid=3c374343-aa99-421a-8521-b9bd189598db"},"vehicle_type_id":"4","last_reported":1727240966,"current_range_meters":36800,"station_id":"ce4bhbp2rcd13ifvqerg","pricing_plan_id":"cebpf4jnsgd1na2vs0mg"},{"bike_id":"0d4b5458-b225-48a0-afcc-d519ae9c6167","system_id":"levelo_inurba_marseille","lat":43.32658,"lon":5.40986,"is_reserved":false,"is_disabled":false,"rental_uris":{"android":"levelo://app?vid=0d4b5458-b225-48a0-afcc-d519ae9c6167","ios":"levelo://app?vid=0d4b5458-b225-48a0-afcc-d519ae9c6167"},"vehicle_type_id":"4","last_reported":1727240966,"current_range_meters":38400,"station_id":"ce4bhpp2rcd13ifvqhgg","pricing_plan_id":"cebpf4jnsgd1na2vs0mg"},{"bike_id":"c6cd9b70-3b14-42a0-9ee3-01408936a20e","system_id":"levelo_inurba_marseille","lat":43.27784,"lon":5.40757,"is_reserved":false,"is_disabled":false,"rental_uris":{"android":"levelo://app?vid=c6cd9b70-3b14-42a0-9ee3-01408936a20e","ios":"levelo://app?vid=c6cd9b70-3b14-42a0-9ee3-01408936a20e"},"vehicle_type_id":"4","last_reported":1727240966,"current_range_meters":16400,"station_id":"ce4bhnh2rcd13ifvqgtg","pricing_plan_id":"cebpf4jnsgd1na2vs0mg"},{"bike_id":"a2e8d937-74dd-4528-9647-c84f9ad6486c","system_id":"levelo_inurba_marseille","lat":43.308,"lon":5.38161,"is_reserved":false,"is_disabled":false,"rental_uris":{"android":"levelo://app?vid=a2e8d937-74dd-4528-9647-c84f9ad6486c","ios":"levelo://app?vid=a2e8d937-74dd-4528-9647-c84f9ad6486c"},"vehicle_type_id":"4","last_reported":1727240966,"current_range_meters":38000,"station_id":"ce4bgt12rcd13ifvqce0","pricing_plan_id":"cebpf4jnsgd1na2vs0mg"},{"bike_id":"dec73f4f-b681-4818-a068-daca63f0a22d","system_id":"levelo_inurba_marseille","lat":43.22932,"lon":5.35387,"is_reserved":false,"is_disabled":false,"rental_uris":{"android":"levelo://app?vid=dec73f4f-b681-4818-a068-daca63f0a22d","ios":"levelo://app?vid=dec73f4f-b681-4818-a068-daca63f0a22d"},"vehicle_type_id":"4","last_reported":1727240966,"current_range_meters":38800,"station_id":"cpo3532slgdg3j2ikp40","pricing_plan_id":"cebpf4jnsgd1na2vs0mg"},{"bike_id":"9926f8d4-52ff-41d7-995b-39e4b6d4cdc0","system_id":"levelo_inurba_marseille","lat":43.32482,"lon":5.36559,"is_reserved":false,"is_disabled":false,"rental_uris":{"android":"levelo://app?vid=9926f8d4-52ff-41d7-995b-39e4b6d4cdc0","ios":"levelo://app?vid=9926f8d4-52ff-41d7-995b-39e4b6d4cdc0"},"vehicle_type_id":"4","last_reported":1727240966,"current_range_meters":38400,"station_id":"ce4bhs12rcd13ifvqhvg","pricing_plan_id":"cebpf4jnsgd1na2vs0mg"},{"bike_id":"31c81cbf-bc97-485d-99cc-1c48e223b569","system_id":"levelo_inurba_marseille","lat":43.24662,"lon":5.38163,"is_reserved":false,"is_disabled":false,"rental_uris":{"android":"levelo://app?vid=31c81cbf-bc97-485d-99cc-1c48e223b569","ios":"levelo://app?vid=31c81cbf-bc97-485d-99cc-1c48e223b569"},"vehicle_type_id":"4","last_reported":1727240966,"current_range_meters":38800,"station_id":"ce4bhih2rcd13ifvqfr0","pricing_plan_id":"cebpf4jnsgd1na2vs0mg"},{"bike_id":"881645e5-f4c7-4b41-b4c9-d93404411ab1","system_id":"levelo_inurba_marseille","lat":43.26563,"lon":5.39018,"is_reserved":false,"is_disabled":false,"rental_uris":{"android":"levelo://app?vid=881645e5-f4c7-4b41-b4c9-d93404411ab1","ios":"levelo://app?vid=881645e5-f4c7-4b41-b4c9-d93404411ab1"},"vehicle_type_id":"4","last_reported":1727240966,"current_range_meters":38400,"station_id":"ce4bhe12rcd13ifvqf30","pricing_plan_id":"cebpf4jnsgd1na2vs0mg"},{"bike_id":"cbc03ce7-b441-469e-bbab-40847c31f3d2","system_id":"levelo_inurba_marseille","lat":43.279469,"lon":5.410426,"is_reserved":false,"is_disabled":false,"rental_uris":{"android":"levelo://app?vid=cbc03ce7-b441-469e-bbab-40847c31f3d2","ios":"levelo://app?vid=cbc03ce7-b441-469e-bbab-40847c31f3d2"},"vehicle_type_id":"4","last_reported":1727240966,"current_range_meters":33600,"station_id":"ce4bhnp2rcd13ifvqh0g","pricing_plan_id":"cebpf4jnsgd1na2vs0mg"},{"bike_id":"9a5e97a5-b6f0-45b1-b415-a0d8cc7c1563","system_id":"levelo_inurba_marseille","lat":43.24073,"lon":5.37759,"is_reserved":false,"is_disabled":false,"rental_uris":{"android":"levelo://app?vid=9a5e97a5-b6f0-45b1-b415-a0d8cc7c1563","ios":"levelo://app?vid=9a5e97a5-b6f0-45b1-b415-a0d8cc7c1563"},"vehicle_type_id":"4","last_reported":1727240966,"current_range_meters":38000,"station_id":"ce4bhnp2rcd13ifvqgvg","pricing_plan_id":"cebpf4jnsgd1na2vs0mg"},{"bike_id":"9acec9ee-03ac-47c6-938a-7db8a9781163","system_id":"levelo_inurba_marseille","lat":43.275631,"lon":5.384295,"is_reserved":false,"is_disabled":false,"rental_uris":{"android":"levelo://app?vid=9acec9ee-03ac-47c6-938a-7db8a9781163","ios":"levelo://app?vid=9acec9ee-03ac-47c6-938a-7db8a9781163"},"vehicle_type_id":"4","last_reported":1727240966,"current_range_meters":38000,"station_id":"ce4bhh92rcd13ifvqfi0","pricing_plan_id":"cebpf4jnsgd1na2vs0mg"},{"bike_id":"d9927889-b3eb-4de3-b314-afc25b21b934","system_id":"levelo_inurba_marseille","lat":43.29274,"lon":5.40105,"is_reserved":false,"is_disabled":false,"rental_uris":{"android":"levelo://app?vid=d9927889-b3eb-4de3-b314-afc25b21b934","ios":"levelo://app?vid=d9927889-b3eb-4de3-b314-afc25b21b934"},"vehicle_type_id":"4","last_reported":1727240966,"current_range_meters":34000,"station_id":"ce4bh312rcd13ifvqdk0","pricing_plan_id":"cebpf4jnsgd1na2vs0mg"},{"bike_id":"294fd511-3fb6-4601-9d6e-e1afddc33b99","system_id":"levelo_inurba_marseille","lat":43.29894,"lon":5.43669,"is_reserved":false,"is_disabled":false,"rental_uris":{"android":"levelo://app?vid=294fd511-3fb6-4601-9d6e-e1afddc33b99","ios":"levelo://app?vid=294fd511-3fb6-4601-9d6e-e1afddc33b99"},"vehicle_type_id":"4","last_reported":1727240966,"current_range_meters":26000,"station_id":"ce4bhpp2rcd13ifvqhfg","pricing_plan_id":"cebpf4jnsgd1na2vs0mg"},{"bike_id":"bf71c738-5d9f-4add-8382-5c0e95004940","system_id":"levelo_inurba_marseille","lat":43.29268,"lon":5.40129,"is_reserved":false,"is_disabled":false,"rental_uris":{"android":"levelo://app?vid=bf71c738-5d9f-4add-8382-5c0e95004940","ios":"levelo://app?vid=bf71c738-5d9f-4add-8382-5c0e95004940"},"vehicle_type_id":"4","last_reported":1727240966,"current_range_meters":36400,"station_id":"ce4bh312rcd13ifvqdk0","pricing_plan_id":"cebpf4jnsgd1na2vs0mg"},{"bike_id":"c2e767df-d13b-4bd7-a35a-c449057287bc","system_id":"levelo_inurba_marseille","lat":43.30775,"lon":5.3765,"is_reserved":false,"is_disabled":false,"rental_uris":{"android":"levelo://app?vid=c2e767df-d13b-4bd7-a35a-c449057287bc","ios":"levelo://app?vid=c2e767df-d13b-4bd7-a35a-c449057287bc"},"vehicle_type_id":"4","last_reported":1727240966,"current_range_meters":38800,"station_id":"ce4bgv92rcd13ifvqcq0","pricing_plan_id":"cebpf4jnsgd1na2vs0mg"},{"bike_id":"9c03e0f0-96c4-48fe-a0c9-2ff39af48c29","system_id":"levelo_inurba_marseille","lat":43.32002,"lon":5.38155,"is_reserved":false,"is_disabled":false,"rental_uris":{"android":"levelo://app?vid=9c03e0f0-96c4-48fe-a0c9-2ff39af48c29","ios":"levelo://app?vid=9c03e0f0-96c4-48fe-a0c9-2ff39af48c29"},"vehicle_type_id":"4","last_reported":1727240966,"current_range_meters":38800,"station_id":"ce4bhr12rcd13ifvqhpg","pricing_plan_id":"cebpf4jnsgd1na2vs0mg"},{"bike_id":"4bbcfecc-f6d8-4b41-8c7a-a73e0cd6d734","system_id":"levelo_inurba_marseille","lat":43.27939,"lon":5.41043,"is_reserved":false,"is_disabled":false,"rental_uris":{"android":"levelo://app?vid=4bbcfecc-f6d8-4b41-8c7a-a73e0cd6d734","ios":"levelo://app?vid=4bbcfecc-f6d8-4b41-8c7a-a73e0cd6d734"},"vehicle_type_id":"4","last_reported":1727240966,"current_range_meters":8400,"station_id":"ce4bhnp2rcd13ifvqh0g","pricing_plan_id":"cebpf4jnsgd1na2vs0mg"},{"bike_id":"d4cf6aea-8938-4748-896d-adca184b256f","system_id":"levelo_inurba_marseille","lat":43.30465,"lon":5.37911,"is_reserved":false,"is_disabled":false,"rental_uris":{"android":"levelo://app?vid=d4cf6aea-8938-4748-896d-adca184b256f","ios":"levelo://app?vid=d4cf6aea-8938-4748-896d-adca184b256f"},"vehicle_type_id":"4","last_reported":1727240966,"current_range_meters":36400,"station_id":"ce4bgup2rcd13ifvqcn0","pricing_plan_id":"cebpf4jnsgd1na2vs0mg"},{"bike_id":"c98803b0-10fe-4e03-82bd-ba19ce0378b7","system_id":"levelo_inurba_marseille","lat":43.29793,"lon":5.39336,"is_reserved":false,"is_disabled":false,"rental_uris":{"android":"levelo://app?vid=c98803b0-10fe-4e03-82bd-ba19ce0378b7","ios":"levelo://app?vid=c98803b0-10fe-4e03-82bd-ba19ce0378b7"},"vehicle_type_id":"4","last_reported":1727240966,"current_range_meters":38800,"station_id":"chh1huq6cuj3fo74tm60","pricing_plan_id":"cebpf4jnsgd1na2vs0mg"},{"bike_id":"2ec5f482-ef2f-4ef8-b42f-3ca6cf554387","system_id":"levelo_inurba_marseille","lat":43.31331,"lon":5.39691,"is_reserved":false,"is_disabled":false,"rental_uris":{"android":"levelo://app?vid=2ec5f482-ef2f-4ef8-b42f-3ca6cf554387","ios":"levelo://app?vid=2ec5f482-ef2f-4ef8-b42f-3ca6cf554387"},"vehicle_type_id":"4","last_reported":1727240966,"current_range_meters":38800,"station_id":"ce4bgvp2rcd13ifvqcu0","pricing_plan_id":"cebpf4jnsgd1na2vs0mg"},{"bike_id":"7737b815-6daf-41f0-8354-4b28ba75917f","system_id":"levelo_inurba_marseille","lat":43.30197,"lon":5.39829,"is_reserved":false,"is_disabled":false,"rental_uris":{"android":"levelo://app?vid=7737b815-6daf-41f0-8354-4b28ba75917f","ios":"levelo://app?vid=7737b815-6daf-41f0-8354-4b28ba75917f"},"vehicle_type_id":"4","last_reported":1727240966,"current_range_meters":18800,"station_id":"ce4bgvp2rcd13ifvqct0","pricing_plan_id":"cebpf4jnsgd1na2vs0mg"},{"bike_id":"934dea65-c890-40ea-b799-f7b54ddb5c48","system_id":"levelo_inurba_marseille","lat":43.24807,"lon":5.37457,"is_reserved":false,"is_disabled":false,"rental_uris":{"android":"levelo://app?vid=934dea65-c890-40ea-b799-f7b54ddb5c48","ios":"levelo://app?vid=934dea65-c890-40ea-b799-f7b54ddb5c48"},"vehicle_type_id":"4","last_reported":1727240966,"current_range_meters":38800,"station_id":"ce4bhgh2rcd13ifvqfb0","pricing_plan_id":"cebpf4jnsgd1na2vs0mg"},{"bike_id":"adefb107-1f1f-478e-b882-db936b782d09","system_id":"levelo_inurba_marseille","lat":43.28944,"lon":5.364,"is_reserved":false,"is_disabled":false,"rental_uris":{"android":"levelo://app?vid=adefb107-1f1f-478e-b882-db936b782d09","ios":"levelo://app?vid=adefb107-1f1f-478e-b882-db936b782d09"},"vehicle_type_id":"4","last_reported":1727240966,"current_range_meters":36800,"station_id":"ce4bhc92rcd13ifvqetg","pricing_plan_id":"cebpf4jnsgd1na2vs0mg"},{"bike_id":"4ac9b2f3-3487-42ed-bb0a-eebed1532ea5","system_id":"levelo_inurba_marseille","lat":43.30462,"lon":5.37896,"is_reserved":false,"is_disabled":false,"rental_uris":{"android":"levelo://app?vid=4ac9b2f3-3487-42ed-bb0a-eebed1532ea5","ios":"levelo://app?vid=4ac9b2f3-3487-42ed-bb0a-eebed1532ea5"},"vehicle_type_id":"4","last_reported":1727240966,"current_range_meters":8400,"station_id":"ce4bgup2rcd13ifvqcn0","pricing_plan_id":"cebpf4jnsgd1na2vs0mg"},{"bike_id":"37d634b8-0da9-4533-8238-95a091b609bc","system_id":"levelo_inurba_marseille","lat":43.31899,"lon":5.40729,"is_reserved":false,"is_disabled":false,"rental_uris":{"android":"levelo://app?vid=37d634b8-0da9-4533-8238-95a091b609bc","ios":"levelo://app?vid=37d634b8-0da9-4533-8238-95a091b609bc"},"vehicle_type_id":"4","last_reported":1727240966,"current_range_meters":36400,"station_id":"ce4bhq12rcd13ifvqhig","pricing_plan_id":"cebpf4jnsgd1na2vs0mg"},{"bike_id":"93af468c-1321-4d4c-99c3-612c9b0da5a4","system_id":"levelo_inurba_marseille","lat":43.258189,"lon":5.3943,"is_reserved":false,"is_disabled":false,"rental_uris":{"android":"levelo://app?vid=93af468c-1321-4d4c-99c3-612c9b0da5a4","ios":"levelo://app?vid=93af468c-1321-4d4c-99c3-612c9b0da5a4"},"vehicle_type_id":"4","last_reported":1727240966,"current_range_meters":8800,"station_id":"ce4bhip2rcd13ifvqft0","pricing_plan_id":"cebpf4jnsgd1na2vs0mg"},{"bike_id":"c846df12-3b2c-456e-a231-0b53e4d815d5","system_id":"levelo_inurba_marseille","lat":43.28446,"lon":5.3587,"is_reserved":false,"is_disabled":false,"rental_uris":{"android":"levelo://app?vid=c846df12-3b2c-456e-a231-0b53e4d815d5","ios":"levelo://app?vid=c846df12-3b2c-456e-a231-0b53e4d815d5"},"vehicle_type_id":"4","last_reported":1727240966,"current_range_meters":38800,"station_id":"ce4bhah2rcd13ifvqei0","pricing_plan_id":"cebpf4jnsgd1na2vs0mg"},{"bike_id":"12a91ca7-89e2-4321-ab83-41b6880d06bb","system_id":"levelo_inurba_marseille","lat":43.28415,"lon":5.37518,"is_reserved":false,"is_disabled":false,"rental_uris":{"android":"levelo://app?vid=12a91ca7-89e2-4321-ab83-41b6880d06bb","ios":"levelo://app?vid=12a91ca7-89e2-4321-ab83-41b6880d06bb"},"vehicle_type_id":"4","last_reported":1727240966,"current_range_meters":28400,"station_id":"ce4bh412rcd13ifvqds0","pricing_plan_id":"cebpf4jnsgd1na2vs0mg"},{"bike_id":"9e8a6286-2aa6-4c4f-837d-ef22b57ca874","system_id":"levelo_inurba_marseille","lat":43.24079,"lon":5.37746,"is_reserved":false,"is_disabled":false,"rental_uris":{"android":"levelo://app?vid=9e8a6286-2aa6-4c4f-837d-ef22b57ca874","ios":"levelo://app?vid=9e8a6286-2aa6-4c4f-837d-ef22b57ca874"},"vehicle_type_id":"4","last_reported":1727240966,"current_range_meters":24000,"station_id":"ce4bhnp2rcd13ifvqgvg","pricing_plan_id":"cebpf4jnsgd1na2vs0mg"},{"bike_id":"ee2335a7-19c3-4da2-a231-a3e7f556172e","system_id":"levelo_inurba_marseille","lat":43.2721,"lon":5.39178,"is_reserved":false,"is_disabled":false,"rental_uris":{"android":"levelo://app?vid=ee2335a7-19c3-4da2-a231-a3e7f556172e","ios":"levelo://app?vid=ee2335a7-19c3-4da2-a231-a3e7f556172e"},"vehicle_type_id":"4","last_reported":1727240966,"current_range_meters":28800,"station_id":"ce4bhhp2rcd13ifvqfm0","pricing_plan_id":"cebpf4jnsgd1na2vs0mg"},{"bike_id":"86b6dccf-ea7c-412a-a291-bf2084731947","system_id":"levelo_inurba_marseille","lat":43.27373,"lon":5.36239,"is_reserved":false,"is_disabled":false,"rental_uris":{"android":"levelo://app?vid=86b6dccf-ea7c-412a-a291-bf2084731947","ios":"levelo://app?vid=86b6dccf-ea7c-412a-a291-bf2084731947"},"vehicle_type_id":"4","last_reported":1727240966,"current_range_meters":31200,"station_id":"ce4bhbh2rcd13ifvqeo0","pricing_plan_id":"cebpf4jnsgd1na2vs0mg"},{"bike_id":"f8c704cc-636c-4268-80af-5309e4b09904","system_id":"levelo_inurba_marseille","lat":43.24183,"lon":5.39729,"is_reserved":false,"is_disabled":false,"rental_uris":{"android":"levelo://app?vid=f8c704cc-636c-4268-80af-5309e4b09904","ios":"levelo://app?vid=f8c704cc-636c-4268-80af-5309e4b09904"},"vehicle_type_id":"4","last_reported":1727240966,"current_range_meters":34800,"station_id":"ce4bhn12rcd13ifvqgpg","pricing_plan_id":"cebpf4jnsgd1na2vs0mg"},{"bike_id":"8db4eeae-90dc-450b-8149-34b6ce69b1f8","system_id":"levelo_inurba_marseille","lat":43.23189,"lon":5.39979,"is_reserved":false,"is_disabled":false,"rental_uris":{"android":"levelo://app?vid=8db4eeae-90dc-450b-8149-34b6ce69b1f8","ios":"levelo://app?vid=8db4eeae-90dc-450b-8149-34b6ce69b1f8"},"vehicle_type_id":"4","last_reported":1727240966,"current_range_meters":28000,"station_id":"ce4bhn12rcd13ifvqgqg","pricing_plan_id":"cebpf4jnsgd1na2vs0mg"},{"bike_id":"841d01f2-f5b3-4973-ad5b-849aa1650810","system_id":"levelo_inurba_marseille","lat":43.28945,"lon":5.364,"is_reserved":false,"is_disabled":false,"rental_uris":{"android":"levelo://app?vid=841d01f2-f5b3-4973-ad5b-849aa1650810","ios":"levelo://app?vid=841d01f2-f5b3-4973-ad5b-849aa1650810"},"vehicle_type_id":"4","last_reported":1727240966,"current_range_meters":12800,"station_id":"ce4bhc92rcd13ifvqetg","pricing_plan_id":"cebpf4jnsgd1na2vs0mg"},{"bike_id":"5e63a82a-5383-4289-af28-a05f1ab0253d","system_id":"levelo_inurba_marseille","lat":43.308019,"lon":5.381586,"is_reserved":false,"is_disabled":false,"rental_uris":{"android":"levelo://app?vid=5e63a82a-5383-4289-af28-a05f1ab0253d","ios":"levelo://app?vid=5e63a82a-5383-4289-af28-a05f1ab0253d"},"vehicle_type_id":"4","last_reported":1727240966,"current_range_meters":22800,"station_id":"ce4bgt12rcd13ifvqce0","pricing_plan_id":"cebpf4jnsgd1na2vs0mg"},{"bike_id":"20bdd43a-fb86-4a6a-8151-53f794460f1a","system_id":"levelo_inurba_marseille","lat":43.284099,"lon":5.375215,"is_reserved":false,"is_disabled":false,"rental_uris":{"android":"levelo://app?vid=20bdd43a-fb86-4a6a-8151-53f794460f1a","ios":"levelo://app?vid=20bdd43a-fb86-4a6a-8151-53f794460f1a"},"vehicle_type_id":"4","last_reported":1727240966,"current_range_meters":12000,"station_id":"ce4bh412rcd13ifvqds0","pricing_plan_id":"cebpf4jnsgd1na2vs0mg"},{"bike_id":"5b94ac8f-7ada-4f82-b400-95810572b03a","system_id":"levelo_inurba_marseille","lat":43.3132,"lon":5.39685,"is_reserved":false,"is_disabled":false,"rental_uris":{"android":"levelo://app?vid=5b94ac8f-7ada-4f82-b400-95810572b03a","ios":"levelo://app?vid=5b94ac8f-7ada-4f82-b400-95810572b03a"},"vehicle_type_id":"4","last_reported":1727240966,"current_range_meters":38800,"station_id":"ce4bgvp2rcd13ifvqcu0","pricing_plan_id":"cebpf4jnsgd1na2vs0mg"},{"bike_id":"6fb66ae3-6fa9-43dd-9897-b56fb30fb83f","system_id":"levelo_inurba_marseille","lat":43.299769,"lon":5.371796,"is_reserved":false,"is_disabled":false,"rental_uris":{"android":"levelo://app?vid=6fb66ae3-6fa9-43dd-9897-b56fb30fb83f","ios":"levelo://app?vid=6fb66ae3-6fa9-43dd-9897-b56fb30fb83f"},"vehicle_type_id":"4","last_reported":1727240966,"current_range_meters":4000,"station_id":"ce4bgr92rcd13ifvqc7g","pricing_plan_id":"cebpf4jnsgd1na2vs0mg"},{"bike_id":"7a8458d5-44ac-4f2e-abef-3f01eb31f7ca","system_id":"levelo_inurba_marseille","lat":43.337444,"lon":5.374475,"is_reserved":false,"is_disabled":false,"rental_uris":{"android":"levelo://app?vid=7a8458d5-44ac-4f2e-abef-3f01eb31f7ca","ios":"levelo://app?vid=7a8458d5-44ac-4f2e-abef-3f01eb31f7ca"},"vehicle_type_id":"4","last_reported":1727240966,"current_range_meters":27200,"station_id":"","pricing_plan_id":"cebpf4jnsgd1na2vs0mg"},{"bike_id":"e9f58633-02b7-482f-be0a-1808b0ff1f1b","system_id":"levelo_inurba_marseille","lat":43.32368,"lon":5.38882,"is_reserved":false,"is_disabled":false,"rental_uris":{"android":"levelo://app?vid=e9f58633-02b7-482f-be0a-1808b0ff1f1b","ios":"levelo://app?vid=e9f58633-02b7-482f-be0a-1808b0ff1f1b"},"vehicle_type_id":"4","last_reported":1727240966,"current_range_meters":22000,"station_id":"ce4bhqp2rcd13ifvqhog","pricing_plan_id":"cebpf4jnsgd1na2vs0mg"},{"bike_id":"3f54b8d5-11c9-482b-88f3-8ad6ff21ef40","system_id":"levelo_inurba_marseille","lat":43.27911,"lon":5.3827,"is_reserved":false,"is_disabled":false,"rental_uris":{"android":"levelo://app?vid=3f54b8d5-11c9-482b-88f3-8ad6ff21ef40","ios":"levelo://app?vid=3f54b8d5-11c9-482b-88f3-8ad6ff21ef40"},"vehicle_type_id":"4","last_reported":1727240966,"current_range_meters":36000,"station_id":"","pricing_plan_id":"cebpf4jnsgd1na2vs0mg"},{"bike_id":"77e173d9-88cc-420c-b669-312c3d413969","system_id":"levelo_inurba_marseille","lat":43.29696,"lon":5.37302,"is_reserved":false,"is_disabled":false,"rental_uris":{"android":"levelo://app?vid=77e173d9-88cc-420c-b669-312c3d413969","ios":"levelo://app?vid=77e173d9-88cc-420c-b669-312c3d413969"},"vehicle_type_id":"4","last_reported":1727240966,"current_range_meters":38800,"station_id":"ce4bgk12rcd13ifvqbj0","pricing_plan_id":"cebpf4jnsgd1na2vs0mg"},{"bike_id":"c9b5ec6f-9235-414f-8086-a847b21c71d9","system_id":"levelo_inurba_marseille","lat":43.319961,"lon":5.381494,"is_reserved":false,"is_disabled":false,"rental_uris":{"android":"levelo://app?vid=c9b5ec6f-9235-414f-8086-a847b21c71d9","ios":"levelo://app?vid=c9b5ec6f-9235-414f-8086-a847b21c71d9"},"vehicle_type_id":"4","last_reported":1727240966,"current_range_meters":38800,"station_id":"ce4bhr12rcd13ifvqhpg","pricing_plan_id":"cebpf4jnsgd1na2vs0mg"},{"bike_id":"0c753969-17e0-46bd-a779-2f2ecb7ed5df","system_id":"levelo_inurba_marseille","lat":43.30117,"lon":5.39858,"is_reserved":false,"is_disabled":false,"rental_uris":{"android":"levelo://app?vid=0c753969-17e0-46bd-a779-2f2ecb7ed5df","ios":"levelo://app?vid=0c753969-17e0-46bd-a779-2f2ecb7ed5df"},"vehicle_type_id":"4","last_reported":1727240966,"current_range_meters":38800,"station_id":"ce4bh0h2rcd13ifvqd40","pricing_plan_id":"cebpf4jnsgd1na2vs0mg"},{"bike_id":"caaa4edd-dfb2-4c6d-bee0-ff713fd39174","system_id":"levelo_inurba_marseille","lat":43.28458,"lon":5.35886,"is_reserved":false,"is_disabled":false,"rental_uris":{"android":"levelo://app?vid=caaa4edd-dfb2-4c6d-bee0-ff713fd39174","ios":"levelo://app?vid=caaa4edd-dfb2-4c6d-bee0-ff713fd39174"},"vehicle_type_id":"4","last_reported":1727240966,"current_range_meters":33600,"station_id":"ce4bhah2rcd13ifvqei0","pricing_plan_id":"cebpf4jnsgd1na2vs0mg"},{"bike_id":"a1f389dd-bb24-412b-85a7-c4163f3337bb","system_id":"levelo_inurba_marseille","lat":43.31755,"lon":5.39024,"is_reserved":false,"is_disabled":false,"rental_uris":{"android":"levelo://app?vid=a1f389dd-bb24-412b-85a7-c4163f3337bb","ios":"levelo://app?vid=a1f389dd-bb24-412b-85a7-c4163f3337bb"},"vehicle_type_id":"4","last_reported":1727240966,"current_range_meters":24800,"station_id":"ce4bhqp2rcd13ifvqhng","pricing_plan_id":"cebpf4jnsgd1na2vs0mg"},{"bike_id":"7c0368f2-8258-48a4-99bf-e74b9624a0e9","system_id":"levelo_inurba_marseille","lat":43.29018,"lon":5.38112,"is_reserved":false,"is_disabled":false,"rental_uris":{"android":"levelo://app?vid=7c0368f2-8258-48a4-99bf-e74b9624a0e9","ios":"levelo://app?vid=7c0368f2-8258-48a4-99bf-e74b9624a0e9"},"vehicle_type_id":"4","last_reported":1727240966,"current_range_meters":37600,"station_id":"ce4bh4p2rcd13ifvqe1g","pricing_plan_id":"cebpf4jnsgd1na2vs0mg"},{"bike_id":"36450a01-8f71-4323-abb9-677aa1b31b9c","system_id":"levelo_inurba_marseille","lat":43.278309,"lon":5.392053,"is_reserved":false,"is_disabled":false,"rental_uris":{"android":"levelo://app?vid=36450a01-8f71-4323-abb9-677aa1b31b9c","ios":"levelo://app?vid=36450a01-8f71-4323-abb9-677aa1b31b9c"},"vehicle_type_id":"4","last_reported":1727240966,"current_range_meters":38800,"station_id":"ce4bhjp2rcd13ifvqga0","pricing_plan_id":"cebpf4jnsgd1na2vs0mg"},{"bike_id":"4628adaa-a8b2-423a-91e1-6faa5c881c75","system_id":"levelo_inurba_marseille","lat":43.2795,"lon":5.41044,"is_reserved":false,"is_disabled":false,"rental_uris":{"android":"levelo://app?vid=4628adaa-a8b2-423a-91e1-6faa5c881c75","ios":"levelo://app?vid=4628adaa-a8b2-423a-91e1-6faa5c881c75"},"vehicle_type_id":"4","last_reported":1727240966,"current_range_meters":37600,"station_id":"ce4bhnp2rcd13ifvqh0g","pricing_plan_id":"cebpf4jnsgd1na2vs0mg"},{"bike_id":"173443cc-b829-4093-a757-cf7e821856d6","system_id":"levelo_inurba_marseille","lat":43.29804,"lon":5.40408,"is_reserved":false,"is_disabled":false,"rental_uris":{"android":"levelo://app?vid=173443cc-b829-4093-a757-cf7e821856d6","ios":"levelo://app?vid=173443cc-b829-4093-a757-cf7e821856d6"},"vehicle_type_id":"4","last_reported":1727240966,"current_range_meters":38800,"station_id":"ce4bh112rcd13ifvqd90","pricing_plan_id":"cebpf4jnsgd1na2vs0mg"},{"bike_id":"316aa05f-7fe9-4141-a635-af60093dc5f9","system_id":"levelo_inurba_marseille","lat":43.2998,"lon":5.37184,"is_reserved":false,"is_disabled":false,"rental_uris":{"android":"levelo://app?vid=316aa05f-7fe9-4141-a635-af60093dc5f9","ios":"levelo://app?vid=316aa05f-7fe9-4141-a635-af60093dc5f9"},"vehicle_type_id":"4","last_reported":1727240966,"current_range_meters":28800,"station_id":"ce4bgr92rcd13ifvqc7g","pricing_plan_id":"cebpf4jnsgd1na2vs0mg"},{"bike_id":"e9970d1f-8ddf-4f8a-9384-c89811dfca7c","system_id":"levelo_inurba_marseille","lat":43.29009,"lon":5.39892,"is_reserved":false,"is_disabled":false,"rental_uris":{"android":"levelo://app?vid=e9970d1f-8ddf-4f8a-9384-c89811dfca7c","ios":"levelo://app?vid=e9970d1f-8ddf-4f8a-9384-c89811dfca7c"},"vehicle_type_id":"4","last_reported":1727240966,"current_range_meters":36000,"station_id":"ce4bh392rcd13ifvqdm0","pricing_plan_id":"cebpf4jnsgd1na2vs0mg"},{"bike_id":"aaf5ba86-58de-460a-adbe-e58e97ba3511","system_id":"levelo_inurba_marseille","lat":43.26029,"lon":5.3755,"is_reserved":false,"is_disabled":false,"rental_uris":{"android":"levelo://app?vid=aaf5ba86-58de-460a-adbe-e58e97ba3511","ios":"levelo://app?vid=aaf5ba86-58de-460a-adbe-e58e97ba3511"},"vehicle_type_id":"4","last_reported":1727240966,"current_range_meters":38800,"station_id":"ce4bhgh2rcd13ifvqfa0","pricing_plan_id":"cebpf4jnsgd1na2vs0mg"},{"bike_id":"cefb6643-fc89-4b04-b95f-6cff2759399c","system_id":"levelo_inurba_marseille","lat":43.322936,"lon":5.382744,"is_reserved":false,"is_disabled":false,"rental_uris":{"android":"levelo://app?vid=cefb6643-fc89-4b04-b95f-6cff2759399c","ios":"levelo://app?vid=cefb6643-fc89-4b04-b95f-6cff2759399c"},"vehicle_type_id":"4","last_reported":1727240966,"current_range_meters":38800,"station_id":"ce4bhr12rcd13ifvqhqg","pricing_plan_id":"cebpf4jnsgd1na2vs0mg"},{"bike_id":"30d0f976-3493-4292-92f2-234cb6fef603","system_id":"levelo_inurba_marseille","lat":43.28703,"lon":5.37374,"is_reserved":false,"is_disabled":false,"rental_uris":{"android":"levelo://app?vid=30d0f976-3493-4292-92f2-234cb6fef603","ios":"levelo://app?vid=30d0f976-3493-4292-92f2-234cb6fef603"},"vehicle_type_id":"4","last_reported":1727240966,"current_range_meters":38800,"station_id":"ce4bh3p2rcd13ifvqdq0","pricing_plan_id":"cebpf4jnsgd1na2vs0mg"},{"bike_id":"0e3f3c7a-7614-4ed0-9132-2ee329accc26","system_id":"levelo_inurba_marseille","lat":43.28575,"lon":5.395,"is_reserved":false,"is_disabled":false,"rental_uris":{"android":"levelo://app?vid=0e3f3c7a-7614-4ed0-9132-2ee329accc26","ios":"levelo://app?vid=0e3f3c7a-7614-4ed0-9132-2ee329accc26"},"vehicle_type_id":"4","last_reported":1727240966,"current_range_meters":38800,"station_id":"ce4bh292rcd13ifvqdg0","pricing_plan_id":"cebpf4jnsgd1na2vs0mg"},{"bike_id":"cbbf5a82-4a5f-4bde-a7d9-a7156229dd7b","system_id":"levelo_inurba_marseille","lat":43.31359,"lon":5.385,"is_reserved":false,"is_disabled":false,"rental_uris":{"android":"levelo://app?vid=cbbf5a82-4a5f-4bde-a7d9-a7156229dd7b","ios":"levelo://app?vid=cbbf5a82-4a5f-4bde-a7d9-a7156229dd7b"},"vehicle_type_id":"4","last_reported":1727240966,"current_range_meters":38000,"station_id":"ce4bgt92rcd13ifvqcf0","pricing_plan_id":"cebpf4jnsgd1na2vs0mg"},{"bike_id":"7c690110-259d-4631-8aef-2afd89a33566","system_id":"levelo_inurba_marseille","lat":43.2418,"lon":5.39731,"is_reserved":false,"is_disabled":false,"rental_uris":{"android":"levelo://app?vid=7c690110-259d-4631-8aef-2afd89a33566","ios":"levelo://app?vid=7c690110-259d-4631-8aef-2afd89a33566"},"vehicle_type_id":"4","last_reported":1727240966,"current_range_meters":27600,"station_id":"ce4bhn12rcd13ifvqgpg","pricing_plan_id":"cebpf4jnsgd1na2vs0mg"},{"bike_id":"683f833b-acfe-4dae-91f7-d9ab7a6c472e","system_id":"levelo_inurba_marseille","lat":43.33017,"lon":5.39042,"is_reserved":false,"is_disabled":false,"rental_uris":{"android":"levelo://app?vid=683f833b-acfe-4dae-91f7-d9ab7a6c472e","ios":"levelo://app?vid=683f833b-acfe-4dae-91f7-d9ab7a6c472e"},"vehicle_type_id":"4","last_reported":1727240966,"current_range_meters":38000,"station_id":"ce4bhr92rcd13ifvqhrg","pricing_plan_id":"cebpf4jnsgd1na2vs0mg"},{"bike_id":"25c2da3d-9bb6-48b8-8579-2ff6744c67cb","system_id":"levelo_inurba_marseille","lat":43.23153,"lon":5.43711,"is_reserved":false,"is_disabled":false,"rental_uris":{"android":"levelo://app?vid=25c2da3d-9bb6-48b8-8579-2ff6744c67cb","ios":"levelo://app?vid=25c2da3d-9bb6-48b8-8579-2ff6744c67cb"},"vehicle_type_id":"4","last_reported":1727240966,"current_range_meters":38000,"station_id":"ce4bhmp2rcd13ifvqgog","pricing_plan_id":"cebpf4jnsgd1na2vs0mg"},{"bike_id":"2d4d7a57-fc8d-40a8-a37f-8d0279400743","system_id":"levelo_inurba_marseille","lat":43.24668,"lon":5.38156,"is_reserved":false,"is_disabled":false,"rental_uris":{"android":"levelo://app?vid=2d4d7a57-fc8d-40a8-a37f-8d0279400743","ios":"levelo://app?vid=2d4d7a57-fc8d-40a8-a37f-8d0279400743"},"vehicle_type_id":"4","last_reported":1727240966,"current_range_meters":38800,"station_id":"ce4bhih2rcd13ifvqfr0","pricing_plan_id":"cebpf4jnsgd1na2vs0mg"},{"bike_id":"f8701f40-f79e-46c4-b059-badc9e339852","system_id":"levelo_inurba_marseille","lat":43.30953,"lon":5.39019,"is_reserved":false,"is_disabled":false,"rental_uris":{"android":"levelo://app?vid=f8701f40-f79e-46c4-b059-badc9e339852","ios":"levelo://app?vid=f8701f40-f79e-46c4-b059-badc9e339852"},"vehicle_type_id":"4","last_reported":1727240966,"current_range_meters":38800,"station_id":"ce4bgup2rcd13ifvqco0","pricing_plan_id":"cebpf4jnsgd1na2vs0mg"},{"bike_id":"3588950c-28ee-4bb5-98c0-3e9e6e8a1dce","system_id":"levelo_inurba_marseille","lat":43.27211,"lon":5.39193,"is_reserved":false,"is_disabled":false,"rental_uris":{"android":"levelo://app?vid=3588950c-28ee-4bb5-98c0-3e9e6e8a1dce","ios":"levelo://app?vid=3588950c-28ee-4bb5-98c0-3e9e6e8a1dce"},"vehicle_type_id":"4","last_reported":1727240966,"current_range_meters":37600,"station_id":"ce4bhhp2rcd13ifvqfm0","pricing_plan_id":"cebpf4jnsgd1na2vs0mg"},{"bike_id":"4b15922f-83f6-4b5a-aa5a-91c95d6336f1","system_id":"levelo_inurba_marseille","lat":43.28455,"lon":5.35888,"is_reserved":false,"is_disabled":false,"rental_uris":{"android":"levelo://app?vid=4b15922f-83f6-4b5a-aa5a-91c95d6336f1","ios":"levelo://app?vid=4b15922f-83f6-4b5a-aa5a-91c95d6336f1"},"vehicle_type_id":"4","last_reported":1727240966,"current_range_meters":38800,"station_id":"ce4bhah2rcd13ifvqei0","pricing_plan_id":"cebpf4jnsgd1na2vs0mg"},{"bike_id":"2da24b92-3734-492c-9a6c-8b09da92c194","system_id":"levelo_inurba_marseille","lat":43.337444,"lon":5.374475,"is_reserved":false,"is_disabled":false,"rental_uris":{"android":"levelo://app?vid=2da24b92-3734-492c-9a6c-8b09da92c194","ios":"levelo://app?vid=2da24b92-3734-492c-9a6c-8b09da92c194"},"vehicle_type_id":"4","last_reported":1727240966,"current_range_meters":23200,"station_id":"","pricing_plan_id":"cebpf4jnsgd1na2vs0mg"},{"bike_id":"79a05bb1-ccec-47f0-8ebd-1f95854549f8","system_id":"levelo_inurba_marseille","lat":43.31285,"lon":5.38042,"is_reserved":false,"is_disabled":false,"rental_uris":{"android":"levelo://app?vid=79a05bb1-ccec-47f0-8ebd-1f95854549f8","ios":"levelo://app?vid=79a05bb1-ccec-47f0-8ebd-1f95854549f8"},"vehicle_type_id":"4","last_reported":1727240966,"current_range_meters":12800,"station_id":"","pricing_plan_id":"cebpf4jnsgd1na2vs0mg"},{"bike_id":"82a46f4c-338e-4f2c-bb15-b73bebda5189","system_id":"levelo_inurba_marseille","lat":43.23148,"lon":5.4372,"is_reserved":false,"is_disabled":false,"rental_uris":{"android":"levelo://app?vid=82a46f4c-338e-4f2c-bb15-b73bebda5189","ios":"levelo://app?vid=82a46f4c-338e-4f2c-bb15-b73bebda5189"},"vehicle_type_id":"4","last_reported":1727240966,"current_range_meters":38000,"station_id":"ce4bhmp2rcd13ifvqgog","pricing_plan_id":"cebpf4jnsgd1na2vs0mg"},{"bike_id":"39af98d0-adf0-4182-b86c-567613ebbe09","system_id":"levelo_inurba_marseille","lat":43.31715,"lon":5.43706,"is_reserved":false,"is_disabled":false,"rental_uris":{"android":"levelo://app?vid=39af98d0-adf0-4182-b86c-567613ebbe09","ios":"levelo://app?vid=39af98d0-adf0-4182-b86c-567613ebbe09"},"vehicle_type_id":"4","last_reported":1727240966,"current_range_meters":6800,"station_id":"ce4bhp92rcd13ifvqhcg","pricing_plan_id":"cebpf4jnsgd1na2vs0mg"},{"bike_id":"0e981e2b-b4d6-44ea-93d4-6949f2d7c522","system_id":"levelo_inurba_marseille","lat":43.3093,"lon":5.40153,"is_reserved":false,"is_disabled":false,"rental_uris":{"android":"levelo://app?vid=0e981e2b-b4d6-44ea-93d4-6949f2d7c522","ios":"levelo://app?vid=0e981e2b-b4d6-44ea-93d4-6949f2d7c522"},"vehicle_type_id":"4","last_reported":1727240966,"current_range_meters":36000,"station_id":"ce4bgvp2rcd13ifvqct0","pricing_plan_id":"cebpf4jnsgd1na2vs0mg"},{"bike_id":"e5aa7149-874c-4b88-89db-be0421675415","system_id":"levelo_inurba_marseille","lat":43.28355,"lon":5.38631,"is_reserved":false,"is_disabled":false,"rental_uris":{"android":"levelo://app?vid=e5aa7149-874c-4b88-89db-be0421675415","ios":"levelo://app?vid=e5aa7149-874c-4b88-89db-be0421675415"},"vehicle_type_id":"4","last_reported":1727240966,"current_range_meters":38800,"station_id":"ce4bh492rcd13ifvqdvg","pricing_plan_id":"cebpf4jnsgd1na2vs0mg"},{"bike_id":"b61a132a-aee1-401b-bee2-bea3284c509f","system_id":"levelo_inurba_marseille","lat":43.26567,"lon":5.39007,"is_reserved":false,"is_disabled":false,"rental_uris":{"android":"levelo://app?vid=b61a132a-aee1-401b-bee2-bea3284c509f","ios":"levelo://app?vid=b61a132a-aee1-401b-bee2-bea3284c509f"},"vehicle_type_id":"4","last_reported":1727240966,"current_range_meters":40000,"station_id":"ce4bhe12rcd13ifvqf30","pricing_plan_id":"cebpf4jnsgd1na2vs0mg"},{"bike_id":"48fb61fa-a50c-4c50-90c6-dcaf2a474b29","system_id":"levelo_inurba_marseille","lat":43.29805,"lon":5.40412,"is_reserved":false,"is_disabled":false,"rental_uris":{"android":"levelo://app?vid=48fb61fa-a50c-4c50-90c6-dcaf2a474b29","ios":"levelo://app?vid=48fb61fa-a50c-4c50-90c6-dcaf2a474b29"},"vehicle_type_id":"4","last_reported":1727240966,"current_range_meters":38800,"station_id":"ce4bh112rcd13ifvqd90","pricing_plan_id":"cebpf4jnsgd1na2vs0mg"},{"bike_id":"4191bab8-8b49-4083-a41a-88c5392fc7e3","system_id":"levelo_inurba_marseille","lat":43.30656,"lon":5.40075,"is_reserved":false,"is_disabled":false,"rental_uris":{"android":"levelo://app?vid=4191bab8-8b49-4083-a41a-88c5392fc7e3","ios":"levelo://app?vid=4191bab8-8b49-4083-a41a-88c5392fc7e3"},"vehicle_type_id":"4","last_reported":1727240966,"current_range_meters":36400,"station_id":"ce4bh112rcd13ifvqda0","pricing_plan_id":"cebpf4jnsgd1na2vs0mg"},{"bike_id":"5655e961-dde7-4df9-bce3-446271a3c33e","system_id":"levelo_inurba_marseille","lat":43.27073,"lon":5.42279,"is_reserved":false,"is_disabled":false,"rental_uris":{"android":"levelo://app?vid=5655e961-dde7-4df9-bce3-446271a3c33e","ios":"levelo://app?vid=5655e961-dde7-4df9-bce3-446271a3c33e"},"vehicle_type_id":"4","last_reported":1727240966,"current_range_meters":38400,"station_id":"ce4bhk92rcd13ifvqgb0","pricing_plan_id":"cebpf4jnsgd1na2vs0mg"},{"bike_id":"f61740c6-cc03-47eb-8072-b4d8729e922f","system_id":"levelo_inurba_marseille","lat":43.31083,"lon":5.42432,"is_reserved":false,"is_disabled":false,"rental_uris":{"android":"levelo://app?vid=f61740c6-cc03-47eb-8072-b4d8729e922f","ios":"levelo://app?vid=f61740c6-cc03-47eb-8072-b4d8729e922f"},"vehicle_type_id":"4","last_reported":1727240966,"current_range_meters":38000,"station_id":"ce4bhp92rcd13ifvqhag","pricing_plan_id":"cebpf4jnsgd1na2vs0mg"},{"bike_id":"2e2de685-4ec7-4511-82d2-40bbdf2d487e","system_id":"levelo_inurba_marseille","lat":43.24551,"lon":5.39525,"is_reserved":false,"is_disabled":false,"rental_uris":{"android":"levelo://app?vid=2e2de685-4ec7-4511-82d2-40bbdf2d487e","ios":"levelo://app?vid=2e2de685-4ec7-4511-82d2-40bbdf2d487e"},"vehicle_type_id":"4","last_reported":1727240966,"current_range_meters":38800,"station_id":"ce4bhlp2rcd13ifvqgjg","pricing_plan_id":"cebpf4jnsgd1na2vs0mg"},{"bike_id":"22901ff8-312e-4868-9a6f-fc35f382462a","system_id":"levelo_inurba_marseille","lat":43.28702,"lon":5.39984,"is_reserved":false,"is_disabled":false,"rental_uris":{"android":"levelo://app?vid=22901ff8-312e-4868-9a6f-fc35f382462a","ios":"levelo://app?vid=22901ff8-312e-4868-9a6f-fc35f382462a"},"vehicle_type_id":"4","last_reported":1727240966,"current_range_meters":36400,"station_id":"ce4bho92rcd13ifvqh3g","pricing_plan_id":"cebpf4jnsgd1na2vs0mg"},{"bike_id":"ac0019e9-ee5b-4377-95bc-765dea66f357","system_id":"levelo_inurba_marseille","lat":43.27997,"lon":5.41659,"is_reserved":false,"is_disabled":false,"rental_uris":{"android":"levelo://app?vid=ac0019e9-ee5b-4377-95bc-765dea66f357","ios":"levelo://app?vid=ac0019e9-ee5b-4377-95bc-765dea66f357"},"vehicle_type_id":"4","last_reported":1727240966,"current_range_meters":37600,"station_id":"ce4bho12rcd13ifvqh1g","pricing_plan_id":"cebpf4jnsgd1na2vs0mg"},{"bike_id":"ffb97514-2c6c-43a9-850b-1f869fc0c44e","system_id":"levelo_inurba_marseille","lat":43.23192,"lon":5.35558,"is_reserved":false,"is_disabled":false,"rental_uris":{"android":"levelo://app?vid=ffb97514-2c6c-43a9-850b-1f869fc0c44e","ios":"levelo://app?vid=ffb97514-2c6c-43a9-850b-1f869fc0c44e"},"vehicle_type_id":"4","last_reported":1727240966,"current_range_meters":36800,"station_id":"ce4bhu92rcd13ifvqi70","pricing_plan_id":"cebpf4jnsgd1na2vs0mg"},{"bike_id":"ecb70881-b110-48a8-b751-24b4690d4031","system_id":"levelo_inurba_marseille","lat":43.23186,"lon":5.39987,"is_reserved":false,"is_disabled":false,"rental_uris":{"android":"levelo://app?vid=ecb70881-b110-48a8-b751-24b4690d4031","ios":"levelo://app?vid=ecb70881-b110-48a8-b751-24b4690d4031"},"vehicle_type_id":"4","last_reported":1727240966,"current_range_meters":8400,"station_id":"ce4bhn12rcd13ifvqgqg","pricing_plan_id":"cebpf4jnsgd1na2vs0mg"},{"bike_id":"e3046e3c-5da8-41cb-851c-e7e35da85d05","system_id":"levelo_inurba_marseille","lat":43.28615,"lon":5.35102,"is_reserved":false,"is_disabled":false,"rental_uris":{"android":"levelo://app?vid=e3046e3c-5da8-41cb-851c-e7e35da85d05","ios":"levelo://app?vid=e3046e3c-5da8-41cb-851c-e7e35da85d05"},"vehicle_type_id":"4","last_reported":1727240966,"current_range_meters":38800,"station_id":"ce4bhch2rcd13ifvqeug","pricing_plan_id":"cebpf4jnsgd1na2vs0mg"},{"bike_id":"d84e9818-d585-45e3-b58c-b7a1c2eb0e6c","system_id":"levelo_inurba_marseille","lat":43.30871,"lon":5.39637,"is_reserved":false,"is_disabled":false,"rental_uris":{"android":"levelo://app?vid=d84e9818-d585-45e3-b58c-b7a1c2eb0e6c","ios":"levelo://app?vid=d84e9818-d585-45e3-b58c-b7a1c2eb0e6c"},"vehicle_type_id":"4","last_reported":1727240966,"current_range_meters":7200,"station_id":"ce4bh012rcd13ifvqcv0","pricing_plan_id":"cebpf4jnsgd1na2vs0mg"},{"bike_id":"25bd7405-be80-4a77-a761-8a1efed52652","system_id":"levelo_inurba_marseille","lat":43.29896,"lon":5.43666,"is_reserved":false,"is_disabled":false,"rental_uris":{"android":"levelo://app?vid=25bd7405-be80-4a77-a761-8a1efed52652","ios":"levelo://app?vid=25bd7405-be80-4a77-a761-8a1efed52652"},"vehicle_type_id":"4","last_reported":1727240966,"current_range_meters":38800,"station_id":"ce4bhpp2rcd13ifvqhfg","pricing_plan_id":"cebpf4jnsgd1na2vs0mg"},{"bike_id":"2fe2c0de-08ff-45d0-a649-6b26bff02b66","system_id":"levelo_inurba_marseille","lat":43.28088,"lon":5.39666,"is_reserved":false,"is_disabled":false,"rental_uris":{"android":"levelo://app?vid=2fe2c0de-08ff-45d0-a649-6b26bff02b66","ios":"levelo://app?vid=2fe2c0de-08ff-45d0-a649-6b26bff02b66"},"vehicle_type_id":"4","last_reported":1727240966,"current_range_meters":36800,"station_id":"ce4bho12rcd13ifvqh2g","pricing_plan_id":"cebpf4jnsgd1na2vs0mg"},{"bike_id":"11c4f5be-b465-471a-b3d0-dbbc3061010b","system_id":"levelo_inurba_marseille","lat":43.308,"lon":5.43526,"is_reserved":false,"is_disabled":false,"rental_uris":{"android":"levelo://app?vid=11c4f5be-b465-471a-b3d0-dbbc3061010b","ios":"levelo://app?vid=11c4f5be-b465-471a-b3d0-dbbc3061010b"},"vehicle_type_id":"4","last_reported":1727240966,"current_range_meters":38800,"station_id":"ce4bhph2rcd13ifvqheg","pricing_plan_id":"cebpf4jnsgd1na2vs0mg"},{"bike_id":"b892d38d-6036-48c1-8333-338a8ccecbdd","system_id":"levelo_inurba_marseille","lat":43.31276,"lon":5.40163,"is_reserved":false,"is_disabled":false,"rental_uris":{"android":"levelo://app?vid=b892d38d-6036-48c1-8333-338a8ccecbdd","ios":"levelo://app?vid=b892d38d-6036-48c1-8333-338a8ccecbdd"},"vehicle_type_id":"4","last_reported":1727240966,"current_range_meters":38400,"station_id":"ce4bh092rcd13ifvqd30","pricing_plan_id":"cebpf4jnsgd1na2vs0mg"},{"bike_id":"162ee78d-83e3-4081-92bd-328649d7b4ba","system_id":"levelo_inurba_marseille","lat":43.31758,"lon":5.39012,"is_reserved":false,"is_disabled":false,"rental_uris":{"android":"levelo://app?vid=162ee78d-83e3-4081-92bd-328649d7b4ba","ios":"levelo://app?vid=162ee78d-83e3-4081-92bd-328649d7b4ba"},"vehicle_type_id":"4","last_reported":1727240966,"current_range_meters":8800,"station_id":"ce4bhqp2rcd13ifvqhng","pricing_plan_id":"cebpf4jnsgd1na2vs0mg"},{"bike_id":"d3698456-df2c-49c7-b5fc-c35aab699e54","system_id":"levelo_inurba_marseille","lat":43.26688,"lon":5.38273,"is_reserved":false,"is_disabled":false,"rental_uris":{"android":"levelo://app?vid=d3698456-df2c-49c7-b5fc-c35aab699e54","ios":"levelo://app?vid=d3698456-df2c-49c7-b5fc-c35aab699e54"},"vehicle_type_id":"4","last_reported":1727240966,"current_range_meters":36400,"station_id":"ce4bhg92rcd13ifvqf90","pricing_plan_id":"cebpf4jnsgd1na2vs0mg"},{"bike_id":"f6275728-f078-4fe3-a4cc-467a5a2ab004","system_id":"levelo_inurba_marseille","lat":43.31478,"lon":5.36947,"is_reserved":false,"is_disabled":false,"rental_uris":{"android":"levelo://app?vid=f6275728-f078-4fe3-a4cc-467a5a2ab004","ios":"levelo://app?vid=f6275728-f078-4fe3-a4cc-467a5a2ab004"},"vehicle_type_id":"4","last_reported":1727240966,"current_range_meters":36400,"station_id":"","pricing_plan_id":"cebpf4jnsgd1na2vs0mg"},{"bike_id":"c7ef48a1-c091-4bd1-8005-cb0f802fe2ef","system_id":"levelo_inurba_marseille","lat":43.28662,"lon":5.36356,"is_reserved":false,"is_disabled":false,"rental_uris":{"android":"levelo://app?vid=c7ef48a1-c091-4bd1-8005-cb0f802fe2ef","ios":"levelo://app?vid=c7ef48a1-c091-4bd1-8005-cb0f802fe2ef"},"vehicle_type_id":"4","last_reported":1727240966,"current_range_meters":38000,"station_id":"ce4bhah2rcd13ifvqej0","pricing_plan_id":"cebpf4jnsgd1na2vs0mg"},{"bike_id":"eea2cd5a-ea70-49e4-b38f-c464fb6c5cc3","system_id":"levelo_inurba_marseille","lat":43.337444,"lon":5.374475,"is_reserved":false,"is_disabled":false,"rental_uris":{"android":"levelo://app?vid=eea2cd5a-ea70-49e4-b38f-c464fb6c5cc3","ios":"levelo://app?vid=eea2cd5a-ea70-49e4-b38f-c464fb6c5cc3"},"vehicle_type_id":"4","last_reported":1727240966,"current_range_meters":31200,"station_id":"","pricing_plan_id":"cebpf4jnsgd1na2vs0mg"},{"bike_id":"78830658-63e5-44c9-9a87-ee5ae2f9546d","system_id":"levelo_inurba_marseille","lat":43.30936,"lon":5.4015,"is_reserved":false,"is_disabled":false,"rental_uris":{"android":"levelo://app?vid=78830658-63e5-44c9-9a87-ee5ae2f9546d","ios":"levelo://app?vid=78830658-63e5-44c9-9a87-ee5ae2f9546d"},"vehicle_type_id":"4","last_reported":1727240966,"current_range_meters":35200,"station_id":"ce4bgvp2rcd13ifvqct0","pricing_plan_id":"cebpf4jnsgd1na2vs0mg"},{"bike_id":"20e3adcb-b98e-452e-953e-8b86c4676957","system_id":"levelo_inurba_marseille","lat":43.30419,"lon":5.39757,"is_reserved":false,"is_disabled":false,"rental_uris":{"android":"levelo://app?vid=20e3adcb-b98e-452e-953e-8b86c4676957","ios":"levelo://app?vid=20e3adcb-b98e-452e-953e-8b86c4676957"},"vehicle_type_id":"4","last_reported":1727240966,"current_range_meters":38000,"station_id":"ce4bh092rcd13ifvqd20","pricing_plan_id":"cebpf4jnsgd1na2vs0mg"},{"bike_id":"87219a8f-0882-4b10-b887-bde676d43338","system_id":"levelo_inurba_marseille","lat":43.31327,"lon":5.39697,"is_reserved":false,"is_disabled":false,"rental_uris":{"android":"levelo://app?vid=87219a8f-0882-4b10-b887-bde676d43338","ios":"levelo://app?vid=87219a8f-0882-4b10-b887-bde676d43338"},"vehicle_type_id":"4","last_reported":1727240966,"current_range_meters":38400,"station_id":"ce4bgvp2rcd13ifvqcu0","pricing_plan_id":"cebpf4jnsgd1na2vs0mg"},{"bike_id":"9a956495-97f1-4caa-a970-dab6d313b018","system_id":"levelo_inurba_marseille","lat":43.28663,"lon":5.3635,"is_reserved":false,"is_disabled":false,"rental_uris":{"android":"levelo://app?vid=9a956495-97f1-4caa-a970-dab6d313b018","ios":"levelo://app?vid=9a956495-97f1-4caa-a970-dab6d313b018"},"vehicle_type_id":"4","last_reported":1727240966,"current_range_meters":38400,"station_id":"ce4bhah2rcd13ifvqej0","pricing_plan_id":"cebpf4jnsgd1na2vs0mg"},{"bike_id":"53813adf-3206-4054-9f9a-cc1c613d6660","system_id":"levelo_inurba_marseille","lat":43.2991,"lon":5.3815,"is_reserved":false,"is_disabled":false,"rental_uris":{"android":"levelo://app?vid=53813adf-3206-4054-9f9a-cc1c613d6660","ios":"levelo://app?vid=53813adf-3206-4054-9f9a-cc1c613d6660"},"vehicle_type_id":"4","last_reported":1727240966,"current_range_meters":35600,"station_id":"ce4bgj12rcd13ifvqbc0","pricing_plan_id":"cebpf4jnsgd1na2vs0mg"},{"bike_id":"e5accd9d-24b1-48a2-85dd-636c889e71c1","system_id":"levelo_inurba_marseille","lat":43.31535,"lon":5.38028,"is_reserved":false,"is_disabled":false,"rental_uris":{"android":"levelo://app?vid=e5accd9d-24b1-48a2-85dd-636c889e71c1","ios":"levelo://app?vid=e5accd9d-24b1-48a2-85dd-636c889e71c1"},"vehicle_type_id":"4","last_reported":1727240966,"current_range_meters":7200,"station_id":"ce4bhsp2rcd13ifvqi50","pricing_plan_id":"cebpf4jnsgd1na2vs0mg"},{"bike_id":"159c7209-adf4-460b-b550-6277c6e03ee2","system_id":"levelo_inurba_marseille","lat":43.24389,"lon":5.37057,"is_reserved":false,"is_disabled":false,"rental_uris":{"android":"levelo://app?vid=159c7209-adf4-460b-b550-6277c6e03ee2","ios":"levelo://app?vid=159c7209-adf4-460b-b550-6277c6e03ee2"},"vehicle_type_id":"4","last_reported":1727240966,"current_range_meters":39200,"station_id":"ce4bhhh2rcd13ifvqfk0","pricing_plan_id":"cebpf4jnsgd1na2vs0mg"},{"bike_id":"19eb3182-6fa3-422b-a570-2c6afa42ac1b","system_id":"levelo_inurba_marseille","lat":43.30213,"lon":5.39472,"is_reserved":false,"is_disabled":false,"rental_uris":{"android":"levelo://app?vid=19eb3182-6fa3-422b-a570-2c6afa42ac1b","ios":"levelo://app?vid=19eb3182-6fa3-422b-a570-2c6afa42ac1b"},"vehicle_type_id":"4","last_reported":1727240966,"current_range_meters":38000,"station_id":"ce4bh0p2rcd13ifvqd70","pricing_plan_id":"cebpf4jnsgd1na2vs0mg"},{"bike_id":"f4f9f7b1-0483-4614-a717-c97a58bb909c","system_id":"levelo_inurba_marseille","lat":43.31494,"lon":5.37301,"is_reserved":false,"is_disabled":false,"rental_uris":{"android":"levelo://app?vid=f4f9f7b1-0483-4614-a717-c97a58bb909c","ios":"levelo://app?vid=f4f9f7b1-0483-4614-a717-c97a58bb909c"},"vehicle_type_id":"4","last_reported":1727240966,"current_range_meters":38400,"station_id":"ce4bgt12rcd13ifvqcd0","pricing_plan_id":"cebpf4jnsgd1na2vs0mg"},{"bike_id":"1802deb5-1c46-4f67-afa3-157e0fdc0220","system_id":"levelo_inurba_marseille","lat":43.27818,"lon":5.40722,"is_reserved":false,"is_disabled":false,"rental_uris":{"android":"levelo://app?vid=1802deb5-1c46-4f67-afa3-157e0fdc0220","ios":"levelo://app?vid=1802deb5-1c46-4f67-afa3-157e0fdc0220"},"vehicle_type_id":"4","last_reported":1727240966,"current_range_meters":25600,"station_id":"ce4bhnh2rcd13ifvqgtg","pricing_plan_id":"cebpf4jnsgd1na2vs0mg"},{"bike_id":"dfe32337-5477-4d13-b779-0f65d4ea694b","system_id":"levelo_inurba_marseille","lat":43.27968,"lon":5.38747,"is_reserved":false,"is_disabled":false,"rental_uris":{"android":"levelo://app?vid=dfe32337-5477-4d13-b779-0f65d4ea694b","ios":"levelo://app?vid=dfe32337-5477-4d13-b779-0f65d4ea694b"},"vehicle_type_id":"4","last_reported":1727240966,"current_range_meters":38400,"station_id":"ce4bhg12rcd13ifvqf80","pricing_plan_id":"cebpf4jnsgd1na2vs0mg"},{"bike_id":"0a05535b-d396-4b04-b65d-6bef37a5af61","system_id":"levelo_inurba_marseille","lat":43.31698,"lon":5.4047,"is_reserved":false,"is_disabled":false,"rental_uris":{"android":"levelo://app?vid=0a05535b-d396-4b04-b65d-6bef37a5af61","ios":"levelo://app?vid=0a05535b-d396-4b04-b65d-6bef37a5af61"},"vehicle_type_id":"4","last_reported":1727240966,"current_range_meters":13600,"station_id":"ce4bh012rcd13ifvqd00","pricing_plan_id":"cebpf4jnsgd1na2vs0mg"},{"bike_id":"bf934032-88ce-4fc2-af2a-7aa654b14d36","system_id":"levelo_inurba_marseille","lat":43.24547,"lon":5.39524,"is_reserved":false,"is_disabled":false,"rental_uris":{"android":"levelo://app?vid=bf934032-88ce-4fc2-af2a-7aa654b14d36","ios":"levelo://app?vid=bf934032-88ce-4fc2-af2a-7aa654b14d36"},"vehicle_type_id":"4","last_reported":1727240966,"current_range_meters":12000,"station_id":"ce4bhlp2rcd13ifvqgjg","pricing_plan_id":"cebpf4jnsgd1na2vs0mg"},{"bike_id":"7d1c5f24-b2c4-4b39-a45e-5cd31c748af9","system_id":"levelo_inurba_marseille","lat":43.32481,"lon":5.36574,"is_reserved":false,"is_disabled":false,"rental_uris":{"android":"levelo://app?vid=7d1c5f24-b2c4-4b39-a45e-5cd31c748af9","ios":"levelo://app?vid=7d1c5f24-b2c4-4b39-a45e-5cd31c748af9"},"vehicle_type_id":"4","last_reported":1727240966,"current_range_meters":28000,"station_id":"ce4bhs12rcd13ifvqhvg","pricing_plan_id":"cebpf4jnsgd1na2vs0mg"},{"bike_id":"4b3f338b-df24-42af-b85a-4f54f291a067","system_id":"levelo_inurba_marseille","lat":43.30807,"lon":5.38146,"is_reserved":false,"is_disabled":false,"rental_uris":{"android":"levelo://app?vid=4b3f338b-df24-42af-b85a-4f54f291a067","ios":"levelo://app?vid=4b3f338b-df24-42af-b85a-4f54f291a067"},"vehicle_type_id":"4","last_reported":1727240966,"current_range_meters":34800,"station_id":"ce4bgt12rcd13ifvqce0","pricing_plan_id":"cebpf4jnsgd1na2vs0mg"},{"bike_id":"38b9137b-051b-4411-81de-0e8e6838472b","system_id":"levelo_inurba_marseille","lat":43.28941,"lon":5.3962,"is_reserved":false,"is_disabled":false,"rental_uris":{"android":"levelo://app?vid=38b9137b-051b-4411-81de-0e8e6838472b","ios":"levelo://app?vid=38b9137b-051b-4411-81de-0e8e6838472b"},"vehicle_type_id":"4","last_reported":1727240966,"current_range_meters":38800,"station_id":"ce4bh3h2rcd13ifvqdn0","pricing_plan_id":"cebpf4jnsgd1na2vs0mg"},{"bike_id":"2f958106-65b2-4b11-96aa-7adfd054d7e7","system_id":"levelo_inurba_marseille","lat":43.29257,"lon":5.40911,"is_reserved":false,"is_disabled":false,"rental_uris":{"android":"levelo://app?vid=2f958106-65b2-4b11-96aa-7adfd054d7e7","ios":"levelo://app?vid=2f958106-65b2-4b11-96aa-7adfd054d7e7"},"vehicle_type_id":"4","last_reported":1727240966,"current_range_meters":35600,"station_id":"ce4bh192rcd13ifvqdc0","pricing_plan_id":"cebpf4jnsgd1na2vs0mg"},{"bike_id":"da68e3bc-fd0d-4595-903c-86471f65e948","system_id":"levelo_inurba_marseille","lat":43.28939,"lon":5.36399,"is_reserved":false,"is_disabled":false,"rental_uris":{"android":"levelo://app?vid=da68e3bc-fd0d-4595-903c-86471f65e948","ios":"levelo://app?vid=da68e3bc-fd0d-4595-903c-86471f65e948"},"vehicle_type_id":"4","last_reported":1727240966,"current_range_meters":38800,"station_id":"ce4bhc92rcd13ifvqetg","pricing_plan_id":"cebpf4jnsgd1na2vs0mg"},{"bike_id":"27daae29-2876-4b3c-862a-220758b1a12b","system_id":"levelo_inurba_marseille","lat":43.26033,"lon":5.37545,"is_reserved":false,"is_disabled":false,"rental_uris":{"android":"levelo://app?vid=27daae29-2876-4b3c-862a-220758b1a12b","ios":"levelo://app?vid=27daae29-2876-4b3c-862a-220758b1a12b"},"vehicle_type_id":"4","last_reported":1727240966,"current_range_meters":38400,"station_id":"ce4bhgh2rcd13ifvqfa0","pricing_plan_id":"cebpf4jnsgd1na2vs0mg"},{"bike_id":"52a427ad-d04a-4d42-9050-c1e989804020","system_id":"levelo_inurba_marseille","lat":43.24663,"lon":5.38165,"is_reserved":false,"is_disabled":false,"rental_uris":{"android":"levelo://app?vid=52a427ad-d04a-4d42-9050-c1e989804020","ios":"levelo://app?vid=52a427ad-d04a-4d42-9050-c1e989804020"},"vehicle_type_id":"4","last_reported":1727240966,"current_range_meters":25600,"station_id":"ce4bhih2rcd13ifvqfr0","pricing_plan_id":"cebpf4jnsgd1na2vs0mg"},{"bike_id":"397e60cd-518e-45d9-b777-841ba7141791","system_id":"levelo_inurba_marseille","lat":43.31328,"lon":5.40232,"is_reserved":false,"is_disabled":false,"rental_uris":{"android":"levelo://app?vid=397e60cd-518e-45d9-b777-841ba7141791","ios":"levelo://app?vid=397e60cd-518e-45d9-b777-841ba7141791"},"vehicle_type_id":"4","last_reported":1727240966,"current_range_meters":27200,"station_id":"","pricing_plan_id":"cebpf4jnsgd1na2vs0mg"},{"bike_id":"cf7ac539-f4dc-4e1f-b039-53aef50a1a09","system_id":"levelo_inurba_marseille","lat":43.31271,"lon":5.4017,"is_reserved":false,"is_disabled":false,"rental_uris":{"android":"levelo://app?vid=cf7ac539-f4dc-4e1f-b039-53aef50a1a09","ios":"levelo://app?vid=cf7ac539-f4dc-4e1f-b039-53aef50a1a09"},"vehicle_type_id":"4","last_reported":1727240966,"current_range_meters":38000,"station_id":"ce4bh092rcd13ifvqd30","pricing_plan_id":"cebpf4jnsgd1na2vs0mg"},{"bike_id":"768f3444-0576-4344-a883-b7b1b167cbfb","system_id":"levelo_inurba_marseille","lat":43.28082,"lon":5.39647,"is_reserved":false,"is_disabled":false,"rental_uris":{"android":"levelo://app?vid=768f3444-0576-4344-a883-b7b1b167cbfb","ios":"levelo://app?vid=768f3444-0576-4344-a883-b7b1b167cbfb"},"vehicle_type_id":"4","last_reported":1727240966,"current_range_meters":37600,"station_id":"ce4bho12rcd13ifvqh2g","pricing_plan_id":"cebpf4jnsgd1na2vs0mg"},{"bike_id":"57757cf2-b971-443b-97a6-6c791a375948","system_id":"levelo_inurba_marseille","lat":43.28252,"lon":5.43024,"is_reserved":false,"is_disabled":false,"rental_uris":{"android":"levelo://app?vid=57757cf2-b971-443b-97a6-6c791a375948","ios":"levelo://app?vid=57757cf2-b971-443b-97a6-6c791a375948"},"vehicle_type_id":"4","last_reported":1727240966,"current_range_meters":24800,"station_id":"","pricing_plan_id":"cebpf4jnsgd1na2vs0mg"},{"bike_id":"adcd9b3c-e165-4d80-a5ba-b64db630aec3","system_id":"levelo_inurba_marseille","lat":43.27612,"lon":5.36118,"is_reserved":false,"is_disabled":false,"rental_uris":{"android":"levelo://app?vid=adcd9b3c-e165-4d80-a5ba-b64db630aec3","ios":"levelo://app?vid=adcd9b3c-e165-4d80-a5ba-b64db630aec3"},"vehicle_type_id":"4","last_reported":1727240966,"current_range_meters":38800,"station_id":"ce4bgj92rcd13ifvqbe0","pricing_plan_id":"cebpf4jnsgd1na2vs0mg"},{"bike_id":"73d06c40-68ea-41b9-8233-ccd164ab434b","system_id":"levelo_inurba_marseille","lat":43.24546,"lon":5.39526,"is_reserved":false,"is_disabled":false,"rental_uris":{"android":"levelo://app?vid=73d06c40-68ea-41b9-8233-ccd164ab434b","ios":"levelo://app?vid=73d06c40-68ea-41b9-8233-ccd164ab434b"},"vehicle_type_id":"4","last_reported":1727240966,"current_range_meters":36000,"station_id":"ce4bhlp2rcd13ifvqgjg","pricing_plan_id":"cebpf4jnsgd1na2vs0mg"},{"bike_id":"d9b188bc-cf8f-48bb-b89c-6b15d658fb12","system_id":"levelo_inurba_marseille","lat":43.32482,"lon":5.36551,"is_reserved":false,"is_disabled":false,"rental_uris":{"android":"levelo://app?vid=d9b188bc-cf8f-48bb-b89c-6b15d658fb12","ios":"levelo://app?vid=d9b188bc-cf8f-48bb-b89c-6b15d658fb12"},"vehicle_type_id":"4","last_reported":1727240966,"current_range_meters":38800,"station_id":"ce4bhs12rcd13ifvqhvg","pricing_plan_id":"cebpf4jnsgd1na2vs0mg"},{"bike_id":"73e7f655-b2b9-4127-a50c-dc2251f994d0","system_id":"levelo_inurba_marseille","lat":43.28774,"lon":5.39694,"is_reserved":false,"is_disabled":false,"rental_uris":{"android":"levelo://app?vid=73e7f655-b2b9-4127-a50c-dc2251f994d0","ios":"levelo://app?vid=73e7f655-b2b9-4127-a50c-dc2251f994d0"},"vehicle_type_id":"4","last_reported":1727240966,"current_range_meters":36800,"station_id":"","pricing_plan_id":"cebpf4jnsgd1na2vs0mg"},{"bike_id":"c10c9bd4-7738-405a-a39d-7c50632fb673","system_id":"levelo_inurba_marseille","lat":43.24662,"lon":5.38162,"is_reserved":false,"is_disabled":false,"rental_uris":{"android":"levelo://app?vid=c10c9bd4-7738-405a-a39d-7c50632fb673","ios":"levelo://app?vid=c10c9bd4-7738-405a-a39d-7c50632fb673"},"vehicle_type_id":"4","last_reported":1727240966,"current_range_meters":30800,"station_id":"ce4bhih2rcd13ifvqfr0","pricing_plan_id":"cebpf4jnsgd1na2vs0mg"},{"bike_id":"02ab7362-2b7f-4383-a176-abcd0062a076","system_id":"levelo_inurba_marseille","lat":43.292583,"lon":5.409109,"is_reserved":false,"is_disabled":false,"rental_uris":{"android":"levelo://app?vid=02ab7362-2b7f-4383-a176-abcd0062a076","ios":"levelo://app?vid=02ab7362-2b7f-4383-a176-abcd0062a076"},"vehicle_type_id":"4","last_reported":1727240966,"current_range_meters":33200,"station_id":"ce4bh192rcd13ifvqdc0","pricing_plan_id":"cebpf4jnsgd1na2vs0mg"},{"bike_id":"c7e22312-b0fb-45ac-af8a-e326e3594649","system_id":"levelo_inurba_marseille","lat":43.31172,"lon":5.38708,"is_reserved":false,"is_disabled":false,"rental_uris":{"android":"levelo://app?vid=c7e22312-b0fb-45ac-af8a-e326e3594649","ios":"levelo://app?vid=c7e22312-b0fb-45ac-af8a-e326e3594649"},"vehicle_type_id":"4","last_reported":1727240966,"current_range_meters":36800,"station_id":"ce4bgv12rcd13ifvqcp0","pricing_plan_id":"cebpf4jnsgd1na2vs0mg"},{"bike_id":"ff66e0b8-4fad-4627-a08b-582231462ca4","system_id":"levelo_inurba_marseille","lat":43.28435,"lon":5.3919,"is_reserved":false,"is_disabled":false,"rental_uris":{"android":"levelo://app?vid=ff66e0b8-4fad-4627-a08b-582231462ca4","ios":"levelo://app?vid=ff66e0b8-4fad-4627-a08b-582231462ca4"},"vehicle_type_id":"4","last_reported":1727240966,"current_range_meters":38800,"station_id":"ce4bhoh2rcd13ifvqh5g","pricing_plan_id":"cebpf4jnsgd1na2vs0mg"},{"bike_id":"e1f4db85-8c1b-498d-b286-5ef90a0358de","system_id":"levelo_inurba_marseille","lat":43.28347,"lon":5.38106,"is_reserved":false,"is_disabled":false,"rental_uris":{"android":"levelo://app?vid=e1f4db85-8c1b-498d-b286-5ef90a0358de","ios":"levelo://app?vid=e1f4db85-8c1b-498d-b286-5ef90a0358de"},"vehicle_type_id":"4","last_reported":1727240966,"current_range_meters":38400,"station_id":"ce4bh412rcd13ifvqdr0","pricing_plan_id":"cebpf4jnsgd1na2vs0mg"},{"bike_id":"b0d3516a-5b28-4d8a-ad9c-d515349f42a7","system_id":"levelo_inurba_marseille","lat":43.306,"lon":5.3936,"is_reserved":false,"is_disabled":false,"rental_uris":{"android":"levelo://app?vid=b0d3516a-5b28-4d8a-ad9c-d515349f42a7","ios":"levelo://app?vid=b0d3516a-5b28-4d8a-ad9c-d515349f42a7"},"vehicle_type_id":"4","last_reported":1727240966,"current_range_meters":38400,"station_id":"ce4bh0p2rcd13ifvqd80","pricing_plan_id":"cebpf4jnsgd1na2vs0mg"},{"bike_id":"5459e5dd-02cf-41c0-a77a-9053bdc92a78","system_id":"levelo_inurba_marseille","lat":43.30801,"lon":5.4352,"is_reserved":false,"is_disabled":false,"rental_uris":{"android":"levelo://app?vid=5459e5dd-02cf-41c0-a77a-9053bdc92a78","ios":"levelo://app?vid=5459e5dd-02cf-41c0-a77a-9053bdc92a78"},"vehicle_type_id":"4","last_reported":1727240966,"current_range_meters":8000,"station_id":"ce4bhph2rcd13ifvqheg","pricing_plan_id":"cebpf4jnsgd1na2vs0mg"},{"bike_id":"d398706b-2e79-471e-bd1b-b0550663fdb2","system_id":"levelo_inurba_marseille","lat":43.2795,"lon":5.41049,"is_reserved":false,"is_disabled":false,"rental_uris":{"android":"levelo://app?vid=d398706b-2e79-471e-bd1b-b0550663fdb2","ios":"levelo://app?vid=d398706b-2e79-471e-bd1b-b0550663fdb2"},"vehicle_type_id":"4","last_reported":1727240966,"current_range_meters":5600,"station_id":"ce4bhnp2rcd13ifvqh0g","pricing_plan_id":"cebpf4jnsgd1na2vs0mg"},{"bike_id":"68c4e6d4-6b39-4f75-af01-20d8ee3eeed3","system_id":"levelo_inurba_marseille","lat":43.31707,"lon":5.37755,"is_reserved":false,"is_disabled":false,"rental_uris":{"android":"levelo://app?vid=68c4e6d4-6b39-4f75-af01-20d8ee3eeed3","ios":"levelo://app?vid=68c4e6d4-6b39-4f75-af01-20d8ee3eeed3"},"vehicle_type_id":"4","last_reported":1727240966,"current_range_meters":25600,"station_id":"ce4bgth2rcd13ifvqch0","pricing_plan_id":"cebpf4jnsgd1na2vs0mg"},{"bike_id":"77e358fb-08c5-469a-840a-7abc3592ad84","system_id":"levelo_inurba_marseille","lat":43.2929,"lon":5.3745,"is_reserved":false,"is_disabled":false,"rental_uris":{"android":"levelo://app?vid=77e358fb-08c5-469a-840a-7abc3592ad84","ios":"levelo://app?vid=77e358fb-08c5-469a-840a-7abc3592ad84"},"vehicle_type_id":"4","last_reported":1727240966,"current_range_meters":17600,"station_id":"ce4bgi12rcd13ifvqb70","pricing_plan_id":"cebpf4jnsgd1na2vs0mg"},{"bike_id":"9fd8e932-0bbe-45a7-a9ac-3aa157bc97f4","system_id":"levelo_inurba_marseille","lat":43.27374,"lon":5.36259,"is_reserved":false,"is_disabled":false,"rental_uris":{"android":"levelo://app?vid=9fd8e932-0bbe-45a7-a9ac-3aa157bc97f4","ios":"levelo://app?vid=9fd8e932-0bbe-45a7-a9ac-3aa157bc97f4"},"vehicle_type_id":"4","last_reported":1727240966,"current_range_meters":39200,"station_id":"ce4bhbh2rcd13ifvqeo0","pricing_plan_id":"cebpf4jnsgd1na2vs0mg"},{"bike_id":"b4d66079-ac13-4ec0-8609-abc8e828860d","system_id":"levelo_inurba_marseille","lat":43.27211,"lon":5.39187,"is_reserved":false,"is_disabled":false,"rental_uris":{"android":"levelo://app?vid=b4d66079-ac13-4ec0-8609-abc8e828860d","ios":"levelo://app?vid=b4d66079-ac13-4ec0-8609-abc8e828860d"},"vehicle_type_id":"4","last_reported":1727240966,"current_range_meters":38400,"station_id":"ce4bhhp2rcd13ifvqfm0","pricing_plan_id":"cebpf4jnsgd1na2vs0mg"},{"bike_id":"10b9f85e-e4ee-4f70-979e-f255ac0bd659","system_id":"levelo_inurba_marseille","lat":43.22932,"lon":5.35377,"is_reserved":false,"is_disabled":false,"rental_uris":{"android":"levelo://app?vid=10b9f85e-e4ee-4f70-979e-f255ac0bd659","ios":"levelo://app?vid=10b9f85e-e4ee-4f70-979e-f255ac0bd659"},"vehicle_type_id":"4","last_reported":1727240966,"current_range_meters":4800,"station_id":"cpo3532slgdg3j2ikp40","pricing_plan_id":"cebpf4jnsgd1na2vs0mg"},{"bike_id":"d8c1fa68-9472-41ea-9d50-96b464a0185f","system_id":"levelo_inurba_marseille","lat":43.28461,"lon":5.3588,"is_reserved":false,"is_disabled":false,"rental_uris":{"android":"levelo://app?vid=d8c1fa68-9472-41ea-9d50-96b464a0185f","ios":"levelo://app?vid=d8c1fa68-9472-41ea-9d50-96b464a0185f"},"vehicle_type_id":"4","last_reported":1727240966,"current_range_meters":39200,"station_id":"ce4bhah2rcd13ifvqei0","pricing_plan_id":"cebpf4jnsgd1na2vs0mg"},{"bike_id":"ab8a848e-2769-4062-b46f-06029e49159e","system_id":"levelo_inurba_marseille","lat":43.3117,"lon":5.38722,"is_reserved":false,"is_disabled":false,"rental_uris":{"android":"levelo://app?vid=ab8a848e-2769-4062-b46f-06029e49159e","ios":"levelo://app?vid=ab8a848e-2769-4062-b46f-06029e49159e"},"vehicle_type_id":"4","last_reported":1727240966,"current_range_meters":17600,"station_id":"ce4bgv12rcd13ifvqcp0","pricing_plan_id":"cebpf4jnsgd1na2vs0mg"},{"bike_id":"d25f67f0-5770-4767-833c-9c57de11b1fa","system_id":"levelo_inurba_marseille","lat":43.30139,"lon":5.38057,"is_reserved":false,"is_disabled":false,"rental_uris":{"android":"levelo://app?vid=d25f67f0-5770-4767-833c-9c57de11b1fa","ios":"levelo://app?vid=d25f67f0-5770-4767-833c-9c57de11b1fa"},"vehicle_type_id":"4","last_reported":1727240966,"current_range_meters":36000,"station_id":"ce4bgjp2rcd13ifvqbh0","pricing_plan_id":"cebpf4jnsgd1na2vs0mg"},{"bike_id":"bebbf85e-31cf-4f2c-a4e1-9b1a14757aa3","system_id":"levelo_inurba_marseille","lat":43.2861,"lon":5.37066,"is_reserved":false,"is_disabled":false,"rental_uris":{"android":"levelo://app?vid=bebbf85e-31cf-4f2c-a4e1-9b1a14757aa3","ios":"levelo://app?vid=bebbf85e-31cf-4f2c-a4e1-9b1a14757aa3"},"vehicle_type_id":"4","last_reported":1727240966,"current_range_meters":9200,"station_id":"ce4bht12rcd13ifvqi60","pricing_plan_id":"cebpf4jnsgd1na2vs0mg"},{"bike_id":"64f35ad7-3737-4205-b2d5-274d8a1ad884","system_id":"levelo_inurba_marseille","lat":43.29313,"lon":5.40164,"is_reserved":false,"is_disabled":false,"rental_uris":{"android":"levelo://app?vid=64f35ad7-3737-4205-b2d5-274d8a1ad884","ios":"levelo://app?vid=64f35ad7-3737-4205-b2d5-274d8a1ad884"},"vehicle_type_id":"4","last_reported":1727240966,"current_range_meters":38800,"station_id":"ce4bh312rcd13ifvqdk0","pricing_plan_id":"cebpf4jnsgd1na2vs0mg"},{"bike_id":"d799f437-88e9-4467-9125-dfbe20bda148","system_id":"levelo_inurba_marseille","lat":43.31708,"lon":5.43705,"is_reserved":false,"is_disabled":false,"rental_uris":{"android":"levelo://app?vid=d799f437-88e9-4467-9125-dfbe20bda148","ios":"levelo://app?vid=d799f437-88e9-4467-9125-dfbe20bda148"},"vehicle_type_id":"4","last_reported":1727240966,"current_range_meters":38000,"station_id":"ce4bhp92rcd13ifvqhcg","pricing_plan_id":"cebpf4jnsgd1na2vs0mg"},{"bike_id":"745111b8-733a-495c-87eb-81ad482ad10b","system_id":"levelo_inurba_marseille","lat":43.23185,"lon":5.39987,"is_reserved":false,"is_disabled":false,"rental_uris":{"android":"levelo://app?vid=745111b8-733a-495c-87eb-81ad482ad10b","ios":"levelo://app?vid=745111b8-733a-495c-87eb-81ad482ad10b"},"vehicle_type_id":"4","last_reported":1727240966,"current_range_meters":23200,"station_id":"ce4bhn12rcd13ifvqgqg","pricing_plan_id":"cebpf4jnsgd1na2vs0mg"},{"bike_id":"54fc5423-bff7-47fc-980d-06099f6eec79","system_id":"levelo_inurba_marseille","lat":43.25578,"lon":5.38246,"is_reserved":false,"is_disabled":false,"rental_uris":{"android":"levelo://app?vid=54fc5423-bff7-47fc-980d-06099f6eec79","ios":"levelo://app?vid=54fc5423-bff7-47fc-980d-06099f6eec79"},"vehicle_type_id":"4","last_reported":1727240966,"current_range_meters":38000,"station_id":"ce4bhih2rcd13ifvqfs0","pricing_plan_id":"cebpf4jnsgd1na2vs0mg"},{"bike_id":"d658a249-2b2e-40e6-8eb4-ca29f35bf4c9","system_id":"levelo_inurba_marseille","lat":43.28721,"lon":5.36081,"is_reserved":false,"is_disabled":false,"rental_uris":{"android":"levelo://app?vid=d658a249-2b2e-40e6-8eb4-ca29f35bf4c9","ios":"levelo://app?vid=d658a249-2b2e-40e6-8eb4-ca29f35bf4c9"},"vehicle_type_id":"4","last_reported":1727240966,"current_range_meters":38400,"station_id":"cki0cbj6b192h4jlfktg","pricing_plan_id":"cebpf4jnsgd1na2vs0mg"},{"bike_id":"e17246e5-29f6-4451-85f6-665dd994def1","system_id":"levelo_inurba_marseille","lat":43.28967,"lon":5.37824,"is_reserved":false,"is_disabled":false,"rental_uris":{"android":"levelo://app?vid=e17246e5-29f6-4451-85f6-665dd994def1","ios":"levelo://app?vid=e17246e5-29f6-4451-85f6-665dd994def1"},"vehicle_type_id":"4","last_reported":1727240966,"current_range_meters":37600,"station_id":"ce4bh9p2rcd13ifvqed0","pricing_plan_id":"cebpf4jnsgd1na2vs0mg"},{"bike_id":"cab7fbd7-b5f3-4bb2-9970-cb086cff3ce1","system_id":"levelo_inurba_marseille","lat":43.30531,"lon":5.38426,"is_reserved":false,"is_disabled":false,"rental_uris":{"android":"levelo://app?vid=cab7fbd7-b5f3-4bb2-9970-cb086cff3ce1","ios":"levelo://app?vid=cab7fbd7-b5f3-4bb2-9970-cb086cff3ce1"},"vehicle_type_id":"4","last_reported":1727240966,"current_range_meters":38800,"station_id":"ce4bgg92rcd13ifvqb30","pricing_plan_id":"cebpf4jnsgd1na2vs0mg"},{"bike_id":"393f6a7f-4a2b-4c93-b40a-6c2c54d59523","system_id":"levelo_inurba_marseille","lat":43.28463,"lon":5.35886,"is_reserved":false,"is_disabled":false,"rental_uris":{"android":"levelo://app?vid=393f6a7f-4a2b-4c93-b40a-6c2c54d59523","ios":"levelo://app?vid=393f6a7f-4a2b-4c93-b40a-6c2c54d59523"},"vehicle_type_id":"4","last_reported":1727240966,"current_range_meters":38800,"station_id":"ce4bhah2rcd13ifvqei0","pricing_plan_id":"cebpf4jnsgd1na2vs0mg"},{"bike_id":"8159df13-3f42-4e03-8dbd-4f83f58b905b","system_id":"levelo_inurba_marseille","lat":43.276845,"lon":5.389008,"is_reserved":false,"is_disabled":false,"rental_uris":{"android":"levelo://app?vid=8159df13-3f42-4e03-8dbd-4f83f58b905b","ios":"levelo://app?vid=8159df13-3f42-4e03-8dbd-4f83f58b905b"},"vehicle_type_id":"4","last_reported":1727240966,"current_range_meters":37600,"station_id":"ce4bhi12rcd13ifvqfo0","pricing_plan_id":"cebpf4jnsgd1na2vs0mg"},{"bike_id":"ae471f21-1f8b-40a4-9395-e3124494b4b8","system_id":"levelo_inurba_marseille","lat":43.31497,"lon":5.37309,"is_reserved":false,"is_disabled":false,"rental_uris":{"android":"levelo://app?vid=ae471f21-1f8b-40a4-9395-e3124494b4b8","ios":"levelo://app?vid=ae471f21-1f8b-40a4-9395-e3124494b4b8"},"vehicle_type_id":"4","last_reported":1727240966,"current_range_meters":38000,"station_id":"ce4bgt12rcd13ifvqcd0","pricing_plan_id":"cebpf4jnsgd1na2vs0mg"},{"bike_id":"8282acf3-1e10-4e7a-9e2e-d47e811adce2","system_id":"levelo_inurba_marseille","lat":43.25503,"lon":5.37652,"is_reserved":false,"is_disabled":false,"rental_uris":{"android":"levelo://app?vid=8282acf3-1e10-4e7a-9e2e-d47e811adce2","ios":"levelo://app?vid=8282acf3-1e10-4e7a-9e2e-d47e811adce2"},"vehicle_type_id":"4","last_reported":1727240966,"current_range_meters":37600,"station_id":"ce4bhh12rcd13ifvqff0","pricing_plan_id":"cebpf4jnsgd1na2vs0mg"},{"bike_id":"bad6b77e-7542-4064-9ec5-d85e4bedf22f","system_id":"levelo_inurba_marseille","lat":43.30205,"lon":5.36629,"is_reserved":false,"is_disabled":false,"rental_uris":{"android":"levelo://app?vid=bad6b77e-7542-4064-9ec5-d85e4bedf22f","ios":"levelo://app?vid=bad6b77e-7542-4064-9ec5-d85e4bedf22f"},"vehicle_type_id":"4","last_reported":1727240966,"current_range_meters":27600,"station_id":"ce4bgrh2rcd13ifvqc8g","pricing_plan_id":"cebpf4jnsgd1na2vs0mg"},{"bike_id":"ebec7cd5-5fed-46ce-abdb-3cd659f607ac","system_id":"levelo_inurba_marseille","lat":43.29552,"lon":5.42282,"is_reserved":false,"is_disabled":false,"rental_uris":{"android":"levelo://app?vid=ebec7cd5-5fed-46ce-abdb-3cd659f607ac","ios":"levelo://app?vid=ebec7cd5-5fed-46ce-abdb-3cd659f607ac"},"vehicle_type_id":"4","last_reported":1727240966,"current_range_meters":35600,"station_id":"ce4bhph2rcd13ifvqhdg","pricing_plan_id":"cebpf4jnsgd1na2vs0mg"},{"bike_id":"b4204028-6423-473c-b40c-0b1f406bfad4","system_id":"levelo_inurba_marseille","lat":43.31278,"lon":5.40174,"is_reserved":false,"is_disabled":false,"rental_uris":{"android":"levelo://app?vid=b4204028-6423-473c-b40c-0b1f406bfad4","ios":"levelo://app?vid=b4204028-6423-473c-b40c-0b1f406bfad4"},"vehicle_type_id":"4","last_reported":1727240966,"current_range_meters":38000,"station_id":"ce4bh092rcd13ifvqd30","pricing_plan_id":"cebpf4jnsgd1na2vs0mg"},{"bike_id":"2b57e7b4-5a5f-4542-b92b-48482eb7a1b0","system_id":"levelo_inurba_marseille","lat":43.28575,"lon":5.39501,"is_reserved":false,"is_disabled":false,"rental_uris":{"android":"levelo://app?vid=2b57e7b4-5a5f-4542-b92b-48482eb7a1b0","ios":"levelo://app?vid=2b57e7b4-5a5f-4542-b92b-48482eb7a1b0"},"vehicle_type_id":"4","last_reported":1727240966,"current_range_meters":38000,"station_id":"ce4bh292rcd13ifvqdg0","pricing_plan_id":"cebpf4jnsgd1na2vs0mg"},{"bike_id":"584dc729-0cb1-4902-8a6c-23dc123e7906","system_id":"levelo_inurba_marseille","lat":43.22924,"lon":5.35377,"is_reserved":false,"is_disabled":false,"rental_uris":{"android":"levelo://app?vid=584dc729-0cb1-4902-8a6c-23dc123e7906","ios":"levelo://app?vid=584dc729-0cb1-4902-8a6c-23dc123e7906"},"vehicle_type_id":"4","last_reported":1727240966,"current_range_meters":22800,"station_id":"cpo3532slgdg3j2ikp40","pricing_plan_id":"cebpf4jnsgd1na2vs0mg"},{"bike_id":"df5b38d2-64cb-4df0-856f-ea9bd22c082c","system_id":"levelo_inurba_marseille","lat":43.23188,"lon":5.35547,"is_reserved":false,"is_disabled":false,"rental_uris":{"android":"levelo://app?vid=df5b38d2-64cb-4df0-856f-ea9bd22c082c","ios":"levelo://app?vid=df5b38d2-64cb-4df0-856f-ea9bd22c082c"},"vehicle_type_id":"4","last_reported":1727240966,"current_range_meters":8800,"station_id":"ce4bhu92rcd13ifvqi70","pricing_plan_id":"cebpf4jnsgd1na2vs0mg"},{"bike_id":"707528d8-0988-4632-94dc-544d37620d76","system_id":"levelo_inurba_marseille","lat":43.33601,"lon":5.41021,"is_reserved":false,"is_disabled":false,"rental_uris":{"android":"levelo://app?vid=707528d8-0988-4632-94dc-544d37620d76","ios":"levelo://app?vid=707528d8-0988-4632-94dc-544d37620d76"},"vehicle_type_id":"4","last_reported":1727240966,"current_range_meters":38800,"station_id":"ce4bhqh2rcd13ifvqhmg","pricing_plan_id":"cebpf4jnsgd1na2vs0mg"},{"bike_id":"14e2b627-7a17-4838-889b-5ca31abddf14","system_id":"levelo_inurba_marseille","lat":43.29964,"lon":5.41327,"is_reserved":false,"is_disabled":false,"rental_uris":{"android":"levelo://app?vid=14e2b627-7a17-4838-889b-5ca31abddf14","ios":"levelo://app?vid=14e2b627-7a17-4838-889b-5ca31abddf14"},"vehicle_type_id":"4","last_reported":1727240966,"current_range_meters":37600,"station_id":"ce4bhp12rcd13ifvqh9g","pricing_plan_id":"cebpf4jnsgd1na2vs0mg"},{"bike_id":"01526ba6-3875-437f-a570-2512dcd8dc51","system_id":"levelo_inurba_marseille","lat":43.31226,"lon":5.36867,"is_reserved":false,"is_disabled":false,"rental_uris":{"android":"levelo://app?vid=01526ba6-3875-437f-a570-2512dcd8dc51","ios":"levelo://app?vid=01526ba6-3875-437f-a570-2512dcd8dc51"},"vehicle_type_id":"4","last_reported":1727240966,"current_range_meters":38000,"station_id":"ce4bgl92rcd13ifvqbq0","pricing_plan_id":"cebpf4jnsgd1na2vs0mg"},{"bike_id":"93e6b704-6d99-4e3d-b405-9bfb159779ab","system_id":"levelo_inurba_marseille","lat":43.31086,"lon":5.42435,"is_reserved":false,"is_disabled":false,"rental_uris":{"android":"levelo://app?vid=93e6b704-6d99-4e3d-b405-9bfb159779ab","ios":"levelo://app?vid=93e6b704-6d99-4e3d-b405-9bfb159779ab"},"vehicle_type_id":"4","last_reported":1727240966,"current_range_meters":16800,"station_id":"ce4bhp92rcd13ifvqhag","pricing_plan_id":"cebpf4jnsgd1na2vs0mg"},{"bike_id":"66ec5e9d-3583-400a-9522-011e535be416","system_id":"levelo_inurba_marseille","lat":43.28275,"lon":5.35059,"is_reserved":false,"is_disabled":false,"rental_uris":{"android":"levelo://app?vid=66ec5e9d-3583-400a-9522-011e535be416","ios":"levelo://app?vid=66ec5e9d-3583-400a-9522-011e535be416"},"vehicle_type_id":"4","last_reported":1727240966,"current_range_meters":37600,"station_id":"ce4bhbp2rcd13ifvqerg","pricing_plan_id":"cebpf4jnsgd1na2vs0mg"},{"bike_id":"17b1cd1a-7803-4ca9-91f3-73c4fa44f09e","system_id":"levelo_inurba_marseille","lat":43.29553,"lon":5.42285,"is_reserved":false,"is_disabled":false,"rental_uris":{"android":"levelo://app?vid=17b1cd1a-7803-4ca9-91f3-73c4fa44f09e","ios":"levelo://app?vid=17b1cd1a-7803-4ca9-91f3-73c4fa44f09e"},"vehicle_type_id":"4","last_reported":1727240966,"current_range_meters":4800,"station_id":"ce4bhph2rcd13ifvqhdg","pricing_plan_id":"cebpf4jnsgd1na2vs0mg"},{"bike_id":"370ad2c9-c0c1-4242-b6d2-8b6c35717678","system_id":"levelo_inurba_marseille","lat":43.27938,"lon":5.41036,"is_reserved":false,"is_disabled":false,"rental_uris":{"android":"levelo://app?vid=370ad2c9-c0c1-4242-b6d2-8b6c35717678","ios":"levelo://app?vid=370ad2c9-c0c1-4242-b6d2-8b6c35717678"},"vehicle_type_id":"4","last_reported":1727240966,"current_range_meters":38000,"station_id":"ce4bhnp2rcd13ifvqh0g","pricing_plan_id":"cebpf4jnsgd1na2vs0mg"},{"bike_id":"27431c98-bcee-4fbc-9005-ef4fd6a106b8","system_id":"levelo_inurba_marseille","lat":43.23184,"lon":5.39979,"is_reserved":false,"is_disabled":false,"rental_uris":{"android":"levelo://app?vid=27431c98-bcee-4fbc-9005-ef4fd6a106b8","ios":"levelo://app?vid=27431c98-bcee-4fbc-9005-ef4fd6a106b8"},"vehicle_type_id":"4","last_reported":1727240966,"current_range_meters":12400,"station_id":"ce4bhn12rcd13ifvqgqg","pricing_plan_id":"cebpf4jnsgd1na2vs0mg"},{"bike_id":"82f0853b-f121-4f51-b1fc-4de680881148","system_id":"levelo_inurba_marseille","lat":43.30308,"lon":5.36887,"is_reserved":false,"is_disabled":false,"rental_uris":{"android":"levelo://app?vid=82f0853b-f121-4f51-b1fc-4de680881148","ios":"levelo://app?vid=82f0853b-f121-4f51-b1fc-4de680881148"},"vehicle_type_id":"4","last_reported":1727240966,"current_range_meters":38000,"station_id":"ce4bgqh2rcd13ifvqc5g","pricing_plan_id":"cebpf4jnsgd1na2vs0mg"},{"bike_id":"7d6a71b9-eac8-474e-8d95-8d3a3dba95ff","system_id":"levelo_inurba_marseille","lat":43.26806,"lon":5.40263,"is_reserved":false,"is_disabled":false,"rental_uris":{"android":"levelo://app?vid=7d6a71b9-eac8-474e-8d95-8d3a3dba95ff","ios":"levelo://app?vid=7d6a71b9-eac8-474e-8d95-8d3a3dba95ff"},"vehicle_type_id":"4","last_reported":1727240966,"current_range_meters":38000,"station_id":"ce501612rcd8frsf0b60","pricing_plan_id":"cebpf4jnsgd1na2vs0mg"},{"bike_id":"211e0346-61e5-4760-a281-2cb54eb23737","system_id":"levelo_inurba_marseille","lat":43.30778,"lon":5.37653,"is_reserved":false,"is_disabled":false,"rental_uris":{"android":"levelo://app?vid=211e0346-61e5-4760-a281-2cb54eb23737","ios":"levelo://app?vid=211e0346-61e5-4760-a281-2cb54eb23737"},"vehicle_type_id":"4","last_reported":1727240966,"current_range_meters":39200,"station_id":"ce4bgv92rcd13ifvqcq0","pricing_plan_id":"cebpf4jnsgd1na2vs0mg"},{"bike_id":"dcd126e0-9c30-46b7-a44f-678c75f333be","system_id":"levelo_inurba_marseille","lat":43.24077,"lon":5.37748,"is_reserved":false,"is_disabled":false,"rental_uris":{"android":"levelo://app?vid=dcd126e0-9c30-46b7-a44f-678c75f333be","ios":"levelo://app?vid=dcd126e0-9c30-46b7-a44f-678c75f333be"},"vehicle_type_id":"4","last_reported":1727240966,"current_range_meters":38000,"station_id":"ce4bhnp2rcd13ifvqgvg","pricing_plan_id":"cebpf4jnsgd1na2vs0mg"},{"bike_id":"6fa55ac6-c0d9-4671-8360-9f57a8c8c70e","system_id":"levelo_inurba_marseille","lat":43.2897,"lon":5.3657,"is_reserved":false,"is_disabled":false,"rental_uris":{"android":"levelo://app?vid=6fa55ac6-c0d9-4671-8360-9f57a8c8c70e","ios":"levelo://app?vid=6fa55ac6-c0d9-4671-8360-9f57a8c8c70e"},"vehicle_type_id":"4","last_reported":1727240966,"current_range_meters":18800,"station_id":"ce4bh692rcd13ifvqe90","pricing_plan_id":"cebpf4jnsgd1na2vs0mg"},{"bike_id":"ad9e6ef0-4a19-4a93-88ed-c66cad530a0a","system_id":"levelo_inurba_marseille","lat":43.32539,"lon":5.4144,"is_reserved":false,"is_disabled":false,"rental_uris":{"android":"levelo://app?vid=ad9e6ef0-4a19-4a93-88ed-c66cad530a0a","ios":"levelo://app?vid=ad9e6ef0-4a19-4a93-88ed-c66cad530a0a"},"vehicle_type_id":"4","last_reported":1727240966,"current_range_meters":38800,"station_id":"ce4bhq12rcd13ifvqhhg","pricing_plan_id":"cebpf4jnsgd1na2vs0mg"},{"bike_id":"c39b9ebf-3474-4128-98e6-09b47ddcbf97","system_id":"levelo_inurba_marseille","lat":43.27072,"lon":5.42282,"is_reserved":false,"is_disabled":false,"rental_uris":{"android":"levelo://app?vid=c39b9ebf-3474-4128-98e6-09b47ddcbf97","ios":"levelo://app?vid=c39b9ebf-3474-4128-98e6-09b47ddcbf97"},"vehicle_type_id":"4","last_reported":1727240966,"current_range_meters":38800,"station_id":"ce4bhk92rcd13ifvqgb0","pricing_plan_id":"cebpf4jnsgd1na2vs0mg"},{"bike_id":"81fe2cdc-578f-4aef-b667-c4b7e0aa10ee","system_id":"levelo_inurba_marseille","lat":43.30654,"lon":5.4008,"is_reserved":false,"is_disabled":false,"rental_uris":{"android":"levelo://app?vid=81fe2cdc-578f-4aef-b667-c4b7e0aa10ee","ios":"levelo://app?vid=81fe2cdc-578f-4aef-b667-c4b7e0aa10ee"},"vehicle_type_id":"4","last_reported":1727240966,"current_range_meters":38000,"station_id":"ce4bh112rcd13ifvqda0","pricing_plan_id":"cebpf4jnsgd1na2vs0mg"},{"bike_id":"acb0310f-a16e-4219-bdde-4543d08c4bfa","system_id":"levelo_inurba_marseille","lat":43.28848,"lon":5.35846,"is_reserved":false,"is_disabled":false,"rental_uris":{"android":"levelo://app?vid=acb0310f-a16e-4219-bdde-4543d08c4bfa","ios":"levelo://app?vid=acb0310f-a16e-4219-bdde-4543d08c4bfa"},"vehicle_type_id":"4","last_reported":1727240966,"current_range_meters":37600,"station_id":"ce4bhb12rcd13ifvqem0","pricing_plan_id":"cebpf4jnsgd1na2vs0mg"},{"bike_id":"4254b994-4232-43d9-b2f2-9b792a46fc00","system_id":"levelo_inurba_marseille","lat":43.27965,"lon":5.38705,"is_reserved":false,"is_disabled":false,"rental_uris":{"android":"levelo://app?vid=4254b994-4232-43d9-b2f2-9b792a46fc00","ios":"levelo://app?vid=4254b994-4232-43d9-b2f2-9b792a46fc00"},"vehicle_type_id":"4","last_reported":1727240966,"current_range_meters":38000,"station_id":"ce4bhg12rcd13ifvqf80","pricing_plan_id":"cebpf4jnsgd1na2vs0mg"},{"bike_id":"59c518d2-643b-4fc3-bb96-7756448a203e","system_id":"levelo_inurba_marseille","lat":43.30425,"lon":5.397615,"is_reserved":false,"is_disabled":false,"rental_uris":{"android":"levelo://app?vid=59c518d2-643b-4fc3-bb96-7756448a203e","ios":"levelo://app?vid=59c518d2-643b-4fc3-bb96-7756448a203e"},"vehicle_type_id":"4","last_reported":1727240966,"current_range_meters":38800,"station_id":"ce4bh092rcd13ifvqd20","pricing_plan_id":"cebpf4jnsgd1na2vs0mg"},{"bike_id":"aa9005c8-05a0-4659-b06f-1e6354800693","system_id":"levelo_inurba_marseille","lat":43.3133,"lon":5.39696,"is_reserved":false,"is_disabled":false,"rental_uris":{"android":"levelo://app?vid=aa9005c8-05a0-4659-b06f-1e6354800693","ios":"levelo://app?vid=aa9005c8-05a0-4659-b06f-1e6354800693"},"vehicle_type_id":"4","last_reported":1727240966,"current_range_meters":38400,"station_id":"ce4bgvp2rcd13ifvqcu0","pricing_plan_id":"cebpf4jnsgd1na2vs0mg"},{"bike_id":"a1d82605-350d-4120-889c-7761b40719ec","system_id":"levelo_inurba_marseille","lat":43.32105,"lon":5.36772,"is_reserved":false,"is_disabled":false,"rental_uris":{"android":"levelo://app?vid=a1d82605-350d-4120-889c-7761b40719ec","ios":"levelo://app?vid=a1d82605-350d-4120-889c-7761b40719ec"},"vehicle_type_id":"4","last_reported":1727240966,"current_range_meters":22000,"station_id":"ce4bhrh2rcd13ifvqhug","pricing_plan_id":"cebpf4jnsgd1na2vs0mg"},{"bike_id":"270390c1-7478-42f7-9734-5e500db1da59","system_id":"levelo_inurba_marseille","lat":43.27173,"lon":5.40995,"is_reserved":false,"is_disabled":false,"rental_uris":{"android":"levelo://app?vid=270390c1-7478-42f7-9734-5e500db1da59","ios":"levelo://app?vid=270390c1-7478-42f7-9734-5e500db1da59"},"vehicle_type_id":"4","last_reported":1727240966,"current_range_meters":8400,"station_id":"ce4bhl12rcd13ifvqgf0","pricing_plan_id":"cebpf4jnsgd1na2vs0mg"},{"bike_id":"27a94d9a-7b34-4348-a7bf-e817803c2fed","system_id":"levelo_inurba_marseille","lat":43.31174,"lon":5.38711,"is_reserved":false,"is_disabled":false,"rental_uris":{"android":"levelo://app?vid=27a94d9a-7b34-4348-a7bf-e817803c2fed","ios":"levelo://app?vid=27a94d9a-7b34-4348-a7bf-e817803c2fed"},"vehicle_type_id":"4","last_reported":1727240966,"current_range_meters":38400,"station_id":"ce4bgv12rcd13ifvqcp0","pricing_plan_id":"cebpf4jnsgd1na2vs0mg"},{"bike_id":"7867c780-59e7-457b-80aa-b1c55d2cc50f","system_id":"levelo_inurba_marseille","lat":43.25079,"lon":5.39505,"is_reserved":false,"is_disabled":false,"rental_uris":{"android":"levelo://app?vid=7867c780-59e7-457b-80aa-b1c55d2cc50f","ios":"levelo://app?vid=7867c780-59e7-457b-80aa-b1c55d2cc50f"},"vehicle_type_id":"4","last_reported":1727240966,"current_range_meters":6800,"station_id":"ce4bhm12rcd13ifvqgkg","pricing_plan_id":"cebpf4jnsgd1na2vs0mg"},{"bike_id":"c0c4ac2c-dbd6-405c-ae94-75c9c39bd7ab","system_id":"levelo_inurba_marseille","lat":43.250836,"lon":5.395111,"is_reserved":false,"is_disabled":false,"rental_uris":{"android":"levelo://app?vid=c0c4ac2c-dbd6-405c-ae94-75c9c39bd7ab","ios":"levelo://app?vid=c0c4ac2c-dbd6-405c-ae94-75c9c39bd7ab"},"vehicle_type_id":"4","last_reported":1727240966,"current_range_meters":38800,"station_id":"ce4bhm12rcd13ifvqgkg","pricing_plan_id":"cebpf4jnsgd1na2vs0mg"},{"bike_id":"940ae4b5-cb20-4497-ac63-a3388e023517","system_id":"levelo_inurba_marseille","lat":43.30212,"lon":5.39466,"is_reserved":false,"is_disabled":false,"rental_uris":{"android":"levelo://app?vid=940ae4b5-cb20-4497-ac63-a3388e023517","ios":"levelo://app?vid=940ae4b5-cb20-4497-ac63-a3388e023517"},"vehicle_type_id":"4","last_reported":1727240966,"current_range_meters":38400,"station_id":"ce4bh0p2rcd13ifvqd70","pricing_plan_id":"cebpf4jnsgd1na2vs0mg"},{"bike_id":"1166f6b1-5b87-4bc1-b21d-c61655b2fee0","system_id":"levelo_inurba_marseille","lat":43.29453,"lon":5.38042,"is_reserved":false,"is_disabled":false,"rental_uris":{"android":"levelo://app?vid=1166f6b1-5b87-4bc1-b21d-c61655b2fee0","ios":"levelo://app?vid=1166f6b1-5b87-4bc1-b21d-c61655b2fee0"},"vehicle_type_id":"4","last_reported":1727240966,"current_range_meters":36000,"station_id":"","pricing_plan_id":"cebpf4jnsgd1na2vs0mg"},{"bike_id":"d29f3eb0-2292-4707-aa60-f9784be6f8f0","system_id":"levelo_inurba_marseille","lat":43.30467,"lon":5.37901,"is_reserved":false,"is_disabled":false,"rental_uris":{"android":"levelo://app?vid=d29f3eb0-2292-4707-aa60-f9784be6f8f0","ios":"levelo://app?vid=d29f3eb0-2292-4707-aa60-f9784be6f8f0"},"vehicle_type_id":"4","last_reported":1727240966,"current_range_meters":38800,"station_id":"ce4bgup2rcd13ifvqcn0","pricing_plan_id":"cebpf4jnsgd1na2vs0mg"},{"bike_id":"f33e56b7-df6f-4338-b029-6da3c28fa2ce","system_id":"levelo_inurba_marseille","lat":43.25581,"lon":5.38238,"is_reserved":false,"is_disabled":false,"rental_uris":{"android":"levelo://app?vid=f33e56b7-df6f-4338-b029-6da3c28fa2ce","ios":"levelo://app?vid=f33e56b7-df6f-4338-b029-6da3c28fa2ce"},"vehicle_type_id":"4","last_reported":1727240966,"current_range_meters":38000,"station_id":"ce4bhih2rcd13ifvqfs0","pricing_plan_id":"cebpf4jnsgd1na2vs0mg"},{"bike_id":"6cf02193-3ded-4cde-a5e9-273e1e7f9133","system_id":"levelo_inurba_marseille","lat":43.308,"lon":5.43519,"is_reserved":false,"is_disabled":false,"rental_uris":{"android":"levelo://app?vid=6cf02193-3ded-4cde-a5e9-273e1e7f9133","ios":"levelo://app?vid=6cf02193-3ded-4cde-a5e9-273e1e7f9133"},"vehicle_type_id":"4","last_reported":1727240966,"current_range_meters":38800,"station_id":"ce4bhph2rcd13ifvqheg","pricing_plan_id":"cebpf4jnsgd1na2vs0mg"},{"bike_id":"481d9bee-f445-47ce-abe6-b9fa892304da","system_id":"levelo_inurba_marseille","lat":43.288346,"lon":5.358501,"is_reserved":false,"is_disabled":false,"rental_uris":{"android":"levelo://app?vid=481d9bee-f445-47ce-abe6-b9fa892304da","ios":"levelo://app?vid=481d9bee-f445-47ce-abe6-b9fa892304da"},"vehicle_type_id":"4","last_reported":1727240966,"current_range_meters":38800,"station_id":"ce4bhb12rcd13ifvqem0","pricing_plan_id":"cebpf4jnsgd1na2vs0mg"},{"bike_id":"eba5dbf3-3980-40b6-96a4-b67aaff433ca","system_id":"levelo_inurba_marseille","lat":43.308856,"lon":5.396456,"is_reserved":false,"is_disabled":false,"rental_uris":{"android":"levelo://app?vid=eba5dbf3-3980-40b6-96a4-b67aaff433ca","ios":"levelo://app?vid=eba5dbf3-3980-40b6-96a4-b67aaff433ca"},"vehicle_type_id":"4","last_reported":1727240966,"current_range_meters":38800,"station_id":"ce4bh012rcd13ifvqcv0","pricing_plan_id":"cebpf4jnsgd1na2vs0mg"},{"bike_id":"c517eafc-0d84-46c5-8fed-1b42b71b7911","system_id":"levelo_inurba_marseille","lat":43.31759,"lon":5.39019,"is_reserved":false,"is_disabled":false,"rental_uris":{"android":"levelo://app?vid=c517eafc-0d84-46c5-8fed-1b42b71b7911","ios":"levelo://app?vid=c517eafc-0d84-46c5-8fed-1b42b71b7911"},"vehicle_type_id":"4","last_reported":1727240966,"current_range_meters":39200,"station_id":"ce4bhqp2rcd13ifvqhng","pricing_plan_id":"cebpf4jnsgd1na2vs0mg"},{"bike_id":"9a872a7b-254e-4122-8da2-921f0b023ca0","system_id":"levelo_inurba_marseille","lat":43.27952,"lon":5.41043,"is_reserved":false,"is_disabled":false,"rental_uris":{"android":"levelo://app?vid=9a872a7b-254e-4122-8da2-921f0b023ca0","ios":"levelo://app?vid=9a872a7b-254e-4122-8da2-921f0b023ca0"},"vehicle_type_id":"4","last_reported":1727240966,"current_range_meters":6400,"station_id":"ce4bhnp2rcd13ifvqh0g","pricing_plan_id":"cebpf4jnsgd1na2vs0mg"},{"bike_id":"3d7eb12c-ee39-48a6-960b-1120cad1538d","system_id":"levelo_inurba_marseille","lat":43.28455,"lon":5.35882,"is_reserved":false,"is_disabled":false,"rental_uris":{"android":"levelo://app?vid=3d7eb12c-ee39-48a6-960b-1120cad1538d","ios":"levelo://app?vid=3d7eb12c-ee39-48a6-960b-1120cad1538d"},"vehicle_type_id":"4","last_reported":1727240966,"current_range_meters":38800,"station_id":"ce4bhah2rcd13ifvqei0","pricing_plan_id":"cebpf4jnsgd1na2vs0mg"},{"bike_id":"fbc97a14-51ab-46bb-8bce-846250bcdb52","system_id":"levelo_inurba_marseille","lat":43.30208,"lon":5.39463,"is_reserved":false,"is_disabled":false,"rental_uris":{"android":"levelo://app?vid=fbc97a14-51ab-46bb-8bce-846250bcdb52","ios":"levelo://app?vid=fbc97a14-51ab-46bb-8bce-846250bcdb52"},"vehicle_type_id":"4","last_reported":1727240966,"current_range_meters":38000,"station_id":"ce4bh0p2rcd13ifvqd70","pricing_plan_id":"cebpf4jnsgd1na2vs0mg"},{"bike_id":"5d22d37c-c8d4-4feb-8685-bf150cafbdc6","system_id":"levelo_inurba_marseille","lat":43.2407,"lon":5.37757,"is_reserved":false,"is_disabled":false,"rental_uris":{"android":"levelo://app?vid=5d22d37c-c8d4-4feb-8685-bf150cafbdc6","ios":"levelo://app?vid=5d22d37c-c8d4-4feb-8685-bf150cafbdc6"},"vehicle_type_id":"4","last_reported":1727240966,"current_range_meters":19200,"station_id":"ce4bhnp2rcd13ifvqgvg","pricing_plan_id":"cebpf4jnsgd1na2vs0mg"},{"bike_id":"81000a3a-c11c-4d08-8723-5803ef31d63a","system_id":"levelo_inurba_marseille","lat":43.31999,"lon":5.38154,"is_reserved":false,"is_disabled":false,"rental_uris":{"android":"levelo://app?vid=81000a3a-c11c-4d08-8723-5803ef31d63a","ios":"levelo://app?vid=81000a3a-c11c-4d08-8723-5803ef31d63a"},"vehicle_type_id":"4","last_reported":1727240966,"current_range_meters":26800,"station_id":"ce4bhr12rcd13ifvqhpg","pricing_plan_id":"cebpf4jnsgd1na2vs0mg"},{"bike_id":"17701005-77c3-4e4f-a0b4-b2ece630517d","system_id":"levelo_inurba_marseille","lat":43.23959,"lon":5.36621,"is_reserved":false,"is_disabled":false,"rental_uris":{"android":"levelo://app?vid=17701005-77c3-4e4f-a0b4-b2ece630517d","ios":"levelo://app?vid=17701005-77c3-4e4f-a0b4-b2ece630517d"},"vehicle_type_id":"4","last_reported":1727240966,"current_range_meters":37600,"station_id":"ce4bhi12rcd13ifvqfp0","pricing_plan_id":"cebpf4jnsgd1na2vs0mg"},{"bike_id":"2b5ee647-eb86-4734-8331-a4b43bd00cd0","system_id":"levelo_inurba_marseille","lat":43.274536,"lon":5.386833,"is_reserved":false,"is_disabled":false,"rental_uris":{"android":"levelo://app?vid=2b5ee647-eb86-4734-8331-a4b43bd00cd0","ios":"levelo://app?vid=2b5ee647-eb86-4734-8331-a4b43bd00cd0"},"vehicle_type_id":"4","last_reported":1727240966,"current_range_meters":2800,"station_id":"ce4bhgp2rcd13ifvqfe0","pricing_plan_id":"cebpf4jnsgd1na2vs0mg"},{"bike_id":"94aef060-c348-495f-9bd9-b3ece4c5b1ea","system_id":"levelo_inurba_marseille","lat":43.2656,"lon":5.37285,"is_reserved":false,"is_disabled":false,"rental_uris":{"android":"levelo://app?vid=94aef060-c348-495f-9bd9-b3ece4c5b1ea","ios":"levelo://app?vid=94aef060-c348-495f-9bd9-b3ece4c5b1ea"},"vehicle_type_id":"4","last_reported":1727240966,"current_range_meters":29600,"station_id":"ce4bhg12rcd13ifvqf70","pricing_plan_id":"cebpf4jnsgd1na2vs0mg"},{"bike_id":"c8e2e608-f468-4c9b-9708-10e6f0f0d98d","system_id":"levelo_inurba_marseille","lat":43.23194,"lon":5.39981,"is_reserved":false,"is_disabled":false,"rental_uris":{"android":"levelo://app?vid=c8e2e608-f468-4c9b-9708-10e6f0f0d98d","ios":"levelo://app?vid=c8e2e608-f468-4c9b-9708-10e6f0f0d98d"},"vehicle_type_id":"4","last_reported":1727240966,"current_range_meters":6800,"station_id":"ce4bhn12rcd13ifvqgqg","pricing_plan_id":"cebpf4jnsgd1na2vs0mg"},{"bike_id":"422c3bef-d0de-4a09-bd86-bffdb44eedb9","system_id":"levelo_inurba_marseille","lat":43.30442,"lon":5.38893,"is_reserved":false,"is_disabled":false,"rental_uris":{"android":"levelo://app?vid=422c3bef-d0de-4a09-bd86-bffdb44eedb9","ios":"levelo://app?vid=422c3bef-d0de-4a09-bd86-bffdb44eedb9"},"vehicle_type_id":"4","last_reported":1727240966,"current_range_meters":38800,"station_id":"ce4bgk12rcd13ifvqbi0","pricing_plan_id":"cebpf4jnsgd1na2vs0mg"},{"bike_id":"e4782e7a-e28a-48af-a586-42b249546ec0","system_id":"levelo_inurba_marseille","lat":43.31123,"lon":5.37765,"is_reserved":false,"is_disabled":false,"rental_uris":{"android":"levelo://app?vid=e4782e7a-e28a-48af-a586-42b249546ec0","ios":"levelo://app?vid=e4782e7a-e28a-48af-a586-42b249546ec0"},"vehicle_type_id":"4","last_reported":1727240966,"current_range_meters":38000,"station_id":"ce4bgt92rcd13ifvqcg0","pricing_plan_id":"cebpf4jnsgd1na2vs0mg"},{"bike_id":"552a8350-fa82-4e0e-bdce-a81bc6d43174","system_id":"levelo_inurba_marseille","lat":43.30927,"lon":5.40144,"is_reserved":false,"is_disabled":false,"rental_uris":{"android":"levelo://app?vid=552a8350-fa82-4e0e-bdce-a81bc6d43174","ios":"levelo://app?vid=552a8350-fa82-4e0e-bdce-a81bc6d43174"},"vehicle_type_id":"4","last_reported":1727240966,"current_range_meters":22800,"station_id":"ce4bgvp2rcd13ifvqct0","pricing_plan_id":"cebpf4jnsgd1na2vs0mg"},{"bike_id":"331d72fd-b5e5-4ade-9a70-a7c817a74063","system_id":"levelo_inurba_marseille","lat":43.27894,"lon":5.37989,"is_reserved":false,"is_disabled":false,"rental_uris":{"android":"levelo://app?vid=331d72fd-b5e5-4ade-9a70-a7c817a74063","ios":"levelo://app?vid=331d72fd-b5e5-4ade-9a70-a7c817a74063"},"vehicle_type_id":"4","last_reported":1727240966,"current_range_meters":19200,"station_id":"ce4bhf92rcd13ifvqf50","pricing_plan_id":"cebpf4jnsgd1na2vs0mg"},{"bike_id":"fc69280c-fe22-470d-812b-5c37688c09bd","system_id":"levelo_inurba_marseille","lat":43.27966,"lon":5.38719,"is_reserved":false,"is_disabled":false,"rental_uris":{"android":"levelo://app?vid=fc69280c-fe22-470d-812b-5c37688c09bd","ios":"levelo://app?vid=fc69280c-fe22-470d-812b-5c37688c09bd"},"vehicle_type_id":"4","last_reported":1727240966,"current_range_meters":38800,"station_id":"ce4bhg12rcd13ifvqf80","pricing_plan_id":"cebpf4jnsgd1na2vs0mg"},{"bike_id":"5ada196a-9306-4158-93b2-a584ec710b78","system_id":"levelo_inurba_marseille","lat":43.31273,"lon":5.40165,"is_reserved":false,"is_disabled":false,"rental_uris":{"android":"levelo://app?vid=5ada196a-9306-4158-93b2-a584ec710b78","ios":"levelo://app?vid=5ada196a-9306-4158-93b2-a584ec710b78"},"vehicle_type_id":"4","last_reported":1727240966,"current_range_meters":12000,"station_id":"ce4bh092rcd13ifvqd30","pricing_plan_id":"cebpf4jnsgd1na2vs0mg"},{"bike_id":"7e9e8414-11aa-4516-a0ba-b99da07411a2","system_id":"levelo_inurba_marseille","lat":43.2408,"lon":5.3776,"is_reserved":false,"is_disabled":false,"rental_uris":{"android":"levelo://app?vid=7e9e8414-11aa-4516-a0ba-b99da07411a2","ios":"levelo://app?vid=7e9e8414-11aa-4516-a0ba-b99da07411a2"},"vehicle_type_id":"4","last_reported":1727240966,"current_range_meters":17600,"station_id":"ce4bhnp2rcd13ifvqgvg","pricing_plan_id":"cebpf4jnsgd1na2vs0mg"},{"bike_id":"6ae653d8-0940-4105-8ca7-0a9ffcfe7411","system_id":"levelo_inurba_marseille","lat":43.30781,"lon":5.37648,"is_reserved":false,"is_disabled":false,"rental_uris":{"android":"levelo://app?vid=6ae653d8-0940-4105-8ca7-0a9ffcfe7411","ios":"levelo://app?vid=6ae653d8-0940-4105-8ca7-0a9ffcfe7411"},"vehicle_type_id":"4","last_reported":1727240966,"current_range_meters":35600,"station_id":"ce4bgv92rcd13ifvqcq0","pricing_plan_id":"cebpf4jnsgd1na2vs0mg"},{"bike_id":"08aeb96c-2414-43fb-a731-004123e5f581","system_id":"levelo_inurba_marseille","lat":43.31334,"lon":5.397,"is_reserved":false,"is_disabled":false,"rental_uris":{"android":"levelo://app?vid=08aeb96c-2414-43fb-a731-004123e5f581","ios":"levelo://app?vid=08aeb96c-2414-43fb-a731-004123e5f581"},"vehicle_type_id":"4","last_reported":1727240966,"current_range_meters":38800,"station_id":"ce4bgvp2rcd13ifvqcu0","pricing_plan_id":"cebpf4jnsgd1na2vs0mg"},{"bike_id":"d5aa1add-115d-4e1a-b824-66ecde93a367","system_id":"levelo_inurba_marseille","lat":43.24077,"lon":5.37747,"is_reserved":false,"is_disabled":false,"rental_uris":{"android":"levelo://app?vid=d5aa1add-115d-4e1a-b824-66ecde93a367","ios":"levelo://app?vid=d5aa1add-115d-4e1a-b824-66ecde93a367"},"vehicle_type_id":"4","last_reported":1727240966,"current_range_meters":9200,"station_id":"ce4bhnp2rcd13ifvqgvg","pricing_plan_id":"cebpf4jnsgd1na2vs0mg"},{"bike_id":"0c5bc108-18bc-4032-8fe0-145c940828d0","system_id":"levelo_inurba_marseille","lat":43.258638,"lon":5.399072,"is_reserved":false,"is_disabled":false,"rental_uris":{"android":"levelo://app?vid=0c5bc108-18bc-4032-8fe0-145c940828d0","ios":"levelo://app?vid=0c5bc108-18bc-4032-8fe0-145c940828d0"},"vehicle_type_id":"4","last_reported":1727240966,"current_range_meters":38000,"station_id":"ce4bhl92rcd13ifvqghg","pricing_plan_id":"cebpf4jnsgd1na2vs0mg"},{"bike_id":"7a66c1dc-0e20-49d1-b730-80923666f8ac","system_id":"levelo_inurba_marseille","lat":43.28703,"lon":5.39974,"is_reserved":false,"is_disabled":false,"rental_uris":{"android":"levelo://app?vid=7a66c1dc-0e20-49d1-b730-80923666f8ac","ios":"levelo://app?vid=7a66c1dc-0e20-49d1-b730-80923666f8ac"},"vehicle_type_id":"4","last_reported":1727240966,"current_range_meters":20800,"station_id":"ce4bho92rcd13ifvqh3g","pricing_plan_id":"cebpf4jnsgd1na2vs0mg"},{"bike_id":"4c43b43f-be17-43d2-95e0-fab0c099fe37","system_id":"levelo_inurba_marseille","lat":43.23152,"lon":5.43704,"is_reserved":false,"is_disabled":false,"rental_uris":{"android":"levelo://app?vid=4c43b43f-be17-43d2-95e0-fab0c099fe37","ios":"levelo://app?vid=4c43b43f-be17-43d2-95e0-fab0c099fe37"},"vehicle_type_id":"4","last_reported":1727240966,"current_range_meters":38400,"station_id":"ce4bhmp2rcd13ifvqgog","pricing_plan_id":"cebpf4jnsgd1na2vs0mg"},{"bike_id":"d24bbf1b-3aea-42be-a965-80ffa4745455","system_id":"levelo_inurba_marseille","lat":43.28351,"lon":5.381,"is_reserved":false,"is_disabled":false,"rental_uris":{"android":"levelo://app?vid=d24bbf1b-3aea-42be-a965-80ffa4745455","ios":"levelo://app?vid=d24bbf1b-3aea-42be-a965-80ffa4745455"},"vehicle_type_id":"4","last_reported":1727240966,"current_range_meters":38000,"station_id":"ce4bh412rcd13ifvqdr0","pricing_plan_id":"cebpf4jnsgd1na2vs0mg"},{"bike_id":"a7bca3df-0344-4204-86d7-b742d4769839","system_id":"levelo_inurba_marseille","lat":43.30863,"lon":5.3685,"is_reserved":false,"is_disabled":false,"rental_uris":{"android":"levelo://app?vid=a7bca3df-0344-4204-86d7-b742d4769839","ios":"levelo://app?vid=a7bca3df-0344-4204-86d7-b742d4769839"},"vehicle_type_id":"4","last_reported":1727240966,"current_range_meters":29600,"station_id":"ce4bgn92rcd13ifvqbvg","pricing_plan_id":"cebpf4jnsgd1na2vs0mg"},{"bike_id":"62526794-51be-4e5b-b345-77887fd73d76","system_id":"levelo_inurba_marseille","lat":43.283653,"lon":5.38627,"is_reserved":false,"is_disabled":false,"rental_uris":{"android":"levelo://app?vid=62526794-51be-4e5b-b345-77887fd73d76","ios":"levelo://app?vid=62526794-51be-4e5b-b345-77887fd73d76"},"vehicle_type_id":"4","last_reported":1727240966,"current_range_meters":30800,"station_id":"ce4bh492rcd13ifvqdvg","pricing_plan_id":"cebpf4jnsgd1na2vs0mg"},