{"last_updated":1734815289,"ttl":60,"version":"2.2","data":{"bikes":[{"bike_id":"8dfbf6ba-baab-4e6f-9062-13839afa469f","system_id":"levelo_inurba_marseille","lat":43.29043,"lon":5.35912,"is_reserved":false,"is_disabled":false,"rental_uris":{"android":"levelo://app?vid=8dfbf6ba-baab-4e6f-9062-13839afa469f","ios":"levelo://app?vid=8dfbf6ba-baab-4e6f-9062-13839afa469f"},"vehicle_type_id":"4","last_reported":1734815289,"current_range_meters":39200,"station_id":"ce4bha92rcd13ifvqeg0","pricing_plan_id":"cebpf4jnsgd1na2vs0mg"},{"bike_id":"7399ef3c-b710-4ab2-8f3f-19d2ad511c53","system_id":"levelo_inurba_marseille","lat":43.29957,"lon":5.38493,"is_reserved":false,"is_disabled":false,"rental_uris":{"android":"levelo://app?vid=7399ef3c-b710-4ab2-8f3f-19d2ad511c53","ios":"levelo://app?vid=7399ef3c-b710-4ab2-8f3f-19d2ad511c53"},"vehicle_type_id":"4","last_reported":1734815289,"current_range_meters":38000,"station_id":"ce4bgj92rcd13ifvqbd0","pricing_plan_id":"cebpf4jnsgd1na2vs0mg"},{"bike_id":"a1863d2b-2386-46ce-a724-ccf136a2a31b","system_id":"levelo_inurba_marseille","lat":43.29445,"lon":5.39734,"is_reserved":false,"is_disabled":false,"rental_uris":{"android":"levelo://app?vid=a1863d2b-2386-46ce-a724-ccf136a2a31b","ios":"levelo://app?vid=a1863d2b-2386-46ce-a724-ccf136a2a31b"},"vehicle_type_id":"4","last_reported":1734815289,"current_range_meters":20800,"station_id":"ce4bh3h2rcd13ifvqdo0","pricing_plan_id":"cebpf4jnsgd1na2vs0mg"},{"bike_id":"b5251cd0-66bc-4e10-9cd1-311b5de694fa","system_id":"levelo_inurba_marseille","lat":43.27617,"lon":5.36119,"is_reserved":false,"is_disabled":false,"rental_uris":{"android":"levelo://app?vid=b5251cd0-66bc-4e10-9cd1-311b5de694fa","ios":"levelo://app?vid=b5251cd0-66bc-4e10-9cd1-311b5de694fa"},"vehicle_type_id":"4","last_reported":1734815289,"current_range_meters":24400,"station_id":"ce4bgj92rcd13ifvqbe0","pricing_plan_id":"cebpf4jnsgd1na2vs0mg"},{"bike_id":"56ed354a-f7a3-45be-a584-68f46dbdfda3","system_id":"levelo_inurba_marseille","lat":43.295542,"lon":5.422798,"is_reserved":false,"is_disabled":false,"rental_uris":{"android":"levelo://app?vid=56ed354a-f7a3-45be-a584-68f46dbdfda3","ios":"levelo://app?vid=56ed354a-f7a3-45be-a584-68f46dbdfda3"},"vehicle_type_id":"4","last_reported":1734815289,"current_range_meters":20000,"station_id":"ce4bhph2rcd13ifvqhdg","pricing_plan_id":"cebpf4jnsgd1na2vs0mg"},{"bike_id":"e5f37ea9-8b48-4e69-947c-d271bf6228ec","system_id":"levelo_inurba_marseille","lat":43.2961,"lon":5.37734,"is_reserved":false,"is_disabled":false,"rental_uris":{"android":"levelo://app?vid=e5f37ea9-8b48-4e69-947c-d271bf6228ec","ios":"levelo://app?vid=e5f37ea9-8b48-4e69-947c-d271bf6228ec"},"vehicle_type_id":"4","last_reported":1734815289,"current_range_meters":38800,"station_id":"ce4bgi92rcd13ifvqb90","pricing_plan_id":"cebpf4jnsgd1na2vs0mg"},{"bike_id":"772a9839-8073-421a-bf69-06529f77ba3c","system_id":"levelo_inurba_marseille","lat":43.29416,"lon":5.38627,"is_reserved":false,"is_disabled":false,"rental_uris":{"android":"levelo://app?vid=772a9839-8073-421a-bf69-06529f77ba3c","ios":"levelo://app?vid=772a9839-8073-421a-bf69-06529f77ba3c"},"vehicle_type_id":"4","last_reported":1734815289,"current_range_meters":32400,"station_id":"ce4bh2h2rcd13ifvqdh0","pricing_plan_id":"cebpf4jnsgd1na2vs0mg"},{"bike_id":"c4be5cb7-c33d-4772-9180-63dfe76361cd","system_id":"levelo_inurba_marseille","lat":43.32333,"lon":5.40611,"is_reserved":false,"is_disabled":false,"rental_uris":{"android":"levelo://app?vid=c4be5cb7-c33d-4772-9180-63dfe76361cd","ios":"levelo://app?vid=c4be5cb7-c33d-4772-9180-63dfe76361cd"},"vehicle_type_id":"4","last_reported":1734815289,"current_range_meters":38400,"station_id":"ce4bhq92rcd13ifvqhjg","pricing_plan_id":"cebpf4jnsgd1na2vs0mg"},{"bike_id":"5b10e74a-ebae-4d31-82df-a604723be50e","system_id":"levelo_inurba_marseille","lat":43.29529,"lon":5.38548,"is_reserved":false,"is_disabled":false,"rental_uris":{"android":"levelo://app?vid=5b10e74a-ebae-4d31-82df-a604723be50e","ios":"levelo://app?vid=5b10e74a-ebae-4d31-82df-a604723be50e"},"vehicle_type_id":"4","last_reported":1734815289,"current_range_meters":31200,"station_id":"ce4bgih2rcd13ifvqba0","pricing_plan_id":"cebpf4jnsgd1na2vs0mg"},{"bike_id":"2c7e79e8-a77a-4b0b-afd8-d3f3db892b15","system_id":"levelo_inurba_marseille","lat":43.2466,"lon":5.38164,"is_reserved":false,"is_disabled":false,"rental_uris":{"android":"levelo://app?vid=2c7e79e8-a77a-4b0b-afd8-d3f3db892b15","ios":"levelo://app?vid=2c7e79e8-a77a-4b0b-afd8-d3f3db892b15"},"vehicle_type_id":"4","last_reported":1734815289,"current_range_meters":34000,"station_id":"ce4bhih2rcd13ifvqfr0","pricing_plan_id":"cebpf4jnsgd1na2vs0mg"},{"bike_id":"2c0362c6-adfe-4fca-91ce-28232789a7e0","system_id":"levelo_inurba_marseille","lat":43.287133,"lon":5.379445,"is_reserved":false,"is_disabled":false,"rental_uris":{"android":"levelo://app?vid=2c0362c6-adfe-4fca-91ce-28232789a7e0","ios":"levelo://app?vid=2c0362c6-adfe-4fca-91ce-28232789a7e0"},"vehicle_type_id":"4","last_reported":1734815289,"current_range_meters":24400,"station_id":"ce4bh9p2rcd13ifvqec0","pricing_plan_id":"cebpf4jnsgd1na2vs0mg"},{"bike_id":"96f67906-c94f-4a78-ae6e-fdff28a17019","system_id":"levelo_inurba_marseille","lat":43.337444,"lon":5.374475,"is_reserved":false,"is_disabled":false,"rental_uris":{"android":"levelo://app?vid=96f67906-c94f-4a78-ae6e-fdff28a17019","ios":"levelo://app?vid=96f67906-c94f-4a78-ae6e-fdff28a17019"},"vehicle_type_id":"4","last_reported":1734815289,"current_range_meters":36800,"station_id":"","pricing_plan_id":"cebpf4jnsgd1na2vs0mg"},{"bike_id":"6d401513-66ba-4f40-af76-25e509695a78","system_id":"levelo_inurba_marseille","lat":43.2922,"lon":5.36075,"is_reserved":false,"is_disabled":false,"rental_uris":{"android":"levelo://app?vid=6d401513-66ba-4f40-af76-25e509695a78","ios":"levelo://app?vid=6d401513-66ba-4f40-af76-25e509695a78"},"vehicle_type_id":"4","last_reported":1734815289,"current_range_meters":22400,"station_id":"ce4bhbh2rcd13ifvqeqg","pricing_plan_id":"cebpf4jnsgd1na2vs0mg"},{"bike_id":"4cb96e9d-c9e6-4a5d-939f-8e9658309e35","system_id":"levelo_inurba_marseille","lat":43.29225,"lon":5.3605,"is_reserved":false,"is_disabled":false,"rental_uris":{"android":"levelo://app?vid=4cb96e9d-c9e6-4a5d-939f-8e9658309e35","ios":"levelo://app?vid=4cb96e9d-c9e6-4a5d-939f-8e9658309e35"},"vehicle_type_id":"4","last_reported":1734815289,"current_range_meters":33600,"station_id":"ce4bhbh2rcd13ifvqeqg","pricing_plan_id":"cebpf4jnsgd1na2vs0mg"},{"bike_id":"ff069cf0-e6be-49a4-a9bb-ed2ce22868e2","system_id":"levelo_inurba_marseille","lat":43.30802,"lon":5.38152,"is_reserved":false,"is_disabled":false,"rental_uris":{"android":"levelo://app?vid=ff069cf0-e6be-49a4-a9bb-ed2ce22868e2","ios":"levelo://app?vid=ff069cf0-e6be-49a4-a9bb-ed2ce22868e2"},"vehicle_type_id":"4","last_reported":1734815289,"current_range_meters":17600,"station_id":"ce4bgt12rcd13ifvqce0","pricing_plan_id":"cebpf4jnsgd1na2vs0mg"},{"bike_id":"b27cd410-1a10-4c2d-9496-484cc8899826","system_id":"levelo_inurba_marseille","lat":43.24672,"lon":5.38163,"is_reserved":false,"is_disabled":false,"rental_uris":{"android":"levelo://app?vid=b27cd410-1a10-4c2d-9496-484cc8899826","ios":"levelo://app?vid=b27cd410-1a10-4c2d-9496-484cc8899826"},"vehicle_type_id":"4","last_reported":1734815289,"current_range_meters":7200,"station_id":"ce4bhih2rcd13ifvqfr0","pricing_plan_id":"cebpf4jnsgd1na2vs0mg"},{"bike_id":"5481ebd9-b3a3-4db6-ba37-c92c821046b1","system_id":"levelo_inurba_marseille","lat":43.2762,"lon":5.3612,"is_reserved":false,"is_disabled":false,"rental_uris":{"android":"levelo://app?vid=5481ebd9-b3a3-4db6-ba37-c92c821046b1","ios":"levelo://app?vid=5481ebd9-b3a3-4db6-ba37-c92c821046b1"},"vehicle_type_id":"4","last_reported":1734815289,"current_range_meters":38800,"station_id":"ce4bgj92rcd13ifvqbe0","pricing_plan_id":"cebpf4jnsgd1na2vs0mg"},{"bike_id":"ac9ae62b-7f39-42e7-b9ec-75e7356640a3","system_id":"levelo_inurba_marseille","lat":43.32107,"lon":5.36775,"is_reserved":false,"is_disabled":false,"rental_uris":{"android":"levelo://app?vid=ac9ae62b-7f39-42e7-b9ec-75e7356640a3","ios":"levelo://app?vid=ac9ae62b-7f39-42e7-b9ec-75e7356640a3"},"vehicle_type_id":"4","last_reported":1734815289,"current_range_meters":26800,"station_id":"ce4bhrh2rcd13ifvqhug","pricing_plan_id":"cebpf4jnsgd1na2vs0mg"},{"bike_id":"beff193d-d4a9-44b5-a0d3-b133075a063b","system_id":"levelo_inurba_marseille","lat":43.29427,"lon":5.38639,"is_reserved":false,"is_disabled":false,"rental_uris":{"android":"levelo://app?vid=beff193d-d4a9-44b5-a0d3-b133075a063b","ios":"levelo://app?vid=beff193d-d4a9-44b5-a0d3-b133075a063b"},"vehicle_type_id":"4","last_reported":1734815289,"current_range_meters":38800,"station_id":"ce4bh2h2rcd13ifvqdh0","pricing_plan_id":"cebpf4jnsgd1na2vs0mg"},{"bike_id":"27a80574-41ac-483b-9b44-565b2f15f72c","system_id":"levelo_inurba_marseille","lat":43.2963,"lon":5.37762,"is_reserved":false,"is_disabled":false,"rental_uris":{"android":"levelo://app?vid=27a80574-41ac-483b-9b44-565b2f15f72c","ios":"levelo://app?vid=27a80574-41ac-483b-9b44-565b2f15f72c"},"vehicle_type_id":"4","last_reported":1734815289,"current_range_meters":38800,"station_id":"ce4bgj92rcd13ifvqbd0","pricing_plan_id":"cebpf4jnsgd1na2vs0mg"},{"bike_id":"a46bd0cf-4e0d-416a-8893-53123be14ef8","system_id":"levelo_inurba_marseille","lat":43.29189,"lon":5.39326,"is_reserved":false,"is_disabled":false,"rental_uris":{"android":"levelo://app?vid=a46bd0cf-4e0d-416a-8893-53123be14ef8","ios":"levelo://app?vid=a46bd0cf-4e0d-416a-8893-53123be14ef8"},"vehicle_type_id":"4","last_reported":1734815289,"current_range_meters":18800,"station_id":"ce4bh192rcd13ifvqdd0","pricing_plan_id":"cebpf4jnsgd1na2vs0mg"},{"bike_id":"843c6878-0e3f-4b01-b1b7-bbb9a0523c31","system_id":"levelo_inurba_marseille","lat":43.3266,"lon":5.40984,"is_reserved":false,"is_disabled":false,"rental_uris":{"android":"levelo://app?vid=843c6878-0e3f-4b01-b1b7-bbb9a0523c31","ios":"levelo://app?vid=843c6878-0e3f-4b01-b1b7-bbb9a0523c31"},"vehicle_type_id":"4","last_reported":1734815289,"current_range_meters":34800,"station_id":"ce4bhpp2rcd13ifvqhgg","pricing_plan_id":"cebpf4jnsgd1na2vs0mg"},{"bike_id":"9544274b-2a9a-446a-b640-0fb36aa69266","system_id":"levelo_inurba_marseille","lat":43.27996,"lon":5.40014,"is_reserved":false,"is_disabled":false,"rental_uris":{"android":"levelo://app?vid=9544274b-2a9a-446a-b640-0fb36aa69266","ios":"levelo://app?vid=9544274b-2a9a-446a-b640-0fb36aa69266"},"vehicle_type_id":"4","last_reported":1734815289,"current_range_meters":38800,"station_id":"ce4bho92rcd13ifvqh4g","pricing_plan_id":"cebpf4jnsgd1na2vs0mg"},{"bike_id":"db6d4cd6-324d-40d9-b2a7-d53d9856d610","system_id":"levelo_inurba_marseille","lat":43.29353,"lon":5.42834,"is_reserved":false,"is_disabled":false,"rental_uris":{"android":"levelo://app?vid=db6d4cd6-324d-40d9-b2a7-d53d9856d610","ios":"levelo://app?vid=db6d4cd6-324d-40d9-b2a7-d53d9856d610"},"vehicle_type_id":"4","last_reported":1734815289,"current_range_meters":3600,"station_id":"","pricing_plan_id":"cebpf4jnsgd1na2vs0mg"},{"bike_id":"61e8a040-6d89-43a0-9e98-054a047dd65e","system_id":"levelo_inurba_marseille","lat":43.28678,"lon":5.38663,"is_reserved":false,"is_disabled":false,"rental_uris":{"android":"levelo://app?vid=61e8a040-6d89-43a0-9e98-054a047dd65e","ios":"levelo://app?vid=61e8a040-6d89-43a0-9e98-054a047dd65e"},"vehicle_type_id":"4","last_reported":1734815289,"current_range_meters":24400,"station_id":"ce4bh492rcd13ifvqdug","pricing_plan_id":"cebpf4jnsgd1na2vs0mg"},{"bike_id":"4e2e6240-5440-4ed7-ace9-4c9e6bd778e5","system_id":"levelo_inurba_marseille","lat":43.2408,"lon":5.37763,"is_reserved":false,"is_disabled":false,"rental_uris":{"android":"levelo://app?vid=4e2e6240-5440-4ed7-ace9-4c9e6bd778e5","ios":"levelo://app?vid=4e2e6240-5440-4ed7-ace9-4c9e6bd778e5"},"vehicle_type_id":"4","last_reported":1734815289,"current_range_meters":35600,"station_id":"ce4bhnp2rcd13ifvqgvg","pricing_plan_id":"cebpf4jnsgd1na2vs0mg"},{"bike_id":"df357b14-4c6a-4905-8927-9863400f5dca","system_id":"levelo_inurba_marseille","lat":43.25866,"lon":5.399,"is_reserved":false,"is_disabled":false,"rental_uris":{"android":"levelo://app?vid=df357b14-4c6a-4905-8927-9863400f5dca","ios":"levelo://app?vid=df357b14-4c6a-4905-8927-9863400f5dca"},"vehicle_type_id":"4","last_reported":1734815289,"current_range_meters":36400,"station_id":"ce4bhl92rcd13ifvqghg","pricing_plan_id":"cebpf4jnsgd1na2vs0mg"},{"bike_id":"710cbb4b-92a3-4fcb-a674-51cdb538a062","system_id":"levelo_inurba_marseille","lat":43.26055,"lon":5.39397,"is_reserved":false,"is_disabled":true,"rental_uris":{"android":"levelo://app?vid=710cbb4b-92a3-4fcb-a674-51cdb538a062","ios":"levelo://app?vid=710cbb4b-92a3-4fcb-a674-51cdb538a062"},"vehicle_type_id":"4","last_reported":1734815289,"current_range_meters":36800,"station_id":"ce4bhh92rcd13ifvqfj0","pricing_plan_id":"cebpf4jnsgd1na2vs0mg"},{"bike_id":"3df29660-546c-42a3-ba02-2f5ced7e58e3","system_id":"levelo_inurba_marseille","lat":43.27971,"lon":5.3876,"is_reserved":false,"is_disabled":false,"rental_uris":{"android":"levelo://app?vid=3df29660-546c-42a3-ba02-2f5ced7e58e3","ios":"levelo://app?vid=3df29660-546c-42a3-ba02-2f5ced7e58e3"},"vehicle_type_id":"4","last_reported":1734815289,"current_range_meters":24800,"station_id":"ce4bhg12rcd13ifvqf80","pricing_plan_id":"cebpf4jnsgd1na2vs0mg"},{"bike_id":"38cc51c3-e8f7-4fea-a099-15f6f5502672","system_id":"levelo_inurba_marseille","lat":43.32367,"lon":5.38881,"is_reserved":false,"is_disabled":false,"rental_uris":{"android":"levelo://app?vid=38cc51c3-e8f7-4fea-a099-15f6f5502672","ios":"levelo://app?vid=38cc51c3-e8f7-4fea-a099-15f6f5502672"},"vehicle_type_id":"4","last_reported":1734815289,"current_range_meters":3200,"station_id":"ce4bhqp2rcd13ifvqhog","pricing_plan_id":"cebpf4jnsgd1na2vs0mg"},{"bike_id":"53faf155-c729-480e-930c-4d73106f864a","system_id":"levelo_inurba_marseille","lat":43.26216,"lon":5.37404,"is_reserved":false,"is_disabled":false,"rental_uris":{"android":"levelo://app?vid=53faf155-c729-480e-930c-4d73106f864a","ios":"levelo://app?vid=53faf155-c729-480e-930c-4d73106f864a"},"vehicle_type_id":"4","last_reported":1734815289,"current_range_meters":38800,"station_id":"ce4bhgp2rcd13ifvqfc0","pricing_plan_id":"cebpf4jnsgd1na2vs0mg"},{"bike_id":"dd52cea9-6fe3-460c-a4fc-255f18d6f38c","system_id":"levelo_inurba_marseille","lat":43.250014,"lon":5.389231,"is_reserved":false,"is_disabled":false,"rental_uris":{"android":"levelo://app?vid=dd52cea9-6fe3-460c-a4fc-255f18d6f38c","ios":"levelo://app?vid=dd52cea9-6fe3-460c-a4fc-255f18d6f38c"},"vehicle_type_id":"4","last_reported":1734815289,"current_range_meters":24800,"station_id":"ce4bhgp2rcd13ifvqfd0","pricing_plan_id":"cebpf4jnsgd1na2vs0mg"},{"bike_id":"1d2bbb29-092d-4c7c-a2b7-225e3de9d1c6","system_id":"levelo_inurba_marseille","lat":43.30782,"lon":5.37667,"is_reserved":false,"is_disabled":false,"rental_uris":{"android":"levelo://app?vid=1d2bbb29-092d-4c7c-a2b7-225e3de9d1c6","ios":"levelo://app?vid=1d2bbb29-092d-4c7c-a2b7-225e3de9d1c6"},"vehicle_type_id":"4","last_reported":1734815289,"current_range_meters":37600,"station_id":"ce4bgv92rcd13ifvqcq0","pricing_plan_id":"cebpf4jnsgd1na2vs0mg"},{"bike_id":"e2093eaf-d010-461b-aa40-a85f704a9b1e","system_id":"levelo_inurba_marseille","lat":43.27364,"lon":5.36252,"is_reserved":false,"is_disabled":false,"rental_uris":{"android":"levelo://app?vid=e2093eaf-d010-461b-aa40-a85f704a9b1e","ios":"levelo://app?vid=e2093eaf-d010-461b-aa40-a85f704a9b1e"},"vehicle_type_id":"4","last_reported":1734815289,"current_range_meters":39200,"station_id":"ce4bhbh2rcd13ifvqeo0","pricing_plan_id":"cebpf4jnsgd1na2vs0mg"},{"bike_id":"e14ed6e7-9a57-4e47-923b-149355f7b556","system_id":"levelo_inurba_marseille","lat":43.29008,"lon":5.35621,"is_reserved":false,"is_disabled":false,"rental_uris":{"android":"levelo://app?vid=e14ed6e7-9a57-4e47-923b-149355f7b556","ios":"levelo://app?vid=e14ed6e7-9a57-4e47-923b-149355f7b556"},"vehicle_type_id":"4","last_reported":1734815289,"current_range_meters":22800,"station_id":"ce4bhb92rcd13ifvqen0","pricing_plan_id":"cebpf4jnsgd1na2vs0mg"},{"bike_id":"a7cfd2b8-b9ad-4ad6-a840-d70d03c4d9f6","system_id":"levelo_inurba_marseille","lat":43.27985,"lon":5.41672,"is_reserved":false,"is_disabled":false,"rental_uris":{"android":"levelo://app?vid=a7cfd2b8-b9ad-4ad6-a840-d70d03c4d9f6","ios":"levelo://app?vid=a7cfd2b8-b9ad-4ad6-a840-d70d03c4d9f6"},"vehicle_type_id":"4","last_reported":1734815289,"current_range_meters":38800,"station_id":"ce4bho12rcd13ifvqh1g","pricing_plan_id":"cebpf4jnsgd1na2vs0mg"},{"bike_id":"36e164c0-80cb-4248-b925-25a4125d219e","system_id":"levelo_inurba_marseille","lat":43.31326,"lon":5.39701,"is_reserved":false,"is_disabled":false,"rental_uris":{"android":"levelo://app?vid=36e164c0-80cb-4248-b925-25a4125d219e","ios":"levelo://app?vid=36e164c0-80cb-4248-b925-25a4125d219e"},"vehicle_type_id":"4","last_reported":1734815289,"current_range_meters":38400,"station_id":"ce4bgvp2rcd13ifvqcu0","pricing_plan_id":"cebpf4jnsgd1na2vs0mg"},{"bike_id":"d36487ee-3336-4c27-a03a-67d7e71f0396","system_id":"levelo_inurba_marseille","lat":43.28941,"lon":5.36627,"is_reserved":false,"is_disabled":false,"rental_uris":{"android":"levelo://app?vid=d36487ee-3336-4c27-a03a-67d7e71f0396","ios":"levelo://app?vid=d36487ee-3336-4c27-a03a-67d7e71f0396"},"vehicle_type_id":"4","last_reported":1734815289,"current_range_meters":30800,"station_id":"ce4bhap2rcd13ifvqek0","pricing_plan_id":"cebpf4jnsgd1na2vs0mg"},{"bike_id":"3b25d84b-0030-4bea-8ce7-7a21c21d5d01","system_id":"levelo_inurba_marseille","lat":43.24806,"lon":5.37454,"is_reserved":false,"is_disabled":false,"rental_uris":{"android":"levelo://app?vid=3b25d84b-0030-4bea-8ce7-7a21c21d5d01","ios":"levelo://app?vid=3b25d84b-0030-4bea-8ce7-7a21c21d5d01"},"vehicle_type_id":"4","last_reported":1734815289,"current_range_meters":18000,"station_id":"ce4bhgh2rcd13ifvqfb0","pricing_plan_id":"cebpf4jnsgd1na2vs0mg"},{"bike_id":"f634001f-8036-463b-9cfd-6875e48f1f8d","system_id":"levelo_inurba_marseille","lat":43.29735,"lon":5.37693,"is_reserved":false,"is_disabled":false,"rental_uris":{"android":"levelo://app?vid=f634001f-8036-463b-9cfd-6875e48f1f8d","ios":"levelo://app?vid=f634001f-8036-463b-9cfd-6875e48f1f8d"},"vehicle_type_id":"4","last_reported":1734815289,"current_range_meters":16400,"station_id":"ce4bgkh2rcd13ifvqbl0","pricing_plan_id":"cebpf4jnsgd1na2vs0mg"},{"bike_id":"41d0d9f5-bb31-41f6-8358-898df39bf21c","system_id":"levelo_inurba_marseille","lat":43.25873,"lon":5.39897,"is_reserved":false,"is_disabled":false,"rental_uris":{"android":"levelo://app?vid=41d0d9f5-bb31-41f6-8358-898df39bf21c","ios":"levelo://app?vid=41d0d9f5-bb31-41f6-8358-898df39bf21c"},"vehicle_type_id":"4","last_reported":1734815289,"current_range_meters":38800,"station_id":"ce4bhl92rcd13ifvqghg","pricing_plan_id":"cebpf4jnsgd1na2vs0mg"},{"bike_id":"354d1337-1650-4fb2-8f9b-d871c40ab302","system_id":"levelo_inurba_marseille","lat":43.29972,"lon":5.41313,"is_reserved":false,"is_disabled":false,"rental_uris":{"android":"levelo://app?vid=354d1337-1650-4fb2-8f9b-d871c40ab302","ios":"levelo://app?vid=354d1337-1650-4fb2-8f9b-d871c40ab302"},"vehicle_type_id":"4","last_reported":1734815289,"current_range_meters":32000,"station_id":"ce4bhp12rcd13ifvqh9g","pricing_plan_id":"cebpf4jnsgd1na2vs0mg"},{"bike_id":"b6c864b4-2d74-4843-a929-10118d9d48af","system_id":"levelo_inurba_marseille","lat":43.25497,"lon":5.37648,"is_reserved":false,"is_disabled":false,"rental_uris":{"android":"levelo://app?vid=b6c864b4-2d74-4843-a929-10118d9d48af","ios":"levelo://app?vid=b6c864b4-2d74-4843-a929-10118d9d48af"},"vehicle_type_id":"4","last_reported":1734815289,"current_range_meters":38800,"station_id":"ce4bhh12rcd13ifvqff0","pricing_plan_id":"cebpf4jnsgd1na2vs0mg"},{"bike_id":"e724f4e5-0922-4e36-91f4-8a4c9d514ff5","system_id":"levelo_inurba_marseille","lat":43.29844,"lon":5.36261,"is_reserved":false,"is_disabled":false,"rental_uris":{"android":"levelo://app?vid=e724f4e5-0922-4e36-91f4-8a4c9d514ff5","ios":"levelo://app?vid=e724f4e5-0922-4e36-91f4-8a4c9d514ff5"},"vehicle_type_id":"4","last_reported":1734815289,"current_range_meters":39200,"station_id":"ce4bgpp2rcd13ifvqc3g","pricing_plan_id":"cebpf4jnsgd1na2vs0mg"},{"bike_id":"35ee712a-d796-4f28-9ebc-fd0d79d1d2e3","system_id":"levelo_inurba_marseille","lat":43.299366,"lon":5.385565,"is_reserved":false,"is_disabled":false,"rental_uris":{"android":"levelo://app?vid=35ee712a-d796-4f28-9ebc-fd0d79d1d2e3","ios":"levelo://app?vid=35ee712a-d796-4f28-9ebc-fd0d79d1d2e3"},"vehicle_type_id":"4","last_reported":1734815289,"current_range_meters":23200,"station_id":"ce4bgj92rcd13ifvqbd0","pricing_plan_id":"cebpf4jnsgd1na2vs0mg"},{"bike_id":"fa9c279c-e7c7-4764-8a54-d6be3fbb0a78","system_id":"levelo_inurba_marseille","lat":43.30923,"lon":5.40143,"is_reserved":false,"is_disabled":false,"rental_uris":{"android":"levelo://app?vid=fa9c279c-e7c7-4764-8a54-d6be3fbb0a78","ios":"levelo://app?vid=fa9c279c-e7c7-4764-8a54-d6be3fbb0a78"},"vehicle_type_id":"4","last_reported":1734815289,"current_range_meters":20400,"station_id":"ce4bgvp2rcd13ifvqct0","pricing_plan_id":"cebpf4jnsgd1na2vs0mg"},{"bike_id":"d98f0b8a-1ef4-43b4-85a1-12b00b5f4de1","system_id":"levelo_inurba_marseille","lat":43.28424,"lon":5.34997,"is_reserved":false,"is_disabled":false,"rental_uris":{"android":"levelo://app?vid=d98f0b8a-1ef4-43b4-85a1-12b00b5f4de1","ios":"levelo://app?vid=d98f0b8a-1ef4-43b4-85a1-12b00b5f4de1"},"vehicle_type_id":"4","last_reported":1734815289,"current_range_meters":38000,"station_id":"ce4bhbh2rcd13ifvqepg","pricing_plan_id":"cebpf4jnsgd1na2vs0mg"},{"bike_id":"dfb361fe-f637-4041-b1c6-d571444472cc","system_id":"levelo_inurba_marseille","lat":43.33021,"lon":5.39041,"is_reserved":false,"is_disabled":false,"rental_uris":{"android":"levelo://app?vid=dfb361fe-f637-4041-b1c6-d571444472cc","ios":"levelo://app?vid=dfb361fe-f637-4041-b1c6-d571444472cc"},"vehicle_type_id":"4","last_reported":1734815289,"current_range_meters":35200,"station_id":"ce4bhr92rcd13ifvqhrg","pricing_plan_id":"cebpf4jnsgd1na2vs0mg"},{"bike_id":"031a4817-6dc9-4c96-846e-9a2e1db17c76","system_id":"levelo_inurba_marseille","lat":43.29797,"lon":5.38114,"is_reserved":false,"is_disabled":false,"rental_uris":{"android":"levelo://app?vid=031a4817-6dc9-4c96-846e-9a2e1db17c76","ios":"levelo://app?vid=031a4817-6dc9-4c96-846e-9a2e1db17c76"},"vehicle_type_id":"4","last_reported":1734815289,"current_range_meters":36400,"station_id":"ce4bgip2rcd13ifvqbb0","pricing_plan_id":"cebpf4jnsgd1na2vs0mg"},{"bike_id":"71bbaaf0-30fa-412b-9088-f880a672af88","system_id":"levelo_inurba_marseille","lat":43.26026,"lon":5.37549,"is_reserved":false,"is_disabled":false,"rental_uris":{"android":"levelo://app?vid=71bbaaf0-30fa-412b-9088-f880a672af88","ios":"levelo://app?vid=71bbaaf0-30fa-412b-9088-f880a672af88"},"vehicle_type_id":"4","last_reported":1734815289,"current_range_meters":38400,"station_id":"ce4bhgh2rcd13ifvqfa0","pricing_plan_id":"cebpf4jnsgd1na2vs0mg"},{"bike_id":"56a92da3-50f2-47a2-b378-0ec885fcc375","system_id":"levelo_inurba_marseille","lat":43.315467,"lon":5.380253,"is_reserved":false,"is_disabled":false,"rental_uris":{"android":"levelo://app?vid=56a92da3-50f2-47a2-b378-0ec885fcc375","ios":"levelo://app?vid=56a92da3-50f2-47a2-b378-0ec885fcc375"},"vehicle_type_id":"4","last_reported":1734815289,"current_range_meters":38800,"station_id":"ce4bhsp2rcd13ifvqi50","pricing_plan_id":"cebpf4jnsgd1na2vs0mg"},{"bike_id":"00db35cd-cec7-42e5-8252-c116a6b19138","system_id":"levelo_inurba_marseille","lat":43.30908,"lon":5.36836,"is_reserved":false,"is_disabled":false,"rental_uris":{"android":"levelo://app?vid=00db35cd-cec7-42e5-8252-c116a6b19138","ios":"levelo://app?vid=00db35cd-cec7-42e5-8252-c116a6b19138"},"vehicle_type_id":"4","last_reported":1734815289,"current_range_meters":28400,"station_id":"ce4bgn92rcd13ifvqbvg","pricing_plan_id":"cebpf4jnsgd1na2vs0mg"},{"bike_id":"425b2998-3e7f-483e-a0af-a63391fee683","system_id":"levelo_inurba_marseille","lat":43.30138,"lon":5.38777,"is_reserved":false,"is_disabled":false,"rental_uris":{"android":"levelo://app?vid=425b2998-3e7f-483e-a0af-a63391fee683","ios":"levelo://app?vid=425b2998-3e7f-483e-a0af-a63391fee683"},"vehicle_type_id":"4","last_reported":1734815289,"current_range_meters":18800,"station_id":"ce4bhoh2rcd13ifvqh6g","pricing_plan_id":"cebpf4jnsgd1na2vs0mg"},{"bike_id":"3fcbbfc8-13a7-4934-aa13-4ef41570c303","system_id":"levelo_inurba_marseille","lat":43.29524,"lon":5.39048,"is_reserved":false,"is_disabled":false,"rental_uris":{"android":"levelo://app?vid=3fcbbfc8-13a7-4934-aa13-4ef41570c303","ios":"levelo://app?vid=3fcbbfc8-13a7-4934-aa13-4ef41570c303"},"vehicle_type_id":"4","last_reported":1734815289,"current_range_meters":38800,"station_id":"ce4bh3p2rcd13ifvqdp0","pricing_plan_id":"cebpf4jnsgd1na2vs0mg"},{"bike_id":"8efa1ff8-5022-45b3-9b20-d604901111ec","system_id":"levelo_inurba_marseille","lat":43.30321,"lon":5.36901,"is_reserved":false,"is_disabled":false,"rental_uris":{"android":"levelo://app?vid=8efa1ff8-5022-45b3-9b20-d604901111ec","ios":"levelo://app?vid=8efa1ff8-5022-45b3-9b20-d604901111ec"},"vehicle_type_id":"4","last_reported":1734815289,"current_range_meters":36000,"station_id":"ce4bgqh2rcd13ifvqc5g","pricing_plan_id":"cebpf4jnsgd1na2vs0mg"},{"bike_id":"0b6be252-fb27-4c60-a5e9-5f1fe87fb31b","system_id":"levelo_inurba_marseille","lat":43.29411,"lon":5.38606,"is_reserved":false,"is_disabled":false,"rental_uris":{"android":"levelo://app?vid=0b6be252-fb27-4c60-a5e9-5f1fe87fb31b","ios":"levelo://app?vid=0b6be252-fb27-4c60-a5e9-5f1fe87fb31b"},"vehicle_type_id":"4","last_reported":1734815289,"current_range_meters":34000,"station_id":"ce4bh2h2rcd13ifvqdh0","pricing_plan_id":"cebpf4jnsgd1na2vs0mg"},{"bike_id":"574569a8-47af-4b5a-abbf-9be9948fc833","system_id":"levelo_inurba_marseille","lat":43.28933,"lon":5.39624,"is_reserved":false,"is_disabled":false,"rental_uris":{"android":"levelo://app?vid=574569a8-47af-4b5a-abbf-9be9948fc833","ios":"levelo://app?vid=574569a8-47af-4b5a-abbf-9be9948fc833"},"vehicle_type_id":"4","last_reported":1734815289,"current_range_meters":39200,"station_id":"ce4bh3h2rcd13ifvqdn0","pricing_plan_id":"cebpf4jnsgd1na2vs0mg"},{"bike_id":"5eecd7e8-2667-4ea8-b331-d492de133433","system_id":"levelo_inurba_marseille","lat":43.28485,"lon":5.38428,"is_reserved":false,"is_disabled":false,"rental_uris":{"android":"levelo://app?vid=5eecd7e8-2667-4ea8-b331-d492de133433","ios":"levelo://app?vid=5eecd7e8-2667-4ea8-b331-d492de133433"},"vehicle_type_id":"4","last_reported":1734815289,"current_range_meters":36800,"station_id":"ce4bh512rcd13ifvqe3g","pricing_plan_id":"cebpf4jnsgd1na2vs0mg"},{"bike_id":"65ea5c1f-613a-43b8-9672-6e981544fe36","system_id":"levelo_inurba_marseille","lat":43.29683,"lon":5.37295,"is_reserved":false,"is_disabled":false,"rental_uris":{"android":"levelo://app?vid=65ea5c1f-613a-43b8-9672-6e981544fe36","ios":"levelo://app?vid=65ea5c1f-613a-43b8-9672-6e981544fe36"},"vehicle_type_id":"4","last_reported":1734815289,"current_range_meters":18000,"station_id":"ce4bgk12rcd13ifvqbj0","pricing_plan_id":"cebpf4jnsgd1na2vs0mg"},{"bike_id":"5de55ec3-b446-45b5-9e6a-b67b9996a2b3","system_id":"levelo_inurba_marseille","lat":43.273156,"lon":5.391091,"is_reserved":false,"is_disabled":true,"rental_uris":{"android":"levelo://app?vid=5de55ec3-b446-45b5-9e6a-b67b9996a2b3","ios":"levelo://app?vid=5de55ec3-b446-45b5-9e6a-b67b9996a2b3"},"vehicle_type_id":"4","last_reported":1734815289,"current_range_meters":35600,"station_id":"ce4bhgp2rcd13ifvqfe0","pricing_plan_id":"cebpf4jnsgd1na2vs0mg"},{"bike_id":"0e9a1840-dc0c-4e4e-958e-db0b5eeb7894","system_id":"levelo_inurba_marseille","lat":43.30088,"lon":5.39075,"is_reserved":false,"is_disabled":false,"rental_uris":{"android":"levelo://app?vid=0e9a1840-dc0c-4e4e-958e-db0b5eeb7894","ios":"levelo://app?vid=0e9a1840-dc0c-4e4e-958e-db0b5eeb7894"},"vehicle_type_id":"4","last_reported":1734815289,"current_range_meters":28400,"station_id":"ce4bh192rcd13ifvqdb0","pricing_plan_id":"cebpf4jnsgd1na2vs0mg"},{"bike_id":"9daa44e7-dbcd-4dc1-8b8c-d5b1cf6bc951","system_id":"levelo_inurba_marseille","lat":43.28941,"lon":5.36633,"is_reserved":false,"is_disabled":false,"rental_uris":{"android":"levelo://app?vid=9daa44e7-dbcd-4dc1-8b8c-d5b1cf6bc951","ios":"levelo://app?vid=9daa44e7-dbcd-4dc1-8b8c-d5b1cf6bc951"},"vehicle_type_id":"4","last_reported":1734815289,"current_range_meters":38000,"station_id":"ce4bhap2rcd13ifvqek0","pricing_plan_id":"cebpf4jnsgd1na2vs0mg"},{"bike_id":"27fc337d-4a2c-4e2b-b847-8292aef767d8","system_id":"levelo_inurba_marseille","lat":43.29164,"lon":5.37163,"is_reserved":false,"is_disabled":false,"rental_uris":{"android":"levelo://app?vid=27fc337d-4a2c-4e2b-b847-8292aef767d8","ios":"levelo://app?vid=27fc337d-4a2c-4e2b-b847-8292aef767d8"},"vehicle_type_id":"4","last_reported":1734815289,"current_range_meters":22400,"station_id":"ce4bha92rcd13ifvqeh0","pricing_plan_id":"cebpf4jnsgd1na2vs0mg"},{"bike_id":"85225762-d7ec-4912-87cf-30f56fc88559","system_id":"levelo_inurba_marseille","lat":43.2923,"lon":5.36067,"is_reserved":false,"is_disabled":false,"rental_uris":{"android":"levelo://app?vid=85225762-d7ec-4912-87cf-30f56fc88559","ios":"levelo://app?vid=85225762-d7ec-4912-87cf-30f56fc88559"},"vehicle_type_id":"4","last_reported":1734815289,"current_range_meters":15200,"station_id":"ce4bhbh2rcd13ifvqeqg","pricing_plan_id":"cebpf4jnsgd1na2vs0mg"},{"bike_id":"5bc40c22-a9ce-44f6-b16d-3abdeb72196c","system_id":"levelo_inurba_marseille","lat":43.2621,"lon":5.37919,"is_reserved":false,"is_disabled":false,"rental_uris":{"android":"levelo://app?vid=5bc40c22-a9ce-44f6-b16d-3abdeb72196c","ios":"levelo://app?vid=5bc40c22-a9ce-44f6-b16d-3abdeb72196c"},"vehicle_type_id":"4","last_reported":1734815289,"current_range_meters":36000,"station_id":"ce4bhjp2rcd13ifvqg90","pricing_plan_id":"cebpf4jnsgd1na2vs0mg"},{"bike_id":"61150b1a-e695-4098-8a29-ec1e4c507c36","system_id":"levelo_inurba_marseille","lat":43.31361,"lon":5.36704,"is_reserved":false,"is_disabled":false,"rental_uris":{"android":"levelo://app?vid=61150b1a-e695-4098-8a29-ec1e4c507c36","ios":"levelo://app?vid=61150b1a-e695-4098-8a29-ec1e4c507c36"},"vehicle_type_id":"4","last_reported":1734815289,"current_range_meters":38800,"station_id":"ce4bgr92rcd13ifvqc6g","pricing_plan_id":"cebpf4jnsgd1na2vs0mg"},{"bike_id":"954f040c-9c68-484b-977a-d101cc152ccc","system_id":"levelo_inurba_marseille","lat":43.26687,"lon":5.38278,"is_reserved":false,"is_disabled":false,"rental_uris":{"android":"levelo://app?vid=954f040c-9c68-484b-977a-d101cc152ccc","ios":"levelo://app?vid=954f040c-9c68-484b-977a-d101cc152ccc"},"vehicle_type_id":"4","last_reported":1734815289,"current_range_meters":35600,"station_id":"ce4bhg92rcd13ifvqf90","pricing_plan_id":"cebpf4jnsgd1na2vs0mg"},{"bike_id":"b32b3c01-ed9f-46be-b992-f6be78029315","system_id":"levelo_inurba_marseille","lat":43.29941,"lon":5.36526,"is_reserved":false,"is_disabled":false,"rental_uris":{"android":"levelo://app?vid=b32b3c01-ed9f-46be-b992-f6be78029315","ios":"levelo://app?vid=b32b3c01-ed9f-46be-b992-f6be78029315"},"vehicle_type_id":"4","last_reported":1734815289,"current_range_meters":16400,"station_id":"ce4bgm92rcd13ifvqbr0","pricing_plan_id":"cebpf4jnsgd1na2vs0mg"},{"bike_id":"fa6cfc24-9be4-489a-89c6-d12b5dd13a04","system_id":"levelo_inurba_marseille","lat":43.29939,"lon":5.36542,"is_reserved":false,"is_disabled":false,"rental_uris":{"android":"levelo://app?vid=fa6cfc24-9be4-489a-89c6-d12b5dd13a04","ios":"levelo://app?vid=fa6cfc24-9be4-489a-89c6-d12b5dd13a04"},"vehicle_type_id":"4","last_reported":1734815289,"current_range_meters":38800,"station_id":"ce4bgm92rcd13ifvqbr0","pricing_plan_id":"cebpf4jnsgd1na2vs0mg"},{"bike_id":"9b5e45b0-c53a-4671-ae66-2400f7d4fc5d","system_id":"levelo_inurba_marseille","lat":43.28938,"lon":5.3963,"is_reserved":false,"is_disabled":false,"rental_uris":{"android":"levelo://app?vid=9b5e45b0-c53a-4671-ae66-2400f7d4fc5d","ios":"levelo://app?vid=9b5e45b0-c53a-4671-ae66-2400f7d4fc5d"},"vehicle_type_id":"4","last_reported":1734815289,"current_range_meters":26000,"station_id":"ce4bh3h2rcd13ifvqdn0","pricing_plan_id":"cebpf4jnsgd1na2vs0mg"},{"bike_id":"d8e8082b-d76a-4b6a-b93c-5ea180b1ca88","system_id":"levelo_inurba_marseille","lat":43.25858,"lon":5.39901,"is_reserved":false,"is_disabled":false,"rental_uris":{"android":"levelo://app?vid=d8e8082b-d76a-4b6a-b93c-5ea180b1ca88","ios":"levelo://app?vid=d8e8082b-d76a-4b6a-b93c-5ea180b1ca88"},"vehicle_type_id":"4","last_reported":1734815289,"current_range_meters":38800,"station_id":"ce4bhl92rcd13ifvqghg","pricing_plan_id":"cebpf4jnsgd1na2vs0mg"},{"bike_id":"75fccef8-d791-4548-963c-6b98a0a6b4cb","system_id":"levelo_inurba_marseille","lat":43.29577,"lon":5.37523,"is_reserved":false,"is_disabled":false,"rental_uris":{"android":"levelo://app?vid=75fccef8-d791-4548-963c-6b98a0a6b4cb","ios":"levelo://app?vid=75fccef8-d791-4548-963c-6b98a0a6b4cb"},"vehicle_type_id":"4","last_reported":1734815289,"current_range_meters":30400,"station_id":"ce4bgh92rcd13ifvqb50","pricing_plan_id":"cebpf4jnsgd1na2vs0mg"},{"bike_id":"c889bce7-ce58-4551-b1fe-fe2f91c10fbf","system_id":"levelo_inurba_marseille","lat":43.28938,"lon":5.39625,"is_reserved":false,"is_disabled":false,"rental_uris":{"android":"levelo://app?vid=c889bce7-ce58-4551-b1fe-fe2f91c10fbf","ios":"levelo://app?vid=c889bce7-ce58-4551-b1fe-fe2f91c10fbf"},"vehicle_type_id":"4","last_reported":1734815289,"current_range_meters":38800,"station_id":"ce4bh3h2rcd13ifvqdn0","pricing_plan_id":"cebpf4jnsgd1na2vs0mg"},{"bike_id":"2ecd7a5c-6b03-4906-a193-c1bc16b7668c","system_id":"levelo_inurba_marseille","lat":43.30229,"lon":5.40008,"is_reserved":false,"is_disabled":true,"rental_uris":{"android":"levelo://app?vid=2ecd7a5c-6b03-4906-a193-c1bc16b7668c","ios":"levelo://app?vid=2ecd7a5c-6b03-4906-a193-c1bc16b7668c"},"vehicle_type_id":"4","last_reported":1734815289,"current_range_meters":38800,"station_id":"","pricing_plan_id":"cebpf4jnsgd1na2vs0mg"},{"bike_id":"4bcb37c0-9249-499d-890c-0bbf93d29f8b","system_id":"levelo_inurba_marseille","lat":43.23188,"lon":5.35556,"is_reserved":false,"is_disabled":true,"rental_uris":{"android":"levelo://app?vid=4bcb37c0-9249-499d-890c-0bbf93d29f8b","ios":"levelo://app?vid=4bcb37c0-9249-499d-890c-0bbf93d29f8b"},"vehicle_type_id":"4","last_reported":1734815289,"current_range_meters":29600,"station_id":"ce4bhu92rcd13ifvqi70","pricing_plan_id":"cebpf4jnsgd1na2vs0mg"},{"bike_id":"e2703751-0531-4ae7-823e-da8438be7458","system_id":"levelo_inurba_marseille","lat":43.29708,"lon":5.3661,"is_reserved":false,"is_disabled":false,"rental_uris":{"android":"levelo://app?vid=e2703751-0531-4ae7-823e-da8438be7458","ios":"levelo://app?vid=e2703751-0531-4ae7-823e-da8438be7458"},"vehicle_type_id":"4","last_reported":1734815289,"current_range_meters":4400,"station_id":"ce4bgn12rcd13ifvqbt0","pricing_plan_id":"cebpf4jnsgd1na2vs0mg"},{"bike_id":"36ef5e5d-6a24-477a-83b3-1361b43b1f07","system_id":"levelo_inurba_marseille","lat":43.29256,"lon":5.38437,"is_reserved":false,"is_disabled":false,"rental_uris":{"android":"levelo://app?vid=36ef5e5d-6a24-477a-83b3-1361b43b1f07","ios":"levelo://app?vid=36ef5e5d-6a24-477a-83b3-1361b43b1f07"},"vehicle_type_id":"4","last_reported":1734815289,"current_range_meters":24000,"station_id":"ce4bh692rcd13ifvqea0","pricing_plan_id":"cebpf4jnsgd1na2vs0mg"},{"bike_id":"f2fddecf-aacc-43b9-984c-e21269354d44","system_id":"levelo_inurba_marseille","lat":43.25498,"lon":5.37649,"is_reserved":false,"is_disabled":false,"rental_uris":{"android":"levelo://app?vid=f2fddecf-aacc-43b9-984c-e21269354d44","ios":"levelo://app?vid=f2fddecf-aacc-43b9-984c-e21269354d44"},"vehicle_type_id":"4","last_reported":1734815289,"current_range_meters":38800,"station_id":"ce4bhh12rcd13ifvqff0","pricing_plan_id":"cebpf4jnsgd1na2vs0mg"},{"bike_id":"7cf2f138-0c5b-4760-b998-e61626fa9d49","system_id":"levelo_inurba_marseille","lat":43.32336,"lon":5.40616,"is_reserved":false,"is_disabled":false,"rental_uris":{"android":"levelo://app?vid=7cf2f138-0c5b-4760-b998-e61626fa9d49","ios":"levelo://app?vid=7cf2f138-0c5b-4760-b998-e61626fa9d49"},"vehicle_type_id":"4","last_reported":1734815289,"current_range_meters":37600,"station_id":"ce4bhq92rcd13ifvqhjg","pricing_plan_id":"cebpf4jnsgd1na2vs0mg"},{"bike_id":"40b59dc6-51a7-4e6a-8787-24071cb5b9f2","system_id":"levelo_inurba_marseille","lat":43.27433,"lon":5.39402,"is_reserved":false,"is_disabled":false,"rental_uris":{"android":"levelo://app?vid=40b59dc6-51a7-4e6a-8787-24071cb5b9f2","ios":"levelo://app?vid=40b59dc6-51a7-4e6a-8787-24071cb5b9f2"},"vehicle_type_id":"4","last_reported":1734815289,"current_range_meters":36000,"station_id":"ce4bhdp2rcd13ifvqf20","pricing_plan_id":"cebpf4jnsgd1na2vs0mg"},{"bike_id":"5ee26669-bb4c-43d4-aa0e-f6b8b6a84038","system_id":"levelo_inurba_marseille","lat":43.29229,"lon":5.36058,"is_reserved":false,"is_disabled":false,"rental_uris":{"android":"levelo://app?vid=5ee26669-bb4c-43d4-aa0e-f6b8b6a84038","ios":"levelo://app?vid=5ee26669-bb4c-43d4-aa0e-f6b8b6a84038"},"vehicle_type_id":"4","last_reported":1734815289,"current_range_meters":37600,"station_id":"ce4bhbh2rcd13ifvqeqg","pricing_plan_id":"cebpf4jnsgd1na2vs0mg"},{"bike_id":"56602619-e785-4264-8593-e96863d2eed8","system_id":"levelo_inurba_marseille","lat":43.28841,"lon":5.35848,"is_reserved":false,"is_disabled":false,"rental_uris":{"android":"levelo://app?vid=56602619-e785-4264-8593-e96863d2eed8","ios":"levelo://app?vid=56602619-e785-4264-8593-e96863d2eed8"},"vehicle_type_id":"4","last_reported":1734815289,"current_range_meters":14400,"station_id":"ce4bhb12rcd13ifvqem0","pricing_plan_id":"cebpf4jnsgd1na2vs0mg"},{"bike_id":"8b04212e-9d66-4441-b1eb-1f2f841ce825","system_id":"levelo_inurba_marseille","lat":43.29529,"lon":5.385403,"is_reserved":false,"is_disabled":false,"rental_uris":{"android":"levelo://app?vid=8b04212e-9d66-4441-b1eb-1f2f841ce825","ios":"levelo://app?vid=8b04212e-9d66-4441-b1eb-1f2f841ce825"},"vehicle_type_id":"4","last_reported":1734815289,"current_range_meters":12000,"station_id":"ce4bgih2rcd13ifvqba0","pricing_plan_id":"cebpf4jnsgd1na2vs0mg"},{"bike_id":"3216941d-b90f-4166-9789-4659f8e52f65","system_id":"levelo_inurba_marseille","lat":43.26552,"lon":5.37289,"is_reserved":false,"is_disabled":false,"rental_uris":{"android":"levelo://app?vid=3216941d-b90f-4166-9789-4659f8e52f65","ios":"levelo://app?vid=3216941d-b90f-4166-9789-4659f8e52f65"},"vehicle_type_id":"4","last_reported":1734815289,"current_range_meters":18000,"station_id":"ce4bhg12rcd13ifvqf70","pricing_plan_id":"cebpf4jnsgd1na2vs0mg"},{"bike_id":"dad6db58-f5bc-4da2-b0b4-3d5d1002166b","system_id":"levelo_inurba_marseille","lat":43.32108,"lon":5.36772,"is_reserved":false,"is_disabled":false,"rental_uris":{"android":"levelo://app?vid=dad6db58-f5bc-4da2-b0b4-3d5d1002166b","ios":"levelo://app?vid=dad6db58-f5bc-4da2-b0b4-3d5d1002166b"},"vehicle_type_id":"4","last_reported":1734815289,"current_range_meters":13600,"station_id":"ce4bhrh2rcd13ifvqhug","pricing_plan_id":"cebpf4jnsgd1na2vs0mg"},{"bike_id":"e1e55b34-0cc8-42c6-b9d9-a442d6ab0cd4","system_id":"levelo_inurba_marseille","lat":43.23187,"lon":5.39988,"is_reserved":false,"is_disabled":false,"rental_uris":{"android":"levelo://app?vid=e1e55b34-0cc8-42c6-b9d9-a442d6ab0cd4","ios":"levelo://app?vid=e1e55b34-0cc8-42c6-b9d9-a442d6ab0cd4"},"vehicle_type_id":"4","last_reported":1734815289,"current_range_meters":24800,"station_id":"ce4bhn12rcd13ifvqgqg","pricing_plan_id":"cebpf4jnsgd1na2vs0mg"},{"bike_id":"f6b5cdb6-736e-45b3-8b41-4918a9038182","system_id":"levelo_inurba_marseille","lat":43.23973,"lon":5.3664,"is_reserved":false,"is_disabled":false,"rental_uris":{"android":"levelo://app?vid=f6b5cdb6-736e-45b3-8b41-4918a9038182","ios":"levelo://app?vid=f6b5cdb6-736e-45b3-8b41-4918a9038182"},"vehicle_type_id":"4","last_reported":1734815289,"current_range_meters":35600,"station_id":"ce4bhi12rcd13ifvqfp0","pricing_plan_id":"cebpf4jnsgd1na2vs0mg"},{"bike_id":"427667d2-38ae-4400-96e0-d1708192ed92","system_id":"levelo_inurba_marseille","lat":43.29036,"lon":5.39964,"is_reserved":false,"is_disabled":false,"rental_uris":{"android":"levelo://app?vid=427667d2-38ae-4400-96e0-d1708192ed92","ios":"levelo://app?vid=427667d2-38ae-4400-96e0-d1708192ed92"},"vehicle_type_id":"4","last_reported":1734815289,"current_range_meters":35600,"station_id":"ce4bh392rcd13ifvqdm0","pricing_plan_id":"cebpf4jnsgd1na2vs0mg"},{"bike_id":"6507bce1-e9b4-4aad-bbab-13ef4b5297a4","system_id":"levelo_inurba_marseille","lat":43.31725,"lon":5.42393,"is_reserved":false,"is_disabled":false,"rental_uris":{"android":"levelo://app?vid=6507bce1-e9b4-4aad-bbab-13ef4b5297a4","ios":"levelo://app?vid=6507bce1-e9b4-4aad-bbab-13ef4b5297a4"},"vehicle_type_id":"4","last_reported":1734815289,"current_range_meters":38800,"station_id":"ce4bhp92rcd13ifvqhbg","pricing_plan_id":"cebpf4jnsgd1na2vs0mg"},{"bike_id":"44127e4e-8e84-4a38-89f7-8f4efb63f7a5","system_id":"levelo_inurba_marseille","lat":43.31191,"lon":5.3675,"is_reserved":false,"is_disabled":true,"rental_uris":{"android":"levelo://app?vid=44127e4e-8e84-4a38-89f7-8f4efb63f7a5","ios":"levelo://app?vid=44127e4e-8e84-4a38-89f7-8f4efb63f7a5"},"vehicle_type_id":"4","last_reported":1734815289,"current_range_meters":0,"station_id":"","pricing_plan_id":"cebpf4jnsgd1na2vs0mg"},{"bike_id":"63ec5ad9-84d5-45e4-a4c5-2b22423a266f","system_id":"levelo_inurba_marseille","lat":43.28941,"lon":5.39631,"is_reserved":false,"is_disabled":false,"rental_uris":{"android":"levelo://app?vid=63ec5ad9-84d5-45e4-a4c5-2b22423a266f","ios":"levelo://app?vid=63ec5ad9-84d5-45e4-a4c5-2b22423a266f"},"vehicle_type_id":"4","last_reported":1734815289,"current_range_meters":28000,"station_id":"ce4bh3h2rcd13ifvqdn0","pricing_plan_id":"cebpf4jnsgd1na2vs0mg"},{"bike_id":"1eef5757-2a74-4727-868d-9821df78eaa2","system_id":"levelo_inurba_marseille","lat":43.25894,"lon":5.39896,"is_reserved":false,"is_disabled":false,"rental_uris":{"android":"levelo://app?vid=1eef5757-2a74-4727-868d-9821df78eaa2","ios":"levelo://app?vid=1eef5757-2a74-4727-868d-9821df78eaa2"},"vehicle_type_id":"4","last_reported":1734815289,"current_range_meters":38800,"station_id":"ce4bhl92rcd13ifvqghg","pricing_plan_id":"cebpf4jnsgd1na2vs0mg"},{"bike_id":"30a30341-01ba-408e-8fd4-6272ad4d1ef3","system_id":"levelo_inurba_marseille","lat":43.30366,"lon":5.41893,"is_reserved":false,"is_disabled":false,"rental_uris":{"android":"levelo://app?vid=30a30341-01ba-408e-8fd4-6272ad4d1ef3","ios":"levelo://app?vid=30a30341-01ba-408e-8fd4-6272ad4d1ef3"},"vehicle_type_id":"4","last_reported":1734815289,"current_range_meters":38800,"station_id":"ce4bhop2rcd13ifvqh7g","pricing_plan_id":"cebpf4jnsgd1na2vs0mg"},{"bike_id":"ee9930d1-4a33-4c2c-82c2-184216ec6de6","system_id":"levelo_inurba_marseille","lat":43.31529,"lon":5.38026,"is_reserved":false,"is_disabled":false,"rental_uris":{"android":"levelo://app?vid=ee9930d1-4a33-4c2c-82c2-184216ec6de6","ios":"levelo://app?vid=ee9930d1-4a33-4c2c-82c2-184216ec6de6"},"vehicle_type_id":"4","last_reported":1734815289,"current_range_meters":32800,"station_id":"ce4bhsp2rcd13ifvqi50","pricing_plan_id":"cebpf4jnsgd1na2vs0mg"},{"bike_id":"d69ead64-f352-48c3-b781-daf2cb8997a9","system_id":"levelo_inurba_marseille","lat":43.28108,"lon":5.37842,"is_reserved":false,"is_disabled":false,"rental_uris":{"android":"levelo://app?vid=d69ead64-f352-48c3-b781-daf2cb8997a9","ios":"levelo://app?vid=d69ead64-f352-48c3-b781-daf2cb8997a9"},"vehicle_type_id":"4","last_reported":1734815289,"current_range_meters":28400,"station_id":"ce4bha12rcd13ifvqee0","pricing_plan_id":"cebpf4jnsgd1na2vs0mg"},{"bike_id":"a198e248-41c4-4a27-af7b-34f7a7595000","system_id":"levelo_inurba_marseille","lat":43.29905,"lon":5.37472,"is_reserved":false,"is_disabled":false,"rental_uris":{"android":"levelo://app?vid=a198e248-41c4-4a27-af7b-34f7a7595000","ios":"levelo://app?vid=a198e248-41c4-4a27-af7b-34f7a7595000"},"vehicle_type_id":"4","last_reported":1734815289,"current_range_meters":39200,"station_id":"ce4bgjh2rcd13ifvqbg0","pricing_plan_id":"cebpf4jnsgd1na2vs0mg"},{"bike_id":"5fb4272e-94a1-46e9-95a2-461fdab448f5","system_id":"levelo_inurba_marseille","lat":43.30879,"lon":5.3964,"is_reserved":false,"is_disabled":false,"rental_uris":{"android":"levelo://app?vid=5fb4272e-94a1-46e9-95a2-461fdab448f5","ios":"levelo://app?vid=5fb4272e-94a1-46e9-95a2-461fdab448f5"},"vehicle_type_id":"4","last_reported":1734815289,"current_range_meters":30000,"station_id":"ce4bh012rcd13ifvqcv0","pricing_plan_id":"cebpf4jnsgd1na2vs0mg"},{"bike_id":"80a38987-5479-472d-9b3b-784d87214765","system_id":"levelo_inurba_marseille","lat":43.29419,"lon":5.38619,"is_reserved":false,"is_disabled":false,"rental_uris":{"android":"levelo://app?vid=80a38987-5479-472d-9b3b-784d87214765","ios":"levelo://app?vid=80a38987-5479-472d-9b3b-784d87214765"},"vehicle_type_id":"4","last_reported":1734815289,"current_range_meters":26800,"station_id":"ce4bh2h2rcd13ifvqdh0","pricing_plan_id":"cebpf4jnsgd1na2vs0mg"},{"bike_id":"518b07a4-96c5-4b7b-900c-266b3f1f898c","system_id":"levelo_inurba_marseille","lat":43.29595,"lon":5.38108,"is_reserved":false,"is_disabled":false,"rental_uris":{"android":"levelo://app?vid=518b07a4-96c5-4b7b-900c-266b3f1f898c","ios":"levelo://app?vid=518b07a4-96c5-4b7b-900c-266b3f1f898c"},"vehicle_type_id":"4","last_reported":1734815289,"current_range_meters":7200,"station_id":"ce4bgl12rcd13ifvqbo0","pricing_plan_id":"cebpf4jnsgd1na2vs0mg"},{"bike_id":"12488580-a307-46af-80b6-4ca4096e1dfa","system_id":"levelo_inurba_marseille","lat":43.29018,"lon":5.38648,"is_reserved":false,"is_disabled":false,"rental_uris":{"android":"levelo://app?vid=12488580-a307-46af-80b6-4ca4096e1dfa","ios":"levelo://app?vid=12488580-a307-46af-80b6-4ca4096e1dfa"},"vehicle_type_id":"4","last_reported":1734815289,"current_range_meters":39200,"station_id":"ce4bh4p2rcd13ifvqe0g","pricing_plan_id":"cebpf4jnsgd1na2vs0mg"},{"bike_id":"55fcc674-2d1a-44b1-9d4f-500746fe756e","system_id":"levelo_inurba_marseille","lat":43.29419,"lon":5.38626,"is_reserved":false,"is_disabled":false,"rental_uris":{"android":"levelo://app?vid=55fcc674-2d1a-44b1-9d4f-500746fe756e","ios":"levelo://app?vid=55fcc674-2d1a-44b1-9d4f-500746fe756e"},"vehicle_type_id":"4","last_reported":1734815289,"current_range_meters":36400,"station_id":"ce4bh2h2rcd13ifvqdh0","pricing_plan_id":"cebpf4jnsgd1na2vs0mg"},{"bike_id":"fa6a0a1a-8ca7-4ea4-9aa5-359f93885840","system_id":"levelo_inurba_marseille","lat":43.27569,"lon":5.38427,"is_reserved":false,"is_disabled":false,"rental_uris":{"android":"levelo://app?vid=fa6a0a1a-8ca7-4ea4-9aa5-359f93885840","ios":"levelo://app?vid=fa6a0a1a-8ca7-4ea4-9aa5-359f93885840"},"vehicle_type_id":"4","last_reported":1734815289,"current_range_meters":31200,"station_id":"ce4bhh92rcd13ifvqfi0","pricing_plan_id":"cebpf4jnsgd1na2vs0mg"},{"bike_id":"0ac9ae64-e38e-4337-906b-a22e4ecf509e","system_id":"levelo_inurba_marseille","lat":43.29354,"lon":5.37971,"is_reserved":false,"is_disabled":false,"rental_uris":{"android":"levelo://app?vid=0ac9ae64-e38e-4337-906b-a22e4ecf509e","ios":"levelo://app?vid=0ac9ae64-e38e-4337-906b-a22e4ecf509e"},"vehicle_type_id":"4","last_reported":1734815289,"current_range_meters":32000,"station_id":"","pricing_plan_id":"cebpf4jnsgd1na2vs0mg"},{"bike_id":"1dc88e65-3713-46ef-8bbb-ee02d5170e2d","system_id":"levelo_inurba_marseille","lat":43.3059,"lon":5.39351,"is_reserved":false,"is_disabled":false,"rental_uris":{"android":"levelo://app?vid=1dc88e65-3713-46ef-8bbb-ee02d5170e2d","ios":"levelo://app?vid=1dc88e65-3713-46ef-8bbb-ee02d5170e2d"},"vehicle_type_id":"4","last_reported":1734815289,"current_range_meters":20400,"station_id":"ce4bh0p2rcd13ifvqd80","pricing_plan_id":"cebpf4jnsgd1na2vs0mg"},{"bike_id":"414bc440-3ed9-4228-9bb7-b9591fbab36e","system_id":"levelo_inurba_marseille","lat":43.2962,"lon":5.37727,"is_reserved":false,"is_disabled":false,"rental_uris":{"android":"levelo://app?vid=414bc440-3ed9-4228-9bb7-b9591fbab36e","ios":"levelo://app?vid=414bc440-3ed9-4228-9bb7-b9591fbab36e"},"vehicle_type_id":"4","last_reported":1734815289,"current_range_meters":38800,"station_id":"ce4bgi92rcd13ifvqb90","pricing_plan_id":"cebpf4jnsgd1na2vs0mg"},{"bike_id":"d77abc9d-2ff7-46b1-95d2-5a87a7d7b6fc","system_id":"levelo_inurba_marseille","lat":43.29604,"lon":5.37726,"is_reserved":false,"is_disabled":false,"rental_uris":{"android":"levelo://app?vid=d77abc9d-2ff7-46b1-95d2-5a87a7d7b6fc","ios":"levelo://app?vid=d77abc9d-2ff7-46b1-95d2-5a87a7d7b6fc"},"vehicle_type_id":"4","last_reported":1734815289,"current_range_meters":36000,"station_id":"ce4bgi92rcd13ifvqb90","pricing_plan_id":"cebpf4jnsgd1na2vs0mg"},{"bike_id":"9f630b4f-3d29-41b6-ab02-f0e2908fa7c6","system_id":"levelo_inurba_marseille","lat":43.30303,"lon":5.39211,"is_reserved":false,"is_disabled":false,"rental_uris":{"android":"levelo://app?vid=9f630b4f-3d29-41b6-ab02-f0e2908fa7c6","ios":"levelo://app?vid=9f630b4f-3d29-41b6-ab02-f0e2908fa7c6"},"vehicle_type_id":"4","last_reported":1734815289,"current_range_meters":27600,"station_id":"ce4bgkh2rcd13ifvqbk0","pricing_plan_id":"cebpf4jnsgd1na2vs0mg"},{"bike_id":"2a2c0cfa-f9a8-4c73-a96c-db7e83d7bc8f","system_id":"levelo_inurba_marseille","lat":43.30538,"lon":5.38433,"is_reserved":false,"is_disabled":false,"rental_uris":{"android":"levelo://app?vid=2a2c0cfa-f9a8-4c73-a96c-db7e83d7bc8f","ios":"levelo://app?vid=2a2c0cfa-f9a8-4c73-a96c-db7e83d7bc8f"},"vehicle_type_id":"4","last_reported":1734815289,"current_range_meters":38000,"station_id":"ce4bgg92rcd13ifvqb30","pricing_plan_id":"cebpf4jnsgd1na2vs0mg"},{"bike_id":"11a271c9-fb9f-4cb8-bf2a-e8098ec9ded4","system_id":"levelo_inurba_marseille","lat":43.293718,"lon":5.378538,"is_reserved":false,"is_disabled":true,"rental_uris":{"android":"levelo://app?vid=11a271c9-fb9f-4cb8-bf2a-e8098ec9ded4","ios":"levelo://app?vid=11a271c9-fb9f-4cb8-bf2a-e8098ec9ded4"},"vehicle_type_id":"4","last_reported":1734815289,"current_range_meters":0,"station_id":"ce4bgjh2rcd13ifvqbf0","pricing_plan_id":"cebpf4jnsgd1na2vs0mg"},{"bike_id":"2c6b41b4-4a10-4633-b546-e3772e9c32d4","system_id":"levelo_inurba_marseille","lat":43.29553,"lon":5.42295,"is_reserved":false,"is_disabled":false,"rental_uris":{"android":"levelo://app?vid=2c6b41b4-4a10-4633-b546-e3772e9c32d4","ios":"levelo://app?vid=2c6b41b4-4a10-4633-b546-e3772e9c32d4"},"vehicle_type_id":"4","last_reported":1734815289,"current_range_meters":38000,"station_id":"ce4bhph2rcd13ifvqhdg","pricing_plan_id":"cebpf4jnsgd1na2vs0mg"},{"bike_id":"6bb2262e-bcd0-4b60-b5d0-55edf5170162","system_id":"levelo_inurba_marseille","lat":43.30905,"lon":5.36876,"is_reserved":false,"is_disabled":false,"rental_uris":{"android":"levelo://app?vid=6bb2262e-bcd0-4b60-b5d0-55edf5170162","ios":"levelo://app?vid=6bb2262e-bcd0-4b60-b5d0-55edf5170162"},"vehicle_type_id":"4","last_reported":1734815289,"current_range_meters":36400,"station_id":"ce4bgn92rcd13ifvqbvg","pricing_plan_id":"cebpf4jnsgd1na2vs0mg"},{"bike_id":"641d39d1-88cc-4f20-9fcf-9a79e49a860c","system_id":"levelo_inurba_marseille","lat":43.28936,"lon":5.36624,"is_reserved":false,"is_disabled":false,"rental_uris":{"android":"levelo://app?vid=641d39d1-88cc-4f20-9fcf-9a79e49a860c","ios":"levelo://app?vid=641d39d1-88cc-4f20-9fcf-9a79e49a860c"},"vehicle_type_id":"4","last_reported":1734815289,"current_range_meters":39200,"station_id":"ce4bhap2rcd13ifvqek0","pricing_plan_id":"cebpf4jnsgd1na2vs0mg"},{"bike_id":"813f0d6b-39fd-4199-9c41-d592db4a9ff3","system_id":"levelo_inurba_marseille","lat":43.28617,"lon":5.35108,"is_reserved":false,"is_disabled":false,"rental_uris":{"android":"levelo://app?vid=813f0d6b-39fd-4199-9c41-d592db4a9ff3","ios":"levelo://app?vid=813f0d6b-39fd-4199-9c41-d592db4a9ff3"},"vehicle_type_id":"4","last_reported":1734815289,"current_range_meters":36800,"station_id":"ce4bhch2rcd13ifvqeug","pricing_plan_id":"cebpf4jnsgd1na2vs0mg"},{"bike_id":"51c32f1c-d72a-49e1-baa8-84924fc036e4","system_id":"levelo_inurba_marseille","lat":43.28671,"lon":5.38671,"is_reserved":false,"is_disabled":false,"rental_uris":{"android":"levelo://app?vid=51c32f1c-d72a-49e1-baa8-84924fc036e4","ios":"levelo://app?vid=51c32f1c-d72a-49e1-baa8-84924fc036e4"},"vehicle_type_id":"4","last_reported":1734815289,"current_range_meters":9200,"station_id":"ce4bh492rcd13ifvqdug","pricing_plan_id":"cebpf4jnsgd1na2vs0mg"},{"bike_id":"6b443998-f048-4e6c-9ca7-53a2d6b81395","system_id":"levelo_inurba_marseille","lat":43.29527,"lon":5.38538,"is_reserved":false,"is_disabled":false,"rental_uris":{"android":"levelo://app?vid=6b443998-f048-4e6c-9ca7-53a2d6b81395","ios":"levelo://app?vid=6b443998-f048-4e6c-9ca7-53a2d6b81395"},"vehicle_type_id":"4","last_reported":1734815289,"current_range_meters":30000,"station_id":"ce4bgih2rcd13ifvqba0","pricing_plan_id":"cebpf4jnsgd1na2vs0mg"},{"bike_id":"7e9ad310-d592-4d0c-98bc-d8af9cfcc465","system_id":"levelo_inurba_marseille","lat":43.3127,"lon":5.40159,"is_reserved":false,"is_disabled":true,"rental_uris":{"android":"levelo://app?vid=7e9ad310-d592-4d0c-98bc-d8af9cfcc465","ios":"levelo://app?vid=7e9ad310-d592-4d0c-98bc-d8af9cfcc465"},"vehicle_type_id":"4","last_reported":1734815289,"current_range_meters":1200,"station_id":"ce4bh092rcd13ifvqd30","pricing_plan_id":"cebpf4jnsgd1na2vs0mg"},{"bike_id":"2c9f1b35-5914-4a8e-954b-6e48afaf36af","system_id":"levelo_inurba_marseille","lat":43.239618,"lon":5.366285,"is_reserved":false,"is_disabled":false,"rental_uris":{"android":"levelo://app?vid=2c9f1b35-5914-4a8e-954b-6e48afaf36af","ios":"levelo://app?vid=2c9f1b35-5914-4a8e-954b-6e48afaf36af"},"vehicle_type_id":"4","last_reported":1734815289,"current_range_meters":38800,"station_id":"ce4bhi12rcd13ifvqfp0","pricing_plan_id":"cebpf4jnsgd1na2vs0mg"},{"bike_id":"78ce24b5-adcf-4ee6-bd83-8785d09d7548","system_id":"levelo_inurba_marseille","lat":43.30642,"lon":5.40079,"is_reserved":false,"is_disabled":false,"rental_uris":{"android":"levelo://app?vid=78ce24b5-adcf-4ee6-bd83-8785d09d7548","ios":"levelo://app?vid=78ce24b5-adcf-4ee6-bd83-8785d09d7548"},"vehicle_type_id":"4","last_reported":1734815289,"current_range_meters":38800,"station_id":"ce4bh112rcd13ifvqda0","pricing_plan_id":"cebpf4jnsgd1na2vs0mg"},{"bike_id":"d3f3fdae-ab70-46b2-a854-6926b1941b0c","system_id":"levelo_inurba_marseille","lat":43.23952,"lon":5.36659,"is_reserved":false,"is_disabled":false,"rental_uris":{"android":"levelo://app?vid=d3f3fdae-ab70-46b2-a854-6926b1941b0c","ios":"levelo://app?vid=d3f3fdae-ab70-46b2-a854-6926b1941b0c"},"vehicle_type_id":"4","last_reported":1734815289,"current_range_meters":34000,"station_id":"ce4bhi12rcd13ifvqfp0","pricing_plan_id":"cebpf4jnsgd1na2vs0mg"},{"bike_id":"bc84a4eb-cfed-45d4-bc63-fca5d5842c0b","system_id":"levelo_inurba_marseille","lat":43.29072,"lon":5.37171,"is_reserved":false,"is_disabled":false,"rental_uris":{"android":"levelo://app?vid=bc84a4eb-cfed-45d4-bc63-fca5d5842c0b","ios":"levelo://app?vid=bc84a4eb-cfed-45d4-bc63-fca5d5842c0b"},"vehicle_type_id":"4","last_reported":1734815289,"current_range_meters":35200,"station_id":"ce4bh5p2rcd13ifvqe4g","pricing_plan_id":"cebpf4jnsgd1na2vs0mg"},{"bike_id":"8798cddb-a8db-4fd7-a6a6-c34f1cbca7eb","system_id":"levelo_inurba_marseille","lat":43.29191,"lon":5.35805,"is_reserved":false,"is_disabled":false,"rental_uris":{"android":"levelo://app?vid=8798cddb-a8db-4fd7-a6a6-c34f1cbca7eb","ios":"levelo://app?vid=8798cddb-a8db-4fd7-a6a6-c34f1cbca7eb"},"vehicle_type_id":"4","last_reported":1734815289,"current_range_meters":35200,"station_id":"ce4bhb12rcd13ifvqel0","pricing_plan_id":"cebpf4jnsgd1na2vs0mg"},{"bike_id":"dff6c12a-b31e-40ae-9076-3c5f8e216090","system_id":"levelo_inurba_marseille","lat":43.28285,"lon":5.35081,"is_reserved":false,"is_disabled":false,"rental_uris":{"android":"levelo://app?vid=dff6c12a-b31e-40ae-9076-3c5f8e216090","ios":"levelo://app?vid=dff6c12a-b31e-40ae-9076-3c5f8e216090"},"vehicle_type_id":"4","last_reported":1734815289,"current_range_meters":38800,"station_id":"ce4bhbp2rcd13ifvqerg","pricing_plan_id":"cebpf4jnsgd1na2vs0mg"},{"bike_id":"60b5bfc8-0f81-4223-9eb7-8b1feb39cd77","system_id":"levelo_inurba_marseille","lat":43.28977,"lon":5.37841,"is_reserved":false,"is_disabled":false,"rental_uris":{"android":"levelo://app?vid=60b5bfc8-0f81-4223-9eb7-8b1feb39cd77","ios":"levelo://app?vid=60b5bfc8-0f81-4223-9eb7-8b1feb39cd77"},"vehicle_type_id":"4","last_reported":1734815289,"current_range_meters":22800,"station_id":"ce4bh9p2rcd13ifvqed0","pricing_plan_id":"cebpf4jnsgd1na2vs0mg"},{"bike_id":"bf9a15af-c387-4e0e-83c2-5db944adc348","system_id":"levelo_inurba_marseille","lat":43.28001,"lon":5.40019,"is_reserved":false,"is_disabled":false,"rental_uris":{"android":"levelo://app?vid=bf9a15af-c387-4e0e-83c2-5db944adc348","ios":"levelo://app?vid=bf9a15af-c387-4e0e-83c2-5db944adc348"},"vehicle_type_id":"4","last_reported":1734815289,"current_range_meters":28800,"station_id":"ce4bho92rcd13ifvqh4g","pricing_plan_id":"cebpf4jnsgd1na2vs0mg"},{"bike_id":"591e56d3-570f-4000-8104-235340497ab2","system_id":"levelo_inurba_marseille","lat":43.28034,"lon":5.36944,"is_reserved":false,"is_disabled":false,"rental_uris":{"android":"levelo://app?vid=591e56d3-570f-4000-8104-235340497ab2","ios":"levelo://app?vid=591e56d3-570f-4000-8104-235340497ab2"},"vehicle_type_id":"4","last_reported":1734815289,"current_range_meters":38800,"station_id":"ce4bha12rcd13ifvqef0","pricing_plan_id":"cebpf4jnsgd1na2vs0mg"},{"bike_id":"90fbf7b3-3e59-4761-9ba2-48103aa75f60","system_id":"levelo_inurba_marseille","lat":43.29891,"lon":5.43666,"is_reserved":false,"is_disabled":false,"rental_uris":{"android":"levelo://app?vid=90fbf7b3-3e59-4761-9ba2-48103aa75f60","ios":"levelo://app?vid=90fbf7b3-3e59-4761-9ba2-48103aa75f60"},"vehicle_type_id":"4","last_reported":1734815289,"current_range_meters":25600,"station_id":"ce4bhpp2rcd13ifvqhfg","pricing_plan_id":"cebpf4jnsgd1na2vs0mg"},{"bike_id":"c786466f-e1af-4871-95c8-b7037d19689b","system_id":"levelo_inurba_marseille","lat":43.30544,"lon":5.36696,"is_reserved":false,"is_disabled":false,"rental_uris":{"android":"levelo://app?vid=c786466f-e1af-4871-95c8-b7037d19689b","ios":"levelo://app?vid=c786466f-e1af-4871-95c8-b7037d19689b"},"vehicle_type_id":"4","last_reported":1734815289,"current_range_meters":38000,"station_id":"ce4bgrp2rcd13ifvqc9g","pricing_plan_id":"cebpf4jnsgd1na2vs0mg"},{"bike_id":"6bda5f81-4461-449d-a260-822e9ee73f46","system_id":"levelo_inurba_marseille","lat":43.26195,"lon":5.37928,"is_reserved":false,"is_disabled":false,"rental_uris":{"android":"levelo://app?vid=6bda5f81-4461-449d-a260-822e9ee73f46","ios":"levelo://app?vid=6bda5f81-4461-449d-a260-822e9ee73f46"},"vehicle_type_id":"4","last_reported":1734815289,"current_range_meters":36800,"station_id":"ce4bhjp2rcd13ifvqg90","pricing_plan_id":"cebpf4jnsgd1na2vs0mg"},{"bike_id":"227b8709-a253-45c2-b4c3-fa7ef48a7c09","system_id":"levelo_inurba_marseille","lat":43.26944,"lon":5.38631,"is_reserved":false,"is_disabled":false,"rental_uris":{"android":"levelo://app?vid=227b8709-a253-45c2-b4c3-fa7ef48a7c09","ios":"levelo://app?vid=227b8709-a253-45c2-b4c3-fa7ef48a7c09"},"vehicle_type_id":"4","last_reported":1734815289,"current_range_meters":31200,"station_id":"ce4bhh92rcd13ifvqfh0","pricing_plan_id":"cebpf4jnsgd1na2vs0mg"},{"bike_id":"7646be54-ccce-4459-bfcd-5f70b1a12064","system_id":"levelo_inurba_marseille","lat":43.32287,"lon":5.38279,"is_reserved":false,"is_disabled":false,"rental_uris":{"android":"levelo://app?vid=7646be54-ccce-4459-bfcd-5f70b1a12064","ios":"levelo://app?vid=7646be54-ccce-4459-bfcd-5f70b1a12064"},"vehicle_type_id":"4","last_reported":1734815289,"current_range_meters":38800,"station_id":"ce4bhr12rcd13ifvqhqg","pricing_plan_id":"cebpf4jnsgd1na2vs0mg"},{"bike_id":"ad078c43-1679-489e-8ed8-165288617005","system_id":"levelo_inurba_marseille","lat":43.29308,"lon":5.37168,"is_reserved":false,"is_disabled":false,"rental_uris":{"android":"levelo://app?vid=ad078c43-1679-489e-8ed8-165288617005","ios":"levelo://app?vid=ad078c43-1679-489e-8ed8-165288617005"},"vehicle_type_id":"4","last_reported":1734815289,"current_range_meters":14000,"station_id":"ce4bgh92rcd13ifvqb40","pricing_plan_id":"cebpf4jnsgd1na2vs0mg"},{"bike_id":"b9a2a5db-4e4f-4472-9221-981416be1b6c","system_id":"levelo_inurba_marseille","lat":43.30136,"lon":5.39876,"is_reserved":false,"is_disabled":true,"rental_uris":{"android":"levelo://app?vid=b9a2a5db-4e4f-4472-9221-981416be1b6c","ios":"levelo://app?vid=b9a2a5db-4e4f-4472-9221-981416be1b6c"},"vehicle_type_id":"4","last_reported":1734815289,"current_range_meters":38000,"station_id":"ce4bh0h2rcd13ifvqd40","pricing_plan_id":"cebpf4jnsgd1na2vs0mg"},{"bike_id":"7d36f5d4-41e9-448e-b8bd-130bdd9f3f18","system_id":"levelo_inurba_marseille","lat":43.25496,"lon":5.376514,"is_reserved":false,"is_disabled":false,"rental_uris":{"android":"levelo://app?vid=7d36f5d4-41e9-448e-b8bd-130bdd9f3f18","ios":"levelo://app?vid=7d36f5d4-41e9-448e-b8bd-130bdd9f3f18"},"vehicle_type_id":"4","last_reported":1734815289,"current_range_meters":37600,"station_id":"ce4bhh12rcd13ifvqff0","pricing_plan_id":"cebpf4jnsgd1na2vs0mg"},{"bike_id":"60dbf17a-9f43-4a54-950f-8e0a0de5ee58","system_id":"levelo_inurba_marseille","lat":43.29171,"lon":5.37141,"is_reserved":false,"is_disabled":false,"rental_uris":{"android":"levelo://app?vid=60dbf17a-9f43-4a54-950f-8e0a0de5ee58","ios":"levelo://app?vid=60dbf17a-9f43-4a54-950f-8e0a0de5ee58"},"vehicle_type_id":"4","last_reported":1734815289,"current_range_meters":39200,"station_id":"ce4bha92rcd13ifvqeh0","pricing_plan_id":"cebpf4jnsgd1na2vs0mg"},{"bike_id":"dabdb816-8280-4165-8f88-ae205fe0accb","system_id":"levelo_inurba_marseille","lat":43.23963,"lon":5.36649,"is_reserved":false,"is_disabled":false,"rental_uris":{"android":"levelo://app?vid=dabdb816-8280-4165-8f88-ae205fe0accb","ios":"levelo://app?vid=dabdb816-8280-4165-8f88-ae205fe0accb"},"vehicle_type_id":"4","last_reported":1734815289,"current_range_meters":35200,"station_id":"ce4bhi12rcd13ifvqfp0","pricing_plan_id":"cebpf4jnsgd1na2vs0mg"},{"bike_id":"4d78d0fb-0a53-44c5-a991-e85f3223e05c","system_id":"levelo_inurba_marseille","lat":43.29612,"lon":5.37716,"is_reserved":false,"is_disabled":false,"rental_uris":{"android":"levelo://app?vid=4d78d0fb-0a53-44c5-a991-e85f3223e05c","ios":"levelo://app?vid=4d78d0fb-0a53-44c5-a991-e85f3223e05c"},"vehicle_type_id":"4","last_reported":1734815289,"current_range_meters":32400,"station_id":"ce4bgi92rcd13ifvqb90","pricing_plan_id":"cebpf4jnsgd1na2vs0mg"},{"bike_id":"18bc712f-05f8-4bfe-a81a-9b0f3911a5b1","system_id":"levelo_inurba_marseille","lat":43.27566,"lon":5.38422,"is_reserved":false,"is_disabled":false,"rental_uris":{"android":"levelo://app?vid=18bc712f-05f8-4bfe-a81a-9b0f3911a5b1","ios":"levelo://app?vid=18bc712f-05f8-4bfe-a81a-9b0f3911a5b1"},"vehicle_type_id":"4","last_reported":1734815289,"current_range_meters":39200,"station_id":"ce4bhh92rcd13ifvqfi0","pricing_plan_id":"cebpf4jnsgd1na2vs0mg"},{"bike_id":"30e72b1a-1910-4987-ad2d-02ceefad201f","system_id":"levelo_inurba_marseille","lat":43.27944,"lon":5.38718,"is_reserved":false,"is_disabled":false,"rental_uris":{"android":"levelo://app?vid=30e72b1a-1910-4987-ad2d-02ceefad201f","ios":"levelo://app?vid=30e72b1a-1910-4987-ad2d-02ceefad201f"},"vehicle_type_id":"4","last_reported":1734815289,"current_range_meters":37600,"station_id":"ce4bhg12rcd13ifvqf80","pricing_plan_id":"cebpf4jnsgd1na2vs0mg"},{"bike_id":"63b2619d-d624-4f04-9688-d4ce974e6a54","system_id":"levelo_inurba_marseille","lat":43.24998,"lon":5.38917,"is_reserved":false,"is_disabled":false,"rental_uris":{"android":"levelo://app?vid=63b2619d-d624-4f04-9688-d4ce974e6a54","ios":"levelo://app?vid=63b2619d-d624-4f04-9688-d4ce974e6a54"},"vehicle_type_id":"4","last_reported":1734815289,"current_range_meters":35200,"station_id":"ce4bhgp2rcd13ifvqfd0","pricing_plan_id":"cebpf4jnsgd1na2vs0mg"},{"bike_id":"fc4ff347-ef4d-4a4d-ae09-babf618fedb6","system_id":"levelo_inurba_marseille","lat":43.24168,"lon":5.36387,"is_reserved":false,"is_disabled":false,"rental_uris":{"android":"levelo://app?vid=fc4ff347-ef4d-4a4d-ae09-babf618fedb6","ios":"levelo://app?vid=fc4ff347-ef4d-4a4d-ae09-babf618fedb6"},"vehicle_type_id":"4","last_reported":1734815289,"current_range_meters":33200,"station_id":"cpo36qri1sfpv3e86is0","pricing_plan_id":"cebpf4jnsgd1na2vs0mg"},{"bike_id":"74a0ba82-e41e-4323-907c-380f46a266d7","system_id":"levelo_inurba_marseille","lat":43.313225,"lon":5.39693,"is_reserved":false,"is_disabled":false,"rental_uris":{"android":"levelo://app?vid=74a0ba82-e41e-4323-907c-380f46a266d7","ios":"levelo://app?vid=74a0ba82-e41e-4323-907c-380f46a266d7"},"vehicle_type_id":"4","last_reported":1734815289,"current_range_meters":36400,"station_id":"ce4bgvp2rcd13ifvqcu0","pricing_plan_id":"cebpf4jnsgd1na2vs0mg"},{"bike_id":"dfcdb34a-6d91-4bd5-83b3-df14955564a1","system_id":"levelo_inurba_marseille","lat":43.27827,"lon":5.39181,"is_reserved":false,"is_disabled":false,"rental_uris":{"android":"levelo://app?vid=dfcdb34a-6d91-4bd5-83b3-df14955564a1","ios":"levelo://app?vid=dfcdb34a-6d91-4bd5-83b3-df14955564a1"},"vehicle_type_id":"4","last_reported":1734815289,"current_range_meters":6000,"station_id":"ce4bhjp2rcd13ifvqga0","pricing_plan_id":"cebpf4jnsgd1na2vs0mg"},{"bike_id":"cbf1ec11-8d33-4f4b-86f9-f0323ee50e1a","system_id":"levelo_inurba_marseille","lat":43.23966,"lon":5.36632,"is_reserved":false,"is_disabled":false,"rental_uris":{"android":"levelo://app?vid=cbf1ec11-8d33-4f4b-86f9-f0323ee50e1a","ios":"levelo://app?vid=cbf1ec11-8d33-4f4b-86f9-f0323ee50e1a"},"vehicle_type_id":"4","last_reported":1734815289,"current_range_meters":38800,"station_id":"ce4bhi12rcd13ifvqfp0","pricing_plan_id":"cebpf4jnsgd1na2vs0mg"},{"bike_id":"81959691-8c9c-4637-9c02-e883aa087405","system_id":"levelo_inurba_marseille","lat":43.29307,"lon":5.37154,"is_reserved":false,"is_disabled":false,"rental_uris":{"android":"levelo://app?vid=81959691-8c9c-4637-9c02-e883aa087405","ios":"levelo://app?vid=81959691-8c9c-4637-9c02-e883aa087405"},"vehicle_type_id":"4","last_reported":1734815289,"current_range_meters":32400,"station_id":"ce4bgh92rcd13ifvqb40","pricing_plan_id":"cebpf4jnsgd1na2vs0mg"},{"bike_id":"e0a32ec0-1524-44f6-b48a-381c8e58ba62","system_id":"levelo_inurba_marseille","lat":43.32661,"lon":5.40982,"is_reserved":false,"is_disabled":false,"rental_uris":{"android":"levelo://app?vid=e0a32ec0-1524-44f6-b48a-381c8e58ba62","ios":"levelo://app?vid=e0a32ec0-1524-44f6-b48a-381c8e58ba62"},"vehicle_type_id":"4","last_reported":1734815289,"current_range_meters":12800,"station_id":"ce4bhpp2rcd13ifvqhgg","pricing_plan_id":"cebpf4jnsgd1na2vs0mg"},{"bike_id":"82030f3d-f035-4f20-a840-c2ce06482a69","system_id":"levelo_inurba_marseille","lat":43.29213,"lon":5.35758,"is_reserved":false,"is_disabled":false,"rental_uris":{"android":"levelo://app?vid=82030f3d-f035-4f20-a840-c2ce06482a69","ios":"levelo://app?vid=82030f3d-f035-4f20-a840-c2ce06482a69"},"vehicle_type_id":"4","last_reported":1734815289,"current_range_meters":33600,"station_id":"ce4bhb12rcd13ifvqel0","pricing_plan_id":"cebpf4jnsgd1na2vs0mg"},{"bike_id":"fe10191d-4949-44aa-952e-24e7dd773415","system_id":"levelo_inurba_marseille","lat":43.30892,"lon":5.37186,"is_reserved":false,"is_disabled":false,"rental_uris":{"android":"levelo://app?vid=fe10191d-4949-44aa-952e-24e7dd773415","ios":"levelo://app?vid=fe10191d-4949-44aa-952e-24e7dd773415"},"vehicle_type_id":"4","last_reported":1734815289,"current_range_meters":20400,"station_id":"ce4bguh2rcd13ifvqckg","pricing_plan_id":"cebpf4jnsgd1na2vs0mg"},{"bike_id":"1b0e9d34-71b5-4d2a-8c59-b2701c6566e6","system_id":"levelo_inurba_marseille","lat":43.255012,"lon":5.376644,"is_reserved":false,"is_disabled":false,"rental_uris":{"android":"levelo://app?vid=1b0e9d34-71b5-4d2a-8c59-b2701c6566e6","ios":"levelo://app?vid=1b0e9d34-71b5-4d2a-8c59-b2701c6566e6"},"vehicle_type_id":"4","last_reported":1734815289,"current_range_meters":38800,"station_id":"ce4bhh12rcd13ifvqff0","pricing_plan_id":"cebpf4jnsgd1na2vs0mg"},{"bike_id":"fd729f06-b942-4389-821d-15c850855c77","system_id":"levelo_inurba_marseille","lat":43.30302,"lon":5.39221,"is_reserved":false,"is_disabled":false,"rental_uris":{"android":"levelo://app?vid=fd729f06-b942-4389-821d-15c850855c77","ios":"levelo://app?vid=fd729f06-b942-4389-821d-15c850855c77"},"vehicle_type_id":"4","last_reported":1734815289,"current_range_meters":38400,"station_id":"ce4bgkh2rcd13ifvqbk0","pricing_plan_id":"cebpf4jnsgd1na2vs0mg"},{"bike_id":"abbc8f9b-5577-4fcd-bbf9-457f2aa80ebe","system_id":"levelo_inurba_marseille","lat":43.273228,"lon":5.390994,"is_reserved":false,"is_disabled":false,"rental_uris":{"android":"levelo://app?vid=abbc8f9b-5577-4fcd-bbf9-457f2aa80ebe","ios":"levelo://app?vid=abbc8f9b-5577-4fcd-bbf9-457f2aa80ebe"},"vehicle_type_id":"4","last_reported":1734815289,"current_range_meters":24400,"station_id":"ce4bhgp2rcd13ifvqfe0","pricing_plan_id":"cebpf4jnsgd1na2vs0mg"},{"bike_id":"877fe626-a76a-4adb-b522-e8da1970693a","system_id":"levelo_inurba_marseille","lat":43.29591,"lon":5.38104,"is_reserved":false,"is_disabled":false,"rental_uris":{"android":"levelo://app?vid=877fe626-a76a-4adb-b522-e8da1970693a","ios":"levelo://app?vid=877fe626-a76a-4adb-b522-e8da1970693a"},"vehicle_type_id":"4","last_reported":1734815289,"current_range_meters":23200,"station_id":"ce4bgl12rcd13ifvqbo0","pricing_plan_id":"cebpf4jnsgd1na2vs0mg"},{"bike_id":"0b746091-c714-427c-99b1-88af531802ad","system_id":"levelo_inurba_marseille","lat":43.28725,"lon":5.3608,"is_reserved":false,"is_disabled":false,"rental_uris":{"android":"levelo://app?vid=0b746091-c714-427c-99b1-88af531802ad","ios":"levelo://app?vid=0b746091-c714-427c-99b1-88af531802ad"},"vehicle_type_id":"4","last_reported":1734815289,"current_range_meters":8000,"station_id":"cki0cbj6b192h4jlfktg","pricing_plan_id":"cebpf4jnsgd1na2vs0mg"},{"bike_id":"8398eb00-cdb6-4062-b3a7-7b7fbdbc9737","system_id":"levelo_inurba_marseille","lat":43.29281,"lon":5.40125,"is_reserved":false,"is_disabled":false,"rental_uris":{"android":"levelo://app?vid=8398eb00-cdb6-4062-b3a7-7b7fbdbc9737","ios":"levelo://app?vid=8398eb00-cdb6-4062-b3a7-7b7fbdbc9737"},"vehicle_type_id":"4","last_reported":1734815289,"current_range_meters":32800,"station_id":"ce4bh312rcd13ifvqdk0","pricing_plan_id":"cebpf4jnsgd1na2vs0mg"},{"bike_id":"7a8337fb-065c-4621-89bc-378d03a67718","system_id":"levelo_inurba_marseille","lat":43.2993,"lon":5.37488,"is_reserved":false,"is_disabled":false,"rental_uris":{"android":"levelo://app?vid=7a8337fb-065c-4621-89bc-378d03a67718","ios":"levelo://app?vid=7a8337fb-065c-4621-89bc-378d03a67718"},"vehicle_type_id":"4","last_reported":1734815289,"current_range_meters":28800,"station_id":"ce4bgjh2rcd13ifvqbg0","pricing_plan_id":"cebpf4jnsgd1na2vs0mg"},{"bike_id":"1bfc389f-b0d1-4a76-a643-dc7185544786","system_id":"levelo_inurba_marseille","lat":43.28619,"lon":5.35107,"is_reserved":false,"is_disabled":false,"rental_uris":{"android":"levelo://app?vid=1bfc389f-b0d1-4a76-a643-dc7185544786","ios":"levelo://app?vid=1bfc389f-b0d1-4a76-a643-dc7185544786"},"vehicle_type_id":"4","last_reported":1734815289,"current_range_meters":36000,"station_id":"ce4bhch2rcd13ifvqeug","pricing_plan_id":"cebpf4jnsgd1na2vs0mg"},{"bike_id":"f19e7308-f4a4-40ff-927f-9dd947ac10d0","system_id":"levelo_inurba_marseille","lat":43.291948,"lon":5.358147,"is_reserved":false,"is_disabled":false,"rental_uris":{"android":"levelo://app?vid=f19e7308-f4a4-40ff-927f-9dd947ac10d0","ios":"levelo://app?vid=f19e7308-f4a4-40ff-927f-9dd947ac10d0"},"vehicle_type_id":"4","last_reported":1734815289,"current_range_meters":27600,"station_id":"ce4bhb12rcd13ifvqel0","pricing_plan_id":"cebpf4jnsgd1na2vs0mg"},{"bike_id":"2758bd00-1fe3-43fb-acf3-99920890895a","system_id":"levelo_inurba_marseille","lat":43.29416,"lon":5.38628,"is_reserved":false,"is_disabled":false,"rental_uris":{"android":"levelo://app?vid=2758bd00-1fe3-43fb-acf3-99920890895a","ios":"levelo://app?vid=2758bd00-1fe3-43fb-acf3-99920890895a"},"vehicle_type_id":"4","last_reported":1734815289,"current_range_meters":37600,"station_id":"ce4bh2h2rcd13ifvqdh0","pricing_plan_id":"cebpf4jnsgd1na2vs0mg"},{"bike_id":"de6ebabc-a12a-455f-8ac6-5811b92b2163","system_id":"levelo_inurba_marseille","lat":43.29297,"lon":5.37455,"is_reserved":false,"is_disabled":true,"rental_uris":{"android":"levelo://app?vid=de6ebabc-a12a-455f-8ac6-5811b92b2163","ios":"levelo://app?vid=de6ebabc-a12a-455f-8ac6-5811b92b2163"},"vehicle_type_id":"4","last_reported":1734815289,"current_range_meters":12800,"station_id":"ce4bgi12rcd13ifvqb70","pricing_plan_id":"cebpf4jnsgd1na2vs0mg"},{"bike_id":"b07e0204-2c57-49d1-a1f7-320de8610e25","system_id":"levelo_inurba_marseille","lat":43.29379,"lon":5.3733,"is_reserved":false,"is_disabled":false,"rental_uris":{"android":"levelo://app?vid=b07e0204-2c57-49d1-a1f7-320de8610e25","ios":"levelo://app?vid=b07e0204-2c57-49d1-a1f7-320de8610e25"},"vehicle_type_id":"4","last_reported":1734815289,"current_range_meters":31200,"station_id":"","pricing_plan_id":"cebpf4jnsgd1na2vs0mg"},{"bike_id":"070e483f-8929-43ba-9809-3a2f5443ce43","system_id":"levelo_inurba_marseille","lat":43.28074,"lon":5.39665,"is_reserved":false,"is_disabled":false,"rental_uris":{"android":"levelo://app?vid=070e483f-8929-43ba-9809-3a2f5443ce43","ios":"levelo://app?vid=070e483f-8929-43ba-9809-3a2f5443ce43"},"vehicle_type_id":"4","last_reported":1734815289,"current_range_meters":38800,"station_id":"ce4bho12rcd13ifvqh2g","pricing_plan_id":"cebpf4jnsgd1na2vs0mg"},{"bike_id":"8a4065ea-eb0c-46d4-8ef1-eef51dda96b5","system_id":"levelo_inurba_marseille","lat":43.29527,"lon":5.38546,"is_reserved":false,"is_disabled":false,"rental_uris":{"android":"levelo://app?vid=8a4065ea-eb0c-46d4-8ef1-eef51dda96b5","ios":"levelo://app?vid=8a4065ea-eb0c-46d4-8ef1-eef51dda96b5"},"vehicle_type_id":"4","last_reported":1734815289,"current_range_meters":10000,"station_id":"ce4bgih2rcd13ifvqba0","pricing_plan_id":"cebpf4jnsgd1na2vs0mg"},{"bike_id":"02cf79c6-68fd-4030-9099-145da0f8d7ea","system_id":"levelo_inurba_marseille","lat":43.28725,"lon":5.36086,"is_reserved":false,"is_disabled":false,"rental_uris":{"android":"levelo://app?vid=02cf79c6-68fd-4030-9099-145da0f8d7ea","ios":"levelo://app?vid=02cf79c6-68fd-4030-9099-145da0f8d7ea"},"vehicle_type_id":"4","last_reported":1734815289,"current_range_meters":39200,"station_id":"cki0cbj6b192h4jlfktg","pricing_plan_id":"cebpf4jnsgd1na2vs0mg"},{"bike_id":"f40e7c61-8a43-4da7-a842-fa391ba2fc6e","system_id":"levelo_inurba_marseille","lat":43.26039,"lon":5.37564,"is_reserved":false,"is_disabled":false,"rental_uris":{"android":"levelo://app?vid=f40e7c61-8a43-4da7-a842-fa391ba2fc6e","ios":"levelo://app?vid=f40e7c61-8a43-4da7-a842-fa391ba2fc6e"},"vehicle_type_id":"4","last_reported":1734815289,"current_range_meters":37600,"station_id":"ce4bhgh2rcd13ifvqfa0","pricing_plan_id":"cebpf4jnsgd1na2vs0mg"},{"bike_id":"66635673-7a8a-4869-a8f4-8f27c15fb2f7","system_id":"levelo_inurba_marseille","lat":43.26573,"lon":5.39019,"is_reserved":false,"is_disabled":false,"rental_uris":{"android":"levelo://app?vid=66635673-7a8a-4869-a8f4-8f27c15fb2f7","ios":"levelo://app?vid=66635673-7a8a-4869-a8f4-8f27c15fb2f7"},"vehicle_type_id":"4","last_reported":1734815289,"current_range_meters":30000,"station_id":"ce4bhe12rcd13ifvqf30","pricing_plan_id":"cebpf4jnsgd1na2vs0mg"},{"bike_id":"f0bcbb45-555d-4c5b-8534-084b0fafc4e9","system_id":"levelo_inurba_marseille","lat":43.29161,"lon":5.3716,"is_reserved":false,"is_disabled":true,"rental_uris":{"android":"levelo://app?vid=f0bcbb45-555d-4c5b-8534-084b0fafc4e9","ios":"levelo://app?vid=f0bcbb45-555d-4c5b-8534-084b0fafc4e9"},"vehicle_type_id":"4","last_reported":1734815289,"current_range_meters":38000,"station_id":"ce4bha92rcd13ifvqeh0","pricing_plan_id":"cebpf4jnsgd1na2vs0mg"},{"bike_id":"76b76425-6067-4ebf-b7fd-d9791c7cf83d","system_id":"levelo_inurba_marseille","lat":43.28941,"lon":5.36628,"is_reserved":false,"is_disabled":false,"rental_uris":{"android":"levelo://app?vid=76b76425-6067-4ebf-b7fd-d9791c7cf83d","ios":"levelo://app?vid=76b76425-6067-4ebf-b7fd-d9791c7cf83d"},"vehicle_type_id":"4","last_reported":1734815289,"current_range_meters":38000,"station_id":"ce4bhap2rcd13ifvqek0","pricing_plan_id":"cebpf4jnsgd1na2vs0mg"},{"bike_id":"53be3d88-2f89-4784-b9cc-4a3607593615","system_id":"levelo_inurba_marseille","lat":43.24077,"lon":5.37751,"is_reserved":false,"is_disabled":false,"rental_uris":{"android":"levelo://app?vid=53be3d88-2f89-4784-b9cc-4a3607593615","ios":"levelo://app?vid=53be3d88-2f89-4784-b9cc-4a3607593615"},"vehicle_type_id":"4","last_reported":1734815289,"current_range_meters":28000,"station_id":"ce4bhnp2rcd13ifvqgvg","pricing_plan_id":"cebpf4jnsgd1na2vs0mg"},{"bike_id":"b002d028-e42c-46e2-93ce-a18a7a90546e","system_id":"levelo_inurba_marseille","lat":43.32292,"lon":5.38273,"is_reserved":false,"is_disabled":false,"rental_uris":{"android":"levelo://app?vid=b002d028-e42c-46e2-93ce-a18a7a90546e","ios":"levelo://app?vid=b002d028-e42c-46e2-93ce-a18a7a90546e"},"vehicle_type_id":"4","last_reported":1734815289,"current_range_meters":22400,"station_id":"ce4bhr12rcd13ifvqhqg","pricing_plan_id":"cebpf4jnsgd1na2vs0mg"},{"bike_id":"67c8c173-0c6c-46f3-96ff-08a69629473b","system_id":"levelo_inurba_marseille","lat":43.2963,"lon":5.40595,"is_reserved":false,"is_disabled":false,"rental_uris":{"android":"levelo://app?vid=67c8c173-0c6c-46f3-96ff-08a69629473b","ios":"levelo://app?vid=67c8c173-0c6c-46f3-96ff-08a69629473b"},"vehicle_type_id":"4","last_reported":1734815289,"current_range_meters":18000,"station_id":"ce4bh0h2rcd13ifvqd60","pricing_plan_id":"cebpf4jnsgd1na2vs0mg"},{"bike_id":"725f2ba4-42ee-480b-a31f-097189b1c2cf","system_id":"levelo_inurba_marseille","lat":43.291928,"lon":5.357948,"is_reserved":false,"is_disabled":true,"rental_uris":{"android":"levelo://app?vid=725f2ba4-42ee-480b-a31f-097189b1c2cf","ios":"levelo://app?vid=725f2ba4-42ee-480b-a31f-097189b1c2cf"},"vehicle_type_id":"4","last_reported":1734815289,"current_range_meters":38800,"station_id":"ce4bhb12rcd13ifvqel0","pricing_plan_id":"cebpf4jnsgd1na2vs0mg"},{"bike_id":"931def5e-cebd-4f70-9de3-8f80bdbc113b","system_id":"levelo_inurba_marseille","lat":43.30323,"lon":5.40445,"is_reserved":false,"is_disabled":false,"rental_uris":{"android":"levelo://app?vid=931def5e-cebd-4f70-9de3-8f80bdbc113b","ios":"levelo://app?vid=931def5e-cebd-4f70-9de3-8f80bdbc113b"},"vehicle_type_id":"4","last_reported":1734815289,"current_range_meters":38800,"station_id":"ce4bh012rcd13ifvqd10","pricing_plan_id":"cebpf4jnsgd1na2vs0mg"},{"bike_id":"9402f944-2ab0-40ec-9775-0b04396b6114","system_id":"levelo_inurba_marseille","lat":43.23173,"lon":5.39983,"is_reserved":false,"is_disabled":false,"rental_uris":{"android":"levelo://app?vid=9402f944-2ab0-40ec-9775-0b04396b6114","ios":"levelo://app?vid=9402f944-2ab0-40ec-9775-0b04396b6114"},"vehicle_type_id":"4","last_reported":1734815289,"current_range_meters":37600,"station_id":"ce4bhn12rcd13ifvqgqg","pricing_plan_id":"cebpf4jnsgd1na2vs0mg"},{"bike_id":"28f15137-bb35-42e8-b98a-52b9c93706ac","system_id":"levelo_inurba_marseille","lat":43.29267,"lon":5.40122,"is_reserved":false,"is_disabled":true,"rental_uris":{"android":"levelo://app?vid=28f15137-bb35-42e8-b98a-52b9c93706ac","ios":"levelo://app?vid=28f15137-bb35-42e8-b98a-52b9c93706ac"},"vehicle_type_id":"4","last_reported":1734815289,"current_range_meters":400,"station_id":"ce4bh312rcd13ifvqdk0","pricing_plan_id":"cebpf4jnsgd1na2vs0mg"},{"bike_id":"4094ac40-fe97-4483-91f4-bc4b6a97b4f3","system_id":"levelo_inurba_marseille","lat":43.25838,"lon":5.39409,"is_reserved":false,"is_disabled":true,"rental_uris":{"android":"levelo://app?vid=4094ac40-fe97-4483-91f4-bc4b6a97b4f3","ios":"levelo://app?vid=4094ac40-fe97-4483-91f4-bc4b6a97b4f3"},"vehicle_type_id":"4","last_reported":1734815289,"current_range_meters":4000,"station_id":"ce4bhip2rcd13ifvqft0","pricing_plan_id":"cebpf4jnsgd1na2vs0mg"},{"bike_id":"ed495aba-f9b6-4311-b39c-649f2202b23f","system_id":"levelo_inurba_marseille","lat":43.27564,"lon":5.38425,"is_reserved":false,"is_disabled":false,"rental_uris":{"android":"levelo://app?vid=ed495aba-f9b6-4311-b39c-649f2202b23f","ios":"levelo://app?vid=ed495aba-f9b6-4311-b39c-649f2202b23f"},"vehicle_type_id":"4","last_reported":1734815289,"current_range_meters":39200,"station_id":"ce4bhh92rcd13ifvqfi0","pricing_plan_id":"cebpf4jnsgd1na2vs0mg"},{"bike_id":"f953c87c-4ea7-4e78-9490-68e955a0946d","system_id":"levelo_inurba_marseille","lat":43.2549,"lon":5.37647,"is_reserved":false,"is_disabled":true,"rental_uris":{"android":"levelo://app?vid=f953c87c-4ea7-4e78-9490-68e955a0946d","ios":"levelo://app?vid=f953c87c-4ea7-4e78-9490-68e955a0946d"},"vehicle_type_id":"4","last_reported":1734815289,"current_range_meters":18000,"station_id":"ce4bhh12rcd13ifvqff0","pricing_plan_id":"cebpf4jnsgd1na2vs0mg"},{"bike_id":"eddf6680-846f-4329-a45c-ae95db2c1ac9","system_id":"levelo_inurba_marseille","lat":43.26209,"lon":5.3744,"is_reserved":false,"is_disabled":false,"rental_uris":{"android":"levelo://app?vid=eddf6680-846f-4329-a45c-ae95db2c1ac9","ios":"levelo://app?vid=eddf6680-846f-4329-a45c-ae95db2c1ac9"},"vehicle_type_id":"4","last_reported":1734815289,"current_range_meters":9200,"station_id":"ce4bhgp2rcd13ifvqfc0","pricing_plan_id":"cebpf4jnsgd1na2vs0mg"},{"bike_id":"bffa53fc-fd24-43bb-914d-8fb43c7a35d6","system_id":"levelo_inurba_marseille","lat":43.26684,"lon":5.38274,"is_reserved":false,"is_disabled":false,"rental_uris":{"android":"levelo://app?vid=bffa53fc-fd24-43bb-914d-8fb43c7a35d6","ios":"levelo://app?vid=bffa53fc-fd24-43bb-914d-8fb43c7a35d6"},"vehicle_type_id":"4","last_reported":1734815289,"current_range_meters":29600,"station_id":"ce4bhg92rcd13ifvqf90","pricing_plan_id":"cebpf4jnsgd1na2vs0mg"},{"bike_id":"c91da701-8020-4c63-924e-c2588244a161","system_id":"levelo_inurba_marseille","lat":43.311646,"lon":5.387286,"is_reserved":false,"is_disabled":true,"rental_uris":{"android":"levelo://app?vid=c91da701-8020-4c63-924e-c2588244a161","ios":"levelo://app?vid=c91da701-8020-4c63-924e-c2588244a161"},"vehicle_type_id":"4","last_reported":1734815289,"current_range_meters":4800,"station_id":"ce4bgv12rcd13ifvqcp0","pricing_plan_id":"cebpf4jnsgd1na2vs0mg"},{"bike_id":"b73b3cc8-26fa-4032-8e99-f74b6ff40c2a","system_id":"levelo_inurba_marseille","lat":43.27016,"lon":5.40211,"is_reserved":false,"is_disabled":false,"rental_uris":{"android":"levelo://app?vid=b73b3cc8-26fa-4032-8e99-f74b6ff40c2a","ios":"levelo://app?vid=b73b3cc8-26fa-4032-8e99-f74b6ff40c2a"},"vehicle_type_id":"4","last_reported":1734815289,"current_range_meters":18000,"station_id":"","pricing_plan_id":"cebpf4jnsgd1na2vs0mg"},{"bike_id":"0fa4fd6a-c920-470e-9628-342bc95af557","system_id":"levelo_inurba_marseille","lat":43.24669,"lon":5.38158,"is_reserved":false,"is_disabled":false,"rental_uris":{"android":"levelo://app?vid=0fa4fd6a-c920-470e-9628-342bc95af557","ios":"levelo://app?vid=0fa4fd6a-c920-470e-9628-342bc95af557"},"vehicle_type_id":"4","last_reported":1734815289,"current_range_meters":36400,"station_id":"ce4bhih2rcd13ifvqfr0","pricing_plan_id":"cebpf4jnsgd1na2vs0mg"},{"bike_id":"32ebf098-e002-4aa6-88f7-5b365ee05e11","system_id":"levelo_inurba_marseille","lat":43.24084,"lon":5.37746,"is_reserved":false,"is_disabled":true,"rental_uris":{"android":"levelo://app?vid=32ebf098-e002-4aa6-88f7-5b365ee05e11","ios":"levelo://app?vid=32ebf098-e002-4aa6-88f7-5b365ee05e11"},"vehicle_type_id":"4","last_reported":1734815289,"current_range_meters":0,"station_id":"ce4bhnp2rcd13ifvqgvg","pricing_plan_id":"cebpf4jnsgd1na2vs0mg"},{"bike_id":"c76930fa-a944-41b3-a457-e7963f69e35f","system_id":"levelo_inurba_marseille","lat":43.26057,"lon":5.3939,"is_reserved":false,"is_disabled":false,"rental_uris":{"android":"levelo://app?vid=c76930fa-a944-41b3-a457-e7963f69e35f","ios":"levelo://app?vid=c76930fa-a944-41b3-a457-e7963f69e35f"},"vehicle_type_id":"4","last_reported":1734815289,"current_range_meters":11200,"station_id":"ce4bhh92rcd13ifvqfj0","pricing_plan_id":"cebpf4jnsgd1na2vs0mg"},{"bike_id":"de80bfb0-e23d-4fad-9742-3af3f4a72245","system_id":"levelo_inurba_marseille","lat":43.29915,"lon":5.38133,"is_reserved":false,"is_disabled":false,"rental_uris":{"android":"levelo://app?vid=de80bfb0-e23d-4fad-9742-3af3f4a72245","ios":"levelo://app?vid=de80bfb0-e23d-4fad-9742-3af3f4a72245"},"vehicle_type_id":"4","last_reported":1734815289,"current_range_meters":34000,"station_id":"ce4bgj12rcd13ifvqbc0","pricing_plan_id":"cebpf4jnsgd1na2vs0mg"},{"bike_id":"ae26c6f5-f7ff-47c2-94e3-1e3154b24029","system_id":"levelo_inurba_marseille","lat":43.29794,"lon":5.37101,"is_reserved":false,"is_disabled":false,"rental_uris":{"android":"levelo://app?vid=ae26c6f5-f7ff-47c2-94e3-1e3154b24029","ios":"levelo://app?vid=ae26c6f5-f7ff-47c2-94e3-1e3154b24029"},"vehicle_type_id":"4","last_reported":1734815289,"current_range_meters":35200,"station_id":"ce4bgop2rcd13ifvqc1g","pricing_plan_id":"cebpf4jnsgd1na2vs0mg"},{"bike_id":"65aa7d33-db19-4b48-b2a2-a177bc62ee14","system_id":"levelo_inurba_marseille","lat":43.29843,"lon":5.36266,"is_reserved":false,"is_disabled":false,"rental_uris":{"android":"levelo://app?vid=65aa7d33-db19-4b48-b2a2-a177bc62ee14","ios":"levelo://app?vid=65aa7d33-db19-4b48-b2a2-a177bc62ee14"},"vehicle_type_id":"4","last_reported":1734815289,"current_range_meters":8800,"station_id":"ce4bgpp2rcd13ifvqc3g","pricing_plan_id":"cebpf4jnsgd1na2vs0mg"},{"bike_id":"c2bbce03-8ab5-4e5a-b646-9fd5f529cbad","system_id":"levelo_inurba_marseille","lat":43.28964,"lon":5.37835,"is_reserved":false,"is_disabled":false,"rental_uris":{"android":"levelo://app?vid=c2bbce03-8ab5-4e5a-b646-9fd5f529cbad","ios":"levelo://app?vid=c2bbce03-8ab5-4e5a-b646-9fd5f529cbad"},"vehicle_type_id":"4","last_reported":1734815289,"current_range_meters":2800,"station_id":"ce4bh9p2rcd13ifvqed0","pricing_plan_id":"cebpf4jnsgd1na2vs0mg"},{"bike_id":"2a272251-af1f-48d0-9610-9cb9d04451ab","system_id":"levelo_inurba_marseille","lat":43.30948,"lon":5.39029,"is_reserved":false,"is_disabled":true,"rental_uris":{"android":"levelo://app?vid=2a272251-af1f-48d0-9610-9cb9d04451ab","ios":"levelo://app?vid=2a272251-af1f-48d0-9610-9cb9d04451ab"},"vehicle_type_id":"4","last_reported":1734815289,"current_range_meters":0,"station_id":"ce4bgup2rcd13ifvqco0","pricing_plan_id":"cebpf4jnsgd1na2vs0mg"},{"bike_id":"ba623d7f-de4d-43e6-9a39-be19938e75fb","system_id":"levelo_inurba_marseille","lat":43.29371,"lon":5.37867,"is_reserved":false,"is_disabled":true,"rental_uris":{"android":"levelo://app?vid=ba623d7f-de4d-43e6-9a39-be19938e75fb","ios":"levelo://app?vid=ba623d7f-de4d-43e6-9a39-be19938e75fb"},"vehicle_type_id":"4","last_reported":1734815289,"current_range_meters":37600,"station_id":"","pricing_plan_id":"cebpf4jnsgd1na2vs0mg"},{"bike_id":"7ee6dfa4-a41c-4ffe-9185-2adabb50d1fd","system_id":"levelo_inurba_marseille","lat":43.3059,"lon":5.39374,"is_reserved":false,"is_disabled":false,"rental_uris":{"android":"levelo://app?vid=7ee6dfa4-a41c-4ffe-9185-2adabb50d1fd","ios":"levelo://app?vid=7ee6dfa4-a41c-4ffe-9185-2adabb50d1fd"},"vehicle_type_id":"4","last_reported":1734815289,"current_range_meters":38800,"station_id":"ce4bh0p2rcd13ifvqd80","pricing_plan_id":"cebpf4jnsgd1na2vs0mg"},{"bike_id":"b847c8c6-c749-49a9-a698-895d0864b15f","system_id":"levelo_inurba_marseille","lat":43.29534,"lon":5.38538,"is_reserved":false,"is_disabled":false,"rental_uris":{"android":"levelo://app?vid=b847c8c6-c749-49a9-a698-895d0864b15f","ios":"levelo://app?vid=b847c8c6-c749-49a9-a698-895d0864b15f"},"vehicle_type_id":"4","last_reported":1734815289,"current_range_meters":12000,"station_id":"ce4bgih2rcd13ifvqba0","pricing_plan_id":"cebpf4jnsgd1na2vs0mg"},{"bike_id":"a3bc8615-685e-4a88-ba31-e2574d0066d0","system_id":"levelo_inurba_marseille","lat":43.2973,"lon":5.37688,"is_reserved":false,"is_disabled":false,"rental_uris":{"android":"levelo://app?vid=a3bc8615-685e-4a88-ba31-e2574d0066d0","ios":"levelo://app?vid=a3bc8615-685e-4a88-ba31-e2574d0066d0"},"vehicle_type_id":"4","last_reported":1734815289,"current_range_meters":37600,"station_id":"ce4bgkh2rcd13ifvqbl0","pricing_plan_id":"cebpf4jnsgd1na2vs0mg"},{"bike_id":"10d16ca8-28c0-405d-8543-1a0f299451c6","system_id":"levelo_inurba_marseille","lat":43.27812,"lon":5.40721,"is_reserved":false,"is_disabled":false,"rental_uris":{"android":"levelo://app?vid=10d16ca8-28c0-405d-8543-1a0f299451c6","ios":"levelo://app?vid=10d16ca8-28c0-405d-8543-1a0f299451c6"},"vehicle_type_id":"4","last_reported":1734815289,"current_range_meters":15200,"station_id":"ce4bhnh2rcd13ifvqgtg","pricing_plan_id":"cebpf4jnsgd1na2vs0mg"},{"bike_id":"d7a9a039-2919-4498-94bc-85df69bbf9b4","system_id":"levelo_inurba_marseille","lat":43.25092,"lon":5.39508,"is_reserved":false,"is_disabled":true,"rental_uris":{"android":"levelo://app?vid=d7a9a039-2919-4498-94bc-85df69bbf9b4","ios":"levelo://app?vid=d7a9a039-2919-4498-94bc-85df69bbf9b4"},"vehicle_type_id":"4","last_reported":1734815289,"current_range_meters":0,"station_id":"ce4bhm12rcd13ifvqgkg","pricing_plan_id":"cebpf4jnsgd1na2vs0mg"},{"bike_id":"f6e00a83-cc1f-4aaf-83bb-77e9d3b9e809","system_id":"levelo_inurba_marseille","lat":43.337444,"lon":5.374475,"is_reserved":false,"is_disabled":false,"rental_uris":{"android":"levelo://app?vid=f6e00a83-cc1f-4aaf-83bb-77e9d3b9e809","ios":"levelo://app?vid=f6e00a83-cc1f-4aaf-83bb-77e9d3b9e809"},"vehicle_type_id":"4","last_reported":1734815289,"current_range_meters":27200,"station_id":"","pricing_plan_id":"cebpf4jnsgd1na2vs0mg"},{"bike_id":"4557c5fc-60ed-4c34-9596-70c70138f451","system_id":"levelo_inurba_marseille","lat":43.29621,"lon":5.37152,"is_reserved":false,"is_disabled":true,"rental_uris":{"android":"levelo://app?vid=4557c5fc-60ed-4c34-9596-70c70138f451","ios":"levelo://app?vid=4557c5fc-60ed-4c34-9596-70c70138f451"},"vehicle_type_id":"4","last_reported":1734815289,"current_range_meters":0,"station_id":"","pricing_plan_id":"cebpf4jnsgd1na2vs0mg"},{"bike_id":"2daf6017-db0c-42c7-86d8-f89177a5712a","system_id":"levelo_inurba_marseille","lat":43.24058,"lon":5.37752,"is_reserved":false,"is_disabled":false,"rental_uris":{"android":"levelo://app?vid=2daf6017-db0c-42c7-86d8-f89177a5712a","ios":"levelo://app?vid=2daf6017-db0c-42c7-86d8-f89177a5712a"},"vehicle_type_id":"4","last_reported":1734815289,"current_range_meters":24800,"station_id":"ce4bhnp2rcd13ifvqgvg","pricing_plan_id":"cebpf4jnsgd1na2vs0mg"},{"bike_id":"5d3dccbb-bf20-44a3-8771-80caee06bf13","system_id":"levelo_inurba_marseille","lat":43.31993,"lon":5.38148,"is_reserved":false,"is_disabled":false,"rental_uris":{"android":"levelo://app?vid=5d3dccbb-bf20-44a3-8771-80caee06bf13","ios":"levelo://app?vid=5d3dccbb-bf20-44a3-8771-80caee06bf13"},"vehicle_type_id":"4","last_reported":1734815289,"current_range_meters":37600,"station_id":"ce4bhr12rcd13ifvqhpg","pricing_plan_id":"cebpf4jnsgd1na2vs0mg"},{"bike_id":"5a02cac6-8726-4733-81bd-85fdd2c33e8c","system_id":"levelo_inurba_marseille","lat":43.29507,"lon":5.39387,"is_reserved":false,"is_disabled":false,"rental_uris":{"android":"levelo://app?vid=5a02cac6-8726-4733-81bd-85fdd2c33e8c","ios":"levelo://app?vid=5a02cac6-8726-4733-81bd-85fdd2c33e8c"},"vehicle_type_id":"4","last_reported":1734815289,"current_range_meters":38800,"station_id":"ce4bh292rcd13ifvqdf0","pricing_plan_id":"cebpf4jnsgd1na2vs0mg"},{"bike_id":"a98c7fb1-32b6-47d3-863d-fcb2a8f86141","system_id":"levelo_inurba_marseille","lat":43.27898,"lon":5.3801,"is_reserved":false,"is_disabled":false,"rental_uris":{"android":"levelo://app?vid=a98c7fb1-32b6-47d3-863d-fcb2a8f86141","ios":"levelo://app?vid=a98c7fb1-32b6-47d3-863d-fcb2a8f86141"},"vehicle_type_id":"4","last_reported":1734815289,"current_range_meters":37600,"station_id":"ce4bhf92rcd13ifvqf50","pricing_plan_id":"cebpf4jnsgd1na2vs0mg"},{"bike_id":"ba66dcd7-1375-48c7-9d1c-af860c98462a","system_id":"levelo_inurba_marseille","lat":43.27992,"lon":5.41663,"is_reserved":false,"is_disabled":false,"rental_uris":{"android":"levelo://app?vid=ba66dcd7-1375-48c7-9d1c-af860c98462a","ios":"levelo://app?vid=ba66dcd7-1375-48c7-9d1c-af860c98462a"},"vehicle_type_id":"4","last_reported":1734815289,"current_range_meters":38800,"station_id":"ce4bho12rcd13ifvqh1g","pricing_plan_id":"cebpf4jnsgd1na2vs0mg"},{"bike_id":"18e608c2-78ba-4d99-820e-49df6fc4e8b5","system_id":"levelo_inurba_marseille","lat":43.31759,"lon":5.39013,"is_reserved":false,"is_disabled":false,"rental_uris":{"android":"levelo://app?vid=18e608c2-78ba-4d99-820e-49df6fc4e8b5","ios":"levelo://app?vid=18e608c2-78ba-4d99-820e-49df6fc4e8b5"},"vehicle_type_id":"4","last_reported":1734815289,"current_range_meters":28800,"station_id":"ce4bhqp2rcd13ifvqhng","pricing_plan_id":"cebpf4jnsgd1na2vs0mg"},{"bike_id":"7628c52c-e03d-4167-85ee-aae79f122dc9","system_id":"levelo_inurba_marseille","lat":43.299801,"lon":5.371856,"is_reserved":false,"is_disabled":false,"rental_uris":{"android":"levelo://app?vid=7628c52c-e03d-4167-85ee-aae79f122dc9","ios":"levelo://app?vid=7628c52c-e03d-4167-85ee-aae79f122dc9"},"vehicle_type_id":"4","last_reported":1734815289,"current_range_meters":32800,"station_id":"ce4bgr92rcd13ifvqc7g","pricing_plan_id":"cebpf4jnsgd1na2vs0mg"},{"bike_id":"8d23ef1c-4d80-41f5-8856-02b6ab55c880","system_id":"levelo_inurba_marseille","lat":43.33727,"lon":5.39182,"is_reserved":false,"is_disabled":false,"rental_uris":{"android":"levelo://app?vid=8d23ef1c-4d80-41f5-8856-02b6ab55c880","ios":"levelo://app?vid=8d23ef1c-4d80-41f5-8856-02b6ab55c880"},"vehicle_type_id":"4","last_reported":1734815289,"current_range_meters":34000,"station_id":"ce4bhr92rcd13ifvqhsg","pricing_plan_id":"cebpf4jnsgd1na2vs0mg"},{"bike_id":"7eef964e-8b71-4771-a5f9-558dc0f6b5fa","system_id":"levelo_inurba_marseille","lat":43.31494,"lon":5.37305,"is_reserved":false,"is_disabled":false,"rental_uris":{"android":"levelo://app?vid=7eef964e-8b71-4771-a5f9-558dc0f6b5fa","ios":"levelo://app?vid=7eef964e-8b71-4771-a5f9-558dc0f6b5fa"},"vehicle_type_id":"4","last_reported":1734815289,"current_range_meters":38800,"station_id":"ce4bgt12rcd13ifvqcd0","pricing_plan_id":"cebpf4jnsgd1na2vs0mg"},{"bike_id":"ab5284a7-4a18-4006-b063-55e885d74a97","system_id":"levelo_inurba_marseille","lat":43.30949,"lon":5.39046,"is_reserved":false,"is_disabled":false,"rental_uris":{"android":"levelo://app?vid=ab5284a7-4a18-4006-b063-55e885d74a97","ios":"levelo://app?vid=ab5284a7-4a18-4006-b063-55e885d74a97"},"vehicle_type_id":"4","last_reported":1734815289,"current_range_meters":8000,"station_id":"ce4bgup2rcd13ifvqco0","pricing_plan_id":"cebpf4jnsgd1na2vs0mg"},{"bike_id":"60d37bab-e0a6-4b11-81f8-85326da8d120","system_id":"levelo_inurba_marseille","lat":43.28924,"lon":5.36632,"is_reserved":false,"is_disabled":true,"rental_uris":{"android":"levelo://app?vid=60d37bab-e0a6-4b11-81f8-85326da8d120","ios":"levelo://app?vid=60d37bab-e0a6-4b11-81f8-85326da8d120"},"vehicle_type_id":"4","last_reported":1734815289,"current_range_meters":9600,"station_id":"ce4bhap2rcd13ifvqek0","pricing_plan_id":"cebpf4jnsgd1na2vs0mg"},{"bike_id":"df4c33d0-844e-4d26-a30b-10d74ef1852d","system_id":"levelo_inurba_marseille","lat":43.31224,"lon":5.36865,"is_reserved":false,"is_disabled":false,"rental_uris":{"android":"levelo://app?vid=df4c33d0-844e-4d26-a30b-10d74ef1852d","ios":"levelo://app?vid=df4c33d0-844e-4d26-a30b-10d74ef1852d"},"vehicle_type_id":"4","last_reported":1734815289,"current_range_meters":38800,"station_id":"ce4bgl92rcd13ifvqbq0","pricing_plan_id":"cebpf4jnsgd1na2vs0mg"},{"bike_id":"dac94ecf-3203-4c89-acc0-21c14e979588","system_id":"levelo_inurba_marseille","lat":43.266857,"lon":5.382731,"is_reserved":false,"is_disabled":false,"rental_uris":{"android":"levelo://app?vid=dac94ecf-3203-4c89-acc0-21c14e979588","ios":"levelo://app?vid=dac94ecf-3203-4c89-acc0-21c14e979588"},"vehicle_type_id":"4","last_reported":1734815289,"current_range_meters":29600,"station_id":"ce4bhg92rcd13ifvqf90","pricing_plan_id":"cebpf4jnsgd1na2vs0mg"},{"bike_id":"c4b82bf8-a524-4f71-86c7-119cea50a7e1","system_id":"levelo_inurba_marseille","lat":43.30596,"lon":5.39361,"is_reserved":false,"is_disabled":false,"rental_uris":{"android":"levelo://app?vid=c4b82bf8-a524-4f71-86c7-119cea50a7e1","ios":"levelo://app?vid=c4b82bf8-a524-4f71-86c7-119cea50a7e1"},"vehicle_type_id":"4","last_reported":1734815289,"current_range_meters":38000,"station_id":"ce4bh0p2rcd13ifvqd80","pricing_plan_id":"cebpf4jnsgd1na2vs0mg"},{"bike_id":"ebefe249-7ec5-42c3-8bfa-8b1fd50d0f6c","system_id":"levelo_inurba_marseille","lat":43.3112,"lon":5.37762,"is_reserved":false,"is_disabled":false,"rental_uris":{"android":"levelo://app?vid=ebefe249-7ec5-42c3-8bfa-8b1fd50d0f6c","ios":"levelo://app?vid=ebefe249-7ec5-42c3-8bfa-8b1fd50d0f6c"},"vehicle_type_id":"4","last_reported":1734815289,"current_range_meters":16400,"station_id":"ce4bgt92rcd13ifvqcg0","pricing_plan_id":"cebpf4jnsgd1na2vs0mg"},{"bike_id":"8782eadc-dace-4bd1-983c-8258bfcfc446","system_id":"levelo_inurba_marseille","lat":43.30803,"lon":5.38153,"is_reserved":false,"is_disabled":false,"rental_uris":{"android":"levelo://app?vid=8782eadc-dace-4bd1-983c-8258bfcfc446","ios":"levelo://app?vid=8782eadc-dace-4bd1-983c-8258bfcfc446"},"vehicle_type_id":"4","last_reported":1734815289,"current_range_meters":38800,"station_id":"ce4bgt12rcd13ifvqce0","pricing_plan_id":"cebpf4jnsgd1na2vs0mg"},{"bike_id":"37b8164d-a6f7-4e6e-94f7-caef4fce1be4","system_id":"levelo_inurba_marseille","lat":43.28728,"lon":5.39963,"is_reserved":false,"is_disabled":false,"rental_uris":{"android":"levelo://app?vid=37b8164d-a6f7-4e6e-94f7-caef4fce1be4","ios":"levelo://app?vid=37b8164d-a6f7-4e6e-94f7-caef4fce1be4"},"vehicle_type_id":"4","last_reported":1734815289,"current_range_meters":24000,"station_id":"ce4bho92rcd13ifvqh3g","pricing_plan_id":"cebpf4jnsgd1na2vs0mg"},{"bike_id":"6c00c34f-21be-43a1-956d-ff6de67f8551","system_id":"levelo_inurba_marseille","lat":43.2921,"lon":5.36055,"is_reserved":false,"is_disabled":false,"rental_uris":{"android":"levelo://app?vid=6c00c34f-21be-43a1-956d-ff6de67f8551","ios":"levelo://app?vid=6c00c34f-21be-43a1-956d-ff6de67f8551"},"vehicle_type_id":"4","last_reported":1734815289,"current_range_meters":19200,"station_id":"ce4bhbh2rcd13ifvqeqg","pricing_plan_id":"cebpf4jnsgd1na2vs0mg"},{"bike_id":"630f2919-81d1-49d9-bff3-a03696f3982d","system_id":"levelo_inurba_marseille","lat":43.31356,"lon":5.36713,"is_reserved":false,"is_disabled":false,"rental_uris":{"android":"levelo://app?vid=630f2919-81d1-49d9-bff3-a03696f3982d","ios":"levelo://app?vid=630f2919-81d1-49d9-bff3-a03696f3982d"},"vehicle_type_id":"4","last_reported":1734815289,"current_range_meters":38800,"station_id":"ce4bgr92rcd13ifvqc6g","pricing_plan_id":"cebpf4jnsgd1na2vs0mg"},{"bike_id":"bd43934f-1517-4f9e-91d5-6ab67c060c19","system_id":"levelo_inurba_marseille","lat":43.29531,"lon":5.38524,"is_reserved":false,"is_disabled":false,"rental_uris":{"android":"levelo://app?vid=bd43934f-1517-4f9e-91d5-6ab67c060c19","ios":"levelo://app?vid=bd43934f-1517-4f9e-91d5-6ab67c060c19"},"vehicle_type_id":"4","last_reported":1734815289,"current_range_meters":38800,"station_id":"ce4bgih2rcd13ifvqba0","pricing_plan_id":"cebpf4jnsgd1na2vs0mg"},{"bike_id":"1adc4321-9b24-4815-ae37-ed20c94cfdb3","system_id":"levelo_inurba_marseille","lat":43.26679,"lon":5.3827,"is_reserved":false,"is_disabled":false,"rental_uris":{"android":"levelo://app?vid=1adc4321-9b24-4815-ae37-ed20c94cfdb3","ios":"levelo://app?vid=1adc4321-9b24-4815-ae37-ed20c94cfdb3"},"vehicle_type_id":"4","last_reported":1734815289,"current_range_meters":38400,"station_id":"ce4bhg92rcd13ifvqf90","pricing_plan_id":"cebpf4jnsgd1na2vs0mg"},{"bike_id":"7bcddb9e-1863-435f-9302-5a594872eb76","system_id":"levelo_inurba_marseille","lat":43.28459,"lon":5.35893,"is_reserved":false,"is_disabled":false,"rental_uris":{"android":"levelo://app?vid=7bcddb9e-1863-435f-9302-5a594872eb76","ios":"levelo://app?vid=7bcddb9e-1863-435f-9302-5a594872eb76"},"vehicle_type_id":"4","last_reported":1734815289,"current_range_meters":30400,"station_id":"ce4bhah2rcd13ifvqei0","pricing_plan_id":"cebpf4jnsgd1na2vs0mg"},{"bike_id":"a5131ac6-050c-4d7a-8118-815ba353ed04","system_id":"levelo_inurba_marseille","lat":43.28026,"lon":5.36939,"is_reserved":false,"is_disabled":false,"rental_uris":{"android":"levelo://app?vid=a5131ac6-050c-4d7a-8118-815ba353ed04","ios":"levelo://app?vid=a5131ac6-050c-4d7a-8118-815ba353ed04"},"vehicle_type_id":"4","last_reported":1734815289,"current_range_meters":22000,"station_id":"ce4bha12rcd13ifvqef0","pricing_plan_id":"cebpf4jnsgd1na2vs0mg"},