{"last_updated":1690394880,"ttl":30,"version":"2.2","data":{"bikes":[{"bike_id":"6b85cb65-cfa2-4780-b412-de9f09422f94","system_id":"levelo_inurba_marseille","lat":43.313471,"lon":5.367247,"is_reserved":false,"is_disabled":false,"rental_uris":{"android":"levelo://app?vid=6b85cb65-cfa2-4780-b412-de9f09422f94","ios":"levelo://app?vid=6b85cb65-cfa2-4780-b412-de9f09422f94"},"vehicle_type_id":"4","last_reported":1690394880,"current_range_meters":18000,"station_id":"","pricing_plan_id":"free"},{"bike_id":"85757407-089e-48fb-8d4a-b9ce2c59c783","system_id":"levelo_inurba_marseille","lat":43.312239,"lon":5.368562,"is_reserved":false,"is_disabled":false,"rental_uris":{"android":"levelo://app?vid=85757407-089e-48fb-8d4a-b9ce2c59c783","ios":"levelo://app?vid=85757407-089e-48fb-8d4a-b9ce2c59c783"},"vehicle_type_id":"4","last_reported":1690394880,"current_range_meters":18800,"station_id":"ce4bgl92rcd13ifvqbq0","pricing_plan_id":"free"},{"bike_id":"e526d4e2-849c-44ae-a0d7-5572a62df909","system_id":"levelo_inurba_marseille","lat":43.312239,"lon":5.368562,"is_reserved":false,"is_disabled":false,"rental_uris":{"android":"levelo://app?vid=e526d4e2-849c-44ae-a0d7-5572a62df909","ios":"levelo://app?vid=e526d4e2-849c-44ae-a0d7-5572a62df909"},"vehicle_type_id":"4","last_reported":1690394880,"current_range_meters":31600,"station_id":"ce4bgl92rcd13ifvqbq0","pricing_plan_id":"free"},{"bike_id":"8d165ac2-21a0-4c42-ba03-948695f56f91","system_id":"levelo_inurba_marseille","lat":43.312239,"lon":5.368562,"is_reserved":false,"is_disabled":false,"rental_uris":{"android":"levelo://app?vid=8d165ac2-21a0-4c42-ba03-948695f56f91","ios":"levelo://app?vid=8d165ac2-21a0-4c42-ba03-948695f56f91"},"vehicle_type_id":"4","last_reported":1690394880,"current_range_meters":11200,"station_id":"ce4bgl92rcd13ifvqbq0","pricing_plan_id":"free"},{"bike_id":"ea828efe-7a4d-47c9-b5da-6e7b1d70ff83","system_id":"levelo_inurba_marseille","lat":43.312239,"lon":5.368562,"is_reserved":false,"is_disabled":false,"rental_uris":{"android":"levelo://app?vid=ea828efe-7a4d-47c9-b5da-6e7b1d70ff83","ios":"levelo://app?vid=ea828efe-7a4d-47c9-b5da-6e7b1d70ff83"},"vehicle_type_id":"4","last_reported":1690394880,"current_range_meters":7600,"station_id":"ce4bgl92rcd13ifvqbq0","pricing_plan_id":"free"},{"bike_id":"7b1b9e41-672b-44e2-b2c1-944f6714b129","system_id":"levelo_inurba_marseille","lat":43.309076,"lon":5.368465,"is_reserved":false,"is_disabled":false,"rental_uris":{"android":"levelo://app?vid=7b1b9e41-672b-44e2-b2c1-944f6714b129","ios":"levelo://app?vid=7b1b9e41-672b-44e2-b2c1-944f6714b129"},"vehicle_type_id":"4","last_reported":1690394880,"current_range_meters":30400,"station_id":"ce4bgn92rcd13ifvqbvg","pricing_plan_id":"free"},{"bike_id":"5f4c658e-2951-4a0d-baaf-6682944a6346","system_id":"levelo_inurba_marseille","lat":43.309076,"lon":5.368465,"is_reserved":false,"is_disabled":false,"rental_uris":{"android":"levelo://app?vid=5f4c658e-2951-4a0d-baaf-6682944a6346","ios":"levelo://app?vid=5f4c658e-2951-4a0d-baaf-6682944a6346"},"vehicle_type_id":"4","last_reported":1690394880,"current_range_meters":2800,"station_id":"ce4bgn92rcd13ifvqbvg","pricing_plan_id":"free"},{"bike_id":"481c5ac7-e315-4542-b05d-f24f0ddc1b85","system_id":"levelo_inurba_marseille","lat":43.309076,"lon":5.368465,"is_reserved":false,"is_disabled":false,"rental_uris":{"android":"levelo://app?vid=481c5ac7-e315-4542-b05d-f24f0ddc1b85","ios":"levelo://app?vid=481c5ac7-e315-4542-b05d-f24f0ddc1b85"},"vehicle_type_id":"4","last_reported":1690394880,"current_range_meters":4400,"station_id":"ce4bgn92rcd13ifvqbvg","pricing_plan_id":"free"},{"bike_id":"4ad117dd-095b-4d2c-b8f8-61ab8fd32694","system_id":"levelo_inurba_marseille","lat":43.309076,"lon":5.368465,"is_reserved":false,"is_disabled":false,"rental_uris":{"android":"levelo://app?vid=4ad117dd-095b-4d2c-b8f8-61ab8fd32694","ios":"levelo://app?vid=4ad117dd-095b-4d2c-b8f8-61ab8fd32694"},"vehicle_type_id":"4","last_reported":1690394880,"current_range_meters":21600,"station_id":"ce4bgn92rcd13ifvqbvg","pricing_plan_id":"free"},{"bike_id":"f1f90d77-7aae-456e-8426-1c18a857bf10","system_id":"levelo_inurba_marseille","lat":43.314811,"lon":5.373103,"is_reserved":false,"is_disabled":false,"rental_uris":{"android":"levelo://app?vid=f1f90d77-7aae-456e-8426-1c18a857bf10","ios":"levelo://app?vid=f1f90d77-7aae-456e-8426-1c18a857bf10"},"vehicle_type_id":"4","last_reported":1690394880,"current_range_meters":27200,"station_id":"ce4bgt12rcd13ifvqcd0","pricing_plan_id":"free"},{"bike_id":"4266b2f8-7ec2-424b-8b20-ca752f075f8b","system_id":"levelo_inurba_marseille","lat":43.314811,"lon":5.373103,"is_reserved":false,"is_disabled":false,"rental_uris":{"android":"levelo://app?vid=4266b2f8-7ec2-424b-8b20-ca752f075f8b","ios":"levelo://app?vid=4266b2f8-7ec2-424b-8b20-ca752f075f8b"},"vehicle_type_id":"4","last_reported":1690394880,"current_range_meters":31600,"station_id":"ce4bgt12rcd13ifvqcd0","pricing_plan_id":"free"},{"bike_id":"f777578b-c213-43cd-955a-7c9004f81d1f","system_id":"levelo_inurba_marseille","lat":43.314811,"lon":5.373103,"is_reserved":false,"is_disabled":false,"rental_uris":{"android":"levelo://app?vid=f777578b-c213-43cd-955a-7c9004f81d1f","ios":"levelo://app?vid=f777578b-c213-43cd-955a-7c9004f81d1f"},"vehicle_type_id":"4","last_reported":1690394880,"current_range_meters":31600,"station_id":"ce4bgt12rcd13ifvqcd0","pricing_plan_id":"free"},{"bike_id":"f48de34b-498a-4f87-9029-b3778bb9ec67","system_id":"levelo_inurba_marseille","lat":43.314811,"lon":5.373103,"is_reserved":false,"is_disabled":false,"rental_uris":{"android":"levelo://app?vid=f48de34b-498a-4f87-9029-b3778bb9ec67","ios":"levelo://app?vid=f48de34b-498a-4f87-9029-b3778bb9ec67"},"vehicle_type_id":"4","last_reported":1690394880,"current_range_meters":31600,"station_id":"ce4bgt12rcd13ifvqcd0","pricing_plan_id":"free"},{"bike_id":"fac9895c-3e69-4b6a-9c1f-8e7cb5549bb6","system_id":"levelo_inurba_marseille","lat":43.314811,"lon":5.373103,"is_reserved":false,"is_disabled":false,"rental_uris":{"android":"levelo://app?vid=fac9895c-3e69-4b6a-9c1f-8e7cb5549bb6","ios":"levelo://app?vid=fac9895c-3e69-4b6a-9c1f-8e7cb5549bb6"},"vehicle_type_id":"4","last_reported":1690394880,"current_range_meters":30400,"station_id":"ce4bgt12rcd13ifvqcd0","pricing_plan_id":"free"},{"bike_id":"b11be454-82e7-4320-9271-4a3ca2af2a4a","system_id":"levelo_inurba_marseille","lat":43.314811,"lon":5.373103,"is_reserved":false,"is_disabled":false,"rental_uris":{"android":"levelo://app?vid=b11be454-82e7-4320-9271-4a3ca2af2a4a","ios":"levelo://app?vid=b11be454-82e7-4320-9271-4a3ca2af2a4a"},"vehicle_type_id":"4","last_reported":1690394880,"current_range_meters":16800,"station_id":"ce4bgt12rcd13ifvqcd0","pricing_plan_id":"free"},{"bike_id":"b0f5e5c9-c91c-4534-a969-35bce01c86ed","system_id":"levelo_inurba_marseille","lat":43.314811,"lon":5.373104,"is_reserved":false,"is_disabled":false,"rental_uris":{"android":"levelo://app?vid=b0f5e5c9-c91c-4534-a969-35bce01c86ed","ios":"levelo://app?vid=b0f5e5c9-c91c-4534-a969-35bce01c86ed"},"vehicle_type_id":"4","last_reported":1690394880,"current_range_meters":14800,"station_id":"ce4bgt12rcd13ifvqcd0","pricing_plan_id":"free"},{"bike_id":"3212429a-2a52-462b-9d1d-f9c18e35b5aa","system_id":"levelo_inurba_marseille","lat":43.314811,"lon":5.373103,"is_reserved":false,"is_disabled":false,"rental_uris":{"android":"levelo://app?vid=3212429a-2a52-462b-9d1d-f9c18e35b5aa","ios":"levelo://app?vid=3212429a-2a52-462b-9d1d-f9c18e35b5aa"},"vehicle_type_id":"4","last_reported":1690394880,"current_range_meters":10400,"station_id":"ce4bgt12rcd13ifvqcd0","pricing_plan_id":"free"},{"bike_id":"cb704356-cfcc-4df4-be15-ae42f666d507","system_id":"levelo_inurba_marseille","lat":43.309034,"lon":5.371783,"is_reserved":false,"is_disabled":false,"rental_uris":{"android":"levelo://app?vid=cb704356-cfcc-4df4-be15-ae42f666d507","ios":"levelo://app?vid=cb704356-cfcc-4df4-be15-ae42f666d507"},"vehicle_type_id":"4","last_reported":1690394880,"current_range_meters":24800,"station_id":"ce4bguh2rcd13ifvqckg","pricing_plan_id":"free"},{"bike_id":"2d03556e-9858-405b-b392-a2789c8268f0","system_id":"levelo_inurba_marseille","lat":43.31567,"lon":5.37307,"is_reserved":false,"is_disabled":false,"rental_uris":{"android":"levelo://app?vid=2d03556e-9858-405b-b392-a2789c8268f0","ios":"levelo://app?vid=2d03556e-9858-405b-b392-a2789c8268f0"},"vehicle_type_id":"4","last_reported":1690394880,"current_range_meters":24400,"station_id":"","pricing_plan_id":"free"},{"bike_id":"52e2eacd-1365-4310-99b5-07c4eac9bf09","system_id":"levelo_inurba_marseille","lat":43.309039,"lon":5.371797,"is_reserved":false,"is_disabled":false,"rental_uris":{"android":"levelo://app?vid=52e2eacd-1365-4310-99b5-07c4eac9bf09","ios":"levelo://app?vid=52e2eacd-1365-4310-99b5-07c4eac9bf09"},"vehicle_type_id":"4","last_reported":1690394880,"current_range_meters":3600,"station_id":"ce4bguh2rcd13ifvqckg","pricing_plan_id":"free"},{"bike_id":"737e36f8-b3bd-4e07-8acd-81d5a4bc85a0","system_id":"levelo_inurba_marseille","lat":43.30697,"lon":5.3655,"is_reserved":false,"is_disabled":false,"rental_uris":{"android":"levelo://app?vid=737e36f8-b3bd-4e07-8acd-81d5a4bc85a0","ios":"levelo://app?vid=737e36f8-b3bd-4e07-8acd-81d5a4bc85a0"},"vehicle_type_id":"4","last_reported":1690394880,"current_range_meters":16000,"station_id":"","pricing_plan_id":"free"},{"bike_id":"607f7da1-dcb7-4916-8614-93aa4190932a","system_id":"levelo_inurba_marseille","lat":43.31683,"lon":5.3745,"is_reserved":false,"is_disabled":false,"rental_uris":{"android":"levelo://app?vid=607f7da1-dcb7-4916-8614-93aa4190932a","ios":"levelo://app?vid=607f7da1-dcb7-4916-8614-93aa4190932a"},"vehicle_type_id":"4","last_reported":1690394880,"current_range_meters":2800,"station_id":"","pricing_plan_id":"free"},{"bike_id":"90b8ed88-7f9d-45c1-bbd4-bc8c217ec382","system_id":"levelo_inurba_marseille","lat":43.30538,"lon":5.36717,"is_reserved":false,"is_disabled":false,"rental_uris":{"android":"levelo://app?vid=90b8ed88-7f9d-45c1-bbd4-bc8c217ec382","ios":"levelo://app?vid=90b8ed88-7f9d-45c1-bbd4-bc8c217ec382"},"vehicle_type_id":"4","last_reported":1690394880,"current_range_meters":20400,"station_id":"ce4bgrp2rcd13ifvqc9g","pricing_plan_id":"free"},{"bike_id":"9474ddab-06af-4a8e-808c-a59d126b047d","system_id":"levelo_inurba_marseille","lat":43.305989,"lon":5.37225,"is_reserved":false,"is_disabled":false,"rental_uris":{"android":"levelo://app?vid=9474ddab-06af-4a8e-808c-a59d126b047d","ios":"levelo://app?vid=9474ddab-06af-4a8e-808c-a59d126b047d"},"vehicle_type_id":"4","last_reported":1690394880,"current_range_meters":18000,"station_id":"ce4bgqh2rcd13ifvqc4g","pricing_plan_id":"free"},{"bike_id":"3cee355e-2c1b-4f01-8d8c-c5fe4e45d1f6","system_id":"levelo_inurba_marseille","lat":43.311125,"lon":5.377624,"is_reserved":false,"is_disabled":false,"rental_uris":{"android":"levelo://app?vid=3cee355e-2c1b-4f01-8d8c-c5fe4e45d1f6","ios":"levelo://app?vid=3cee355e-2c1b-4f01-8d8c-c5fe4e45d1f6"},"vehicle_type_id":"4","last_reported":1690394880,"current_range_meters":21200,"station_id":"ce4bgt92rcd13ifvqcg0","pricing_plan_id":"free"},{"bike_id":"61031a22-6ad4-4f2a-9ce0-1574a82bb89a","system_id":"levelo_inurba_marseille","lat":43.317075,"lon":5.377367,"is_reserved":false,"is_disabled":false,"rental_uris":{"android":"levelo://app?vid=61031a22-6ad4-4f2a-9ce0-1574a82bb89a","ios":"levelo://app?vid=61031a22-6ad4-4f2a-9ce0-1574a82bb89a"},"vehicle_type_id":"4","last_reported":1690394880,"current_range_meters":28400,"station_id":"ce4bgth2rcd13ifvqch0","pricing_plan_id":"free"},{"bike_id":"7adb652a-f9fd-44cc-93b1-1afa58394305","system_id":"levelo_inurba_marseille","lat":43.30319,"lon":5.36889,"is_reserved":false,"is_disabled":false,"rental_uris":{"android":"levelo://app?vid=7adb652a-f9fd-44cc-93b1-1afa58394305","ios":"levelo://app?vid=7adb652a-f9fd-44cc-93b1-1afa58394305"},"vehicle_type_id":"4","last_reported":1690394880,"current_range_meters":30800,"station_id":"ce4bgqh2rcd13ifvqc5g","pricing_plan_id":"free"},{"bike_id":"c73242f4-876d-4132-969d-eb18d15ae59b","system_id":"levelo_inurba_marseille","lat":43.30798,"lon":5.38166,"is_reserved":false,"is_disabled":false,"rental_uris":{"android":"levelo://app?vid=c73242f4-876d-4132-969d-eb18d15ae59b","ios":"levelo://app?vid=c73242f4-876d-4132-969d-eb18d15ae59b"},"vehicle_type_id":"4","last_reported":1690394880,"current_range_meters":13200,"station_id":"ce4bgt12rcd13ifvqce0","pricing_plan_id":"free"},{"bike_id":"2721c8bd-1603-4c8c-b20f-ae7a9193f52e","system_id":"levelo_inurba_marseille","lat":43.304606,"lon":5.379026,"is_reserved":false,"is_disabled":false,"rental_uris":{"android":"levelo://app?vid=2721c8bd-1603-4c8c-b20f-ae7a9193f52e","ios":"levelo://app?vid=2721c8bd-1603-4c8c-b20f-ae7a9193f52e"},"vehicle_type_id":"4","last_reported":1690394880,"current_range_meters":29200,"station_id":"ce4bgup2rcd13ifvqcn0","pricing_plan_id":"free"},{"bike_id":"90a54f04-309f-4beb-8f56-a4bbaad38641","system_id":"levelo_inurba_marseille","lat":43.31999,"lon":5.38154,"is_reserved":false,"is_disabled":false,"rental_uris":{"android":"levelo://app?vid=90a54f04-309f-4beb-8f56-a4bbaad38641","ios":"levelo://app?vid=90a54f04-309f-4beb-8f56-a4bbaad38641"},"vehicle_type_id":"4","last_reported":1690394880,"current_range_meters":18800,"station_id":"ce4bhr12rcd13ifvqhpg","pricing_plan_id":"free"},{"bike_id":"b25041cd-cf00-49f6-857a-7e4cb81e50f3","system_id":"levelo_inurba_marseille","lat":43.319935,"lon":5.381699,"is_reserved":false,"is_disabled":false,"rental_uris":{"android":"levelo://app?vid=b25041cd-cf00-49f6-857a-7e4cb81e50f3","ios":"levelo://app?vid=b25041cd-cf00-49f6-857a-7e4cb81e50f3"},"vehicle_type_id":"4","last_reported":1690394880,"current_range_meters":23200,"station_id":"ce4bhr12rcd13ifvqhpg","pricing_plan_id":"free"},{"bike_id":"11ccee0e-7c24-4701-9e9c-f861d8a63018","system_id":"levelo_inurba_marseille","lat":43.313571,"lon":5.384829,"is_reserved":false,"is_disabled":false,"rental_uris":{"android":"levelo://app?vid=11ccee0e-7c24-4701-9e9c-f861d8a63018","ios":"levelo://app?vid=11ccee0e-7c24-4701-9e9c-f861d8a63018"},"vehicle_type_id":"4","last_reported":1690394880,"current_range_meters":9200,"station_id":"ce4bgt92rcd13ifvqcf0","pricing_plan_id":"free"},{"bike_id":"8546f46a-f7e7-4d0c-a207-68e93a343ee2","system_id":"levelo_inurba_marseille","lat":43.31361,"lon":5.38489,"is_reserved":false,"is_disabled":false,"rental_uris":{"android":"levelo://app?vid=8546f46a-f7e7-4d0c-a207-68e93a343ee2","ios":"levelo://app?vid=8546f46a-f7e7-4d0c-a207-68e93a343ee2"},"vehicle_type_id":"4","last_reported":1690394880,"current_range_meters":14000,"station_id":"ce4bgt92rcd13ifvqcf0","pricing_plan_id":"free"},{"bike_id":"39768b2a-bf64-440b-8140-e3577cb3f0b9","system_id":"levelo_inurba_marseille","lat":43.313571,"lon":5.384829,"is_reserved":false,"is_disabled":false,"rental_uris":{"android":"levelo://app?vid=39768b2a-bf64-440b-8140-e3577cb3f0b9","ios":"levelo://app?vid=39768b2a-bf64-440b-8140-e3577cb3f0b9"},"vehicle_type_id":"4","last_reported":1690394880,"current_range_meters":32000,"station_id":"ce4bgt92rcd13ifvqcf0","pricing_plan_id":"free"},{"bike_id":"ce227099-3046-4626-a375-b7407dfd0d60","system_id":"levelo_inurba_marseille","lat":43.313571,"lon":5.384829,"is_reserved":false,"is_disabled":false,"rental_uris":{"android":"levelo://app?vid=ce227099-3046-4626-a375-b7407dfd0d60","ios":"levelo://app?vid=ce227099-3046-4626-a375-b7407dfd0d60"},"vehicle_type_id":"4","last_reported":1690394880,"current_range_meters":29600,"station_id":"ce4bgt92rcd13ifvqcf0","pricing_plan_id":"free"},{"bike_id":"fade9b05-2b78-418e-94d8-e96cc2a8aad3","system_id":"levelo_inurba_marseille","lat":43.299209,"lon":5.365547,"is_reserved":false,"is_disabled":false,"rental_uris":{"android":"levelo://app?vid=fade9b05-2b78-418e-94d8-e96cc2a8aad3","ios":"levelo://app?vid=fade9b05-2b78-418e-94d8-e96cc2a8aad3"},"vehicle_type_id":"4","last_reported":1690394880,"current_range_meters":6400,"station_id":"ce4bgm92rcd13ifvqbr0","pricing_plan_id":"free"},{"bike_id":"f4bbc607-6914-4898-b25a-45a3deee57aa","system_id":"levelo_inurba_marseille","lat":43.30543,"lon":5.38433,"is_reserved":false,"is_disabled":false,"rental_uris":{"android":"levelo://app?vid=f4bbc607-6914-4898-b25a-45a3deee57aa","ios":"levelo://app?vid=f4bbc607-6914-4898-b25a-45a3deee57aa"},"vehicle_type_id":"4","last_reported":1690394880,"current_range_meters":13600,"station_id":"ce4bgg92rcd13ifvqb30","pricing_plan_id":"free"},{"bike_id":"90634d7b-fbf5-4ebd-8a94-3eceb9f951ad","system_id":"levelo_inurba_marseille","lat":43.299,"lon":5.37467,"is_reserved":false,"is_disabled":false,"rental_uris":{"android":"levelo://app?vid=90634d7b-fbf5-4ebd-8a94-3eceb9f951ad","ios":"levelo://app?vid=90634d7b-fbf5-4ebd-8a94-3eceb9f951ad"},"vehicle_type_id":"4","last_reported":1690394880,"current_range_meters":4000,"station_id":"ce4bgjh2rcd13ifvqbg0","pricing_plan_id":"free"},{"bike_id":"3e8ef0cd-a22a-4d15-895c-9372b436ccc5","system_id":"levelo_inurba_marseille","lat":43.311722,"lon":5.387247,"is_reserved":false,"is_disabled":false,"rental_uris":{"android":"levelo://app?vid=3e8ef0cd-a22a-4d15-895c-9372b436ccc5","ios":"levelo://app?vid=3e8ef0cd-a22a-4d15-895c-9372b436ccc5"},"vehicle_type_id":"4","last_reported":1690394880,"current_range_meters":10000,"station_id":"ce4bgv12rcd13ifvqcp0","pricing_plan_id":"free"},{"bike_id":"cce47f54-795a-455b-bc38-bc1eb9d02f03","system_id":"levelo_inurba_marseille","lat":43.322872,"lon":5.382756,"is_reserved":false,"is_disabled":false,"rental_uris":{"android":"levelo://app?vid=cce47f54-795a-455b-bc38-bc1eb9d02f03","ios":"levelo://app?vid=cce47f54-795a-455b-bc38-bc1eb9d02f03"},"vehicle_type_id":"4","last_reported":1690394880,"current_range_meters":12800,"station_id":"ce4bhr12rcd13ifvqhqg","pricing_plan_id":"free"},{"bike_id":"5c17c5c3-81c5-4f24-b8e8-822f577ccb0f","system_id":"levelo_inurba_marseille","lat":43.3229,"lon":5.38264,"is_reserved":false,"is_disabled":false,"rental_uris":{"android":"levelo://app?vid=5c17c5c3-81c5-4f24-b8e8-822f577ccb0f","ios":"levelo://app?vid=5c17c5c3-81c5-4f24-b8e8-822f577ccb0f"},"vehicle_type_id":"4","last_reported":1690394880,"current_range_meters":800,"station_id":"ce4bhr12rcd13ifvqhqg","pricing_plan_id":"free"},{"bike_id":"316e88fb-cba0-48b8-840b-7e1881569755","system_id":"levelo_inurba_marseille","lat":43.32291,"lon":5.3827,"is_reserved":false,"is_disabled":false,"rental_uris":{"android":"levelo://app?vid=316e88fb-cba0-48b8-840b-7e1881569755","ios":"levelo://app?vid=316e88fb-cba0-48b8-840b-7e1881569755"},"vehicle_type_id":"4","last_reported":1690394880,"current_range_meters":20800,"station_id":"ce4bhr12rcd13ifvqhqg","pricing_plan_id":"free"},{"bike_id":"85fc4322-d4c2-402b-97a5-580dd6fde953","system_id":"levelo_inurba_marseille","lat":43.328371,"lon":5.366909,"is_reserved":false,"is_disabled":false,"rental_uris":{"android":"levelo://app?vid=85fc4322-d4c2-402b-97a5-580dd6fde953","ios":"levelo://app?vid=85fc4322-d4c2-402b-97a5-580dd6fde953"},"vehicle_type_id":"4","last_reported":1690394880,"current_range_meters":30000,"station_id":"ce4bhs92rcd13ifvqi0g","pricing_plan_id":"free"},{"bike_id":"6d2d67d0-9e72-4e99-87d2-530132902e7b","system_id":"levelo_inurba_marseille","lat":43.32827,"lon":5.36686,"is_reserved":false,"is_disabled":false,"rental_uris":{"android":"levelo://app?vid=6d2d67d0-9e72-4e99-87d2-530132902e7b","ios":"levelo://app?vid=6d2d67d0-9e72-4e99-87d2-530132902e7b"},"vehicle_type_id":"4","last_reported":1690394880,"current_range_meters":29200,"station_id":"ce4bhs92rcd13ifvqi0g","pricing_plan_id":"free"},{"bike_id":"6d5aded8-6c7a-420f-a7d1-0bdb269e329f","system_id":"levelo_inurba_marseille","lat":43.328371,"lon":5.366909,"is_reserved":false,"is_disabled":false,"rental_uris":{"android":"levelo://app?vid=6d5aded8-6c7a-420f-a7d1-0bdb269e329f","ios":"levelo://app?vid=6d5aded8-6c7a-420f-a7d1-0bdb269e329f"},"vehicle_type_id":"4","last_reported":1690394880,"current_range_meters":19600,"station_id":"ce4bhs92rcd13ifvqi0g","pricing_plan_id":"free"},{"bike_id":"0152df97-6f5b-423a-983e-b5c5759143c2","system_id":"levelo_inurba_marseille","lat":43.328371,"lon":5.366909,"is_reserved":false,"is_disabled":false,"rental_uris":{"android":"levelo://app?vid=0152df97-6f5b-423a-983e-b5c5759143c2","ios":"levelo://app?vid=0152df97-6f5b-423a-983e-b5c5759143c2"},"vehicle_type_id":"4","last_reported":1690394880,"current_range_meters":18400,"station_id":"ce4bhs92rcd13ifvqi0g","pricing_plan_id":"free"},{"bike_id":"7eea23c9-72d4-45b3-8795-97ae8d665253","system_id":"levelo_inurba_marseille","lat":43.32829,"lon":5.36691,"is_reserved":false,"is_disabled":false,"rental_uris":{"android":"levelo://app?vid=7eea23c9-72d4-45b3-8795-97ae8d665253","ios":"levelo://app?vid=7eea23c9-72d4-45b3-8795-97ae8d665253"},"vehicle_type_id":"4","last_reported":1690394880,"current_range_meters":11200,"station_id":"ce4bhs92rcd13ifvqi0g","pricing_plan_id":"free"},{"bike_id":"dd789220-e7b5-42c1-b9dc-dc4243148021","system_id":"levelo_inurba_marseille","lat":43.297163,"lon":5.365866,"is_reserved":false,"is_disabled":false,"rental_uris":{"android":"levelo://app?vid=dd789220-e7b5-42c1-b9dc-dc4243148021","ios":"levelo://app?vid=dd789220-e7b5-42c1-b9dc-dc4243148021"},"vehicle_type_id":"4","last_reported":1690394880,"current_range_meters":31200,"station_id":"ce4bgn12rcd13ifvqbt0","pricing_plan_id":"free"},{"bike_id":"d059b08d-1a3f-438d-b514-851793ec2f5a","system_id":"levelo_inurba_marseille","lat":43.328371,"lon":5.366909,"is_reserved":false,"is_disabled":false,"rental_uris":{"android":"levelo://app?vid=d059b08d-1a3f-438d-b514-851793ec2f5a","ios":"levelo://app?vid=d059b08d-1a3f-438d-b514-851793ec2f5a"},"vehicle_type_id":"4","last_reported":1690394880,"current_range_meters":14400,"station_id":"ce4bhs92rcd13ifvqi0g","pricing_plan_id":"free"},{"bike_id":"1ddfe248-918b-4110-9c81-ca8a913d4717","system_id":"levelo_inurba_marseille","lat":43.32832,"lon":5.36689,"is_reserved":false,"is_disabled":false,"rental_uris":{"android":"levelo://app?vid=1ddfe248-918b-4110-9c81-ca8a913d4717","ios":"levelo://app?vid=1ddfe248-918b-4110-9c81-ca8a913d4717"},"vehicle_type_id":"4","last_reported":1690394880,"current_range_meters":30000,"station_id":"ce4bhs92rcd13ifvqi0g","pricing_plan_id":"free"},{"bike_id":"df87d501-5ab3-473c-89b3-a784852638b8","system_id":"levelo_inurba_marseille","lat":43.32832,"lon":5.3668,"is_reserved":false,"is_disabled":false,"rental_uris":{"android":"levelo://app?vid=df87d501-5ab3-473c-89b3-a784852638b8","ios":"levelo://app?vid=df87d501-5ab3-473c-89b3-a784852638b8"},"vehicle_type_id":"4","last_reported":1690394880,"current_range_meters":11600,"station_id":"ce4bhs92rcd13ifvqi0g","pricing_plan_id":"free"},{"bike_id":"f0aa9365-f8de-4a00-a5ed-32d30ea68b1a","system_id":"levelo_inurba_marseille","lat":43.328371,"lon":5.366909,"is_reserved":false,"is_disabled":false,"rental_uris":{"android":"levelo://app?vid=f0aa9365-f8de-4a00-a5ed-32d30ea68b1a","ios":"levelo://app?vid=f0aa9365-f8de-4a00-a5ed-32d30ea68b1a"},"vehicle_type_id":"4","last_reported":1690394880,"current_range_meters":4000,"station_id":"ce4bhs92rcd13ifvqi0g","pricing_plan_id":"free"},{"bike_id":"d9cf5680-d3a9-448e-84ef-0110addb33f9","system_id":"levelo_inurba_marseille","lat":43.297163,"lon":5.365866,"is_reserved":false,"is_disabled":false,"rental_uris":{"android":"levelo://app?vid=d9cf5680-d3a9-448e-84ef-0110addb33f9","ios":"levelo://app?vid=d9cf5680-d3a9-448e-84ef-0110addb33f9"},"vehicle_type_id":"4","last_reported":1690394880,"current_range_meters":12800,"station_id":"ce4bgn12rcd13ifvqbt0","pricing_plan_id":"free"},{"bike_id":"b0471854-0014-4f60-8b58-1a5209d9ca7b","system_id":"levelo_inurba_marseille","lat":43.296921,"lon":5.376579,"is_reserved":false,"is_disabled":false,"rental_uris":{"android":"levelo://app?vid=b0471854-0014-4f60-8b58-1a5209d9ca7b","ios":"levelo://app?vid=b0471854-0014-4f60-8b58-1a5209d9ca7b"},"vehicle_type_id":"4","last_reported":1690394880,"current_range_meters":10400,"station_id":"ce4bgkh2rcd13ifvqbl0","pricing_plan_id":"free"},{"bike_id":"ad67fccb-9e77-4868-bdd0-cf185f453a66","system_id":"levelo_inurba_marseille","lat":43.296921,"lon":5.376579,"is_reserved":false,"is_disabled":false,"rental_uris":{"android":"levelo://app?vid=ad67fccb-9e77-4868-bdd0-cf185f453a66","ios":"levelo://app?vid=ad67fccb-9e77-4868-bdd0-cf185f453a66"},"vehicle_type_id":"4","last_reported":1690394880,"current_range_meters":1600,"station_id":"ce4bgkh2rcd13ifvqbl0","pricing_plan_id":"free"},{"bike_id":"b136a283-1bc8-4a3f-ab06-edd9d2aa328a","system_id":"levelo_inurba_marseille","lat":43.309589,"lon":5.390258,"is_reserved":false,"is_disabled":false,"rental_uris":{"android":"levelo://app?vid=b136a283-1bc8-4a3f-ab06-edd9d2aa328a","ios":"levelo://app?vid=b136a283-1bc8-4a3f-ab06-edd9d2aa328a"},"vehicle_type_id":"4","last_reported":1690394880,"current_range_meters":4800,"station_id":"ce4bgup2rcd13ifvqco0","pricing_plan_id":"free"},{"bike_id":"2e1d3f3d-ecd0-43a0-a10e-6524d7db84c3","system_id":"levelo_inurba_marseille","lat":43.30954,"lon":5.39036,"is_reserved":false,"is_disabled":false,"rental_uris":{"android":"levelo://app?vid=2e1d3f3d-ecd0-43a0-a10e-6524d7db84c3","ios":"levelo://app?vid=2e1d3f3d-ecd0-43a0-a10e-6524d7db84c3"},"vehicle_type_id":"4","last_reported":1690394880,"current_range_meters":5200,"station_id":"ce4bgup2rcd13ifvqco0","pricing_plan_id":"free"},{"bike_id":"77339177-0399-4282-8027-8929dcb6a61e","system_id":"levelo_inurba_marseille","lat":43.30957,"lon":5.39038,"is_reserved":false,"is_disabled":false,"rental_uris":{"android":"levelo://app?vid=77339177-0399-4282-8027-8929dcb6a61e","ios":"levelo://app?vid=77339177-0399-4282-8027-8929dcb6a61e"},"vehicle_type_id":"4","last_reported":1690394880,"current_range_meters":10000,"station_id":"ce4bgup2rcd13ifvqco0","pricing_plan_id":"free"},{"bike_id":"80996baf-8597-4552-b66a-a0139bedf903","system_id":"levelo_inurba_marseille","lat":43.309502,"lon":5.390365,"is_reserved":false,"is_disabled":false,"rental_uris":{"android":"levelo://app?vid=80996baf-8597-4552-b66a-a0139bedf903","ios":"levelo://app?vid=80996baf-8597-4552-b66a-a0139bedf903"},"vehicle_type_id":"4","last_reported":1690394880,"current_range_meters":13200,"station_id":"","pricing_plan_id":"free"},{"bike_id":"b702433d-de8e-423f-80fc-094abc7ad0f6","system_id":"levelo_inurba_marseille","lat":43.309589,"lon":5.390258,"is_reserved":false,"is_disabled":false,"rental_uris":{"android":"levelo://app?vid=b702433d-de8e-423f-80fc-094abc7ad0f6","ios":"levelo://app?vid=b702433d-de8e-423f-80fc-094abc7ad0f6"},"vehicle_type_id":"4","last_reported":1690394880,"current_range_meters":26800,"station_id":"ce4bgup2rcd13ifvqco0","pricing_plan_id":"free"},{"bike_id":"331b5181-885f-4676-91e5-a8c11412b06e","system_id":"levelo_inurba_marseille","lat":43.309589,"lon":5.390258,"is_reserved":false,"is_disabled":false,"rental_uris":{"android":"levelo://app?vid=331b5181-885f-4676-91e5-a8c11412b06e","ios":"levelo://app?vid=331b5181-885f-4676-91e5-a8c11412b06e"},"vehicle_type_id":"4","last_reported":1690394880,"current_range_meters":28800,"station_id":"ce4bgup2rcd13ifvqco0","pricing_plan_id":"free"},{"bike_id":"8a47a840-14d3-4120-890d-bb96215a2626","system_id":"levelo_inurba_marseille","lat":43.309589,"lon":5.390258,"is_reserved":false,"is_disabled":false,"rental_uris":{"android":"levelo://app?vid=8a47a840-14d3-4120-890d-bb96215a2626","ios":"levelo://app?vid=8a47a840-14d3-4120-890d-bb96215a2626"},"vehicle_type_id":"4","last_reported":1690394880,"current_range_meters":18400,"station_id":"ce4bgup2rcd13ifvqco0","pricing_plan_id":"free"},{"bike_id":"78588007-c81e-4497-a0ef-0fbe2d2cbc21","system_id":"levelo_inurba_marseille","lat":43.309589,"lon":5.390258,"is_reserved":false,"is_disabled":false,"rental_uris":{"android":"levelo://app?vid=78588007-c81e-4497-a0ef-0fbe2d2cbc21","ios":"levelo://app?vid=78588007-c81e-4497-a0ef-0fbe2d2cbc21"},"vehicle_type_id":"4","last_reported":1690394880,"current_range_meters":28800,"station_id":"ce4bgup2rcd13ifvqco0","pricing_plan_id":"free"},{"bike_id":"f0b1921d-8fc5-42f6-8214-26455e772ce5","system_id":"levelo_inurba_marseille","lat":43.309589,"lon":5.390258,"is_reserved":false,"is_disabled":false,"rental_uris":{"android":"levelo://app?vid=f0b1921d-8fc5-42f6-8214-26455e772ce5","ios":"levelo://app?vid=f0b1921d-8fc5-42f6-8214-26455e772ce5"},"vehicle_type_id":"4","last_reported":1690394880,"current_range_meters":29200,"station_id":"ce4bgup2rcd13ifvqco0","pricing_plan_id":"free"},{"bike_id":"f1651c46-51d2-433a-be1f-87633cff32d5","system_id":"levelo_inurba_marseille","lat":43.304274,"lon":5.388873,"is_reserved":false,"is_disabled":false,"rental_uris":{"android":"levelo://app?vid=f1651c46-51d2-433a-be1f-87633cff32d5","ios":"levelo://app?vid=f1651c46-51d2-433a-be1f-87633cff32d5"},"vehicle_type_id":"4","last_reported":1690394880,"current_range_meters":3200,"station_id":"ce4bgk12rcd13ifvqbi0","pricing_plan_id":"free"},{"bike_id":"6d942ddb-c8ee-4246-a5a7-2f92f0698964","system_id":"levelo_inurba_marseille","lat":43.29605,"lon":5.37711,"is_reserved":false,"is_disabled":false,"rental_uris":{"android":"levelo://app?vid=6d942ddb-c8ee-4246-a5a7-2f92f0698964","ios":"levelo://app?vid=6d942ddb-c8ee-4246-a5a7-2f92f0698964"},"vehicle_type_id":"4","last_reported":1690394880,"current_range_meters":9200,"station_id":"","pricing_plan_id":"free"},{"bike_id":"33fe7be9-01a5-419a-8a78-f9f767586a11","system_id":"levelo_inurba_marseille","lat":43.295279,"lon":5.375048,"is_reserved":false,"is_disabled":false,"rental_uris":{"android":"levelo://app?vid=33fe7be9-01a5-419a-8a78-f9f767586a11","ios":"levelo://app?vid=33fe7be9-01a5-419a-8a78-f9f767586a11"},"vehicle_type_id":"4","last_reported":1690394880,"current_range_meters":2400,"station_id":"ce4bgkp2rcd13ifvqbmg","pricing_plan_id":"free"},{"bike_id":"6daccbd5-9fac-4133-90ba-ab80fd4788aa","system_id":"levelo_inurba_marseille","lat":43.29596,"lon":5.37719,"is_reserved":false,"is_disabled":false,"rental_uris":{"android":"levelo://app?vid=6daccbd5-9fac-4133-90ba-ab80fd4788aa","ios":"levelo://app?vid=6daccbd5-9fac-4133-90ba-ab80fd4788aa"},"vehicle_type_id":"4","last_reported":1690394880,"current_range_meters":27600,"station_id":"ce4bgi92rcd13ifvqb90","pricing_plan_id":"free"},{"bike_id":"cd17bea9-580e-470a-8158-190d8cfcbb03","system_id":"levelo_inurba_marseille","lat":43.296263,"lon":5.377094,"is_reserved":false,"is_disabled":false,"rental_uris":{"android":"levelo://app?vid=cd17bea9-580e-470a-8158-190d8cfcbb03","ios":"levelo://app?vid=cd17bea9-580e-470a-8158-190d8cfcbb03"},"vehicle_type_id":"4","last_reported":1690394880,"current_range_meters":26400,"station_id":"ce4bgi92rcd13ifvqb90","pricing_plan_id":"free"},{"bike_id":"0f09cdcc-5f4b-4269-a2a1-19836bc9c08e","system_id":"levelo_inurba_marseille","lat":43.295279,"lon":5.375048,"is_reserved":false,"is_disabled":false,"rental_uris":{"android":"levelo://app?vid=0f09cdcc-5f4b-4269-a2a1-19836bc9c08e","ios":"levelo://app?vid=0f09cdcc-5f4b-4269-a2a1-19836bc9c08e"},"vehicle_type_id":"4","last_reported":1690394880,"current_range_meters":17200,"station_id":"ce4bgkp2rcd13ifvqbmg","pricing_plan_id":"free"},{"bike_id":"8e2b40f5-9c96-4cd1-8734-96589289c122","system_id":"levelo_inurba_marseille","lat":43.2965,"lon":5.37977,"is_reserved":false,"is_disabled":false,"rental_uris":{"android":"levelo://app?vid=8e2b40f5-9c96-4cd1-8734-96589289c122","ios":"levelo://app?vid=8e2b40f5-9c96-4cd1-8734-96589289c122"},"vehicle_type_id":"4","last_reported":1690394880,"current_range_meters":20800,"station_id":"","pricing_plan_id":"free"},{"bike_id":"927291a0-d519-4f5c-a30b-686cd4682865","system_id":"levelo_inurba_marseille","lat":43.32368,"lon":5.38881,"is_reserved":false,"is_disabled":false,"rental_uris":{"android":"levelo://app?vid=927291a0-d519-4f5c-a30b-686cd4682865","ios":"levelo://app?vid=927291a0-d519-4f5c-a30b-686cd4682865"},"vehicle_type_id":"4","last_reported":1690394880,"current_range_meters":24000,"station_id":"ce4bhqp2rcd13ifvqhog","pricing_plan_id":"free"},{"bike_id":"f9909175-7894-4b11-a6d9-6fb192573a2b","system_id":"levelo_inurba_marseille","lat":43.29601,"lon":5.381084,"is_reserved":false,"is_disabled":false,"rental_uris":{"android":"levelo://app?vid=f9909175-7894-4b11-a6d9-6fb192573a2b","ios":"levelo://app?vid=f9909175-7894-4b11-a6d9-6fb192573a2b"},"vehicle_type_id":"4","last_reported":1690394880,"current_range_meters":17600,"station_id":"ce4bgl12rcd13ifvqbo0","pricing_plan_id":"free"},{"bike_id":"fa556f77-ce95-4ef1-92f7-a6d09d2c4a9c","system_id":"levelo_inurba_marseille","lat":43.29602,"lon":5.381084,"is_reserved":false,"is_disabled":false,"rental_uris":{"android":"levelo://app?vid=fa556f77-ce95-4ef1-92f7-a6d09d2c4a9c","ios":"levelo://app?vid=fa556f77-ce95-4ef1-92f7-a6d09d2c4a9c"},"vehicle_type_id":"4","last_reported":1690394880,"current_range_meters":19200,"station_id":"ce4bgl12rcd13ifvqbo0","pricing_plan_id":"free"},{"bike_id":"bdfd8a87-bfdf-446c-9241-db1fa7c2dceb","system_id":"levelo_inurba_marseille","lat":43.29601,"lon":5.381084,"is_reserved":false,"is_disabled":false,"rental_uris":{"android":"levelo://app?vid=bdfd8a87-bfdf-446c-9241-db1fa7c2dceb","ios":"levelo://app?vid=bdfd8a87-bfdf-446c-9241-db1fa7c2dceb"},"vehicle_type_id":"4","last_reported":1690394880,"current_range_meters":1600,"station_id":"ce4bgl12rcd13ifvqbo0","pricing_plan_id":"free"},{"bike_id":"f13a8ae7-2afb-4441-a202-6380b240a06d","system_id":"levelo_inurba_marseille","lat":43.305994,"lon":5.393687,"is_reserved":false,"is_disabled":false,"rental_uris":{"android":"levelo://app?vid=f13a8ae7-2afb-4441-a202-6380b240a06d","ios":"levelo://app?vid=f13a8ae7-2afb-4441-a202-6380b240a06d"},"vehicle_type_id":"4","last_reported":1690394880,"current_range_meters":4800,"station_id":"ce4bh0p2rcd13ifvqd80","pricing_plan_id":"free"},{"bike_id":"dd720594-b238-4af0-b91b-14bbeec7eb09","system_id":"levelo_inurba_marseille","lat":43.292749,"lon":5.368402,"is_reserved":false,"is_disabled":false,"rental_uris":{"android":"levelo://app?vid=dd720594-b238-4af0-b91b-14bbeec7eb09","ios":"levelo://app?vid=dd720594-b238-4af0-b91b-14bbeec7eb09"},"vehicle_type_id":"4","last_reported":1690394880,"current_range_meters":0,"station_id":"ce4bhbp2rcd13ifvqesg","pricing_plan_id":"free"},{"bike_id":"6503b878-2d46-4477-bc64-7ef2694db487","system_id":"levelo_inurba_marseille","lat":43.292749,"lon":5.368398,"is_reserved":false,"is_disabled":false,"rental_uris":{"android":"levelo://app?vid=6503b878-2d46-4477-bc64-7ef2694db487","ios":"levelo://app?vid=6503b878-2d46-4477-bc64-7ef2694db487"},"vehicle_type_id":"4","last_reported":1690394880,"current_range_meters":0,"station_id":"ce4bhbp2rcd13ifvqesg","pricing_plan_id":"free"},{"bike_id":"6b616159-ed05-4e3e-a397-1655c9b55031","system_id":"levelo_inurba_marseille","lat":43.292749,"lon":5.368398,"is_reserved":false,"is_disabled":false,"rental_uris":{"android":"levelo://app?vid=6b616159-ed05-4e3e-a397-1655c9b55031","ios":"levelo://app?vid=6b616159-ed05-4e3e-a397-1655c9b55031"},"vehicle_type_id":"4","last_reported":1690394880,"current_range_meters":4000,"station_id":"ce4bhbp2rcd13ifvqesg","pricing_plan_id":"free"},{"bike_id":"5a1384b4-6608-44e5-ae0e-8dd7aebd5edd","system_id":"levelo_inurba_marseille","lat":43.293009,"lon":5.374584,"is_reserved":false,"is_disabled":false,"rental_uris":{"android":"levelo://app?vid=5a1384b4-6608-44e5-ae0e-8dd7aebd5edd","ios":"levelo://app?vid=5a1384b4-6608-44e5-ae0e-8dd7aebd5edd"},"vehicle_type_id":"4","last_reported":1690394880,"current_range_meters":24000,"station_id":"ce4bgi12rcd13ifvqb70","pricing_plan_id":"free"},{"bike_id":"d31eb3c7-3f2b-40c2-8c5a-7a04c0807cf7","system_id":"levelo_inurba_marseille","lat":43.293009,"lon":5.374584,"is_reserved":false,"is_disabled":false,"rental_uris":{"android":"levelo://app?vid=d31eb3c7-3f2b-40c2-8c5a-7a04c0807cf7","ios":"levelo://app?vid=d31eb3c7-3f2b-40c2-8c5a-7a04c0807cf7"},"vehicle_type_id":"4","last_reported":1690394880,"current_range_meters":1600,"station_id":"ce4bgi12rcd13ifvqb70","pricing_plan_id":"free"},{"bike_id":"9237f24a-21f2-44a1-b7e6-ab09209fe718","system_id":"levelo_inurba_marseille","lat":43.29269,"lon":5.35983,"is_reserved":false,"is_disabled":false,"rental_uris":{"android":"levelo://app?vid=9237f24a-21f2-44a1-b7e6-ab09209fe718","ios":"levelo://app?vid=9237f24a-21f2-44a1-b7e6-ab09209fe718"},"vehicle_type_id":"4","last_reported":1690394880,"current_range_meters":14400,"station_id":"","pricing_plan_id":"free"},{"bike_id":"2ef15200-c2d8-4dcb-8321-13cd9304592d","system_id":"levelo_inurba_marseille","lat":43.292311,"lon":5.360731,"is_reserved":false,"is_disabled":false,"rental_uris":{"android":"levelo://app?vid=2ef15200-c2d8-4dcb-8321-13cd9304592d","ios":"levelo://app?vid=2ef15200-c2d8-4dcb-8321-13cd9304592d"},"vehicle_type_id":"4","last_reported":1690394880,"current_range_meters":0,"station_id":"ce4bhbh2rcd13ifvqeqg","pricing_plan_id":"free"},{"bike_id":"0a970729-fc22-40e4-bf17-e4b18374bd3c","system_id":"levelo_inurba_marseille","lat":43.292311,"lon":5.360731,"is_reserved":false,"is_disabled":false,"rental_uris":{"android":"levelo://app?vid=0a970729-fc22-40e4-bf17-e4b18374bd3c","ios":"levelo://app?vid=0a970729-fc22-40e4-bf17-e4b18374bd3c"},"vehicle_type_id":"4","last_reported":1690394880,"current_range_meters":22000,"station_id":"ce4bhbh2rcd13ifvqeqg","pricing_plan_id":"free"},{"bike_id":"a5c54ebc-b0d0-48fd-b593-0ef2bd4cecd0","system_id":"levelo_inurba_marseille","lat":43.29893,"lon":5.38904,"is_reserved":false,"is_disabled":false,"rental_uris":{"android":"levelo://app?vid=a5c54ebc-b0d0-48fd-b593-0ef2bd4cecd0","ios":"levelo://app?vid=a5c54ebc-b0d0-48fd-b593-0ef2bd4cecd0"},"vehicle_type_id":"4","last_reported":1690394880,"current_range_meters":29600,"station_id":"ce4bh392rcd13ifvqdl0","pricing_plan_id":"free"},{"bike_id":"be7f9b09-c737-4e28-814f-3a2eb221c285","system_id":"levelo_inurba_marseille","lat":43.298764,"lon":5.388973,"is_reserved":false,"is_disabled":false,"rental_uris":{"android":"levelo://app?vid=be7f9b09-c737-4e28-814f-3a2eb221c285","ios":"levelo://app?vid=be7f9b09-c737-4e28-814f-3a2eb221c285"},"vehicle_type_id":"4","last_reported":1690394880,"current_range_meters":21600,"station_id":"ce4bh392rcd13ifvqdl0","pricing_plan_id":"free"},{"bike_id":"3021d479-e028-46a2-9bd8-893a49b6b955","system_id":"levelo_inurba_marseille","lat":43.29196,"lon":5.35806,"is_reserved":false,"is_disabled":false,"rental_uris":{"android":"levelo://app?vid=3021d479-e028-46a2-9bd8-893a49b6b955","ios":"levelo://app?vid=3021d479-e028-46a2-9bd8-893a49b6b955"},"vehicle_type_id":"4","last_reported":1690394880,"current_range_meters":21200,"station_id":"ce4bhb12rcd13ifvqel0","pricing_plan_id":"free"},{"bike_id":"01bbcb6c-c761-4f18-a2f0-59c6a029ede2","system_id":"levelo_inurba_marseille","lat":43.291966,"lon":5.357991,"is_reserved":false,"is_disabled":false,"rental_uris":{"android":"levelo://app?vid=01bbcb6c-c761-4f18-a2f0-59c6a029ede2","ios":"levelo://app?vid=01bbcb6c-c761-4f18-a2f0-59c6a029ede2"},"vehicle_type_id":"4","last_reported":1690394880,"current_range_meters":800,"station_id":"ce4bhb12rcd13ifvqel0","pricing_plan_id":"free"},{"bike_id":"4ac5c0ba-ae34-45f1-92a2-15445a4f91cf","system_id":"levelo_inurba_marseille","lat":43.3089,"lon":5.39638,"is_reserved":false,"is_disabled":false,"rental_uris":{"android":"levelo://app?vid=4ac5c0ba-ae34-45f1-92a2-15445a4f91cf","ios":"levelo://app?vid=4ac5c0ba-ae34-45f1-92a2-15445a4f91cf"},"vehicle_type_id":"4","last_reported":1690394880,"current_range_meters":14800,"station_id":"ce4bh012rcd13ifvqcv0","pricing_plan_id":"free"},{"bike_id":"7e73a931-5ebe-4b34-bf9f-d788bf3ae6c3","system_id":"levelo_inurba_marseille","lat":43.29192,"lon":5.3581,"is_reserved":false,"is_disabled":false,"rental_uris":{"android":"levelo://app?vid=7e73a931-5ebe-4b34-bf9f-d788bf3ae6c3","ios":"levelo://app?vid=7e73a931-5ebe-4b34-bf9f-d788bf3ae6c3"},"vehicle_type_id":"4","last_reported":1690394880,"current_range_meters":31200,"station_id":"ce4bhb12rcd13ifvqel0","pricing_plan_id":"free"},{"bike_id":"f4928600-79a9-420c-9e06-9fbcc932921a","system_id":"levelo_inurba_marseille","lat":43.291911,"lon":5.35798,"is_reserved":false,"is_disabled":false,"rental_uris":{"android":"levelo://app?vid=f4928600-79a9-420c-9e06-9fbcc932921a","ios":"levelo://app?vid=f4928600-79a9-420c-9e06-9fbcc932921a"},"vehicle_type_id":"4","last_reported":1690394880,"current_range_meters":13600,"station_id":"ce4bhb12rcd13ifvqel0","pricing_plan_id":"free"},{"bike_id":"eb37de4e-a306-4612-9b79-fd0f0b1e2c13","system_id":"levelo_inurba_marseille","lat":43.31332,"lon":5.39691,"is_reserved":false,"is_disabled":false,"rental_uris":{"android":"levelo://app?vid=eb37de4e-a306-4612-9b79-fd0f0b1e2c13","ios":"levelo://app?vid=eb37de4e-a306-4612-9b79-fd0f0b1e2c13"},"vehicle_type_id":"4","last_reported":1690394880,"current_range_meters":10800,"station_id":"ce4bgvp2rcd13ifvqcu0","pricing_plan_id":"free"},{"bike_id":"d0a178c5-39c5-4bc5-bdd6-d7eba95cc945","system_id":"levelo_inurba_marseille","lat":43.291994,"lon":5.357886,"is_reserved":false,"is_disabled":false,"rental_uris":{"android":"levelo://app?vid=d0a178c5-39c5-4bc5-bdd6-d7eba95cc945","ios":"levelo://app?vid=d0a178c5-39c5-4bc5-bdd6-d7eba95cc945"},"vehicle_type_id":"4","last_reported":1690394880,"current_range_meters":17600,"station_id":"ce4bhb12rcd13ifvqel0","pricing_plan_id":"free"},{"bike_id":"6e87c505-e24e-405f-88cb-1dee6d96309c","system_id":"levelo_inurba_marseille","lat":43.313291,"lon":5.396838,"is_reserved":false,"is_disabled":false,"rental_uris":{"android":"levelo://app?vid=6e87c505-e24e-405f-88cb-1dee6d96309c","ios":"levelo://app?vid=6e87c505-e24e-405f-88cb-1dee6d96309c"},"vehicle_type_id":"4","last_reported":1690394880,"current_range_meters":4400,"station_id":"ce4bgvp2rcd13ifvqcu0","pricing_plan_id":"free"},{"bike_id":"ba1ca961-fd82-4590-80cf-be715e9f12cf","system_id":"levelo_inurba_marseille","lat":43.31329,"lon":5.39695,"is_reserved":false,"is_disabled":false,"rental_uris":{"android":"levelo://app?vid=ba1ca961-fd82-4590-80cf-be715e9f12cf","ios":"levelo://app?vid=ba1ca961-fd82-4590-80cf-be715e9f12cf"},"vehicle_type_id":"4","last_reported":1690394880,"current_range_meters":22800,"station_id":"ce4bgvp2rcd13ifvqcu0","pricing_plan_id":"free"},{"bike_id":"fbab2610-def2-42aa-8b3f-16d2cbe00ef0","system_id":"levelo_inurba_marseille","lat":43.29184,"lon":5.35808,"is_reserved":false,"is_disabled":false,"rental_uris":{"android":"levelo://app?vid=fbab2610-def2-42aa-8b3f-16d2cbe00ef0","ios":"levelo://app?vid=fbab2610-def2-42aa-8b3f-16d2cbe00ef0"},"vehicle_type_id":"4","last_reported":1690394880,"current_range_meters":14400,"station_id":"ce4bhb12rcd13ifvqel0","pricing_plan_id":"free"},{"bike_id":"47e98f1b-bf35-4670-ad32-86765329d46c","system_id":"levelo_inurba_marseille","lat":43.30896,"lon":5.396638,"is_reserved":false,"is_disabled":false,"rental_uris":{"android":"levelo://app?vid=47e98f1b-bf35-4670-ad32-86765329d46c","ios":"levelo://app?vid=47e98f1b-bf35-4670-ad32-86765329d46c"},"vehicle_type_id":"4","last_reported":1690394880,"current_range_meters":10400,"station_id":"","pricing_plan_id":"free"},{"bike_id":"c5d11388-f3f6-4a65-b076-4eaada103b58","system_id":"levelo_inurba_marseille","lat":43.29529,"lon":5.385581,"is_reserved":false,"is_disabled":false,"rental_uris":{"android":"levelo://app?vid=c5d11388-f3f6-4a65-b076-4eaada103b58","ios":"levelo://app?vid=c5d11388-f3f6-4a65-b076-4eaada103b58"},"vehicle_type_id":"4","last_reported":1690394880,"current_range_meters":9600,"station_id":"ce4bgih2rcd13ifvqba0","pricing_plan_id":"free"},{"bike_id":"c5b0b49b-dfd0-48bd-ba05-ea2a76a884ab","system_id":"levelo_inurba_marseille","lat":43.29529,"lon":5.385581,"is_reserved":false,"is_disabled":false,"rental_uris":{"android":"levelo://app?vid=c5b0b49b-dfd0-48bd-ba05-ea2a76a884ab","ios":"levelo://app?vid=c5b0b49b-dfd0-48bd-ba05-ea2a76a884ab"},"vehicle_type_id":"4","last_reported":1690394880,"current_range_meters":23200,"station_id":"ce4bgih2rcd13ifvqba0","pricing_plan_id":"free"},{"bike_id":"f16cd639-c0eb-4a2d-83df-195e20b2d232","system_id":"levelo_inurba_marseille","lat":43.29529,"lon":5.385581,"is_reserved":false,"is_disabled":false,"rental_uris":{"android":"levelo://app?vid=f16cd639-c0eb-4a2d-83df-195e20b2d232","ios":"levelo://app?vid=f16cd639-c0eb-4a2d-83df-195e20b2d232"},"vehicle_type_id":"4","last_reported":1690394880,"current_range_meters":6000,"station_id":"ce4bgih2rcd13ifvqba0","pricing_plan_id":"free"},{"bike_id":"f0608960-42f3-4427-b46e-445302ddd6a1","system_id":"levelo_inurba_marseille","lat":43.29529,"lon":5.385581,"is_reserved":false,"is_disabled":false,"rental_uris":{"android":"levelo://app?vid=f0608960-42f3-4427-b46e-445302ddd6a1","ios":"levelo://app?vid=f0608960-42f3-4427-b46e-445302ddd6a1"},"vehicle_type_id":"4","last_reported":1690394880,"current_range_meters":28400,"station_id":"ce4bgih2rcd13ifvqba0","pricing_plan_id":"free"},{"bike_id":"bc14d776-79b5-4169-bf62-9a99c7c76886","system_id":"levelo_inurba_marseille","lat":43.29529,"lon":5.385581,"is_reserved":false,"is_disabled":false,"rental_uris":{"android":"levelo://app?vid=bc14d776-79b5-4169-bf62-9a99c7c76886","ios":"levelo://app?vid=bc14d776-79b5-4169-bf62-9a99c7c76886"},"vehicle_type_id":"4","last_reported":1690394880,"current_range_meters":27200,"station_id":"ce4bgih2rcd13ifvqba0","pricing_plan_id":"free"},{"bike_id":"8ecb51ae-b255-47a8-83be-fd8a2f8bbfdc","system_id":"levelo_inurba_marseille","lat":43.29529,"lon":5.385581,"is_reserved":false,"is_disabled":false,"rental_uris":{"android":"levelo://app?vid=8ecb51ae-b255-47a8-83be-fd8a2f8bbfdc","ios":"levelo://app?vid=8ecb51ae-b255-47a8-83be-fd8a2f8bbfdc"},"vehicle_type_id":"4","last_reported":1690394880,"current_range_meters":1200,"station_id":"ce4bgih2rcd13ifvqba0","pricing_plan_id":"free"},{"bike_id":"76fa202d-e0e1-44d8-a229-7ca45ec2ef60","system_id":"levelo_inurba_marseille","lat":43.29529,"lon":5.385581,"is_reserved":false,"is_disabled":false,"rental_uris":{"android":"levelo://app?vid=76fa202d-e0e1-44d8-a229-7ca45ec2ef60","ios":"levelo://app?vid=76fa202d-e0e1-44d8-a229-7ca45ec2ef60"},"vehicle_type_id":"4","last_reported":1690394880,"current_range_meters":26000,"station_id":"ce4bgih2rcd13ifvqba0","pricing_plan_id":"free"},{"bike_id":"8ce264ae-d4b2-4141-b326-c0098f273874","system_id":"levelo_inurba_marseille","lat":43.302008,"lon":5.394694,"is_reserved":false,"is_disabled":false,"rental_uris":{"android":"levelo://app?vid=8ce264ae-d4b2-4141-b326-c0098f273874","ios":"levelo://app?vid=8ce264ae-d4b2-4141-b326-c0098f273874"},"vehicle_type_id":"4","last_reported":1690394880,"current_range_meters":3600,"station_id":"ce4bh0p2rcd13ifvqd70","pricing_plan_id":"free"},{"bike_id":"4bd56119-bec6-4855-a4bf-c338f42f6ff2","system_id":"levelo_inurba_marseille","lat":43.302008,"lon":5.394694,"is_reserved":false,"is_disabled":false,"rental_uris":{"android":"levelo://app?vid=4bd56119-bec6-4855-a4bf-c338f42f6ff2","ios":"levelo://app?vid=4bd56119-bec6-4855-a4bf-c338f42f6ff2"},"vehicle_type_id":"4","last_reported":1690394880,"current_range_meters":3200,"station_id":"ce4bh0p2rcd13ifvqd70","pricing_plan_id":"free"},{"bike_id":"7247f473-8a96-40f0-b297-fa71a3000982","system_id":"levelo_inurba_marseille","lat":43.290624,"lon":5.359245,"is_reserved":false,"is_disabled":false,"rental_uris":{"android":"levelo://app?vid=7247f473-8a96-40f0-b297-fa71a3000982","ios":"levelo://app?vid=7247f473-8a96-40f0-b297-fa71a3000982"},"vehicle_type_id":"4","last_reported":1690394880,"current_range_meters":29200,"station_id":"ce4bha92rcd13ifvqeg0","pricing_plan_id":"free"},{"bike_id":"750514c4-8d2c-4dec-90de-198dec285c7a","system_id":"levelo_inurba_marseille","lat":43.302008,"lon":5.394694,"is_reserved":false,"is_disabled":false,"rental_uris":{"android":"levelo://app?vid=750514c4-8d2c-4dec-90de-198dec285c7a","ios":"levelo://app?vid=750514c4-8d2c-4dec-90de-198dec285c7a"},"vehicle_type_id":"4","last_reported":1690394880,"current_range_meters":3600,"station_id":"ce4bh0p2rcd13ifvqd70","pricing_plan_id":"free"},{"bike_id":"6aee8b21-cd60-41a3-adea-9180b2f437cc","system_id":"levelo_inurba_marseille","lat":43.290631,"lon":5.359244,"is_reserved":false,"is_disabled":false,"rental_uris":{"android":"levelo://app?vid=6aee8b21-cd60-41a3-adea-9180b2f437cc","ios":"levelo://app?vid=6aee8b21-cd60-41a3-adea-9180b2f437cc"},"vehicle_type_id":"4","last_reported":1690394880,"current_range_meters":13200,"station_id":"ce4bha92rcd13ifvqeg0","pricing_plan_id":"free"},{"bike_id":"7b4ab998-c57a-47fa-ba82-0bcd17d2374d","system_id":"levelo_inurba_marseille","lat":43.294153,"lon":5.386305,"is_reserved":false,"is_disabled":false,"rental_uris":{"android":"levelo://app?vid=7b4ab998-c57a-47fa-ba82-0bcd17d2374d","ios":"levelo://app?vid=7b4ab998-c57a-47fa-ba82-0bcd17d2374d"},"vehicle_type_id":"4","last_reported":1690394880,"current_range_meters":28000,"station_id":"ce4bh2h2rcd13ifvqdh0","pricing_plan_id":"free"},{"bike_id":"c7520f2c-bb7b-4f2e-89b1-9a8f004da441","system_id":"levelo_inurba_marseille","lat":43.294162,"lon":5.386292,"is_reserved":false,"is_disabled":false,"rental_uris":{"android":"levelo://app?vid=c7520f2c-bb7b-4f2e-89b1-9a8f004da441","ios":"levelo://app?vid=c7520f2c-bb7b-4f2e-89b1-9a8f004da441"},"vehicle_type_id":"4","last_reported":1690394880,"current_range_meters":17200,"station_id":"ce4bh2h2rcd13ifvqdh0","pricing_plan_id":"free"},{"bike_id":"9e50be48-c686-4eea-b61e-4c4a1f12809f","system_id":"levelo_inurba_marseille","lat":43.294153,"lon":5.386305,"is_reserved":false,"is_disabled":false,"rental_uris":{"android":"levelo://app?vid=9e50be48-c686-4eea-b61e-4c4a1f12809f","ios":"levelo://app?vid=9e50be48-c686-4eea-b61e-4c4a1f12809f"},"vehicle_type_id":"4","last_reported":1690394880,"current_range_meters":26000,"station_id":"ce4bh2h2rcd13ifvqdh0","pricing_plan_id":"free"},{"bike_id":"e3778825-afab-4750-b07f-a25013bfada9","system_id":"levelo_inurba_marseille","lat":43.294153,"lon":5.386305,"is_reserved":false,"is_disabled":false,"rental_uris":{"android":"levelo://app?vid=e3778825-afab-4750-b07f-a25013bfada9","ios":"levelo://app?vid=e3778825-afab-4750-b07f-a25013bfada9"},"vehicle_type_id":"4","last_reported":1690394880,"current_range_meters":31200,"station_id":"ce4bh2h2rcd13ifvqdh0","pricing_plan_id":"free"},{"bike_id":"d3416688-0998-4710-b3ec-5dbb5eb4eb96","system_id":"levelo_inurba_marseille","lat":43.294153,"lon":5.386305,"is_reserved":false,"is_disabled":false,"rental_uris":{"android":"levelo://app?vid=d3416688-0998-4710-b3ec-5dbb5eb4eb96","ios":"levelo://app?vid=d3416688-0998-4710-b3ec-5dbb5eb4eb96"},"vehicle_type_id":"4","last_reported":1690394880,"current_range_meters":22800,"station_id":"ce4bh2h2rcd13ifvqdh0","pricing_plan_id":"free"},{"bike_id":"b907b718-d53b-4da1-9387-7a6dc8ad8cd1","system_id":"levelo_inurba_marseille","lat":43.294162,"lon":5.386292,"is_reserved":false,"is_disabled":false,"rental_uris":{"android":"levelo://app?vid=b907b718-d53b-4da1-9387-7a6dc8ad8cd1","ios":"levelo://app?vid=b907b718-d53b-4da1-9387-7a6dc8ad8cd1"},"vehicle_type_id":"4","last_reported":1690394880,"current_range_meters":30800,"station_id":"ce4bh2h2rcd13ifvqdh0","pricing_plan_id":"free"},{"bike_id":"90d88a2f-9e48-46f4-9452-24506e8ddbb1","system_id":"levelo_inurba_marseille","lat":43.294162,"lon":5.386292,"is_reserved":false,"is_disabled":false,"rental_uris":{"android":"levelo://app?vid=90d88a2f-9e48-46f4-9452-24506e8ddbb1","ios":"levelo://app?vid=90d88a2f-9e48-46f4-9452-24506e8ddbb1"},"vehicle_type_id":"4","last_reported":1690394880,"current_range_meters":27600,"station_id":"ce4bh2h2rcd13ifvqdh0","pricing_plan_id":"free"},{"bike_id":"9909c420-06c9-4da8-b9b9-730a7628ac29","system_id":"levelo_inurba_marseille","lat":43.294153,"lon":5.386305,"is_reserved":false,"is_disabled":false,"rental_uris":{"android":"levelo://app?vid=9909c420-06c9-4da8-b9b9-730a7628ac29","ios":"levelo://app?vid=9909c420-06c9-4da8-b9b9-730a7628ac29"},"vehicle_type_id":"4","last_reported":1690394880,"current_range_meters":24400,"station_id":"ce4bh2h2rcd13ifvqdh0","pricing_plan_id":"free"},{"bike_id":"e074fc3d-d7ac-4c1d-9fda-bb5e86985a86","system_id":"levelo_inurba_marseille","lat":43.294162,"lon":5.386292,"is_reserved":false,"is_disabled":false,"rental_uris":{"android":"levelo://app?vid=e074fc3d-d7ac-4c1d-9fda-bb5e86985a86","ios":"levelo://app?vid=e074fc3d-d7ac-4c1d-9fda-bb5e86985a86"},"vehicle_type_id":"4","last_reported":1690394880,"current_range_meters":26800,"station_id":"ce4bh2h2rcd13ifvqdh0","pricing_plan_id":"free"},{"bike_id":"3d2dff64-1174-4cc7-b022-2038ac252793","system_id":"levelo_inurba_marseille","lat":43.294162,"lon":5.386292,"is_reserved":false,"is_disabled":false,"rental_uris":{"android":"levelo://app?vid=3d2dff64-1174-4cc7-b022-2038ac252793","ios":"levelo://app?vid=3d2dff64-1174-4cc7-b022-2038ac252793"},"vehicle_type_id":"4","last_reported":1690394880,"current_range_meters":20800,"station_id":"ce4bh2h2rcd13ifvqdh0","pricing_plan_id":"free"},{"bike_id":"a6d28c52-784d-4cb7-84b0-d273889a1034","system_id":"levelo_inurba_marseille","lat":43.294162,"lon":5.386292,"is_reserved":false,"is_disabled":false,"rental_uris":{"android":"levelo://app?vid=a6d28c52-784d-4cb7-84b0-d273889a1034","ios":"levelo://app?vid=a6d28c52-784d-4cb7-84b0-d273889a1034"},"vehicle_type_id":"4","last_reported":1690394880,"current_range_meters":28000,"station_id":"ce4bh2h2rcd13ifvqdh0","pricing_plan_id":"free"},{"bike_id":"40f6787d-2c9a-4cb8-a9e0-a0b61f9de787","system_id":"levelo_inurba_marseille","lat":43.294162,"lon":5.386292,"is_reserved":false,"is_disabled":false,"rental_uris":{"android":"levelo://app?vid=40f6787d-2c9a-4cb8-a9e0-a0b61f9de787","ios":"levelo://app?vid=40f6787d-2c9a-4cb8-a9e0-a0b61f9de787"},"vehicle_type_id":"4","last_reported":1690394880,"current_range_meters":10400,"station_id":"ce4bh2h2rcd13ifvqdh0","pricing_plan_id":"free"},{"bike_id":"502b2a58-9608-4835-9896-14f21a85b1d1","system_id":"levelo_inurba_marseille","lat":43.294162,"lon":5.386292,"is_reserved":false,"is_disabled":false,"rental_uris":{"android":"levelo://app?vid=502b2a58-9608-4835-9896-14f21a85b1d1","ios":"levelo://app?vid=502b2a58-9608-4835-9896-14f21a85b1d1"},"vehicle_type_id":"4","last_reported":1690394880,"current_range_meters":20400,"station_id":"ce4bh2h2rcd13ifvqdh0","pricing_plan_id":"free"},{"bike_id":"fd9e9a47-b39f-4319-a4ff-59149bffb3d9","system_id":"levelo_inurba_marseille","lat":43.304296,"lon":5.397513,"is_reserved":false,"is_disabled":false,"rental_uris":{"android":"levelo://app?vid=fd9e9a47-b39f-4319-a4ff-59149bffb3d9","ios":"levelo://app?vid=fd9e9a47-b39f-4319-a4ff-59149bffb3d9"},"vehicle_type_id":"4","last_reported":1690394880,"current_range_meters":18000,"station_id":"ce4bh092rcd13ifvqd20","pricing_plan_id":"free"},{"bike_id":"334fe140-df33-4b0b-b960-ba01fc997fcc","system_id":"levelo_inurba_marseille","lat":43.292642,"lon":5.384254,"is_reserved":false,"is_disabled":false,"rental_uris":{"android":"levelo://app?vid=334fe140-df33-4b0b-b960-ba01fc997fcc","ios":"levelo://app?vid=334fe140-df33-4b0b-b960-ba01fc997fcc"},"vehicle_type_id":"4","last_reported":1690394880,"current_range_meters":24800,"station_id":"ce4bh692rcd13ifvqea0","pricing_plan_id":"free"},{"bike_id":"92c8741d-00eb-402d-a5d4-28b1e2d73641","system_id":"levelo_inurba_marseille","lat":43.292644,"lon":5.384257,"is_reserved":false,"is_disabled":false,"rental_uris":{"android":"levelo://app?vid=92c8741d-00eb-402d-a5d4-28b1e2d73641","ios":"levelo://app?vid=92c8741d-00eb-402d-a5d4-28b1e2d73641"},"vehicle_type_id":"4","last_reported":1690394880,"current_range_meters":22800,"station_id":"ce4bh692rcd13ifvqea0","pricing_plan_id":"free"},{"bike_id":"1250749e-dc0d-4554-8687-4a4e41470f91","system_id":"levelo_inurba_marseille","lat":43.304296,"lon":5.397513,"is_reserved":false,"is_disabled":false,"rental_uris":{"android":"levelo://app?vid=1250749e-dc0d-4554-8687-4a4e41470f91","ios":"levelo://app?vid=1250749e-dc0d-4554-8687-4a4e41470f91"},"vehicle_type_id":"4","last_reported":1690394880,"current_range_meters":31200,"station_id":"ce4bh092rcd13ifvqd20","pricing_plan_id":"free"},{"bike_id":"0177c36c-7296-47d6-af07-c69aef3d001f","system_id":"levelo_inurba_marseille","lat":43.292644,"lon":5.384257,"is_reserved":false,"is_disabled":false,"rental_uris":{"android":"levelo://app?vid=0177c36c-7296-47d6-af07-c69aef3d001f","ios":"levelo://app?vid=0177c36c-7296-47d6-af07-c69aef3d001f"},"vehicle_type_id":"4","last_reported":1690394880,"current_range_meters":0,"station_id":"ce4bh692rcd13ifvqea0","pricing_plan_id":"free"},{"bike_id":"38495195-c801-4326-a277-e5ece5f8c46c","system_id":"levelo_inurba_marseille","lat":43.292642,"lon":5.384254,"is_reserved":false,"is_disabled":false,"rental_uris":{"android":"levelo://app?vid=38495195-c801-4326-a277-e5ece5f8c46c","ios":"levelo://app?vid=38495195-c801-4326-a277-e5ece5f8c46c"},"vehicle_type_id":"4","last_reported":1690394880,"current_range_meters":25600,"station_id":"ce4bh692rcd13ifvqea0","pricing_plan_id":"free"},{"bike_id":"2715f347-33d9-4b61-9589-1cff1a0d7e94","system_id":"levelo_inurba_marseille","lat":43.292644,"lon":5.384257,"is_reserved":false,"is_disabled":false,"rental_uris":{"android":"levelo://app?vid=2715f347-33d9-4b61-9589-1cff1a0d7e94","ios":"levelo://app?vid=2715f347-33d9-4b61-9589-1cff1a0d7e94"},"vehicle_type_id":"4","last_reported":1690394880,"current_range_meters":9200,"station_id":"ce4bh692rcd13ifvqea0","pricing_plan_id":"free"},{"bike_id":"01303732-8c65-4427-9370-3d5119e67794","system_id":"levelo_inurba_marseille","lat":43.292644,"lon":5.384257,"is_reserved":false,"is_disabled":false,"rental_uris":{"android":"levelo://app?vid=01303732-8c65-4427-9370-3d5119e67794","ios":"levelo://app?vid=01303732-8c65-4427-9370-3d5119e67794"},"vehicle_type_id":"4","last_reported":1690394880,"current_range_meters":11200,"station_id":"ce4bh692rcd13ifvqea0","pricing_plan_id":"free"},{"bike_id":"f3be111e-0837-4ce5-93c5-e0c292371aa5","system_id":"levelo_inurba_marseille","lat":43.292642,"lon":5.384254,"is_reserved":false,"is_disabled":false,"rental_uris":{"android":"levelo://app?vid=f3be111e-0837-4ce5-93c5-e0c292371aa5","ios":"levelo://app?vid=f3be111e-0837-4ce5-93c5-e0c292371aa5"},"vehicle_type_id":"4","last_reported":1690394880,"current_range_meters":9200,"station_id":"ce4bh692rcd13ifvqea0","pricing_plan_id":"free"},{"bike_id":"de8135c0-9c51-46a0-8226-7cea68cd19a0","system_id":"levelo_inurba_marseille","lat":43.292644,"lon":5.384257,"is_reserved":false,"is_disabled":false,"rental_uris":{"android":"levelo://app?vid=de8135c0-9c51-46a0-8226-7cea68cd19a0","ios":"levelo://app?vid=de8135c0-9c51-46a0-8226-7cea68cd19a0"},"vehicle_type_id":"4","last_reported":1690394880,"current_range_meters":20800,"station_id":"ce4bh692rcd13ifvqea0","pricing_plan_id":"free"},{"bike_id":"28789570-2c6a-4882-92d5-5abd9b72b63a","system_id":"levelo_inurba_marseille","lat":43.292642,"lon":5.384254,"is_reserved":false,"is_disabled":false,"rental_uris":{"android":"levelo://app?vid=28789570-2c6a-4882-92d5-5abd9b72b63a","ios":"levelo://app?vid=28789570-2c6a-4882-92d5-5abd9b72b63a"},"vehicle_type_id":"4","last_reported":1690394880,"current_range_meters":8000,"station_id":"ce4bh692rcd13ifvqea0","pricing_plan_id":"free"},{"bike_id":"5b4bdf5d-4011-4afb-a443-09b50841fb4a","system_id":"levelo_inurba_marseille","lat":43.292644,"lon":5.384257,"is_reserved":false,"is_disabled":false,"rental_uris":{"android":"levelo://app?vid=5b4bdf5d-4011-4afb-a443-09b50841fb4a","ios":"levelo://app?vid=5b4bdf5d-4011-4afb-a443-09b50841fb4a"},"vehicle_type_id":"4","last_reported":1690394880,"current_range_meters":12400,"station_id":"ce4bh692rcd13ifvqea0","pricing_plan_id":"free"},{"bike_id":"68de6dab-e3b1-4235-ad19-9297a0fdf014","system_id":"levelo_inurba_marseille","lat":43.292642,"lon":5.384254,"is_reserved":false,"is_disabled":false,"rental_uris":{"android":"levelo://app?vid=68de6dab-e3b1-4235-ad19-9297a0fdf014","ios":"levelo://app?vid=68de6dab-e3b1-4235-ad19-9297a0fdf014"},"vehicle_type_id":"4","last_reported":1690394880,"current_range_meters":4400,"station_id":"ce4bh692rcd13ifvqea0","pricing_plan_id":"free"},{"bike_id":"3a5e74df-2a10-47ee-a7e3-65a930de8eb1","system_id":"levelo_inurba_marseille","lat":43.33044,"lon":5.38909,"is_reserved":false,"is_disabled":false,"rental_uris":{"android":"levelo://app?vid=3a5e74df-2a10-47ee-a7e3-65a930de8eb1","ios":"levelo://app?vid=3a5e74df-2a10-47ee-a7e3-65a930de8eb1"},"vehicle_type_id":"4","last_reported":1690394880,"current_range_meters":8400,"station_id":"ce4bhr92rcd13ifvqhrg","pricing_plan_id":"free"},{"bike_id":"25dd1d6d-9f1e-4912-bac7-089bb523f1a3","system_id":"levelo_inurba_marseille","lat":43.33046,"lon":5.38907,"is_reserved":false,"is_disabled":false,"rental_uris":{"android":"levelo://app?vid=25dd1d6d-9f1e-4912-bac7-089bb523f1a3","ios":"levelo://app?vid=25dd1d6d-9f1e-4912-bac7-089bb523f1a3"},"vehicle_type_id":"4","last_reported":1690394880,"current_range_meters":18800,"station_id":"ce4bhr92rcd13ifvqhrg","pricing_plan_id":"free"},{"bike_id":"42263800-8128-4f1b-a1a5-6d23f3968fa7","system_id":"levelo_inurba_marseille","lat":43.33038,"lon":5.3892,"is_reserved":false,"is_disabled":false,"rental_uris":{"android":"levelo://app?vid=42263800-8128-4f1b-a1a5-6d23f3968fa7","ios":"levelo://app?vid=42263800-8128-4f1b-a1a5-6d23f3968fa7"},"vehicle_type_id":"4","last_reported":1690394880,"current_range_meters":12800,"station_id":"ce4bhr92rcd13ifvqhrg","pricing_plan_id":"free"},{"bike_id":"88d86ef3-7cd8-4d4d-a10a-660836e91cee","system_id":"levelo_inurba_marseille","lat":43.290103,"lon":5.356114,"is_reserved":false,"is_disabled":false,"rental_uris":{"android":"levelo://app?vid=88d86ef3-7cd8-4d4d-a10a-660836e91cee","ios":"levelo://app?vid=88d86ef3-7cd8-4d4d-a10a-660836e91cee"},"vehicle_type_id":"4","last_reported":1690394880,"current_range_meters":1200,"station_id":"ce4bhb92rcd13ifvqen0","pricing_plan_id":"free"},{"bike_id":"3151ac97-7960-4156-bae6-a0b3998c0429","system_id":"levelo_inurba_marseille","lat":43.3304,"lon":5.38918,"is_reserved":false,"is_disabled":false,"rental_uris":{"android":"levelo://app?vid=3151ac97-7960-4156-bae6-a0b3998c0429","ios":"levelo://app?vid=3151ac97-7960-4156-bae6-a0b3998c0429"},"vehicle_type_id":"4","last_reported":1690394880,"current_range_meters":20800,"station_id":"ce4bhr92rcd13ifvqhrg","pricing_plan_id":"free"},{"bike_id":"88404aae-9970-41ff-af6e-47c8a2c0fca6","system_id":"levelo_inurba_marseille","lat":43.33042,"lon":5.38915,"is_reserved":false,"is_disabled":false,"rental_uris":{"android":"levelo://app?vid=88404aae-9970-41ff-af6e-47c8a2c0fca6","ios":"levelo://app?vid=88404aae-9970-41ff-af6e-47c8a2c0fca6"},"vehicle_type_id":"4","last_reported":1690394880,"current_range_meters":20000,"station_id":"ce4bhr92rcd13ifvqhrg","pricing_plan_id":"free"},{"bike_id":"4e0a25ca-6770-47e2-8248-479f892f01fb","system_id":"levelo_inurba_marseille","lat":43.33041,"lon":5.38919,"is_reserved":false,"is_disabled":false,"rental_uris":{"android":"levelo://app?vid=4e0a25ca-6770-47e2-8248-479f892f01fb","ios":"levelo://app?vid=4e0a25ca-6770-47e2-8248-479f892f01fb"},"vehicle_type_id":"4","last_reported":1690394880,"current_range_meters":21600,"station_id":"ce4bhr92rcd13ifvqhrg","pricing_plan_id":"free"},{"bike_id":"0f7bc18f-e6c1-47b0-8f1c-aef49027d93f","system_id":"levelo_inurba_marseille","lat":43.33044,"lon":5.38915,"is_reserved":false,"is_disabled":false,"rental_uris":{"android":"levelo://app?vid=0f7bc18f-e6c1-47b0-8f1c-aef49027d93f","ios":"levelo://app?vid=0f7bc18f-e6c1-47b0-8f1c-aef49027d93f"},"vehicle_type_id":"4","last_reported":1690394880,"current_range_meters":24000,"station_id":"ce4bhr92rcd13ifvqhrg","pricing_plan_id":"free"},{"bike_id":"c759ee83-f8de-4fd6-aac9-ed656b69f68a","system_id":"levelo_inurba_marseille","lat":43.33043,"lon":5.38918,"is_reserved":false,"is_disabled":false,"rental_uris":{"android":"levelo://app?vid=c759ee83-f8de-4fd6-aac9-ed656b69f68a","ios":"levelo://app?vid=c759ee83-f8de-4fd6-aac9-ed656b69f68a"},"vehicle_type_id":"4","last_reported":1690394880,"current_range_meters":18400,"station_id":"ce4bhr92rcd13ifvqhrg","pricing_plan_id":"free"},{"bike_id":"64bd8087-3fc7-4e71-a018-7bbce5b65f9e","system_id":"levelo_inurba_marseille","lat":43.290104,"lon":5.356111,"is_reserved":false,"is_disabled":false,"rental_uris":{"android":"levelo://app?vid=64bd8087-3fc7-4e71-a018-7bbce5b65f9e","ios":"levelo://app?vid=64bd8087-3fc7-4e71-a018-7bbce5b65f9e"},"vehicle_type_id":"4","last_reported":1690394880,"current_range_meters":31600,"station_id":"ce4bhb92rcd13ifvqen0","pricing_plan_id":"free"},{"bike_id":"2f9b7d7e-3709-4f31-8f15-4ea858bb9538","system_id":"levelo_inurba_marseille","lat":43.33046,"lon":5.38914,"is_reserved":false,"is_disabled":false,"rental_uris":{"android":"levelo://app?vid=2f9b7d7e-3709-4f31-8f15-4ea858bb9538","ios":"levelo://app?vid=2f9b7d7e-3709-4f31-8f15-4ea858bb9538"},"vehicle_type_id":"4","last_reported":1690394880,"current_range_meters":18400,"station_id":"ce4bhr92rcd13ifvqhrg","pricing_plan_id":"free"},{"bike_id":"73ed3f19-4ae4-4b8f-b3e9-559d58575af5","system_id":"levelo_inurba_marseille","lat":43.33044,"lon":5.38918,"is_reserved":false,"is_disabled":false,"rental_uris":{"android":"levelo://app?vid=73ed3f19-4ae4-4b8f-b3e9-559d58575af5","ios":"levelo://app?vid=73ed3f19-4ae4-4b8f-b3e9-559d58575af5"},"vehicle_type_id":"4","last_reported":1690394880,"current_range_meters":23600,"station_id":"ce4bhr92rcd13ifvqhrg","pricing_plan_id":"free"},{"bike_id":"55c62a5b-4109-4f05-a1b7-34d97bd058e2","system_id":"levelo_inurba_marseille","lat":43.3304,"lon":5.38924,"is_reserved":false,"is_disabled":false,"rental_uris":{"android":"levelo://app?vid=55c62a5b-4109-4f05-a1b7-34d97bd058e2","ios":"levelo://app?vid=55c62a5b-4109-4f05-a1b7-34d97bd058e2"},"vehicle_type_id":"4","last_reported":1690394880,"current_range_meters":14000,"station_id":"ce4bhr92rcd13ifvqhrg","pricing_plan_id":"free"},{"bike_id":"9ccab6c9-5be4-4790-949f-95e896019f0b","system_id":"levelo_inurba_marseille","lat":43.33044,"lon":5.38919,"is_reserved":false,"is_disabled":false,"rental_uris":{"android":"levelo://app?vid=9ccab6c9-5be4-4790-949f-95e896019f0b","ios":"levelo://app?vid=9ccab6c9-5be4-4790-949f-95e896019f0b"},"vehicle_type_id":"4","last_reported":1690394880,"current_range_meters":1200,"station_id":"ce4bhr92rcd13ifvqhrg","pricing_plan_id":"free"},{"bike_id":"9c6e8b08-a787-470e-a459-ffa61942bf25","system_id":"levelo_inurba_marseille","lat":43.3305,"lon":5.3891,"is_reserved":false,"is_disabled":false,"rental_uris":{"android":"levelo://app?vid=9c6e8b08-a787-470e-a459-ffa61942bf25","ios":"levelo://app?vid=9c6e8b08-a787-470e-a459-ffa61942bf25"},"vehicle_type_id":"4","last_reported":1690394880,"current_range_meters":7200,"station_id":"ce4bhr92rcd13ifvqhrg","pricing_plan_id":"free"},{"bike_id":"e60467e9-1aaa-4db3-8a0e-23c0937e2e99","system_id":"levelo_inurba_marseille","lat":43.33047,"lon":5.38915,"is_reserved":false,"is_disabled":false,"rental_uris":{"android":"levelo://app?vid=e60467e9-1aaa-4db3-8a0e-23c0937e2e99","ios":"levelo://app?vid=e60467e9-1aaa-4db3-8a0e-23c0937e2e99"},"vehicle_type_id":"4","last_reported":1690394880,"current_range_meters":28400,"station_id":"ce4bhr92rcd13ifvqhrg","pricing_plan_id":"free"},{"bike_id":"327f82eb-39ce-4501-8198-3934f899466c","system_id":"levelo_inurba_marseille","lat":43.29006,"lon":5.35614,"is_reserved":false,"is_disabled":false,"rental_uris":{"android":"levelo://app?vid=327f82eb-39ce-4501-8198-3934f899466c","ios":"levelo://app?vid=327f82eb-39ce-4501-8198-3934f899466c"},"vehicle_type_id":"4","last_reported":1690394880,"current_range_meters":6000,"station_id":"","pricing_plan_id":"free"},{"bike_id":"8765c3d7-263c-4c45-8e9f-5d2eb4bdff1b","system_id":"levelo_inurba_marseille","lat":43.290103,"lon":5.356114,"is_reserved":false,"is_disabled":false,"rental_uris":{"android":"levelo://app?vid=8765c3d7-263c-4c45-8e9f-5d2eb4bdff1b","ios":"levelo://app?vid=8765c3d7-263c-4c45-8e9f-5d2eb4bdff1b"},"vehicle_type_id":"4","last_reported":1690394880,"current_range_meters":27200,"station_id":"ce4bhb92rcd13ifvqen0","pricing_plan_id":"free"},{"bike_id":"0e782a69-b1c1-47db-99b7-35163d306907","system_id":"levelo_inurba_marseille","lat":43.33048,"lon":5.38916,"is_reserved":false,"is_disabled":false,"rental_uris":{"android":"levelo://app?vid=0e782a69-b1c1-47db-99b7-35163d306907","ios":"levelo://app?vid=0e782a69-b1c1-47db-99b7-35163d306907"},"vehicle_type_id":"4","last_reported":1690394880,"current_range_meters":15200,"station_id":"ce4bhr92rcd13ifvqhrg","pricing_plan_id":"free"},{"bike_id":"f2f27d13-a4c9-4817-8539-ea5979861b5e","system_id":"levelo_inurba_marseille","lat":43.3305,"lon":5.38913,"is_reserved":false,"is_disabled":false,"rental_uris":{"android":"levelo://app?vid=f2f27d13-a4c9-4817-8539-ea5979861b5e","ios":"levelo://app?vid=f2f27d13-a4c9-4817-8539-ea5979861b5e"},"vehicle_type_id":"4","last_reported":1690394880,"current_range_meters":29200,"station_id":"ce4bhr92rcd13ifvqhrg","pricing_plan_id":"free"},{"bike_id":"23f5ec6b-33d3-4dbb-8628-221b92688a2c","system_id":"levelo_inurba_marseille","lat":43.3305,"lon":5.38914,"is_reserved":false,"is_disabled":false,"rental_uris":{"android":"levelo://app?vid=23f5ec6b-33d3-4dbb-8628-221b92688a2c","ios":"levelo://app?vid=23f5ec6b-33d3-4dbb-8628-221b92688a2c"},"vehicle_type_id":"4","last_reported":1690394880,"current_range_meters":20800,"station_id":"ce4bhr92rcd13ifvqhrg","pricing_plan_id":"free"},{"bike_id":"fbf84aab-85c0-4c9c-bad4-9a486a705a7f","system_id":"levelo_inurba_marseille","lat":43.29003,"lon":5.35619,"is_reserved":false,"is_disabled":false,"rental_uris":{"android":"levelo://app?vid=fbf84aab-85c0-4c9c-bad4-9a486a705a7f","ios":"levelo://app?vid=fbf84aab-85c0-4c9c-bad4-9a486a705a7f"},"vehicle_type_id":"4","last_reported":1690394880,"current_range_meters":31200,"station_id":"ce4bhb92rcd13ifvqen0","pricing_plan_id":"free"},{"bike_id":"69737180-2eee-4f4e-819b-76733618e6ca","system_id":"levelo_inurba_marseille","lat":43.29005,"lon":5.35611,"is_reserved":false,"is_disabled":false,"rental_uris":{"android":"levelo://app?vid=69737180-2eee-4f4e-819b-76733618e6ca","ios":"levelo://app?vid=69737180-2eee-4f4e-819b-76733618e6ca"},"vehicle_type_id":"4","last_reported":1690394880,"current_range_meters":20400,"station_id":"ce4bhb92rcd13ifvqen0","pricing_plan_id":"free"},{"bike_id":"ae31193c-7f63-4b2e-afd5-ad1edad83e02","system_id":"levelo_inurba_marseille","lat":43.29005,"lon":5.35607,"is_reserved":false,"is_disabled":false,"rental_uris":{"android":"levelo://app?vid=ae31193c-7f63-4b2e-afd5-ad1edad83e02","ios":"levelo://app?vid=ae31193c-7f63-4b2e-afd5-ad1edad83e02"},"vehicle_type_id":"4","last_reported":1690394880,"current_range_meters":15200,"station_id":"ce4bhb92rcd13ifvqen0","pricing_plan_id":"free"},{"bike_id":"91fec792-a5a5-4820-af7d-3c6be3109af2","system_id":"levelo_inurba_marseille","lat":43.290104,"lon":5.356111,"is_reserved":false,"is_disabled":false,"rental_uris":{"android":"levelo://app?vid=91fec792-a5a5-4820-af7d-3c6be3109af2","ios":"levelo://app?vid=91fec792-a5a5-4820-af7d-3c6be3109af2"},"vehicle_type_id":"4","last_reported":1690394880,"current_range_meters":31600,"station_id":"ce4bhb92rcd13ifvqen0","pricing_plan_id":"free"},{"bike_id":"393d59f1-7515-4bfe-8761-d45f640a705b","system_id":"levelo_inurba_marseille","lat":43.290104,"lon":5.356111,"is_reserved":false,"is_disabled":false,"rental_uris":{"android":"levelo://app?vid=393d59f1-7515-4bfe-8761-d45f640a705b","ios":"levelo://app?vid=393d59f1-7515-4bfe-8761-d45f640a705b"},"vehicle_type_id":"4","last_reported":1690394880,"current_range_meters":30400,"station_id":"ce4bhb92rcd13ifvqen0","pricing_plan_id":"free"},{"bike_id":"fd798d91-e59c-4a76-bd91-92ce206c30b6","system_id":"levelo_inurba_marseille","lat":43.3305,"lon":5.38919,"is_reserved":false,"is_disabled":false,"rental_uris":{"android":"levelo://app?vid=fd798d91-e59c-4a76-bd91-92ce206c30b6","ios":"levelo://app?vid=fd798d91-e59c-4a76-bd91-92ce206c30b6"},"vehicle_type_id":"4","last_reported":1690394880,"current_range_meters":7600,"station_id":"ce4bhr92rcd13ifvqhrg","pricing_plan_id":"free"},{"bike_id":"c4f7ffbc-e5d3-4a4d-af63-9716a8989ae6","system_id":"levelo_inurba_marseille","lat":43.29783,"lon":5.39326,"is_reserved":false,"is_disabled":false,"rental_uris":{"android":"levelo://app?vid=c4f7ffbc-e5d3-4a4d-af63-9716a8989ae6","ios":"levelo://app?vid=c4f7ffbc-e5d3-4a4d-af63-9716a8989ae6"},"vehicle_type_id":"4","last_reported":1690394880,"current_range_meters":13600,"station_id":"chh1huq6cuj3fo74tm60","pricing_plan_id":"free"},{"bike_id":"631d78cb-e8be-432f-8244-7ebcc20c294d","system_id":"levelo_inurba_marseille","lat":43.297815,"lon":5.393548,"is_reserved":false,"is_disabled":false,"rental_uris":{"android":"levelo://app?vid=631d78cb-e8be-432f-8244-7ebcc20c294d","ios":"levelo://app?vid=631d78cb-e8be-432f-8244-7ebcc20c294d"},"vehicle_type_id":"4","last_reported":1690394880,"current_range_meters":16800,"station_id":"chh1huq6cuj3fo74tm60","pricing_plan_id":"free"},{"bike_id":"3930ebe7-acfc-4d7b-91a4-58219c5e1527","system_id":"levelo_inurba_marseille","lat":43.28986,"lon":5.37821,"is_reserved":false,"is_disabled":false,"rental_uris":{"android":"levelo://app?vid=3930ebe7-acfc-4d7b-91a4-58219c5e1527","ios":"levelo://app?vid=3930ebe7-acfc-4d7b-91a4-58219c5e1527"},"vehicle_type_id":"4","last_reported":1690394880,"current_range_meters":11200,"station_id":"ce4bh9p2rcd13ifvqed0","pricing_plan_id":"free"},{"bike_id":"a897e0c1-8f0b-4a18-ae94-91b45d83fc37","system_id":"levelo_inurba_marseille","lat":43.297815,"lon":5.393548,"is_reserved":false,"is_disabled":false,"rental_uris":{"android":"levelo://app?vid=a897e0c1-8f0b-4a18-ae94-91b45d83fc37","ios":"levelo://app?vid=a897e0c1-8f0b-4a18-ae94-91b45d83fc37"},"vehicle_type_id":"4","last_reported":1690394880,"current_range_meters":30000,"station_id":"chh1huq6cuj3fo74tm60","pricing_plan_id":"free"},{"bike_id":"04e009c4-4fe0-44d7-91fa-3690556ac865","system_id":"levelo_inurba_marseille","lat":43.292642,"lon":5.384254,"is_reserved":false,"is_disabled":false,"rental_uris":{"android":"levelo://app?vid=04e009c4-4fe0-44d7-91fa-3690556ac865","ios":"levelo://app?vid=04e009c4-4fe0-44d7-91fa-3690556ac865"},"vehicle_type_id":"4","last_reported":1690394880,"current_range_meters":16400,"station_id":"ce4bh692rcd13ifvqea0","pricing_plan_id":"free"},{"bike_id":"9dccd0a6-acf2-4794-bb93-e3e35f753c32","system_id":"levelo_inurba_marseille","lat":43.295169,"lon":5.390426,"is_reserved":false,"is_disabled":false,"rental_uris":{"android":"levelo://app?vid=9dccd0a6-acf2-4794-bb93-e3e35f753c32","ios":"levelo://app?vid=9dccd0a6-acf2-4794-bb93-e3e35f753c32"},"vehicle_type_id":"4","last_reported":1690394880,"current_range_meters":30400,"station_id":"ce4bh3p2rcd13ifvqdp0","pricing_plan_id":"free"},{"bike_id":"7d860859-1048-4ed6-9aa8-ecddda79d166","system_id":"levelo_inurba_marseille","lat":43.295169,"lon":5.390426,"is_reserved":false,"is_disabled":false,"rental_uris":{"android":"levelo://app?vid=7d860859-1048-4ed6-9aa8-ecddda79d166","ios":"levelo://app?vid=7d860859-1048-4ed6-9aa8-ecddda79d166"},"vehicle_type_id":"4","last_reported":1690394880,"current_range_meters":10400,"station_id":"ce4bh3p2rcd13ifvqdp0","pricing_plan_id":"free"},{"bike_id":"cc6c2e05-8738-4fe7-974f-0d6bbf4ac112","system_id":"levelo_inurba_marseille","lat":43.295169,"lon":5.390426,"is_reserved":false,"is_disabled":false,"rental_uris":{"android":"levelo://app?vid=cc6c2e05-8738-4fe7-974f-0d6bbf4ac112","ios":"levelo://app?vid=cc6c2e05-8738-4fe7-974f-0d6bbf4ac112"},"vehicle_type_id":"4","last_reported":1690394880,"current_range_meters":23200,"station_id":"ce4bh3p2rcd13ifvqdp0","pricing_plan_id":"free"},{"bike_id":"26061adb-80e9-4983-bfe8-d47079c64649","system_id":"levelo_inurba_marseille","lat":43.295169,"lon":5.390426,"is_reserved":false,"is_disabled":false,"rental_uris":{"android":"levelo://app?vid=26061adb-80e9-4983-bfe8-d47079c64649","ios":"levelo://app?vid=26061adb-80e9-4983-bfe8-d47079c64649"},"vehicle_type_id":"4","last_reported":1690394880,"current_range_meters":0,"station_id":"ce4bh3p2rcd13ifvqdp0","pricing_plan_id":"free"},{"bike_id":"f6c36902-d043-41db-9fad-51145ede6a05","system_id":"levelo_inurba_marseille","lat":43.295169,"lon":5.390426,"is_reserved":false,"is_disabled":false,"rental_uris":{"android":"levelo://app?vid=f6c36902-d043-41db-9fad-51145ede6a05","ios":"levelo://app?vid=f6c36902-d043-41db-9fad-51145ede6a05"},"vehicle_type_id":"4","last_reported":1690394880,"current_range_meters":16800,"station_id":"ce4bh3p2rcd13ifvqdp0","pricing_plan_id":"free"},{"bike_id":"d6fc8a96-dfba-4fae-8d99-8d98a1527b38","system_id":"levelo_inurba_marseille","lat":43.295169,"lon":5.390426,"is_reserved":false,"is_disabled":false,"rental_uris":{"android":"levelo://app?vid=d6fc8a96-dfba-4fae-8d99-8d98a1527b38","ios":"levelo://app?vid=d6fc8a96-dfba-4fae-8d99-8d98a1527b38"},"vehicle_type_id":"4","last_reported":1690394880,"current_range_meters":31600,"station_id":"ce4bh3p2rcd13ifvqdp0","pricing_plan_id":"free"},{"bike_id":"11985373-2fc8-4c9e-8536-e2a5a6c45099","system_id":"levelo_inurba_marseille","lat":43.28856,"lon":5.358371,"is_reserved":false,"is_disabled":false,"rental_uris":{"android":"levelo://app?vid=11985373-2fc8-4c9e-8536-e2a5a6c45099","ios":"levelo://app?vid=11985373-2fc8-4c9e-8536-e2a5a6c45099"},"vehicle_type_id":"4","last_reported":1690394880,"current_range_meters":31600,"station_id":"ce4bhb12rcd13ifvqem0","pricing_plan_id":"free"},{"bike_id":"ed522f87-6410-4f55-a5fb-e800d291bd50","system_id":"levelo_inurba_marseille","lat":43.28856,"lon":5.358371,"is_reserved":false,"is_disabled":false,"rental_uris":{"android":"levelo://app?vid=ed522f87-6410-4f55-a5fb-e800d291bd50","ios":"levelo://app?vid=ed522f87-6410-4f55-a5fb-e800d291bd50"},"vehicle_type_id":"4","last_reported":1690394880,"current_range_meters":4800,"station_id":"ce4bhb12rcd13ifvqem0","pricing_plan_id":"free"},{"bike_id":"9917ecda-7227-4097-bbd8-7ed32a8f52ad","system_id":"levelo_inurba_marseille","lat":43.28856,"lon":5.358371,"is_reserved":false,"is_disabled":false,"rental_uris":{"android":"levelo://app?vid=9917ecda-7227-4097-bbd8-7ed32a8f52ad","ios":"levelo://app?vid=9917ecda-7227-4097-bbd8-7ed32a8f52ad"},"vehicle_type_id":"4","last_reported":1690394880,"current_range_meters":31600,"station_id":"ce4bhb12rcd13ifvqem0","pricing_plan_id":"free"},{"bike_id":"1699be57-d483-411b-beb9-c54d0e4096f5","system_id":"levelo_inurba_marseille","lat":43.31281,"lon":5.4017,"is_reserved":false,"is_disabled":false,"rental_uris":{"android":"levelo://app?vid=1699be57-d483-411b-beb9-c54d0e4096f5","ios":"levelo://app?vid=1699be57-d483-411b-beb9-c54d0e4096f5"},"vehicle_type_id":"4","last_reported":1690394880,"current_range_meters":14400,"station_id":"ce4bh092rcd13ifvqd30","pricing_plan_id":"free"},{"bike_id":"90e50056-5cd0-4446-82af-e18dc60cc80f","system_id":"levelo_inurba_marseille","lat":43.309371,"lon":5.401449,"is_reserved":false,"is_disabled":false,"rental_uris":{"android":"levelo://app?vid=90e50056-5cd0-4446-82af-e18dc60cc80f","ios":"levelo://app?vid=90e50056-5cd0-4446-82af-e18dc60cc80f"},"vehicle_type_id":"4","last_reported":1690394880,"current_range_meters":16000,"station_id":"ce4bgvp2rcd13ifvqct0","pricing_plan_id":"free"},{"bike_id":"fb55a57d-6584-43b8-b3cf-2b413ce702c9","system_id":"levelo_inurba_marseille","lat":43.309371,"lon":5.401449,"is_reserved":false,"is_disabled":false,"rental_uris":{"android":"levelo://app?vid=fb55a57d-6584-43b8-b3cf-2b413ce702c9","ios":"levelo://app?vid=fb55a57d-6584-43b8-b3cf-2b413ce702c9"},"vehicle_type_id":"4","last_reported":1690394880,"current_range_meters":15600,"station_id":"ce4bgvp2rcd13ifvqct0","pricing_plan_id":"free"},{"bike_id":"a5a4650a-d677-495d-b886-26e2ea125055","system_id":"levelo_inurba_marseille","lat":43.301117,"lon":5.398795,"is_reserved":false,"is_disabled":false,"rental_uris":{"android":"levelo://app?vid=a5a4650a-d677-495d-b886-26e2ea125055","ios":"levelo://app?vid=a5a4650a-d677-495d-b886-26e2ea125055"},"vehicle_type_id":"4","last_reported":1690394880,"current_range_meters":9600,"station_id":"ce4bh0h2rcd13ifvqd40","pricing_plan_id":"free"},{"bike_id":"47e9ef53-1c88-4754-ab80-a3fae01bcbd9","system_id":"levelo_inurba_marseille","lat":43.28678,"lon":5.36351,"is_reserved":false,"is_disabled":false,"rental_uris":{"android":"levelo://app?vid=47e9ef53-1c88-4754-ab80-a3fae01bcbd9","ios":"levelo://app?vid=47e9ef53-1c88-4754-ab80-a3fae01bcbd9"},"vehicle_type_id":"4","last_reported":1690394880,"current_range_meters":6000,"station_id":"ce4bhah2rcd13ifvqej0","pricing_plan_id":"free"},{"bike_id":"bbe53738-0832-43dc-af9f-86851becbc39","system_id":"levelo_inurba_marseille","lat":43.298681,"lon":5.397225,"is_reserved":false,"is_disabled":false,"rental_uris":{"android":"levelo://app?vid=bbe53738-0832-43dc-af9f-86851becbc39","ios":"levelo://app?vid=bbe53738-0832-43dc-af9f-86851becbc39"},"vehicle_type_id":"4","last_reported":1690394880,"current_range_meters":22400,"station_id":"ce4bh0h2rcd13ifvqd50","pricing_plan_id":"free"},{"bike_id":"18e0d8cf-da73-4c3f-b4a4-8915cc0e3d0c","system_id":"levelo_inurba_marseille","lat":43.298681,"lon":5.397225,"is_reserved":false,"is_disabled":false,"rental_uris":{"android":"levelo://app?vid=18e0d8cf-da73-4c3f-b4a4-8915cc0e3d0c","ios":"levelo://app?vid=18e0d8cf-da73-4c3f-b4a4-8915cc0e3d0c"},"vehicle_type_id":"4","last_reported":1690394880,"current_range_meters":8800,"station_id":"ce4bh0h2rcd13ifvqd50","pricing_plan_id":"free"},{"bike_id":"8b21568d-3d8d-4193-8995-14902b370de8","system_id":"levelo_inurba_marseille","lat":43.298681,"lon":5.397225,"is_reserved":false,"is_disabled":false,"rental_uris":{"android":"levelo://app?vid=8b21568d-3d8d-4193-8995-14902b370de8","ios":"levelo://app?vid=8b21568d-3d8d-4193-8995-14902b370de8"},"vehicle_type_id":"4","last_reported":1690394880,"current_range_meters":28400,"station_id":"ce4bh0h2rcd13ifvqd50","pricing_plan_id":"free"},{"bike_id":"1dc21745-5270-474c-bc22-22a816a7d20e","system_id":"levelo_inurba_marseille","lat":43.28668,"lon":5.36361,"is_reserved":false,"is_disabled":false,"rental_uris":{"android":"levelo://app?vid=1dc21745-5270-474c-bc22-22a816a7d20e","ios":"levelo://app?vid=1dc21745-5270-474c-bc22-22a816a7d20e"},"vehicle_type_id":"4","last_reported":1690394880,"current_range_meters":5600,"station_id":"ce4bhah2rcd13ifvqej0","pricing_plan_id":"free"},{"bike_id":"0e00a71c-4b77-4533-91da-e7e28dabfa85","system_id":"levelo_inurba_marseille","lat":43.28667,"lon":5.36357,"is_reserved":false,"is_disabled":false,"rental_uris":{"android":"levelo://app?vid=0e00a71c-4b77-4533-91da-e7e28dabfa85","ios":"levelo://app?vid=0e00a71c-4b77-4533-91da-e7e28dabfa85"},"vehicle_type_id":"4","last_reported":1690394880,"current_range_meters":23600,"station_id":"ce4bhah2rcd13ifvqej0","pricing_plan_id":"free"},{"bike_id":"b544d456-3ff3-4a8c-ac4c-ca86490e5e9c","system_id":"levelo_inurba_marseille","lat":43.298681,"lon":5.397225,"is_reserved":false,"is_disabled":false,"rental_uris":{"android":"levelo://app?vid=b544d456-3ff3-4a8c-ac4c-ca86490e5e9c","ios":"levelo://app?vid=b544d456-3ff3-4a8c-ac4c-ca86490e5e9c"},"vehicle_type_id":"4","last_reported":1690394880,"current_range_meters":14400,"station_id":"ce4bh0h2rcd13ifvqd50","pricing_plan_id":"free"},{"bike_id":"bafd0812-35ed-477c-894f-505f79f945fd","system_id":"levelo_inurba_marseille","lat":43.28666,"lon":5.36352,"is_reserved":false,"is_disabled":false,"rental_uris":{"android":"levelo://app?vid=bafd0812-35ed-477c-894f-505f79f945fd","ios":"levelo://app?vid=bafd0812-35ed-477c-894f-505f79f945fd"},"vehicle_type_id":"4","last_reported":1690394880,"current_range_meters":19600,"station_id":"ce4bhah2rcd13ifvqej0","pricing_plan_id":"free"},{"bike_id":"52f81e5d-bbe6-41a1-8a5e-d41baec2b7a0","system_id":"levelo_inurba_marseille","lat":43.298681,"lon":5.397225,"is_reserved":false,"is_disabled":false,"rental_uris":{"android":"levelo://app?vid=52f81e5d-bbe6-41a1-8a5e-d41baec2b7a0","ios":"levelo://app?vid=52f81e5d-bbe6-41a1-8a5e-d41baec2b7a0"},"vehicle_type_id":"4","last_reported":1690394880,"current_range_meters":29600,"station_id":"ce4bh0h2rcd13ifvqd50","pricing_plan_id":"free"},{"bike_id":"ac9c4490-0706-446e-82e5-e73370717b23","system_id":"levelo_inurba_marseille","lat":43.298681,"lon":5.397225,"is_reserved":false,"is_disabled":false,"rental_uris":{"android":"levelo://app?vid=ac9c4490-0706-446e-82e5-e73370717b23","ios":"levelo://app?vid=ac9c4490-0706-446e-82e5-e73370717b23"},"vehicle_type_id":"4","last_reported":1690394880,"current_range_meters":30000,"station_id":"ce4bh0h2rcd13ifvqd50","pricing_plan_id":"free"},{"bike_id":"e77b7c5f-05bc-4d6c-a53e-5014be2bb4a2","system_id":"levelo_inurba_marseille","lat":43.28661,"lon":5.36351,"is_reserved":false,"is_disabled":false,"rental_uris":{"android":"levelo://app?vid=e77b7c5f-05bc-4d6c-a53e-5014be2bb4a2","ios":"levelo://app?vid=e77b7c5f-05bc-4d6c-a53e-5014be2bb4a2"},"vehicle_type_id":"4","last_reported":1690394880,"current_range_meters":25200,"station_id":"ce4bhah2rcd13ifvqej0","pricing_plan_id":"free"},{"bike_id":"75199276-b705-4ad7-b6a9-49aeaa84628a","system_id":"levelo_inurba_marseille","lat":43.286593,"lon":5.363346,"is_reserved":false,"is_disabled":false,"rental_uris":{"android":"levelo://app?vid=75199276-b705-4ad7-b6a9-49aeaa84628a","ios":"levelo://app?vid=75199276-b705-4ad7-b6a9-49aeaa84628a"},"vehicle_type_id":"4","last_reported":1690394880,"current_range_meters":31600,"station_id":"ce4bhah2rcd13ifvqej0","pricing_plan_id":"free"},{"bike_id":"0d3fe910-1b28-4018-bef7-c7270aeda662","system_id":"levelo_inurba_marseille","lat":43.298681,"lon":5.397225,"is_reserved":false,"is_disabled":false,"rental_uris":{"android":"levelo://app?vid=0d3fe910-1b28-4018-bef7-c7270aeda662","ios":"levelo://app?vid=0d3fe910-1b28-4018-bef7-c7270aeda662"},"vehicle_type_id":"4","last_reported":1690394880,"current_range_meters":2400,"station_id":"ce4bh0h2rcd13ifvqd50","pricing_plan_id":"free"},{"bike_id":"5b2bcbaf-82f8-43e1-b648-a8650fac8df0","system_id":"levelo_inurba_marseille","lat":43.2866,"lon":5.36355,"is_reserved":false,"is_disabled":false,"rental_uris":{"android":"levelo://app?vid=5b2bcbaf-82f8-43e1-b648-a8650fac8df0","ios":"levelo://app?vid=5b2bcbaf-82f8-43e1-b648-a8650fac8df0"},"vehicle_type_id":"4","last_reported":1690394880,"current_range_meters":19200,"station_id":"ce4bhah2rcd13ifvqej0","pricing_plan_id":"free"},{"bike_id":"c98b4b16-9636-4429-bb99-27f96b18d203","system_id":"levelo_inurba_marseille","lat":43.298681,"lon":5.397225,"is_reserved":false,"is_disabled":false,"rental_uris":{"android":"levelo://app?vid=c98b4b16-9636-4429-bb99-27f96b18d203","ios":"levelo://app?vid=c98b4b16-9636-4429-bb99-27f96b18d203"},"vehicle_type_id":"4","last_reported":1690394880,"current_range_meters":23600,"station_id":"ce4bh0h2rcd13ifvqd50","pricing_plan_id":"free"},{"bike_id":"576b72d5-5a63-4d2f-9c2b-c8086b212cdf","system_id":"levelo_inurba_marseille","lat":43.298681,"lon":5.397225,"is_reserved":false,"is_disabled":false,"rental_uris":{"android":"levelo://app?vid=576b72d5-5a63-4d2f-9c2b-c8086b212cdf","ios":"levelo://app?vid=576b72d5-5a63-4d2f-9c2b-c8086b212cdf"},"vehicle_type_id":"4","last_reported":1690394880,"current_range_meters":12000,"station_id":"ce4bh0h2rcd13ifvqd50","pricing_plan_id":"free"},{"bike_id":"344eb37c-0bdb-4fc5-8161-5cb93e4de0fa","system_id":"levelo_inurba_marseille","lat":43.286593,"lon":5.363346,"is_reserved":false,"is_disabled":false,"rental_uris":{"android":"levelo://app?vid=344eb37c-0bdb-4fc5-8161-5cb93e4de0fa","ios":"levelo://app?vid=344eb37c-0bdb-4fc5-8161-5cb93e4de0fa"},"vehicle_type_id":"4","last_reported":1690394880,"current_range_meters":16800,"station_id":"ce4bhah2rcd13ifvqej0","pricing_plan_id":"free"},{"bike_id":"aa55644d-18ad-4bfd-be90-54e428077b08","system_id":"levelo_inurba_marseille","lat":43.295194,"lon":5.39397,"is_reserved":false,"is_disabled":false,"rental_uris":{"android":"levelo://app?vid=aa55644d-18ad-4bfd-be90-54e428077b08","ios":"levelo://app?vid=aa55644d-18ad-4bfd-be90-54e428077b08"},"vehicle_type_id":"4","last_reported":1690394880,"current_range_meters":24400,"station_id":"ce4bh292rcd13ifvqdf0","pricing_plan_id":"free"},{"bike_id":"527d20a7-770b-4d5b-adbd-0cc43f0a8ae2","system_id":"levelo_inurba_marseille","lat":43.28653,"lon":5.36358,"is_reserved":false,"is_disabled":false,"rental_uris":{"android":"levelo://app?vid=527d20a7-770b-4d5b-adbd-0cc43f0a8ae2","ios":"levelo://app?vid=527d20a7-770b-4d5b-adbd-0cc43f0a8ae2"},"vehicle_type_id":"4","last_reported":1690394880,"current_range_meters":7600,"station_id":"ce4bhah2rcd13ifvqej0","pricing_plan_id":"free"},{"bike_id":"7600f144-7435-42e4-80e1-44e586113a03","system_id":"levelo_inurba_marseille","lat":43.28652,"lon":5.36339,"is_reserved":false,"is_disabled":false,"rental_uris":{"android":"levelo://app?vid=7600f144-7435-42e4-80e1-44e586113a03","ios":"levelo://app?vid=7600f144-7435-42e4-80e1-44e586113a03"},"vehicle_type_id":"4","last_reported":1690394880,"current_range_meters":11600,"station_id":"ce4bhah2rcd13ifvqej0","pricing_plan_id":"free"},{"bike_id":"5b611812-3e9b-46e7-8061-e66b1dda5b3f","system_id":"levelo_inurba_marseille","lat":43.295196,"lon":5.39397,"is_reserved":false,"is_disabled":false,"rental_uris":{"android":"levelo://app?vid=5b611812-3e9b-46e7-8061-e66b1dda5b3f","ios":"levelo://app?vid=5b611812-3e9b-46e7-8061-e66b1dda5b3f"},"vehicle_type_id":"4","last_reported":1690394880,"current_range_meters":6000,"station_id":"ce4bh292rcd13ifvqdf0","pricing_plan_id":"free"},{"bike_id":"5c45a20c-ecfb-4a93-98bb-4772b0d9fb27","system_id":"levelo_inurba_marseille","lat":43.295194,"lon":5.39397,"is_reserved":false,"is_disabled":false,"rental_uris":{"android":"levelo://app?vid=5c45a20c-ecfb-4a93-98bb-4772b0d9fb27","ios":"levelo://app?vid=5c45a20c-ecfb-4a93-98bb-4772b0d9fb27"},"vehicle_type_id":"4","last_reported":1690394880,"current_range_meters":16000,"station_id":"ce4bh292rcd13ifvqdf0","pricing_plan_id":"free"},{"bike_id":"49a9f8dd-8d8d-4916-ab4c-e0f43329f377","system_id":"levelo_inurba_marseille","lat":43.295196,"lon":5.39397,"is_reserved":false,"is_disabled":false,"rental_uris":{"android":"levelo://app?vid=49a9f8dd-8d8d-4916-ab4c-e0f43329f377","ios":"levelo://app?vid=49a9f8dd-8d8d-4916-ab4c-e0f43329f377"},"vehicle_type_id":"4","last_reported":1690394880,"current_range_meters":0,"station_id":"ce4bh292rcd13ifvqdf0","pricing_plan_id":"free"},{"bike_id":"209afc9d-8c2d-41e0-bb20-ef2025d952aa","system_id":"levelo_inurba_marseille","lat":43.295196,"lon":5.39397,"is_reserved":false,"is_disabled":false,"rental_uris":{"android":"levelo://app?vid=209afc9d-8c2d-41e0-bb20-ef2025d952aa","ios":"levelo://app?vid=209afc9d-8c2d-41e0-bb20-ef2025d952aa"},"vehicle_type_id":"4","last_reported":1690394880,"current_range_meters":0,"station_id":"ce4bh292rcd13ifvqdf0","pricing_plan_id":"free"},{"bike_id":"a2ad25cd-608b-4589-b620-5053472716fc","system_id":"levelo_inurba_marseille","lat":43.29513,"lon":5.39402,"is_reserved":false,"is_disabled":false,"rental_uris":{"android":"levelo://app?vid=a2ad25cd-608b-4589-b620-5053472716fc","ios":"levelo://app?vid=a2ad25cd-608b-4589-b620-5053472716fc"},"vehicle_type_id":"4","last_reported":1690394880,"current_range_meters":19600,"station_id":"ce4bh292rcd13ifvqdf0","pricing_plan_id":"free"},{"bike_id":"40c0e582-1572-410a-b82b-620c04da42f4","system_id":"levelo_inurba_marseille","lat":43.30253,"lon":5.40049,"is_reserved":false,"is_disabled":false,"rental_uris":{"android":"levelo://app?vid=40c0e582-1572-410a-b82b-620c04da42f4","ios":"levelo://app?vid=40c0e582-1572-410a-b82b-620c04da42f4"},"vehicle_type_id":"4","last_reported":1690394880,"current_range_meters":21200,"station_id":"","pricing_plan_id":"free"},{"bike_id":"318627ef-0e86-4870-bb0c-3b4f1d23ad24","system_id":"levelo_inurba_marseille","lat":43.290345,"lon":5.38646,"is_reserved":false,"is_disabled":false,"rental_uris":{"android":"levelo://app?vid=318627ef-0e86-4870-bb0c-3b4f1d23ad24","ios":"levelo://app?vid=318627ef-0e86-4870-bb0c-3b4f1d23ad24"},"vehicle_type_id":"4","last_reported":1690394880,"current_range_meters":18000,"station_id":"ce4bh4p2rcd13ifvqe0g","pricing_plan_id":"free"},{"bike_id":"52bf83e8-bd14-4311-bd93-b5a85fcbfde1","system_id":"levelo_inurba_marseille","lat":43.290336,"lon":5.386425,"is_reserved":false,"is_disabled":false,"rental_uris":{"android":"levelo://app?vid=52bf83e8-bd14-4311-bd93-b5a85fcbfde1","ios":"levelo://app?vid=52bf83e8-bd14-4311-bd93-b5a85fcbfde1"},"vehicle_type_id":"4","last_reported":1690394880,"current_range_meters":9200,"station_id":"ce4bh4p2rcd13ifvqe0g","pricing_plan_id":"free"},{"bike_id":"0b7ad896-4462-4103-bf34-bbcbde517933","system_id":"levelo_inurba_marseille","lat":43.290345,"lon":5.38646,"is_reserved":false,"is_disabled":false,"rental_uris":{"android":"levelo://app?vid=0b7ad896-4462-4103-bf34-bbcbde517933","ios":"levelo://app?vid=0b7ad896-4462-4103-bf34-bbcbde517933"},"vehicle_type_id":"4","last_reported":1690394880,"current_range_meters":18400,"station_id":"ce4bh4p2rcd13ifvqe0g","pricing_plan_id":"free"},{"bike_id":"f182fb75-795a-40df-89b4-040cf8cd9b87","system_id":"levelo_inurba_marseille","lat":43.290336,"lon":5.386425,"is_reserved":false,"is_disabled":false,"rental_uris":{"android":"levelo://app?vid=f182fb75-795a-40df-89b4-040cf8cd9b87","ios":"levelo://app?vid=f182fb75-795a-40df-89b4-040cf8cd9b87"},"vehicle_type_id":"4","last_reported":1690394880,"current_range_meters":9600,"station_id":"ce4bh4p2rcd13ifvqe0g","pricing_plan_id":"free"},{"bike_id":"9053bbac-cedc-4073-a62d-56f3345ddf5c","system_id":"levelo_inurba_marseille","lat":43.290336,"lon":5.386425,"is_reserved":false,"is_disabled":false,"rental_uris":{"android":"levelo://app?vid=9053bbac-cedc-4073-a62d-56f3345ddf5c","ios":"levelo://app?vid=9053bbac-cedc-4073-a62d-56f3345ddf5c"},"vehicle_type_id":"4","last_reported":1690394880,"current_range_meters":15600,"station_id":"ce4bh4p2rcd13ifvqe0g","pricing_plan_id":"free"},{"bike_id":"6b2172b0-514e-46ba-a8f7-81272badde8e","system_id":"levelo_inurba_marseille","lat":43.302759,"lon":5.400793,"is_reserved":false,"is_disabled":false,"rental_uris":{"android":"levelo://app?vid=6b2172b0-514e-46ba-a8f7-81272badde8e","ios":"levelo://app?vid=6b2172b0-514e-46ba-a8f7-81272badde8e"},"vehicle_type_id":"4","last_reported":1690394880,"current_range_meters":0,"station_id":"ce4bgvh2rcd13ifvqcs0","pricing_plan_id":"free"},{"bike_id":"a4647551-8c68-465e-bf05-13f1b90e0d53","system_id":"levelo_inurba_marseille","lat":43.290345,"lon":5.38646,"is_reserved":false,"is_disabled":false,"rental_uris":{"android":"levelo://app?vid=a4647551-8c68-465e-bf05-13f1b90e0d53","ios":"levelo://app?vid=a4647551-8c68-465e-bf05-13f1b90e0d53"},"vehicle_type_id":"4","last_reported":1690394880,"current_range_meters":16800,"station_id":"ce4bh4p2rcd13ifvqe0g","pricing_plan_id":"free"},{"bike_id":"0856343f-529d-4be7-ab89-29d88dc30866","system_id":"levelo_inurba_marseille","lat":43.286039,"lon":5.370679,"is_reserved":false,"is_disabled":false,"rental_uris":{"android":"levelo://app?vid=0856343f-529d-4be7-ab89-29d88dc30866","ios":"levelo://app?vid=0856343f-529d-4be7-ab89-29d88dc30866"},"vehicle_type_id":"4","last_reported":1690394880,"current_range_meters":28800,"station_id":"ce4bht12rcd13ifvqi60","pricing_plan_id":"free"},{"bike_id":"78c8901d-43c9-43ce-8ae3-a2f55f035097","system_id":"levelo_inurba_marseille","lat":43.286039,"lon":5.370679,"is_reserved":false,"is_disabled":false,"rental_uris":{"android":"levelo://app?vid=78c8901d-43c9-43ce-8ae3-a2f55f035097","ios":"levelo://app?vid=78c8901d-43c9-43ce-8ae3-a2f55f035097"},"vehicle_type_id":"4","last_reported":1690394880,"current_range_meters":8800,"station_id":"ce4bht12rcd13ifvqi60","pricing_plan_id":"free"},{"bike_id":"4dd8b62c-13ae-497a-8eb3-e1b275ff65bb","system_id":"levelo_inurba_marseille","lat":43.286039,"lon":5.370679,"is_reserved":false,"is_disabled":false,"rental_uris":{"android":"levelo://app?vid=4dd8b62c-13ae-497a-8eb3-e1b275ff65bb","ios":"levelo://app?vid=4dd8b62c-13ae-497a-8eb3-e1b275ff65bb"},"vehicle_type_id":"4","last_reported":1690394880,"current_range_meters":6000,"station_id":"ce4bht12rcd13ifvqi60","pricing_plan_id":"free"},{"bike_id":"c3839b7c-44b8-4cc7-904f-021dd9f4fcc6","system_id":"levelo_inurba_marseille","lat":43.286127,"lon":5.3706,"is_reserved":false,"is_disabled":false,"rental_uris":{"android":"levelo://app?vid=c3839b7c-44b8-4cc7-904f-021dd9f4fcc6","ios":"levelo://app?vid=c3839b7c-44b8-4cc7-904f-021dd9f4fcc6"},"vehicle_type_id":"4","last_reported":1690394880,"current_range_meters":12800,"station_id":"ce4bht12rcd13ifvqi60","pricing_plan_id":"free"},{"bike_id":"51ee962b-ab39-4298-8b51-b577abb6c5c1","system_id":"levelo_inurba_marseille","lat":43.286039,"lon":5.370679,"is_reserved":false,"is_disabled":false,"rental_uris":{"android":"levelo://app?vid=51ee962b-ab39-4298-8b51-b577abb6c5c1","ios":"levelo://app?vid=51ee962b-ab39-4298-8b51-b577abb6c5c1"},"vehicle_type_id":"4","last_reported":1690394880,"current_range_meters":17600,"station_id":"ce4bht12rcd13ifvqi60","pricing_plan_id":"free"},{"bike_id":"c81e2a17-8b37-4c97-8dff-d1368a95f4b7","system_id":"levelo_inurba_marseille","lat":43.28611,"lon":5.37064,"is_reserved":false,"is_disabled":false,"rental_uris":{"android":"levelo://app?vid=c81e2a17-8b37-4c97-8dff-d1368a95f4b7","ios":"levelo://app?vid=c81e2a17-8b37-4c97-8dff-d1368a95f4b7"},"vehicle_type_id":"4","last_reported":1690394880,"current_range_meters":20800,"station_id":"ce4bht12rcd13ifvqi60","pricing_plan_id":"free"},{"bike_id":"6f00759f-18b7-44e7-ad46-82095474b564","system_id":"levelo_inurba_marseille","lat":43.28611,"lon":5.37067,"is_reserved":false,"is_disabled":false,"rental_uris":{"android":"levelo://app?vid=6f00759f-18b7-44e7-ad46-82095474b564","ios":"levelo://app?vid=6f00759f-18b7-44e7-ad46-82095474b564"},"vehicle_type_id":"4","last_reported":1690394880,"current_range_meters":22400,"station_id":"ce4bht12rcd13ifvqi60","pricing_plan_id":"free"},{"bike_id":"e7c94b56-adb9-4a05-a3b8-280b1ebdb16b","system_id":"levelo_inurba_marseille","lat":43.290336,"lon":5.386425,"is_reserved":false,"is_disabled":false,"rental_uris":{"android":"levelo://app?vid=e7c94b56-adb9-4a05-a3b8-280b1ebdb16b","ios":"levelo://app?vid=e7c94b56-adb9-4a05-a3b8-280b1ebdb16b"},"vehicle_type_id":"4","last_reported":1690394880,"current_range_meters":16400,"station_id":"ce4bh4p2rcd13ifvqe0g","pricing_plan_id":"free"},{"bike_id":"e06bb43c-6899-46ae-9b91-8856cffe68cb","system_id":"levelo_inurba_marseille","lat":43.28605,"lon":5.37064,"is_reserved":false,"is_disabled":false,"rental_uris":{"android":"levelo://app?vid=e06bb43c-6899-46ae-9b91-8856cffe68cb","ios":"levelo://app?vid=e06bb43c-6899-46ae-9b91-8856cffe68cb"},"vehicle_type_id":"4","last_reported":1690394880,"current_range_meters":5200,"station_id":"ce4bht12rcd13ifvqi60","pricing_plan_id":"free"},{"bike_id":"69308482-8843-453f-8b1b-04701e58877e","system_id":"levelo_inurba_marseille","lat":43.28605,"lon":5.37071,"is_reserved":false,"is_disabled":false,"rental_uris":{"android":"levelo://app?vid=69308482-8843-453f-8b1b-04701e58877e","ios":"levelo://app?vid=69308482-8843-453f-8b1b-04701e58877e"},"vehicle_type_id":"4","last_reported":1690394880,"current_range_meters":19600,"station_id":"ce4bht12rcd13ifvqi60","pricing_plan_id":"free"},{"bike_id":"2664dbb8-8299-4322-b0fc-61b1fba93ac8","system_id":"levelo_inurba_marseille","lat":43.28708,"lon":5.37932,"is_reserved":false,"is_disabled":false,"rental_uris":{"android":"levelo://app?vid=2664dbb8-8299-4322-b0fc-61b1fba93ac8","ios":"levelo://app?vid=2664dbb8-8299-4322-b0fc-61b1fba93ac8"},"vehicle_type_id":"4","last_reported":1690394880,"current_range_meters":29200,"station_id":"ce4bh9p2rcd13ifvqec0","pricing_plan_id":"free"},{"bike_id":"f95afa72-795f-45e6-98ba-11ec4f2298bc","system_id":"levelo_inurba_marseille","lat":43.28769,"lon":5.35227,"is_reserved":false,"is_disabled":false,"rental_uris":{"android":"levelo://app?vid=f95afa72-795f-45e6-98ba-11ec4f2298bc","ios":"levelo://app?vid=f95afa72-795f-45e6-98ba-11ec4f2298bc"},"vehicle_type_id":"4","last_reported":1690394880,"current_range_meters":30000,"station_id":"ce4bhch2rcd13ifvqeug","pricing_plan_id":"free"},{"bike_id":"77fe5610-765d-4469-b206-308a62cb8bfc","system_id":"levelo_inurba_marseille","lat":43.291994,"lon":5.392907,"is_reserved":false,"is_disabled":false,"rental_uris":{"android":"levelo://app?vid=77fe5610-765d-4469-b206-308a62cb8bfc","ios":"levelo://app?vid=77fe5610-765d-4469-b206-308a62cb8bfc"},"vehicle_type_id":"4","last_reported":1690394880,"current_range_meters":28800,"station_id":"ce4bh192rcd13ifvqdd0","pricing_plan_id":"free"},{"bike_id":"5a7f2ed1-3dd8-490f-876a-c43ec6be91c5","system_id":"levelo_inurba_marseille","lat":43.28462,"lon":5.35888,"is_reserved":false,"is_disabled":false,"rental_uris":{"android":"levelo://app?vid=5a7f2ed1-3dd8-490f-876a-c43ec6be91c5","ios":"levelo://app?vid=5a7f2ed1-3dd8-490f-876a-c43ec6be91c5"},