{"last_updated":1735477945,"ttl":60,"version":"2.2","data":{"bikes":[{"bike_id":"adad6dfd-96f6-4a99-975b-065c2289d166","system_id":"levelo_inurba_marseille","lat":43.29225,"lon":5.36068,"is_reserved":false,"is_disabled":false,"rental_uris":{"android":"levelo://app?vid=adad6dfd-96f6-4a99-975b-065c2289d166","ios":"levelo://app?vid=adad6dfd-96f6-4a99-975b-065c2289d166"},"vehicle_type_id":"4","last_reported":1735477946,"current_range_meters":20800,"station_id":"ce4bhbh2rcd13ifvqeqg","pricing_plan_id":"cebpf4jnsgd1na2vs0mg"},{"bike_id":"1ed0b79b-94a5-43ce-a19b-ce6172504605","system_id":"levelo_inurba_marseille","lat":43.30532,"lon":5.36537,"is_reserved":false,"is_disabled":false,"rental_uris":{"android":"levelo://app?vid=1ed0b79b-94a5-43ce-a19b-ce6172504605","ios":"levelo://app?vid=1ed0b79b-94a5-43ce-a19b-ce6172504605"},"vehicle_type_id":"4","last_reported":1735477946,"current_range_meters":35200,"station_id":"ce4bgs12rcd13ifvqcag","pricing_plan_id":"cebpf4jnsgd1na2vs0mg"},{"bike_id":"e23e3f9c-e18e-47f5-9f36-7ffa157d262c","system_id":"levelo_inurba_marseille","lat":43.31716,"lon":5.43708,"is_reserved":false,"is_disabled":false,"rental_uris":{"android":"levelo://app?vid=e23e3f9c-e18e-47f5-9f36-7ffa157d262c","ios":"levelo://app?vid=e23e3f9c-e18e-47f5-9f36-7ffa157d262c"},"vehicle_type_id":"4","last_reported":1735477946,"current_range_meters":24400,"station_id":"ce4bhp92rcd13ifvqhcg","pricing_plan_id":"cebpf4jnsgd1na2vs0mg"},{"bike_id":"3cd07717-aa11-45a5-9c23-d966f2904885","system_id":"levelo_inurba_marseille","lat":43.23197,"lon":5.3556,"is_reserved":false,"is_disabled":false,"rental_uris":{"android":"levelo://app?vid=3cd07717-aa11-45a5-9c23-d966f2904885","ios":"levelo://app?vid=3cd07717-aa11-45a5-9c23-d966f2904885"},"vehicle_type_id":"4","last_reported":1735477946,"current_range_meters":12000,"station_id":"ce4bhu92rcd13ifvqi70","pricing_plan_id":"cebpf4jnsgd1na2vs0mg"},{"bike_id":"17467958-a151-40f2-98e4-bb65ea00e49d","system_id":"levelo_inurba_marseille","lat":43.279528,"lon":5.410423,"is_reserved":false,"is_disabled":false,"rental_uris":{"android":"levelo://app?vid=17467958-a151-40f2-98e4-bb65ea00e49d","ios":"levelo://app?vid=17467958-a151-40f2-98e4-bb65ea00e49d"},"vehicle_type_id":"4","last_reported":1735477946,"current_range_meters":32800,"station_id":"ce4bhnp2rcd13ifvqh0g","pricing_plan_id":"cebpf4jnsgd1na2vs0mg"},{"bike_id":"5bfdf3cb-759f-4fcb-b5b1-cbf9184cf8fc","system_id":"levelo_inurba_marseille","lat":43.297096,"lon":5.376869,"is_reserved":false,"is_disabled":false,"rental_uris":{"android":"levelo://app?vid=5bfdf3cb-759f-4fcb-b5b1-cbf9184cf8fc","ios":"levelo://app?vid=5bfdf3cb-759f-4fcb-b5b1-cbf9184cf8fc"},"vehicle_type_id":"4","last_reported":1735477946,"current_range_meters":37600,"station_id":"ce4bgkh2rcd13ifvqbl0","pricing_plan_id":"cebpf4jnsgd1na2vs0mg"},{"bike_id":"3991aac2-ec7f-43c8-801f-23e11845f2d6","system_id":"levelo_inurba_marseille","lat":43.28157,"lon":5.42658,"is_reserved":false,"is_disabled":false,"rental_uris":{"android":"levelo://app?vid=3991aac2-ec7f-43c8-801f-23e11845f2d6","ios":"levelo://app?vid=3991aac2-ec7f-43c8-801f-23e11845f2d6"},"vehicle_type_id":"4","last_reported":1735477946,"current_range_meters":38800,"station_id":"ce4bhnh2rcd13ifvqgug","pricing_plan_id":"cebpf4jnsgd1na2vs0mg"},{"bike_id":"638688e6-43f6-4349-8097-51163ecc97e4","system_id":"levelo_inurba_marseille","lat":43.28273,"lon":5.35083,"is_reserved":false,"is_disabled":false,"rental_uris":{"android":"levelo://app?vid=638688e6-43f6-4349-8097-51163ecc97e4","ios":"levelo://app?vid=638688e6-43f6-4349-8097-51163ecc97e4"},"vehicle_type_id":"4","last_reported":1735477946,"current_range_meters":26000,"station_id":"ce4bhbp2rcd13ifvqerg","pricing_plan_id":"cebpf4jnsgd1na2vs0mg"},{"bike_id":"2ea68e01-0790-4008-9d7e-16a85bf4d316","system_id":"levelo_inurba_marseille","lat":43.320458,"lon":5.415498,"is_reserved":false,"is_disabled":false,"rental_uris":{"android":"levelo://app?vid=2ea68e01-0790-4008-9d7e-16a85bf4d316","ios":"levelo://app?vid=2ea68e01-0790-4008-9d7e-16a85bf4d316"},"vehicle_type_id":"4","last_reported":1735477946,"current_range_meters":37600,"station_id":"ce4bhq92rcd13ifvqhkg","pricing_plan_id":"cebpf4jnsgd1na2vs0mg"},{"bike_id":"6a7f4062-1ef7-4669-90bb-74085051c932","system_id":"levelo_inurba_marseille","lat":43.30776,"lon":5.37651,"is_reserved":false,"is_disabled":false,"rental_uris":{"android":"levelo://app?vid=6a7f4062-1ef7-4669-90bb-74085051c932","ios":"levelo://app?vid=6a7f4062-1ef7-4669-90bb-74085051c932"},"vehicle_type_id":"4","last_reported":1735477946,"current_range_meters":31200,"station_id":"ce4bgv92rcd13ifvqcq0","pricing_plan_id":"cebpf4jnsgd1na2vs0mg"},{"bike_id":"2da0e36b-1a04-4e16-910d-70939a3cc892","system_id":"levelo_inurba_marseille","lat":43.27378,"lon":5.36263,"is_reserved":false,"is_disabled":false,"rental_uris":{"android":"levelo://app?vid=2da0e36b-1a04-4e16-910d-70939a3cc892","ios":"levelo://app?vid=2da0e36b-1a04-4e16-910d-70939a3cc892"},"vehicle_type_id":"4","last_reported":1735477946,"current_range_meters":24000,"station_id":"ce4bhbh2rcd13ifvqeo0","pricing_plan_id":"cebpf4jnsgd1na2vs0mg"},{"bike_id":"3b3d2c75-4195-4f81-af35-afa13ebc8eea","system_id":"levelo_inurba_marseille","lat":43.27386,"lon":5.36258,"is_reserved":false,"is_disabled":true,"rental_uris":{"android":"levelo://app?vid=3b3d2c75-4195-4f81-af35-afa13ebc8eea","ios":"levelo://app?vid=3b3d2c75-4195-4f81-af35-afa13ebc8eea"},"vehicle_type_id":"4","last_reported":1735477946,"current_range_meters":27200,"station_id":"ce4bhbh2rcd13ifvqeo0","pricing_plan_id":"cebpf4jnsgd1na2vs0mg"},{"bike_id":"11850572-7aeb-42b1-a1ef-fd7764614105","system_id":"levelo_inurba_marseille","lat":43.23194,"lon":5.35547,"is_reserved":false,"is_disabled":false,"rental_uris":{"android":"levelo://app?vid=11850572-7aeb-42b1-a1ef-fd7764614105","ios":"levelo://app?vid=11850572-7aeb-42b1-a1ef-fd7764614105"},"vehicle_type_id":"4","last_reported":1735477946,"current_range_meters":28000,"station_id":"ce4bhu92rcd13ifvqi70","pricing_plan_id":"cebpf4jnsgd1na2vs0mg"},{"bike_id":"350b38e2-bdb8-463d-a5c0-b63752aa6a30","system_id":"levelo_inurba_marseille","lat":43.28418,"lon":5.34995,"is_reserved":false,"is_disabled":false,"rental_uris":{"android":"levelo://app?vid=350b38e2-bdb8-463d-a5c0-b63752aa6a30","ios":"levelo://app?vid=350b38e2-bdb8-463d-a5c0-b63752aa6a30"},"vehicle_type_id":"4","last_reported":1735477946,"current_range_meters":27200,"station_id":"ce4bhbh2rcd13ifvqepg","pricing_plan_id":"cebpf4jnsgd1na2vs0mg"},{"bike_id":"71ca0ec7-4f8c-4ae2-b587-1dca9d733aa5","system_id":"levelo_inurba_marseille","lat":43.2985,"lon":5.36287,"is_reserved":false,"is_disabled":false,"rental_uris":{"android":"levelo://app?vid=71ca0ec7-4f8c-4ae2-b587-1dca9d733aa5","ios":"levelo://app?vid=71ca0ec7-4f8c-4ae2-b587-1dca9d733aa5"},"vehicle_type_id":"4","last_reported":1735477946,"current_range_meters":17200,"station_id":"ce4bgpp2rcd13ifvqc3g","pricing_plan_id":"cebpf4jnsgd1na2vs0mg"},{"bike_id":"4afaa01d-2154-4233-8360-224b59b51008","system_id":"levelo_inurba_marseille","lat":43.31476,"lon":5.372881,"is_reserved":false,"is_disabled":false,"rental_uris":{"android":"levelo://app?vid=4afaa01d-2154-4233-8360-224b59b51008","ios":"levelo://app?vid=4afaa01d-2154-4233-8360-224b59b51008"},"vehicle_type_id":"4","last_reported":1735477946,"current_range_meters":38000,"station_id":"ce4bgt12rcd13ifvqcd0","pricing_plan_id":"cebpf4jnsgd1na2vs0mg"},{"bike_id":"678407a6-1e00-48ee-9313-9dfab5bc6d8d","system_id":"levelo_inurba_marseille","lat":43.23962,"lon":5.36634,"is_reserved":false,"is_disabled":false,"rental_uris":{"android":"levelo://app?vid=678407a6-1e00-48ee-9313-9dfab5bc6d8d","ios":"levelo://app?vid=678407a6-1e00-48ee-9313-9dfab5bc6d8d"},"vehicle_type_id":"4","last_reported":1735477946,"current_range_meters":30000,"station_id":"ce4bhi12rcd13ifvqfp0","pricing_plan_id":"cebpf4jnsgd1na2vs0mg"},{"bike_id":"c22bbf32-8fa7-4c11-aec0-e06228310adf","system_id":"levelo_inurba_marseille","lat":43.31721,"lon":5.37412,"is_reserved":false,"is_disabled":false,"rental_uris":{"android":"levelo://app?vid=c22bbf32-8fa7-4c11-aec0-e06228310adf","ios":"levelo://app?vid=c22bbf32-8fa7-4c11-aec0-e06228310adf"},"vehicle_type_id":"4","last_reported":1735477946,"current_range_meters":32000,"station_id":"","pricing_plan_id":"cebpf4jnsgd1na2vs0mg"},{"bike_id":"dde23100-284b-476d-b6ea-b936ad5ae2e8","system_id":"levelo_inurba_marseille","lat":43.29595,"lon":5.38085,"is_reserved":false,"is_disabled":false,"rental_uris":{"android":"levelo://app?vid=dde23100-284b-476d-b6ea-b936ad5ae2e8","ios":"levelo://app?vid=dde23100-284b-476d-b6ea-b936ad5ae2e8"},"vehicle_type_id":"4","last_reported":1735477946,"current_range_meters":38800,"station_id":"ce4bgl12rcd13ifvqbo0","pricing_plan_id":"cebpf4jnsgd1na2vs0mg"},{"bike_id":"857344dd-6be1-4d34-90e7-6f62afbbef2e","system_id":"levelo_inurba_marseille","lat":43.32109,"lon":5.36769,"is_reserved":false,"is_disabled":false,"rental_uris":{"android":"levelo://app?vid=857344dd-6be1-4d34-90e7-6f62afbbef2e","ios":"levelo://app?vid=857344dd-6be1-4d34-90e7-6f62afbbef2e"},"vehicle_type_id":"4","last_reported":1735477946,"current_range_meters":28400,"station_id":"ce4bhrh2rcd13ifvqhug","pricing_plan_id":"cebpf4jnsgd1na2vs0mg"},{"bike_id":"f48cad58-1966-4a6e-b843-5f53e79a898e","system_id":"levelo_inurba_marseille","lat":43.2738,"lon":5.36254,"is_reserved":false,"is_disabled":false,"rental_uris":{"android":"levelo://app?vid=f48cad58-1966-4a6e-b843-5f53e79a898e","ios":"levelo://app?vid=f48cad58-1966-4a6e-b843-5f53e79a898e"},"vehicle_type_id":"4","last_reported":1735477946,"current_range_meters":13600,"station_id":"ce4bhbh2rcd13ifvqeo0","pricing_plan_id":"cebpf4jnsgd1na2vs0mg"},{"bike_id":"1533d15a-47b9-4fbc-8e1c-11ff2fd4cbf0","system_id":"levelo_inurba_marseille","lat":43.28416,"lon":5.34989,"is_reserved":false,"is_disabled":false,"rental_uris":{"android":"levelo://app?vid=1533d15a-47b9-4fbc-8e1c-11ff2fd4cbf0","ios":"levelo://app?vid=1533d15a-47b9-4fbc-8e1c-11ff2fd4cbf0"},"vehicle_type_id":"4","last_reported":1735477946,"current_range_meters":38000,"station_id":"ce4bhbh2rcd13ifvqepg","pricing_plan_id":"cebpf4jnsgd1na2vs0mg"},{"bike_id":"353a11f9-7601-454c-8af2-e5ea93e8a34d","system_id":"levelo_inurba_marseille","lat":43.27498,"lon":5.42451,"is_reserved":false,"is_disabled":false,"rental_uris":{"android":"levelo://app?vid=353a11f9-7601-454c-8af2-e5ea93e8a34d","ios":"levelo://app?vid=353a11f9-7601-454c-8af2-e5ea93e8a34d"},"vehicle_type_id":"4","last_reported":1735477946,"current_range_meters":38800,"station_id":"ce4bhn92rcd13ifvqgrg","pricing_plan_id":"cebpf4jnsgd1na2vs0mg"},{"bike_id":"2748eac1-d8f6-4c83-af0a-70c64a891d35","system_id":"levelo_inurba_marseille","lat":43.27564,"lon":5.38435,"is_reserved":false,"is_disabled":false,"rental_uris":{"android":"levelo://app?vid=2748eac1-d8f6-4c83-af0a-70c64a891d35","ios":"levelo://app?vid=2748eac1-d8f6-4c83-af0a-70c64a891d35"},"vehicle_type_id":"4","last_reported":1735477946,"current_range_meters":37600,"station_id":"ce4bhh92rcd13ifvqfi0","pricing_plan_id":"cebpf4jnsgd1na2vs0mg"},{"bike_id":"b4d130c6-4fa7-4fa3-83b8-3ae416781279","system_id":"levelo_inurba_marseille","lat":43.27442,"lon":5.39281,"is_reserved":false,"is_disabled":false,"rental_uris":{"android":"levelo://app?vid=b4d130c6-4fa7-4fa3-83b8-3ae416781279","ios":"levelo://app?vid=b4d130c6-4fa7-4fa3-83b8-3ae416781279"},"vehicle_type_id":"4","last_reported":1735477946,"current_range_meters":16400,"station_id":"","pricing_plan_id":"cebpf4jnsgd1na2vs0mg"},{"bike_id":"a8f15554-11d4-4eb2-a675-202d9b492aeb","system_id":"levelo_inurba_marseille","lat":43.2396,"lon":5.36634,"is_reserved":false,"is_disabled":false,"rental_uris":{"android":"levelo://app?vid=a8f15554-11d4-4eb2-a675-202d9b492aeb","ios":"levelo://app?vid=a8f15554-11d4-4eb2-a675-202d9b492aeb"},"vehicle_type_id":"4","last_reported":1735477946,"current_range_meters":16400,"station_id":"ce4bhi12rcd13ifvqfp0","pricing_plan_id":"cebpf4jnsgd1na2vs0mg"},{"bike_id":"4e6a6b09-c29d-4572-bd03-ffe64c36b39b","system_id":"levelo_inurba_marseille","lat":43.24074,"lon":5.37766,"is_reserved":false,"is_disabled":false,"rental_uris":{"android":"levelo://app?vid=4e6a6b09-c29d-4572-bd03-ffe64c36b39b","ios":"levelo://app?vid=4e6a6b09-c29d-4572-bd03-ffe64c36b39b"},"vehicle_type_id":"4","last_reported":1735477946,"current_range_meters":38800,"station_id":"ce4bhnp2rcd13ifvqgvg","pricing_plan_id":"cebpf4jnsgd1na2vs0mg"},{"bike_id":"cefa4e99-d23a-4f3e-a55c-511f406d8c11","system_id":"levelo_inurba_marseille","lat":43.2619,"lon":5.3745,"is_reserved":false,"is_disabled":false,"rental_uris":{"android":"levelo://app?vid=cefa4e99-d23a-4f3e-a55c-511f406d8c11","ios":"levelo://app?vid=cefa4e99-d23a-4f3e-a55c-511f406d8c11"},"vehicle_type_id":"4","last_reported":1735477946,"current_range_meters":38000,"station_id":"ce4bhgp2rcd13ifvqfc0","pricing_plan_id":"cebpf4jnsgd1na2vs0mg"},{"bike_id":"753fe1a2-6ec1-4d51-9513-13144401ea46","system_id":"levelo_inurba_marseille","lat":43.29167,"lon":5.3715,"is_reserved":false,"is_disabled":false,"rental_uris":{"android":"levelo://app?vid=753fe1a2-6ec1-4d51-9513-13144401ea46","ios":"levelo://app?vid=753fe1a2-6ec1-4d51-9513-13144401ea46"},"vehicle_type_id":"4","last_reported":1735477946,"current_range_meters":30000,"station_id":"ce4bha92rcd13ifvqeh0","pricing_plan_id":"cebpf4jnsgd1na2vs0mg"},{"bike_id":"1f4b2932-3998-4e2c-a4c7-9039ca3e2533","system_id":"levelo_inurba_marseille","lat":43.27198,"lon":5.39197,"is_reserved":false,"is_disabled":false,"rental_uris":{"android":"levelo://app?vid=1f4b2932-3998-4e2c-a4c7-9039ca3e2533","ios":"levelo://app?vid=1f4b2932-3998-4e2c-a4c7-9039ca3e2533"},"vehicle_type_id":"4","last_reported":1735477946,"current_range_meters":38400,"station_id":"ce4bhhp2rcd13ifvqfm0","pricing_plan_id":"cebpf4jnsgd1na2vs0mg"},{"bike_id":"d0533ccb-11ce-46dc-9cca-daa9f7a4985a","system_id":"levelo_inurba_marseille","lat":43.29529,"lon":5.42296,"is_reserved":false,"is_disabled":false,"rental_uris":{"android":"levelo://app?vid=d0533ccb-11ce-46dc-9cca-daa9f7a4985a","ios":"levelo://app?vid=d0533ccb-11ce-46dc-9cca-daa9f7a4985a"},"vehicle_type_id":"4","last_reported":1735477946,"current_range_meters":36000,"station_id":"ce4bhph2rcd13ifvqhdg","pricing_plan_id":"cebpf4jnsgd1na2vs0mg"},{"bike_id":"18ed169b-f8e6-48ff-8d23-5f83e81eb63f","system_id":"levelo_inurba_marseille","lat":43.31714,"lon":5.37781,"is_reserved":false,"is_disabled":false,"rental_uris":{"android":"levelo://app?vid=18ed169b-f8e6-48ff-8d23-5f83e81eb63f","ios":"levelo://app?vid=18ed169b-f8e6-48ff-8d23-5f83e81eb63f"},"vehicle_type_id":"4","last_reported":1735477946,"current_range_meters":38400,"station_id":"ce4bgth2rcd13ifvqch0","pricing_plan_id":"cebpf4jnsgd1na2vs0mg"},{"bike_id":"a598dd5c-e430-49bd-abe8-2deb7a7e0874","system_id":"levelo_inurba_marseille","lat":43.27391,"lon":5.36244,"is_reserved":false,"is_disabled":true,"rental_uris":{"android":"levelo://app?vid=a598dd5c-e430-49bd-abe8-2deb7a7e0874","ios":"levelo://app?vid=a598dd5c-e430-49bd-abe8-2deb7a7e0874"},"vehicle_type_id":"4","last_reported":1735477946,"current_range_meters":1200,"station_id":"ce4bhbh2rcd13ifvqeo0","pricing_plan_id":"cebpf4jnsgd1na2vs0mg"},{"bike_id":"d7b1b637-ae47-4614-8941-866ca369a43d","system_id":"levelo_inurba_marseille","lat":43.265555,"lon":5.3729,"is_reserved":false,"is_disabled":true,"rental_uris":{"android":"levelo://app?vid=d7b1b637-ae47-4614-8941-866ca369a43d","ios":"levelo://app?vid=d7b1b637-ae47-4614-8941-866ca369a43d"},"vehicle_type_id":"4","last_reported":1735477946,"current_range_meters":0,"station_id":"ce4bhg12rcd13ifvqf70","pricing_plan_id":"cebpf4jnsgd1na2vs0mg"},{"bike_id":"98b900d2-5218-4f34-9619-a21e902d182b","system_id":"levelo_inurba_marseille","lat":43.28418,"lon":5.34991,"is_reserved":false,"is_disabled":false,"rental_uris":{"android":"levelo://app?vid=98b900d2-5218-4f34-9619-a21e902d182b","ios":"levelo://app?vid=98b900d2-5218-4f34-9619-a21e902d182b"},"vehicle_type_id":"4","last_reported":1735477946,"current_range_meters":19200,"station_id":"ce4bhbh2rcd13ifvqepg","pricing_plan_id":"cebpf4jnsgd1na2vs0mg"},{"bike_id":"13f84696-4405-43e0-b0f5-1a61d67abe32","system_id":"levelo_inurba_marseille","lat":43.27834,"lon":5.39209,"is_reserved":false,"is_disabled":false,"rental_uris":{"android":"levelo://app?vid=13f84696-4405-43e0-b0f5-1a61d67abe32","ios":"levelo://app?vid=13f84696-4405-43e0-b0f5-1a61d67abe32"},"vehicle_type_id":"4","last_reported":1735477946,"current_range_meters":24400,"station_id":"ce4bhjp2rcd13ifvqga0","pricing_plan_id":"cebpf4jnsgd1na2vs0mg"},{"bike_id":"894dd1e4-8739-49d4-a291-c4d91751ebfa","system_id":"levelo_inurba_marseille","lat":43.24807,"lon":5.37462,"is_reserved":false,"is_disabled":false,"rental_uris":{"android":"levelo://app?vid=894dd1e4-8739-49d4-a291-c4d91751ebfa","ios":"levelo://app?vid=894dd1e4-8739-49d4-a291-c4d91751ebfa"},"vehicle_type_id":"4","last_reported":1735477946,"current_range_meters":28400,"station_id":"ce4bhgh2rcd13ifvqfb0","pricing_plan_id":"cebpf4jnsgd1na2vs0mg"},{"bike_id":"caab34a4-5264-4b72-a12f-e55159fe93b6","system_id":"levelo_inurba_marseille","lat":43.27081,"lon":5.42274,"is_reserved":false,"is_disabled":false,"rental_uris":{"android":"levelo://app?vid=caab34a4-5264-4b72-a12f-e55159fe93b6","ios":"levelo://app?vid=caab34a4-5264-4b72-a12f-e55159fe93b6"},"vehicle_type_id":"4","last_reported":1735477946,"current_range_meters":24800,"station_id":"ce4bhk92rcd13ifvqgb0","pricing_plan_id":"cebpf4jnsgd1na2vs0mg"},{"bike_id":"63786f9b-3b0e-4771-967d-d7b493198cdd","system_id":"levelo_inurba_marseille","lat":43.24194,"lon":5.39688,"is_reserved":false,"is_disabled":false,"rental_uris":{"android":"levelo://app?vid=63786f9b-3b0e-4771-967d-d7b493198cdd","ios":"levelo://app?vid=63786f9b-3b0e-4771-967d-d7b493198cdd"},"vehicle_type_id":"4","last_reported":1735477946,"current_range_meters":9600,"station_id":"ce4bhn12rcd13ifvqgpg","pricing_plan_id":"cebpf4jnsgd1na2vs0mg"},{"bike_id":"282e923e-ac5d-40e2-a3bb-abd81b562ee0","system_id":"levelo_inurba_marseille","lat":43.28156,"lon":5.42651,"is_reserved":false,"is_disabled":false,"rental_uris":{"android":"levelo://app?vid=282e923e-ac5d-40e2-a3bb-abd81b562ee0","ios":"levelo://app?vid=282e923e-ac5d-40e2-a3bb-abd81b562ee0"},"vehicle_type_id":"4","last_reported":1735477946,"current_range_meters":28400,"station_id":"ce4bhnh2rcd13ifvqgug","pricing_plan_id":"cebpf4jnsgd1na2vs0mg"},{"bike_id":"2eaf5aab-e12e-4e93-a20d-88a34894165c","system_id":"levelo_inurba_marseille","lat":43.28467,"lon":5.35897,"is_reserved":false,"is_disabled":true,"rental_uris":{"android":"levelo://app?vid=2eaf5aab-e12e-4e93-a20d-88a34894165c","ios":"levelo://app?vid=2eaf5aab-e12e-4e93-a20d-88a34894165c"},"vehicle_type_id":"4","last_reported":1735477946,"current_range_meters":0,"station_id":"ce4bhah2rcd13ifvqei0","pricing_plan_id":"cebpf4jnsgd1na2vs0mg"},{"bike_id":"d07ac0e3-849c-44fe-ab38-0273add2ad10","system_id":"levelo_inurba_marseille","lat":43.30893,"lon":5.37199,"is_reserved":false,"is_disabled":true,"rental_uris":{"android":"levelo://app?vid=d07ac0e3-849c-44fe-ab38-0273add2ad10","ios":"levelo://app?vid=d07ac0e3-849c-44fe-ab38-0273add2ad10"},"vehicle_type_id":"4","last_reported":1735477946,"current_range_meters":9200,"station_id":"ce4bguh2rcd13ifvqckg","pricing_plan_id":"cebpf4jnsgd1na2vs0mg"},{"bike_id":"2b93564a-23f2-4c07-a312-e36900d3e67e","system_id":"levelo_inurba_marseille","lat":43.29205,"lon":5.39315,"is_reserved":false,"is_disabled":false,"rental_uris":{"android":"levelo://app?vid=2b93564a-23f2-4c07-a312-e36900d3e67e","ios":"levelo://app?vid=2b93564a-23f2-4c07-a312-e36900d3e67e"},"vehicle_type_id":"4","last_reported":1735477946,"current_range_meters":32400,"station_id":"ce4bh192rcd13ifvqdd0","pricing_plan_id":"cebpf4jnsgd1na2vs0mg"},{"bike_id":"b8310779-a1ed-43b8-93c2-4d2a1cabb080","system_id":"levelo_inurba_marseille","lat":43.265,"lon":5.39556,"is_reserved":false,"is_disabled":false,"rental_uris":{"android":"levelo://app?vid=b8310779-a1ed-43b8-93c2-4d2a1cabb080","ios":"levelo://app?vid=b8310779-a1ed-43b8-93c2-4d2a1cabb080"},"vehicle_type_id":"4","last_reported":1735477946,"current_range_meters":36800,"station_id":"ce4bhi12rcd13ifvqfq0","pricing_plan_id":"cebpf4jnsgd1na2vs0mg"},{"bike_id":"6a1a5773-218f-4a06-bf27-92cba5ee3ebb","system_id":"levelo_inurba_marseille","lat":43.32048,"lon":5.41553,"is_reserved":false,"is_disabled":false,"rental_uris":{"android":"levelo://app?vid=6a1a5773-218f-4a06-bf27-92cba5ee3ebb","ios":"levelo://app?vid=6a1a5773-218f-4a06-bf27-92cba5ee3ebb"},"vehicle_type_id":"4","last_reported":1735477946,"current_range_meters":36000,"station_id":"ce4bhq92rcd13ifvqhkg","pricing_plan_id":"cebpf4jnsgd1na2vs0mg"},{"bike_id":"f7ea23f6-e168-4049-af9c-3d18c33b42e1","system_id":"levelo_inurba_marseille","lat":43.27371,"lon":5.36251,"is_reserved":false,"is_disabled":false,"rental_uris":{"android":"levelo://app?vid=f7ea23f6-e168-4049-af9c-3d18c33b42e1","ios":"levelo://app?vid=f7ea23f6-e168-4049-af9c-3d18c33b42e1"},"vehicle_type_id":"4","last_reported":1735477946,"current_range_meters":39200,"station_id":"ce4bhbh2rcd13ifvqeo0","pricing_plan_id":"cebpf4jnsgd1na2vs0mg"},{"bike_id":"5773e918-ca73-493b-8b64-a7a626410a09","system_id":"levelo_inurba_marseille","lat":43.29227,"lon":5.36066,"is_reserved":false,"is_disabled":false,"rental_uris":{"android":"levelo://app?vid=5773e918-ca73-493b-8b64-a7a626410a09","ios":"levelo://app?vid=5773e918-ca73-493b-8b64-a7a626410a09"},"vehicle_type_id":"4","last_reported":1735477946,"current_range_meters":38800,"station_id":"ce4bhbh2rcd13ifvqeqg","pricing_plan_id":"cebpf4jnsgd1na2vs0mg"},{"bike_id":"eccfad66-c267-470e-be27-7e3cd3a0d1c8","system_id":"levelo_inurba_marseille","lat":43.26497,"lon":5.39553,"is_reserved":false,"is_disabled":false,"rental_uris":{"android":"levelo://app?vid=eccfad66-c267-470e-be27-7e3cd3a0d1c8","ios":"levelo://app?vid=eccfad66-c267-470e-be27-7e3cd3a0d1c8"},"vehicle_type_id":"4","last_reported":1735477946,"current_range_meters":38400,"station_id":"ce4bhi12rcd13ifvqfq0","pricing_plan_id":"cebpf4jnsgd1na2vs0mg"},{"bike_id":"d225e49f-de10-470b-90af-648b3c15cce7","system_id":"levelo_inurba_marseille","lat":43.25733,"lon":5.41094,"is_reserved":false,"is_disabled":false,"rental_uris":{"android":"levelo://app?vid=d225e49f-de10-470b-90af-648b3c15cce7","ios":"levelo://app?vid=d225e49f-de10-470b-90af-648b3c15cce7"},"vehicle_type_id":"4","last_reported":1735477946,"current_range_meters":37600,"station_id":"ce4bhkp2rcd13ifvqgd0","pricing_plan_id":"cebpf4jnsgd1na2vs0mg"},{"bike_id":"2ad96645-53b8-4b57-b8b9-898b5d0758ec","system_id":"levelo_inurba_marseille","lat":43.27334,"lon":5.36273,"is_reserved":false,"is_disabled":false,"rental_uris":{"android":"levelo://app?vid=2ad96645-53b8-4b57-b8b9-898b5d0758ec","ios":"levelo://app?vid=2ad96645-53b8-4b57-b8b9-898b5d0758ec"},"vehicle_type_id":"4","last_reported":1735477946,"current_range_meters":24400,"station_id":"ce4bhbh2rcd13ifvqeo0","pricing_plan_id":"cebpf4jnsgd1na2vs0mg"},{"bike_id":"9c1083ab-a987-4247-955f-89005d64cfb4","system_id":"levelo_inurba_marseille","lat":43.28077,"lon":5.3966,"is_reserved":false,"is_disabled":false,"rental_uris":{"android":"levelo://app?vid=9c1083ab-a987-4247-955f-89005d64cfb4","ios":"levelo://app?vid=9c1083ab-a987-4247-955f-89005d64cfb4"},"vehicle_type_id":"4","last_reported":1735477946,"current_range_meters":34800,"station_id":"ce4bho12rcd13ifvqh2g","pricing_plan_id":"cebpf4jnsgd1na2vs0mg"},{"bike_id":"158e017f-4a76-4ad7-a5e3-1ca7daceabea","system_id":"levelo_inurba_marseille","lat":43.275,"lon":5.42446,"is_reserved":false,"is_disabled":false,"rental_uris":{"android":"levelo://app?vid=158e017f-4a76-4ad7-a5e3-1ca7daceabea","ios":"levelo://app?vid=158e017f-4a76-4ad7-a5e3-1ca7daceabea"},"vehicle_type_id":"4","last_reported":1735477946,"current_range_meters":17200,"station_id":"ce4bhn92rcd13ifvqgrg","pricing_plan_id":"cebpf4jnsgd1na2vs0mg"},{"bike_id":"d6144803-d96b-4980-90a1-d59f6d11564c","system_id":"levelo_inurba_marseille","lat":43.28151,"lon":5.42649,"is_reserved":false,"is_disabled":false,"rental_uris":{"android":"levelo://app?vid=d6144803-d96b-4980-90a1-d59f6d11564c","ios":"levelo://app?vid=d6144803-d96b-4980-90a1-d59f6d11564c"},"vehicle_type_id":"4","last_reported":1735477946,"current_range_meters":38800,"station_id":"ce4bhnh2rcd13ifvqgug","pricing_plan_id":"cebpf4jnsgd1na2vs0mg"},{"bike_id":"40890807-1fe0-48c6-9688-dc1e79e0cc43","system_id":"levelo_inurba_marseille","lat":43.29301,"lon":5.37178,"is_reserved":false,"is_disabled":true,"rental_uris":{"android":"levelo://app?vid=40890807-1fe0-48c6-9688-dc1e79e0cc43","ios":"levelo://app?vid=40890807-1fe0-48c6-9688-dc1e79e0cc43"},"vehicle_type_id":"4","last_reported":1735477946,"current_range_meters":0,"station_id":"ce4bgh92rcd13ifvqb40","pricing_plan_id":"cebpf4jnsgd1na2vs0mg"},{"bike_id":"8ed5a1f5-589e-42ed-8f11-2d154ce6b9eb","system_id":"levelo_inurba_marseille","lat":43.23959,"lon":5.36646,"is_reserved":false,"is_disabled":false,"rental_uris":{"android":"levelo://app?vid=8ed5a1f5-589e-42ed-8f11-2d154ce6b9eb","ios":"levelo://app?vid=8ed5a1f5-589e-42ed-8f11-2d154ce6b9eb"},"vehicle_type_id":"4","last_reported":1735477946,"current_range_meters":36000,"station_id":"ce4bhi12rcd13ifvqfp0","pricing_plan_id":"cebpf4jnsgd1na2vs0mg"},{"bike_id":"f94471da-0312-4907-bc4d-b1bcd8faf349","system_id":"levelo_inurba_marseille","lat":43.29171,"lon":5.37141,"is_reserved":false,"is_disabled":false,"rental_uris":{"android":"levelo://app?vid=f94471da-0312-4907-bc4d-b1bcd8faf349","ios":"levelo://app?vid=f94471da-0312-4907-bc4d-b1bcd8faf349"},"vehicle_type_id":"4","last_reported":1735477946,"current_range_meters":9200,"station_id":"ce4bha92rcd13ifvqeh0","pricing_plan_id":"cebpf4jnsgd1na2vs0mg"},{"bike_id":"1a6a4441-d670-4c47-882b-58e182d88b29","system_id":"levelo_inurba_marseille","lat":43.26206,"lon":5.3745,"is_reserved":false,"is_disabled":false,"rental_uris":{"android":"levelo://app?vid=1a6a4441-d670-4c47-882b-58e182d88b29","ios":"levelo://app?vid=1a6a4441-d670-4c47-882b-58e182d88b29"},"vehicle_type_id":"4","last_reported":1735477946,"current_range_meters":32800,"station_id":"ce4bhgp2rcd13ifvqfc0","pricing_plan_id":"cebpf4jnsgd1na2vs0mg"},{"bike_id":"fbd37606-7491-40eb-a6f2-fedf079ad396","system_id":"levelo_inurba_marseille","lat":43.28257,"lon":5.35074,"is_reserved":false,"is_disabled":false,"rental_uris":{"android":"levelo://app?vid=fbd37606-7491-40eb-a6f2-fedf079ad396","ios":"levelo://app?vid=fbd37606-7491-40eb-a6f2-fedf079ad396"},"vehicle_type_id":"4","last_reported":1735477946,"current_range_meters":29600,"station_id":"ce4bhbp2rcd13ifvqerg","pricing_plan_id":"cebpf4jnsgd1na2vs0mg"},{"bike_id":"75586ade-f7a4-41b5-afef-c1e2f4499a7d","system_id":"levelo_inurba_marseille","lat":43.30898,"lon":5.37198,"is_reserved":false,"is_disabled":false,"rental_uris":{"android":"levelo://app?vid=75586ade-f7a4-41b5-afef-c1e2f4499a7d","ios":"levelo://app?vid=75586ade-f7a4-41b5-afef-c1e2f4499a7d"},"vehicle_type_id":"4","last_reported":1735477946,"current_range_meters":36000,"station_id":"ce4bguh2rcd13ifvqckg","pricing_plan_id":"cebpf4jnsgd1na2vs0mg"},{"bike_id":"b7c91206-cc43-4912-99c5-78ccf0f4f582","system_id":"levelo_inurba_marseille","lat":43.305595,"lon":5.384065,"is_reserved":false,"is_disabled":false,"rental_uris":{"android":"levelo://app?vid=b7c91206-cc43-4912-99c5-78ccf0f4f582","ios":"levelo://app?vid=b7c91206-cc43-4912-99c5-78ccf0f4f582"},"vehicle_type_id":"4","last_reported":1735477946,"current_range_meters":24800,"station_id":"ce4bgg92rcd13ifvqb30","pricing_plan_id":"cebpf4jnsgd1na2vs0mg"},{"bike_id":"0ca2648b-2914-486f-b628-4bc01801bfcc","system_id":"levelo_inurba_marseille","lat":43.29902,"lon":5.3655,"is_reserved":false,"is_disabled":false,"rental_uris":{"android":"levelo://app?vid=0ca2648b-2914-486f-b628-4bc01801bfcc","ios":"levelo://app?vid=0ca2648b-2914-486f-b628-4bc01801bfcc"},"vehicle_type_id":"4","last_reported":1735477946,"current_range_meters":34000,"station_id":"ce4bgm92rcd13ifvqbr0","pricing_plan_id":"cebpf4jnsgd1na2vs0mg"},{"bike_id":"ade8f6ef-b3ee-4321-b0e3-fa2122109c5d","system_id":"levelo_inurba_marseille","lat":43.25007,"lon":5.38915,"is_reserved":false,"is_disabled":false,"rental_uris":{"android":"levelo://app?vid=ade8f6ef-b3ee-4321-b0e3-fa2122109c5d","ios":"levelo://app?vid=ade8f6ef-b3ee-4321-b0e3-fa2122109c5d"},"vehicle_type_id":"4","last_reported":1735477946,"current_range_meters":20000,"station_id":"ce4bhgp2rcd13ifvqfd0","pricing_plan_id":"cebpf4jnsgd1na2vs0mg"},{"bike_id":"e72c6d65-0b04-411e-bf0f-f72d15cad0d7","system_id":"levelo_inurba_marseille","lat":43.33741,"lon":5.39187,"is_reserved":false,"is_disabled":false,"rental_uris":{"android":"levelo://app?vid=e72c6d65-0b04-411e-bf0f-f72d15cad0d7","ios":"levelo://app?vid=e72c6d65-0b04-411e-bf0f-f72d15cad0d7"},"vehicle_type_id":"4","last_reported":1735477946,"current_range_meters":36800,"station_id":"ce4bhr92rcd13ifvqhsg","pricing_plan_id":"cebpf4jnsgd1na2vs0mg"},{"bike_id":"05bd0335-8f5b-48e9-abad-93205c8138b6","system_id":"levelo_inurba_marseille","lat":43.28701,"lon":5.39978,"is_reserved":false,"is_disabled":false,"rental_uris":{"android":"levelo://app?vid=05bd0335-8f5b-48e9-abad-93205c8138b6","ios":"levelo://app?vid=05bd0335-8f5b-48e9-abad-93205c8138b6"},"vehicle_type_id":"4","last_reported":1735477946,"current_range_meters":27200,"station_id":"ce4bho92rcd13ifvqh3g","pricing_plan_id":"cebpf4jnsgd1na2vs0mg"},{"bike_id":"67072b37-a662-476c-b02a-f3dae6f7d8e8","system_id":"levelo_inurba_marseille","lat":43.32003,"lon":5.38152,"is_reserved":false,"is_disabled":false,"rental_uris":{"android":"levelo://app?vid=67072b37-a662-476c-b02a-f3dae6f7d8e8","ios":"levelo://app?vid=67072b37-a662-476c-b02a-f3dae6f7d8e8"},"vehicle_type_id":"4","last_reported":1735477946,"current_range_meters":38800,"station_id":"ce4bhr12rcd13ifvqhpg","pricing_plan_id":"cebpf4jnsgd1na2vs0mg"},{"bike_id":"7a2c8907-07e3-4c89-8d2a-ee967c11eaa4","system_id":"levelo_inurba_marseille","lat":43.30534,"lon":5.36544,"is_reserved":false,"is_disabled":false,"rental_uris":{"android":"levelo://app?vid=7a2c8907-07e3-4c89-8d2a-ee967c11eaa4","ios":"levelo://app?vid=7a2c8907-07e3-4c89-8d2a-ee967c11eaa4"},"vehicle_type_id":"4","last_reported":1735477946,"current_range_meters":30000,"station_id":"ce4bgs12rcd13ifvqcag","pricing_plan_id":"cebpf4jnsgd1na2vs0mg"},{"bike_id":"ebad73eb-ddf1-4716-985c-2447b376c89e","system_id":"levelo_inurba_marseille","lat":43.2722,"lon":5.39152,"is_reserved":false,"is_disabled":false,"rental_uris":{"android":"levelo://app?vid=ebad73eb-ddf1-4716-985c-2447b376c89e","ios":"levelo://app?vid=ebad73eb-ddf1-4716-985c-2447b376c89e"},"vehicle_type_id":"4","last_reported":1735477946,"current_range_meters":38800,"station_id":"ce4bhhp2rcd13ifvqfm0","pricing_plan_id":"cebpf4jnsgd1na2vs0mg"},{"bike_id":"2fdeab75-c3c7-44e1-8744-5eb7e97729bb","system_id":"levelo_inurba_marseille","lat":43.3211,"lon":5.36776,"is_reserved":false,"is_disabled":false,"rental_uris":{"android":"levelo://app?vid=2fdeab75-c3c7-44e1-8744-5eb7e97729bb","ios":"levelo://app?vid=2fdeab75-c3c7-44e1-8744-5eb7e97729bb"},"vehicle_type_id":"4","last_reported":1735477946,"current_range_meters":9600,"station_id":"ce4bhrh2rcd13ifvqhug","pricing_plan_id":"cebpf4jnsgd1na2vs0mg"},{"bike_id":"b2f487f5-3cb1-4c04-9fdc-91e5d6b1a129","system_id":"levelo_inurba_marseille","lat":43.29712,"lon":5.37691,"is_reserved":false,"is_disabled":false,"rental_uris":{"android":"levelo://app?vid=b2f487f5-3cb1-4c04-9fdc-91e5d6b1a129","ios":"levelo://app?vid=b2f487f5-3cb1-4c04-9fdc-91e5d6b1a129"},"vehicle_type_id":"4","last_reported":1735477946,"current_range_meters":30400,"station_id":"ce4bgkh2rcd13ifvqbl0","pricing_plan_id":"cebpf4jnsgd1na2vs0mg"},{"bike_id":"7061b452-6de4-4de7-8c4e-e80c8067d5f8","system_id":"levelo_inurba_marseille","lat":43.30476,"lon":5.37912,"is_reserved":false,"is_disabled":false,"rental_uris":{"android":"levelo://app?vid=7061b452-6de4-4de7-8c4e-e80c8067d5f8","ios":"levelo://app?vid=7061b452-6de4-4de7-8c4e-e80c8067d5f8"},"vehicle_type_id":"4","last_reported":1735477946,"current_range_meters":30000,"station_id":"ce4bgup2rcd13ifvqcn0","pricing_plan_id":"cebpf4jnsgd1na2vs0mg"},{"bike_id":"9e6d9495-e6fc-46af-bf3a-7dc282e2ba92","system_id":"levelo_inurba_marseille","lat":43.2707,"lon":5.42278,"is_reserved":false,"is_disabled":false,"rental_uris":{"android":"levelo://app?vid=9e6d9495-e6fc-46af-bf3a-7dc282e2ba92","ios":"levelo://app?vid=9e6d9495-e6fc-46af-bf3a-7dc282e2ba92"},"vehicle_type_id":"4","last_reported":1735477946,"current_range_meters":32800,"station_id":"ce4bhk92rcd13ifvqgb0","pricing_plan_id":"cebpf4jnsgd1na2vs0mg"},{"bike_id":"57103b12-06fc-494b-9a1a-1903f8f245d5","system_id":"levelo_inurba_marseille","lat":43.27972,"lon":5.41649,"is_reserved":false,"is_disabled":false,"rental_uris":{"android":"levelo://app?vid=57103b12-06fc-494b-9a1a-1903f8f245d5","ios":"levelo://app?vid=57103b12-06fc-494b-9a1a-1903f8f245d5"},"vehicle_type_id":"4","last_reported":1735477946,"current_range_meters":17600,"station_id":"ce4bho12rcd13ifvqh1g","pricing_plan_id":"cebpf4jnsgd1na2vs0mg"},{"bike_id":"9c190374-01bb-42bf-8134-b1b2e72f4531","system_id":"levelo_inurba_marseille","lat":43.27374,"lon":5.36263,"is_reserved":false,"is_disabled":false,"rental_uris":{"android":"levelo://app?vid=9c190374-01bb-42bf-8134-b1b2e72f4531","ios":"levelo://app?vid=9c190374-01bb-42bf-8134-b1b2e72f4531"},"vehicle_type_id":"4","last_reported":1735477946,"current_range_meters":36800,"station_id":"ce4bhbh2rcd13ifvqeo0","pricing_plan_id":"cebpf4jnsgd1na2vs0mg"},{"bike_id":"fb6a0b6f-05b8-410d-b685-f18d6430f33e","system_id":"levelo_inurba_marseille","lat":43.31763,"lon":5.39007,"is_reserved":false,"is_disabled":false,"rental_uris":{"android":"levelo://app?vid=fb6a0b6f-05b8-410d-b685-f18d6430f33e","ios":"levelo://app?vid=fb6a0b6f-05b8-410d-b685-f18d6430f33e"},"vehicle_type_id":"4","last_reported":1735477946,"current_range_meters":29600,"station_id":"ce4bhqp2rcd13ifvqhng","pricing_plan_id":"cebpf4jnsgd1na2vs0mg"},{"bike_id":"d9d97985-8792-47a3-ab8c-09980f6a9900","system_id":"levelo_inurba_marseille","lat":43.29527,"lon":5.37504,"is_reserved":false,"is_disabled":true,"rental_uris":{"android":"levelo://app?vid=d9d97985-8792-47a3-ab8c-09980f6a9900","ios":"levelo://app?vid=d9d97985-8792-47a3-ab8c-09980f6a9900"},"vehicle_type_id":"4","last_reported":1735477946,"current_range_meters":6800,"station_id":"ce4bgkp2rcd13ifvqbmg","pricing_plan_id":"cebpf4jnsgd1na2vs0mg"},{"bike_id":"81b7dbd4-2034-4c75-9f95-f800613fb5e7","system_id":"levelo_inurba_marseille","lat":43.28152,"lon":5.42637,"is_reserved":false,"is_disabled":false,"rental_uris":{"android":"levelo://app?vid=81b7dbd4-2034-4c75-9f95-f800613fb5e7","ios":"levelo://app?vid=81b7dbd4-2034-4c75-9f95-f800613fb5e7"},"vehicle_type_id":"4","last_reported":1735477946,"current_range_meters":12000,"station_id":"ce4bhnh2rcd13ifvqgug","pricing_plan_id":"cebpf4jnsgd1na2vs0mg"},{"bike_id":"f3d5e0e9-ec4e-4213-bd56-5bab1beaada2","system_id":"levelo_inurba_marseille","lat":43.26954,"lon":5.38635,"is_reserved":false,"is_disabled":false,"rental_uris":{"android":"levelo://app?vid=f3d5e0e9-ec4e-4213-bd56-5bab1beaada2","ios":"levelo://app?vid=f3d5e0e9-ec4e-4213-bd56-5bab1beaada2"},"vehicle_type_id":"4","last_reported":1735477946,"current_range_meters":33600,"station_id":"ce4bhh92rcd13ifvqfh0","pricing_plan_id":"cebpf4jnsgd1na2vs0mg"},{"bike_id":"1988a0cb-db3f-4357-989b-45e02692230c","system_id":"levelo_inurba_marseille","lat":43.27578,"lon":5.38435,"is_reserved":false,"is_disabled":false,"rental_uris":{"android":"levelo://app?vid=1988a0cb-db3f-4357-989b-45e02692230c","ios":"levelo://app?vid=1988a0cb-db3f-4357-989b-45e02692230c"},"vehicle_type_id":"4","last_reported":1735477946,"current_range_meters":12400,"station_id":"ce4bhh92rcd13ifvqfi0","pricing_plan_id":"cebpf4jnsgd1na2vs0mg"},{"bike_id":"482b0b80-c53d-4d05-aa82-218b22575b6c","system_id":"levelo_inurba_marseille","lat":43.23154,"lon":5.437075,"is_reserved":false,"is_disabled":true,"rental_uris":{"android":"levelo://app?vid=482b0b80-c53d-4d05-aa82-218b22575b6c","ios":"levelo://app?vid=482b0b80-c53d-4d05-aa82-218b22575b6c"},"vehicle_type_id":"4","last_reported":1735477946,"current_range_meters":38400,"station_id":"ce4bhmp2rcd13ifvqgog","pricing_plan_id":"cebpf4jnsgd1na2vs0mg"},{"bike_id":"cb0d02f4-613e-4027-9f67-1bb49f28195e","system_id":"levelo_inurba_marseille","lat":43.29272,"lon":5.36849,"is_reserved":false,"is_disabled":false,"rental_uris":{"android":"levelo://app?vid=cb0d02f4-613e-4027-9f67-1bb49f28195e","ios":"levelo://app?vid=cb0d02f4-613e-4027-9f67-1bb49f28195e"},"vehicle_type_id":"4","last_reported":1735477946,"current_range_meters":33200,"station_id":"ce4bhbp2rcd13ifvqesg","pricing_plan_id":"cebpf4jnsgd1na2vs0mg"},{"bike_id":"59107023-2d99-4df4-a929-e6a135a59413","system_id":"levelo_inurba_marseille","lat":43.29009,"lon":5.35604,"is_reserved":false,"is_disabled":false,"rental_uris":{"android":"levelo://app?vid=59107023-2d99-4df4-a929-e6a135a59413","ios":"levelo://app?vid=59107023-2d99-4df4-a929-e6a135a59413"},"vehicle_type_id":"4","last_reported":1735477946,"current_range_meters":14400,"station_id":"ce4bhb92rcd13ifvqen0","pricing_plan_id":"cebpf4jnsgd1na2vs0mg"},{"bike_id":"c33f4286-aba0-493b-a84b-cccc50a4fb8c","system_id":"levelo_inurba_marseille","lat":43.27618,"lon":5.36111,"is_reserved":false,"is_disabled":false,"rental_uris":{"android":"levelo://app?vid=c33f4286-aba0-493b-a84b-cccc50a4fb8c","ios":"levelo://app?vid=c33f4286-aba0-493b-a84b-cccc50a4fb8c"},"vehicle_type_id":"4","last_reported":1735477946,"current_range_meters":10800,"station_id":"ce4bgj92rcd13ifvqbe0","pricing_plan_id":"cebpf4jnsgd1na2vs0mg"},{"bike_id":"869fc1e6-58d8-4942-b994-e668b7cc85e1","system_id":"levelo_inurba_marseille","lat":43.23183,"lon":5.35604,"is_reserved":false,"is_disabled":false,"rental_uris":{"android":"levelo://app?vid=869fc1e6-58d8-4942-b994-e668b7cc85e1","ios":"levelo://app?vid=869fc1e6-58d8-4942-b994-e668b7cc85e1"},"vehicle_type_id":"4","last_reported":1735477946,"current_range_meters":38800,"station_id":"ce4bhu92rcd13ifvqi70","pricing_plan_id":"cebpf4jnsgd1na2vs0mg"},{"bike_id":"1c18c4aa-3c65-4972-a09a-d9e4ca6b5b87","system_id":"levelo_inurba_marseille","lat":43.23185,"lon":5.39994,"is_reserved":false,"is_disabled":true,"rental_uris":{"android":"levelo://app?vid=1c18c4aa-3c65-4972-a09a-d9e4ca6b5b87","ios":"levelo://app?vid=1c18c4aa-3c65-4972-a09a-d9e4ca6b5b87"},"vehicle_type_id":"4","last_reported":1735477946,"current_range_meters":1200,"station_id":"ce4bhn12rcd13ifvqgqg","pricing_plan_id":"cebpf4jnsgd1na2vs0mg"},{"bike_id":"54b574ae-5ef4-4c88-9677-f7f426f7a7cc","system_id":"levelo_inurba_marseille","lat":43.29232,"lon":5.3607,"is_reserved":false,"is_disabled":false,"rental_uris":{"android":"levelo://app?vid=54b574ae-5ef4-4c88-9677-f7f426f7a7cc","ios":"levelo://app?vid=54b574ae-5ef4-4c88-9677-f7f426f7a7cc"},"vehicle_type_id":"4","last_reported":1735477946,"current_range_meters":38000,"station_id":"ce4bhbh2rcd13ifvqeqg","pricing_plan_id":"cebpf4jnsgd1na2vs0mg"},{"bike_id":"139ba5af-cd52-4f53-9b4f-5ca42e118791","system_id":"levelo_inurba_marseille","lat":43.30581,"lon":5.37227,"is_reserved":false,"is_disabled":false,"rental_uris":{"android":"levelo://app?vid=139ba5af-cd52-4f53-9b4f-5ca42e118791","ios":"levelo://app?vid=139ba5af-cd52-4f53-9b4f-5ca42e118791"},"vehicle_type_id":"4","last_reported":1735477946,"current_range_meters":38800,"station_id":"ce4bgqh2rcd13ifvqc4g","pricing_plan_id":"cebpf4jnsgd1na2vs0mg"},{"bike_id":"f6a398ba-af8e-4fe3-a6c0-f28cb0077f88","system_id":"levelo_inurba_marseille","lat":43.28179,"lon":5.42666,"is_reserved":false,"is_disabled":false,"rental_uris":{"android":"levelo://app?vid=f6a398ba-af8e-4fe3-a6c0-f28cb0077f88","ios":"levelo://app?vid=f6a398ba-af8e-4fe3-a6c0-f28cb0077f88"},"vehicle_type_id":"4","last_reported":1735477946,"current_range_meters":20800,"station_id":"ce4bhnh2rcd13ifvqgug","pricing_plan_id":"cebpf4jnsgd1na2vs0mg"},{"bike_id":"0bcec2f5-0203-436b-a80c-c30c50ac99f3","system_id":"levelo_inurba_marseille","lat":43.24569,"lon":5.40041,"is_reserved":false,"is_disabled":false,"rental_uris":{"android":"levelo://app?vid=0bcec2f5-0203-436b-a80c-c30c50ac99f3","ios":"levelo://app?vid=0bcec2f5-0203-436b-a80c-c30c50ac99f3"},"vehicle_type_id":"4","last_reported":1735477946,"current_range_meters":32000,"station_id":"","pricing_plan_id":"cebpf4jnsgd1na2vs0mg"},{"bike_id":"7bd44d09-e872-4291-b548-1cbe40f16cac","system_id":"levelo_inurba_marseille","lat":43.281559,"lon":5.426425,"is_reserved":false,"is_disabled":false,"rental_uris":{"android":"levelo://app?vid=7bd44d09-e872-4291-b548-1cbe40f16cac","ios":"levelo://app?vid=7bd44d09-e872-4291-b548-1cbe40f16cac"},"vehicle_type_id":"4","last_reported":1735477946,"current_range_meters":24800,"station_id":"ce4bhnh2rcd13ifvqgug","pricing_plan_id":"cebpf4jnsgd1na2vs0mg"},{"bike_id":"d648ed32-95e8-4506-9861-c5c50b60ec2c","system_id":"levelo_inurba_marseille","lat":43.3108,"lon":5.42429,"is_reserved":false,"is_disabled":false,"rental_uris":{"android":"levelo://app?vid=d648ed32-95e8-4506-9861-c5c50b60ec2c","ios":"levelo://app?vid=d648ed32-95e8-4506-9861-c5c50b60ec2c"},"vehicle_type_id":"4","last_reported":1735477946,"current_range_meters":38800,"station_id":"ce4bhp92rcd13ifvqhag","pricing_plan_id":"cebpf4jnsgd1na2vs0mg"},{"bike_id":"d124b3fa-f3a5-4c6d-bebc-2f7ad1a1004e","system_id":"levelo_inurba_marseille","lat":43.26954,"lon":5.38642,"is_reserved":false,"is_disabled":false,"rental_uris":{"android":"levelo://app?vid=d124b3fa-f3a5-4c6d-bebc-2f7ad1a1004e","ios":"levelo://app?vid=d124b3fa-f3a5-4c6d-bebc-2f7ad1a1004e"},"vehicle_type_id":"4","last_reported":1735477946,"current_range_meters":38800,"station_id":"ce4bhh92rcd13ifvqfh0","pricing_plan_id":"cebpf4jnsgd1na2vs0mg"},{"bike_id":"f2e905d9-fc6b-437d-86b4-b34c4de6d621","system_id":"levelo_inurba_marseille","lat":43.28259,"lon":5.35062,"is_reserved":false,"is_disabled":false,"rental_uris":{"android":"levelo://app?vid=f2e905d9-fc6b-437d-86b4-b34c4de6d621","ios":"levelo://app?vid=f2e905d9-fc6b-437d-86b4-b34c4de6d621"},"vehicle_type_id":"4","last_reported":1735477946,"current_range_meters":37600,"station_id":"ce4bhbp2rcd13ifvqerg","pricing_plan_id":"cebpf4jnsgd1na2vs0mg"},{"bike_id":"84e9960c-5d51-43ec-a5af-2b8f0882416c","system_id":"levelo_inurba_marseille","lat":43.2407,"lon":5.37763,"is_reserved":false,"is_disabled":false,"rental_uris":{"android":"levelo://app?vid=84e9960c-5d51-43ec-a5af-2b8f0882416c","ios":"levelo://app?vid=84e9960c-5d51-43ec-a5af-2b8f0882416c"},"vehicle_type_id":"4","last_reported":1735477946,"current_range_meters":27600,"station_id":"ce4bhnp2rcd13ifvqgvg","pricing_plan_id":"cebpf4jnsgd1na2vs0mg"},{"bike_id":"1107b56a-98a5-4a01-8449-9eba086fee5a","system_id":"levelo_inurba_marseille","lat":43.29073,"lon":5.39883,"is_reserved":false,"is_disabled":true,"rental_uris":{"android":"levelo://app?vid=1107b56a-98a5-4a01-8449-9eba086fee5a","ios":"levelo://app?vid=1107b56a-98a5-4a01-8449-9eba086fee5a"},"vehicle_type_id":"4","last_reported":1735477946,"current_range_meters":16000,"station_id":"","pricing_plan_id":"cebpf4jnsgd1na2vs0mg"},{"bike_id":"145efe5c-ec17-4657-a9be-65b3b73e2f3d","system_id":"levelo_inurba_marseille","lat":43.29615,"lon":5.37152,"is_reserved":false,"is_disabled":false,"rental_uris":{"android":"levelo://app?vid=145efe5c-ec17-4657-a9be-65b3b73e2f3d","ios":"levelo://app?vid=145efe5c-ec17-4657-a9be-65b3b73e2f3d"},"vehicle_type_id":"4","last_reported":1735477946,"current_range_meters":38800,"station_id":"ce4bgnh2rcd13ifvqc0g","pricing_plan_id":"cebpf4jnsgd1na2vs0mg"},{"bike_id":"20b351ce-aa3b-4fc8-af62-864415db2c56","system_id":"levelo_inurba_marseille","lat":43.23058,"lon":5.35492,"is_reserved":false,"is_disabled":false,"rental_uris":{"android":"levelo://app?vid=20b351ce-aa3b-4fc8-af62-864415db2c56","ios":"levelo://app?vid=20b351ce-aa3b-4fc8-af62-864415db2c56"},"vehicle_type_id":"4","last_reported":1735477946,"current_range_meters":26000,"station_id":"cpo3342slgdg3j2ifvpg","pricing_plan_id":"cebpf4jnsgd1na2vs0mg"},{"bike_id":"f98f86cd-bd12-4a77-a017-bbfdfb0a17cc","system_id":"levelo_inurba_marseille","lat":43.264939,"lon":5.39552,"is_reserved":false,"is_disabled":false,"rental_uris":{"android":"levelo://app?vid=f98f86cd-bd12-4a77-a017-bbfdfb0a17cc","ios":"levelo://app?vid=f98f86cd-bd12-4a77-a017-bbfdfb0a17cc"},"vehicle_type_id":"4","last_reported":1735477946,"current_range_meters":37600,"station_id":"ce4bhi12rcd13ifvqfq0","pricing_plan_id":"cebpf4jnsgd1na2vs0mg"},{"bike_id":"c9b97fb7-b709-4c26-ae01-dabf637bc152","system_id":"levelo_inurba_marseille","lat":43.27813,"lon":5.40728,"is_reserved":false,"is_disabled":false,"rental_uris":{"android":"levelo://app?vid=c9b97fb7-b709-4c26-ae01-dabf637bc152","ios":"levelo://app?vid=c9b97fb7-b709-4c26-ae01-dabf637bc152"},"vehicle_type_id":"4","last_reported":1735477946,"current_range_meters":24000,"station_id":"ce4bhnh2rcd13ifvqgtg","pricing_plan_id":"cebpf4jnsgd1na2vs0mg"},{"bike_id":"8d5af813-b00e-4aed-8d13-e6a45a692526","system_id":"levelo_inurba_marseille","lat":43.248123,"lon":5.374582,"is_reserved":false,"is_disabled":false,"rental_uris":{"android":"levelo://app?vid=8d5af813-b00e-4aed-8d13-e6a45a692526","ios":"levelo://app?vid=8d5af813-b00e-4aed-8d13-e6a45a692526"},"vehicle_type_id":"4","last_reported":1735477946,"current_range_meters":26000,"station_id":"ce4bhgh2rcd13ifvqfb0","pricing_plan_id":"cebpf4jnsgd1na2vs0mg"},{"bike_id":"8c265605-84f9-4d39-92bd-998a7850a564","system_id":"levelo_inurba_marseille","lat":43.23064,"lon":5.35493,"is_reserved":false,"is_disabled":false,"rental_uris":{"android":"levelo://app?vid=8c265605-84f9-4d39-92bd-998a7850a564","ios":"levelo://app?vid=8c265605-84f9-4d39-92bd-998a7850a564"},"vehicle_type_id":"4","last_reported":1735477946,"current_range_meters":18000,"station_id":"cpo3342slgdg3j2ifvpg","pricing_plan_id":"cebpf4jnsgd1na2vs0mg"},{"bike_id":"8a613f5a-5979-4022-a092-2888a966fd1d","system_id":"levelo_inurba_marseille","lat":43.30606,"lon":5.37223,"is_reserved":false,"is_disabled":false,"rental_uris":{"android":"levelo://app?vid=8a613f5a-5979-4022-a092-2888a966fd1d","ios":"levelo://app?vid=8a613f5a-5979-4022-a092-2888a966fd1d"},"vehicle_type_id":"4","last_reported":1735477946,"current_range_meters":39200,"station_id":"ce4bgqh2rcd13ifvqc4g","pricing_plan_id":"cebpf4jnsgd1na2vs0mg"},{"bike_id":"ed49c6a3-5e64-485a-beb0-24d7970e5e6b","system_id":"levelo_inurba_marseille","lat":43.26503,"lon":5.39544,"is_reserved":false,"is_disabled":false,"rental_uris":{"android":"levelo://app?vid=ed49c6a3-5e64-485a-beb0-24d7970e5e6b","ios":"levelo://app?vid=ed49c6a3-5e64-485a-beb0-24d7970e5e6b"},"vehicle_type_id":"4","last_reported":1735477946,"current_range_meters":38800,"station_id":"ce4bhi12rcd13ifvqfq0","pricing_plan_id":"cebpf4jnsgd1na2vs0mg"},{"bike_id":"77ab362b-f9bb-4d67-934d-ef5bbb2a72a3","system_id":"levelo_inurba_marseille","lat":43.28855,"lon":5.35876,"is_reserved":false,"is_disabled":false,"rental_uris":{"android":"levelo://app?vid=77ab362b-f9bb-4d67-934d-ef5bbb2a72a3","ios":"levelo://app?vid=77ab362b-f9bb-4d67-934d-ef5bbb2a72a3"},"vehicle_type_id":"4","last_reported":1735477946,"current_range_meters":11600,"station_id":"ce4bhb12rcd13ifvqem0","pricing_plan_id":"cebpf4jnsgd1na2vs0mg"},{"bike_id":"fd9dccc3-920a-4f08-931a-e49fee0b5433","system_id":"levelo_inurba_marseille","lat":43.29257,"lon":5.40915,"is_reserved":false,"is_disabled":false,"rental_uris":{"android":"levelo://app?vid=fd9dccc3-920a-4f08-931a-e49fee0b5433","ios":"levelo://app?vid=fd9dccc3-920a-4f08-931a-e49fee0b5433"},"vehicle_type_id":"4","last_reported":1735477946,"current_range_meters":38800,"station_id":"ce4bh192rcd13ifvqdc0","pricing_plan_id":"cebpf4jnsgd1na2vs0mg"},{"bike_id":"9141827a-cd60-47bf-acf1-a8efbc1eb007","system_id":"levelo_inurba_marseille","lat":43.27994,"lon":5.40015,"is_reserved":false,"is_disabled":false,"rental_uris":{"android":"levelo://app?vid=9141827a-cd60-47bf-acf1-a8efbc1eb007","ios":"levelo://app?vid=9141827a-cd60-47bf-acf1-a8efbc1eb007"},"vehicle_type_id":"4","last_reported":1735477946,"current_range_meters":38800,"station_id":"ce4bho92rcd13ifvqh4g","pricing_plan_id":"cebpf4jnsgd1na2vs0mg"},{"bike_id":"68825026-f251-4497-8446-15b504d3abc3","system_id":"levelo_inurba_marseille","lat":43.25,"lon":5.3893,"is_reserved":false,"is_disabled":false,"rental_uris":{"android":"levelo://app?vid=68825026-f251-4497-8446-15b504d3abc3","ios":"levelo://app?vid=68825026-f251-4497-8446-15b504d3abc3"},"vehicle_type_id":"4","last_reported":1735477946,"current_range_meters":17200,"station_id":"ce4bhgp2rcd13ifvqfd0","pricing_plan_id":"cebpf4jnsgd1na2vs0mg"},{"bike_id":"41e441a8-4ad2-4bf0-81ba-96c35feaf6d8","system_id":"levelo_inurba_marseille","lat":43.28154,"lon":5.42651,"is_reserved":false,"is_disabled":false,"rental_uris":{"android":"levelo://app?vid=41e441a8-4ad2-4bf0-81ba-96c35feaf6d8","ios":"levelo://app?vid=41e441a8-4ad2-4bf0-81ba-96c35feaf6d8"},"vehicle_type_id":"4","last_reported":1735477946,"current_range_meters":28800,"station_id":"ce4bhnh2rcd13ifvqgug","pricing_plan_id":"cebpf4jnsgd1na2vs0mg"},{"bike_id":"296a7e35-9fde-44b8-86b2-a7123b9fe5d5","system_id":"levelo_inurba_marseille","lat":43.24664,"lon":5.38163,"is_reserved":false,"is_disabled":false,"rental_uris":{"android":"levelo://app?vid=296a7e35-9fde-44b8-86b2-a7123b9fe5d5","ios":"levelo://app?vid=296a7e35-9fde-44b8-86b2-a7123b9fe5d5"},"vehicle_type_id":"4","last_reported":1735477946,"current_range_meters":38800,"station_id":"ce4bhih2rcd13ifvqfr0","pricing_plan_id":"cebpf4jnsgd1na2vs0mg"},{"bike_id":"0cfa0846-db27-4c5a-b233-3bf9fb29600a","system_id":"levelo_inurba_marseille","lat":43.24804,"lon":5.37459,"is_reserved":false,"is_disabled":false,"rental_uris":{"android":"levelo://app?vid=0cfa0846-db27-4c5a-b233-3bf9fb29600a","ios":"levelo://app?vid=0cfa0846-db27-4c5a-b233-3bf9fb29600a"},"vehicle_type_id":"4","last_reported":1735477946,"current_range_meters":34000,"station_id":"ce4bhgh2rcd13ifvqfb0","pricing_plan_id":"cebpf4jnsgd1na2vs0mg"},{"bike_id":"b0d45b52-6895-4f7d-b544-51d0d9d0ee35","system_id":"levelo_inurba_marseille","lat":43.30545,"lon":5.366946,"is_reserved":false,"is_disabled":true,"rental_uris":{"android":"levelo://app?vid=b0d45b52-6895-4f7d-b544-51d0d9d0ee35","ios":"levelo://app?vid=b0d45b52-6895-4f7d-b544-51d0d9d0ee35"},"vehicle_type_id":"4","last_reported":1735477946,"current_range_meters":0,"station_id":"ce4bgrp2rcd13ifvqc9g","pricing_plan_id":"cebpf4jnsgd1na2vs0mg"},{"bike_id":"9cbeea91-6305-4ee1-ad7f-82772e35ad52","system_id":"levelo_inurba_marseille","lat":43.28164,"lon":5.42634,"is_reserved":false,"is_disabled":false,"rental_uris":{"android":"levelo://app?vid=9cbeea91-6305-4ee1-ad7f-82772e35ad52","ios":"levelo://app?vid=9cbeea91-6305-4ee1-ad7f-82772e35ad52"},"vehicle_type_id":"4","last_reported":1735477946,"current_range_meters":27600,"station_id":"ce4bhnh2rcd13ifvqgug","pricing_plan_id":"cebpf4jnsgd1na2vs0mg"},{"bike_id":"5639f52b-1196-4558-b062-4f7891cec443","system_id":"levelo_inurba_marseille","lat":43.28406,"lon":5.37528,"is_reserved":false,"is_disabled":true,"rental_uris":{"android":"levelo://app?vid=5639f52b-1196-4558-b062-4f7891cec443","ios":"levelo://app?vid=5639f52b-1196-4558-b062-4f7891cec443"},"vehicle_type_id":"4","last_reported":1735477946,"current_range_meters":25600,"station_id":"ce4bh412rcd13ifvqds0","pricing_plan_id":"cebpf4jnsgd1na2vs0mg"},{"bike_id":"1727a0bf-5c41-4aa7-be74-58dfcc6e8f12","system_id":"levelo_inurba_marseille","lat":43.31505,"lon":5.37313,"is_reserved":false,"is_disabled":false,"rental_uris":{"android":"levelo://app?vid=1727a0bf-5c41-4aa7-be74-58dfcc6e8f12","ios":"levelo://app?vid=1727a0bf-5c41-4aa7-be74-58dfcc6e8f12"},"vehicle_type_id":"4","last_reported":1735477946,"current_range_meters":38800,"station_id":"ce4bgt12rcd13ifvqcd0","pricing_plan_id":"cebpf4jnsgd1na2vs0mg"},{"bike_id":"b00d0c31-d547-4796-aad8-76abecba3b90","system_id":"levelo_inurba_marseille","lat":43.31124,"lon":5.37782,"is_reserved":false,"is_disabled":false,"rental_uris":{"android":"levelo://app?vid=b00d0c31-d547-4796-aad8-76abecba3b90","ios":"levelo://app?vid=b00d0c31-d547-4796-aad8-76abecba3b90"},"vehicle_type_id":"4","last_reported":1735477946,"current_range_meters":24400,"station_id":"ce4bgt92rcd13ifvqcg0","pricing_plan_id":"cebpf4jnsgd1na2vs0mg"},{"bike_id":"c4464463-92cc-48b8-b950-7ed437f91335","system_id":"levelo_inurba_marseille","lat":43.29223,"lon":5.3606,"is_reserved":false,"is_disabled":false,"rental_uris":{"android":"levelo://app?vid=c4464463-92cc-48b8-b950-7ed437f91335","ios":"levelo://app?vid=c4464463-92cc-48b8-b950-7ed437f91335"},"vehicle_type_id":"4","last_reported":1735477946,"current_range_meters":34800,"station_id":"ce4bhbh2rcd13ifvqeqg","pricing_plan_id":"cebpf4jnsgd1na2vs0mg"},{"bike_id":"c90b66f2-ec6e-48fe-96d2-e2692c22a941","system_id":"levelo_inurba_marseille","lat":43.2901,"lon":5.35615,"is_reserved":false,"is_disabled":false,"rental_uris":{"android":"levelo://app?vid=c90b66f2-ec6e-48fe-96d2-e2692c22a941","ios":"levelo://app?vid=c90b66f2-ec6e-48fe-96d2-e2692c22a941"},"vehicle_type_id":"4","last_reported":1735477946,"current_range_meters":9600,"station_id":"ce4bhb92rcd13ifvqen0","pricing_plan_id":"cebpf4jnsgd1na2vs0mg"},{"bike_id":"a290ce1e-6506-44b7-92b7-bc77d5be8b20","system_id":"levelo_inurba_marseille","lat":43.27211,"lon":5.39184,"is_reserved":false,"is_disabled":false,"rental_uris":{"android":"levelo://app?vid=a290ce1e-6506-44b7-92b7-bc77d5be8b20","ios":"levelo://app?vid=a290ce1e-6506-44b7-92b7-bc77d5be8b20"},"vehicle_type_id":"4","last_reported":1735477946,"current_range_meters":37600,"station_id":"ce4bhhp2rcd13ifvqfm0","pricing_plan_id":"cebpf4jnsgd1na2vs0mg"},{"bike_id":"356fd92d-e963-40e6-b40e-58fc72ac9553","system_id":"levelo_inurba_marseille","lat":43.32104,"lon":5.36778,"is_reserved":false,"is_disabled":false,"rental_uris":{"android":"levelo://app?vid=356fd92d-e963-40e6-b40e-58fc72ac9553","ios":"levelo://app?vid=356fd92d-e963-40e6-b40e-58fc72ac9553"},"vehicle_type_id":"4","last_reported":1735477946,"current_range_meters":37600,"station_id":"ce4bhrh2rcd13ifvqhug","pricing_plan_id":"cebpf4jnsgd1na2vs0mg"},{"bike_id":"12b64bf2-4ce1-4146-af5b-eb3b72f8d5ae","system_id":"levelo_inurba_marseille","lat":43.25729,"lon":5.41116,"is_reserved":false,"is_disabled":false,"rental_uris":{"android":"levelo://app?vid=12b64bf2-4ce1-4146-af5b-eb3b72f8d5ae","ios":"levelo://app?vid=12b64bf2-4ce1-4146-af5b-eb3b72f8d5ae"},"vehicle_type_id":"4","last_reported":1735477946,"current_range_meters":38800,"station_id":"ce4bhkp2rcd13ifvqgd0","pricing_plan_id":"cebpf4jnsgd1na2vs0mg"},{"bike_id":"9cf47541-6d81-40c9-9a0a-10f52490d028","system_id":"levelo_inurba_marseille","lat":43.23156,"lon":5.43707,"is_reserved":false,"is_disabled":false,"rental_uris":{"android":"levelo://app?vid=9cf47541-6d81-40c9-9a0a-10f52490d028","ios":"levelo://app?vid=9cf47541-6d81-40c9-9a0a-10f52490d028"},"vehicle_type_id":"4","last_reported":1735477946,"current_range_meters":12800,"station_id":"ce4bhmp2rcd13ifvqgog","pricing_plan_id":"cebpf4jnsgd1na2vs0mg"},{"bike_id":"a0a23f3e-a7a3-4649-a9f6-4d7c21f4f9e5","system_id":"levelo_inurba_marseille","lat":43.29678,"lon":5.37296,"is_reserved":false,"is_disabled":false,"rental_uris":{"android":"levelo://app?vid=a0a23f3e-a7a3-4649-a9f6-4d7c21f4f9e5","ios":"levelo://app?vid=a0a23f3e-a7a3-4649-a9f6-4d7c21f4f9e5"},"vehicle_type_id":"4","last_reported":1735477946,"current_range_meters":38800,"station_id":"ce4bgk12rcd13ifvqbj0","pricing_plan_id":"cebpf4jnsgd1na2vs0mg"},{"bike_id":"4ff07c24-5f71-48e2-ae35-b8ed4c8088e4","system_id":"levelo_inurba_marseille","lat":43.29236,"lon":5.36072,"is_reserved":false,"is_disabled":false,"rental_uris":{"android":"levelo://app?vid=4ff07c24-5f71-48e2-ae35-b8ed4c8088e4","ios":"levelo://app?vid=4ff07c24-5f71-48e2-ae35-b8ed4c8088e4"},"vehicle_type_id":"4","last_reported":1735477946,"current_range_meters":32000,"station_id":"ce4bhbh2rcd13ifvqeqg","pricing_plan_id":"cebpf4jnsgd1na2vs0mg"},{"bike_id":"7e1dc608-a820-41f3-8381-31f3794c2504","system_id":"levelo_inurba_marseille","lat":43.27993,"lon":5.41687,"is_reserved":false,"is_disabled":false,"rental_uris":{"android":"levelo://app?vid=7e1dc608-a820-41f3-8381-31f3794c2504","ios":"levelo://app?vid=7e1dc608-a820-41f3-8381-31f3794c2504"},"vehicle_type_id":"4","last_reported":1735477946,"current_range_meters":36800,"station_id":"ce4bho12rcd13ifvqh1g","pricing_plan_id":"cebpf4jnsgd1na2vs0mg"},{"bike_id":"a7322e7d-fa1c-435c-b4da-98cb797fb06e","system_id":"levelo_inurba_marseille","lat":43.30584,"lon":5.37113,"is_reserved":false,"is_disabled":false,"rental_uris":{"android":"levelo://app?vid=a7322e7d-fa1c-435c-b4da-98cb797fb06e","ios":"levelo://app?vid=a7322e7d-fa1c-435c-b4da-98cb797fb06e"},"vehicle_type_id":"4","last_reported":1735477946,"current_range_meters":38800,"station_id":"ce4bgqh2rcd13ifvqc4g","pricing_plan_id":"cebpf4jnsgd1na2vs0mg"},{"bike_id":"673ed0fe-3027-4e1f-9efc-2804b0e32190","system_id":"levelo_inurba_marseille","lat":43.2669,"lon":5.3827,"is_reserved":false,"is_disabled":false,"rental_uris":{"android":"levelo://app?vid=673ed0fe-3027-4e1f-9efc-2804b0e32190","ios":"levelo://app?vid=673ed0fe-3027-4e1f-9efc-2804b0e32190"},"vehicle_type_id":"4","last_reported":1735477946,"current_range_meters":38800,"station_id":"ce4bhg92rcd13ifvqf90","pricing_plan_id":"cebpf4jnsgd1na2vs0mg"},{"bike_id":"c2b38636-82b3-4c3a-88d2-48449d43e7b0","system_id":"levelo_inurba_marseille","lat":43.30542,"lon":5.38443,"is_reserved":false,"is_disabled":false,"rental_uris":{"android":"levelo://app?vid=c2b38636-82b3-4c3a-88d2-48449d43e7b0","ios":"levelo://app?vid=c2b38636-82b3-4c3a-88d2-48449d43e7b0"},"vehicle_type_id":"4","last_reported":1735477946,"current_range_meters":38400,"station_id":"ce4bgg92rcd13ifvqb30","pricing_plan_id":"cebpf4jnsgd1na2vs0mg"},{"bike_id":"839d9add-f6be-4f14-b54d-e253e7d94bc5","system_id":"levelo_inurba_marseille","lat":43.31126,"lon":5.37764,"is_reserved":false,"is_disabled":false,"rental_uris":{"android":"levelo://app?vid=839d9add-f6be-4f14-b54d-e253e7d94bc5","ios":"levelo://app?vid=839d9add-f6be-4f14-b54d-e253e7d94bc5"},"vehicle_type_id":"4","last_reported":1735477946,"current_range_meters":33600,"station_id":"ce4bgt92rcd13ifvqcg0","pricing_plan_id":"cebpf4jnsgd1na2vs0mg"},{"bike_id":"17281b94-d9ee-4de2-b86b-bf8a41fceb2b","system_id":"levelo_inurba_marseille","lat":43.25008,"lon":5.389187,"is_reserved":false,"is_disabled":false,"rental_uris":{"android":"levelo://app?vid=17281b94-d9ee-4de2-b86b-bf8a41fceb2b","ios":"levelo://app?vid=17281b94-d9ee-4de2-b86b-bf8a41fceb2b"},"vehicle_type_id":"4","last_reported":1735477946,"current_range_meters":20800,"station_id":"ce4bhgp2rcd13ifvqfd0","pricing_plan_id":"cebpf4jnsgd1na2vs0mg"},{"bike_id":"e70ce8bb-674e-436b-ab6d-79ca756c291a","system_id":"levelo_inurba_marseille","lat":43.25727,"lon":5.41113,"is_reserved":false,"is_disabled":false,"rental_uris":{"android":"levelo://app?vid=e70ce8bb-674e-436b-ab6d-79ca756c291a","ios":"levelo://app?vid=e70ce8bb-674e-436b-ab6d-79ca756c291a"},"vehicle_type_id":"4","last_reported":1735477946,"current_range_meters":31200,"station_id":"ce4bhkp2rcd13ifvqgd0","pricing_plan_id":"cebpf4jnsgd1na2vs0mg"},{"bike_id":"c8d1c33c-78e9-42be-a881-5b72ffd6d815","system_id":"levelo_inurba_marseille","lat":43.29916,"lon":5.37478,"is_reserved":false,"is_disabled":false,"rental_uris":{"android":"levelo://app?vid=c8d1c33c-78e9-42be-a881-5b72ffd6d815","ios":"levelo://app?vid=c8d1c33c-78e9-42be-a881-5b72ffd6d815"},"vehicle_type_id":"4","last_reported":1735477946,"current_range_meters":39200,"station_id":"ce4bgjh2rcd13ifvqbg0","pricing_plan_id":"cebpf4jnsgd1na2vs0mg"},{"bike_id":"182697cb-2219-4e08-8291-846687f91a97","system_id":"levelo_inurba_marseille","lat":43.28154,"lon":5.42644,"is_reserved":false,"is_disabled":false,"rental_uris":{"android":"levelo://app?vid=182697cb-2219-4e08-8291-846687f91a97","ios":"levelo://app?vid=182697cb-2219-4e08-8291-846687f91a97"},"vehicle_type_id":"4","last_reported":1735477946,"current_range_meters":36800,"station_id":"ce4bhnh2rcd13ifvqgug","pricing_plan_id":"cebpf4jnsgd1na2vs0mg"},{"bike_id":"f119d51a-5c20-447e-8a4a-b026c7a23c3c","system_id":"levelo_inurba_marseille","lat":43.2906,"lon":5.37161,"is_reserved":false,"is_disabled":false,"rental_uris":{"android":"levelo://app?vid=f119d51a-5c20-447e-8a4a-b026c7a23c3c","ios":"levelo://app?vid=f119d51a-5c20-447e-8a4a-b026c7a23c3c"},"vehicle_type_id":"4","last_reported":1735477946,"current_range_meters":18000,"station_id":"ce4bh5p2rcd13ifvqe4g","pricing_plan_id":"cebpf4jnsgd1na2vs0mg"},{"bike_id":"35142cb1-da84-4465-a902-1b70f5829b31","system_id":"levelo_inurba_marseille","lat":43.25735,"lon":5.41109,"is_reserved":false,"is_disabled":false,"rental_uris":{"android":"levelo://app?vid=35142cb1-da84-4465-a902-1b70f5829b31","ios":"levelo://app?vid=35142cb1-da84-4465-a902-1b70f5829b31"},"vehicle_type_id":"4","last_reported":1735477946,"current_range_meters":36800,"station_id":"ce4bhkp2rcd13ifvqgd0","pricing_plan_id":"cebpf4jnsgd1na2vs0mg"},{"bike_id":"84e4073a-d8bb-4ef1-89f6-95c8b39d48ee","system_id":"levelo_inurba_marseille","lat":43.24064,"lon":5.37754,"is_reserved":false,"is_disabled":false,"rental_uris":{"android":"levelo://app?vid=84e4073a-d8bb-4ef1-89f6-95c8b39d48ee","ios":"levelo://app?vid=84e4073a-d8bb-4ef1-89f6-95c8b39d48ee"},"vehicle_type_id":"4","last_reported":1735477946,"current_range_meters":30400,"station_id":"ce4bhnp2rcd13ifvqgvg","pricing_plan_id":"cebpf4jnsgd1na2vs0mg"},{"bike_id":"df0eb88d-fd2c-4e51-b29b-0b4e96cdb399","system_id":"levelo_inurba_marseille","lat":43.2815,"lon":5.42637,"is_reserved":false,"is_disabled":false,"rental_uris":{"android":"levelo://app?vid=df0eb88d-fd2c-4e51-b29b-0b4e96cdb399","ios":"levelo://app?vid=df0eb88d-fd2c-4e51-b29b-0b4e96cdb399"},"vehicle_type_id":"4","last_reported":1735477946,"current_range_meters":32000,"station_id":"ce4bhnh2rcd13ifvqgug","pricing_plan_id":"cebpf4jnsgd1na2vs0mg"},{"bike_id":"f32cca47-ddd8-4ccd-b197-1c4f0f381420","system_id":"levelo_inurba_marseille","lat":43.29936,"lon":5.37475,"is_reserved":false,"is_disabled":false,"rental_uris":{"android":"levelo://app?vid=f32cca47-ddd8-4ccd-b197-1c4f0f381420","ios":"levelo://app?vid=f32cca47-ddd8-4ccd-b197-1c4f0f381420"},"vehicle_type_id":"4","last_reported":1735477946,"current_range_meters":36000,"station_id":"ce4bgjh2rcd13ifvqbg0","pricing_plan_id":"cebpf4jnsgd1na2vs0mg"},{"bike_id":"c898578e-e173-432b-bcf7-7f88cb59955c","system_id":"levelo_inurba_marseille","lat":43.27835,"lon":5.39214,"is_reserved":false,"is_disabled":false,"rental_uris":{"android":"levelo://app?vid=c898578e-e173-432b-bcf7-7f88cb59955c","ios":"levelo://app?vid=c898578e-e173-432b-bcf7-7f88cb59955c"},"vehicle_type_id":"4","last_reported":1735477946,"current_range_meters":37600,"station_id":"ce4bhjp2rcd13ifvqga0","pricing_plan_id":"cebpf4jnsgd1na2vs0mg"},{"bike_id":"585de49c-4b3d-4a09-97c5-0ee13dcc1b7c","system_id":"levelo_inurba_marseille","lat":43.29546,"lon":5.42279,"is_reserved":false,"is_disabled":false,"rental_uris":{"android":"levelo://app?vid=585de49c-4b3d-4a09-97c5-0ee13dcc1b7c","ios":"levelo://app?vid=585de49c-4b3d-4a09-97c5-0ee13dcc1b7c"},"vehicle_type_id":"4","last_reported":1735477946,"current_range_meters":12000,"station_id":"ce4bhph2rcd13ifvqhdg","pricing_plan_id":"cebpf4jnsgd1na2vs0mg"},{"bike_id":"800f6e04-ce8a-47f4-854c-107a31ec46b1","system_id":"levelo_inurba_marseille","lat":43.27906,"lon":5.37988,"is_reserved":false,"is_disabled":false,"rental_uris":{"android":"levelo://app?vid=800f6e04-ce8a-47f4-854c-107a31ec46b1","ios":"levelo://app?vid=800f6e04-ce8a-47f4-854c-107a31ec46b1"},"vehicle_type_id":"4","last_reported":1735477946,"current_range_meters":35600,"station_id":"ce4bhf92rcd13ifvqf50","pricing_plan_id":"cebpf4jnsgd1na2vs0mg"},{"bike_id":"309a9554-13e3-4a27-8da4-4d931614d914","system_id":"levelo_inurba_marseille","lat":43.29047,"lon":5.38132,"is_reserved":false,"is_disabled":true,"rental_uris":{"android":"levelo://app?vid=309a9554-13e3-4a27-8da4-4d931614d914","ios":"levelo://app?vid=309a9554-13e3-4a27-8da4-4d931614d914"},"vehicle_type_id":"4","last_reported":1735477946,"current_range_meters":4000,"station_id":"ce4bh4p2rcd13ifvqe1g","pricing_plan_id":"cebpf4jnsgd1na2vs0mg"},{"bike_id":"661db2d5-e28b-4307-b130-bd69e3d3aa66","system_id":"levelo_inurba_marseille","lat":43.28658,"lon":5.36361,"is_reserved":false,"is_disabled":false,"rental_uris":{"android":"levelo://app?vid=661db2d5-e28b-4307-b130-bd69e3d3aa66","ios":"levelo://app?vid=661db2d5-e28b-4307-b130-bd69e3d3aa66"},"vehicle_type_id":"4","last_reported":1735477946,"current_range_meters":38800,"station_id":"ce4bhah2rcd13ifvqej0","pricing_plan_id":"cebpf4jnsgd1na2vs0mg"},{"bike_id":"1107af61-e211-41cf-b98e-f5d9cce08783","system_id":"levelo_inurba_marseille","lat":43.30896,"lon":5.37204,"is_reserved":false,"is_disabled":false,"rental_uris":{"android":"levelo://app?vid=1107af61-e211-41cf-b98e-f5d9cce08783","ios":"levelo://app?vid=1107af61-e211-41cf-b98e-f5d9cce08783"},"vehicle_type_id":"4","last_reported":1735477946,"current_range_meters":28800,"station_id":"ce4bguh2rcd13ifvqckg","pricing_plan_id":"cebpf4jnsgd1na2vs0mg"},{"bike_id":"2598d78b-c5cd-4ad1-8306-8c58913fa9c2","system_id":"levelo_inurba_marseille","lat":43.26612,"lon":5.42249,"is_reserved":false,"is_disabled":false,"rental_uris":{"android":"levelo://app?vid=2598d78b-c5cd-4ad1-8306-8c58913fa9c2","ios":"levelo://app?vid=2598d78b-c5cd-4ad1-8306-8c58913fa9c2"},"vehicle_type_id":"4","last_reported":1735477946,"current_range_meters":30000,"station_id":"","pricing_plan_id":"cebpf4jnsgd1na2vs0mg"},{"bike_id":"2d76d9f4-5ac3-420c-b7d3-8710df44025b","system_id":"levelo_inurba_marseille","lat":43.29554,"lon":5.42287,"is_reserved":false,"is_disabled":false,"rental_uris":{"android":"levelo://app?vid=2d76d9f4-5ac3-420c-b7d3-8710df44025b","ios":"levelo://app?vid=2d76d9f4-5ac3-420c-b7d3-8710df44025b"},"vehicle_type_id":"4","last_reported":1735477946,"current_range_meters":9600,"station_id":"ce4bhph2rcd13ifvqhdg","pricing_plan_id":"cebpf4jnsgd1na2vs0mg"},{"bike_id":"5477d212-35e2-4622-b27a-bfe5ff434d03","system_id":"levelo_inurba_marseille","lat":43.337603,"lon":5.374424,"is_reserved":false,"is_disabled":false,"rental_uris":{"android":"levelo://app?vid=5477d212-35e2-4622-b27a-bfe5ff434d03","ios":"levelo://app?vid=5477d212-35e2-4622-b27a-bfe5ff434d03"},"vehicle_type_id":"4","last_reported":1735477946,"current_range_meters":20800,"station_id":"","pricing_plan_id":"cebpf4jnsgd1na2vs0mg"},{"bike_id":"48721a63-ba08-4c83-8bd7-08bdf7c2fed3","system_id":"levelo_inurba_marseille","lat":43.29708,"lon":5.37696,"is_reserved":false,"is_disabled":false,"rental_uris":{"android":"levelo://app?vid=48721a63-ba08-4c83-8bd7-08bdf7c2fed3","ios":"levelo://app?vid=48721a63-ba08-4c83-8bd7-08bdf7c2fed3"},"vehicle_type_id":"4","last_reported":1735477946,"current_range_meters":38800,"station_id":"ce4bgkh2rcd13ifvqbl0","pricing_plan_id":"cebpf4jnsgd1na2vs0mg"},{"bike_id":"ae8c5d73-c32e-4966-86fa-fa7824db4018","system_id":"levelo_inurba_marseille","lat":43.29584,"lon":5.37513,"is_reserved":false,"is_disabled":false,"rental_uris":{"android":"levelo://app?vid=ae8c5d73-c32e-4966-86fa-fa7824db4018","ios":"levelo://app?vid=ae8c5d73-c32e-4966-86fa-fa7824db4018"},"vehicle_type_id":"4","last_reported":1735477946,"current_range_meters":26000,"station_id":"ce4bgh92rcd13ifvqb50","pricing_plan_id":"cebpf4jnsgd1na2vs0mg"},{"bike_id":"ee8cf5f1-3afc-4c7b-8ed3-ddb81b6ed983","system_id":"levelo_inurba_marseille","lat":43.29937,"lon":5.36553,"is_reserved":false,"is_disabled":false,"rental_uris":{"android":"levelo://app?vid=ee8cf5f1-3afc-4c7b-8ed3-ddb81b6ed983","ios":"levelo://app?vid=ee8cf5f1-3afc-4c7b-8ed3-ddb81b6ed983"},"vehicle_type_id":"4","last_reported":1735477946,"current_range_meters":38800,"station_id":"ce4bgm92rcd13ifvqbr0","pricing_plan_id":"cebpf4jnsgd1na2vs0mg"},{"bike_id":"7aab2ffc-cec0-4dd6-981d-6bd7c8cbfd0b","system_id":"levelo_inurba_marseille","lat":43.26066,"lon":5.39401,"is_reserved":false,"is_disabled":true,"rental_uris":{"android":"levelo://app?vid=7aab2ffc-cec0-4dd6-981d-6bd7c8cbfd0b","ios":"levelo://app?vid=7aab2ffc-cec0-4dd6-981d-6bd7c8cbfd0b"},"vehicle_type_id":"4","last_reported":1735477946,"current_range_meters":38800,"station_id":"ce4bhh92rcd13ifvqfj0","pricing_plan_id":"cebpf4jnsgd1na2vs0mg"},{"bike_id":"fe941581-6db5-41a8-b522-767d05b59e14","system_id":"levelo_inurba_marseille","lat":43.30608,"lon":5.37214,"is_reserved":false,"is_disabled":false,"rental_uris":{"android":"levelo://app?vid=fe941581-6db5-41a8-b522-767d05b59e14","ios":"levelo://app?vid=fe941581-6db5-41a8-b522-767d05b59e14"},"vehicle_type_id":"4","last_reported":1735477946,"current_range_meters":19200,"station_id":"ce4bgqh2rcd13ifvqc4g","pricing_plan_id":"cebpf4jnsgd1na2vs0mg"},{"bike_id":"b6d4824c-6dae-4a62-9254-1fb16b5135f5","system_id":"levelo_inurba_marseille","lat":43.30464,"lon":5.37912,"is_reserved":false,"is_disabled":false,"rental_uris":{"android":"levelo://app?vid=b6d4824c-6dae-4a62-9254-1fb16b5135f5","ios":"levelo://app?vid=b6d4824c-6dae-4a62-9254-1fb16b5135f5"},"vehicle_type_id":"4","last_reported":1735477946,"current_range_meters":36800,"station_id":"ce4bgup2rcd13ifvqcn0","pricing_plan_id":"cebpf4jnsgd1na2vs0mg"},{"bike_id":"b56176fa-a412-4c63-8350-10c3499a370b","system_id":"levelo_inurba_marseille","lat":43.23192,"lon":5.3556,"is_reserved":false,"is_disabled":false,"rental_uris":{"android":"levelo://app?vid=b56176fa-a412-4c63-8350-10c3499a370b","ios":"levelo://app?vid=b56176fa-a412-4c63-8350-10c3499a370b"},"vehicle_type_id":"4","last_reported":1735477946,"current_range_meters":26800,"station_id":"ce4bhu92rcd13ifvqi70","pricing_plan_id":"cebpf4jnsgd1na2vs0mg"},{"bike_id":"bbe4e711-3e45-461b-b5f6-f6d4e22b6274","system_id":"levelo_inurba_marseille","lat":43.27914,"lon":5.39583,"is_reserved":false,"is_disabled":true,"rental_uris":{"android":"levelo://app?vid=bbe4e711-3e45-461b-b5f6-f6d4e22b6274","ios":"levelo://app?vid=bbe4e711-3e45-461b-b5f6-f6d4e22b6274"},"vehicle_type_id":"4","last_reported":1735477946,"current_range_meters":35600,"station_id":"ce4bhf92rcd13ifvqf40","pricing_plan_id":"cebpf4jnsgd1na2vs0mg"},{"bike_id":"b1c0ee8d-93e8-4cc8-82d6-c539d877336e","system_id":"levelo_inurba_marseille","lat":43.244,"lon":5.37053,"is_reserved":false,"is_disabled":false,"rental_uris":{"android":"levelo://app?vid=b1c0ee8d-93e8-4cc8-82d6-c539d877336e","ios":"levelo://app?vid=b1c0ee8d-93e8-4cc8-82d6-c539d877336e"},"vehicle_type_id":"4","last_reported":1735477946,"current_range_meters":39200,"station_id":"ce4bhhh2rcd13ifvqfk0","pricing_plan_id":"cebpf4jnsgd1na2vs0mg"},{"bike_id":"f369f455-4c4a-489c-b1dd-c0516713fdbc","system_id":"levelo_inurba_marseille","lat":43.26556,"lon":5.37289,"is_reserved":false,"is_disabled":false,"rental_uris":{"android":"levelo://app?vid=f369f455-4c4a-489c-b1dd-c0516713fdbc","ios":"levelo://app?vid=f369f455-4c4a-489c-b1dd-c0516713fdbc"},"vehicle_type_id":"4","last_reported":1735477946,"current_range_meters":29600,"station_id":"ce4bhg12rcd13ifvqf70","pricing_plan_id":"cebpf4jnsgd1na2vs0mg"},{"bike_id":"b59c2b9b-2b70-4d18-a0f4-0864f501dcb7","system_id":"levelo_inurba_marseille","lat":43.311194,"lon":5.377682,"is_reserved":false,"is_disabled":false,"rental_uris":{"android":"levelo://app?vid=b59c2b9b-2b70-4d18-a0f4-0864f501dcb7","ios":"levelo://app?vid=b59c2b9b-2b70-4d18-a0f4-0864f501dcb7"},"vehicle_type_id":"4","last_reported":1735477946,"current_range_meters":22400,"station_id":"ce4bgt92rcd13ifvqcg0","pricing_plan_id":"cebpf4jnsgd1na2vs0mg"},{"bike_id":"ffee1acd-67fd-46c8-9d8e-d3d42484b023","system_id":"levelo_inurba_marseille","lat":43.29011,"lon":5.35613,"is_reserved":false,"is_disabled":false,"rental_uris":{"android":"levelo://app?vid=ffee1acd-67fd-46c8-9d8e-d3d42484b023","ios":"levelo://app?vid=ffee1acd-67fd-46c8-9d8e-d3d42484b023"},"vehicle_type_id":"4","last_reported":1735477946,"current_range_meters":26800,"station_id":"ce4bhb92rcd13ifvqen0","pricing_plan_id":"cebpf4jnsgd1na2vs0mg"},{"bike_id":"b1c233e5-706f-45e5-9465-ea01d85f3853","system_id":"levelo_inurba_marseille","lat":43.292147,"lon":5.360657,"is_reserved":false,"is_disabled":false,"rental_uris":{"android":"levelo://app?vid=b1c233e5-706f-45e5-9465-ea01d85f3853","ios":"levelo://app?vid=b1c233e5-706f-45e5-9465-ea01d85f3853"},"vehicle_type_id":"4","last_reported":1735477946,"current_range_meters":34800,"station_id":"ce4bhbh2rcd13ifvqeqg","pricing_plan_id":"cebpf4jnsgd1na2vs0mg"},{"bike_id":"dd708212-6c95-4591-b555-43b33b8da7f5","system_id":"levelo_inurba_marseille","lat":43.25731,"lon":5.41109,"is_reserved":false,"is_disabled":false,"rental_uris":{"android":"levelo://app?vid=dd708212-6c95-4591-b555-43b33b8da7f5","ios":"levelo://app?vid=dd708212-6c95-4591-b555-43b33b8da7f5"},"vehicle_type_id":"4","last_reported":1735477946,"current_range_meters":38000,"station_id":"ce4bhkp2rcd13ifvqgd0","pricing_plan_id":"cebpf4jnsgd1na2vs0mg"},{"bike_id":"5e2e67f6-8855-4a1a-a193-10c8e793ffd7","system_id":"levelo_inurba_marseille","lat":43.24055,"lon":5.37746,"is_reserved":false,"is_disabled":false,"rental_uris":{"android":"levelo://app?vid=5e2e67f6-8855-4a1a-a193-10c8e793ffd7","ios":"levelo://app?vid=5e2e67f6-8855-4a1a-a193-10c8e793ffd7"},"vehicle_type_id":"4","last_reported":1735477946,"current_range_meters":38800,"station_id":"ce4bhnp2rcd13ifvqgvg","pricing_plan_id":"cebpf4jnsgd1na2vs0mg"},{"bike_id":"b5bf18d7-0a57-4740-a5f5-707f27def39b","system_id":"levelo_inurba_marseille","lat":43.29439,"lon":5.39749,"is_reserved":false,"is_disabled":false,"rental_uris":{"android":"levelo://app?vid=b5bf18d7-0a57-4740-a5f5-707f27def39b","ios":"levelo://app?vid=b5bf18d7-0a57-4740-a5f5-707f27def39b"},"vehicle_type_id":"4","last_reported":1735477946,"current_range_meters":38800,"station_id":"ce4bh3h2rcd13ifvqdo0","pricing_plan_id":"cebpf4jnsgd1na2vs0mg"},{"bike_id":"ae9b6908-7454-4899-a4fc-b8e9335bda92","system_id":"levelo_inurba_marseille","lat":43.31768,"lon":5.3901,"is_reserved":false,"is_disabled":false,"rental_uris":{"android":"levelo://app?vid=ae9b6908-7454-4899-a4fc-b8e9335bda92","ios":"levelo://app?vid=ae9b6908-7454-4899-a4fc-b8e9335bda92"},"vehicle_type_id":"4","last_reported":1735477946,"current_range_meters":38800,"station_id":"ce4bhqp2rcd13ifvqhng","pricing_plan_id":"cebpf4jnsgd1na2vs0mg"},{"bike_id":"27001726-4b0a-4ba0-8261-5a303bdee373","system_id":"levelo_inurba_marseille","lat":43.27586,"lon":5.38409,"is_reserved":false,"is_disabled":false,"rental_uris":{"android":"levelo://app?vid=27001726-4b0a-4ba0-8261-5a303bdee373","ios":"levelo://app?vid=27001726-4b0a-4ba0-8261-5a303bdee373"},"vehicle_type_id":"4","last_reported":1735477946,"current_range_meters":38400,"station_id":"ce4bhh92rcd13ifvqfi0","pricing_plan_id":"cebpf4jnsgd1na2vs0mg"},{"bike_id":"af28d292-226b-4b0c-b39e-417b89319493","system_id":"levelo_inurba_marseille","lat":43.23197,"lon":5.35556,"is_reserved":false,"is_disabled":false,"rental_uris":{"android":"levelo://app?vid=af28d292-226b-4b0c-b39e-417b89319493","ios":"levelo://app?vid=af28d292-226b-4b0c-b39e-417b89319493"},"vehicle_type_id":"4","last_reported":1735477946,"current_range_meters":22000,"station_id":"ce4bhu92rcd13ifvqi70","pricing_plan_id":"cebpf4jnsgd1na2vs0mg"},{"bike_id":"a2dfaa5b-c1ad-4316-ae45-cf62c09c30b3","system_id":"levelo_inurba_marseille","lat":43.32108,"lon":5.3677,"is_reserved":false,"is_disabled":false,"rental_uris":{"android":"levelo://app?vid=a2dfaa5b-c1ad-4316-ae45-cf62c09c30b3","ios":"levelo://app?vid=a2dfaa5b-c1ad-4316-ae45-cf62c09c30b3"},"vehicle_type_id":"4","last_reported":1735477946,"current_range_meters":18800,"station_id":"ce4bhrh2rcd13ifvqhug","pricing_plan_id":"cebpf4jnsgd1na2vs0mg"},{"bike_id":"5f8ee9c5-4e33-43ee-b8aa-ac908ba0aac5","system_id":"levelo_inurba_marseille","lat":43.27488,"lon":5.42456,"is_reserved":false,"is_disabled":false,"rental_uris":{"android":"levelo://app?vid=5f8ee9c5-4e33-43ee-b8aa-ac908ba0aac5","ios":"levelo://app?vid=5f8ee9c5-4e33-43ee-b8aa-ac908ba0aac5"},"vehicle_type_id":"4","last_reported":1735477946,"current_range_meters":25200,"station_id":"ce4bhn92rcd13ifvqgrg","pricing_plan_id":"cebpf4jnsgd1na2vs0mg"},{"bike_id":"f6eaced9-ca89-417f-a01d-b87955fe3119","system_id":"levelo_inurba_marseille","lat":43.28425,"lon":5.34998,"is_reserved":false,"is_disabled":true,"rental_uris":{"android":"levelo://app?vid=f6eaced9-ca89-417f-a01d-b87955fe3119","ios":"levelo://app?vid=f6eaced9-ca89-417f-a01d-b87955fe3119"},"vehicle_type_id":"4","last_reported":1735477946,"current_range_meters":4000,"station_id":"ce4bhbh2rcd13ifvqepg","pricing_plan_id":"cebpf4jnsgd1na2vs0mg"},{"bike_id":"1352858a-a749-4923-98fd-62aa7f0b3279","system_id":"levelo_inurba_marseille","lat":43.28274,"lon":5.35077,"is_reserved":false,"is_disabled":false,"rental_uris":{"android":"levelo://app?vid=1352858a-a749-4923-98fd-62aa7f0b3279","ios":"levelo://app?vid=1352858a-a749-4923-98fd-62aa7f0b3279"},"vehicle_type_id":"4","last_reported":1735477946,"current_range_meters":28000,"station_id":"ce4bhbp2rcd13ifvqerg","pricing_plan_id":"cebpf4jnsgd1na2vs0mg"},{"bike_id":"1560d899-203a-414b-9dd8-6d05efff7eee","system_id":"levelo_inurba_marseille","lat":43.27686,"lon":5.38891,"is_reserved":false,"is_disabled":false,"rental_uris":{"android":"levelo://app?vid=1560d899-203a-414b-9dd8-6d05efff7eee","ios":"levelo://app?vid=1560d899-203a-414b-9dd8-6d05efff7eee"},"vehicle_type_id":"4","last_reported":1735477946,"current_range_meters":38800,"station_id":"ce4bhi12rcd13ifvqfo0","pricing_plan_id":"cebpf4jnsgd1na2vs0mg"},{"bike_id":"c4fd707c-d047-48ec-b77f-f5859c2695cf","system_id":"levelo_inurba_marseille","lat":43.29255,"lon":5.40914,"is_reserved":false,"is_disabled":false,"rental_uris":{"android":"levelo://app?vid=c4fd707c-d047-48ec-b77f-f5859c2695cf","ios":"levelo://app?vid=c4fd707c-d047-48ec-b77f-f5859c2695cf"},"vehicle_type_id":"4","last_reported":1735477946,"current_range_meters":38800,"station_id":"ce4bh192rcd13ifvqdc0","pricing_plan_id":"cebpf4jnsgd1na2vs0mg"},{"bike_id":"2cecd056-a447-4e9c-9a5d-5fa21b1c4af7","system_id":"levelo_inurba_marseille","lat":43.296287,"lon":5.377128,"is_reserved":false,"is_disabled":false,"rental_uris":{"android":"levelo://app?vid=2cecd056-a447-4e9c-9a5d-5fa21b1c4af7","ios":"levelo://app?vid=2cecd056-a447-4e9c-9a5d-5fa21b1c4af7"},"vehicle_type_id":"4","last_reported":1735477946,"current_range_meters":37600,"station_id":"ce4bgjp2rcd13ifvqbh0","pricing_plan_id":"cebpf4jnsgd1na2vs0mg"},{"bike_id":"c9e5d6c6-5601-4769-be5c-20fef93ca121","system_id":"levelo_inurba_marseille","lat":43.24159,"lon":5.36397,"is_reserved":false,"is_disabled":false,"rental_uris":{"android":"levelo://app?vid=c9e5d6c6-5601-4769-be5c-20fef93ca121","ios":"levelo://app?vid=c9e5d6c6-5601-4769-be5c-20fef93ca121"},"vehicle_type_id":"4","last_reported":1735477946,"current_range_meters":12000,"station_id":"cpo36qri1sfpv3e86is0","pricing_plan_id":"cebpf4jnsgd1na2vs0mg"},{"bike_id":"e23a7d55-7ce1-4f20-a71a-26c06c907d82","system_id":"levelo_inurba_marseille","lat":43.27945,"lon":5.41043,"is_reserved":false,"is_disabled":false,"rental_uris":{"android":"levelo://app?vid=e23a7d55-7ce1-4f20-a71a-26c06c907d82","ios":"levelo://app?vid=e23a7d55-7ce1-4f20-a71a-26c06c907d82"},"vehicle_type_id":"4","last_reported":1735477946,"current_range_meters":36400,"station_id":"ce4bhnp2rcd13ifvqh0g","pricing_plan_id":"cebpf4jnsgd1na2vs0mg"},{"bike_id":"b0c4d0d6-5451-4daa-af56-54957229db80","system_id":"levelo_inurba_marseille","lat":43.323646,"lon":5.36757,"is_reserved":false,"is_disabled":false,"rental_uris":{"android":"levelo://app?vid=b0c4d0d6-5451-4daa-af56-54957229db80","ios":"levelo://app?vid=b0c4d0d6-5451-4daa-af56-54957229db80"},"vehicle_type_id":"4","last_reported":1735477946,"current_range_meters":35600,"station_id":"ce4bhsh2rcd13ifvqi2g","pricing_plan_id":"cebpf4jnsgd1na2vs0mg"},{"bike_id":"5367a292-5564-4681-91cd-97babb89fc00","system_id":"levelo_inurba_marseille","lat":43.22909,"lon":5.35404,"is_reserved":false,"is_disabled":false,"rental_uris":{"android":"levelo://app?vid=5367a292-5564-4681-91cd-97babb89fc00","ios":"levelo://app?vid=5367a292-5564-4681-91cd-97babb89fc00"},"vehicle_type_id":"4","last_reported":1735477946,"current_range_meters":36400,"station_id":"cpo3532slgdg3j2ikp40","pricing_plan_id":"cebpf4jnsgd1na2vs0mg"},{"bike_id":"1b4be964-0f53-4b6c-b152-a8d842a13954","system_id":"levelo_inurba_marseille","lat":43.29882,"lon":5.38913,"is_reserved":false,"is_disabled":false,"rental_uris":{"android":"levelo://app?vid=1b4be964-0f53-4b6c-b152-a8d842a13954","ios":"levelo://app?vid=1b4be964-0f53-4b6c-b152-a8d842a13954"},"vehicle_type_id":"4","last_reported":1735477946,"current_range_meters":35200,"station_id":"ce4bh392rcd13ifvqdl0","pricing_plan_id":"cebpf4jnsgd1na2vs0mg"},{"bike_id":"1fc3c245-f924-4705-a473-5cd4fd7ea76b","system_id":"levelo_inurba_marseille","lat":43.30795,"lon":5.38148,"is_reserved":false,"is_disabled":false,"rental_uris":{"android":"levelo://app?vid=1fc3c245-f924-4705-a473-5cd4fd7ea76b","ios":"levelo://app?vid=1fc3c245-f924-4705-a473-5cd4fd7ea76b"},"vehicle_type_id":"4","last_reported":1735477946,"current_range_meters":26000,"station_id":"ce4bgt12rcd13ifvqce0","pricing_plan_id":"cebpf4jnsgd1na2vs0mg"},{"bike_id":"d8274614-f8fc-4d32-90df-72343babb865","system_id":"levelo_inurba_marseille","lat":43.24802,"lon":5.37456,"is_reserved":false,"is_disabled":false,"rental_uris":{"android":"levelo://app?vid=d8274614-f8fc-4d32-90df-72343babb865","ios":"levelo://app?vid=d8274614-f8fc-4d32-90df-72343babb865"},"vehicle_type_id":"4","last_reported":1735477946,"current_range_meters":36800,"station_id":"ce4bhgh2rcd13ifvqfb0","pricing_plan_id":"cebpf4jnsgd1na2vs0mg"},{"bike_id":"ca90e5ec-b997-4e20-97bf-031227c56d0b","system_id":"levelo_inurba_marseille","lat":43.29912,"lon":5.37482,"is_reserved":false,"is_disabled":false,"rental_uris":{"android":"levelo://app?vid=ca90e5ec-b997-4e20-97bf-031227c56d0b","ios":"levelo://app?vid=ca90e5ec-b997-4e20-97bf-031227c56d0b"},"vehicle_type_id":"4","last_reported":1735477946,"current_range_meters":38400,"station_id":"ce4bgjh2rcd13ifvqbg0","pricing_plan_id":"cebpf4jnsgd1na2vs0mg"},{"bike_id":"b247e7bf-18df-4a02-a468-6ab311a11234","system_id":"levelo_inurba_marseille","lat":43.28459,"lon":5.38416,"is_reserved":false,"is_disabled":false,"rental_uris":{"android":"levelo://app?vid=b247e7bf-18df-4a02-a468-6ab311a11234","ios":"levelo://app?vid=b247e7bf-18df-4a02-a468-6ab311a11234"},"vehicle_type_id":"4","last_reported":1735477946,"current_range_meters":38800,"station_id":"ce4bh512rcd13ifvqe3g","pricing_plan_id":"cebpf4jnsgd1na2vs0mg"},{"bike_id":"e8dd34c9-6e3b-4bd0-a4ea-a3dc8a2f5c17","system_id":"levelo_inurba_marseille","lat":43.31497,"lon":5.37282,"is_reserved":false,"is_disabled":false,"rental_uris":{"android":"levelo://app?vid=e8dd34c9-6e3b-4bd0-a4ea-a3dc8a2f5c17","ios":"levelo://app?vid=e8dd34c9-6e3b-4bd0-a4ea-a3dc8a2f5c17"},"vehicle_type_id":"4","last_reported":1735477946,"current_range_meters":39200,"station_id":"ce4bgt12rcd13ifvqcd0","pricing_plan_id":"cebpf4jnsgd1na2vs0mg"},{"bike_id":"3bb6c0a3-c27d-4867-bf76-4190ca2b375a","system_id":"levelo_inurba_marseille","lat":43.26188,"lon":5.37459,"is_reserved":false,"is_disabled":false,"rental_uris":{"android":"levelo://app?vid=3bb6c0a3-c27d-4867-bf76-4190ca2b375a","ios":"levelo://app?vid=3bb6c0a3-c27d-4867-bf76-4190ca2b375a"},"vehicle_type_id":"4","last_reported":1735477946,"current_range_meters":26000,"station_id":"ce4bhgp2rcd13ifvqfc0","pricing_plan_id":"cebpf4jnsgd1na2vs0mg"},{"bike_id":"4249105e-bcdf-470d-878c-4e86bf42956a","system_id":"levelo_inurba_marseille","lat":43.292328,"lon":5.360675,"is_reserved":false,"is_disabled":false,"rental_uris":{"android":"levelo://app?vid=4249105e-bcdf-470d-878c-4e86bf42956a","ios":"levelo://app?vid=4249105e-bcdf-470d-878c-4e86bf42956a"},"vehicle_type_id":"4","last_reported":1735477946,"current_range_meters":38800,"station_id":"ce4bhbh2rcd13ifvqeqg","pricing_plan_id":"cebpf4jnsgd1na2vs0mg"},{"bike_id":"b912dcc3-5cc2-4a84-8af8-9203c047ffff","system_id":"levelo_inurba_marseille","lat":43.25121,"lon":5.40313,"is_reserved":false,"is_disabled":false,"rental_uris":{"android":"levelo://app?vid=b912dcc3-5cc2-4a84-8af8-9203c047ffff","ios":"levelo://app?vid=b912dcc3-5cc2-4a84-8af8-9203c047ffff"},"vehicle_type_id":"4","last_reported":1735477946,"current_range_meters":3200,"station_id":"ce4bhlh2rcd13ifvqgig","pricing_plan_id":"cebpf4jnsgd1na2vs0mg"},{"bike_id":"a0014d18-862f-4049-8239-679f31d88e42","system_id":"levelo_inurba_marseille","lat":43.29624,"lon":5.37171,"is_reserved":false,"is_disabled":false,"rental_uris":{"android":"levelo://app?vid=a0014d18-862f-4049-8239-679f31d88e42","ios":"levelo://app?vid=a0014d18-862f-4049-8239-679f31d88e42"},"vehicle_type_id":"4","last_reported":1735477946,"current_range_meters":18800,"station_id":"ce4bgnh2rcd13ifvqc0g","pricing_plan_id":"cebpf4jnsgd1na2vs0mg"},{"bike_id":"7ea8fded-d9c4-4454-8a02-171e0453f582","system_id":"levelo_inurba_marseille","lat":43.28267,"lon":5.35066,"is_reserved":false,"is_disabled":false,"rental_uris":{"android":"levelo://app?vid=7ea8fded-d9c4-4454-8a02-171e0453f582","ios":"levelo://app?vid=7ea8fded-d9c4-4454-8a02-171e0453f582"},"vehicle_type_id":"4","last_reported":1735477946,"current_range_meters":23200,"station_id":"ce4bhbp2rcd13ifvqerg","pricing_plan_id":"cebpf4jnsgd1na2vs0mg"},{"bike_id":"8b537bf9-4ee7-4700-a90b-c1ec09b4ef48","system_id":"levelo_inurba_marseille","lat":43.29008,"lon":5.3561,"is_reserved":false,"is_disabled":false,"rental_uris":{"android":"levelo://app?vid=8b537bf9-4ee7-4700-a90b-c1ec09b4ef48","ios":"levelo://app?vid=8b537bf9-4ee7-4700-a90b-c1ec09b4ef48"},"vehicle_type_id":"4","last_reported":1735477946,"current_range_meters":38800,"station_id":"ce4bhb92rcd13ifvqen0","pricing_plan_id":"cebpf4jnsgd1na2vs0mg"},{"bike_id":"7de6e0af-97a2-4cd7-83a9-425a10466db6","system_id":"levelo_inurba_marseille","lat":43.31538,"lon":5.38024,"is_reserved":false,"is_disabled":false,"rental_uris":{"android":"levelo://app?vid=7de6e0af-97a2-4cd7-83a9-425a10466db6","ios":"levelo://app?vid=7de6e0af-97a2-4cd7-83a9-425a10466db6"},"vehicle_type_id":"4","last_reported":1735477946,"current_range_meters":30400,"station_id":"ce4bhsp2rcd13ifvqi50","pricing_plan_id":"cebpf4jnsgd1na2vs0mg"},{"bike_id":"ca471db4-078d-4366-a60c-488b75f21d01","system_id":"levelo_inurba_marseille","lat":43.31517,"lon":5.37275,"is_reserved":false,"is_disabled":false,"rental_uris":{"android":"levelo://app?vid=ca471db4-078d-4366-a60c-488b75f21d01","ios":"levelo://app?vid=ca471db4-078d-4366-a60c-488b75f21d01"},"vehicle_type_id":"4","last_reported":1735477946,"current_range_meters":36400,"station_id":"ce4bgt12rcd13ifvqcd0","pricing_plan_id":"cebpf4jnsgd1na2vs0mg"},{"bike_id":"942f8ae0-f6f5-42e2-980f-8bfebed0d611","system_id":"levelo_inurba_marseille","lat":43.32042,"lon":5.41537,"is_reserved":false,"is_disabled":false,"rental_uris":{"android":"levelo://app?vid=942f8ae0-f6f5-42e2-980f-8bfebed0d611","ios":"levelo://app?vid=942f8ae0-f6f5-42e2-980f-8bfebed0d611"},"vehicle_type_id":"4","last_reported":1735477946,"current_range_meters":37600,"station_id":"ce4bhq92rcd13ifvqhkg","pricing_plan_id":"cebpf4jnsgd1na2vs0mg"},{"bike_id":"dac94ecf-3203-4c89-acc0-21c14e979588","system_id":"levelo_inurba_marseille","lat":43.26697,"lon":5.3828,"is_reserved":false,"is_disabled":false,"rental_uris":{"android":"levelo://app?vid=dac94ecf-3203-4c89-acc0-21c14e979588","ios":"levelo://app?vid=dac94ecf-3203-4c89-acc0-21c14e979588"},"vehicle_type_id":"4","last_reported":1735477946,"current_range_meters":26800,"station_id":"ce4bhg92rcd13ifvqf90","pricing_plan_id":"cebpf4jnsgd1na2vs0mg"},{"bike_id":"dae442df-0334-4a2a-8901-28b38cfe10c7","system_id":"levelo_inurba_marseille","lat":43.231539,"lon":5.437086,"is_reserved":false,"is_disabled":false,"rental_uris":{"android":"levelo://app?vid=dae442df-0334-4a2a-8901-28b38cfe10c7","ios":"levelo://app?vid=dae442df-0334-4a2a-8901-28b38cfe10c7"},"vehicle_type_id":"4","last_reported":1735477946,"current_range_meters":23200,"station_id":"ce4bhmp2rcd13ifvqgog","pricing_plan_id":"cebpf4jnsgd1na2vs0mg"},{"bike_id":"d787e330-e288-4e1c-926a-5bcb7a236ca2","system_id":"levelo_inurba_marseille","lat":43.28153,"lon":5.42654,"is_reserved":false,"is_disabled":false,"rental_uris":{"android":"levelo://app?vid=d787e330-e288-4e1c-926a-5bcb7a236ca2","ios":"levelo://app?vid=d787e330-e288-4e1c-926a-5bcb7a236ca2"},"vehicle_type_id":"4","last_reported":1735477946,"current_range_meters":24400,"station_id":"ce4bhnh2rcd13ifvqgug","pricing_plan_id":"cebpf4jnsgd1na2vs0mg"},{"bike_id":"a97c8903-940e-43da-9537-fb051b09d366","system_id":"levelo_inurba_marseille","lat":43.30954,"lon":5.38182,"is_reserved":false,"is_disabled":false,"rental_uris":{"android":"levelo://app?vid=a97c8903-940e-43da-9537-fb051b09d366","ios":"levelo://app?vid=a97c8903-940e-43da-9537-fb051b09d366"},"vehicle_type_id":"4","last_reported":1735477946,"current_range_meters":33600,"station_id":"","pricing_plan_id":"cebpf4jnsgd1na2vs0mg"},{"bike_id":"ca42594c-4c0a-4080-98d3-9312d00d8df7","system_id":"levelo_inurba_marseille","lat":43.230551,"lon":5.355051,"is_reserved":false,"is_disabled":false,"rental_uris":{"android":"levelo://app?vid=ca42594c-4c0a-4080-98d3-9312d00d8df7","ios":"levelo://app?vid=ca42594c-4c0a-4080-98d3-9312d00d8df7"},"vehicle_type_id":"4","last_reported":1735477946,"current_range_meters":38800,"station_id":"cpo3342slgdg3j2ifvpg","pricing_plan_id":"cebpf4jnsgd1na2vs0mg"},{"bike_id":"46810f0f-9f78-4968-ae3c-d1b737ec6713","system_id":"levelo_inurba_marseille","lat":43.3123,"lon":5.36859,"is_reserved":false,"is_disabled":false,"rental_uris":{"android":"levelo://app?vid=46810f0f-9f78-4968-ae3c-d1b737ec6713","ios":"levelo://app?vid=46810f0f-9f78-4968-ae3c-d1b737ec6713"},"vehicle_type_id":"4","last_reported":1735477946,"current_range_meters":36800,"station_id":"ce4bgl92rcd13ifvqbq0","pricing_plan_id":"cebpf4jnsgd1na2vs0mg"},{"bike_id":"c1669ea3-4e3c-4dbb-809e-0a29c4971d25","system_id":"levelo_inurba_marseille","lat":43.29004,"lon":5.35606,"is_reserved":false,"is_disabled":false,"rental_uris":{"android":"levelo://app?vid=c1669ea3-4e3c-4dbb-809e-0a29c4971d25","ios":"levelo://app?vid=c1669ea3-4e3c-4dbb-809e-0a29c4971d25"},"vehicle_type_id":"4","last_reported":1735477946,"current_range_meters":30400,"station_id":"ce4bhb92rcd13ifvqen0","pricing_plan_id":"cebpf4jnsgd1na2vs0mg"},{"bike_id":"494d9e5b-e33f-4bbf-988e-4ba7f5a0bf5d","system_id":"levelo_inurba_marseille","lat":43.23153,"lon":5.43702,"is_reserved":false,"is_disabled":false,"rental_uris":{"android":"levelo://app?vid=494d9e5b-e33f-4bbf-988e-4ba7f5a0bf5d","ios":"levelo://app?vid=494d9e5b-e33f-4bbf-988e-4ba7f5a0bf5d"},"vehicle_type_id":"4","last_reported":1735477946,"current_range_meters":29600,"station_id":"ce4bhmp2rcd13ifvqgog","pricing_plan_id":"cebpf4jnsgd1na2vs0mg"},{"bike_id":"5a3e8b45-e3e9-43c4-9e92-760144bae04a","system_id":"levelo_inurba_marseille","lat":43.29314,"lon":5.37172,"is_reserved":false,"is_disabled":false,"rental_uris":{"android":"levelo://app?vid=5a3e8b45-e3e9-43c4-9e92-760144bae04a","ios":"levelo://app?vid=5a3e8b45-e3e9-43c4-9e92-760144bae04a"},"vehicle_type_id":"4","last_reported":1735477946,"current_range_meters":37600,"station_id":"ce4bgh92rcd13ifvqb40","pricing_plan_id":"cebpf4jnsgd1na2vs0mg"},{"bike_id":"9c5bca43-a233-42d3-afe6-7aaa0033f973","system_id":"levelo_inurba_marseille","lat":43.317088,"lon":5.377617,"is_reserved":false,"is_disabled":false,"rental_uris":{"android":"levelo://app?vid=9c5bca43-a233-42d3-afe6-7aaa0033f973","ios":"levelo://app?vid=9c5bca43-a233-42d3-afe6-7aaa0033f973"},"vehicle_type_id":"4","last_reported":1735477946,"current_range_meters":12800,"station_id":"ce4bgth2rcd13ifvqch0","pricing_plan_id":"cebpf4jnsgd1na2vs0mg"},{"bike_id":"fc55ee07-cb79-4880-8466-c9fe9e754cca","system_id":"levelo_inurba_marseille","lat":43.325,"lon":5.36689,"is_reserved":false,"is_disabled":false,"rental_uris":{"android":"levelo://app?vid=fc55ee07-cb79-4880-8466-c9fe9e754cca","ios":"levelo://app?vid=fc55ee07-cb79-4880-8466-c9fe9e754cca"},"vehicle_type_id":"4","last_reported":1735477946,"current_range_meters":16800,"station_id":"","pricing_plan_id":"cebpf4jnsgd1na2vs0mg"},{"bike_id":"54d6e866-278e-420d-98d6-ccb9d5a2b8b8","system_id":"levelo_inurba_marseille","lat":43.27986,"lon":5.38754,"is_reserved":false,"is_disabled":false,"rental_uris":{"android":"levelo://app?vid=54d6e866-278e-420d-98d6-ccb9d5a2b8b8","ios":"levelo://app?vid=54d6e866-278e-420d-98d6-ccb9d5a2b8b8"},"vehicle_type_id":"4","last_reported":1735477946,"current_range_meters":39200,"station_id":"ce4bhg12rcd13ifvqf80","pricing_plan_id":"cebpf4jnsgd1na2vs0mg"},{"bike_id":"30bbe92b-d46a-41e8-9ad9-650c11592b16","system_id":"levelo_inurba_marseille","lat":43.25726,"lon":5.41114,"is_reserved":false,"is_disabled":false,"rental_uris":{"android":"levelo://app?vid=30bbe92b-d46a-41e8-9ad9-650c11592b16","ios":"levelo://app?vid=30bbe92b-d46a-41e8-9ad9-650c11592b16"},"vehicle_type_id":"4","last_reported":1735477946,"current_range_meters":6800,"station_id":"ce4bhkp2rcd13ifvqgd0","pricing_plan_id":"cebpf4jnsgd1na2vs0mg"},{"bike_id":"f1e66402-be73-42a1-aa63-aeb43e0a18d6","system_id":"levelo_inurba_marseille","lat":43.31129,"lon":5.37786,"is_reserved":false,"is_disabled":false,"rental_uris":{"android":"levelo://app?vid=f1e66402-be73-42a1-aa63-aeb43e0a18d6","ios":"levelo://app?vid=f1e66402-be73-42a1-aa63-aeb43e0a18d6"},"vehicle_type_id":"4","last_reported":1735477946,"current_range_meters":30400,"station_id":"ce4bgt92rcd13ifvqcg0","pricing_plan_id":"cebpf4jnsgd1na2vs0mg"},{"bike_id":"fd5bffcc-934d-4a5b-abe1-37ba321ae7af","system_id":"levelo_inurba_marseille","lat":43.23048,"lon":5.355202,"is_reserved":false,"is_disabled":false,"rental_uris":{"android":"levelo://app?vid=fd5bffcc-934d-4a5b-abe1-37ba321ae7af","ios":"levelo://app?vid=fd5bffcc-934d-4a5b-abe1-37ba321ae7af"},"vehicle_type_id":"4","last_reported":1735477946,"current_range_meters":36400,"station_id":"cpo3342slgdg3j2ifvpg","pricing_plan_id":"cebpf4jnsgd1na2vs0mg"},{"bike_id":"30a125ea-1c42-46b6-9baa-f49909f6c1a7","system_id":"levelo_inurba_marseille","lat":43.28424,"lon":5.34986,"is_reserved":false,"is_disabled":false,"rental_uris":{"android":"levelo://app?vid=30a125ea-1c42-46b6-9baa-f49909f6c1a7","ios":"levelo://app?vid=30a125ea-1c42-46b6-9baa-f49909f6c1a7"},"vehicle_type_id":"4","last_reported":1735477946,"current_range_meters":34000,"station_id":"ce4bhbh2rcd13ifvqepg","pricing_plan_id":"cebpf4jnsgd1na2vs0mg"},{"bike_id":"b193a302-c749-4637-8735-a2a74f50ec47","system_id":"levelo_inurba_marseille","lat":43.27954,"lon":5.41041,"is_reserved":false,"is_disabled":false,"rental_uris":{"android":"levelo://app?vid=b193a302-c749-4637-8735-a2a74f50ec47","ios":"levelo://app?vid=b193a302-c749-4637-8735-a2a74f50ec47"},"vehicle_type_id":"4","last_reported":1735477946,"current_range_meters":19600,"station_id":"ce4bhnp2rcd13ifvqh0g","pricing_plan_id":"cebpf4jnsgd1na2vs0mg"},{"bike_id":"852e783a-fd91-4f79-8f2d-cb9921fbc74b","system_id":"levelo_inurba_marseille","lat":43.29311,"lon":5.37462,"is_reserved":false,"is_disabled":false,"rental_uris":{"android":"levelo://app?vid=852e783a-fd91-4f79-8f2d-cb9921fbc74b","ios":"levelo://app?vid=852e783a-fd91-4f79-8f2d-cb9921fbc74b"},"vehicle_type_id":"4","last_reported":1735477946,"current_range_meters":27600,"station_id":"ce4bgi12rcd13ifvqb70","pricing_plan_id":"cebpf4jnsgd1na2vs0mg"},{"bike_id":"178dd4d4-7f45-41c2-b04a-4b77ce9d626e","system_id":"levelo_inurba_marseille","lat":43.2721,"lon":5.39182,"is_reserved":false,"is_disabled":false,"rental_uris":{"android":"levelo://app?vid=178dd4d4-7f45-41c2-b04a-4b77ce9d626e","ios":"levelo://app?vid=178dd4d4-7f45-41c2-b04a-4b77ce9d626e"},"vehicle_type_id":"4","last_reported":1735477946,"current_range_meters":36400,"station_id":"ce4bhhp2rcd13ifvqfm0","pricing_plan_id":"cebpf4jnsgd1na2vs0mg"},{"bike_id":"425aa9e2-9db9-4fb1-8de2-821e1a5d81d5","system_id":"levelo_inurba_marseille","lat":43.24807,"lon":5.37456,"is_reserved":false,"is_disabled":false,"rental_uris":{"android":"levelo://app?vid=425aa9e2-9db9-4fb1-8de2-821e1a5d81d5","ios":"levelo://app?vid=425aa9e2-9db9-4fb1-8de2-821e1a5d81d5"},"vehicle_type_id":"4","last_reported":1735477946,"current_range_meters":38000,"station_id":"ce4bhgh2rcd13ifvqfb0","pricing_plan_id":"cebpf4jnsgd1na2vs0mg"},{"bike_id":"57c13dfa-f72d-4997-9793-55057d4d9432","system_id":"levelo_inurba_marseille","lat":43.23192,"lon":5.39993,"is_reserved":false,"is_disabled":false,"rental_uris":{"android":"levelo://app?vid=57c13dfa-f72d-4997-9793-55057d4d9432","ios":"levelo://app?vid=57c13dfa-f72d-4997-9793-55057d4d9432"},"vehicle_type_id":"4","last_reported":1735477946,"current_range_meters":31200,"station_id":"ce4bhn12rcd13ifvqgqg","pricing_plan_id":"cebpf4jnsgd1na2vs0mg"},{"bike_id":"10f0b3f3-4b4b-4c1e-bda1-6ac25d34ade6","system_id":"levelo_inurba_marseille","lat":43.29031,"lon":5.37557,"is_reserved":false,"is_disabled":false,"rental_uris":{"android":"levelo://app?vid=10f0b3f3-4b4b-4c1e-bda1-6ac25d34ade6","ios":"levelo://app?vid=10f0b3f3-4b4b-4c1e-bda1-6ac25d34ade6"},"vehicle_type_id":"4","last_reported":1735477946,"current_range_meters":38800,"station_id":"ce4bh692rcd13ifvqe90","pricing_plan_id":"cebpf4jnsgd1na2vs0mg"},{"bike_id":"83830a46-f3a4-4506-b996-32d3c1a80099","system_id":"levelo_inurba_marseille","lat":43.27989,"lon":5.40027,"is_reserved":false,"is_disabled":false,"rental_uris":{"android":"levelo://app?vid=83830a46-f3a4-4506-b996-32d3c1a80099","ios":"levelo://app?vid=83830a46-f3a4-4506-b996-32d3c1a80099"},"vehicle_type_id":"4","last_reported":1735477946,"current_range_meters":16400,"station_id":"ce4bho92rcd13ifvqh4g","pricing_plan_id":"cebpf4jnsgd1na2vs0mg"},{"bike_id":"5be74f2b-7bbd-45bd-9410-170a6551e242","system_id":"levelo_inurba_marseille","lat":43.24384,"lon":5.37057,"is_reserved":false,"is_disabled":false,"rental_uris":{"android":"levelo://app?vid=5be74f2b-7bbd-45bd-9410-170a6551e242","ios":"levelo://app?vid=5be74f2b-7bbd-45bd-9410-170a6551e242"},"vehicle_type_id":"4","last_reported":1735477946,"current_range_meters":38400,"station_id":"ce4bhhh2rcd13ifvqfk0","pricing_plan_id":"cebpf4jnsgd1na2vs0mg"},{"bike_id":"71472b59-3a52-4b90-81ac-b5ccb3920d76","system_id":"levelo_inurba_marseille","lat":43.29251,"lon":5.40906,"is_reserved":false,"is_disabled":false,"rental_uris":{"android":"levelo://app?vid=71472b59-3a52-4b90-81ac-b5ccb3920d76","ios":"levelo://app?vid=71472b59-3a52-4b90-81ac-b5ccb3920d76"},"vehicle_type_id":"4","last_reported":1735477946,"current_range_meters":38800,"station_id":"ce4bh192rcd13ifvqdc0","pricing_plan_id":"cebpf4jnsgd1na2vs0mg"},{"bike_id":"8c6e6704-3681-4b64-a8e5-e638d1cbb440","system_id":"levelo_inurba_marseille","lat":43.27425,"lon":5.39422,"is_reserved":false,"is_disabled":false,"rental_uris":{"android":"levelo://app?vid=8c6e6704-3681-4b64-a8e5-e638d1cbb440","ios":"levelo://app?vid=8c6e6704-3681-4b64-a8e5-e638d1cbb440"},"vehicle_type_id":"4","last_reported":1735477946,"current_range_meters":32000,"station_id":"ce4bhdp2rcd13ifvqf20","pricing_plan_id":"cebpf4jnsgd1na2vs0mg"},{"bike_id":"13278cf1-b4c2-467a-95eb-bae1ff507930","system_id":"levelo_inurba_marseille","lat":43.299015,"lon":5.365526,"is_reserved":false,"is_disabled":false,"rental_uris":{"android":"levelo://app?vid=13278cf1-b4c2-467a-95eb-bae1ff507930","ios":"levelo://app?vid=13278cf1-b4c2-467a-95eb-bae1ff507930"},"vehicle_type_id":"4","last_reported":1735477946,"current_range_meters":4800,"station_id":"ce4bgm92rcd13ifvqbr0","pricing_plan_id":"cebpf4jnsgd1na2vs0mg"},{"bike_id":"5fa2bc43-7c81-45c6-a7af-9e700d12d05b","system_id":"levelo_inurba_marseille","lat":43.30892,"lon":5.36876,"is_reserved":false,"is_disabled":false,"rental_uris":{"android":"levelo://app?vid=5fa2bc43-7c81-45c6-a7af-9e700d12d05b","ios":"levelo://app?vid=5fa2bc43-7c81-45c6-a7af-9e700d12d05b"},"vehicle_type_id":"4","last_reported":1735477946,"current_range_meters":35600,"station_id":"ce4bgn92rcd13ifvqbvg","pricing_plan_id":"cebpf4jnsgd1na2vs0mg"},{"bike_id":"6ef9f949-addb-454d-bace-85544263f3ac","system_id":"levelo_inurba_marseille","lat":43.2481,"lon":5.37466,"is_reserved":false,"is_disabled":false,"rental_uris":{"android":"levelo://app?vid=6ef9f949-addb-454d-bace-85544263f3ac","ios":"levelo://app?vid=6ef9f949-addb-454d-bace-85544263f3ac"},"vehicle_type_id":"4","last_reported":1735477946,"current_range_meters":17600,"station_id":"ce4bhgh2rcd13ifvqfb0","pricing_plan_id":"cebpf4jnsgd1na2vs0mg"},