{"last_updated":1732468084,"ttl":60,"version":"2.2","data":{"bikes":[{"bike_id":"d9df8239-4976-4070-b26b-e224a7ef0fff","system_id":"levelo_inurba_marseille","lat":43.31154,"lon":5.36945,"is_reserved":false,"is_disabled":true,"rental_uris":{"android":"levelo://app?vid=d9df8239-4976-4070-b26b-e224a7ef0fff","ios":"levelo://app?vid=d9df8239-4976-4070-b26b-e224a7ef0fff"},"vehicle_type_id":"4","last_reported":1732468084,"current_range_meters":0,"station_id":"","pricing_plan_id":"cebpf4jnsgd1na2vs0mg"},{"bike_id":"af06f03f-09f0-447f-85b1-bdc8783c9b02","system_id":"levelo_inurba_marseille","lat":43.29424,"lon":5.38621,"is_reserved":false,"is_disabled":true,"rental_uris":{"android":"levelo://app?vid=af06f03f-09f0-447f-85b1-bdc8783c9b02","ios":"levelo://app?vid=af06f03f-09f0-447f-85b1-bdc8783c9b02"},"vehicle_type_id":"4","last_reported":1732468084,"current_range_meters":0,"station_id":"ce4bh2h2rcd13ifvqdh0","pricing_plan_id":"cebpf4jnsgd1na2vs0mg"},{"bike_id":"6926623e-2fe0-455b-9bee-6506d940ff70","system_id":"levelo_inurba_marseille","lat":43.2558,"lon":5.3824,"is_reserved":false,"is_disabled":false,"rental_uris":{"android":"levelo://app?vid=6926623e-2fe0-455b-9bee-6506d940ff70","ios":"levelo://app?vid=6926623e-2fe0-455b-9bee-6506d940ff70"},"vehicle_type_id":"4","last_reported":1732468084,"current_range_meters":9200,"station_id":"ce4bhih2rcd13ifvqfs0","pricing_plan_id":"cebpf4jnsgd1na2vs0mg"},{"bike_id":"61523ac5-be94-4db1-a936-520815f81c3d","system_id":"levelo_inurba_marseille","lat":43.31281,"lon":5.38436,"is_reserved":false,"is_disabled":false,"rental_uris":{"android":"levelo://app?vid=61523ac5-be94-4db1-a936-520815f81c3d","ios":"levelo://app?vid=61523ac5-be94-4db1-a936-520815f81c3d"},"vehicle_type_id":"4","last_reported":1732468084,"current_range_meters":13600,"station_id":"ce4bgt92rcd13ifvqcf0","pricing_plan_id":"cebpf4jnsgd1na2vs0mg"},{"bike_id":"187bd365-d9bd-4fe2-96a5-e40a70ff542d","system_id":"levelo_inurba_marseille","lat":43.28566,"lon":5.39503,"is_reserved":false,"is_disabled":false,"rental_uris":{"android":"levelo://app?vid=187bd365-d9bd-4fe2-96a5-e40a70ff542d","ios":"levelo://app?vid=187bd365-d9bd-4fe2-96a5-e40a70ff542d"},"vehicle_type_id":"4","last_reported":1732468084,"current_range_meters":22800,"station_id":"ce4bh292rcd13ifvqdg0","pricing_plan_id":"cebpf4jnsgd1na2vs0mg"},{"bike_id":"5d5d0f9f-6d04-4277-bcae-0927568487e7","system_id":"levelo_inurba_marseille","lat":43.308,"lon":5.38138,"is_reserved":false,"is_disabled":true,"rental_uris":{"android":"levelo://app?vid=5d5d0f9f-6d04-4277-bcae-0927568487e7","ios":"levelo://app?vid=5d5d0f9f-6d04-4277-bcae-0927568487e7"},"vehicle_type_id":"4","last_reported":1732468084,"current_range_meters":34000,"station_id":"ce4bgt12rcd13ifvqce0","pricing_plan_id":"cebpf4jnsgd1na2vs0mg"},{"bike_id":"dfdf02f3-dec5-466c-b3c0-98ee7bf502ab","system_id":"levelo_inurba_marseille","lat":43.27918,"lon":5.3958,"is_reserved":false,"is_disabled":false,"rental_uris":{"android":"levelo://app?vid=dfdf02f3-dec5-466c-b3c0-98ee7bf502ab","ios":"levelo://app?vid=dfdf02f3-dec5-466c-b3c0-98ee7bf502ab"},"vehicle_type_id":"4","last_reported":1732468084,"current_range_meters":12800,"station_id":"ce4bhf92rcd13ifvqf40","pricing_plan_id":"cebpf4jnsgd1na2vs0mg"},{"bike_id":"6c69aef9-532c-486b-af9a-310d0d286c2e","system_id":"levelo_inurba_marseille","lat":43.28153,"lon":5.42649,"is_reserved":false,"is_disabled":false,"rental_uris":{"android":"levelo://app?vid=6c69aef9-532c-486b-af9a-310d0d286c2e","ios":"levelo://app?vid=6c69aef9-532c-486b-af9a-310d0d286c2e"},"vehicle_type_id":"4","last_reported":1732468084,"current_range_meters":25200,"station_id":"ce4bhnh2rcd13ifvqgug","pricing_plan_id":"cebpf4jnsgd1na2vs0mg"},{"bike_id":"851f261a-0deb-4222-9a50-bf2fa8f68309","system_id":"levelo_inurba_marseille","lat":43.2731,"lon":5.39089,"is_reserved":false,"is_disabled":false,"rental_uris":{"android":"levelo://app?vid=851f261a-0deb-4222-9a50-bf2fa8f68309","ios":"levelo://app?vid=851f261a-0deb-4222-9a50-bf2fa8f68309"},"vehicle_type_id":"4","last_reported":1732468084,"current_range_meters":32800,"station_id":"ce4bhgp2rcd13ifvqfe0","pricing_plan_id":"cebpf4jnsgd1na2vs0mg"},{"bike_id":"d4a8d056-dde8-45a2-9002-27751ca1259a","system_id":"levelo_inurba_marseille","lat":43.27205,"lon":5.39197,"is_reserved":false,"is_disabled":true,"rental_uris":{"android":"levelo://app?vid=d4a8d056-dde8-45a2-9002-27751ca1259a","ios":"levelo://app?vid=d4a8d056-dde8-45a2-9002-27751ca1259a"},"vehicle_type_id":"4","last_reported":1732468084,"current_range_meters":12000,"station_id":"ce4bhhp2rcd13ifvqfm0","pricing_plan_id":"cebpf4jnsgd1na2vs0mg"},{"bike_id":"7c4f50d3-762c-4a8f-896e-1470cd966eec","system_id":"levelo_inurba_marseille","lat":43.29636,"lon":5.38536,"is_reserved":false,"is_disabled":false,"rental_uris":{"android":"levelo://app?vid=7c4f50d3-762c-4a8f-896e-1470cd966eec","ios":"levelo://app?vid=7c4f50d3-762c-4a8f-896e-1470cd966eec"},"vehicle_type_id":"4","last_reported":1732468084,"current_range_meters":7200,"station_id":"ce4bgih2rcd13ifvqba0","pricing_plan_id":"cebpf4jnsgd1na2vs0mg"},{"bike_id":"1d480d76-bb73-4781-930a-16c68fdce680","system_id":"levelo_inurba_marseille","lat":43.25581,"lon":5.38234,"is_reserved":false,"is_disabled":false,"rental_uris":{"android":"levelo://app?vid=1d480d76-bb73-4781-930a-16c68fdce680","ios":"levelo://app?vid=1d480d76-bb73-4781-930a-16c68fdce680"},"vehicle_type_id":"4","last_reported":1732468084,"current_range_meters":34000,"station_id":"ce4bhih2rcd13ifvqfs0","pricing_plan_id":"cebpf4jnsgd1na2vs0mg"},{"bike_id":"fcf28019-63c5-4387-8d9e-ebdeea067df7","system_id":"levelo_inurba_marseille","lat":43.33022,"lon":5.39043,"is_reserved":false,"is_disabled":false,"rental_uris":{"android":"levelo://app?vid=fcf28019-63c5-4387-8d9e-ebdeea067df7","ios":"levelo://app?vid=fcf28019-63c5-4387-8d9e-ebdeea067df7"},"vehicle_type_id":"4","last_reported":1732468084,"current_range_meters":8000,"station_id":"ce4bhr92rcd13ifvqhrg","pricing_plan_id":"cebpf4jnsgd1na2vs0mg"},{"bike_id":"46d0d386-63f9-4599-9c6b-4ff5c0288886","system_id":"levelo_inurba_marseille","lat":43.28663,"lon":5.36346,"is_reserved":false,"is_disabled":false,"rental_uris":{"android":"levelo://app?vid=46d0d386-63f9-4599-9c6b-4ff5c0288886","ios":"levelo://app?vid=46d0d386-63f9-4599-9c6b-4ff5c0288886"},"vehicle_type_id":"4","last_reported":1732468084,"current_range_meters":11200,"station_id":"ce4bhah2rcd13ifvqej0","pricing_plan_id":"cebpf4jnsgd1na2vs0mg"},{"bike_id":"f194ce90-013c-4fc7-8be7-5bad56e3b52c","system_id":"levelo_inurba_marseille","lat":43.24074,"lon":5.37757,"is_reserved":false,"is_disabled":false,"rental_uris":{"android":"levelo://app?vid=f194ce90-013c-4fc7-8be7-5bad56e3b52c","ios":"levelo://app?vid=f194ce90-013c-4fc7-8be7-5bad56e3b52c"},"vehicle_type_id":"4","last_reported":1732468084,"current_range_meters":11200,"station_id":"ce4bhnp2rcd13ifvqgvg","pricing_plan_id":"cebpf4jnsgd1na2vs0mg"},{"bike_id":"30585094-ecfe-43ac-ae36-000c4a5ab426","system_id":"levelo_inurba_marseille","lat":43.30962,"lon":5.39037,"is_reserved":false,"is_disabled":true,"rental_uris":{"android":"levelo://app?vid=30585094-ecfe-43ac-ae36-000c4a5ab426","ios":"levelo://app?vid=30585094-ecfe-43ac-ae36-000c4a5ab426"},"vehicle_type_id":"4","last_reported":1732468084,"current_range_meters":22000,"station_id":"ce4bgup2rcd13ifvqco0","pricing_plan_id":"cebpf4jnsgd1na2vs0mg"},{"bike_id":"5f84fccb-6473-45c7-b4bf-9ab64c8af504","system_id":"levelo_inurba_marseille","lat":43.25113,"lon":5.40318,"is_reserved":false,"is_disabled":false,"rental_uris":{"android":"levelo://app?vid=5f84fccb-6473-45c7-b4bf-9ab64c8af504","ios":"levelo://app?vid=5f84fccb-6473-45c7-b4bf-9ab64c8af504"},"vehicle_type_id":"4","last_reported":1732468084,"current_range_meters":32800,"station_id":"ce4bhlh2rcd13ifvqgig","pricing_plan_id":"cebpf4jnsgd1na2vs0mg"},{"bike_id":"430b0512-5f03-4976-b5f1-8366902e382f","system_id":"levelo_inurba_marseille","lat":43.30538,"lon":5.36558,"is_reserved":false,"is_disabled":false,"rental_uris":{"android":"levelo://app?vid=430b0512-5f03-4976-b5f1-8366902e382f","ios":"levelo://app?vid=430b0512-5f03-4976-b5f1-8366902e382f"},"vehicle_type_id":"4","last_reported":1732468084,"current_range_meters":17600,"station_id":"ce4bh492rcd13ifvqdvg","pricing_plan_id":"cebpf4jnsgd1na2vs0mg"},{"bike_id":"d38c8048-dbd2-4129-9bbe-218fa40a2e00","system_id":"levelo_inurba_marseille","lat":43.2848,"lon":5.38404,"is_reserved":false,"is_disabled":false,"rental_uris":{"android":"levelo://app?vid=d38c8048-dbd2-4129-9bbe-218fa40a2e00","ios":"levelo://app?vid=d38c8048-dbd2-4129-9bbe-218fa40a2e00"},"vehicle_type_id":"4","last_reported":1732468084,"current_range_meters":24800,"station_id":"ce4bh512rcd13ifvqe3g","pricing_plan_id":"cebpf4jnsgd1na2vs0mg"},{"bike_id":"48c65e97-1516-4538-82d5-5272854a7544","system_id":"levelo_inurba_marseille","lat":43.32481,"lon":5.36576,"is_reserved":false,"is_disabled":false,"rental_uris":{"android":"levelo://app?vid=48c65e97-1516-4538-82d5-5272854a7544","ios":"levelo://app?vid=48c65e97-1516-4538-82d5-5272854a7544"},"vehicle_type_id":"4","last_reported":1732468084,"current_range_meters":10000,"station_id":"ce4bhs12rcd13ifvqhvg","pricing_plan_id":"cebpf4jnsgd1na2vs0mg"},{"bike_id":"5c64bd6b-44c1-45b5-8ca0-2cf2e8041f3c","system_id":"levelo_inurba_marseille","lat":43.31532,"lon":5.38026,"is_reserved":false,"is_disabled":false,"rental_uris":{"android":"levelo://app?vid=5c64bd6b-44c1-45b5-8ca0-2cf2e8041f3c","ios":"levelo://app?vid=5c64bd6b-44c1-45b5-8ca0-2cf2e8041f3c"},"vehicle_type_id":"4","last_reported":1732468084,"current_range_meters":38800,"station_id":"ce4bhsp2rcd13ifvqi50","pricing_plan_id":"cebpf4jnsgd1na2vs0mg"},{"bike_id":"e55d71d0-970e-4e17-ba14-4482cf574a53","system_id":"levelo_inurba_marseille","lat":43.2962,"lon":5.36892,"is_reserved":false,"is_disabled":false,"rental_uris":{"android":"levelo://app?vid=e55d71d0-970e-4e17-ba14-4482cf574a53","ios":"levelo://app?vid=e55d71d0-970e-4e17-ba14-4482cf574a53"},"vehicle_type_id":"4","last_reported":1732468084,"current_range_meters":37600,"station_id":"","pricing_plan_id":"cebpf4jnsgd1na2vs0mg"},{"bike_id":"8445853c-1676-4022-ba4c-2e9ff0d3e674","system_id":"levelo_inurba_marseille","lat":43.24661,"lon":5.38176,"is_reserved":false,"is_disabled":false,"rental_uris":{"android":"levelo://app?vid=8445853c-1676-4022-ba4c-2e9ff0d3e674","ios":"levelo://app?vid=8445853c-1676-4022-ba4c-2e9ff0d3e674"},"vehicle_type_id":"4","last_reported":1732468084,"current_range_meters":22800,"station_id":"ce4bhih2rcd13ifvqfr0","pricing_plan_id":"cebpf4jnsgd1na2vs0mg"},{"bike_id":"9f5a0e7a-8624-42ea-bdfa-88751bb19ddb","system_id":"levelo_inurba_marseille","lat":43.2794,"lon":5.41036,"is_reserved":false,"is_disabled":false,"rental_uris":{"android":"levelo://app?vid=9f5a0e7a-8624-42ea-bdfa-88751bb19ddb","ios":"levelo://app?vid=9f5a0e7a-8624-42ea-bdfa-88751bb19ddb"},"vehicle_type_id":"4","last_reported":1732468084,"current_range_meters":6400,"station_id":"ce4bhnp2rcd13ifvqh0g","pricing_plan_id":"cebpf4jnsgd1na2vs0mg"},{"bike_id":"4d97ad72-4234-4512-9576-676dc58dffe2","system_id":"levelo_inurba_marseille","lat":43.25494,"lon":5.37649,"is_reserved":false,"is_disabled":false,"rental_uris":{"android":"levelo://app?vid=4d97ad72-4234-4512-9576-676dc58dffe2","ios":"levelo://app?vid=4d97ad72-4234-4512-9576-676dc58dffe2"},"vehicle_type_id":"4","last_reported":1732468084,"current_range_meters":8400,"station_id":"ce4bhh12rcd13ifvqff0","pricing_plan_id":"cebpf4jnsgd1na2vs0mg"},{"bike_id":"f37340bf-4c78-4bca-854e-b10fd38cd44c","system_id":"levelo_inurba_marseille","lat":43.2993,"lon":5.36548,"is_reserved":false,"is_disabled":true,"rental_uris":{"android":"levelo://app?vid=f37340bf-4c78-4bca-854e-b10fd38cd44c","ios":"levelo://app?vid=f37340bf-4c78-4bca-854e-b10fd38cd44c"},"vehicle_type_id":"4","last_reported":1732468084,"current_range_meters":800,"station_id":"ce4bgm92rcd13ifvqbr0","pricing_plan_id":"cebpf4jnsgd1na2vs0mg"},{"bike_id":"6a2df70c-4e94-45ba-b67d-45bd465ca49d","system_id":"levelo_inurba_marseille","lat":43.291958,"lon":5.393189,"is_reserved":false,"is_disabled":true,"rental_uris":{"android":"levelo://app?vid=6a2df70c-4e94-45ba-b67d-45bd465ca49d","ios":"levelo://app?vid=6a2df70c-4e94-45ba-b67d-45bd465ca49d"},"vehicle_type_id":"4","last_reported":1732468084,"current_range_meters":29600,"station_id":"ce4bh192rcd13ifvqdd0","pricing_plan_id":"cebpf4jnsgd1na2vs0mg"},{"bike_id":"f0c9b009-6e7d-4316-96af-3036572d9258","system_id":"levelo_inurba_marseille","lat":43.29523,"lon":5.37494,"is_reserved":false,"is_disabled":true,"rental_uris":{"android":"levelo://app?vid=f0c9b009-6e7d-4316-96af-3036572d9258","ios":"levelo://app?vid=f0c9b009-6e7d-4316-96af-3036572d9258"},"vehicle_type_id":"4","last_reported":1732468084,"current_range_meters":29600,"station_id":"ce4bgkp2rcd13ifvqbmg","pricing_plan_id":"cebpf4jnsgd1na2vs0mg"},{"bike_id":"dc145ffc-3177-4689-8b8f-e43dcda1bf29","system_id":"levelo_inurba_marseille","lat":43.30316,"lon":5.36897,"is_reserved":false,"is_disabled":false,"rental_uris":{"android":"levelo://app?vid=dc145ffc-3177-4689-8b8f-e43dcda1bf29","ios":"levelo://app?vid=dc145ffc-3177-4689-8b8f-e43dcda1bf29"},"vehicle_type_id":"4","last_reported":1732468084,"current_range_meters":26800,"station_id":"ce4bgqh2rcd13ifvqc5g","pricing_plan_id":"cebpf4jnsgd1na2vs0mg"},{"bike_id":"b2b158d0-8028-4675-9f9a-048f08fcfa95","system_id":"levelo_inurba_marseille","lat":43.27909,"lon":5.37997,"is_reserved":false,"is_disabled":false,"rental_uris":{"android":"levelo://app?vid=b2b158d0-8028-4675-9f9a-048f08fcfa95","ios":"levelo://app?vid=b2b158d0-8028-4675-9f9a-048f08fcfa95"},"vehicle_type_id":"4","last_reported":1732468084,"current_range_meters":38800,"station_id":"ce4bhf92rcd13ifvqf50","pricing_plan_id":"cebpf4jnsgd1na2vs0mg"},{"bike_id":"ff3594ee-f948-4832-9680-599cfdacc368","system_id":"levelo_inurba_marseille","lat":43.27187,"lon":5.40993,"is_reserved":false,"is_disabled":false,"rental_uris":{"android":"levelo://app?vid=ff3594ee-f948-4832-9680-599cfdacc368","ios":"levelo://app?vid=ff3594ee-f948-4832-9680-599cfdacc368"},"vehicle_type_id":"4","last_reported":1732468084,"current_range_meters":32400,"station_id":"ce4bhl12rcd13ifvqgf0","pricing_plan_id":"cebpf4jnsgd1na2vs0mg"},{"bike_id":"565a0b0b-afe1-4da1-b2e2-0df8233591e4","system_id":"levelo_inurba_marseille","lat":43.2511,"lon":5.40328,"is_reserved":false,"is_disabled":true,"rental_uris":{"android":"levelo://app?vid=565a0b0b-afe1-4da1-b2e2-0df8233591e4","ios":"levelo://app?vid=565a0b0b-afe1-4da1-b2e2-0df8233591e4"},"vehicle_type_id":"4","last_reported":1732468084,"current_range_meters":14400,"station_id":"ce4bhlh2rcd13ifvqgig","pricing_plan_id":"cebpf4jnsgd1na2vs0mg"},{"bike_id":"1c747011-d949-46ae-b77d-82dd5a6ebfa4","system_id":"levelo_inurba_marseille","lat":43.29781,"lon":5.38111,"is_reserved":false,"is_disabled":false,"rental_uris":{"android":"levelo://app?vid=1c747011-d949-46ae-b77d-82dd5a6ebfa4","ios":"levelo://app?vid=1c747011-d949-46ae-b77d-82dd5a6ebfa4"},"vehicle_type_id":"4","last_reported":1732468084,"current_range_meters":8800,"station_id":"ce4bgip2rcd13ifvqbb0","pricing_plan_id":"cebpf4jnsgd1na2vs0mg"},{"bike_id":"1e126baa-22b4-4cf7-a05e-1c0611873009","system_id":"levelo_inurba_marseille","lat":43.311192,"lon":5.377708,"is_reserved":false,"is_disabled":false,"rental_uris":{"android":"levelo://app?vid=1e126baa-22b4-4cf7-a05e-1c0611873009","ios":"levelo://app?vid=1e126baa-22b4-4cf7-a05e-1c0611873009"},"vehicle_type_id":"4","last_reported":1732468084,"current_range_meters":2800,"station_id":"","pricing_plan_id":"cebpf4jnsgd1na2vs0mg"},{"bike_id":"856c5296-7fea-42cc-be09-a6b9a37c0b30","system_id":"levelo_inurba_marseille","lat":43.27377,"lon":5.36249,"is_reserved":false,"is_disabled":true,"rental_uris":{"android":"levelo://app?vid=856c5296-7fea-42cc-be09-a6b9a37c0b30","ios":"levelo://app?vid=856c5296-7fea-42cc-be09-a6b9a37c0b30"},"vehicle_type_id":"4","last_reported":1732468084,"current_range_meters":0,"station_id":"ce4bhbh2rcd13ifvqeo0","pricing_plan_id":"cebpf4jnsgd1na2vs0mg"},{"bike_id":"ad502a33-c046-4519-a96e-be143463b899","system_id":"levelo_inurba_marseille","lat":43.28671,"lon":5.38674,"is_reserved":false,"is_disabled":false,"rental_uris":{"android":"levelo://app?vid=ad502a33-c046-4519-a96e-be143463b899","ios":"levelo://app?vid=ad502a33-c046-4519-a96e-be143463b899"},"vehicle_type_id":"4","last_reported":1732468084,"current_range_meters":36800,"station_id":"ce4bh492rcd13ifvqdug","pricing_plan_id":"cebpf4jnsgd1na2vs0mg"},{"bike_id":"4acfba0d-0d1b-436f-b509-52e30732ec64","system_id":"levelo_inurba_marseille","lat":43.23195,"lon":5.35558,"is_reserved":false,"is_disabled":false,"rental_uris":{"android":"levelo://app?vid=4acfba0d-0d1b-436f-b509-52e30732ec64","ios":"levelo://app?vid=4acfba0d-0d1b-436f-b509-52e30732ec64"},"vehicle_type_id":"4","last_reported":1732468084,"current_range_meters":38800,"station_id":"ce4bhu92rcd13ifvqi70","pricing_plan_id":"cebpf4jnsgd1na2vs0mg"},{"bike_id":"2a4c38ee-d2be-4377-9dd2-074a48c9e71f","system_id":"levelo_inurba_marseille","lat":43.29538,"lon":5.3941,"is_reserved":false,"is_disabled":false,"rental_uris":{"android":"levelo://app?vid=2a4c38ee-d2be-4377-9dd2-074a48c9e71f","ios":"levelo://app?vid=2a4c38ee-d2be-4377-9dd2-074a48c9e71f"},"vehicle_type_id":"4","last_reported":1732468084,"current_range_meters":11600,"station_id":"ce4bh292rcd13ifvqdf0","pricing_plan_id":"cebpf4jnsgd1na2vs0mg"},{"bike_id":"9a122f92-8d1b-4a84-9637-aeed9243668f","system_id":"levelo_inurba_marseille","lat":43.28946,"lon":5.36625,"is_reserved":false,"is_disabled":true,"rental_uris":{"android":"levelo://app?vid=9a122f92-8d1b-4a84-9637-aeed9243668f","ios":"levelo://app?vid=9a122f92-8d1b-4a84-9637-aeed9243668f"},"vehicle_type_id":"4","last_reported":1732468084,"current_range_meters":0,"station_id":"ce4bhap2rcd13ifvqek0","pricing_plan_id":"cebpf4jnsgd1na2vs0mg"},{"bike_id":"acc60a19-5e51-4e54-814b-c6cb297514df","system_id":"levelo_inurba_marseille","lat":43.24806,"lon":5.3745,"is_reserved":false,"is_disabled":false,"rental_uris":{"android":"levelo://app?vid=acc60a19-5e51-4e54-814b-c6cb297514df","ios":"levelo://app?vid=acc60a19-5e51-4e54-814b-c6cb297514df"},"vehicle_type_id":"4","last_reported":1732468084,"current_range_meters":17200,"station_id":"ce4bhgh2rcd13ifvqfb0","pricing_plan_id":"cebpf4jnsgd1na2vs0mg"},{"bike_id":"97406420-ac2b-4eba-be42-29957e47eb4b","system_id":"levelo_inurba_marseille","lat":43.27976,"lon":5.38727,"is_reserved":false,"is_disabled":false,"rental_uris":{"android":"levelo://app?vid=97406420-ac2b-4eba-be42-29957e47eb4b","ios":"levelo://app?vid=97406420-ac2b-4eba-be42-29957e47eb4b"},"vehicle_type_id":"4","last_reported":1732468084,"current_range_meters":9600,"station_id":"ce4bhg12rcd13ifvqf80","pricing_plan_id":"cebpf4jnsgd1na2vs0mg"},{"bike_id":"0bff4688-540e-4e2c-808d-c9347a358a4f","system_id":"levelo_inurba_marseille","lat":43.27681,"lon":5.3891,"is_reserved":false,"is_disabled":true,"rental_uris":{"android":"levelo://app?vid=0bff4688-540e-4e2c-808d-c9347a358a4f","ios":"levelo://app?vid=0bff4688-540e-4e2c-808d-c9347a358a4f"},"vehicle_type_id":"4","last_reported":1732468084,"current_range_meters":38800,"station_id":"ce4bhi12rcd13ifvqfo0","pricing_plan_id":"cebpf4jnsgd1na2vs0mg"},{"bike_id":"d50ed56f-d477-4cc4-8bd0-ddbf19a3b2e8","system_id":"levelo_inurba_marseille","lat":43.30301,"lon":5.39221,"is_reserved":false,"is_disabled":false,"rental_uris":{"android":"levelo://app?vid=d50ed56f-d477-4cc4-8bd0-ddbf19a3b2e8","ios":"levelo://app?vid=d50ed56f-d477-4cc4-8bd0-ddbf19a3b2e8"},"vehicle_type_id":"4","last_reported":1732468084,"current_range_meters":4400,"station_id":"ce4bgkh2rcd13ifvqbk0","pricing_plan_id":"cebpf4jnsgd1na2vs0mg"},{"bike_id":"02c642a5-6396-49e4-a325-d580d2a79370","system_id":"levelo_inurba_marseille","lat":43.26193,"lon":5.37448,"is_reserved":false,"is_disabled":true,"rental_uris":{"android":"levelo://app?vid=02c642a5-6396-49e4-a325-d580d2a79370","ios":"levelo://app?vid=02c642a5-6396-49e4-a325-d580d2a79370"},"vehicle_type_id":"4","last_reported":1732468084,"current_range_meters":0,"station_id":"ce4bhgp2rcd13ifvqfc0","pricing_plan_id":"cebpf4jnsgd1na2vs0mg"},{"bike_id":"8f1c6184-be80-4758-b876-7869efc4bbf2","system_id":"levelo_inurba_marseille","lat":43.26216,"lon":5.37442,"is_reserved":false,"is_disabled":false,"rental_uris":{"android":"levelo://app?vid=8f1c6184-be80-4758-b876-7869efc4bbf2","ios":"levelo://app?vid=8f1c6184-be80-4758-b876-7869efc4bbf2"},"vehicle_type_id":"4","last_reported":1732468084,"current_range_meters":6800,"station_id":"","pricing_plan_id":"cebpf4jnsgd1na2vs0mg"},{"bike_id":"c44be2ca-d29c-4055-a595-144cb499e948","system_id":"levelo_inurba_marseille","lat":43.27206,"lon":5.39193,"is_reserved":false,"is_disabled":true,"rental_uris":{"android":"levelo://app?vid=c44be2ca-d29c-4055-a595-144cb499e948","ios":"levelo://app?vid=c44be2ca-d29c-4055-a595-144cb499e948"},"vehicle_type_id":"4","last_reported":1732468084,"current_range_meters":13600,"station_id":"ce4bhhp2rcd13ifvqfm0","pricing_plan_id":"cebpf4jnsgd1na2vs0mg"},{"bike_id":"cd1f2e07-0443-4bcc-8765-1800e3cdb3cb","system_id":"levelo_inurba_marseille","lat":43.3054,"lon":5.36563,"is_reserved":false,"is_disabled":false,"rental_uris":{"android":"levelo://app?vid=cd1f2e07-0443-4bcc-8765-1800e3cdb3cb","ios":"levelo://app?vid=cd1f2e07-0443-4bcc-8765-1800e3cdb3cb"},"vehicle_type_id":"4","last_reported":1732468084,"current_range_meters":37600,"station_id":"ce4bgs12rcd13ifvqcag","pricing_plan_id":"cebpf4jnsgd1na2vs0mg"},{"bike_id":"0683c1a2-309a-4553-9826-fd4c27fcaab8","system_id":"levelo_inurba_marseille","lat":43.31478,"lon":5.37299,"is_reserved":false,"is_disabled":false,"rental_uris":{"android":"levelo://app?vid=0683c1a2-309a-4553-9826-fd4c27fcaab8","ios":"levelo://app?vid=0683c1a2-309a-4553-9826-fd4c27fcaab8"},"vehicle_type_id":"4","last_reported":1732468084,"current_range_meters":38800,"station_id":"ce4bgt12rcd13ifvqcd0","pricing_plan_id":"cebpf4jnsgd1na2vs0mg"},{"bike_id":"4614c3ce-fa32-4b49-800d-cf02516d6ab9","system_id":"levelo_inurba_marseille","lat":43.32381,"lon":5.3897,"is_reserved":false,"is_disabled":false,"rental_uris":{"android":"levelo://app?vid=4614c3ce-fa32-4b49-800d-cf02516d6ab9","ios":"levelo://app?vid=4614c3ce-fa32-4b49-800d-cf02516d6ab9"},"vehicle_type_id":"4","last_reported":1732468084,"current_range_meters":19200,"station_id":"","pricing_plan_id":"cebpf4jnsgd1na2vs0mg"},{"bike_id":"ee661a64-2f58-4394-ba00-a30e9ecaf905","system_id":"levelo_inurba_marseille","lat":43.28562,"lon":5.39499,"is_reserved":false,"is_disabled":false,"rental_uris":{"android":"levelo://app?vid=ee661a64-2f58-4394-ba00-a30e9ecaf905","ios":"levelo://app?vid=ee661a64-2f58-4394-ba00-a30e9ecaf905"},"vehicle_type_id":"4","last_reported":1732468084,"current_range_meters":11600,"station_id":"ce4bh292rcd13ifvqdg0","pricing_plan_id":"cebpf4jnsgd1na2vs0mg"},{"bike_id":"835b00c2-64c0-4cbe-82bb-c78dd70919e3","system_id":"levelo_inurba_marseille","lat":43.27969,"lon":5.408,"is_reserved":false,"is_disabled":false,"rental_uris":{"android":"levelo://app?vid=835b00c2-64c0-4cbe-82bb-c78dd70919e3","ios":"levelo://app?vid=835b00c2-64c0-4cbe-82bb-c78dd70919e3"},"vehicle_type_id":"4","last_reported":1732468084,"current_range_meters":10800,"station_id":"","pricing_plan_id":"cebpf4jnsgd1na2vs0mg"},{"bike_id":"fd0e3340-543f-4c8a-8c34-222130852a29","system_id":"levelo_inurba_marseille","lat":43.27967,"lon":5.38724,"is_reserved":false,"is_disabled":true,"rental_uris":{"android":"levelo://app?vid=fd0e3340-543f-4c8a-8c34-222130852a29","ios":"levelo://app?vid=fd0e3340-543f-4c8a-8c34-222130852a29"},"vehicle_type_id":"4","last_reported":1732468084,"current_range_meters":15200,"station_id":"ce4bhg12rcd13ifvqf80","pricing_plan_id":"cebpf4jnsgd1na2vs0mg"},{"bike_id":"e662b885-15c0-4344-8409-692fa14b9dbc","system_id":"levelo_inurba_marseille","lat":43.27498,"lon":5.42448,"is_reserved":false,"is_disabled":false,"rental_uris":{"android":"levelo://app?vid=e662b885-15c0-4344-8409-692fa14b9dbc","ios":"levelo://app?vid=e662b885-15c0-4344-8409-692fa14b9dbc"},"vehicle_type_id":"4","last_reported":1732468084,"current_range_meters":38800,"station_id":"ce4bhn92rcd13ifvqgrg","pricing_plan_id":"cebpf4jnsgd1na2vs0mg"},{"bike_id":"3052f395-47f4-4f6b-af2e-a3967e74787a","system_id":"levelo_inurba_marseille","lat":43.2975,"lon":5.36253,"is_reserved":false,"is_disabled":false,"rental_uris":{"android":"levelo://app?vid=3052f395-47f4-4f6b-af2e-a3967e74787a","ios":"levelo://app?vid=3052f395-47f4-4f6b-af2e-a3967e74787a"},"vehicle_type_id":"4","last_reported":1732468084,"current_range_meters":27600,"station_id":"","pricing_plan_id":"cebpf4jnsgd1na2vs0mg"},{"bike_id":"5c8055e5-a368-4312-8157-243ebc733ac9","system_id":"levelo_inurba_marseille","lat":43.30609,"lon":5.39343,"is_reserved":false,"is_disabled":true,"rental_uris":{"android":"levelo://app?vid=5c8055e5-a368-4312-8157-243ebc733ac9","ios":"levelo://app?vid=5c8055e5-a368-4312-8157-243ebc733ac9"},"vehicle_type_id":"4","last_reported":1732468084,"current_range_meters":21600,"station_id":"ce4bh0p2rcd13ifvqd80","pricing_plan_id":"cebpf4jnsgd1na2vs0mg"},{"bike_id":"64b056fd-ebd1-4884-8ca1-120d81be7f94","system_id":"levelo_inurba_marseille","lat":43.30787,"lon":5.37644,"is_reserved":false,"is_disabled":false,"rental_uris":{"android":"levelo://app?vid=64b056fd-ebd1-4884-8ca1-120d81be7f94","ios":"levelo://app?vid=64b056fd-ebd1-4884-8ca1-120d81be7f94"},"vehicle_type_id":"4","last_reported":1732468084,"current_range_meters":22000,"station_id":"ce4bgv92rcd13ifvqcq0","pricing_plan_id":"cebpf4jnsgd1na2vs0mg"},{"bike_id":"a63f026b-964a-429c-9110-87bd719c2c3a","system_id":"levelo_inurba_marseille","lat":43.29303,"lon":5.37447,"is_reserved":false,"is_disabled":true,"rental_uris":{"android":"levelo://app?vid=a63f026b-964a-429c-9110-87bd719c2c3a","ios":"levelo://app?vid=a63f026b-964a-429c-9110-87bd719c2c3a"},"vehicle_type_id":"4","last_reported":1732468084,"current_range_meters":35600,"station_id":"ce4bgi12rcd13ifvqb70","pricing_plan_id":"cebpf4jnsgd1na2vs0mg"},{"bike_id":"439f55d8-1569-419d-bcc0-1b2c93be2c1f","system_id":"levelo_inurba_marseille","lat":43.2903,"lon":5.38647,"is_reserved":false,"is_disabled":false,"rental_uris":{"android":"levelo://app?vid=439f55d8-1569-419d-bcc0-1b2c93be2c1f","ios":"levelo://app?vid=439f55d8-1569-419d-bcc0-1b2c93be2c1f"},"vehicle_type_id":"4","last_reported":1732468084,"current_range_meters":14400,"station_id":"ce4bh4p2rcd13ifvqe0g","pricing_plan_id":"cebpf4jnsgd1na2vs0mg"},{"bike_id":"600b3470-1dde-43ce-962b-7a6284b20990","system_id":"levelo_inurba_marseille","lat":43.2319,"lon":5.35553,"is_reserved":false,"is_disabled":true,"rental_uris":{"android":"levelo://app?vid=600b3470-1dde-43ce-962b-7a6284b20990","ios":"levelo://app?vid=600b3470-1dde-43ce-962b-7a6284b20990"},"vehicle_type_id":"4","last_reported":1732468084,"current_range_meters":26000,"station_id":"ce4bhu92rcd13ifvqi70","pricing_plan_id":"cebpf4jnsgd1na2vs0mg"},{"bike_id":"08117995-990e-4451-96a5-afc9c181642a","system_id":"levelo_inurba_marseille","lat":43.28617,"lon":5.35093,"is_reserved":false,"is_disabled":true,"rental_uris":{"android":"levelo://app?vid=08117995-990e-4451-96a5-afc9c181642a","ios":"levelo://app?vid=08117995-990e-4451-96a5-afc9c181642a"},"vehicle_type_id":"4","last_reported":1732468084,"current_range_meters":26800,"station_id":"ce4bhch2rcd13ifvqeug","pricing_plan_id":"cebpf4jnsgd1na2vs0mg"},{"bike_id":"b06e1c36-318d-4d2f-8b3d-2b81c9e65991","system_id":"levelo_inurba_marseille","lat":43.28456,"lon":5.3589,"is_reserved":false,"is_disabled":false,"rental_uris":{"android":"levelo://app?vid=b06e1c36-318d-4d2f-8b3d-2b81c9e65991","ios":"levelo://app?vid=b06e1c36-318d-4d2f-8b3d-2b81c9e65991"},"vehicle_type_id":"4","last_reported":1732468084,"current_range_meters":37600,"station_id":"ce4bhah2rcd13ifvqei0","pricing_plan_id":"cebpf4jnsgd1na2vs0mg"},{"bike_id":"371fbaad-2aa3-4806-843c-9c1cf876f345","system_id":"levelo_inurba_marseille","lat":43.30798,"lon":5.43522,"is_reserved":false,"is_disabled":false,"rental_uris":{"android":"levelo://app?vid=371fbaad-2aa3-4806-843c-9c1cf876f345","ios":"levelo://app?vid=371fbaad-2aa3-4806-843c-9c1cf876f345"},"vehicle_type_id":"4","last_reported":1732468084,"current_range_meters":36400,"station_id":"ce4bhph2rcd13ifvqheg","pricing_plan_id":"cebpf4jnsgd1na2vs0mg"},{"bike_id":"fa0482a4-00c5-4490-a488-3f4b76187329","system_id":"levelo_inurba_marseille","lat":43.30893,"lon":5.3719,"is_reserved":false,"is_disabled":false,"rental_uris":{"android":"levelo://app?vid=fa0482a4-00c5-4490-a488-3f4b76187329","ios":"levelo://app?vid=fa0482a4-00c5-4490-a488-3f4b76187329"},"vehicle_type_id":"4","last_reported":1732468084,"current_range_meters":12400,"station_id":"ce4bguh2rcd13ifvqckg","pricing_plan_id":"cebpf4jnsgd1na2vs0mg"},{"bike_id":"4cf68192-498e-49a8-b866-19367c604fb3","system_id":"levelo_inurba_marseille","lat":43.29582,"lon":5.39996,"is_reserved":false,"is_disabled":true,"rental_uris":{"android":"levelo://app?vid=4cf68192-498e-49a8-b866-19367c604fb3","ios":"levelo://app?vid=4cf68192-498e-49a8-b866-19367c604fb3"},"vehicle_type_id":"4","last_reported":1732468084,"current_range_meters":34800,"station_id":"ce4bh312rcd13ifvqdj0","pricing_plan_id":"cebpf4jnsgd1na2vs0mg"},{"bike_id":"ef49cca3-516b-487d-a8d6-291fd1b89c74","system_id":"levelo_inurba_marseille","lat":43.30423,"lon":5.41284,"is_reserved":false,"is_disabled":false,"rental_uris":{"android":"levelo://app?vid=ef49cca3-516b-487d-a8d6-291fd1b89c74","ios":"levelo://app?vid=ef49cca3-516b-487d-a8d6-291fd1b89c74"},"vehicle_type_id":"4","last_reported":1732468084,"current_range_meters":38800,"station_id":"ce4bhop2rcd13ifvqh8g","pricing_plan_id":"cebpf4jnsgd1na2vs0mg"},{"bike_id":"bb46b994-f157-4191-a87f-120ed9648987","system_id":"levelo_inurba_marseille","lat":43.30142,"lon":5.38077,"is_reserved":false,"is_disabled":false,"rental_uris":{"android":"levelo://app?vid=bb46b994-f157-4191-a87f-120ed9648987","ios":"levelo://app?vid=bb46b994-f157-4191-a87f-120ed9648987"},"vehicle_type_id":"4","last_reported":1732468084,"current_range_meters":38800,"station_id":"ce4bgjp2rcd13ifvqbh0","pricing_plan_id":"cebpf4jnsgd1na2vs0mg"},{"bike_id":"ca02d328-d839-4e70-af56-7457c1142138","system_id":"levelo_inurba_marseille","lat":43.29264,"lon":5.38445,"is_reserved":false,"is_disabled":false,"rental_uris":{"android":"levelo://app?vid=ca02d328-d839-4e70-af56-7457c1142138","ios":"levelo://app?vid=ca02d328-d839-4e70-af56-7457c1142138"},"vehicle_type_id":"4","last_reported":1732468084,"current_range_meters":11600,"station_id":"ce4bh692rcd13ifvqea0","pricing_plan_id":"cebpf4jnsgd1na2vs0mg"},{"bike_id":"c0e12142-bd57-42cd-b3f5-a384eec187e3","system_id":"levelo_inurba_marseille","lat":43.3205,"lon":5.41543,"is_reserved":false,"is_disabled":false,"rental_uris":{"android":"levelo://app?vid=c0e12142-bd57-42cd-b3f5-a384eec187e3","ios":"levelo://app?vid=c0e12142-bd57-42cd-b3f5-a384eec187e3"},"vehicle_type_id":"4","last_reported":1732468084,"current_range_meters":32400,"station_id":"ce4bhq92rcd13ifvqhkg","pricing_plan_id":"cebpf4jnsgd1na2vs0mg"},{"bike_id":"d45a47b2-ca48-400a-a0f2-e9257eea941d","system_id":"levelo_inurba_marseille","lat":43.29012,"lon":5.38636,"is_reserved":false,"is_disabled":false,"rental_uris":{"android":"levelo://app?vid=d45a47b2-ca48-400a-a0f2-e9257eea941d","ios":"levelo://app?vid=d45a47b2-ca48-400a-a0f2-e9257eea941d"},"vehicle_type_id":"4","last_reported":1732468084,"current_range_meters":38800,"station_id":"ce4bh4p2rcd13ifvqe0g","pricing_plan_id":"cebpf4jnsgd1na2vs0mg"},{"bike_id":"734ff0c4-f245-4197-8036-be5e222d76fd","system_id":"levelo_inurba_marseille","lat":43.28996,"lon":5.42589,"is_reserved":false,"is_disabled":true,"rental_uris":{"android":"levelo://app?vid=734ff0c4-f245-4197-8036-be5e222d76fd","ios":"levelo://app?vid=734ff0c4-f245-4197-8036-be5e222d76fd"},"vehicle_type_id":"4","last_reported":1732468084,"current_range_meters":0,"station_id":"","pricing_plan_id":"cebpf4jnsgd1na2vs0mg"},{"bike_id":"31e8cf73-3755-4d23-8e13-6fb3e4e82277","system_id":"levelo_inurba_marseille","lat":43.298,"lon":5.38116,"is_reserved":false,"is_disabled":true,"rental_uris":{"android":"levelo://app?vid=31e8cf73-3755-4d23-8e13-6fb3e4e82277","ios":"levelo://app?vid=31e8cf73-3755-4d23-8e13-6fb3e4e82277"},"vehicle_type_id":"4","last_reported":1732468084,"current_range_meters":28000,"station_id":"ce4bgip2rcd13ifvqbb0","pricing_plan_id":"cebpf4jnsgd1na2vs0mg"},{"bike_id":"68bb9eac-db7e-46c7-8a80-a291905cfcd1","system_id":"levelo_inurba_marseille","lat":43.28947,"lon":5.36641,"is_reserved":false,"is_disabled":false,"rental_uris":{"android":"levelo://app?vid=68bb9eac-db7e-46c7-8a80-a291905cfcd1","ios":"levelo://app?vid=68bb9eac-db7e-46c7-8a80-a291905cfcd1"},"vehicle_type_id":"4","last_reported":1732468084,"current_range_meters":17600,"station_id":"ce4bhap2rcd13ifvqek0","pricing_plan_id":"cebpf4jnsgd1na2vs0mg"},{"bike_id":"dacdbb8c-36c3-4436-be99-eacdd17eabef","system_id":"levelo_inurba_marseille","lat":43.26793,"lon":5.39424,"is_reserved":false,"is_disabled":false,"rental_uris":{"android":"levelo://app?vid=dacdbb8c-36c3-4436-be99-eacdd17eabef","ios":"levelo://app?vid=dacdbb8c-36c3-4436-be99-eacdd17eabef"},"vehicle_type_id":"4","last_reported":1732468084,"current_range_meters":6800,"station_id":"ce4bhh12rcd13ifvqfg0","pricing_plan_id":"cebpf4jnsgd1na2vs0mg"},{"bike_id":"ea9b26bf-75b5-4b90-8c39-9b2d7140fa4c","system_id":"levelo_inurba_marseille","lat":43.27813,"lon":5.40713,"is_reserved":false,"is_disabled":true,"rental_uris":{"android":"levelo://app?vid=ea9b26bf-75b5-4b90-8c39-9b2d7140fa4c","ios":"levelo://app?vid=ea9b26bf-75b5-4b90-8c39-9b2d7140fa4c"},"vehicle_type_id":"4","last_reported":1732468084,"current_range_meters":800,"station_id":"ce4bhnh2rcd13ifvqgtg","pricing_plan_id":"cebpf4jnsgd1na2vs0mg"},{"bike_id":"8023a13a-01e3-45b7-9bdc-58906b59dab4","system_id":"levelo_inurba_marseille","lat":43.32657,"lon":5.40996,"is_reserved":false,"is_disabled":false,"rental_uris":{"android":"levelo://app?vid=8023a13a-01e3-45b7-9bdc-58906b59dab4","ios":"levelo://app?vid=8023a13a-01e3-45b7-9bdc-58906b59dab4"},"vehicle_type_id":"4","last_reported":1732468084,"current_range_meters":35200,"station_id":"ce4bhpp2rcd13ifvqhgg","pricing_plan_id":"cebpf4jnsgd1na2vs0mg"},{"bike_id":"294eeb79-af1b-495a-909f-216801ae6b41","system_id":"levelo_inurba_marseille","lat":43.337444,"lon":5.374475,"is_reserved":false,"is_disabled":true,"rental_uris":{"android":"levelo://app?vid=294eeb79-af1b-495a-909f-216801ae6b41","ios":"levelo://app?vid=294eeb79-af1b-495a-909f-216801ae6b41"},"vehicle_type_id":"4","last_reported":1732468084,"current_range_meters":0,"station_id":"","pricing_plan_id":"cebpf4jnsgd1na2vs0mg"},{"bike_id":"ae1dd2db-5b19-40fe-a981-fb874abf3912","system_id":"levelo_inurba_marseille","lat":43.24391,"lon":5.37057,"is_reserved":false,"is_disabled":false,"rental_uris":{"android":"levelo://app?vid=ae1dd2db-5b19-40fe-a981-fb874abf3912","ios":"levelo://app?vid=ae1dd2db-5b19-40fe-a981-fb874abf3912"},"vehicle_type_id":"4","last_reported":1732468084,"current_range_meters":38800,"station_id":"ce4bhhh2rcd13ifvqfk0","pricing_plan_id":"cebpf4jnsgd1na2vs0mg"},{"bike_id":"50f415fe-e878-4f24-833c-95cde137d543","system_id":"levelo_inurba_marseille","lat":43.28822,"lon":5.35272,"is_reserved":false,"is_disabled":false,"rental_uris":{"android":"levelo://app?vid=50f415fe-e878-4f24-833c-95cde137d543","ios":"levelo://app?vid=50f415fe-e878-4f24-833c-95cde137d543"},"vehicle_type_id":"4","last_reported":1732468084,"current_range_meters":37600,"station_id":"","pricing_plan_id":"cebpf4jnsgd1na2vs0mg"},{"bike_id":"6f903cff-1a6e-4845-94dd-27b1f3607c30","system_id":"levelo_inurba_marseille","lat":43.295712,"lon":5.375215,"is_reserved":false,"is_disabled":false,"rental_uris":{"android":"levelo://app?vid=6f903cff-1a6e-4845-94dd-27b1f3607c30","ios":"levelo://app?vid=6f903cff-1a6e-4845-94dd-27b1f3607c30"},"vehicle_type_id":"4","last_reported":1732468084,"current_range_meters":36400,"station_id":"ce4bgh92rcd13ifvqb50","pricing_plan_id":"cebpf4jnsgd1na2vs0mg"},{"bike_id":"d60f5dce-4cc2-4e9e-829a-82f5cdb3d9ae","system_id":"levelo_inurba_marseille","lat":43.29034,"lon":5.37559,"is_reserved":false,"is_disabled":false,"rental_uris":{"android":"levelo://app?vid=d60f5dce-4cc2-4e9e-829a-82f5cdb3d9ae","ios":"levelo://app?vid=d60f5dce-4cc2-4e9e-829a-82f5cdb3d9ae"},"vehicle_type_id":"4","last_reported":1732468084,"current_range_meters":18800,"station_id":"ce4bh692rcd13ifvqe90","pricing_plan_id":"cebpf4jnsgd1na2vs0mg"},{"bike_id":"13d6e289-8f28-4c19-b777-fa6cc6fed671","system_id":"levelo_inurba_marseille","lat":43.27963,"lon":5.38732,"is_reserved":false,"is_disabled":false,"rental_uris":{"android":"levelo://app?vid=13d6e289-8f28-4c19-b777-fa6cc6fed671","ios":"levelo://app?vid=13d6e289-8f28-4c19-b777-fa6cc6fed671"},"vehicle_type_id":"4","last_reported":1732468084,"current_range_meters":38800,"station_id":"ce4bhg12rcd13ifvqf80","pricing_plan_id":"cebpf4jnsgd1na2vs0mg"},{"bike_id":"6aeff2b9-cd17-4948-9952-f7b991e16719","system_id":"levelo_inurba_marseille","lat":43.25,"lon":5.3893,"is_reserved":false,"is_disabled":false,"rental_uris":{"android":"levelo://app?vid=6aeff2b9-cd17-4948-9952-f7b991e16719","ios":"levelo://app?vid=6aeff2b9-cd17-4948-9952-f7b991e16719"},"vehicle_type_id":"4","last_reported":1732468084,"current_range_meters":35600,"station_id":"ce4bhgp2rcd13ifvqfd0","pricing_plan_id":"cebpf4jnsgd1na2vs0mg"},{"bike_id":"777b7fed-d395-4c97-b504-dee7c3479d4f","system_id":"levelo_inurba_marseille","lat":43.29836,"lon":5.3785,"is_reserved":false,"is_disabled":true,"rental_uris":{"android":"levelo://app?vid=777b7fed-d395-4c97-b504-dee7c3479d4f","ios":"levelo://app?vid=777b7fed-d395-4c97-b504-dee7c3479d4f"},"vehicle_type_id":"4","last_reported":1732468084,"current_range_meters":0,"station_id":"","pricing_plan_id":"cebpf4jnsgd1na2vs0mg"},{"bike_id":"cd78312a-142a-42d0-92e1-dbc654bf8bb4","system_id":"levelo_inurba_marseille","lat":43.24181,"lon":5.39723,"is_reserved":false,"is_disabled":true,"rental_uris":{"android":"levelo://app?vid=cd78312a-142a-42d0-92e1-dbc654bf8bb4","ios":"levelo://app?vid=cd78312a-142a-42d0-92e1-dbc654bf8bb4"},"vehicle_type_id":"4","last_reported":1732468084,"current_range_meters":8400,"station_id":"ce4bhn12rcd13ifvqgpg","pricing_plan_id":"cebpf4jnsgd1na2vs0mg"},{"bike_id":"a9f21b49-1588-47f4-88b2-16090cf0bd4e","system_id":"levelo_inurba_marseille","lat":43.29529,"lon":5.38541,"is_reserved":false,"is_disabled":false,"rental_uris":{"android":"levelo://app?vid=a9f21b49-1588-47f4-88b2-16090cf0bd4e","ios":"levelo://app?vid=a9f21b49-1588-47f4-88b2-16090cf0bd4e"},"vehicle_type_id":"4","last_reported":1732468084,"current_range_meters":14400,"station_id":"ce4bgih2rcd13ifvqba0","pricing_plan_id":"cebpf4jnsgd1na2vs0mg"},{"bike_id":"2b930fbc-d1c5-4e6e-b771-26da81254d66","system_id":"levelo_inurba_marseille","lat":43.27813,"lon":5.40713,"is_reserved":false,"is_disabled":false,"rental_uris":{"android":"levelo://app?vid=2b930fbc-d1c5-4e6e-b771-26da81254d66","ios":"levelo://app?vid=2b930fbc-d1c5-4e6e-b771-26da81254d66"},"vehicle_type_id":"4","last_reported":1732468084,"current_range_meters":8000,"station_id":"ce4bhnh2rcd13ifvqgtg","pricing_plan_id":"cebpf4jnsgd1na2vs0mg"},{"bike_id":"43f6da94-5cf1-446e-9b8d-b4c4e86bf027","system_id":"levelo_inurba_marseille","lat":43.26191,"lon":5.37454,"is_reserved":false,"is_disabled":true,"rental_uris":{"android":"levelo://app?vid=43f6da94-5cf1-446e-9b8d-b4c4e86bf027","ios":"levelo://app?vid=43f6da94-5cf1-446e-9b8d-b4c4e86bf027"},"vehicle_type_id":"4","last_reported":1732468084,"current_range_meters":6800,"station_id":"ce4bhgp2rcd13ifvqfc0","pricing_plan_id":"cebpf4jnsgd1na2vs0mg"},{"bike_id":"dd5ab154-647e-4dfa-88f1-0f781c7552f5","system_id":"levelo_inurba_marseille","lat":43.25581,"lon":5.38233,"is_reserved":false,"is_disabled":false,"rental_uris":{"android":"levelo://app?vid=dd5ab154-647e-4dfa-88f1-0f781c7552f5","ios":"levelo://app?vid=dd5ab154-647e-4dfa-88f1-0f781c7552f5"},"vehicle_type_id":"4","last_reported":1732468084,"current_range_meters":25200,"station_id":"ce4bhih2rcd13ifvqfs0","pricing_plan_id":"cebpf4jnsgd1na2vs0mg"},{"bike_id":"994195f6-b5da-4158-a5b5-8b38baad32b0","system_id":"levelo_inurba_marseille","lat":43.33729,"lon":5.39191,"is_reserved":false,"is_disabled":false,"rental_uris":{"android":"levelo://app?vid=994195f6-b5da-4158-a5b5-8b38baad32b0","ios":"levelo://app?vid=994195f6-b5da-4158-a5b5-8b38baad32b0"},"vehicle_type_id":"4","last_reported":1732468084,"current_range_meters":27200,"station_id":"ce4bhr92rcd13ifvqhsg","pricing_plan_id":"cebpf4jnsgd1na2vs0mg"},{"bike_id":"7c2f19f3-5373-4c2a-87bb-e1fd3ef39822","system_id":"levelo_inurba_marseille","lat":43.26558,"lon":5.39012,"is_reserved":false,"is_disabled":true,"rental_uris":{"android":"levelo://app?vid=7c2f19f3-5373-4c2a-87bb-e1fd3ef39822","ios":"levelo://app?vid=7c2f19f3-5373-4c2a-87bb-e1fd3ef39822"},"vehicle_type_id":"4","last_reported":1732468084,"current_range_meters":18800,"station_id":"ce4bhe12rcd13ifvqf30","pricing_plan_id":"cebpf4jnsgd1na2vs0mg"},{"bike_id":"36ef9a42-f4d8-45f5-adc2-b51fb9b962d0","system_id":"levelo_inurba_marseille","lat":43.34145,"lon":5.40903,"is_reserved":false,"is_disabled":false,"rental_uris":{"android":"levelo://app?vid=36ef9a42-f4d8-45f5-adc2-b51fb9b962d0","ios":"levelo://app?vid=36ef9a42-f4d8-45f5-adc2-b51fb9b962d0"},"vehicle_type_id":"4","last_reported":1732468084,"current_range_meters":38800,"station_id":"ce4bhqh2rcd13ifvqhlg","pricing_plan_id":"cebpf4jnsgd1na2vs0mg"},{"bike_id":"24fc129a-3a98-4f25-9554-234fc3a2dc8d","system_id":"levelo_inurba_marseille","lat":43.30418,"lon":5.41284,"is_reserved":false,"is_disabled":true,"rental_uris":{"android":"levelo://app?vid=24fc129a-3a98-4f25-9554-234fc3a2dc8d","ios":"levelo://app?vid=24fc129a-3a98-4f25-9554-234fc3a2dc8d"},"vehicle_type_id":"4","last_reported":1732468084,"current_range_meters":28800,"station_id":"ce4bhop2rcd13ifvqh8g","pricing_plan_id":"cebpf4jnsgd1na2vs0mg"},{"bike_id":"a3202fc1-85cb-42ee-bead-37756f81ff0f","system_id":"levelo_inurba_marseille","lat":43.3056,"lon":5.38383,"is_reserved":false,"is_disabled":true,"rental_uris":{"android":"levelo://app?vid=a3202fc1-85cb-42ee-bead-37756f81ff0f","ios":"levelo://app?vid=a3202fc1-85cb-42ee-bead-37756f81ff0f"},"vehicle_type_id":"4","last_reported":1732468084,"current_range_meters":24000,"station_id":"ce4bgg92rcd13ifvqb30","pricing_plan_id":"cebpf4jnsgd1na2vs0mg"},{"bike_id":"b692d56b-b927-40af-aaf5-73f89c36a2da","system_id":"levelo_inurba_marseille","lat":43.28609,"lon":5.3511,"is_reserved":false,"is_disabled":false,"rental_uris":{"android":"levelo://app?vid=b692d56b-b927-40af-aaf5-73f89c36a2da","ios":"levelo://app?vid=b692d56b-b927-40af-aaf5-73f89c36a2da"},"vehicle_type_id":"4","last_reported":1732468084,"current_range_meters":26800,"station_id":"ce4bhch2rcd13ifvqeug","pricing_plan_id":"cebpf4jnsgd1na2vs0mg"},{"bike_id":"b9b987ad-5f4f-4526-9191-24ecd7b02b3d","system_id":"levelo_inurba_marseille","lat":43.28354,"lon":5.38104,"is_reserved":false,"is_disabled":false,"rental_uris":{"android":"levelo://app?vid=b9b987ad-5f4f-4526-9191-24ecd7b02b3d","ios":"levelo://app?vid=b9b987ad-5f4f-4526-9191-24ecd7b02b3d"},"vehicle_type_id":"4","last_reported":1732468084,"current_range_meters":21600,"station_id":"ce4bh412rcd13ifvqdr0","pricing_plan_id":"cebpf4jnsgd1na2vs0mg"},{"bike_id":"5d9127b2-409a-4e00-b212-9b69c1248067","system_id":"levelo_inurba_marseille","lat":43.26207,"lon":5.37927,"is_reserved":false,"is_disabled":false,"rental_uris":{"android":"levelo://app?vid=5d9127b2-409a-4e00-b212-9b69c1248067","ios":"levelo://app?vid=5d9127b2-409a-4e00-b212-9b69c1248067"},"vehicle_type_id":"4","last_reported":1732468084,"current_range_meters":11600,"station_id":"ce4bhjp2rcd13ifvqg90","pricing_plan_id":"cebpf4jnsgd1na2vs0mg"},{"bike_id":"e9227097-db8d-449c-aabe-a3e67ad0ba34","system_id":"levelo_inurba_marseille","lat":43.29265,"lon":5.38438,"is_reserved":false,"is_disabled":false,"rental_uris":{"android":"levelo://app?vid=e9227097-db8d-449c-aabe-a3e67ad0ba34","ios":"levelo://app?vid=e9227097-db8d-449c-aabe-a3e67ad0ba34"},"vehicle_type_id":"4","last_reported":1732468084,"current_range_meters":12800,"station_id":"ce4bh692rcd13ifvqea0","pricing_plan_id":"cebpf4jnsgd1na2vs0mg"},{"bike_id":"e3b24af2-7cbd-4d3d-9234-1589fde536ef","system_id":"levelo_inurba_marseille","lat":43.28702,"lon":5.37386,"is_reserved":false,"is_disabled":false,"rental_uris":{"android":"levelo://app?vid=e3b24af2-7cbd-4d3d-9234-1589fde536ef","ios":"levelo://app?vid=e3b24af2-7cbd-4d3d-9234-1589fde536ef"},"vehicle_type_id":"4","last_reported":1732468084,"current_range_meters":8800,"station_id":"ce4bh3p2rcd13ifvqdq0","pricing_plan_id":"cebpf4jnsgd1na2vs0mg"},{"bike_id":"f8b957eb-ac36-4e56-96cf-7474e1d53753","system_id":"levelo_inurba_marseille","lat":43.2466,"lon":5.38166,"is_reserved":false,"is_disabled":false,"rental_uris":{"android":"levelo://app?vid=f8b957eb-ac36-4e56-96cf-7474e1d53753","ios":"levelo://app?vid=f8b957eb-ac36-4e56-96cf-7474e1d53753"},"vehicle_type_id":"4","last_reported":1732468084,"current_range_meters":16000,"station_id":"ce4bhih2rcd13ifvqfr0","pricing_plan_id":"cebpf4jnsgd1na2vs0mg"},{"bike_id":"1adac3ce-1948-4a38-b5da-29a176be048d","system_id":"levelo_inurba_marseille","lat":43.31214,"lon":5.36857,"is_reserved":false,"is_disabled":false,"rental_uris":{"android":"levelo://app?vid=1adac3ce-1948-4a38-b5da-29a176be048d","ios":"levelo://app?vid=1adac3ce-1948-4a38-b5da-29a176be048d"},"vehicle_type_id":"4","last_reported":1732468084,"current_range_meters":17600,"station_id":"ce4bgl92rcd13ifvqbq0","pricing_plan_id":"cebpf4jnsgd1na2vs0mg"},{"bike_id":"faddc5bf-9308-4490-a929-f5be12fd1597","system_id":"levelo_inurba_marseille","lat":43.25581,"lon":5.38247,"is_reserved":false,"is_disabled":false,"rental_uris":{"android":"levelo://app?vid=faddc5bf-9308-4490-a929-f5be12fd1597","ios":"levelo://app?vid=faddc5bf-9308-4490-a929-f5be12fd1597"},"vehicle_type_id":"4","last_reported":1732468084,"current_range_meters":18800,"station_id":"ce4bhih2rcd13ifvqfs0","pricing_plan_id":"cebpf4jnsgd1na2vs0mg"},{"bike_id":"36296f5c-0176-4be0-97c8-7930cda9c369","system_id":"levelo_inurba_marseille","lat":43.32107,"lon":5.36773,"is_reserved":false,"is_disabled":false,"rental_uris":{"android":"levelo://app?vid=36296f5c-0176-4be0-97c8-7930cda9c369","ios":"levelo://app?vid=36296f5c-0176-4be0-97c8-7930cda9c369"},"vehicle_type_id":"4","last_reported":1732468084,"current_range_meters":30400,"station_id":"ce4bhrh2rcd13ifvqhug","pricing_plan_id":"cebpf4jnsgd1na2vs0mg"},{"bike_id":"3765e9a0-7d9a-4a10-9b3f-ecb3e4d4a625","system_id":"levelo_inurba_marseille","lat":43.29257,"lon":5.38448,"is_reserved":false,"is_disabled":false,"rental_uris":{"android":"levelo://app?vid=3765e9a0-7d9a-4a10-9b3f-ecb3e4d4a625","ios":"levelo://app?vid=3765e9a0-7d9a-4a10-9b3f-ecb3e4d4a625"},"vehicle_type_id":"4","last_reported":1732468084,"current_range_meters":16800,"station_id":"ce4bh692rcd13ifvqea0","pricing_plan_id":"cebpf4jnsgd1na2vs0mg"},{"bike_id":"3749f547-26de-49f3-8704-9a5a504b68f5","system_id":"levelo_inurba_marseille","lat":43.25579,"lon":5.38236,"is_reserved":false,"is_disabled":false,"rental_uris":{"android":"levelo://app?vid=3749f547-26de-49f3-8704-9a5a504b68f5","ios":"levelo://app?vid=3749f547-26de-49f3-8704-9a5a504b68f5"},"vehicle_type_id":"4","last_reported":1732468084,"current_range_meters":35200,"station_id":"ce4bhih2rcd13ifvqfs0","pricing_plan_id":"cebpf4jnsgd1na2vs0mg"},{"bike_id":"d2a52b58-fabe-4a57-94ba-464e41b85800","system_id":"levelo_inurba_marseille","lat":43.30074,"lon":5.37433,"is_reserved":false,"is_disabled":true,"rental_uris":{"android":"levelo://app?vid=d2a52b58-fabe-4a57-94ba-464e41b85800","ios":"levelo://app?vid=d2a52b58-fabe-4a57-94ba-464e41b85800"},"vehicle_type_id":"4","last_reported":1732468084,"current_range_meters":24800,"station_id":"","pricing_plan_id":"cebpf4jnsgd1na2vs0mg"},{"bike_id":"2c7b52f3-21ef-4c25-bda8-89360016bfcc","system_id":"levelo_inurba_marseille","lat":43.26943,"lon":5.38635,"is_reserved":false,"is_disabled":false,"rental_uris":{"android":"levelo://app?vid=2c7b52f3-21ef-4c25-bda8-89360016bfcc","ios":"levelo://app?vid=2c7b52f3-21ef-4c25-bda8-89360016bfcc"},"vehicle_type_id":"4","last_reported":1732468084,"current_range_meters":36800,"station_id":"ce4bhh92rcd13ifvqfh0","pricing_plan_id":"cebpf4jnsgd1na2vs0mg"},{"bike_id":"82ba39d5-8a53-47d1-8b0a-19d19a9663f1","system_id":"levelo_inurba_marseille","lat":43.31527,"lon":5.38033,"is_reserved":false,"is_disabled":false,"rental_uris":{"android":"levelo://app?vid=82ba39d5-8a53-47d1-8b0a-19d19a9663f1","ios":"levelo://app?vid=82ba39d5-8a53-47d1-8b0a-19d19a9663f1"},"vehicle_type_id":"4","last_reported":1732468084,"current_range_meters":32400,"station_id":"ce4bhsp2rcd13ifvqi50","pricing_plan_id":"cebpf4jnsgd1na2vs0mg"},{"bike_id":"610ce38b-9a7e-4bb0-aafc-e750a9ee8d6d","system_id":"levelo_inurba_marseille","lat":43.29419,"lon":5.3862,"is_reserved":false,"is_disabled":true,"rental_uris":{"android":"levelo://app?vid=610ce38b-9a7e-4bb0-aafc-e750a9ee8d6d","ios":"levelo://app?vid=610ce38b-9a7e-4bb0-aafc-e750a9ee8d6d"},"vehicle_type_id":"4","last_reported":1732468084,"current_range_meters":0,"station_id":"ce4bh2h2rcd13ifvqdh0","pricing_plan_id":"cebpf4jnsgd1na2vs0mg"},{"bike_id":"0c489536-9ff4-4fa4-88b1-c243b2cc3613","system_id":"levelo_inurba_marseille","lat":43.30314,"lon":5.36891,"is_reserved":false,"is_disabled":false,"rental_uris":{"android":"levelo://app?vid=0c489536-9ff4-4fa4-88b1-c243b2cc3613","ios":"levelo://app?vid=0c489536-9ff4-4fa4-88b1-c243b2cc3613"},"vehicle_type_id":"4","last_reported":1732468084,"current_range_meters":18000,"station_id":"ce4bgqh2rcd13ifvqc5g","pricing_plan_id":"cebpf4jnsgd1na2vs0mg"},{"bike_id":"7c801eda-a344-4dcf-a5ca-e07aad04ec97","system_id":"levelo_inurba_marseille","lat":43.26193,"lon":5.37447,"is_reserved":false,"is_disabled":false,"rental_uris":{"android":"levelo://app?vid=7c801eda-a344-4dcf-a5ca-e07aad04ec97","ios":"levelo://app?vid=7c801eda-a344-4dcf-a5ca-e07aad04ec97"},"vehicle_type_id":"4","last_reported":1732468084,"current_range_meters":38800,"station_id":"ce4bhgp2rcd13ifvqfc0","pricing_plan_id":"cebpf4jnsgd1na2vs0mg"},{"bike_id":"a3bbfbc0-1c5c-4437-9a5f-15f39af39c82","system_id":"levelo_inurba_marseille","lat":43.24661,"lon":5.38163,"is_reserved":false,"is_disabled":false,"rental_uris":{"android":"levelo://app?vid=a3bbfbc0-1c5c-4437-9a5f-15f39af39c82","ios":"levelo://app?vid=a3bbfbc0-1c5c-4437-9a5f-15f39af39c82"},"vehicle_type_id":"4","last_reported":1732468084,"current_range_meters":9200,"station_id":"ce4bhih2rcd13ifvqfr0","pricing_plan_id":"cebpf4jnsgd1na2vs0mg"},{"bike_id":"a7895596-3c28-4f96-ac9f-4b103e564673","system_id":"levelo_inurba_marseille","lat":43.27051,"lon":5.40262,"is_reserved":false,"is_disabled":false,"rental_uris":{"android":"levelo://app?vid=a7895596-3c28-4f96-ac9f-4b103e564673","ios":"levelo://app?vid=a7895596-3c28-4f96-ac9f-4b103e564673"},"vehicle_type_id":"4","last_reported":1732468084,"current_range_meters":5600,"station_id":"ce4bhk92rcd13ifvqgc0","pricing_plan_id":"cebpf4jnsgd1na2vs0mg"},{"bike_id":"66d70828-b14f-4541-8984-1f382e380cdf","system_id":"levelo_inurba_marseille","lat":43.27327,"lon":5.39101,"is_reserved":false,"is_disabled":true,"rental_uris":{"android":"levelo://app?vid=66d70828-b14f-4541-8984-1f382e380cdf","ios":"levelo://app?vid=66d70828-b14f-4541-8984-1f382e380cdf"},"vehicle_type_id":"4","last_reported":1732468084,"current_range_meters":38800,"station_id":"ce4bhgp2rcd13ifvqfe0","pricing_plan_id":"cebpf4jnsgd1na2vs0mg"},{"bike_id":"dd3b09fe-b71a-401a-b299-a88383f47f1c","system_id":"levelo_inurba_marseille","lat":43.337444,"lon":5.374475,"is_reserved":false,"is_disabled":false,"rental_uris":{"android":"levelo://app?vid=dd3b09fe-b71a-401a-b299-a88383f47f1c","ios":"levelo://app?vid=dd3b09fe-b71a-401a-b299-a88383f47f1c"},"vehicle_type_id":"4","last_reported":1732468084,"current_range_meters":30400,"station_id":"","pricing_plan_id":"cebpf4jnsgd1na2vs0mg"},{"bike_id":"b0f390fe-f074-44e1-82a8-52d6615e9359","system_id":"levelo_inurba_marseille","lat":43.22925,"lon":5.35376,"is_reserved":false,"is_disabled":false,"rental_uris":{"android":"levelo://app?vid=b0f390fe-f074-44e1-82a8-52d6615e9359","ios":"levelo://app?vid=b0f390fe-f074-44e1-82a8-52d6615e9359"},"vehicle_type_id":"4","last_reported":1732468084,"current_range_meters":38800,"station_id":"cpo3532slgdg3j2ikp40","pricing_plan_id":"cebpf4jnsgd1na2vs0mg"},{"bike_id":"47c41cf3-e016-44ed-af78-c2174f07c59f","system_id":"levelo_inurba_marseille","lat":43.29027,"lon":5.38642,"is_reserved":false,"is_disabled":true,"rental_uris":{"android":"levelo://app?vid=47c41cf3-e016-44ed-af78-c2174f07c59f","ios":"levelo://app?vid=47c41cf3-e016-44ed-af78-c2174f07c59f"},"vehicle_type_id":"4","last_reported":1732468084,"current_range_meters":2000,"station_id":"ce4bh4p2rcd13ifvqe0g","pricing_plan_id":"cebpf4jnsgd1na2vs0mg"},{"bike_id":"730247b0-bb69-4a38-b4e2-49d3378846ba","system_id":"levelo_inurba_marseille","lat":43.28924,"lon":5.36637,"is_reserved":false,"is_disabled":true,"rental_uris":{"android":"levelo://app?vid=730247b0-bb69-4a38-b4e2-49d3378846ba","ios":"levelo://app?vid=730247b0-bb69-4a38-b4e2-49d3378846ba"},"vehicle_type_id":"4","last_reported":1732468084,"current_range_meters":1600,"station_id":"ce4bhap2rcd13ifvqek0","pricing_plan_id":"cebpf4jnsgd1na2vs0mg"},{"bike_id":"d0a80896-8636-4792-9af3-24219cd67423","system_id":"levelo_inurba_marseille","lat":43.27182,"lon":5.40998,"is_reserved":false,"is_disabled":false,"rental_uris":{"android":"levelo://app?vid=d0a80896-8636-4792-9af3-24219cd67423","ios":"levelo://app?vid=d0a80896-8636-4792-9af3-24219cd67423"},"vehicle_type_id":"4","last_reported":1732468084,"current_range_meters":22400,"station_id":"ce4bhl12rcd13ifvqgf0","pricing_plan_id":"cebpf4jnsgd1na2vs0mg"},{"bike_id":"942d1e42-e091-451d-b985-65ffdb9a287a","system_id":"levelo_inurba_marseille","lat":43.2731,"lon":5.39093,"is_reserved":false,"is_disabled":false,"rental_uris":{"android":"levelo://app?vid=942d1e42-e091-451d-b985-65ffdb9a287a","ios":"levelo://app?vid=942d1e42-e091-451d-b985-65ffdb9a287a"},"vehicle_type_id":"4","last_reported":1732468084,"current_range_meters":16800,"station_id":"ce4bhgp2rcd13ifvqfe0","pricing_plan_id":"cebpf4jnsgd1na2vs0mg"},{"bike_id":"5923a35d-2000-418d-af37-5c9f8b56db63","system_id":"levelo_inurba_marseille","lat":43.29682,"lon":5.37293,"is_reserved":false,"is_disabled":false,"rental_uris":{"android":"levelo://app?vid=5923a35d-2000-418d-af37-5c9f8b56db63","ios":"levelo://app?vid=5923a35d-2000-418d-af37-5c9f8b56db63"},"vehicle_type_id":"4","last_reported":1732468084,"current_range_meters":27200,"station_id":"ce4bgk12rcd13ifvqbj0","pricing_plan_id":"cebpf4jnsgd1na2vs0mg"},{"bike_id":"3c867933-15f7-487e-a98a-93264d20cd11","system_id":"levelo_inurba_marseille","lat":43.30127,"lon":5.39861,"is_reserved":false,"is_disabled":false,"rental_uris":{"android":"levelo://app?vid=3c867933-15f7-487e-a98a-93264d20cd11","ios":"levelo://app?vid=3c867933-15f7-487e-a98a-93264d20cd11"},"vehicle_type_id":"4","last_reported":1732468084,"current_range_meters":20800,"station_id":"ce4bh0h2rcd13ifvqd40","pricing_plan_id":"cebpf4jnsgd1na2vs0mg"},{"bike_id":"b1dfcd30-ff8d-431f-8baa-1d6817298d39","system_id":"levelo_inurba_marseille","lat":43.28718,"lon":5.37924,"is_reserved":false,"is_disabled":false,"rental_uris":{"android":"levelo://app?vid=b1dfcd30-ff8d-431f-8baa-1d6817298d39","ios":"levelo://app?vid=b1dfcd30-ff8d-431f-8baa-1d6817298d39"},"vehicle_type_id":"4","last_reported":1732468084,"current_range_meters":28400,"station_id":"ce4bh9p2rcd13ifvqec0","pricing_plan_id":"cebpf4jnsgd1na2vs0mg"},{"bike_id":"17ba6615-9f08-440e-93e9-f8f4f3600fcd","system_id":"levelo_inurba_marseille","lat":43.30544,"lon":5.36534,"is_reserved":false,"is_disabled":true,"rental_uris":{"android":"levelo://app?vid=17ba6615-9f08-440e-93e9-f8f4f3600fcd","ios":"levelo://app?vid=17ba6615-9f08-440e-93e9-f8f4f3600fcd"},"vehicle_type_id":"4","last_reported":1732468084,"current_range_meters":0,"station_id":"ce4bgs12rcd13ifvqcag","pricing_plan_id":"cebpf4jnsgd1na2vs0mg"},{"bike_id":"cbc2167d-639d-4b33-b914-3ad6f36f2868","system_id":"levelo_inurba_marseille","lat":43.22926,"lon":5.35376,"is_reserved":false,"is_disabled":false,"rental_uris":{"android":"levelo://app?vid=cbc2167d-639d-4b33-b914-3ad6f36f2868","ios":"levelo://app?vid=cbc2167d-639d-4b33-b914-3ad6f36f2868"},"vehicle_type_id":"4","last_reported":1732468084,"current_range_meters":35600,"station_id":"cpo3532slgdg3j2ikp40","pricing_plan_id":"cebpf4jnsgd1na2vs0mg"},{"bike_id":"3b76b434-c07f-48ef-bce6-5339bda9953e","system_id":"levelo_inurba_marseille","lat":43.28445,"lon":5.39183,"is_reserved":false,"is_disabled":false,"rental_uris":{"android":"levelo://app?vid=3b76b434-c07f-48ef-bce6-5339bda9953e","ios":"levelo://app?vid=3b76b434-c07f-48ef-bce6-5339bda9953e"},"vehicle_type_id":"4","last_reported":1732468084,"current_range_meters":38400,"station_id":"ce4bhoh2rcd13ifvqh5g","pricing_plan_id":"cebpf4jnsgd1na2vs0mg"},{"bike_id":"f3e6573d-a474-4ac3-bf3d-177b1aac3b2b","system_id":"levelo_inurba_marseille","lat":43.29257,"lon":5.4091,"is_reserved":false,"is_disabled":false,"rental_uris":{"android":"levelo://app?vid=f3e6573d-a474-4ac3-bf3d-177b1aac3b2b","ios":"levelo://app?vid=f3e6573d-a474-4ac3-bf3d-177b1aac3b2b"},"vehicle_type_id":"4","last_reported":1732468084,"current_range_meters":24800,"station_id":"ce4bh192rcd13ifvqdc0","pricing_plan_id":"cebpf4jnsgd1na2vs0mg"},{"bike_id":"635f2088-37d7-4c7e-b140-3292398be605","system_id":"levelo_inurba_marseille","lat":43.24812,"lon":5.37457,"is_reserved":false,"is_disabled":false,"rental_uris":{"android":"levelo://app?vid=635f2088-37d7-4c7e-b140-3292398be605","ios":"levelo://app?vid=635f2088-37d7-4c7e-b140-3292398be605"},"vehicle_type_id":"4","last_reported":1732468084,"current_range_meters":34800,"station_id":"ce4bhgh2rcd13ifvqfb0","pricing_plan_id":"cebpf4jnsgd1na2vs0mg"},{"bike_id":"94ea0621-f4a7-439d-a447-d0137de72d2c","system_id":"levelo_inurba_marseille","lat":43.26809,"lon":5.40275,"is_reserved":false,"is_disabled":false,"rental_uris":{"android":"levelo://app?vid=94ea0621-f4a7-439d-a447-d0137de72d2c","ios":"levelo://app?vid=94ea0621-f4a7-439d-a447-d0137de72d2c"},"vehicle_type_id":"4","last_reported":1732468084,"current_range_meters":8800,"station_id":"ce501612rcd8frsf0b60","pricing_plan_id":"cebpf4jnsgd1na2vs0mg"},{"bike_id":"525a6fec-12b6-4b10-b3ff-4afa7f2fbcff","system_id":"levelo_inurba_marseille","lat":43.29024,"lon":5.3864,"is_reserved":false,"is_disabled":false,"rental_uris":{"android":"levelo://app?vid=525a6fec-12b6-4b10-b3ff-4afa7f2fbcff","ios":"levelo://app?vid=525a6fec-12b6-4b10-b3ff-4afa7f2fbcff"},"vehicle_type_id":"4","last_reported":1732468084,"current_range_meters":20800,"station_id":"ce4bh4p2rcd13ifvqe0g","pricing_plan_id":"cebpf4jnsgd1na2vs0mg"},{"bike_id":"46aecb4d-ca23-4cd2-b4ac-2aedc6d37aaa","system_id":"levelo_inurba_marseille","lat":43.30422,"lon":5.36858,"is_reserved":false,"is_disabled":false,"rental_uris":{"android":"levelo://app?vid=46aecb4d-ca23-4cd2-b4ac-2aedc6d37aaa","ios":"levelo://app?vid=46aecb4d-ca23-4cd2-b4ac-2aedc6d37aaa"},"vehicle_type_id":"4","last_reported":1732468084,"current_range_meters":9200,"station_id":"","pricing_plan_id":"cebpf4jnsgd1na2vs0mg"},{"bike_id":"57599b4f-940a-4db6-bb00-56c66ba92b3e","system_id":"levelo_inurba_marseille","lat":43.29371,"lon":5.37855,"is_reserved":false,"is_disabled":false,"rental_uris":{"android":"levelo://app?vid=57599b4f-940a-4db6-bb00-56c66ba92b3e","ios":"levelo://app?vid=57599b4f-940a-4db6-bb00-56c66ba92b3e"},"vehicle_type_id":"4","last_reported":1732468084,"current_range_meters":38800,"station_id":"ce4bgjh2rcd13ifvqbf0","pricing_plan_id":"cebpf4jnsgd1na2vs0mg"},{"bike_id":"2b64df33-03b7-4d5c-b94e-24f6fe0334e2","system_id":"levelo_inurba_marseille","lat":43.29781,"lon":5.39343,"is_reserved":false,"is_disabled":false,"rental_uris":{"android":"levelo://app?vid=2b64df33-03b7-4d5c-b94e-24f6fe0334e2","ios":"levelo://app?vid=2b64df33-03b7-4d5c-b94e-24f6fe0334e2"},"vehicle_type_id":"4","last_reported":1732468084,"current_range_meters":32000,"station_id":"chh1huq6cuj3fo74tm60","pricing_plan_id":"cebpf4jnsgd1na2vs0mg"},{"bike_id":"2671fb8a-3452-46fd-bec4-bd169133378c","system_id":"levelo_inurba_marseille","lat":43.26685,"lon":5.38269,"is_reserved":false,"is_disabled":true,"rental_uris":{"android":"levelo://app?vid=2671fb8a-3452-46fd-bec4-bd169133378c","ios":"levelo://app?vid=2671fb8a-3452-46fd-bec4-bd169133378c"},"vehicle_type_id":"4","last_reported":1732468084,"current_range_meters":38800,"station_id":"ce4bhg92rcd13ifvqf90","pricing_plan_id":"cebpf4jnsgd1na2vs0mg"},{"bike_id":"8f46ae8d-1d7d-4fcb-9b14-57dc873642c3","system_id":"levelo_inurba_marseille","lat":43.29879,"lon":5.38908,"is_reserved":false,"is_disabled":false,"rental_uris":{"android":"levelo://app?vid=8f46ae8d-1d7d-4fcb-9b14-57dc873642c3","ios":"levelo://app?vid=8f46ae8d-1d7d-4fcb-9b14-57dc873642c3"},"vehicle_type_id":"4","last_reported":1732468084,"current_range_meters":28800,"station_id":"ce4bh392rcd13ifvqdl0","pricing_plan_id":"cebpf4jnsgd1na2vs0mg"},{"bike_id":"65179681-8047-461b-8083-7ad0a534f941","system_id":"levelo_inurba_marseille","lat":43.28673,"lon":5.38666,"is_reserved":false,"is_disabled":false,"rental_uris":{"android":"levelo://app?vid=65179681-8047-461b-8083-7ad0a534f941","ios":"levelo://app?vid=65179681-8047-461b-8083-7ad0a534f941"},"vehicle_type_id":"4","last_reported":1732468084,"current_range_meters":25600,"station_id":"ce4bh492rcd13ifvqdug","pricing_plan_id":"cebpf4jnsgd1na2vs0mg"},{"bike_id":"28f8ecf8-a7ae-4a32-aa4f-609e03eada5d","system_id":"levelo_inurba_marseille","lat":43.29531,"lon":5.38543,"is_reserved":false,"is_disabled":true,"rental_uris":{"android":"levelo://app?vid=28f8ecf8-a7ae-4a32-aa4f-609e03eada5d","ios":"levelo://app?vid=28f8ecf8-a7ae-4a32-aa4f-609e03eada5d"},"vehicle_type_id":"4","last_reported":1732468084,"current_range_meters":38400,"station_id":"ce4bgih2rcd13ifvqba0","pricing_plan_id":"cebpf4jnsgd1na2vs0mg"},{"bike_id":"858b65e1-94fc-4151-a71e-8b168cb19dcb","system_id":"levelo_inurba_marseille","lat":43.32249,"lon":5.39241,"is_reserved":false,"is_disabled":true,"rental_uris":{"android":"levelo://app?vid=858b65e1-94fc-4151-a71e-8b168cb19dcb","ios":"levelo://app?vid=858b65e1-94fc-4151-a71e-8b168cb19dcb"},"vehicle_type_id":"4","last_reported":1732468084,"current_range_meters":6000,"station_id":"","pricing_plan_id":"cebpf4jnsgd1na2vs0mg"},{"bike_id":"50fa51f0-e97e-445c-be1f-abf6b73d62f8","system_id":"levelo_inurba_marseille","lat":43.25111,"lon":5.40331,"is_reserved":false,"is_disabled":false,"rental_uris":{"android":"levelo://app?vid=50fa51f0-e97e-445c-be1f-abf6b73d62f8","ios":"levelo://app?vid=50fa51f0-e97e-445c-be1f-abf6b73d62f8"},"vehicle_type_id":"4","last_reported":1732468084,"current_range_meters":17200,"station_id":"ce4bhlh2rcd13ifvqgig","pricing_plan_id":"cebpf4jnsgd1na2vs0mg"},{"bike_id":"133c0635-6ac4-49a6-b3b8-4ad5dda949c5","system_id":"levelo_inurba_marseille","lat":43.31701,"lon":5.3775,"is_reserved":false,"is_disabled":true,"rental_uris":{"android":"levelo://app?vid=133c0635-6ac4-49a6-b3b8-4ad5dda949c5","ios":"levelo://app?vid=133c0635-6ac4-49a6-b3b8-4ad5dda949c5"},"vehicle_type_id":"4","last_reported":1732468084,"current_range_meters":37600,"station_id":"ce4bgth2rcd13ifvqch0","pricing_plan_id":"cebpf4jnsgd1na2vs0mg"},{"bike_id":"89e9fbd1-c643-4cdc-bf3c-e7adcd59217f","system_id":"levelo_inurba_marseille","lat":43.3248,"lon":5.36579,"is_reserved":false,"is_disabled":false,"rental_uris":{"android":"levelo://app?vid=89e9fbd1-c643-4cdc-bf3c-e7adcd59217f","ios":"levelo://app?vid=89e9fbd1-c643-4cdc-bf3c-e7adcd59217f"},"vehicle_type_id":"4","last_reported":1732468084,"current_range_meters":36800,"station_id":"ce4bhs12rcd13ifvqhvg","pricing_plan_id":"cebpf4jnsgd1na2vs0mg"},{"bike_id":"5b1848fc-624c-4c51-aee9-b2940f85a2d8","system_id":"levelo_inurba_marseille","lat":43.31706,"lon":5.37755,"is_reserved":false,"is_disabled":false,"rental_uris":{"android":"levelo://app?vid=5b1848fc-624c-4c51-aee9-b2940f85a2d8","ios":"levelo://app?vid=5b1848fc-624c-4c51-aee9-b2940f85a2d8"},"vehicle_type_id":"4","last_reported":1732468084,"current_range_meters":38400,"station_id":"ce4bgth2rcd13ifvqch0","pricing_plan_id":"cebpf4jnsgd1na2vs0mg"},{"bike_id":"1f7a2424-c270-4472-84c7-0f6ba57bbbb4","system_id":"levelo_inurba_marseille","lat":43.31367,"lon":5.38481,"is_reserved":false,"is_disabled":true,"rental_uris":{"android":"levelo://app?vid=1f7a2424-c270-4472-84c7-0f6ba57bbbb4","ios":"levelo://app?vid=1f7a2424-c270-4472-84c7-0f6ba57bbbb4"},"vehicle_type_id":"4","last_reported":1732468084,"current_range_meters":7200,"station_id":"ce4bgt92rcd13ifvqcf0","pricing_plan_id":"cebpf4jnsgd1na2vs0mg"},{"bike_id":"72bd035c-1ca6-47d6-a90c-e060d6f1f853","system_id":"levelo_inurba_marseille","lat":43.29368,"lon":5.37864,"is_reserved":false,"is_disabled":false,"rental_uris":{"android":"levelo://app?vid=72bd035c-1ca6-47d6-a90c-e060d6f1f853","ios":"levelo://app?vid=72bd035c-1ca6-47d6-a90c-e060d6f1f853"},"vehicle_type_id":"4","last_reported":1732468084,"current_range_meters":38400,"station_id":"ce4bgjh2rcd13ifvqbf0","pricing_plan_id":"cebpf4jnsgd1na2vs0mg"},{"bike_id":"5281f41c-dd07-43c2-aa89-dbf2dfffbbb3","system_id":"levelo_inurba_marseille","lat":43.25499,"lon":5.37651,"is_reserved":false,"is_disabled":false,"rental_uris":{"android":"levelo://app?vid=5281f41c-dd07-43c2-aa89-dbf2dfffbbb3","ios":"levelo://app?vid=5281f41c-dd07-43c2-aa89-dbf2dfffbbb3"},"vehicle_type_id":"4","last_reported":1732468084,"current_range_meters":32000,"station_id":"ce4bhh12rcd13ifvqff0","pricing_plan_id":"cebpf4jnsgd1na2vs0mg"},{"bike_id":"890ceff7-9bd1-4363-9716-427976dbddef","system_id":"levelo_inurba_marseille","lat":43.27202,"lon":5.39198,"is_reserved":false,"is_disabled":true,"rental_uris":{"android":"levelo://app?vid=890ceff7-9bd1-4363-9716-427976dbddef","ios":"levelo://app?vid=890ceff7-9bd1-4363-9716-427976dbddef"},"vehicle_type_id":"4","last_reported":1732468084,"current_range_meters":800,"station_id":"ce4bhhp2rcd13ifvqfm0","pricing_plan_id":"cebpf4jnsgd1na2vs0mg"},{"bike_id":"51dadabf-6c3f-4722-b70f-1952eed7d670","system_id":"levelo_inurba_marseille","lat":43.29173,"lon":5.37146,"is_reserved":false,"is_disabled":false,"rental_uris":{"android":"levelo://app?vid=51dadabf-6c3f-4722-b70f-1952eed7d670","ios":"levelo://app?vid=51dadabf-6c3f-4722-b70f-1952eed7d670"},"vehicle_type_id":"4","last_reported":1732468084,"current_range_meters":27200,"station_id":"ce4bha92rcd13ifvqeh0","pricing_plan_id":"cebpf4jnsgd1na2vs0mg"},{"bike_id":"552ae1f9-34eb-4d70-a19b-3616d3661778","system_id":"levelo_inurba_marseille","lat":43.3371,"lon":5.39178,"is_reserved":false,"is_disabled":false,"rental_uris":{"android":"levelo://app?vid=552ae1f9-34eb-4d70-a19b-3616d3661778","ios":"levelo://app?vid=552ae1f9-34eb-4d70-a19b-3616d3661778"},"vehicle_type_id":"4","last_reported":1732468084,"current_range_meters":14000,"station_id":"ce4bhr92rcd13ifvqhsg","pricing_plan_id":"cebpf4jnsgd1na2vs0mg"},{"bike_id":"f7f3756c-1ec7-4782-9c87-6273f87b6774","system_id":"levelo_inurba_marseille","lat":43.337444,"lon":5.374475,"is_reserved":false,"is_disabled":true,"rental_uris":{"android":"levelo://app?vid=f7f3756c-1ec7-4782-9c87-6273f87b6774","ios":"levelo://app?vid=f7f3756c-1ec7-4782-9c87-6273f87b6774"},"vehicle_type_id":"4","last_reported":1732468084,"current_range_meters":27600,"station_id":"","pricing_plan_id":"cebpf4jnsgd1na2vs0mg"},{"bike_id":"740f162e-a0c7-4af9-899d-283ea1409dc6","system_id":"levelo_inurba_marseille","lat":43.26932,"lon":5.38922,"is_reserved":false,"is_disabled":true,"rental_uris":{"android":"levelo://app?vid=740f162e-a0c7-4af9-899d-283ea1409dc6","ios":"levelo://app?vid=740f162e-a0c7-4af9-899d-283ea1409dc6"},"vehicle_type_id":"4","last_reported":1732468084,"current_range_meters":30000,"station_id":"ce4bhhh2rcd13ifvqfl0","pricing_plan_id":"cebpf4jnsgd1na2vs0mg"},{"bike_id":"d8d94634-4ac1-4f5f-8651-7a99e522961a","system_id":"levelo_inurba_marseille","lat":43.25958,"lon":5.3964,"is_reserved":false,"is_disabled":false,"rental_uris":{"android":"levelo://app?vid=d8d94634-4ac1-4f5f-8651-7a99e522961a","ios":"levelo://app?vid=d8d94634-4ac1-4f5f-8651-7a99e522961a"},"vehicle_type_id":"4","last_reported":1732468084,"current_range_meters":28000,"station_id":"","pricing_plan_id":"cebpf4jnsgd1na2vs0mg"},{"bike_id":"20305e2f-bbbe-4758-bf66-741c9d1e9109","system_id":"levelo_inurba_marseille","lat":43.28152,"lon":5.42636,"is_reserved":false,"is_disabled":true,"rental_uris":{"android":"levelo://app?vid=20305e2f-bbbe-4758-bf66-741c9d1e9109","ios":"levelo://app?vid=20305e2f-bbbe-4758-bf66-741c9d1e9109"},"vehicle_type_id":"4","last_reported":1732468084,"current_range_meters":2000,"station_id":"ce4bhnh2rcd13ifvqgug","pricing_plan_id":"cebpf4jnsgd1na2vs0mg"},{"bike_id":"45551ad0-dcbd-422d-bc76-029a448df961","system_id":"levelo_inurba_marseille","lat":43.24389,"lon":5.37062,"is_reserved":false,"is_disabled":false,"rental_uris":{"android":"levelo://app?vid=45551ad0-dcbd-422d-bc76-029a448df961","ios":"levelo://app?vid=45551ad0-dcbd-422d-bc76-029a448df961"},"vehicle_type_id":"4","last_reported":1732468084,"current_range_meters":8400,"station_id":"ce4bhhh2rcd13ifvqfk0","pricing_plan_id":"cebpf4jnsgd1na2vs0mg"},{"bike_id":"c99f82a6-1e75-4069-adf7-8d3dd61d2d09","system_id":"levelo_inurba_marseille","lat":43.29891,"lon":5.4366,"is_reserved":false,"is_disabled":false,"rental_uris":{"android":"levelo://app?vid=c99f82a6-1e75-4069-adf7-8d3dd61d2d09","ios":"levelo://app?vid=c99f82a6-1e75-4069-adf7-8d3dd61d2d09"},"vehicle_type_id":"4","last_reported":1732468084,"current_range_meters":16000,"station_id":"ce4bhpp2rcd13ifvqhfg","pricing_plan_id":"cebpf4jnsgd1na2vs0mg"},{"bike_id":"96fef04f-f424-4b1e-a003-fc645e04ed3a","system_id":"levelo_inurba_marseille","lat":43.27371,"lon":5.36253,"is_reserved":false,"is_disabled":true,"rental_uris":{"android":"levelo://app?vid=96fef04f-f424-4b1e-a003-fc645e04ed3a","ios":"levelo://app?vid=96fef04f-f424-4b1e-a003-fc645e04ed3a"},"vehicle_type_id":"4","last_reported":1732468084,"current_range_meters":30000,"station_id":"ce4bhbh2rcd13ifvqeo0","pricing_plan_id":"cebpf4jnsgd1na2vs0mg"},{"bike_id":"b7b61d62-d3cf-45c0-ae9e-f05215122577","system_id":"levelo_inurba_marseille","lat":43.30927,"lon":5.40146,"is_reserved":false,"is_disabled":true,"rental_uris":{"android":"levelo://app?vid=b7b61d62-d3cf-45c0-ae9e-f05215122577","ios":"levelo://app?vid=b7b61d62-d3cf-45c0-ae9e-f05215122577"},"vehicle_type_id":"4","last_reported":1732468084,"current_range_meters":0,"station_id":"ce4bgvp2rcd13ifvqct0","pricing_plan_id":"cebpf4jnsgd1na2vs0mg"},{"bike_id":"92aaf2ae-6395-4985-bda4-652f2001ddbe","system_id":"levelo_inurba_marseille","lat":43.27559,"lon":5.38423,"is_reserved":false,"is_disabled":false,"rental_uris":{"android":"levelo://app?vid=92aaf2ae-6395-4985-bda4-652f2001ddbe","ios":"levelo://app?vid=92aaf2ae-6395-4985-bda4-652f2001ddbe"},"vehicle_type_id":"4","last_reported":1732468084,"current_range_meters":38800,"station_id":"ce4bhh92rcd13ifvqfi0","pricing_plan_id":"cebpf4jnsgd1na2vs0mg"},{"bike_id":"a38c4cae-dd7e-4035-b219-dec019342473","system_id":"levelo_inurba_marseille","lat":43.26554,"lon":5.37287,"is_reserved":false,"is_disabled":false,"rental_uris":{"android":"levelo://app?vid=a38c4cae-dd7e-4035-b219-dec019342473","ios":"levelo://app?vid=a38c4cae-dd7e-4035-b219-dec019342473"},"vehicle_type_id":"4","last_reported":1732468084,"current_range_meters":38800,"station_id":"ce4bhg12rcd13ifvqf70","pricing_plan_id":"cebpf4jnsgd1na2vs0mg"},{"bike_id":"eef74caf-b712-46ac-8fc5-c007ce1eecfe","system_id":"levelo_inurba_marseille","lat":43.28151,"lon":5.42645,"is_reserved":false,"is_disabled":false,"rental_uris":{"android":"levelo://app?vid=eef74caf-b712-46ac-8fc5-c007ce1eecfe","ios":"levelo://app?vid=eef74caf-b712-46ac-8fc5-c007ce1eecfe"},"vehicle_type_id":"4","last_reported":1732468084,"current_range_meters":28400,"station_id":"ce4bhnh2rcd13ifvqgug","pricing_plan_id":"cebpf4jnsgd1na2vs0mg"},{"bike_id":"86ec5835-1e76-4455-9969-54b44bba3755","system_id":"levelo_inurba_marseille","lat":43.32481,"lon":5.36558,"is_reserved":false,"is_disabled":false,"rental_uris":{"android":"levelo://app?vid=86ec5835-1e76-4455-9969-54b44bba3755","ios":"levelo://app?vid=86ec5835-1e76-4455-9969-54b44bba3755"},"vehicle_type_id":"4","last_reported":1732468084,"current_range_meters":22400,"station_id":"ce4bhs12rcd13ifvqhvg","pricing_plan_id":"cebpf4jnsgd1na2vs0mg"},{"bike_id":"0ed83b47-52ec-43b9-b2f6-22975bee1154","system_id":"levelo_inurba_marseille","lat":43.27529,"lon":5.38399,"is_reserved":false,"is_disabled":false,"rental_uris":{"android":"levelo://app?vid=0ed83b47-52ec-43b9-b2f6-22975bee1154","ios":"levelo://app?vid=0ed83b47-52ec-43b9-b2f6-22975bee1154"},"vehicle_type_id":"4","last_reported":1732468084,"current_range_meters":38800,"station_id":"ce4bhh92rcd13ifvqfi0","pricing_plan_id":"cebpf4jnsgd1na2vs0mg"},{"bike_id":"0ee2791b-c0d5-4ae7-a47e-597962f52631","system_id":"levelo_inurba_marseille","lat":43.299,"lon":5.43676,"is_reserved":false,"is_disabled":false,"rental_uris":{"android":"levelo://app?vid=0ee2791b-c0d5-4ae7-a47e-597962f52631","ios":"levelo://app?vid=0ee2791b-c0d5-4ae7-a47e-597962f52631"},"vehicle_type_id":"4","last_reported":1732468084,"current_range_meters":38800,"station_id":"ce4bhpp2rcd13ifvqhfg","pricing_plan_id":"cebpf4jnsgd1na2vs0mg"},{"bike_id":"63e5c75a-30c8-4be5-8ec8-448fdf89dbb8","system_id":"levelo_inurba_marseille","lat":43.23065,"lon":5.35489,"is_reserved":false,"is_disabled":false,"rental_uris":{"android":"levelo://app?vid=63e5c75a-30c8-4be5-8ec8-448fdf89dbb8","ios":"levelo://app?vid=63e5c75a-30c8-4be5-8ec8-448fdf89dbb8"},"vehicle_type_id":"4","last_reported":1732468084,"current_range_meters":38800,"station_id":"cpo3342slgdg3j2ifvpg","pricing_plan_id":"cebpf4jnsgd1na2vs0mg"},{"bike_id":"9809e4bf-cba4-4600-9a9f-5db9eebb69b0","system_id":"levelo_inurba_marseille","lat":43.26679,"lon":5.38268,"is_reserved":false,"is_disabled":false,"rental_uris":{"android":"levelo://app?vid=9809e4bf-cba4-4600-9a9f-5db9eebb69b0","ios":"levelo://app?vid=9809e4bf-cba4-4600-9a9f-5db9eebb69b0"},"vehicle_type_id":"4","last_reported":1732468084,"current_range_meters":9200,"station_id":"ce4bhg92rcd13ifvqf90","pricing_plan_id":"cebpf4jnsgd1na2vs0mg"},{"bike_id":"1e193d09-2cb0-4798-8e19-b0516f3ebb8e","system_id":"levelo_inurba_marseille","lat":43.28152,"lon":5.42658,"is_reserved":false,"is_disabled":false,"rental_uris":{"android":"levelo://app?vid=1e193d09-2cb0-4798-8e19-b0516f3ebb8e","ios":"levelo://app?vid=1e193d09-2cb0-4798-8e19-b0516f3ebb8e"},"vehicle_type_id":"4","last_reported":1732468084,"current_range_meters":19200,"station_id":"ce4bhnh2rcd13ifvqgug","pricing_plan_id":"cebpf4jnsgd1na2vs0mg"},{"bike_id":"08bb9d56-f397-488c-abe2-8a839870253a","system_id":"levelo_inurba_marseille","lat":43.27067,"lon":5.42271,"is_reserved":false,"is_disabled":false,"rental_uris":{"android":"levelo://app?vid=08bb9d56-f397-488c-abe2-8a839870253a","ios":"levelo://app?vid=08bb9d56-f397-488c-abe2-8a839870253a"},"vehicle_type_id":"4","last_reported":1732468084,"current_range_meters":34000,"station_id":"ce4bhk92rcd13ifvqgb0","pricing_plan_id":"cebpf4jnsgd1na2vs0mg"},{"bike_id":"2c704b16-e8ca-4d6d-95ac-2e2c0a988293","system_id":"levelo_inurba_marseille","lat":43.29021,"lon":5.38136,"is_reserved":false,"is_disabled":false,"rental_uris":{"android":"levelo://app?vid=2c704b16-e8ca-4d6d-95ac-2e2c0a988293","ios":"levelo://app?vid=2c704b16-e8ca-4d6d-95ac-2e2c0a988293"},"vehicle_type_id":"4","last_reported":1732468084,"current_range_meters":37600,"station_id":"ce4bh4p2rcd13ifvqe1g","pricing_plan_id":"cebpf4jnsgd1na2vs0mg"},{"bike_id":"319287df-687a-4519-8559-afdae3b3272f","system_id":"levelo_inurba_marseille","lat":43.29786,"lon":5.3811,"is_reserved":false,"is_disabled":true,"rental_uris":{"android":"levelo://app?vid=319287df-687a-4519-8559-afdae3b3272f","ios":"levelo://app?vid=319287df-687a-4519-8559-afdae3b3272f"},"vehicle_type_id":"4","last_reported":1732468084,"current_range_meters":33600,"station_id":"ce4bgip2rcd13ifvqbb0","pricing_plan_id":"cebpf4jnsgd1na2vs0mg"},{"bike_id":"bca3fd95-577b-4655-a940-7281cdb56793","system_id":"levelo_inurba_marseille","lat":43.2803,"lon":5.36936,"is_reserved":false,"is_disabled":true,"rental_uris":{"android":"levelo://app?vid=bca3fd95-577b-4655-a940-7281cdb56793","ios":"levelo://app?vid=bca3fd95-577b-4655-a940-7281cdb56793"},"vehicle_type_id":"4","last_reported":1732468084,"current_range_meters":34800,"station_id":"ce4bha12rcd13ifvqef0","pricing_plan_id":"cebpf4jnsgd1na2vs0mg"},{"bike_id":"e5951ee3-4a5a-4ebb-b469-096c5188dfa3","system_id":"levelo_inurba_marseille","lat":43.23189,"lon":5.3556,"is_reserved":false,"is_disabled":false,"rental_uris":{"android":"levelo://app?vid=e5951ee3-4a5a-4ebb-b469-096c5188dfa3","ios":"levelo://app?vid=e5951ee3-4a5a-4ebb-b469-096c5188dfa3"},"vehicle_type_id":"4","last_reported":1732468084,"current_range_meters":16800,"station_id":"ce4bhu92rcd13ifvqi70","pricing_plan_id":"cebpf4jnsgd1na2vs0mg"},{"bike_id":"1c7ab5f6-957f-480f-9a55-f63d84fcde3d","system_id":"levelo_inurba_marseille","lat":43.29513,"lon":5.3749,"is_reserved":false,"is_disabled":false,"rental_uris":{"android":"levelo://app?vid=1c7ab5f6-957f-480f-9a55-f63d84fcde3d","ios":"levelo://app?vid=1c7ab5f6-957f-480f-9a55-f63d84fcde3d"},"vehicle_type_id":"4","last_reported":1732468084,"current_range_meters":33200,"station_id":"ce4bgkp2rcd13ifvqbmg","pricing_plan_id":"cebpf4jnsgd1na2vs0mg"},{"bike_id":"85568f96-c839-48f6-8d74-53f5f2b4778a","system_id":"levelo_inurba_marseille","lat":43.31326,"lon":5.3969,"is_reserved":false,"is_disabled":false,"rental_uris":{"android":"levelo://app?vid=85568f96-c839-48f6-8d74-53f5f2b4778a","ios":"levelo://app?vid=85568f96-c839-48f6-8d74-53f5f2b4778a"},"vehicle_type_id":"4","last_reported":1732468084,"current_range_meters":28000,"station_id":"ce4bgvp2rcd13ifvqcu0","pricing_plan_id":"cebpf4jnsgd1na2vs0mg"},{"bike_id":"d85e084d-091a-43ad-b2d8-ff222e9c8bd8","system_id":"levelo_inurba_marseille","lat":43.29423,"lon":5.38611,"is_reserved":false,"is_disabled":false,"rental_uris":{"android":"levelo://app?vid=d85e084d-091a-43ad-b2d8-ff222e9c8bd8","ios":"levelo://app?vid=d85e084d-091a-43ad-b2d8-ff222e9c8bd8"},"vehicle_type_id":"4","last_reported":1732468084,"current_range_meters":38800,"station_id":"ce4bh2h2rcd13ifvqdh0","pricing_plan_id":"cebpf4jnsgd1na2vs0mg"},{"bike_id":"978c963c-a29f-42ab-8acf-3d1fb642644d","system_id":"levelo_inurba_marseille","lat":43.27424,"lon":5.39414,"is_reserved":false,"is_disabled":false,"rental_uris":{"android":"levelo://app?vid=978c963c-a29f-42ab-8acf-3d1fb642644d","ios":"levelo://app?vid=978c963c-a29f-42ab-8acf-3d1fb642644d"},"vehicle_type_id":"4","last_reported":1732468084,"current_range_meters":38800,"station_id":"ce4bhdp2rcd13ifvqf20","pricing_plan_id":"cebpf4jnsgd1na2vs0mg"},{"bike_id":"6c948e9c-d5b3-4fe5-a918-1bd2f7c83b02","system_id":"levelo_inurba_marseille","lat":43.32114,"lon":5.36781,"is_reserved":false,"is_disabled":false,"rental_uris":{"android":"levelo://app?vid=6c948e9c-d5b3-4fe5-a918-1bd2f7c83b02","ios":"levelo://app?vid=6c948e9c-d5b3-4fe5-a918-1bd2f7c83b02"},"vehicle_type_id":"4","last_reported":1732468084,"current_range_meters":28000,"station_id":"ce4bhrh2rcd13ifvqhug","pricing_plan_id":"cebpf4jnsgd1na2vs0mg"},{"bike_id":"9e620abf-d324-4f99-84fc-d67e71109f2a","system_id":"levelo_inurba_marseille","lat":43.31077,"lon":5.42435,"is_reserved":false,"is_disabled":true,"rental_uris":{"android":"levelo://app?vid=9e620abf-d324-4f99-84fc-d67e71109f2a","ios":"levelo://app?vid=9e620abf-d324-4f99-84fc-d67e71109f2a"},"vehicle_type_id":"4","last_reported":1732468084,"current_range_meters":0,"station_id":"ce4bhp92rcd13ifvqhag","pricing_plan_id":"cebpf4jnsgd1na2vs0mg"},{"bike_id":"9388a7ff-9c5c-4c26-9899-39b2408cf7e3","system_id":"levelo_inurba_marseille","lat":43.31025,"lon":5.38342,"is_reserved":false,"is_disabled":true,"rental_uris":{"android":"levelo://app?vid=9388a7ff-9c5c-4c26-9899-39b2408cf7e3","ios":"levelo://app?vid=9388a7ff-9c5c-4c26-9899-39b2408cf7e3"},"vehicle_type_id":"4","last_reported":1732468084,"current_range_meters":0,"station_id":"","pricing_plan_id":"cebpf4jnsgd1na2vs0mg"},{"bike_id":"4d6b356d-2cf8-4c98-aed1-976ebfe1555d","system_id":"levelo_inurba_marseille","lat":43.25583,"lon":5.38252,"is_reserved":false,"is_disabled":false,"rental_uris":{"android":"levelo://app?vid=4d6b356d-2cf8-4c98-aed1-976ebfe1555d","ios":"levelo://app?vid=4d6b356d-2cf8-4c98-aed1-976ebfe1555d"},"vehicle_type_id":"4","last_reported":1732468084,"current_range_meters":31200,"station_id":"ce4bhih2rcd13ifvqfs0","pricing_plan_id":"cebpf4jnsgd1na2vs0mg"},{"bike_id":"77c57286-d1a9-4de4-91c2-66f5a9560e58","system_id":"levelo_inurba_marseille","lat":43.29284,"lon":5.40119,"is_reserved":false,"is_disabled":false,"rental_uris":{"android":"levelo://app?vid=77c57286-d1a9-4de4-91c2-66f5a9560e58","ios":"levelo://app?vid=77c57286-d1a9-4de4-91c2-66f5a9560e58"},"vehicle_type_id":"4","last_reported":1732468084,"current_range_meters":16400,"station_id":"ce4bh312rcd13ifvqdk0","pricing_plan_id":"cebpf4jnsgd1na2vs0mg"},{"bike_id":"623efcdd-d051-4505-909d-c52e6c52245f","system_id":"levelo_inurba_marseille","lat":43.32369,"lon":5.38884,"is_reserved":false,"is_disabled":true,"rental_uris":{"android":"levelo://app?vid=623efcdd-d051-4505-909d-c52e6c52245f","ios":"levelo://app?vid=623efcdd-d051-4505-909d-c52e6c52245f"},"vehicle_type_id":"4","last_reported":1732468084,"current_range_meters":8000,"station_id":"ce4bhqp2rcd13ifvqhog","pricing_plan_id":"cebpf4jnsgd1na2vs0mg"},{"bike_id":"cd8e54fb-34fe-46e4-ba34-dce7875b9b06","system_id":"levelo_inurba_marseille","lat":43.295419,"lon":5.394077,"is_reserved":false,"is_disabled":false,"rental_uris":{"android":"levelo://app?vid=cd8e54fb-34fe-46e4-ba34-dce7875b9b06","ios":"levelo://app?vid=cd8e54fb-34fe-46e4-ba34-dce7875b9b06"},"vehicle_type_id":"4","last_reported":1732468084,"current_range_meters":38800,"station_id":"ce4bh292rcd13ifvqdf0","pricing_plan_id":"cebpf4jnsgd1na2vs0mg"},{"bike_id":"c73f9031-dfb2-406e-b982-b1df3d770256","system_id":"levelo_inurba_marseille","lat":43.32657,"lon":5.4099,"is_reserved":false,"is_disabled":false,"rental_uris":{"android":"levelo://app?vid=c73f9031-dfb2-406e-b982-b1df3d770256","ios":"levelo://app?vid=c73f9031-dfb2-406e-b982-b1df3d770256"},"vehicle_type_id":"4","last_reported":1732468084,"current_range_meters":37600,"station_id":"ce4bhpp2rcd13ifvqhgg","pricing_plan_id":"cebpf4jnsgd1na2vs0mg"},{"bike_id":"5c53cfbd-2547-413a-b79a-f8cc3b1ca992","system_id":"levelo_inurba_marseille","lat":43.32109,"lon":5.36777,"is_reserved":false,"is_disabled":false,"rental_uris":{"android":"levelo://app?vid=5c53cfbd-2547-413a-b79a-f8cc3b1ca992","ios":"levelo://app?vid=5c53cfbd-2547-413a-b79a-f8cc3b1ca992"},"vehicle_type_id":"4","last_reported":1732468084,"current_range_meters":38800,"station_id":"ce4bhrh2rcd13ifvqhug","pricing_plan_id":"cebpf4jnsgd1na2vs0mg"},{"bike_id":"210a35fe-4338-4232-95a7-7fea277b2632","system_id":"levelo_inurba_marseille","lat":43.24068,"lon":5.37767,"is_reserved":false,"is_disabled":false,"rental_uris":{"android":"levelo://app?vid=210a35fe-4338-4232-95a7-7fea277b2632","ios":"levelo://app?vid=210a35fe-4338-4232-95a7-7fea277b2632"},"vehicle_type_id":"4","last_reported":1732468084,"current_range_meters":25600,"station_id":"ce4bhnp2rcd13ifvqgvg","pricing_plan_id":"cebpf4jnsgd1na2vs0mg"},{"bike_id":"04b9c9cb-be15-44a7-9bdc-6d22ca715c34","system_id":"levelo_inurba_marseille","lat":43.33714,"lon":5.3918,"is_reserved":false,"is_disabled":false,"rental_uris":{"android":"levelo://app?vid=04b9c9cb-be15-44a7-9bdc-6d22ca715c34","ios":"levelo://app?vid=04b9c9cb-be15-44a7-9bdc-6d22ca715c34"},"vehicle_type_id":"4","last_reported":1732468084,"current_range_meters":24400,"station_id":"ce4bhr92rcd13ifvqhsg","pricing_plan_id":"cebpf4jnsgd1na2vs0mg"},{"bike_id":"7d57fd8e-1360-4257-a844-422f4066cbb5","system_id":"levelo_inurba_marseille","lat":43.27976,"lon":5.38724,"is_reserved":false,"is_disabled":false,"rental_uris":{"android":"levelo://app?vid=7d57fd8e-1360-4257-a844-422f4066cbb5","ios":"levelo://app?vid=7d57fd8e-1360-4257-a844-422f4066cbb5"},"vehicle_type_id":"4","last_reported":1732468084,"current_range_meters":32400,"station_id":"ce4bhg12rcd13ifvqf80","pricing_plan_id":"cebpf4jnsgd1na2vs0mg"},{"bike_id":"1600827b-08cc-42ec-8166-641d92381647","system_id":"levelo_inurba_marseille","lat":43.34142,"lon":5.40903,"is_reserved":false,"is_disabled":false,"rental_uris":{"android":"levelo://app?vid=1600827b-08cc-42ec-8166-641d92381647","ios":"levelo://app?vid=1600827b-08cc-42ec-8166-641d92381647"},"vehicle_type_id":"4","last_reported":1732468084,"current_range_meters":11200,"station_id":"ce4bhqh2rcd13ifvqhlg","pricing_plan_id":"cebpf4jnsgd1na2vs0mg"},{"bike_id":"43ef1878-08c8-43ce-8a84-e0d20cc2548c","system_id":"levelo_inurba_marseille","lat":43.2594,"lon":5.40908,"is_reserved":false,"is_disabled":true,"rental_uris":{"android":"levelo://app?vid=43ef1878-08c8-43ce-8a84-e0d20cc2548c","ios":"levelo://app?vid=43ef1878-08c8-43ce-8a84-e0d20cc2548c"},"vehicle_type_id":"4","last_reported":1732468084,"current_range_meters":0,"station_id":"ce4bhm92rcd13ifvqglg","pricing_plan_id":"cebpf4jnsgd1na2vs0mg"},{"bike_id":"47e7951f-9bba-42b2-be48-684ea462686e","system_id":"levelo_inurba_marseille","lat":43.30358,"lon":5.41888,"is_reserved":false,"is_disabled":false,"rental_uris":{"android":"levelo://app?vid=47e7951f-9bba-42b2-be48-684ea462686e","ios":"levelo://app?vid=47e7951f-9bba-42b2-be48-684ea462686e"},"vehicle_type_id":"4","last_reported":1732468084,"current_range_meters":38800,"station_id":"ce4bhop2rcd13ifvqh7g","pricing_plan_id":"cebpf4jnsgd1na2vs0mg"},{"bike_id":"56ca6b93-ca3d-4dfc-8e20-e35c24d8bd07","system_id":"levelo_inurba_marseille","lat":43.337444,"lon":5.374475,"is_reserved":false,"is_disabled":true,"rental_uris":{"android":"levelo://app?vid=56ca6b93-ca3d-4dfc-8e20-e35c24d8bd07","ios":"levelo://app?vid=56ca6b93-ca3d-4dfc-8e20-e35c24d8bd07"},"vehicle_type_id":"4","last_reported":1732468084,"current_range_meters":0,"station_id":"","pricing_plan_id":"cebpf4jnsgd1na2vs0mg"},{"bike_id":"fc4e3e2e-faf4-4cbc-8fd8-119b18821073","system_id":"levelo_inurba_marseille","lat":43.25575,"lon":5.38237,"is_reserved":false,"is_disabled":true,"rental_uris":{"android":"levelo://app?vid=fc4e3e2e-faf4-4cbc-8fd8-119b18821073","ios":"levelo://app?vid=fc4e3e2e-faf4-4cbc-8fd8-119b18821073"},"vehicle_type_id":"4","last_reported":1732468084,"current_range_meters":10000,"station_id":"ce4bhih2rcd13ifvqfs0","pricing_plan_id":"cebpf4jnsgd1na2vs0mg"},{"bike_id":"89b60ab2-d6a6-4acf-aafc-578126cf416a","system_id":"levelo_inurba_marseille","lat":43.28271,"lon":5.35065,"is_reserved":false,"is_disabled":true,"rental_uris":{"android":"levelo://app?vid=89b60ab2-d6a6-4acf-aafc-578126cf416a","ios":"levelo://app?vid=89b60ab2-d6a6-4acf-aafc-578126cf416a"},"vehicle_type_id":"4","last_reported":1732468084,"current_range_meters":29600,"station_id":"ce4bhbp2rcd13ifvqerg","pricing_plan_id":"cebpf4jnsgd1na2vs0mg"},{"bike_id":"46ac22a8-6f10-4221-98a6-34eba5c97bfb","system_id":"levelo_inurba_marseille","lat":43.291978,"lon":5.373114,"is_reserved":false,"is_disabled":true,"rental_uris":{"android":"levelo://app?vid=46ac22a8-6f10-4221-98a6-34eba5c97bfb","ios":"levelo://app?vid=46ac22a8-6f10-4221-98a6-34eba5c97bfb"},"vehicle_type_id":"4","last_reported":1732468084,"current_range_meters":0,"station_id":"","pricing_plan_id":"cebpf4jnsgd1na2vs0mg"},{"bike_id":"5846e7ee-045c-466d-b02c-9cd3eadc9db6","system_id":"levelo_inurba_marseille","lat":43.29197,"lon":5.35811,"is_reserved":false,"is_disabled":true,"rental_uris":{"android":"levelo://app?vid=5846e7ee-045c-466d-b02c-9cd3eadc9db6","ios":"levelo://app?vid=5846e7ee-045c-466d-b02c-9cd3eadc9db6"},"vehicle_type_id":"4","last_reported":1732468084,"current_range_meters":39200,"station_id":"ce4bhb12rcd13ifvqel0","pricing_plan_id":"cebpf4jnsgd1na2vs0mg"},{"bike_id":"7a0c860b-0349-4a63-a021-6151708c3e9e","system_id":"levelo_inurba_marseille","lat":43.25506,"lon":5.37649,"is_reserved":false,"is_disabled":false,"rental_uris":{"android":"levelo://app?vid=7a0c860b-0349-4a63-a021-6151708c3e9e","ios":"levelo://app?vid=7a0c860b-0349-4a63-a021-6151708c3e9e"},"vehicle_type_id":"4","last_reported":1732468084,"current_range_meters":5600,"station_id":"ce4bhh12rcd13ifvqff0","pricing_plan_id":"cebpf4jnsgd1na2vs0mg"},{"bike_id":"1cd0c7b0-c92d-4132-8484-9cb3a6e14c97","system_id":"levelo_inurba_marseille","lat":43.2978,"lon":5.39337,"is_reserved":false,"is_disabled":false,"rental_uris":{"android":"levelo://app?vid=1cd0c7b0-c92d-4132-8484-9cb3a6e14c97","ios":"levelo://app?vid=1cd0c7b0-c92d-4132-8484-9cb3a6e14c97"},"vehicle_type_id":"4","last_reported":1732468084,"current_range_meters":37600,"station_id":"chh1huq6cuj3fo74tm60","pricing_plan_id":"cebpf4jnsgd1na2vs0mg"},{"bike_id":"43746d86-8a13-4845-9faf-ae69b548d714","system_id":"levelo_inurba_marseille","lat":43.29441,"lon":5.37929,"is_reserved":false,"is_disabled":true,"rental_uris":{"android":"levelo://app?vid=43746d86-8a13-4845-9faf-ae69b548d714","ios":"levelo://app?vid=43746d86-8a13-4845-9faf-ae69b548d714"},"vehicle_type_id":"4","last_reported":1732468084,"current_range_meters":0,"station_id":"","pricing_plan_id":"cebpf4jnsgd1na2vs0mg"},{"bike_id":"32bc60be-995d-4952-b349-25ea7c2c5013","system_id":"levelo_inurba_marseille","lat":43.23185,"lon":5.39985,"is_reserved":false,"is_disabled":false,"rental_uris":{"android":"levelo://app?vid=32bc60be-995d-4952-b349-25ea7c2c5013","ios":"levelo://app?vid=32bc60be-995d-4952-b349-25ea7c2c5013"},"vehicle_type_id":"4","last_reported":1732468084,"current_range_meters":34000,"station_id":"ce4bhn12rcd13ifvqgqg","pricing_plan_id":"cebpf4jnsgd1na2vs0mg"},{"bike_id":"7317920e-5975-4c67-a891-63736e89f140","system_id":"levelo_inurba_marseille","lat":43.29193,"lon":5.35831,"is_reserved":false,"is_disabled":false,"rental_uris":{"android":"levelo://app?vid=7317920e-5975-4c67-a891-63736e89f140","ios":"levelo://app?vid=7317920e-5975-4c67-a891-63736e89f140"},"vehicle_type_id":"4","last_reported":1732468084,"current_range_meters":27200,"station_id":"","pricing_plan_id":"cebpf4jnsgd1na2vs0mg"},{"bike_id":"d19f742b-a416-49ce-b1f8-7b447f699f8b","system_id":"levelo_inurba_marseille","lat":43.31336,"lon":5.39693,"is_reserved":false,"is_disabled":false,"rental_uris":{"android":"levelo://app?vid=d19f742b-a416-49ce-b1f8-7b447f699f8b","ios":"levelo://app?vid=d19f742b-a416-49ce-b1f8-7b447f699f8b"},"vehicle_type_id":"4","last_reported":1732468084,"current_range_meters":25600,"station_id":"ce4bgvp2rcd13ifvqcu0","pricing_plan_id":"cebpf4jnsgd1na2vs0mg"},{"bike_id":"a2b09865-004d-45eb-b301-cf3640220a72","system_id":"levelo_inurba_marseille","lat":43.29608,"lon":5.3811,"is_reserved":false,"is_disabled":true,"rental_uris":{"android":"levelo://app?vid=a2b09865-004d-45eb-b301-cf3640220a72","ios":"levelo://app?vid=a2b09865-004d-45eb-b301-cf3640220a72"},"vehicle_type_id":"4","last_reported":1732468084,"current_range_meters":0,"station_id":"ce4bgl12rcd13ifvqbo0","pricing_plan_id":"cebpf4jnsgd1na2vs0mg"},{"bike_id":"eebf2cb5-e9f9-4194-8963-cee36b329bff","system_id":"levelo_inurba_marseille","lat":43.27179,"lon":5.40998,"is_reserved":false,"is_disabled":false,"rental_uris":{"android":"levelo://app?vid=eebf2cb5-e9f9-4194-8963-cee36b329bff","ios":"levelo://app?vid=eebf2cb5-e9f9-4194-8963-cee36b329bff"},"vehicle_type_id":"4","last_reported":1732468084,"current_range_meters":9600,"station_id":"ce4bhl12rcd13ifvqgf0","pricing_plan_id":"cebpf4jnsgd1na2vs0mg"},{"bike_id":"f7f29097-34a0-4fd3-9ee7-8abdc6d41ad7","system_id":"levelo_inurba_marseille","lat":43.27201,"lon":5.39199,"is_reserved":false,"is_disabled":true,"rental_uris":{"android":"levelo://app?vid=f7f29097-34a0-4fd3-9ee7-8abdc6d41ad7","ios":"levelo://app?vid=f7f29097-34a0-4fd3-9ee7-8abdc6d41ad7"},"vehicle_type_id":"4","last_reported":1732468084,"current_range_meters":0,"station_id":"ce4bhhp2rcd13ifvqfm0","pricing_plan_id":"cebpf4jnsgd1na2vs0mg"},{"bike_id":"29500f93-37ca-49da-b957-04d5511b10ff","system_id":"levelo_inurba_marseille","lat":43.26552,"lon":5.37287,"is_reserved":false,"is_disabled":false,"rental_uris":{"android":"levelo://app?vid=29500f93-37ca-49da-b957-04d5511b10ff","ios":"levelo://app?vid=29500f93-37ca-49da-b957-04d5511b10ff"},"vehicle_type_id":"4","last_reported":1732468084,"current_range_meters":30800,"station_id":"ce4bhg12rcd13ifvqf70","pricing_plan_id":"cebpf4jnsgd1na2vs0mg"},{"bike_id":"3a18c13e-5a45-4d5d-b459-789819a031a5","system_id":"levelo_inurba_marseille","lat":43.284,"lon":5.37516,"is_reserved":false,"is_disabled":false,"rental_uris":{"android":"levelo://app?vid=3a18c13e-5a45-4d5d-b459-789819a031a5","ios":"levelo://app?vid=3a18c13e-5a45-4d5d-b459-789819a031a5"},"vehicle_type_id":"4","last_reported":1732468084,"current_range_meters":35600,"station_id":"ce4bh412rcd13ifvqds0","pricing_plan_id":"cebpf4jnsgd1na2vs0mg"},{"bike_id":"6d31f772-bcf0-47fe-8b98-fad5c1a27925","system_id":"levelo_inurba_marseille","lat":43.24071,"lon":5.37764,"is_reserved":false,"is_disabled":false,"rental_uris":{"android":"levelo://app?vid=6d31f772-bcf0-47fe-8b98-fad5c1a27925","ios":"levelo://app?vid=6d31f772-bcf0-47fe-8b98-fad5c1a27925"},"vehicle_type_id":"4","last_reported":1732468084,"current_range_meters":38800,"station_id":"ce4bhnp2rcd13ifvqgvg","pricing_plan_id":"cebpf4jnsgd1na2vs0mg"},{"bike_id":"0280a01a-6d00-4639-9251-0ee9ee63735a","system_id":"levelo_inurba_marseille","lat":43.2927,"lon":5.36838,"is_reserved":false,"is_disabled":true,"rental_uris":{"android":"levelo://app?vid=0280a01a-6d00-4639-9251-0ee9ee63735a","ios":"levelo://app?vid=0280a01a-6d00-4639-9251-0ee9ee63735a"},"vehicle_type_id":"4","last_reported":1732468084,"current_range_meters":30800,"station_id":"ce4bhbp2rcd13ifvqesg","pricing_plan_id":"cebpf4jnsgd1na2vs0mg"},{"bike_id":"40838fbd-175e-4307-947d-b85409f45c17","system_id":"levelo_inurba_marseille","lat":43.23194,"lon":5.35554,"is_reserved":false,"is_disabled":false,"rental_uris":{"android":"levelo://app?vid=40838fbd-175e-4307-947d-b85409f45c17","ios":"levelo://app?vid=40838fbd-175e-4307-947d-b85409f45c17"},"vehicle_type_id":"4","last_reported":1732468084,"current_range_meters":36000,"station_id":"ce4bhu92rcd13ifvqi70","pricing_plan_id":"cebpf4jnsgd1na2vs0mg"},{"bike_id":"7f723b0b-cbe8-4f68-b8fe-2ce3d5e983bd","system_id":"levelo_inurba_marseille","lat":43.32102,"lon":5.36777,"is_reserved":false,"is_disabled":true,"rental_uris":{"android":"levelo://app?vid=7f723b0b-cbe8-4f68-b8fe-2ce3d5e983bd","ios":"levelo://app?vid=7f723b0b-cbe8-4f68-b8fe-2ce3d5e983bd"},"vehicle_type_id":"4","last_reported":1732468084,"current_range_meters":28400,"station_id":"","pricing_plan_id":"cebpf4jnsgd1na2vs0mg"},{"bike_id":"5cf1daf8-313a-4788-995f-2dd7f3d0d54b","system_id":"levelo_inurba_marseille","lat":43.2956,"lon":5.37498,"is_reserved":false,"is_disabled":false,"rental_uris":{"android":"levelo://app?vid=5cf1daf8-313a-4788-995f-2dd7f3d0d54b","ios":"levelo://app?vid=5cf1daf8-313a-4788-995f-2dd7f3d0d54b"},"vehicle_type_id":"4","last_reported":1732468084,"current_range_meters":22000,"station_id":"ce4bgh92rcd13ifvqb50","pricing_plan_id":"cebpf4jnsgd1na2vs0mg"},{"bike_id":"7e9061cd-5627-407a-8c6f-fcf878e75a40","system_id":"levelo_inurba_marseille","lat":43.27953,"lon":5.41051,"is_reserved":false,"is_disabled":true,"rental_uris":{"android":"levelo://app?vid=7e9061cd-5627-407a-8c6f-fcf878e75a40","ios":"levelo://app?vid=7e9061cd-5627-407a-8c6f-fcf878e75a40"},"vehicle_type_id":"4","last_reported":1732468084,"current_range_meters":10000,"station_id":"ce4bhnp2rcd13ifvqh0g","pricing_plan_id":"cebpf4jnsgd1na2vs0mg"},{"bike_id":"0aa2ee5b-29e3-4db8-9ffd-eb5f7b56cdbc","system_id":"levelo_inurba_marseille","lat":43.27413,"lon":5.39412,"is_reserved":false,"is_disabled":true,"rental_uris":{"android":"levelo://app?vid=0aa2ee5b-29e3-4db8-9ffd-eb5f7b56cdbc","ios":"levelo://app?vid=0aa2ee5b-29e3-4db8-9ffd-eb5f7b56cdbc"},"vehicle_type_id":"4","last_reported":1732468084,"current_range_meters":28000,"station_id":"ce4bhdp2rcd13ifvqf20","pricing_plan_id":"cebpf4jnsgd1na2vs0mg"},{"bike_id":"08042814-a71e-45c8-8c12-a4b3a357cf3f","system_id":"levelo_inurba_marseille","lat":43.26787,"lon":5.39416,"is_reserved":false,"is_disabled":false,"rental_uris":{"android":"levelo://app?vid=08042814-a71e-45c8-8c12-a4b3a357cf3f","ios":"levelo://app?vid=08042814-a71e-45c8-8c12-a4b3a357cf3f"},"vehicle_type_id":"4","last_reported":1732468084,"current_range_meters":21600,"station_id":"ce4bhh12rcd13ifvqfg0","pricing_plan_id":"cebpf4jnsgd1na2vs0mg"},{"bike_id":"c68bd29b-c085-4763-968a-86f5065f1ad9","system_id":"levelo_inurba_marseille","lat":43.27671,"lon":5.38883,"is_reserved":false,"is_disabled":false,"rental_uris":{"android":"levelo://app?vid=c68bd29b-c085-4763-968a-86f5065f1ad9","ios":"levelo://app?vid=c68bd29b-c085-4763-968a-86f5065f1ad9"},"vehicle_type_id":"4","last_reported":1732468084,"current_range_meters":18800,"station_id":"ce4bhi12rcd13ifvqfo0","pricing_plan_id":"cebpf4jnsgd1na2vs0mg"},{"bike_id":"cea7b5a0-1083-4f02-9090-3e7d56a4f168","system_id":"levelo_inurba_marseille","lat":43.23187,"lon":5.39979,"is_reserved":false,"is_disabled":false,"rental_uris":{"android":"levelo://app?vid=cea7b5a0-1083-4f02-9090-3e7d56a4f168","ios":"levelo://app?vid=cea7b5a0-1083-4f02-9090-3e7d56a4f168"},"vehicle_type_id":"4","last_reported":1732468084,"current_range_meters":23200,"station_id":"ce4bhn12rcd13ifvqgqg","pricing_plan_id":"cebpf4jnsgd1na2vs0mg"},{"bike_id":"7d324c9d-10cc-4066-bbce-919dfe6be58d","system_id":"levelo_inurba_marseille","lat":43.25107,"lon":5.40324,"is_reserved":false,"is_disabled":false,"rental_uris":{"android":"levelo://app?vid=7d324c9d-10cc-4066-bbce-919dfe6be58d","ios":"levelo://app?vid=7d324c9d-10cc-4066-bbce-919dfe6be58d"},"vehicle_type_id":"4","last_reported":1732468084,"current_range_meters":31200,"station_id":"ce4bhlh2rcd13ifvqgig","pricing_plan_id":"cebpf4jnsgd1na2vs0mg"},{"bike_id":"416f6587-8a73-4f00-aadc-0bde27982579","system_id":"levelo_inurba_marseille","lat":43.28721,"lon":5.3609,"is_reserved":false,"is_disabled":false,"rental_uris":{"android":"levelo://app?vid=416f6587-8a73-4f00-aadc-0bde27982579","ios":"levelo://app?vid=416f6587-8a73-4f00-aadc-0bde27982579"},"vehicle_type_id":"4","last_reported":1732468084,"current_range_meters":8000,"station_id":"cki0cbj6b192h4jlfktg","pricing_plan_id":"cebpf4jnsgd1na2vs0mg"},{"bike_id":"7934f62a-ebe3-41d6-9f28-65d83dcdfa38","system_id":"levelo_inurba_marseille","lat":43.28721,"lon":5.37927,"is_reserved":false,"is_disabled":true,"rental_uris":{"android":"levelo://app?vid=7934f62a-ebe3-41d6-9f28-65d83dcdfa38","ios":"levelo://app?vid=7934f62a-ebe3-41d6-9f28-65d83dcdfa38"},"vehicle_type_id":"4","last_reported":1732468084,"current_range_meters":1200,"station_id":"ce4bh9p2rcd13ifvqec0","pricing_plan_id":"cebpf4jnsgd1na2vs0mg"},{"bike_id":"0d5f334b-7ea6-4270-a2a5-e4a69ff54076","system_id":"levelo_inurba_marseille","lat":43.26943,"lon":5.4025,"is_reserved":false,"is_disabled":false,"rental_uris":{"android":"levelo://app?vid=0d5f334b-7ea6-4270-a2a5-e4a69ff54076","ios":"levelo://app?vid=0d5f334b-7ea6-4270-a2a5-e4a69ff54076"},"vehicle_type_id":"4","last_reported":1732468084,"current_range_meters":30000,"station_id":"cjm6bp8fraef2m0cb0m0","pricing_plan_id":"cebpf4jnsgd1na2vs0mg"},{"bike_id":"8d4c53a9-af61-4ebe-92a9-eade5c193740","system_id":"levelo_inurba_marseille","lat":43.28571,"lon":5.39485,"is_reserved":false,"is_disabled":false,"rental_uris":{"android":"levelo://app?vid=8d4c53a9-af61-4ebe-92a9-eade5c193740","ios":"levelo://app?vid=8d4c53a9-af61-4ebe-92a9-eade5c193740"},"vehicle_type_id":"4","last_reported":1732468084,"current_range_meters":38800,"station_id":"ce4bh292rcd13ifvqdg0","pricing_plan_id":"cebpf4jnsgd1na2vs0mg"},{"bike_id":"0b5f7b4e-e065-44c9-9b8b-2118dda16eca","system_id":"levelo_inurba_marseille","lat":43.24814,"lon":5.37456,"is_reserved":false,"is_disabled":true,"rental_uris":{"android":"levelo://app?vid=0b5f7b4e-e065-44c9-9b8b-2118dda16eca","ios":"levelo://app?vid=0b5f7b4e-e065-44c9-9b8b-2118dda16eca"},"vehicle_type_id":"4","last_reported":1732468084,"current_range_meters":36000,"station_id":"ce4bhgh2rcd13ifvqfb0","pricing_plan_id":"cebpf4jnsgd1na2vs0mg"},