{"last_updated":1704146777,"ttl":30,"version":"2.2","data":{"bikes":[{"bike_id":"19681d20-0e94-4d95-bd6e-75843e212133","system_id":"levelo_inurba_marseille","lat":43.313391,"lon":5.36706,"is_reserved":false,"is_disabled":false,"rental_uris":{"android":"levelo://app?vid=19681d20-0e94-4d95-bd6e-75843e212133","ios":"levelo://app?vid=19681d20-0e94-4d95-bd6e-75843e212133"},"vehicle_type_id":"4","last_reported":1704146778,"current_range_meters":28000,"station_id":"ce4bgr92rcd13ifvqc6g","pricing_plan_id":"free"},{"bike_id":"7ddfca8b-8d90-4c0e-b4ee-8399ae205af5","system_id":"levelo_inurba_marseille","lat":43.313391,"lon":5.36706,"is_reserved":false,"is_disabled":false,"rental_uris":{"android":"levelo://app?vid=7ddfca8b-8d90-4c0e-b4ee-8399ae205af5","ios":"levelo://app?vid=7ddfca8b-8d90-4c0e-b4ee-8399ae205af5"},"vehicle_type_id":"4","last_reported":1704146778,"current_range_meters":30800,"station_id":"ce4bgr92rcd13ifvqc6g","pricing_plan_id":"free"},{"bike_id":"7abe165e-a561-46ad-b3ef-8c7ab69ffce6","system_id":"levelo_inurba_marseille","lat":43.313391,"lon":5.36706,"is_reserved":false,"is_disabled":false,"rental_uris":{"android":"levelo://app?vid=7abe165e-a561-46ad-b3ef-8c7ab69ffce6","ios":"levelo://app?vid=7abe165e-a561-46ad-b3ef-8c7ab69ffce6"},"vehicle_type_id":"4","last_reported":1704146778,"current_range_meters":22000,"station_id":"ce4bgr92rcd13ifvqc6g","pricing_plan_id":"free"},{"bike_id":"bb41a8bd-80d6-4681-8354-1f5e50a6d08c","system_id":"levelo_inurba_marseille","lat":43.312239,"lon":5.368562,"is_reserved":false,"is_disabled":false,"rental_uris":{"android":"levelo://app?vid=bb41a8bd-80d6-4681-8354-1f5e50a6d08c","ios":"levelo://app?vid=bb41a8bd-80d6-4681-8354-1f5e50a6d08c"},"vehicle_type_id":"4","last_reported":1704146778,"current_range_meters":24400,"station_id":"ce4bgl92rcd13ifvqbq0","pricing_plan_id":"free"},{"bike_id":"1e91ba6c-8283-47ea-b797-a2e7408bd0aa","system_id":"levelo_inurba_marseille","lat":43.309076,"lon":5.368465,"is_reserved":false,"is_disabled":false,"rental_uris":{"android":"levelo://app?vid=1e91ba6c-8283-47ea-b797-a2e7408bd0aa","ios":"levelo://app?vid=1e91ba6c-8283-47ea-b797-a2e7408bd0aa"},"vehicle_type_id":"4","last_reported":1704146778,"current_range_meters":28000,"station_id":"ce4bgn92rcd13ifvqbvg","pricing_plan_id":"free"},{"bike_id":"6c71bfbd-cf4d-4371-a84b-0240a33ffb82","system_id":"levelo_inurba_marseille","lat":43.309076,"lon":5.368465,"is_reserved":false,"is_disabled":false,"rental_uris":{"android":"levelo://app?vid=6c71bfbd-cf4d-4371-a84b-0240a33ffb82","ios":"levelo://app?vid=6c71bfbd-cf4d-4371-a84b-0240a33ffb82"},"vehicle_type_id":"4","last_reported":1704146778,"current_range_meters":13200,"station_id":"ce4bgn92rcd13ifvqbvg","pricing_plan_id":"free"},{"bike_id":"2fff1412-b89b-444b-830e-be3b6143ec0f","system_id":"levelo_inurba_marseille","lat":43.314811,"lon":5.373103,"is_reserved":false,"is_disabled":false,"rental_uris":{"android":"levelo://app?vid=2fff1412-b89b-444b-830e-be3b6143ec0f","ios":"levelo://app?vid=2fff1412-b89b-444b-830e-be3b6143ec0f"},"vehicle_type_id":"4","last_reported":1704146778,"current_range_meters":10400,"station_id":"ce4bgt12rcd13ifvqcd0","pricing_plan_id":"free"},{"bike_id":"6ae0a7d8-a3f5-4b5e-9c31-1b0d0a660a33","system_id":"levelo_inurba_marseille","lat":43.314811,"lon":5.373103,"is_reserved":false,"is_disabled":false,"rental_uris":{"android":"levelo://app?vid=6ae0a7d8-a3f5-4b5e-9c31-1b0d0a660a33","ios":"levelo://app?vid=6ae0a7d8-a3f5-4b5e-9c31-1b0d0a660a33"},"vehicle_type_id":"4","last_reported":1704146778,"current_range_meters":6400,"station_id":"ce4bgt12rcd13ifvqcd0","pricing_plan_id":"free"},{"bike_id":"1ca9373c-bbff-4b68-be9c-ccfd36d08db3","system_id":"levelo_inurba_marseille","lat":43.314811,"lon":5.373103,"is_reserved":false,"is_disabled":false,"rental_uris":{"android":"levelo://app?vid=1ca9373c-bbff-4b68-be9c-ccfd36d08db3","ios":"levelo://app?vid=1ca9373c-bbff-4b68-be9c-ccfd36d08db3"},"vehicle_type_id":"4","last_reported":1704146778,"current_range_meters":18800,"station_id":"ce4bgt12rcd13ifvqcd0","pricing_plan_id":"free"},{"bike_id":"b0c6c81b-c874-4fcc-a8f6-46c71fd040bf","system_id":"levelo_inurba_marseille","lat":43.314811,"lon":5.373103,"is_reserved":false,"is_disabled":false,"rental_uris":{"android":"levelo://app?vid=b0c6c81b-c874-4fcc-a8f6-46c71fd040bf","ios":"levelo://app?vid=b0c6c81b-c874-4fcc-a8f6-46c71fd040bf"},"vehicle_type_id":"4","last_reported":1704146778,"current_range_meters":12400,"station_id":"ce4bgt12rcd13ifvqcd0","pricing_plan_id":"free"},{"bike_id":"81785462-05dc-4c13-900e-6273fc28e12b","system_id":"levelo_inurba_marseille","lat":43.314811,"lon":5.373103,"is_reserved":false,"is_disabled":false,"rental_uris":{"android":"levelo://app?vid=81785462-05dc-4c13-900e-6273fc28e12b","ios":"levelo://app?vid=81785462-05dc-4c13-900e-6273fc28e12b"},"vehicle_type_id":"4","last_reported":1704146778,"current_range_meters":26400,"station_id":"ce4bgt12rcd13ifvqcd0","pricing_plan_id":"free"},{"bike_id":"169fc797-5a0f-44a1-9c51-501bf889c536","system_id":"levelo_inurba_marseille","lat":43.314811,"lon":5.373103,"is_reserved":false,"is_disabled":false,"rental_uris":{"android":"levelo://app?vid=169fc797-5a0f-44a1-9c51-501bf889c536","ios":"levelo://app?vid=169fc797-5a0f-44a1-9c51-501bf889c536"},"vehicle_type_id":"4","last_reported":1704146778,"current_range_meters":17600,"station_id":"ce4bgt12rcd13ifvqcd0","pricing_plan_id":"free"},{"bike_id":"5afd4a14-f3ac-4ebd-bccf-20fee1a60568","system_id":"levelo_inurba_marseille","lat":43.314811,"lon":5.373104,"is_reserved":false,"is_disabled":false,"rental_uris":{"android":"levelo://app?vid=5afd4a14-f3ac-4ebd-bccf-20fee1a60568","ios":"levelo://app?vid=5afd4a14-f3ac-4ebd-bccf-20fee1a60568"},"vehicle_type_id":"4","last_reported":1704146778,"current_range_meters":15600,"station_id":"ce4bgt12rcd13ifvqcd0","pricing_plan_id":"free"},{"bike_id":"8f4a10bf-fdcf-471b-aa21-66a411b5fcd2","system_id":"levelo_inurba_marseille","lat":43.309,"lon":5.371937,"is_reserved":false,"is_disabled":false,"rental_uris":{"android":"levelo://app?vid=8f4a10bf-fdcf-471b-aa21-66a411b5fcd2","ios":"levelo://app?vid=8f4a10bf-fdcf-471b-aa21-66a411b5fcd2"},"vehicle_type_id":"4","last_reported":1704146778,"current_range_meters":21600,"station_id":"ce4bguh2rcd13ifvqckg","pricing_plan_id":"free"},{"bike_id":"e06a1df2-05d7-4bce-9885-790b045888d7","system_id":"levelo_inurba_marseille","lat":43.308916,"lon":5.371934,"is_reserved":false,"is_disabled":false,"rental_uris":{"android":"levelo://app?vid=e06a1df2-05d7-4bce-9885-790b045888d7","ios":"levelo://app?vid=e06a1df2-05d7-4bce-9885-790b045888d7"},"vehicle_type_id":"4","last_reported":1704146778,"current_range_meters":21200,"station_id":"ce4bguh2rcd13ifvqckg","pricing_plan_id":"free"},{"bike_id":"6cc10ba3-514e-4b87-b859-081a0f2df958","system_id":"levelo_inurba_marseille","lat":43.305706,"lon":5.365654,"is_reserved":false,"is_disabled":false,"rental_uris":{"android":"levelo://app?vid=6cc10ba3-514e-4b87-b859-081a0f2df958","ios":"levelo://app?vid=6cc10ba3-514e-4b87-b859-081a0f2df958"},"vehicle_type_id":"4","last_reported":1704146778,"current_range_meters":22000,"station_id":"ce4bgs12rcd13ifvqcag","pricing_plan_id":"free"},{"bike_id":"9f0884d6-7ce4-49ec-a62f-828eeba0ef14","system_id":"levelo_inurba_marseille","lat":43.311131,"lon":5.377651,"is_reserved":false,"is_disabled":false,"rental_uris":{"android":"levelo://app?vid=9f0884d6-7ce4-49ec-a62f-828eeba0ef14","ios":"levelo://app?vid=9f0884d6-7ce4-49ec-a62f-828eeba0ef14"},"vehicle_type_id":"4","last_reported":1704146778,"current_range_meters":1600,"station_id":"ce4bgt92rcd13ifvqcg0","pricing_plan_id":"free"},{"bike_id":"25af9e1c-886c-4f64-92f2-5ca68e46ae4a","system_id":"levelo_inurba_marseille","lat":43.31722,"lon":5.37668,"is_reserved":false,"is_disabled":false,"rental_uris":{"android":"levelo://app?vid=25af9e1c-886c-4f64-92f2-5ca68e46ae4a","ios":"levelo://app?vid=25af9e1c-886c-4f64-92f2-5ca68e46ae4a"},"vehicle_type_id":"4","last_reported":1704146778,"current_range_meters":16800,"station_id":"","pricing_plan_id":"free"},{"bike_id":"392bccd8-803a-4298-9ab2-b84b704050ba","system_id":"levelo_inurba_marseille","lat":43.307945,"lon":5.376487,"is_reserved":false,"is_disabled":false,"rental_uris":{"android":"levelo://app?vid=392bccd8-803a-4298-9ab2-b84b704050ba","ios":"levelo://app?vid=392bccd8-803a-4298-9ab2-b84b704050ba"},"vehicle_type_id":"4","last_reported":1704146778,"current_range_meters":26400,"station_id":"ce4bgv92rcd13ifvqcq0","pricing_plan_id":"free"},{"bike_id":"549fe20c-b05d-4169-8923-3f8e2d41ff01","system_id":"levelo_inurba_marseille","lat":43.307945,"lon":5.376487,"is_reserved":false,"is_disabled":false,"rental_uris":{"android":"levelo://app?vid=549fe20c-b05d-4169-8923-3f8e2d41ff01","ios":"levelo://app?vid=549fe20c-b05d-4169-8923-3f8e2d41ff01"},"vehicle_type_id":"4","last_reported":1704146778,"current_range_meters":7600,"station_id":"ce4bgv92rcd13ifvqcq0","pricing_plan_id":"free"},{"bike_id":"6de46549-0261-4f99-addc-5c2cd660dbb0","system_id":"levelo_inurba_marseille","lat":43.31648,"lon":5.37786,"is_reserved":false,"is_disabled":false,"rental_uris":{"android":"levelo://app?vid=6de46549-0261-4f99-addc-5c2cd660dbb0","ios":"levelo://app?vid=6de46549-0261-4f99-addc-5c2cd660dbb0"},"vehicle_type_id":"4","last_reported":1704146778,"current_range_meters":17600,"station_id":"","pricing_plan_id":"free"},{"bike_id":"60004f26-cd8f-48e5-90c1-64ce9239acb7","system_id":"levelo_inurba_marseille","lat":43.317075,"lon":5.377367,"is_reserved":false,"is_disabled":false,"rental_uris":{"android":"levelo://app?vid=60004f26-cd8f-48e5-90c1-64ce9239acb7","ios":"levelo://app?vid=60004f26-cd8f-48e5-90c1-64ce9239acb7"},"vehicle_type_id":"4","last_reported":1704146778,"current_range_meters":12800,"station_id":"ce4bgth2rcd13ifvqch0","pricing_plan_id":"free"},{"bike_id":"3fcef669-4274-4a5b-9ad4-f2d8162b741c","system_id":"levelo_inurba_marseille","lat":43.303046,"lon":5.368981,"is_reserved":false,"is_disabled":false,"rental_uris":{"android":"levelo://app?vid=3fcef669-4274-4a5b-9ad4-f2d8162b741c","ios":"levelo://app?vid=3fcef669-4274-4a5b-9ad4-f2d8162b741c"},"vehicle_type_id":"4","last_reported":1704146778,"current_range_meters":28400,"station_id":"ce4bgqh2rcd13ifvqc5g","pricing_plan_id":"free"},{"bike_id":"271c97a6-6fc2-4bcc-94ba-ac4a3fc23ca7","system_id":"levelo_inurba_marseille","lat":43.30304,"lon":5.368987,"is_reserved":false,"is_disabled":false,"rental_uris":{"android":"levelo://app?vid=271c97a6-6fc2-4bcc-94ba-ac4a3fc23ca7","ios":"levelo://app?vid=271c97a6-6fc2-4bcc-94ba-ac4a3fc23ca7"},"vehicle_type_id":"4","last_reported":1704146778,"current_range_meters":31200,"station_id":"ce4bgqh2rcd13ifvqc5g","pricing_plan_id":"free"},{"bike_id":"0fd8d3d2-81cb-4827-b64f-fbf078d36928","system_id":"levelo_inurba_marseille","lat":43.303046,"lon":5.368981,"is_reserved":false,"is_disabled":false,"rental_uris":{"android":"levelo://app?vid=0fd8d3d2-81cb-4827-b64f-fbf078d36928","ios":"levelo://app?vid=0fd8d3d2-81cb-4827-b64f-fbf078d36928"},"vehicle_type_id":"4","last_reported":1704146778,"current_range_meters":31200,"station_id":"ce4bgqh2rcd13ifvqc5g","pricing_plan_id":"free"},{"bike_id":"16503b00-600c-42e4-acb0-40cca7f9eb4f","system_id":"levelo_inurba_marseille","lat":43.301925,"lon":5.36608,"is_reserved":false,"is_disabled":false,"rental_uris":{"android":"levelo://app?vid=16503b00-600c-42e4-acb0-40cca7f9eb4f","ios":"levelo://app?vid=16503b00-600c-42e4-acb0-40cca7f9eb4f"},"vehicle_type_id":"4","last_reported":1704146778,"current_range_meters":30000,"station_id":"ce4bgrh2rcd13ifvqc8g","pricing_plan_id":"free"},{"bike_id":"4c484ebb-d275-49ce-b2ee-3c07fd9510cb","system_id":"levelo_inurba_marseille","lat":43.308012,"lon":5.381511,"is_reserved":false,"is_disabled":false,"rental_uris":{"android":"levelo://app?vid=4c484ebb-d275-49ce-b2ee-3c07fd9510cb","ios":"levelo://app?vid=4c484ebb-d275-49ce-b2ee-3c07fd9510cb"},"vehicle_type_id":"4","last_reported":1704146778,"current_range_meters":29200,"station_id":"ce4bgt12rcd13ifvqce0","pricing_plan_id":"free"},{"bike_id":"b1a17632-314f-4cae-a55c-bd9eac09ada5","system_id":"levelo_inurba_marseille","lat":43.308012,"lon":5.381511,"is_reserved":false,"is_disabled":false,"rental_uris":{"android":"levelo://app?vid=b1a17632-314f-4cae-a55c-bd9eac09ada5","ios":"levelo://app?vid=b1a17632-314f-4cae-a55c-bd9eac09ada5"},"vehicle_type_id":"4","last_reported":1704146778,"current_range_meters":27600,"station_id":"ce4bgt12rcd13ifvqce0","pricing_plan_id":"free"},{"bike_id":"5377074b-30e2-4d67-825b-9deb3b1dbed3","system_id":"levelo_inurba_marseille","lat":43.304708,"lon":5.379039,"is_reserved":false,"is_disabled":false,"rental_uris":{"android":"levelo://app?vid=5377074b-30e2-4d67-825b-9deb3b1dbed3","ios":"levelo://app?vid=5377074b-30e2-4d67-825b-9deb3b1dbed3"},"vehicle_type_id":"4","last_reported":1704146778,"current_range_meters":13200,"station_id":"","pricing_plan_id":"free"},{"bike_id":"7a3d4060-b227-494e-b65e-0cb8d647c2c5","system_id":"levelo_inurba_marseille","lat":43.304606,"lon":5.379026,"is_reserved":false,"is_disabled":false,"rental_uris":{"android":"levelo://app?vid=7a3d4060-b227-494e-b65e-0cb8d647c2c5","ios":"levelo://app?vid=7a3d4060-b227-494e-b65e-0cb8d647c2c5"},"vehicle_type_id":"4","last_reported":1704146778,"current_range_meters":17600,"station_id":"ce4bgup2rcd13ifvqcn0","pricing_plan_id":"free"},{"bike_id":"4c4910a8-b87e-4c13-b856-37ef8615c163","system_id":"levelo_inurba_marseille","lat":43.324771,"lon":5.36557,"is_reserved":false,"is_disabled":false,"rental_uris":{"android":"levelo://app?vid=4c4910a8-b87e-4c13-b856-37ef8615c163","ios":"levelo://app?vid=4c4910a8-b87e-4c13-b856-37ef8615c163"},"vehicle_type_id":"4","last_reported":1704146778,"current_range_meters":22000,"station_id":"ce4bhs12rcd13ifvqhvg","pricing_plan_id":"free"},{"bike_id":"12cc3e03-e48b-4f30-bfc9-f1b37a6da005","system_id":"levelo_inurba_marseille","lat":43.302736,"lon":5.376958,"is_reserved":false,"is_disabled":false,"rental_uris":{"android":"levelo://app?vid=12cc3e03-e48b-4f30-bfc9-f1b37a6da005","ios":"levelo://app?vid=12cc3e03-e48b-4f30-bfc9-f1b37a6da005"},"vehicle_type_id":"4","last_reported":1704146778,"current_range_meters":29600,"station_id":"ce4bguh2rcd13ifvqcj0","pricing_plan_id":"free"},{"bike_id":"5604aa1e-5401-44b6-ac58-78dd04d86f19","system_id":"levelo_inurba_marseille","lat":43.30272,"lon":5.37703,"is_reserved":false,"is_disabled":false,"rental_uris":{"android":"levelo://app?vid=5604aa1e-5401-44b6-ac58-78dd04d86f19","ios":"levelo://app?vid=5604aa1e-5401-44b6-ac58-78dd04d86f19"},"vehicle_type_id":"4","last_reported":1704146778,"current_range_meters":24400,"station_id":"","pricing_plan_id":"free"},{"bike_id":"46b4e2d4-d9c8-4dbb-bdcc-3d72eb57989a","system_id":"levelo_inurba_marseille","lat":43.320427,"lon":5.38081,"is_reserved":false,"is_disabled":false,"rental_uris":{"android":"levelo://app?vid=46b4e2d4-d9c8-4dbb-bdcc-3d72eb57989a","ios":"levelo://app?vid=46b4e2d4-d9c8-4dbb-bdcc-3d72eb57989a"},"vehicle_type_id":"4","last_reported":1704146778,"current_range_meters":2400,"station_id":"","pricing_plan_id":"free"},{"bike_id":"2a6c552b-c8f3-404a-aceb-36f8473ac999","system_id":"levelo_inurba_marseille","lat":43.28573,"lon":5.394992,"is_reserved":false,"is_disabled":false,"rental_uris":{"android":"levelo://app?vid=2a6c552b-c8f3-404a-aceb-36f8473ac999","ios":"levelo://app?vid=2a6c552b-c8f3-404a-aceb-36f8473ac999"},"vehicle_type_id":"4","last_reported":1704146778,"current_range_meters":31200,"station_id":"ce4bh292rcd13ifvqdg0","pricing_plan_id":"free"},{"bike_id":"0dac0acd-fc78-43f2-bef0-dca9a9876768","system_id":"levelo_inurba_marseille","lat":43.319935,"lon":5.381699,"is_reserved":false,"is_disabled":false,"rental_uris":{"android":"levelo://app?vid=0dac0acd-fc78-43f2-bef0-dca9a9876768","ios":"levelo://app?vid=0dac0acd-fc78-43f2-bef0-dca9a9876768"},"vehicle_type_id":"4","last_reported":1704146778,"current_range_meters":5200,"station_id":"ce4bhr12rcd13ifvqhpg","pricing_plan_id":"free"},{"bike_id":"1838a44d-5d52-4d42-b670-74a4a644f80c","system_id":"levelo_inurba_marseille","lat":43.31371,"lon":5.38489,"is_reserved":false,"is_disabled":false,"rental_uris":{"android":"levelo://app?vid=1838a44d-5d52-4d42-b670-74a4a644f80c","ios":"levelo://app?vid=1838a44d-5d52-4d42-b670-74a4a644f80c"},"vehicle_type_id":"4","last_reported":1704146778,"current_range_meters":21600,"station_id":"ce4bgt92rcd13ifvqcf0","pricing_plan_id":"free"},{"bike_id":"218bb372-c46d-4ba4-aa93-a5df393ce036","system_id":"levelo_inurba_marseille","lat":43.299222,"lon":5.365554,"is_reserved":false,"is_disabled":false,"rental_uris":{"android":"levelo://app?vid=218bb372-c46d-4ba4-aa93-a5df393ce036","ios":"levelo://app?vid=218bb372-c46d-4ba4-aa93-a5df393ce036"},"vehicle_type_id":"4","last_reported":1704146778,"current_range_meters":15200,"station_id":"ce4bgm92rcd13ifvqbr0","pricing_plan_id":"free"},{"bike_id":"438b7bc4-ad73-45da-9619-941b10e6d65c","system_id":"levelo_inurba_marseille","lat":43.305364,"lon":5.384119,"is_reserved":false,"is_disabled":false,"rental_uris":{"android":"levelo://app?vid=438b7bc4-ad73-45da-9619-941b10e6d65c","ios":"levelo://app?vid=438b7bc4-ad73-45da-9619-941b10e6d65c"},"vehicle_type_id":"4","last_reported":1704146778,"current_range_meters":21200,"station_id":"ce4bgg92rcd13ifvqb30","pricing_plan_id":"free"},{"bike_id":"85bc8700-65ec-43b6-98bd-634973d1497a","system_id":"levelo_inurba_marseille","lat":43.305364,"lon":5.384119,"is_reserved":false,"is_disabled":false,"rental_uris":{"android":"levelo://app?vid=85bc8700-65ec-43b6-98bd-634973d1497a","ios":"levelo://app?vid=85bc8700-65ec-43b6-98bd-634973d1497a"},"vehicle_type_id":"4","last_reported":1704146778,"current_range_meters":7600,"station_id":"ce4bgg92rcd13ifvqb30","pricing_plan_id":"free"},{"bike_id":"9bb991dc-47c9-4c90-a408-f62357be0f42","system_id":"levelo_inurba_marseille","lat":43.305364,"lon":5.384119,"is_reserved":false,"is_disabled":false,"rental_uris":{"android":"levelo://app?vid=9bb991dc-47c9-4c90-a408-f62357be0f42","ios":"levelo://app?vid=9bb991dc-47c9-4c90-a408-f62357be0f42"},"vehicle_type_id":"4","last_reported":1704146778,"current_range_meters":15200,"station_id":"ce4bgg92rcd13ifvqb30","pricing_plan_id":"free"},{"bike_id":"cc6264d7-a583-4b19-80de-52814ea9a65b","system_id":"levelo_inurba_marseille","lat":43.298433,"lon":5.362774,"is_reserved":false,"is_disabled":false,"rental_uris":{"android":"levelo://app?vid=cc6264d7-a583-4b19-80de-52814ea9a65b","ios":"levelo://app?vid=cc6264d7-a583-4b19-80de-52814ea9a65b"},"vehicle_type_id":"4","last_reported":1704146778,"current_range_meters":26800,"station_id":"ce4bgpp2rcd13ifvqc3g","pricing_plan_id":"free"},{"bike_id":"d87be16b-7b3c-476f-a204-5e153e806fd1","system_id":"levelo_inurba_marseille","lat":43.311643,"lon":5.387102,"is_reserved":false,"is_disabled":false,"rental_uris":{"android":"levelo://app?vid=d87be16b-7b3c-476f-a204-5e153e806fd1","ios":"levelo://app?vid=d87be16b-7b3c-476f-a204-5e153e806fd1"},"vehicle_type_id":"4","last_reported":1704146778,"current_range_meters":29200,"station_id":"ce4bgv12rcd13ifvqcp0","pricing_plan_id":"free"},{"bike_id":"3406ac08-144e-419c-8a8c-9c89910b5b78","system_id":"levelo_inurba_marseille","lat":43.32777,"lon":5.366872,"is_reserved":false,"is_disabled":false,"rental_uris":{"android":"levelo://app?vid=3406ac08-144e-419c-8a8c-9c89910b5b78","ios":"levelo://app?vid=3406ac08-144e-419c-8a8c-9c89910b5b78"},"vehicle_type_id":"4","last_reported":1704146778,"current_range_meters":23600,"station_id":"","pricing_plan_id":"free"},{"bike_id":"ea7074d7-b7c9-4941-82c2-dff391bae9cb","system_id":"levelo_inurba_marseille","lat":43.32803,"lon":5.36688,"is_reserved":false,"is_disabled":false,"rental_uris":{"android":"levelo://app?vid=ea7074d7-b7c9-4941-82c2-dff391bae9cb","ios":"levelo://app?vid=ea7074d7-b7c9-4941-82c2-dff391bae9cb"},"vehicle_type_id":"4","last_reported":1704146778,"current_range_meters":21600,"station_id":"ce4bhs92rcd13ifvqi0g","pricing_plan_id":"free"},{"bike_id":"3c9bf24c-b538-4eae-99f5-9903fe75c815","system_id":"levelo_inurba_marseille","lat":43.32294,"lon":5.38261,"is_reserved":false,"is_disabled":false,"rental_uris":{"android":"levelo://app?vid=3c9bf24c-b538-4eae-99f5-9903fe75c815","ios":"levelo://app?vid=3c9bf24c-b538-4eae-99f5-9903fe75c815"},"vehicle_type_id":"4","last_reported":1704146778,"current_range_meters":6000,"station_id":"ce4bhr12rcd13ifvqhqg","pricing_plan_id":"free"},{"bike_id":"881fe0ac-4a87-4653-9c80-a83989c2ce03","system_id":"levelo_inurba_marseille","lat":43.297558,"lon":5.364115,"is_reserved":false,"is_disabled":false,"rental_uris":{"android":"levelo://app?vid=881fe0ac-4a87-4653-9c80-a83989c2ce03","ios":"levelo://app?vid=881fe0ac-4a87-4653-9c80-a83989c2ce03"},"vehicle_type_id":"4","last_reported":1704146778,"current_range_meters":28000,"station_id":"ce4bgpp2rcd13ifvqc3g","pricing_plan_id":"free"},{"bike_id":"777e7b6f-5840-4b9c-afcf-288933a9c0d9","system_id":"levelo_inurba_marseille","lat":43.328371,"lon":5.366909,"is_reserved":false,"is_disabled":false,"rental_uris":{"android":"levelo://app?vid=777e7b6f-5840-4b9c-afcf-288933a9c0d9","ios":"levelo://app?vid=777e7b6f-5840-4b9c-afcf-288933a9c0d9"},"vehicle_type_id":"4","last_reported":1704146778,"current_range_meters":22800,"station_id":"ce4bhs92rcd13ifvqi0g","pricing_plan_id":"free"},{"bike_id":"1b2d1de0-55de-4a36-95aa-2ebcd4db77b3","system_id":"levelo_inurba_marseille","lat":43.297163,"lon":5.365866,"is_reserved":false,"is_disabled":false,"rental_uris":{"android":"levelo://app?vid=1b2d1de0-55de-4a36-95aa-2ebcd4db77b3","ios":"levelo://app?vid=1b2d1de0-55de-4a36-95aa-2ebcd4db77b3"},"vehicle_type_id":"4","last_reported":1704146778,"current_range_meters":28800,"station_id":"ce4bgn12rcd13ifvqbt0","pricing_plan_id":"free"},{"bike_id":"370cccf7-c9ba-46c2-819b-c8e8cacc4c21","system_id":"levelo_inurba_marseille","lat":43.3277,"lon":5.37458,"is_reserved":false,"is_disabled":false,"rental_uris":{"android":"levelo://app?vid=370cccf7-c9ba-46c2-819b-c8e8cacc4c21","ios":"levelo://app?vid=370cccf7-c9ba-46c2-819b-c8e8cacc4c21"},"vehicle_type_id":"4","last_reported":1704146778,"current_range_meters":11200,"station_id":"","pricing_plan_id":"free"},{"bike_id":"b8c2e6b2-afdf-484e-9fc4-357b6e171958","system_id":"levelo_inurba_marseille","lat":43.29642,"lon":5.36775,"is_reserved":false,"is_disabled":false,"rental_uris":{"android":"levelo://app?vid=b8c2e6b2-afdf-484e-9fc4-357b6e171958","ios":"levelo://app?vid=b8c2e6b2-afdf-484e-9fc4-357b6e171958"},"vehicle_type_id":"4","last_reported":1704146778,"current_range_meters":14400,"station_id":"","pricing_plan_id":"free"},{"bike_id":"76c38e5c-6eb0-4862-a294-1007b4937961","system_id":"levelo_inurba_marseille","lat":43.296129,"lon":5.370777,"is_reserved":false,"is_disabled":false,"rental_uris":{"android":"levelo://app?vid=76c38e5c-6eb0-4862-a294-1007b4937961","ios":"levelo://app?vid=76c38e5c-6eb0-4862-a294-1007b4937961"},"vehicle_type_id":"4","last_reported":1704146778,"current_range_meters":31200,"station_id":"ce4bgnh2rcd13ifvqc0g","pricing_plan_id":"free"},{"bike_id":"8562c70f-5fb8-4caa-bb62-c506e55d61cf","system_id":"levelo_inurba_marseille","lat":43.29573,"lon":5.367355,"is_reserved":false,"is_disabled":false,"rental_uris":{"android":"levelo://app?vid=8562c70f-5fb8-4caa-bb62-c506e55d61cf","ios":"levelo://app?vid=8562c70f-5fb8-4caa-bb62-c506e55d61cf"},"vehicle_type_id":"4","last_reported":1704146778,"current_range_meters":15200,"station_id":"ce4bgph2rcd13ifvqc2g","pricing_plan_id":"free"},{"bike_id":"f932e9db-9fa0-42f1-beb5-fcbf5bd6003f","system_id":"levelo_inurba_marseille","lat":43.29619,"lon":5.37164,"is_reserved":false,"is_disabled":false,"rental_uris":{"android":"levelo://app?vid=f932e9db-9fa0-42f1-beb5-fcbf5bd6003f","ios":"levelo://app?vid=f932e9db-9fa0-42f1-beb5-fcbf5bd6003f"},"vehicle_type_id":"4","last_reported":1704146778,"current_range_meters":0,"station_id":"ce4bgnh2rcd13ifvqc0g","pricing_plan_id":"free"},{"bike_id":"8dbf3277-f84b-4485-b683-d51727b6f331","system_id":"levelo_inurba_marseille","lat":43.29573,"lon":5.367355,"is_reserved":false,"is_disabled":false,"rental_uris":{"android":"levelo://app?vid=8dbf3277-f84b-4485-b683-d51727b6f331","ios":"levelo://app?vid=8dbf3277-f84b-4485-b683-d51727b6f331"},"vehicle_type_id":"4","last_reported":1704146778,"current_range_meters":20000,"station_id":"ce4bgph2rcd13ifvqc2g","pricing_plan_id":"free"},{"bike_id":"272aa343-0b25-4ccb-858d-7226e9e31c85","system_id":"levelo_inurba_marseille","lat":43.309589,"lon":5.390258,"is_reserved":false,"is_disabled":false,"rental_uris":{"android":"levelo://app?vid=272aa343-0b25-4ccb-858d-7226e9e31c85","ios":"levelo://app?vid=272aa343-0b25-4ccb-858d-7226e9e31c85"},"vehicle_type_id":"4","last_reported":1704146778,"current_range_meters":27200,"station_id":"ce4bgup2rcd13ifvqco0","pricing_plan_id":"free"},{"bike_id":"0ff7e19c-7e28-4102-baf3-4193d26c5e27","system_id":"levelo_inurba_marseille","lat":43.317557,"lon":5.390173,"is_reserved":false,"is_disabled":false,"rental_uris":{"android":"levelo://app?vid=0ff7e19c-7e28-4102-baf3-4193d26c5e27","ios":"levelo://app?vid=0ff7e19c-7e28-4102-baf3-4193d26c5e27"},"vehicle_type_id":"4","last_reported":1704146778,"current_range_meters":25600,"station_id":"ce4bhqp2rcd13ifvqhng","pricing_plan_id":"free"},{"bike_id":"0ae9ac61-a252-4b87-b470-9053a11c8b26","system_id":"levelo_inurba_marseille","lat":43.304274,"lon":5.388873,"is_reserved":false,"is_disabled":false,"rental_uris":{"android":"levelo://app?vid=0ae9ac61-a252-4b87-b470-9053a11c8b26","ios":"levelo://app?vid=0ae9ac61-a252-4b87-b470-9053a11c8b26"},"vehicle_type_id":"4","last_reported":1704146778,"current_range_meters":30000,"station_id":"ce4bgk12rcd13ifvqbi0","pricing_plan_id":"free"},{"bike_id":"d60802d6-4f47-444a-b234-883690eec05b","system_id":"levelo_inurba_marseille","lat":43.33062,"lon":5.3627,"is_reserved":false,"is_disabled":false,"rental_uris":{"android":"levelo://app?vid=d60802d6-4f47-444a-b234-883690eec05b","ios":"levelo://app?vid=d60802d6-4f47-444a-b234-883690eec05b"},"vehicle_type_id":"4","last_reported":1704146778,"current_range_meters":18000,"station_id":"","pricing_plan_id":"free"},{"bike_id":"dec66e86-45b4-4aa2-9be3-152564f997b6","system_id":"levelo_inurba_marseille","lat":43.290631,"lon":5.359244,"is_reserved":false,"is_disabled":false,"rental_uris":{"android":"levelo://app?vid=dec66e86-45b4-4aa2-9be3-152564f997b6","ios":"levelo://app?vid=dec66e86-45b4-4aa2-9be3-152564f997b6"},"vehicle_type_id":"4","last_reported":1704146778,"current_range_meters":20400,"station_id":"ce4bha92rcd13ifvqeg0","pricing_plan_id":"free"},{"bike_id":"7119845d-00aa-4d9f-be8c-fc97d41f1380","system_id":"levelo_inurba_marseille","lat":43.297594,"lon":5.381134,"is_reserved":false,"is_disabled":false,"rental_uris":{"android":"levelo://app?vid=7119845d-00aa-4d9f-be8c-fc97d41f1380","ios":"levelo://app?vid=7119845d-00aa-4d9f-be8c-fc97d41f1380"},"vehicle_type_id":"4","last_reported":1704146778,"current_range_meters":6400,"station_id":"ce4bgip2rcd13ifvqbb0","pricing_plan_id":"free"},{"bike_id":"4abbe3ba-7baa-4a03-9271-a0a39382f490","system_id":"levelo_inurba_marseille","lat":43.299724,"lon":5.384848,"is_reserved":false,"is_disabled":false,"rental_uris":{"android":"levelo://app?vid=4abbe3ba-7baa-4a03-9271-a0a39382f490","ios":"levelo://app?vid=4abbe3ba-7baa-4a03-9271-a0a39382f490"},"vehicle_type_id":"4","last_reported":1704146778,"current_range_meters":27200,"station_id":"ce4bgj92rcd13ifvqbd0","pricing_plan_id":"free"},{"bike_id":"d1ae36cc-3d77-4823-bbea-3ec1cd29b40d","system_id":"levelo_inurba_marseille","lat":43.32367,"lon":5.388836,"is_reserved":false,"is_disabled":false,"rental_uris":{"android":"levelo://app?vid=d1ae36cc-3d77-4823-bbea-3ec1cd29b40d","ios":"levelo://app?vid=d1ae36cc-3d77-4823-bbea-3ec1cd29b40d"},"vehicle_type_id":"4","last_reported":1704146778,"current_range_meters":23200,"station_id":"ce4bhqp2rcd13ifvqhog","pricing_plan_id":"free"},{"bike_id":"2f93b2c9-de85-42f5-9ce0-4a7d62a07a85","system_id":"levelo_inurba_marseille","lat":43.29278,"lon":5.36839,"is_reserved":false,"is_disabled":false,"rental_uris":{"android":"levelo://app?vid=2f93b2c9-de85-42f5-9ce0-4a7d62a07a85","ios":"levelo://app?vid=2f93b2c9-de85-42f5-9ce0-4a7d62a07a85"},"vehicle_type_id":"4","last_reported":1704146778,"current_range_meters":0,"station_id":"ce4bhbp2rcd13ifvqesg","pricing_plan_id":"free"},{"bike_id":"255b1d4b-27dd-4d82-a318-36ffa3b82459","system_id":"levelo_inurba_marseille","lat":43.293249,"lon":5.371578,"is_reserved":false,"is_disabled":false,"rental_uris":{"android":"levelo://app?vid=255b1d4b-27dd-4d82-a318-36ffa3b82459","ios":"levelo://app?vid=255b1d4b-27dd-4d82-a318-36ffa3b82459"},"vehicle_type_id":"4","last_reported":1704146778,"current_range_meters":27600,"station_id":"ce4bgh92rcd13ifvqb40","pricing_plan_id":"free"},{"bike_id":"b298273d-9245-4bb3-bd84-cb3a3ae51c8f","system_id":"levelo_inurba_marseille","lat":43.302992,"lon":5.392136,"is_reserved":false,"is_disabled":false,"rental_uris":{"android":"levelo://app?vid=b298273d-9245-4bb3-bd84-cb3a3ae51c8f","ios":"levelo://app?vid=b298273d-9245-4bb3-bd84-cb3a3ae51c8f"},"vehicle_type_id":"4","last_reported":1704146778,"current_range_meters":26000,"station_id":"ce4bgkh2rcd13ifvqbk0","pricing_plan_id":"free"},{"bike_id":"7d1a1c68-30e8-4060-a685-0abfe633a00f","system_id":"levelo_inurba_marseille","lat":43.302992,"lon":5.392136,"is_reserved":false,"is_disabled":false,"rental_uris":{"android":"levelo://app?vid=7d1a1c68-30e8-4060-a685-0abfe633a00f","ios":"levelo://app?vid=7d1a1c68-30e8-4060-a685-0abfe633a00f"},"vehicle_type_id":"4","last_reported":1704146778,"current_range_meters":26000,"station_id":"ce4bgkh2rcd13ifvqbk0","pricing_plan_id":"free"},{"bike_id":"1a1481de-040b-486d-8984-45afdbe85ebb","system_id":"levelo_inurba_marseille","lat":43.29253,"lon":5.3739,"is_reserved":false,"is_disabled":false,"rental_uris":{"android":"levelo://app?vid=1a1481de-040b-486d-8984-45afdbe85ebb","ios":"levelo://app?vid=1a1481de-040b-486d-8984-45afdbe85ebb"},"vehicle_type_id":"4","last_reported":1704146778,"current_range_meters":18800,"station_id":"","pricing_plan_id":"free"},{"bike_id":"cf8892df-c1c5-4f87-9093-15cb73f3f8a2","system_id":"levelo_inurba_marseille","lat":43.302992,"lon":5.392136,"is_reserved":false,"is_disabled":false,"rental_uris":{"android":"levelo://app?vid=cf8892df-c1c5-4f87-9093-15cb73f3f8a2","ios":"levelo://app?vid=cf8892df-c1c5-4f87-9093-15cb73f3f8a2"},"vehicle_type_id":"4","last_reported":1704146778,"current_range_meters":25600,"station_id":"ce4bgkh2rcd13ifvqbk0","pricing_plan_id":"free"},{"bike_id":"453c26e7-1304-498d-9fbc-6cb9b1e286e8","system_id":"levelo_inurba_marseille","lat":43.300985,"lon":5.390816,"is_reserved":false,"is_disabled":false,"rental_uris":{"android":"levelo://app?vid=453c26e7-1304-498d-9fbc-6cb9b1e286e8","ios":"levelo://app?vid=453c26e7-1304-498d-9fbc-6cb9b1e286e8"},"vehicle_type_id":"4","last_reported":1704146778,"current_range_meters":22800,"station_id":"","pricing_plan_id":"free"},{"bike_id":"c5fe977a-a4ce-4272-ace7-754e6101abfd","system_id":"levelo_inurba_marseille","lat":43.30085,"lon":5.390856,"is_reserved":false,"is_disabled":false,"rental_uris":{"android":"levelo://app?vid=c5fe977a-a4ce-4272-ace7-754e6101abfd","ios":"levelo://app?vid=c5fe977a-a4ce-4272-ace7-754e6101abfd"},"vehicle_type_id":"4","last_reported":1704146778,"current_range_meters":18000,"station_id":"ce4bh192rcd13ifvqdb0","pricing_plan_id":"free"},{"bike_id":"7bba413e-bbc3-4260-838c-a83dcc31f092","system_id":"levelo_inurba_marseille","lat":43.300852,"lon":5.390859,"is_reserved":false,"is_disabled":false,"rental_uris":{"android":"levelo://app?vid=7bba413e-bbc3-4260-838c-a83dcc31f092","ios":"levelo://app?vid=7bba413e-bbc3-4260-838c-a83dcc31f092"},"vehicle_type_id":"4","last_reported":1704146778,"current_range_meters":21200,"station_id":"ce4bh192rcd13ifvqdb0","pricing_plan_id":"free"},{"bike_id":"c51bd3d9-eb30-4459-aa21-97656106b531","system_id":"levelo_inurba_marseille","lat":43.313291,"lon":5.396838,"is_reserved":false,"is_disabled":false,"rental_uris":{"android":"levelo://app?vid=c51bd3d9-eb30-4459-aa21-97656106b531","ios":"levelo://app?vid=c51bd3d9-eb30-4459-aa21-97656106b531"},"vehicle_type_id":"4","last_reported":1704146778,"current_range_meters":3600,"station_id":"ce4bgvp2rcd13ifvqcu0","pricing_plan_id":"free"},{"bike_id":"ad2646db-226f-44d8-8761-ad673657339b","system_id":"levelo_inurba_marseille","lat":43.313291,"lon":5.396838,"is_reserved":false,"is_disabled":false,"rental_uris":{"android":"levelo://app?vid=ad2646db-226f-44d8-8761-ad673657339b","ios":"levelo://app?vid=ad2646db-226f-44d8-8761-ad673657339b"},"vehicle_type_id":"4","last_reported":1704146778,"current_range_meters":18400,"station_id":"ce4bgvp2rcd13ifvqcu0","pricing_plan_id":"free"},{"bike_id":"668942d6-33c2-433a-a4c3-8da233302454","system_id":"levelo_inurba_marseille","lat":43.313291,"lon":5.396838,"is_reserved":false,"is_disabled":false,"rental_uris":{"android":"levelo://app?vid=668942d6-33c2-433a-a4c3-8da233302454","ios":"levelo://app?vid=668942d6-33c2-433a-a4c3-8da233302454"},"vehicle_type_id":"4","last_reported":1704146778,"current_range_meters":29600,"station_id":"ce4bgvp2rcd13ifvqcu0","pricing_plan_id":"free"},{"bike_id":"48a1cb65-8e46-4608-83a7-ec144ecde95b","system_id":"levelo_inurba_marseille","lat":43.29529,"lon":5.385581,"is_reserved":false,"is_disabled":false,"rental_uris":{"android":"levelo://app?vid=48a1cb65-8e46-4608-83a7-ec144ecde95b","ios":"levelo://app?vid=48a1cb65-8e46-4608-83a7-ec144ecde95b"},"vehicle_type_id":"4","last_reported":1704146778,"current_range_meters":24000,"station_id":"ce4bgih2rcd13ifvqba0","pricing_plan_id":"free"},{"bike_id":"e6391b2f-358b-4c26-baf8-a54d8ac00fc9","system_id":"levelo_inurba_marseille","lat":43.29529,"lon":5.385581,"is_reserved":false,"is_disabled":false,"rental_uris":{"android":"levelo://app?vid=e6391b2f-358b-4c26-baf8-a54d8ac00fc9","ios":"levelo://app?vid=e6391b2f-358b-4c26-baf8-a54d8ac00fc9"},"vehicle_type_id":"4","last_reported":1704146778,"current_range_meters":11200,"station_id":"ce4bgih2rcd13ifvqba0","pricing_plan_id":"free"},{"bike_id":"311b351a-093a-44b6-81ed-cb4486cb72ee","system_id":"levelo_inurba_marseille","lat":43.29529,"lon":5.385581,"is_reserved":false,"is_disabled":false,"rental_uris":{"android":"levelo://app?vid=311b351a-093a-44b6-81ed-cb4486cb72ee","ios":"levelo://app?vid=311b351a-093a-44b6-81ed-cb4486cb72ee"},"vehicle_type_id":"4","last_reported":1704146778,"current_range_meters":15200,"station_id":"ce4bgih2rcd13ifvqba0","pricing_plan_id":"free"},{"bike_id":"0bd35226-c42e-467d-b54f-f29309bfece1","system_id":"levelo_inurba_marseille","lat":43.29529,"lon":5.385581,"is_reserved":false,"is_disabled":false,"rental_uris":{"android":"levelo://app?vid=0bd35226-c42e-467d-b54f-f29309bfece1","ios":"levelo://app?vid=0bd35226-c42e-467d-b54f-f29309bfece1"},"vehicle_type_id":"4","last_reported":1704146778,"current_range_meters":31200,"station_id":"ce4bgih2rcd13ifvqba0","pricing_plan_id":"free"},{"bike_id":"f53c8c94-5f94-40c0-92df-4d1b1731ac05","system_id":"levelo_inurba_marseille","lat":43.302008,"lon":5.394694,"is_reserved":false,"is_disabled":false,"rental_uris":{"android":"levelo://app?vid=f53c8c94-5f94-40c0-92df-4d1b1731ac05","ios":"levelo://app?vid=f53c8c94-5f94-40c0-92df-4d1b1731ac05"},"vehicle_type_id":"4","last_reported":1704146778,"current_range_meters":4400,"station_id":"ce4bh0p2rcd13ifvqd70","pricing_plan_id":"free"},{"bike_id":"095e09fc-8293-41fb-9301-b248e83192ea","system_id":"levelo_inurba_marseille","lat":43.302008,"lon":5.394694,"is_reserved":false,"is_disabled":false,"rental_uris":{"android":"levelo://app?vid=095e09fc-8293-41fb-9301-b248e83192ea","ios":"levelo://app?vid=095e09fc-8293-41fb-9301-b248e83192ea"},"vehicle_type_id":"4","last_reported":1704146778,"current_range_meters":13200,"station_id":"ce4bh0p2rcd13ifvqd70","pricing_plan_id":"free"},{"bike_id":"e3d1dd37-a847-4837-b2e3-6c12642055b0","system_id":"levelo_inurba_marseille","lat":43.290631,"lon":5.359244,"is_reserved":false,"is_disabled":false,"rental_uris":{"android":"levelo://app?vid=e3d1dd37-a847-4837-b2e3-6c12642055b0","ios":"levelo://app?vid=e3d1dd37-a847-4837-b2e3-6c12642055b0"},"vehicle_type_id":"4","last_reported":1704146778,"current_range_meters":27600,"station_id":"ce4bha92rcd13ifvqeg0","pricing_plan_id":"free"},{"bike_id":"2bb3acb9-bedd-4441-8b19-458215b4bd3d","system_id":"levelo_inurba_marseille","lat":43.290631,"lon":5.359244,"is_reserved":false,"is_disabled":false,"rental_uris":{"android":"levelo://app?vid=2bb3acb9-bedd-4441-8b19-458215b4bd3d","ios":"levelo://app?vid=2bb3acb9-bedd-4441-8b19-458215b4bd3d"},"vehicle_type_id":"4","last_reported":1704146778,"current_range_meters":31200,"station_id":"ce4bha92rcd13ifvqeg0","pricing_plan_id":"free"},{"bike_id":"a7b32091-3406-4df2-a6b7-aa4d37aa6c9a","system_id":"levelo_inurba_marseille","lat":43.294153,"lon":5.386305,"is_reserved":false,"is_disabled":false,"rental_uris":{"android":"levelo://app?vid=a7b32091-3406-4df2-a6b7-aa4d37aa6c9a","ios":"levelo://app?vid=a7b32091-3406-4df2-a6b7-aa4d37aa6c9a"},"vehicle_type_id":"4","last_reported":1704146778,"current_range_meters":22800,"station_id":"ce4bh2h2rcd13ifvqdh0","pricing_plan_id":"free"},{"bike_id":"3747019d-ea3e-4d8a-b2d1-7696625ee78c","system_id":"levelo_inurba_marseille","lat":43.290327,"lon":5.375711,"is_reserved":false,"is_disabled":false,"rental_uris":{"android":"levelo://app?vid=3747019d-ea3e-4d8a-b2d1-7696625ee78c","ios":"levelo://app?vid=3747019d-ea3e-4d8a-b2d1-7696625ee78c"},"vehicle_type_id":"4","last_reported":1704146778,"current_range_meters":2800,"station_id":"ce4bh692rcd13ifvqe90","pricing_plan_id":"free"},{"bike_id":"11ee6c79-9331-410c-9d76-bce6548a396c","system_id":"levelo_inurba_marseille","lat":43.294153,"lon":5.386305,"is_reserved":false,"is_disabled":false,"rental_uris":{"android":"levelo://app?vid=11ee6c79-9331-410c-9d76-bce6548a396c","ios":"levelo://app?vid=11ee6c79-9331-410c-9d76-bce6548a396c"},"vehicle_type_id":"4","last_reported":1704146778,"current_range_meters":16800,"station_id":"ce4bh2h2rcd13ifvqdh0","pricing_plan_id":"free"},{"bike_id":"6e13f63e-5d26-405f-820a-6f3091a32132","system_id":"levelo_inurba_marseille","lat":43.290327,"lon":5.375711,"is_reserved":false,"is_disabled":false,"rental_uris":{"android":"levelo://app?vid=6e13f63e-5d26-405f-820a-6f3091a32132","ios":"levelo://app?vid=6e13f63e-5d26-405f-820a-6f3091a32132"},"vehicle_type_id":"4","last_reported":1704146778,"current_range_meters":22000,"station_id":"ce4bh692rcd13ifvqe90","pricing_plan_id":"free"},{"bike_id":"ea44cfb3-4e0d-47bb-9dad-4a64a9eebff6","system_id":"levelo_inurba_marseille","lat":43.294162,"lon":5.386292,"is_reserved":false,"is_disabled":false,"rental_uris":{"android":"levelo://app?vid=ea44cfb3-4e0d-47bb-9dad-4a64a9eebff6","ios":"levelo://app?vid=ea44cfb3-4e0d-47bb-9dad-4a64a9eebff6"},"vehicle_type_id":"4","last_reported":1704146778,"current_range_meters":31200,"station_id":"ce4bh2h2rcd13ifvqdh0","pricing_plan_id":"free"},{"bike_id":"58afa050-3472-4e60-b313-955a6a8ab7f0","system_id":"levelo_inurba_marseille","lat":43.289184,"lon":5.366408,"is_reserved":false,"is_disabled":false,"rental_uris":{"android":"levelo://app?vid=58afa050-3472-4e60-b313-955a6a8ab7f0","ios":"levelo://app?vid=58afa050-3472-4e60-b313-955a6a8ab7f0"},"vehicle_type_id":"4","last_reported":1704146778,"current_range_meters":25200,"station_id":"ce4bhap2rcd13ifvqek0","pricing_plan_id":"free"},{"bike_id":"526836c6-4c76-4836-b874-2c8efb1061ba","system_id":"levelo_inurba_marseille","lat":43.290327,"lon":5.375711,"is_reserved":false,"is_disabled":false,"rental_uris":{"android":"levelo://app?vid=526836c6-4c76-4836-b874-2c8efb1061ba","ios":"levelo://app?vid=526836c6-4c76-4836-b874-2c8efb1061ba"},"vehicle_type_id":"4","last_reported":1704146778,"current_range_meters":13600,"station_id":"ce4bh692rcd13ifvqe90","pricing_plan_id":"free"},{"bike_id":"9ef5a195-e0d1-4224-9582-be4d5fe33d0d","system_id":"levelo_inurba_marseille","lat":43.289468,"lon":5.363719,"is_reserved":false,"is_disabled":false,"rental_uris":{"android":"levelo://app?vid=9ef5a195-e0d1-4224-9582-be4d5fe33d0d","ios":"levelo://app?vid=9ef5a195-e0d1-4224-9582-be4d5fe33d0d"},"vehicle_type_id":"4","last_reported":1704146778,"current_range_meters":29600,"station_id":"ce4bhc92rcd13ifvqetg","pricing_plan_id":"free"},{"bike_id":"513d71eb-3a3a-492d-a795-d8246815462e","system_id":"levelo_inurba_marseille","lat":43.290995,"lon":5.381361,"is_reserved":false,"is_disabled":false,"rental_uris":{"android":"levelo://app?vid=513d71eb-3a3a-492d-a795-d8246815462e","ios":"levelo://app?vid=513d71eb-3a3a-492d-a795-d8246815462e"},"vehicle_type_id":"4","last_reported":1704146778,"current_range_meters":6400,"station_id":"ce4bh512rcd13ifvqe2g","pricing_plan_id":"free"},{"bike_id":"891e99cc-b383-415e-b204-6dddbcb897ea","system_id":"levelo_inurba_marseille","lat":43.290827,"lon":5.381421,"is_reserved":false,"is_disabled":false,"rental_uris":{"android":"levelo://app?vid=891e99cc-b383-415e-b204-6dddbcb897ea","ios":"levelo://app?vid=891e99cc-b383-415e-b204-6dddbcb897ea"},"vehicle_type_id":"4","last_reported":1704146778,"current_range_meters":19600,"station_id":"","pricing_plan_id":"free"},{"bike_id":"593d2cbd-e5bc-4046-a842-75fa90bfcbce","system_id":"levelo_inurba_marseille","lat":43.295169,"lon":5.390426,"is_reserved":false,"is_disabled":false,"rental_uris":{"android":"levelo://app?vid=593d2cbd-e5bc-4046-a842-75fa90bfcbce","ios":"levelo://app?vid=593d2cbd-e5bc-4046-a842-75fa90bfcbce"},"vehicle_type_id":"4","last_reported":1704146778,"current_range_meters":16800,"station_id":"ce4bh3p2rcd13ifvqdp0","pricing_plan_id":"free"},{"bike_id":"199f2e43-81de-4fe8-b7dd-42d933310edc","system_id":"levelo_inurba_marseille","lat":43.295169,"lon":5.390426,"is_reserved":false,"is_disabled":false,"rental_uris":{"android":"levelo://app?vid=199f2e43-81de-4fe8-b7dd-42d933310edc","ios":"levelo://app?vid=199f2e43-81de-4fe8-b7dd-42d933310edc"},"vehicle_type_id":"4","last_reported":1704146778,"current_range_meters":26800,"station_id":"ce4bh3p2rcd13ifvqdp0","pricing_plan_id":"free"},{"bike_id":"7d3f0707-26fc-41d0-8f63-88674e57e19c","system_id":"levelo_inurba_marseille","lat":43.33028,"lon":5.39034,"is_reserved":false,"is_disabled":false,"rental_uris":{"android":"levelo://app?vid=7d3f0707-26fc-41d0-8f63-88674e57e19c","ios":"levelo://app?vid=7d3f0707-26fc-41d0-8f63-88674e57e19c"},"vehicle_type_id":"4","last_reported":1704146778,"current_range_meters":10000,"station_id":"","pricing_plan_id":"free"},{"bike_id":"13d41c86-d361-4b17-ae49-6b5491dd4e85","system_id":"levelo_inurba_marseille","lat":43.330442,"lon":5.389148,"is_reserved":false,"is_disabled":false,"rental_uris":{"android":"levelo://app?vid=13d41c86-d361-4b17-ae49-6b5491dd4e85","ios":"levelo://app?vid=13d41c86-d361-4b17-ae49-6b5491dd4e85"},"vehicle_type_id":"4","last_reported":1704146778,"current_range_meters":27200,"station_id":"ce4bhr92rcd13ifvqhrg","pricing_plan_id":"free"},{"bike_id":"d7f343e5-1ba3-4856-a80f-438125dd58f9","system_id":"levelo_inurba_marseille","lat":43.28856,"lon":5.358371,"is_reserved":false,"is_disabled":false,"rental_uris":{"android":"levelo://app?vid=d7f343e5-1ba3-4856-a80f-438125dd58f9","ios":"levelo://app?vid=d7f343e5-1ba3-4856-a80f-438125dd58f9"},"vehicle_type_id":"4","last_reported":1704146778,"current_range_meters":1600,"station_id":"ce4bhb12rcd13ifvqem0","pricing_plan_id":"free"},{"bike_id":"41a7d31f-1e0a-4058-8171-d9146d4a8418","system_id":"levelo_inurba_marseille","lat":43.337417,"lon":5.37445,"is_reserved":false,"is_disabled":false,"rental_uris":{"android":"levelo://app?vid=41a7d31f-1e0a-4058-8171-d9146d4a8418","ios":"levelo://app?vid=41a7d31f-1e0a-4058-8171-d9146d4a8418"},"vehicle_type_id":"4","last_reported":1704146778,"current_range_meters":26800,"station_id":"","pricing_plan_id":"free"},{"bike_id":"7a962a69-4134-4c95-92d1-330a231764ab","system_id":"levelo_inurba_marseille","lat":43.312609,"lon":5.401662,"is_reserved":false,"is_disabled":false,"rental_uris":{"android":"levelo://app?vid=7a962a69-4134-4c95-92d1-330a231764ab","ios":"levelo://app?vid=7a962a69-4134-4c95-92d1-330a231764ab"},"vehicle_type_id":"4","last_reported":1704146778,"current_range_meters":22400,"station_id":"ce4bh092rcd13ifvqd30","pricing_plan_id":"free"},{"bike_id":"9a042682-2b83-4773-ad48-23fbaf2d69da","system_id":"levelo_inurba_marseille","lat":43.312609,"lon":5.401662,"is_reserved":false,"is_disabled":false,"rental_uris":{"android":"levelo://app?vid=9a042682-2b83-4773-ad48-23fbaf2d69da","ios":"levelo://app?vid=9a042682-2b83-4773-ad48-23fbaf2d69da"},"vehicle_type_id":"4","last_reported":1704146778,"current_range_meters":13600,"station_id":"ce4bh092rcd13ifvqd30","pricing_plan_id":"free"},{"bike_id":"de41f880-1ec5-4456-ac16-4e12b8a7de81","system_id":"levelo_inurba_marseille","lat":43.309371,"lon":5.401449,"is_reserved":false,"is_disabled":false,"rental_uris":{"android":"levelo://app?vid=de41f880-1ec5-4456-ac16-4e12b8a7de81","ios":"levelo://app?vid=de41f880-1ec5-4456-ac16-4e12b8a7de81"},"vehicle_type_id":"4","last_reported":1704146778,"current_range_meters":0,"station_id":"ce4bgvp2rcd13ifvqct0","pricing_plan_id":"free"},{"bike_id":"acdd791b-b005-455d-8a15-399fdf59a552","system_id":"levelo_inurba_marseille","lat":43.337419,"lon":5.374721,"is_reserved":false,"is_disabled":false,"rental_uris":{"android":"levelo://app?vid=acdd791b-b005-455d-8a15-399fdf59a552","ios":"levelo://app?vid=acdd791b-b005-455d-8a15-399fdf59a552"},"vehicle_type_id":"4","last_reported":1704146778,"current_range_meters":5200,"station_id":"","pricing_plan_id":"free"},{"bike_id":"c3321a64-f89b-4011-9b8d-86cbb1276a3a","system_id":"levelo_inurba_marseille","lat":43.309371,"lon":5.401449,"is_reserved":false,"is_disabled":false,"rental_uris":{"android":"levelo://app?vid=c3321a64-f89b-4011-9b8d-86cbb1276a3a","ios":"levelo://app?vid=c3321a64-f89b-4011-9b8d-86cbb1276a3a"},"vehicle_type_id":"4","last_reported":1704146778,"current_range_meters":6000,"station_id":"ce4bgvp2rcd13ifvqct0","pricing_plan_id":"free"},{"bike_id":"cafc4367-07fd-4ff8-8e3c-1b23ff14c3b4","system_id":"levelo_inurba_marseille","lat":43.28727,"lon":5.36078,"is_reserved":false,"is_disabled":false,"rental_uris":{"android":"levelo://app?vid=cafc4367-07fd-4ff8-8e3c-1b23ff14c3b4","ios":"levelo://app?vid=cafc4367-07fd-4ff8-8e3c-1b23ff14c3b4"},"vehicle_type_id":"4","last_reported":1704146778,"current_range_meters":25200,"station_id":"cki0cbj6b192h4jlfktg","pricing_plan_id":"free"},{"bike_id":"af52503d-1551-42a2-a18e-60cc63b1dd3e","system_id":"levelo_inurba_marseille","lat":43.28727,"lon":5.36078,"is_reserved":false,"is_disabled":false,"rental_uris":{"android":"levelo://app?vid=af52503d-1551-42a2-a18e-60cc63b1dd3e","ios":"levelo://app?vid=af52503d-1551-42a2-a18e-60cc63b1dd3e"},"vehicle_type_id":"4","last_reported":1704146778,"current_range_meters":28400,"station_id":"cki0cbj6b192h4jlfktg","pricing_plan_id":"free"},{"bike_id":"7e9a59ee-058b-4752-9380-1129ce8586dd","system_id":"levelo_inurba_marseille","lat":43.28727,"lon":5.36078,"is_reserved":false,"is_disabled":false,"rental_uris":{"android":"levelo://app?vid=7e9a59ee-058b-4752-9380-1129ce8586dd","ios":"levelo://app?vid=7e9a59ee-058b-4752-9380-1129ce8586dd"},"vehicle_type_id":"4","last_reported":1704146778,"current_range_meters":31200,"station_id":"cki0cbj6b192h4jlfktg","pricing_plan_id":"free"},{"bike_id":"bd6df0b3-ac7d-4103-9606-86073e94833a","system_id":"levelo_inurba_marseille","lat":43.286591,"lon":5.363346,"is_reserved":false,"is_disabled":false,"rental_uris":{"android":"levelo://app?vid=bd6df0b3-ac7d-4103-9606-86073e94833a","ios":"levelo://app?vid=bd6df0b3-ac7d-4103-9606-86073e94833a"},"vehicle_type_id":"4","last_reported":1704146778,"current_range_meters":27200,"station_id":"ce4bhah2rcd13ifvqej0","pricing_plan_id":"free"},{"bike_id":"1a249c52-f2c4-47ab-9c0b-5be04aee8ea4","system_id":"levelo_inurba_marseille","lat":43.286591,"lon":5.363346,"is_reserved":false,"is_disabled":false,"rental_uris":{"android":"levelo://app?vid=1a249c52-f2c4-47ab-9c0b-5be04aee8ea4","ios":"levelo://app?vid=1a249c52-f2c4-47ab-9c0b-5be04aee8ea4"},"vehicle_type_id":"4","last_reported":1704146778,"current_range_meters":23600,"station_id":"ce4bhah2rcd13ifvqej0","pricing_plan_id":"free"},{"bike_id":"31c2e599-cdc1-4b05-b330-b9f7c0d3e006","system_id":"levelo_inurba_marseille","lat":43.286591,"lon":5.363346,"is_reserved":false,"is_disabled":false,"rental_uris":{"android":"levelo://app?vid=31c2e599-cdc1-4b05-b330-b9f7c0d3e006","ios":"levelo://app?vid=31c2e599-cdc1-4b05-b330-b9f7c0d3e006"},"vehicle_type_id":"4","last_reported":1704146778,"current_range_meters":2400,"station_id":"ce4bhah2rcd13ifvqej0","pricing_plan_id":"free"},{"bike_id":"04cdc395-312f-4db5-8d02-07d69d56b6f4","system_id":"levelo_inurba_marseille","lat":43.286591,"lon":5.363346,"is_reserved":false,"is_disabled":false,"rental_uris":{"android":"levelo://app?vid=04cdc395-312f-4db5-8d02-07d69d56b6f4","ios":"levelo://app?vid=04cdc395-312f-4db5-8d02-07d69d56b6f4"},"vehicle_type_id":"4","last_reported":1704146778,"current_range_meters":26800,"station_id":"ce4bhah2rcd13ifvqej0","pricing_plan_id":"free"},{"bike_id":"f182ad30-578d-439a-b895-037c49f93cbb","system_id":"levelo_inurba_marseille","lat":43.28039,"lon":5.369297,"is_reserved":false,"is_disabled":false,"rental_uris":{"android":"levelo://app?vid=f182ad30-578d-439a-b895-037c49f93cbb","ios":"levelo://app?vid=f182ad30-578d-439a-b895-037c49f93cbb"},"vehicle_type_id":"4","last_reported":1704146778,"current_range_meters":31200,"station_id":"ce4bha12rcd13ifvqef0","pricing_plan_id":"free"},{"bike_id":"9da7227d-47de-4eb4-b462-00fbcf630aaf","system_id":"levelo_inurba_marseille","lat":43.289307,"lon":5.38406,"is_reserved":false,"is_disabled":false,"rental_uris":{"android":"levelo://app?vid=9da7227d-47de-4eb4-b462-00fbcf630aaf","ios":"levelo://app?vid=9da7227d-47de-4eb4-b462-00fbcf630aaf"},"vehicle_type_id":"4","last_reported":1704146778,"current_range_meters":29600,"station_id":"ce4bh612rcd13ifvqe6g","pricing_plan_id":"free"},{"bike_id":"7a737315-87a9-4c03-ba45-4ac5ba90dbb7","system_id":"levelo_inurba_marseille","lat":43.289307,"lon":5.38406,"is_reserved":false,"is_disabled":false,"rental_uris":{"android":"levelo://app?vid=7a737315-87a9-4c03-ba45-4ac5ba90dbb7","ios":"levelo://app?vid=7a737315-87a9-4c03-ba45-4ac5ba90dbb7"},"vehicle_type_id":"4","last_reported":1704146778,"current_range_meters":12400,"station_id":"ce4bh612rcd13ifvqe6g","pricing_plan_id":"free"},{"bike_id":"b88adbac-7a95-440c-b0bd-046829652d35","system_id":"levelo_inurba_marseille","lat":43.289307,"lon":5.38406,"is_reserved":false,"is_disabled":false,"rental_uris":{"android":"levelo://app?vid=b88adbac-7a95-440c-b0bd-046829652d35","ios":"levelo://app?vid=b88adbac-7a95-440c-b0bd-046829652d35"},"vehicle_type_id":"4","last_reported":1704146778,"current_range_meters":12400,"station_id":"ce4bh612rcd13ifvqe6g","pricing_plan_id":"free"},{"bike_id":"13963b5c-6eb9-4703-9b41-8f47ef84533a","system_id":"levelo_inurba_marseille","lat":43.289363,"lon":5.396322,"is_reserved":false,"is_disabled":false,"rental_uris":{"android":"levelo://app?vid=13963b5c-6eb9-4703-9b41-8f47ef84533a","ios":"levelo://app?vid=13963b5c-6eb9-4703-9b41-8f47ef84533a"},"vehicle_type_id":"4","last_reported":1704146778,"current_range_meters":21200,"station_id":"ce4bh3h2rcd13ifvqdn0","pricing_plan_id":"free"},{"bike_id":"40579999-f28a-4f53-8fc1-32606a609e63","system_id":"levelo_inurba_marseille","lat":43.28607,"lon":5.37062,"is_reserved":false,"is_disabled":false,"rental_uris":{"android":"levelo://app?vid=40579999-f28a-4f53-8fc1-32606a609e63","ios":"levelo://app?vid=40579999-f28a-4f53-8fc1-32606a609e63"},"vehicle_type_id":"4","last_reported":1704146778,"current_range_meters":25200,"station_id":"","pricing_plan_id":"free"},{"bike_id":"9b0c9e9e-977c-43ca-8676-217c423ef706","system_id":"levelo_inurba_marseille","lat":43.316828,"lon":5.404723,"is_reserved":false,"is_disabled":false,"rental_uris":{"android":"levelo://app?vid=9b0c9e9e-977c-43ca-8676-217c423ef706","ios":"levelo://app?vid=9b0c9e9e-977c-43ca-8676-217c423ef706"},"vehicle_type_id":"4","last_reported":1704146778,"current_range_meters":1200,"station_id":"ce4bh012rcd13ifvqd00","pricing_plan_id":"free"},{"bike_id":"47962c03-d8a9-4723-a1c5-90c5c1cb0308","system_id":"levelo_inurba_marseille","lat":43.291994,"lon":5.392907,"is_reserved":false,"is_disabled":false,"rental_uris":{"android":"levelo://app?vid=47962c03-d8a9-4723-a1c5-90c5c1cb0308","ios":"levelo://app?vid=47962c03-d8a9-4723-a1c5-90c5c1cb0308"},"vehicle_type_id":"4","last_reported":1704146778,"current_range_meters":30800,"station_id":"ce4bh192rcd13ifvqdd0","pricing_plan_id":"free"},{"bike_id":"339bc69c-f006-4b3e-921d-070044f0b263","system_id":"levelo_inurba_marseille","lat":43.28466,"lon":5.35893,"is_reserved":false,"is_disabled":false,"rental_uris":{"android":"levelo://app?vid=339bc69c-f006-4b3e-921d-070044f0b263","ios":"levelo://app?vid=339bc69c-f006-4b3e-921d-070044f0b263"},"vehicle_type_id":"4","last_reported":1704146778,"current_range_meters":22400,"station_id":"ce4bhah2rcd13ifvqei0","pricing_plan_id":"free"},{"bike_id":"0274d39b-faf6-4226-b77f-6fb3a43a2e58","system_id":"levelo_inurba_marseille","lat":43.28466,"lon":5.35892,"is_reserved":false,"is_disabled":false,"rental_uris":{"android":"levelo://app?vid=0274d39b-faf6-4226-b77f-6fb3a43a2e58","ios":"levelo://app?vid=0274d39b-faf6-4226-b77f-6fb3a43a2e58"},"vehicle_type_id":"4","last_reported":1704146778,"current_range_meters":24400,"station_id":"ce4bhah2rcd13ifvqei0","pricing_plan_id":"free"},{"bike_id":"82fc3d83-93aa-4ce4-bd19-4015815af715","system_id":"levelo_inurba_marseille","lat":43.284534,"lon":5.358662,"is_reserved":false,"is_disabled":false,"rental_uris":{"android":"levelo://app?vid=82fc3d83-93aa-4ce4-bd19-4015815af715","ios":"levelo://app?vid=82fc3d83-93aa-4ce4-bd19-4015815af715"},"vehicle_type_id":"4","last_reported":1704146778,"current_range_meters":30400,"station_id":"ce4bhah2rcd13ifvqei0","pricing_plan_id":"free"},{"bike_id":"c3a0a884-5397-4533-9417-fb99cbd51802","system_id":"levelo_inurba_marseille","lat":43.284622,"lon":5.358902,"is_reserved":false,"is_disabled":false,"rental_uris":{"android":"levelo://app?vid=c3a0a884-5397-4533-9417-fb99cbd51802","ios":"levelo://app?vid=c3a0a884-5397-4533-9417-fb99cbd51802"},"vehicle_type_id":"4","last_reported":1704146778,"current_range_meters":29200,"station_id":"ce4bhah2rcd13ifvqei0","pricing_plan_id":"free"},{"bike_id":"6ada2c0b-21ba-4d14-b3e2-2e610c3e64e1","system_id":"levelo_inurba_marseille","lat":43.284612,"lon":5.358895,"is_reserved":false,"is_disabled":false,"rental_uris":{"android":"levelo://app?vid=6ada2c0b-21ba-4d14-b3e2-2e610c3e64e1","ios":"levelo://app?vid=6ada2c0b-21ba-4d14-b3e2-2e610c3e64e1"},"vehicle_type_id":"4","last_reported":1704146778,"current_range_meters":0,"station_id":"ce4bhah2rcd13ifvqei0","pricing_plan_id":"free"},{"bike_id":"20be2735-b079-499a-af99-188ab3a39ea1","system_id":"levelo_inurba_marseille","lat":43.284619,"lon":5.358842,"is_reserved":false,"is_disabled":false,"rental_uris":{"android":"levelo://app?vid=20be2735-b079-499a-af99-188ab3a39ea1","ios":"levelo://app?vid=20be2735-b079-499a-af99-188ab3a39ea1"},"vehicle_type_id":"4","last_reported":1704146778,"current_range_meters":22000,"station_id":"ce4bhah2rcd13ifvqei0","pricing_plan_id":"free"},{"bike_id":"7be1fd96-9df7-4dc2-864e-e485fc92ec9f","system_id":"levelo_inurba_marseille","lat":43.28457,"lon":5.35896,"is_reserved":false,"is_disabled":false,"rental_uris":{"android":"levelo://app?vid=7be1fd96-9df7-4dc2-864e-e485fc92ec9f","ios":"levelo://app?vid=7be1fd96-9df7-4dc2-864e-e485fc92ec9f"},"vehicle_type_id":"4","last_reported":1704146778,"current_range_meters":24800,"station_id":"","pricing_plan_id":"free"},{"bike_id":"e07dd0c9-ff0a-49bd-8bcb-17f59a7f02a9","system_id":"levelo_inurba_marseille","lat":43.284527,"lon":5.358875,"is_reserved":false,"is_disabled":false,"rental_uris":{"android":"levelo://app?vid=e07dd0c9-ff0a-49bd-8bcb-17f59a7f02a9","ios":"levelo://app?vid=e07dd0c9-ff0a-49bd-8bcb-17f59a7f02a9"},"vehicle_type_id":"4","last_reported":1704146778,"current_range_meters":12800,"station_id":"ce4bhah2rcd13ifvqei0","pricing_plan_id":"free"},{"bike_id":"09b090ba-f8f6-4a42-aac6-74f2dc5e8767","system_id":"levelo_inurba_marseille","lat":43.284534,"lon":5.358662,"is_reserved":false,"is_disabled":false,"rental_uris":{"android":"levelo://app?vid=09b090ba-f8f6-4a42-aac6-74f2dc5e8767","ios":"levelo://app?vid=09b090ba-f8f6-4a42-aac6-74f2dc5e8767"},"vehicle_type_id":"4","last_reported":1704146778,"current_range_meters":5200,"station_id":"ce4bhah2rcd13ifvqei0","pricing_plan_id":"free"},{"bike_id":"a7faa72b-a135-4283-b7ff-08475799b37d","system_id":"levelo_inurba_marseille","lat":43.285856,"lon":5.350771,"is_reserved":false,"is_disabled":false,"rental_uris":{"android":"levelo://app?vid=a7faa72b-a135-4283-b7ff-08475799b37d","ios":"levelo://app?vid=a7faa72b-a135-4283-b7ff-08475799b37d"},"vehicle_type_id":"4","last_reported":1704146778,"current_range_meters":30800,"station_id":"ce4bhch2rcd13ifvqeug","pricing_plan_id":"free"},{"bike_id":"4f55c26a-b0a2-4f4a-a548-a528fdabd358","system_id":"levelo_inurba_marseille","lat":43.285856,"lon":5.350771,"is_reserved":false,"is_disabled":false,"rental_uris":{"android":"levelo://app?vid=4f55c26a-b0a2-4f4a-a548-a528fdabd358","ios":"levelo://app?vid=4f55c26a-b0a2-4f4a-a548-a528fdabd358"},"vehicle_type_id":"4","last_reported":1704146778,"current_range_meters":22400,"station_id":"ce4bhch2rcd13ifvqeug","pricing_plan_id":"free"},{"bike_id":"cf630ede-8209-4457-a3af-d08d503621ab","system_id":"levelo_inurba_marseille","lat":43.286123,"lon":5.350923,"is_reserved":false,"is_disabled":false,"rental_uris":{"android":"levelo://app?vid=cf630ede-8209-4457-a3af-d08d503621ab","ios":"levelo://app?vid=cf630ede-8209-4457-a3af-d08d503621ab"},"vehicle_type_id":"4","last_reported":1704146778,"current_range_meters":17200,"station_id":"ce4bhch2rcd13ifvqeug","pricing_plan_id":"free"},{"bike_id":"c393ee19-9fe7-466d-a01c-f30c3d4a3c85","system_id":"levelo_inurba_marseille","lat":43.28612,"lon":5.35093,"is_reserved":false,"is_disabled":false,"rental_uris":{"android":"levelo://app?vid=c393ee19-9fe7-466d-a01c-f30c3d4a3c85","ios":"levelo://app?vid=c393ee19-9fe7-466d-a01c-f30c3d4a3c85"},"vehicle_type_id":"4","last_reported":1704146778,"current_range_meters":17200,"station_id":"ce4bhch2rcd13ifvqeug","pricing_plan_id":"free"},{"bike_id":"318ce2e9-9eb7-470b-8d02-260d874b62a2","system_id":"levelo_inurba_marseille","lat":43.28611,"lon":5.35088,"is_reserved":false,"is_disabled":false,"rental_uris":{"android":"levelo://app?vid=318ce2e9-9eb7-470b-8d02-260d874b62a2","ios":"levelo://app?vid=318ce2e9-9eb7-470b-8d02-260d874b62a2"},"vehicle_type_id":"4","last_reported":1704146778,"current_range_meters":25600,"station_id":"ce4bhch2rcd13ifvqeug","pricing_plan_id":"free"},{"bike_id":"f83df8c0-1c4f-492b-a30d-3db95776afc2","system_id":"levelo_inurba_marseille","lat":43.295713,"lon":5.399639,"is_reserved":false,"is_disabled":false,"rental_uris":{"android":"levelo://app?vid=f83df8c0-1c4f-492b-a30d-3db95776afc2","ios":"levelo://app?vid=f83df8c0-1c4f-492b-a30d-3db95776afc2"},"vehicle_type_id":"4","last_reported":1704146778,"current_range_meters":28400,"station_id":"ce4bh312rcd13ifvqdj0","pricing_plan_id":"free"},{"bike_id":"25e2cb7e-b18e-430d-b892-f943088f4be8","system_id":"levelo_inurba_marseille","lat":43.295713,"lon":5.399639,"is_reserved":false,"is_disabled":false,"rental_uris":{"android":"levelo://app?vid=25e2cb7e-b18e-430d-b892-f943088f4be8","ios":"levelo://app?vid=25e2cb7e-b18e-430d-b892-f943088f4be8"},"vehicle_type_id":"4","last_reported":1704146778,"current_range_meters":26000,"station_id":"ce4bh312rcd13ifvqdj0","pricing_plan_id":"free"},{"bike_id":"1e658ece-0a0a-46ba-b480-77228a85d7c6","system_id":"levelo_inurba_marseille","lat":43.29576,"lon":5.39976,"is_reserved":false,"is_disabled":false,"rental_uris":{"android":"levelo://app?vid=1e658ece-0a0a-46ba-b480-77228a85d7c6","ios":"levelo://app?vid=1e658ece-0a0a-46ba-b480-77228a85d7c6"},"vehicle_type_id":"4","last_reported":1704146778,"current_range_meters":28000,"station_id":"ce4bh312rcd13ifvqdj0","pricing_plan_id":"free"},{"bike_id":"8af6642b-e526-4770-8a06-6b115e68c32b","system_id":"levelo_inurba_marseille","lat":43.337194,"lon":5.39181,"is_reserved":false,"is_disabled":false,"rental_uris":{"android":"levelo://app?vid=8af6642b-e526-4770-8a06-6b115e68c32b","ios":"levelo://app?vid=8af6642b-e526-4770-8a06-6b115e68c32b"},"vehicle_type_id":"4","last_reported":1704146778,"current_range_meters":23600,"station_id":"ce4bhr92rcd13ifvqhsg","pricing_plan_id":"free"},{"bike_id":"78bb1215-3373-4d3f-b7bd-f79703d6e8c0","system_id":"levelo_inurba_marseille","lat":43.323464,"lon":5.406297,"is_reserved":false,"is_disabled":false,"rental_uris":{"android":"levelo://app?vid=78bb1215-3373-4d3f-b7bd-f79703d6e8c0","ios":"levelo://app?vid=78bb1215-3373-4d3f-b7bd-f79703d6e8c0"},"vehicle_type_id":"4","last_reported":1704146778,"current_range_meters":18800,"station_id":"ce4bhq92rcd13ifvqhjg","pricing_plan_id":"free"},{"bike_id":"1860c054-e673-4084-804e-8832a59aeb53","system_id":"levelo_inurba_marseille","lat":43.337168,"lon":5.391825,"is_reserved":false,"is_disabled":false,"rental_uris":{"android":"levelo://app?vid=1860c054-e673-4084-804e-8832a59aeb53","ios":"levelo://app?vid=1860c054-e673-4084-804e-8832a59aeb53"},"vehicle_type_id":"4","last_reported":1704146778,"current_range_meters":26400,"station_id":"ce4bhr92rcd13ifvqhsg","pricing_plan_id":"free"},{"bike_id":"d3837f57-b992-4c84-a0a7-b545d2582111","system_id":"levelo_inurba_marseille","lat":43.323464,"lon":5.406297,"is_reserved":false,"is_disabled":false,"rental_uris":{"android":"levelo://app?vid=d3837f57-b992-4c84-a0a7-b545d2582111","ios":"levelo://app?vid=d3837f57-b992-4c84-a0a7-b545d2582111"},"vehicle_type_id":"4","last_reported":1704146778,"current_range_meters":28000,"station_id":"ce4bhq92rcd13ifvqhjg","pricing_plan_id":"free"},{"bike_id":"0c86b19a-b076-49fb-89d9-5fc989f3c50c","system_id":"levelo_inurba_marseille","lat":43.284793,"lon":5.384113,"is_reserved":false,"is_disabled":false,"rental_uris":{"android":"levelo://app?vid=0c86b19a-b076-49fb-89d9-5fc989f3c50c","ios":"levelo://app?vid=0c86b19a-b076-49fb-89d9-5fc989f3c50c"},"vehicle_type_id":"4","last_reported":1704146778,"current_range_meters":4000,"station_id":"ce4bh512rcd13ifvqe3g","pricing_plan_id":"free"},{"bike_id":"aff40269-cc66-4bc7-b1e4-38a0b00b81dd","system_id":"levelo_inurba_marseille","lat":43.284787,"lon":5.384116,"is_reserved":false,"is_disabled":false,"rental_uris":{"android":"levelo://app?vid=aff40269-cc66-4bc7-b1e4-38a0b00b81dd","ios":"levelo://app?vid=aff40269-cc66-4bc7-b1e4-38a0b00b81dd"},"vehicle_type_id":"4","last_reported":1704146778,"current_range_meters":27600,"station_id":"ce4bh512rcd13ifvqe3g","pricing_plan_id":"free"},{"bike_id":"6b9ed589-6f26-42df-bd0b-7c82b3041bc5","system_id":"levelo_inurba_marseille","lat":43.288501,"lon":5.393087,"is_reserved":false,"is_disabled":false,"rental_uris":{"android":"levelo://app?vid=6b9ed589-6f26-42df-bd0b-7c82b3041bc5","ios":"levelo://app?vid=6b9ed589-6f26-42df-bd0b-7c82b3041bc5"},"vehicle_type_id":"4","last_reported":1704146778,"current_range_meters":26000,"station_id":"ce4bh2p2rcd13ifvqdi0","pricing_plan_id":"free"},{"bike_id":"b933f9b8-992b-453d-b0d8-fdbbfd13d70b","system_id":"levelo_inurba_marseille","lat":43.288501,"lon":5.393087,"is_reserved":false,"is_disabled":false,"rental_uris":{"android":"levelo://app?vid=b933f9b8-992b-453d-b0d8-fdbbfd13d70b","ios":"levelo://app?vid=b933f9b8-992b-453d-b0d8-fdbbfd13d70b"},"vehicle_type_id":"4","last_reported":1704146778,"current_range_meters":31200,"station_id":"ce4bh2p2rcd13ifvqdi0","pricing_plan_id":"free"},{"bike_id":"649fc628-7f55-4c0e-b7e0-bcac1f858887","system_id":"levelo_inurba_marseille","lat":43.283498,"lon":5.380948,"is_reserved":false,"is_disabled":false,"rental_uris":{"android":"levelo://app?vid=649fc628-7f55-4c0e-b7e0-bcac1f858887","ios":"levelo://app?vid=649fc628-7f55-4c0e-b7e0-bcac1f858887"},"vehicle_type_id":"4","last_reported":1704146778,"current_range_meters":30000,"station_id":"ce4bh412rcd13ifvqdr0","pricing_plan_id":"free"},{"bike_id":"5e0a3a31-1611-4ad7-90ec-0847b4d27440","system_id":"levelo_inurba_marseille","lat":43.283494,"lon":5.380945,"is_reserved":false,"is_disabled":false,"rental_uris":{"android":"levelo://app?vid=5e0a3a31-1611-4ad7-90ec-0847b4d27440","ios":"levelo://app?vid=5e0a3a31-1611-4ad7-90ec-0847b4d27440"},"vehicle_type_id":"4","last_reported":1704146778,"current_range_meters":28000,"station_id":"ce4bh412rcd13ifvqdr0","pricing_plan_id":"free"},{"bike_id":"4c8f05f5-a174-426e-99ed-8ae624f5e060","system_id":"levelo_inurba_marseille","lat":43.288501,"lon":5.393087,"is_reserved":false,"is_disabled":false,"rental_uris":{"android":"levelo://app?vid=4c8f05f5-a174-426e-99ed-8ae624f5e060","ios":"levelo://app?vid=4c8f05f5-a174-426e-99ed-8ae624f5e060"},"vehicle_type_id":"4","last_reported":1704146778,"current_range_meters":13600,"station_id":"ce4bh2p2rcd13ifvqdi0","pricing_plan_id":"free"},{"bike_id":"7af9ce95-b79e-48f2-b2b4-0cc9d54540e8","system_id":"levelo_inurba_marseille","lat":43.289363,"lon":5.396322,"is_reserved":false,"is_disabled":false,"rental_uris":{"android":"levelo://app?vid=7af9ce95-b79e-48f2-b2b4-0cc9d54540e8","ios":"levelo://app?vid=7af9ce95-b79e-48f2-b2b4-0cc9d54540e8"},"vehicle_type_id":"4","last_reported":1704146778,"current_range_meters":22800,"station_id":"ce4bh3h2rcd13ifvqdn0","pricing_plan_id":"free"},{"bike_id":"3e258610-6eff-4e6f-b814-aa40590a9d46","system_id":"levelo_inurba_marseille","lat":43.289363,"lon":5.396322,"is_reserved":false,"is_disabled":false,"rental_uris":{"android":"levelo://app?vid=3e258610-6eff-4e6f-b814-aa40590a9d46","ios":"levelo://app?vid=3e258610-6eff-4e6f-b814-aa40590a9d46"},"vehicle_type_id":"4","last_reported":1704146778,"current_range_meters":32000,"station_id":"ce4bh3h2rcd13ifvqdn0","pricing_plan_id":"free"},{"bike_id":"c4d859be-cfea-4574-a77b-9c0c91cfc1ff","system_id":"levelo_inurba_marseille","lat":43.292724,"lon":5.401131,"is_reserved":false,"is_disabled":false,"rental_uris":{"android":"levelo://app?vid=c4d859be-cfea-4574-a77b-9c0c91cfc1ff","ios":"levelo://app?vid=c4d859be-cfea-4574-a77b-9c0c91cfc1ff"},"vehicle_type_id":"4","last_reported":1704146778,"current_range_meters":31200,"station_id":"ce4bh312rcd13ifvqdk0","pricing_plan_id":"free"},{"bike_id":"ec59e97b-d94f-467f-87b5-afc455867b73","system_id":"levelo_inurba_marseille","lat":43.292724,"lon":5.401131,"is_reserved":false,"is_disabled":false,"rental_uris":{"android":"levelo://app?vid=ec59e97b-d94f-467f-87b5-afc455867b73","ios":"levelo://app?vid=ec59e97b-d94f-467f-87b5-afc455867b73"},"vehicle_type_id":"4","last_reported":1704146778,"current_range_meters":27600,"station_id":"ce4bh312rcd13ifvqdk0","pricing_plan_id":"free"},{"bike_id":"845699c8-8ba1-4c90-b2ee-2c2147f8e0fe","system_id":"levelo_inurba_marseille","lat":43.292724,"lon":5.401131,"is_reserved":false,"is_disabled":false,"rental_uris":{"android":"levelo://app?vid=845699c8-8ba1-4c90-b2ee-2c2147f8e0fe","ios":"levelo://app?vid=845699c8-8ba1-4c90-b2ee-2c2147f8e0fe"},"vehicle_type_id":"4","last_reported":1704146778,"current_range_meters":4400,"station_id":"ce4bh312rcd13ifvqdk0","pricing_plan_id":"free"},{"bike_id":"2c933ba4-f850-42f7-9b35-c2cb2fe93a2b","system_id":"levelo_inurba_marseille","lat":43.292724,"lon":5.401131,"is_reserved":false,"is_disabled":false,"rental_uris":{"android":"levelo://app?vid=2c933ba4-f850-42f7-9b35-c2cb2fe93a2b","ios":"levelo://app?vid=2c933ba4-f850-42f7-9b35-c2cb2fe93a2b"},"vehicle_type_id":"4","last_reported":1704146778,"current_range_meters":28000,"station_id":"ce4bh312rcd13ifvqdk0","pricing_plan_id":"free"},{"bike_id":"1f5da6bb-f49f-4baa-a5b1-8de9d892bfab","system_id":"levelo_inurba_marseille","lat":43.2928,"lon":5.40132,"is_reserved":false,"is_disabled":false,"rental_uris":{"android":"levelo://app?vid=1f5da6bb-f49f-4baa-a5b1-8de9d892bfab","ios":"levelo://app?vid=1f5da6bb-f49f-4baa-a5b1-8de9d892bfab"},"vehicle_type_id":"4","last_reported":1704146778,"current_range_meters":14000,"station_id":"ce4bh312rcd13ifvqdk0","pricing_plan_id":"free"},{"bike_id":"3e52ba98-a074-4115-bfe1-6d6d2ca2f3a5","system_id":"levelo_inurba_marseille","lat":43.28269,"lon":5.35067,"is_reserved":false,"is_disabled":false,"rental_uris":{"android":"levelo://app?vid=3e52ba98-a074-4115-bfe1-6d6d2ca2f3a5","ios":"levelo://app?vid=3e52ba98-a074-4115-bfe1-6d6d2ca2f3a5"},"vehicle_type_id":"4","last_reported":1704146778,"current_range_meters":24000,"station_id":"ce4bhbp2rcd13ifvqerg","pricing_plan_id":"free"},{"bike_id":"c43aa574-a203-4e6f-b97e-125a5a276c8a","system_id":"levelo_inurba_marseille","lat":43.282666,"lon":5.350698,"is_reserved":false,"is_disabled":false,"rental_uris":{"android":"levelo://app?vid=c43aa574-a203-4e6f-b97e-125a5a276c8a","ios":"levelo://app?vid=c43aa574-a203-4e6f-b97e-125a5a276c8a"},"vehicle_type_id":"4","last_reported":1704146778,"current_range_meters":21200,"station_id":"ce4bhbp2rcd13ifvqerg","pricing_plan_id":"free"},{"bike_id":"8913abf8-ddf3-4e9b-b726-65d57b9d37fb","system_id":"levelo_inurba_marseille","lat":43.28266,"lon":5.35071,"is_reserved":false,"is_disabled":false,"rental_uris":{"android":"levelo://app?vid=8913abf8-ddf3-4e9b-b726-65d57b9d37fb","ios":"levelo://app?vid=8913abf8-ddf3-4e9b-b726-65d57b9d37fb"},"vehicle_type_id":"4","last_reported":1704146778,"current_range_meters":21600,"station_id":"ce4bhbp2rcd13ifvqerg","pricing_plan_id":"free"},{"bike_id":"afc2f573-2d62-4a8a-97b6-80afebf4ed73","system_id":"levelo_inurba_marseille","lat":43.28265,"lon":5.35069,"is_reserved":false,"is_disabled":false,"rental_uris":{"android":"levelo://app?vid=afc2f573-2d62-4a8a-97b6-80afebf4ed73","ios":"levelo://app?vid=afc2f573-2d62-4a8a-97b6-80afebf4ed73"},"vehicle_type_id":"4","last_reported":1704146778,"current_range_meters":0,"station_id":"ce4bhbp2rcd13ifvqerg","pricing_plan_id":"free"},{"bike_id":"d4a99b15-ffd5-4c64-9d34-1f5637e193b3","system_id":"levelo_inurba_marseille","lat":43.28266,"lon":5.35065,"is_reserved":false,"is_disabled":false,"rental_uris":{"android":"levelo://app?vid=d4a99b15-ffd5-4c64-9d34-1f5637e193b3","ios":"levelo://app?vid=d4a99b15-ffd5-4c64-9d34-1f5637e193b3"},"vehicle_type_id":"4","last_reported":1704146778,"current_range_meters":9600,"station_id":"ce4bhbp2rcd13ifvqerg","pricing_plan_id":"free"},{"bike_id":"04c1a441-53e3-4601-88a7-848ed802246b","system_id":"levelo_inurba_marseille","lat":43.28266,"lon":5.35065,"is_reserved":false,"is_disabled":false,"rental_uris":{"android":"levelo://app?vid=04c1a441-53e3-4601-88a7-848ed802246b","ios":"levelo://app?vid=04c1a441-53e3-4601-88a7-848ed802246b"},"vehicle_type_id":"4","last_reported":1704146778,"current_range_meters":20400,"station_id":"ce4bhbp2rcd13ifvqerg","pricing_plan_id":"free"},{"bike_id":"618febdd-8c1e-4c00-99b2-e58cf8ed81ba","system_id":"levelo_inurba_marseille","lat":43.28039,"lon":5.369297,"is_reserved":false,"is_disabled":false,"rental_uris":{"android":"levelo://app?vid=618febdd-8c1e-4c00-99b2-e58cf8ed81ba","ios":"levelo://app?vid=618febdd-8c1e-4c00-99b2-e58cf8ed81ba"},"vehicle_type_id":"4","last_reported":1704146778,"current_range_meters":7200,"station_id":"ce4bha12rcd13ifvqef0","pricing_plan_id":"free"},{"bike_id":"df044df3-dc84-4895-9b9a-0c47d09763a4","system_id":"levelo_inurba_marseille","lat":43.28039,"lon":5.369297,"is_reserved":false,"is_disabled":false,"rental_uris":{"android":"levelo://app?vid=df044df3-dc84-4895-9b9a-0c47d09763a4","ios":"levelo://app?vid=df044df3-dc84-4895-9b9a-0c47d09763a4"},"vehicle_type_id":"4","last_reported":1704146778,"current_range_meters":31200,"station_id":"ce4bha12rcd13ifvqef0","pricing_plan_id":"free"},{"bike_id":"ddbed741-34fd-45ec-bd1c-bb6b657f8649","system_id":"levelo_inurba_marseille","lat":43.290412,"lon":5.399633,"is_reserved":false,"is_disabled":false,"rental_uris":{"android":"levelo://app?vid=ddbed741-34fd-45ec-bd1c-bb6b657f8649","ios":"levelo://app?vid=ddbed741-34fd-45ec-bd1c-bb6b657f8649"},"vehicle_type_id":"4","last_reported":1704146778,"current_range_meters":23200,"station_id":"ce4bh392rcd13ifvqdm0","pricing_plan_id":"free"},{"bike_id":"7a1beebc-52c8-47ad-9484-9d71ab7861e3","system_id":"levelo_inurba_marseille","lat":43.28039,"lon":5.369297,"is_reserved":false,"is_disabled":false,"rental_uris":{"android":"levelo://app?vid=7a1beebc-52c8-47ad-9484-9d71ab7861e3","ios":"levelo://app?vid=7a1beebc-52c8-47ad-9484-9d71ab7861e3"},"vehicle_type_id":"4","last_reported":1704146778,"current_range_meters":25200,"station_id":"ce4bha12rcd13ifvqef0","pricing_plan_id":"free"},{"bike_id":"71bfa987-0717-402c-90fc-719984464e12","system_id":"levelo_inurba_marseille","lat":43.280382,"lon":5.369291,"is_reserved":false,"is_disabled":false,"rental_uris":{"android":"levelo://app?vid=71bfa987-0717-402c-90fc-719984464e12","ios":"levelo://app?vid=71bfa987-0717-402c-90fc-719984464e12"},"vehicle_type_id":"4","last_reported":1704146778,"current_range_meters":28800,"station_id":"ce4bha12rcd13ifvqef0","pricing_plan_id":"free"},{"bike_id":"eeb5ffd9-6b2f-4291-938e-5d1548007c27","system_id":"levelo_inurba_marseille","lat":43.284462,"lon":5.392121,"is_reserved":false,"is_disabled":false,"rental_uris":{"android":"levelo://app?vid=eeb5ffd9-6b2f-4291-938e-5d1548007c27","ios":"levelo://app?vid=eeb5ffd9-6b2f-4291-938e-5d1548007c27"},"vehicle_type_id":"4","last_reported":1704146778,"current_range_meters":29200,"station_id":"ce4bhoh2rcd13ifvqh5g","pricing_plan_id":"free"},{"bike_id":"68c20912-58b4-4df3-b5cf-2c78f8b21a4c","system_id":"levelo_inurba_marseille","lat":43.285742,"lon":5.395004,"is_reserved":false,"is_disabled":false,"rental_uris":{"android":"levelo://app?vid=68c20912-58b4-4df3-b5cf-2c78f8b21a4c","ios":"levelo://app?vid=68c20912-58b4-4df3-b5cf-2c78f8b21a4c"},"vehicle_type_id":"4","last_reported":1704146778,"current_range_meters":17600,"station_id":"ce4bh292rcd13ifvqdg0","pricing_plan_id":"free"},{"bike_id":"d6c9d56f-5a1e-4097-a2f2-c1bc2bc8b0e2","system_id":"levelo_inurba_marseille","lat":43.30419,"lon":5.41282,"is_reserved":false,"is_disabled":false,"rental_uris":{"android":"levelo://app?vid=d6c9d56f-5a1e-4097-a2f2-c1bc2bc8b0e2","ios":"levelo://app?vid=d6c9d56f-5a1e-4097-a2f2-c1bc2bc8b0e2"},"vehicle_type_id":"4","last_reported":1704146778,"current_range_meters":11600,"station_id":"ce4bhop2rcd13ifvqh8g","pricing_plan_id":"free"},{"bike_id":"4b79bdfe-9847-41bd-8b5d-fe96623da8a2","system_id":"levelo_inurba_marseille","lat":43.279087,"lon":5.380114,"is_reserved":false,"is_disabled":false,"rental_uris":{"android":"levelo://app?vid=4b79bdfe-9847-41bd-8b5d-fe96623da8a2","ios":"levelo://app?vid=4b79bdfe-9847-41bd-8b5d-fe96623da8a2"},"vehicle_type_id":"4","last_reported":1704146778,"current_range_meters":21200,"station_id":"ce4bhf92rcd13ifvqf50","pricing_plan_id":"free"},{"bike_id":"8571ddf1-8157-46ba-b747-ea46713afd05","system_id":"levelo_inurba_marseille","lat":43.292908,"lon":5.406576,"is_reserved":false,"is_disabled":false,"rental_uris":{"android":"levelo://app?vid=8571ddf1-8157-46ba-b747-ea46713afd05","ios":"levelo://app?vid=8571ddf1-8157-46ba-b747-ea46713afd05"},"vehicle_type_id":"4","last_reported":1704146778,"current_range_meters":2400,"station_id":"","pricing_plan_id":"free"},{"bike_id":"a727640c-5568-4228-bf01-47f754027641","system_id":"levelo_inurba_marseille","lat":43.279087,"lon":5.380114,"is_reserved":false,"is_disabled":false,"rental_uris":{"android":"levelo://app?vid=a727640c-5568-4228-bf01-47f754027641","ios":"levelo://app?vid=a727640c-5568-4228-bf01-47f754027641"},"vehicle_type_id":"4","last_reported":1704146778,"current_range_meters":18000,"station_id":"ce4bhf92rcd13ifvqf50","pricing_plan_id":"free"},{"bike_id":"a6a7e3be-4759-45c3-909b-66024c2e309b","system_id":"levelo_inurba_marseille","lat":43.279087,"lon":5.380114,"is_reserved":false,"is_disabled":false,"rental_uris":{"android":"levelo://app?vid=a6a7e3be-4759-45c3-909b-66024c2e309b","ios":"levelo://app?vid=a6a7e3be-4759-45c3-909b-66024c2e309b"},"vehicle_type_id":"4","last_reported":1704146778,"current_range_meters":25600,"station_id":"ce4bhf92rcd13ifvqf50","pricing_plan_id":"free"},{"bike_id":"c25adcf8-98fc-454b-a99d-391c26d666c5","system_id":"levelo_inurba_marseille","lat":43.279087,"lon":5.380114,"is_reserved":false,"is_disabled":false,"rental_uris":{"android":"levelo://app?vid=c25adcf8-98fc-454b-a99d-391c26d666c5","ios":"levelo://app?vid=c25adcf8-98fc-454b-a99d-391c26d666c5"},"vehicle_type_id":"4","last_reported":1704146778,"current_range_meters":29200,"station_id":"ce4bhf92rcd13ifvqf50","pricing_plan_id":"free"},{"bike_id":"350191a7-967f-4300-951e-fb56229756b1","system_id":"levelo_inurba_marseille","lat":43.287154,"lon":5.399979,"is_reserved":false,"is_disabled":false,"rental_uris":{"android":"levelo://app?vid=350191a7-967f-4300-951e-fb56229756b1","ios":"levelo://app?vid=350191a7-967f-4300-951e-fb56229756b1"},"vehicle_type_id":"4","last_reported":1704146778,"current_range_meters":12400,"station_id":"ce4bho92rcd13ifvqh3g","pricing_plan_id":"free"},{"bike_id":"8ac5f70f-ef3b-47c3-81be-ad0eaf6a4eee","system_id":"levelo_inurba_marseille","lat":43.279087,"lon":5.380114,"is_reserved":false,"is_disabled":false,"rental_uris":{"android":"levelo://app?vid=8ac5f70f-ef3b-47c3-81be-ad0eaf6a4eee","ios":"levelo://app?vid=8ac5f70f-ef3b-47c3-81be-ad0eaf6a4eee"},"vehicle_type_id":"4","last_reported":1704146778,"current_range_meters":30000,"station_id":"ce4bhf92rcd13ifvqf50","pricing_plan_id":"free"},{"bike_id":"6ab1eb21-5fc9-4a40-8cf3-84df6f49223f","system_id":"levelo_inurba_marseille","lat":43.292571,"lon":5.409107,"is_reserved":false,"is_disabled":false,"rental_uris":{"android":"levelo://app?vid=6ab1eb21-5fc9-4a40-8cf3-84df6f49223f","ios":"levelo://app?vid=6ab1eb21-5fc9-4a40-8cf3-84df6f49223f"},"vehicle_type_id":"4","last_reported":1704146778,"current_range_meters":24800,"station_id":"ce4bh192rcd13ifvqdc0","pricing_plan_id":"free"},{"bike_id":"d3abb5f8-8a93-4a1e-982d-f1affaa007d8","system_id":"levelo_inurba_marseille","lat":43.29262,"lon":5.4091,"is_reserved":false,"is_disabled":false,"rental_uris":{"android":"levelo://app?vid=d3abb5f8-8a93-4a1e-982d-f1affaa007d8","ios":"levelo://app?vid=d3abb5f8-8a93-4a1e-982d-f1affaa007d8"},"vehicle_type_id":"4","last_reported":1704146778,"current_range_meters":19200,"station_id":"ce4bh192rcd13ifvqdc0","pricing_plan_id":"free"},{"bike_id":"e9c939c1-e7b7-4411-874f-b5412405cb59","system_id":"levelo_inurba_marseille","lat":43.292571,"lon":5.409107,"is_reserved":false,"is_disabled":false,"rental_uris":{"android":"levelo://app?vid=e9c939c1-e7b7-4411-874f-b5412405cb59","ios":"levelo://app?vid=e9c939c1-e7b7-4411-874f-b5412405cb59"},"vehicle_type_id":"4","last_reported":1704146778,"current_range_meters":10000,"station_id":"ce4bh192rcd13ifvqdc0","pricing_plan_id":"free"},{"bike_id":"c769d66f-94d8-4a28-a38a-ab1f9d5f19c6","system_id":"levelo_inurba_marseille","lat":43.292569,"lon":5.409107,"is_reserved":false,"is_disabled":false,"rental_uris":{"android":"levelo://app?vid=c769d66f-94d8-4a28-a38a-ab1f9d5f19c6","ios":"levelo://app?vid=c769d66f-94d8-4a28-a38a-ab1f9d5f19c6"},"vehicle_type_id":"4","last_reported":1704146778,"current_range_meters":26400,"station_id":"ce4bh192rcd13ifvqdc0","pricing_plan_id":"free"},{"bike_id":"337abd5c-b011-408b-8ed0-c2d99469c95e","system_id":"levelo_inurba_marseille","lat":43.292571,"lon":5.409107,"is_reserved":false,"is_disabled":false,"rental_uris":{"android":"levelo://app?vid=337abd5c-b011-408b-8ed0-c2d99469c95e","ios":"levelo://app?vid=337abd5c-b011-408b-8ed0-c2d99469c95e"},"vehicle_type_id":"4","last_reported":1704146778,"current_range_meters":16800,"station_id":"ce4bh192rcd13ifvqdc0","pricing_plan_id":"free"},{"bike_id":"13083173-d784-4a87-850f-f602f8724e39","system_id":"levelo_inurba_marseille","lat":43.276179,"lon":5.361009,"is_reserved":false,"is_disabled":false,"rental_uris":{"android":"levelo://app?vid=13083173-d784-4a87-850f-f602f8724e39","ios":"levelo://app?vid=13083173-d784-4a87-850f-f602f8724e39"},"vehicle_type_id":"4","last_reported":1704146778,"current_range_meters":20000,"station_id":"ce4bgj92rcd13ifvqbe0","pricing_plan_id":"free"},{"bike_id":"e1838f9f-299f-437d-abd8-4f286644fe17","system_id":"levelo_inurba_marseille","lat":43.280784,"lon":5.396622,"is_reserved":false,"is_disabled":false,"rental_uris":{"android":"levelo://app?vid=e1838f9f-299f-437d-abd8-4f286644fe17","ios":"levelo://app?vid=e1838f9f-299f-437d-abd8-4f286644fe17"},"vehicle_type_id":"4","last_reported":1704146778,"current_range_meters":29200,"station_id":"ce4bho12rcd13ifvqh2g","pricing_plan_id":"free"},{"bike_id":"9443765f-359f-4674-8822-13206f57c02e","system_id":"levelo_inurba_marseille","lat":43.280751,"lon":5.396516,"is_reserved":false,"is_disabled":false,"rental_uris":{"android":"levelo://app?vid=9443765f-359f-4674-8822-13206f57c02e","ios":"levelo://app?vid=9443765f-359f-4674-8822-13206f57c02e"},"vehicle_type_id":"4","last_reported":1704146778,"current_range_meters":800,"station_id":"ce4bho12rcd13ifvqh2g","pricing_plan_id":"free"},{"bike_id":"d2a3da75-7092-415e-b8a8-ce83ba1178e9","system_id":"levelo_inurba_marseille","lat":43.280784,"lon":5.396622,"is_reserved":false,"is_disabled":false,"rental_uris":{"android":"levelo://app?vid=d2a3da75-7092-415e-b8a8-ce83ba1178e9","ios":"levelo://app?vid=d2a3da75-7092-415e-b8a8-ce83ba1178e9"},"vehicle_type_id":"4","last_reported":1704146778,"current_range_meters":20400,"station_id":"ce4bho12rcd13ifvqh2g","pricing_plan_id":"free"},{"bike_id":"c36e222f-f00c-404b-99a6-900cbe509d3f","system_id":"levelo_inurba_marseille","lat":43.280784,"lon":5.396622,"is_reserved":false,"is_disabled":false,"rental_uris":{"android":"levelo://app?vid=c36e222f-f00c-404b-99a6-900cbe509d3f","ios":"levelo://app?vid=c36e222f-f00c-404b-99a6-900cbe509d3f"},"vehicle_type_id":"4","last_reported":1704146778,"current_range_meters":23200,"station_id":"ce4bho12rcd13ifvqh2g","pricing_plan_id":"free"},{"bike_id":"c7c66d88-5168-40ed-9ce0-79223bde1b93","system_id":"levelo_inurba_marseille","lat":43.278399,"lon":5.392139,"is_reserved":false,"is_disabled":false,"rental_uris":{"android":"levelo://app?vid=c7c66d88-5168-40ed-9ce0-79223bde1b93","ios":"levelo://app?vid=c7c66d88-5168-40ed-9ce0-79223bde1b93"},"vehicle_type_id":"4","last_reported":1704146778,"current_range_meters":2800,"station_id":"ce4bhjp2rcd13ifvqga0","pricing_plan_id":"free"},{"bike_id":"a4849013-ee82-47cf-8833-d229943dd2ed","system_id":"levelo_inurba_marseille","lat":43.278399,"lon":5.392139,"is_reserved":false,"is_disabled":false,"rental_uris":{"android":"levelo://app?vid=a4849013-ee82-47cf-8833-d229943dd2ed","ios":"levelo://app?vid=a4849013-ee82-47cf-8833-d229943dd2ed"},"vehicle_type_id":"4","last_reported":1704146778,"current_range_meters":24400,"station_id":"ce4bhjp2rcd13ifvqga0","pricing_plan_id":"free"},{"bike_id":"366bd621-cb93-4be6-8982-d8deb2c3a5b1","system_id":"levelo_inurba_marseille","lat":43.275625,"lon":5.384392,"is_reserved":false,"is_disabled":false,"rental_uris":{"android":"levelo://app?vid=366bd621-cb93-4be6-8982-d8deb2c3a5b1","ios":"levelo://app?vid=366bd621-cb93-4be6-8982-d8deb2c3a5b1"},"vehicle_type_id":"4","last_reported":1704146778,"current_range_meters":22000,"station_id":"ce4bhh92rcd13ifvqfi0","pricing_plan_id":"free"},{"bike_id":"9ebd5be7-ea73-40bb-b2ae-8a925684cc42","system_id":"levelo_inurba_marseille","lat":43.273613,"lon":5.362705,"is_reserved":false,"is_disabled":false,"rental_uris":{"android":"levelo://app?vid=9ebd5be7-ea73-40bb-b2ae-8a925684cc42","ios":"levelo://app?vid=9ebd5be7-ea73-40bb-b2ae-8a925684cc42"},"vehicle_type_id":"4","last_reported":1704146778,"current_range_meters":30000,"station_id":"ce4bhbh2rcd13ifvqeo0","pricing_plan_id":"free"},{"bike_id":"25ffceac-3663-4d81-b210-abe9cfb88bd6","system_id":"levelo_inurba_marseille","lat":43.336134,"lon":5.410341,"is_reserved":false,"is_disabled":false,"rental_uris":{"android":"levelo://app?vid=25ffceac-3663-4d81-b210-abe9cfb88bd6","ios":"levelo://app?vid=25ffceac-3663-4d81-b210-abe9cfb88bd6"},"vehicle_type_id":"4","last_reported":1704146778,"current_range_meters":27600,"station_id":"ce4bhqh2rcd13ifvqhmg","pricing_plan_id":"free"},{"bike_id":"7b1fcede-406d-46dc-8352-1f68d5d2cd2b","system_id":"levelo_inurba_marseille","lat":43.336134,"lon":5.410341,"is_reserved":false,"is_disabled":false,"rental_uris":{"android":"levelo://app?vid=7b1fcede-406d-46dc-8352-1f68d5d2cd2b","ios":"levelo://app?vid=7b1fcede-406d-46dc-8352-1f68d5d2cd2b"},"vehicle_type_id":"4","last_reported":1704146778,"current_range_meters":12800,"station_id":"ce4bhqh2rcd13ifvqhmg","pricing_plan_id":"free"},{"bike_id":"5ab36c7d-6ac4-4cea-b685-4fd9c3d7b95e","system_id":"levelo_inurba_marseille","lat":43.275625,"lon":5.384392,"is_reserved":false,"is_disabled":false,"rental_uris":{"android":"levelo://app?vid=5ab36c7d-6ac4-4cea-b685-4fd9c3d7b95e","ios":"levelo://app?vid=5ab36c7d-6ac4-4cea-b685-4fd9c3d7b95e"},"vehicle_type_id":"4","last_reported":1704146778,"current_range_meters":28400,"station_id":"ce4bhh92rcd13ifvqfi0","pricing_plan_id":"free"},{"bike_id":"9152138b-ccc3-4ffc-ab53-b52f69a25930","system_id":"levelo_inurba_marseille","lat":43.275625,"lon":5.384392,"is_reserved":false,"is_disabled":false,"rental_uris":{"android":"levelo://app?vid=9152138b-ccc3-4ffc-ab53-b52f69a25930","ios":"levelo://app?vid=9152138b-ccc3-4ffc-ab53-b52f69a25930"},"vehicle_type_id":"4","last_reported":1704146778,"current_range_meters":26400,"station_id":"ce4bhh92rcd13ifvqfi0","pricing_plan_id":"free"},{"bike_id":"838e390a-0d2f-44c2-87a4-d40aabcd8ccc","system_id":"levelo_inurba_marseille","lat":43.27671,"lon":5.389198,"is_reserved":false,"is_disabled":false,"rental_uris":{"android":"levelo://app?vid=838e390a-0d2f-44c2-87a4-d40aabcd8ccc","ios":"levelo://app?vid=838e390a-0d2f-44c2-87a4-d40aabcd8ccc"},"vehicle_type_id":"4","last_reported":1704146778,"current_range_meters":0,"station_id":"","pricing_plan_id":"free"},{"bike_id":"b2e64161-bed0-442d-9e12-361d365ea82c","system_id":"levelo_inurba_marseille","lat":43.279952,"lon":5.400085,"is_reserved":false,"is_disabled":false,"rental_uris":{"android":"levelo://app?vid=b2e64161-bed0-442d-9e12-361d365ea82c","ios":"levelo://app?vid=b2e64161-bed0-442d-9e12-361d365ea82c"},"vehicle_type_id":"4","last_reported":1704146778,"current_range_meters":25600,"station_id":"ce4bho92rcd13ifvqh4g","pricing_plan_id":"free"},{"bike_id":"10138671-53c0-4b5d-8766-8e229bb45b07","system_id":"levelo_inurba_marseille","lat":43.317121,"lon":5.423936,"is_reserved":false,"is_disabled":false,"rental_uris":{"android":"levelo://app?vid=10138671-53c0-4b5d-8766-8e229bb45b07","ios":"levelo://app?vid=10138671-53c0-4b5d-8766-8e229bb45b07"},"vehicle_type_id":"4","last_reported":1704146778,"current_range_meters":14800,"station_id":"ce4bhp92rcd13ifvqhbg","pricing_plan_id":"free"},{"bike_id":"4760841b-4fd7-4b7d-aef3-782de75b0909","system_id":"levelo_inurba_marseille","lat":43.317121,"lon":5.423936,"is_reserved":false,"is_disabled":false,"rental_uris":{"android":"levelo://app?vid=4760841b-4fd7-4b7d-aef3-782de75b0909","ios":"levelo://app?vid=4760841b-4fd7-4b7d-aef3-782de75b0909"},"vehicle_type_id":"4","last_reported":1704146778,"current_range_meters":24800,"station_id":"ce4bhp92rcd13ifvqhbg","pricing_plan_id":"free"},{"bike_id":"f3e351f0-7ca3-497e-a450-69da3118abd7","system_id":"levelo_inurba_marseille","lat":43.31717,"lon":5.42395,"is_reserved":false,"is_disabled":false,"rental_uris":{"android":"levelo://app?vid=f3e351f0-7ca3-497e-a450-69da3118abd7","ios":"levelo://app?vid=f3e351f0-7ca3-497e-a450-69da3118abd7"},"vehicle_type_id":"4","last_reported":1704146778,"current_range_meters":27600,"station_id":"ce4bhp92rcd13ifvqhbg","pricing_plan_id":"free"},{"bike_id":"95620b28-48e0-40ed-8f4c-f7654a31b6da","system_id":"levelo_inurba_marseille","lat":43.31716,"lon":5.42396,"is_reserved":false,"is_disabled":false,"rental_uris":{"android":"levelo://app?vid=95620b28-48e0-40ed-8f4c-f7654a31b6da","ios":"levelo://app?vid=95620b28-48e0-40ed-8f4c-f7654a31b6da"},"vehicle_type_id":"4","last_reported":1704146778,"current_range_meters":23200,"station_id":"ce4bhp92rcd13ifvqhbg","pricing_plan_id":"free"},{"bike_id":"c8e7703b-2edf-4796-b45d-2438019a9059","system_id":"levelo_inurba_marseille","lat":43.317121,"lon":5.423936,"is_reserved":false,"is_disabled":false,"rental_uris":{"android":"levelo://app?vid=c8e7703b-2edf-4796-b45d-2438019a9059","ios":"levelo://app?vid=c8e7703b-2edf-4796-b45d-2438019a9059"},"vehicle_type_id":"4","last_reported":1704146778,"current_range_meters":12400,"station_id":"ce4bhp92rcd13ifvqhbg","pricing_plan_id":"free"},{"bike_id":"5e3452d0-bbc8-463b-8852-ec98e809d5a0","system_id":"levelo_inurba_marseille","lat":43.317121,"lon":5.423936,"is_reserved":false,"is_disabled":false,"rental_uris":{"android":"levelo://app?vid=5e3452d0-bbc8-463b-8852-ec98e809d5a0","ios":"levelo://app?vid=5e3452d0-bbc8-463b-8852-ec98e809d5a0"},"vehicle_type_id":"4","last_reported":1704146778,"current_range_meters":31200,"station_id":"ce4bhp92rcd13ifvqhbg","pricing_plan_id":"free"},{"bike_id":"e2340435-a767-4a07-9db0-637fd4bce462","system_id":"levelo_inurba_marseille","lat":43.317121,"lon":5.423936,"is_reserved":false,"is_disabled":false,"rental_uris":{"android":"levelo://app?vid=e2340435-a767-4a07-9db0-637fd4bce462","ios":"levelo://app?vid=e2340435-a767-4a07-9db0-637fd4bce462"},"vehicle_type_id":"4","last_reported":1704146778,"current_range_meters":12800,"station_id":"ce4bhp92rcd13ifvqhbg","pricing_plan_id":"free"},{"bike_id":"d7a0f436-4a10-430d-9dfa-fb613b9a9e9c","system_id":"levelo_inurba_marseille","lat":43.340804,"lon":5.410219,"is_reserved":false,"is_disabled":false,"rental_uris":{"android":"levelo://app?vid=d7a0f436-4a10-430d-9dfa-fb613b9a9e9c","ios":"levelo://app?vid=d7a0f436-4a10-430d-9dfa-fb613b9a9e9c"},"vehicle_type_id":"4","last_reported":1704146778,"current_range_meters":19600,"station_id":"ce4bhqh2rcd13ifvqhlg","pricing_plan_id":"free"},{"bike_id":"0b58813f-f92e-40a9-9622-0bc5db8ae6da","system_id":"levelo_inurba_marseille","lat":43.340804,"lon":5.410219,"is_reserved":false,"is_disabled":false,"rental_uris":{"android":"levelo://app?vid=0b58813f-f92e-40a9-9622-0bc5db8ae6da","ios":"levelo://app?vid=0b58813f-f92e-40a9-9622-0bc5db8ae6da"},"vehicle_type_id":"4","last_reported":1704146778,"current_range_meters":27200,"station_id":"ce4bhqh2rcd13ifvqhlg","pricing_plan_id":"free"},{"bike_id":"23645ffb-3d22-4d14-90ba-f964f46297dd","system_id":"levelo_inurba_marseille","lat":43.273129,"lon":5.390725,"is_reserved":false,"is_disabled":false,"rental_uris":{"android":"levelo://app?vid=23645ffb-3d22-4d14-90ba-f964f46297dd","ios":"levelo://app?vid=23645ffb-3d22-4d14-90ba-f964f46297dd"},"vehicle_type_id":"4","last_reported":1704146778,"current_range_meters":27200,"station_id":"ce4bhgp2rcd13ifvqfe0","pricing_plan_id":"free"},{"bike_id":"37b922a5-9698-4420-9a36-80e27217d39c","system_id":"levelo_inurba_marseille","lat":43.295511,"lon":5.422926,"is_reserved":false,"is_disabled":false,"rental_uris":{"android":"levelo://app?vid=37b922a5-9698-4420-9a36-80e27217d39c","ios":"levelo://app?vid=37b922a5-9698-4420-9a36-80e27217d39c"},"vehicle_type_id":"4","last_reported":1704146778,"current_range_meters":17200,"station_id":"ce4bhph2rcd13ifvqhdg","pricing_plan_id":"free"},{"bike_id":"13040132-ee55-430d-812f-c961d418943f","system_id":"levelo_inurba_marseille","lat":43.278128,"lon":5.407195,"is_reserved":false,"is_disabled":false,"rental_uris":{"android":"levelo://app?vid=13040132-ee55-430d-812f-c961d418943f","ios":"levelo://app?vid=13040132-ee55-430d-812f-c961d418943f"},"vehicle_type_id":"4","last_reported":1704146778,"current_range_meters":22800,"station_id":"ce4bhnh2rcd13ifvqgtg","pricing_plan_id":"free"},{"bike_id":"929c2ab8-fd5f-4824-b5df-6b7ce73665b3","system_id":"levelo_inurba_marseille","lat":43.278128,"lon":5.407195,"is_reserved":false,"is_disabled":false,"rental_uris":{"android":"levelo://app?vid=929c2ab8-fd5f-4824-b5df-6b7ce73665b3","ios":"levelo://app?vid=929c2ab8-fd5f-4824-b5df-6b7ce73665b3"},"vehicle_type_id":"4","last_reported":1704146778,"current_range_meters":17200,"station_id":"ce4bhnh2rcd13ifvqgtg","pricing_plan_id":"free"},{"bike_id":"92c62140-6073-4b50-887d-f4ed58f8da74","system_id":"levelo_inurba_marseille","lat":43.278128,"lon":5.407195,"is_reserved":false,"is_disabled":false,"rental_uris":{"android":"levelo://app?vid=92c62140-6073-4b50-887d-f4ed58f8da74","ios":"levelo://app?vid=92c62140-6073-4b50-887d-f4ed58f8da74"},"vehicle_type_id":"4","last_reported":1704146778,"current_range_meters":25600,"station_id":"ce4bhnh2rcd13ifvqgtg","pricing_plan_id":"free"},{"bike_id":"6643d885-b0e1-4a04-880c-0504ee655bba","system_id":"levelo_inurba_marseille","lat":43.279465,"lon":5.410561,"is_reserved":false,"is_disabled":false,"rental_uris":{"android":"levelo://app?vid=6643d885-b0e1-4a04-880c-0504ee655bba","ios":"levelo://app?vid=6643d885-b0e1-4a04-880c-0504ee655bba"},"vehicle_type_id":"4","last_reported":1704146778,"current_range_meters":24800,"station_id":"ce4bhnp2rcd13ifvqh0g","pricing_plan_id":"free"},{"bike_id":"425f9578-de78-4e61-bdf4-7cfac3cad89a","system_id":"levelo_inurba_marseille","lat":43.279465,"lon":5.410561,"is_reserved":false,"is_disabled":false,"rental_uris":{"android":"levelo://app?vid=425f9578-de78-4e61-bdf4-7cfac3cad89a","ios":"levelo://app?vid=425f9578-de78-4e61-bdf4-7cfac3cad89a"},"vehicle_type_id":"4","last_reported":1704146778,"current_range_meters":24000,"station_id":"ce4bhnp2rcd13ifvqh0g","pricing_plan_id":"free"},{"bike_id":"eb71eee8-9296-480a-a031-8d136b3bb877","system_id":"levelo_inurba_marseille","lat":43.27996,"lon":5.416624,"is_reserved":false,"is_disabled":false,"rental_uris":{"android":"levelo://app?vid=eb71eee8-9296-480a-a031-8d136b3bb877","ios":"levelo://app?vid=eb71eee8-9296-480a-a031-8d136b3bb877"},"vehicle_type_id":"4","last_reported":1704146778,"current_range_meters":30000,"station_id":"ce4bho12rcd13ifvqh1g","pricing_plan_id":"free"},{"bike_id":"4e7b82a4-f271-4a72-bdbd-460d1cfbd58d","system_id":"levelo_inurba_marseille","lat":43.27181,"lon":5.404997,"is_reserved":false,"is_disabled":false,"rental_uris":{"android":"levelo://app?vid=4e7b82a4-f271-4a72-bdbd-460d1cfbd58d","ios":"levelo://app?vid=4e7b82a4-f271-4a72-bdbd-460d1cfbd58d"},"vehicle_type_id":"4","last_reported":1704146778,"current_range_meters":8000,"station_id":"","pricing_plan_id":"free"},{"bike_id":"511b244d-ddb7-4bcb-8b9e-8180a534b8be","system_id":"levelo_inurba_marseille","lat":43.265571,"lon":5.390032,"is_reserved":false,"is_disabled":false,"rental_uris":{"android":"levelo://app?vid=511b244d-ddb7-4bcb-8b9e-8180a534b8be","ios":"levelo://app?vid=511b244d-ddb7-4bcb-8b9e-8180a534b8be"},"vehicle_type_id":"4","last_reported":1704146778,"current_range_meters":9200,"station_id":"ce4bhe12rcd13ifvqf30","pricing_plan_id":"free"},{"bike_id":"4acdea58-b679-4180-9812-65bb718e8387","system_id":"levelo_inurba_marseille","lat":43.308051,"lon":5.43527,"is_reserved":false,"is_disabled":false,"rental_uris":{"android":"levelo://app?vid=4acdea58-b679-4180-9812-65bb718e8387","ios":"levelo://app?vid=4acdea58-b679-4180-9812-65bb718e8387"},"vehicle_type_id":"4","last_reported":1704146778,"current_range_meters":26000,"station_id":"ce4bhph2rcd13ifvqheg","pricing_plan_id":"free"},{"bike_id":"45730320-d888-42aa-bc60-ab4966459db6","system_id":"levelo_inurba_marseille","lat":43.265571,"lon":5.390032,"is_reserved":false,"is_disabled":false,"rental_uris":{"android":"levelo://app?vid=45730320-d888-42aa-bc60-ab4966459db6","ios":"levelo://app?vid=45730320-d888-42aa-bc60-ab4966459db6"},"vehicle_type_id":"4","last_reported":1704146778,"current_range_meters":1200,"station_id":"ce4bhe12rcd13ifvqf30","pricing_plan_id":"free"},{"bike_id":"e8dfbbad-95af-45d8-926a-e01b199b4fdd","system_id":"levelo_inurba_marseille","lat":43.265571,"lon":5.390032,"is_reserved":false,"is_disabled":false,"rental_uris":{"android":"levelo://app?vid=e8dfbbad-95af-45d8-926a-e01b199b4fdd","ios":"levelo://app?vid=e8dfbbad-95af-45d8-926a-e01b199b4fdd"},"vehicle_type_id":"4","last_reported":1704146778,"current_range_meters":11200,"station_id":"ce4bhe12rcd13ifvqf30","pricing_plan_id":"free"},{"bike_id":"1f4c63f7-d8cf-4821-b24d-6d76ed9b0ef8","system_id":"levelo_inurba_marseille","lat":43.308051,"lon":5.43527,"is_reserved":false,"is_disabled":false,"rental_uris":{"android":"levelo://app?vid=1f4c63f7-d8cf-4821-b24d-6d76ed9b0ef8","ios":"levelo://app?vid=1f4c63f7-d8cf-4821-b24d-6d76ed9b0ef8"},"vehicle_type_id":"4","last_reported":1704146778,"current_range_meters":5600,"station_id":"ce4bhph2rcd13ifvqheg","pricing_plan_id":"free"},{"bike_id":"45edcec0-a179-4b97-9392-2ed00038e582","system_id":"levelo_inurba_marseille","lat":43.26949,"lon":5.40262,"is_reserved":false,"is_disabled":false,"rental_uris":{"android":"levelo://app?vid=45edcec0-a179-4b97-9392-2ed00038e582","ios":"levelo://app?vid=45edcec0-a179-4b97-9392-2ed00038e582"},"vehicle_type_id":"4","last_reported":1704146778,"current_range_meters":4800,"station_id":"cjm6bp8fraef2m0cb0m0","pricing_plan_id":"free"},{"bike_id":"0a414c3e-b68e-4ac4-b207-e3ea0ff06ae4","system_id":"levelo_inurba_marseille","lat":43.26949,"lon":5.40262,"is_reserved":false,"is_disabled":false,"rental_uris":{"android":"levelo://app?vid=0a414c3e-b68e-4ac4-b207-e3ea0ff06ae4","ios":"levelo://app?vid=0a414c3e-b68e-4ac4-b207-e3ea0ff06ae4"},"vehicle_type_id":"4","last_reported":1704146778,"current_range_meters":26400,"station_id":"cjm6bp8fraef2m0cb0m0","pricing_plan_id":"free"},{"bike_id":"71ebc4c6-6092-4a8c-a0cb-157046bce474","system_id":"levelo_inurba_marseille","lat":43.26949,"lon":5.40262,"is_reserved":false,"is_disabled":false,"rental_uris":{"android":"levelo://app?vid=71ebc4c6-6092-4a8c-a0cb-157046bce474","ios":"levelo://app?vid=71ebc4c6-6092-4a8c-a0cb-157046bce474"},"vehicle_type_id":"4","last_reported":1704146778,"current_range_meters":24000,"station_id":"cjm6bp8fraef2m0cb0m0","pricing_plan_id":"free"},{"bike_id":"dac5ea74-92f7-462e-b536-31f322bb01c0","system_id":"levelo_inurba_marseille","lat":43.331893,"lon":5.431791,"is_reserved":false,"is_disabled":false,"rental_uris":{"android":"levelo://app?vid=dac5ea74-92f7-462e-b536-31f322bb01c0","ios":"levelo://app?vid=dac5ea74-92f7-462e-b536-31f322bb01c0"},"vehicle_type_id":"4","last_reported":1704146778,"current_range_meters":6000,"station_id":"","pricing_plan_id":"free"},{"bike_id":"8c7df74b-a509-49f1-af95-b0a69adf8f56","system_id":"levelo_inurba_marseille","lat":43.317104,"lon":5.436818,"is_reserved":false,"is_disabled":false,"rental_uris":{"android":"levelo://app?vid=8c7df74b-a509-49f1-af95-b0a69adf8f56","ios":"levelo://app?vid=8c7df74b-a509-49f1-af95-b0a69adf8f56"},"vehicle_type_id":"4","last_reported":1704146778,"current_range_meters":30400,"station_id":"ce4bhp92rcd13ifvqhcg","pricing_plan_id":"free"},{"bike_id":"75f7976e-6088-42b4-ac81-b6c94e0c732c","system_id":"levelo_inurba_marseille","lat":43.271388,"lon":5.409269,"is_reserved":false,"is_disabled":false,"rental_uris":{"android":"levelo://app?vid=75f7976e-6088-42b4-ac81-b6c94e0c732c","ios":"levelo://app?vid=75f7976e-6088-42b4-ac81-b6c94e0c732c"},"vehicle_type_id":"4","last_reported":1704146778,"current_range_meters":5200,"station_id":"ce4bhl12rcd13ifvqgf0","pricing_plan_id":"free"},{"bike_id":"98a526e3-602c-43e8-8f3b-176ecdf86758","system_id":"levelo_inurba_marseille","lat":43.271368,"lon":5.40928,"is_reserved":false,"is_disabled":false,"rental_uris":{"android":"levelo://app?vid=98a526e3-602c-43e8-8f3b-176ecdf86758","ios":"levelo://app?vid=98a526e3-602c-43e8-8f3b-176ecdf86758"},"vehicle_type_id":"4","last_reported":1704146778,"current_range_meters":2000,"station_id":"ce4bhl12rcd13ifvqgf0","pricing_plan_id":"free"},{"bike_id":"ee7ab66a-379b-42f5-9f44-8cf6d94bd584","system_id":"levelo_inurba_marseille","lat":43.26202,"lon":5.379299,"is_reserved":false,"is_disabled":false,"rental_uris":{"android":"levelo://app?vid=ee7ab66a-379b-42f5-9f44-8cf6d94bd584","ios":"levelo://app?vid=ee7ab66a-379b-42f5-9f44-8cf6d94bd584"},"vehicle_type_id":"4","last_reported":1704146778,"current_range_meters":30800,"station_id":"ce4bhjp2rcd13ifvqg90","pricing_plan_id":"free"},{"bike_id":"489ffe0a-afca-40a9-8027-23373921263c","system_id":"levelo_inurba_marseille","lat":43.271388,"lon":5.409269,"is_reserved":false,"is_disabled":false,"rental_uris":{"android":"levelo://app?vid=489ffe0a-afca-40a9-8027-23373921263c","ios":"levelo://app?vid=489ffe0a-afca-40a9-8027-23373921263c"},