{"last_updated":1725966443,"ttl":30,"version":"2.2","data":{"bikes":[{"bike_id":"cbbc32c5-37b0-429c-ab97-3fbb3fffaea4","system_id":"levelo_inurba_marseille","lat":43.22956,"lon":5.353419,"is_reserved":false,"is_disabled":false,"rental_uris":{"android":"levelo://app?vid=cbbc32c5-37b0-429c-ab97-3fbb3fffaea4","ios":"levelo://app?vid=cbbc32c5-37b0-429c-ab97-3fbb3fffaea4"},"vehicle_type_id":"4","last_reported":1725966443,"current_range_meters":6800,"station_id":"cpo3532slgdg3j2ikp40","pricing_plan_id":"cebpf4jnsgd1na2vs0mg"},{"bike_id":"5803e6df-0d33-4c9f-a82d-fe70c92dedc1","system_id":"levelo_inurba_marseille","lat":43.29041,"lon":5.37163,"is_reserved":false,"is_disabled":false,"rental_uris":{"android":"levelo://app?vid=5803e6df-0d33-4c9f-a82d-fe70c92dedc1","ios":"levelo://app?vid=5803e6df-0d33-4c9f-a82d-fe70c92dedc1"},"vehicle_type_id":"4","last_reported":1725966443,"current_range_meters":38800,"station_id":"ce4bh5p2rcd13ifvqe4g","pricing_plan_id":"cebpf4jnsgd1na2vs0mg"},{"bike_id":"7db9cb42-4c34-4cef-901a-ca045888084c","system_id":"levelo_inurba_marseille","lat":43.30546,"lon":5.3653,"is_reserved":false,"is_disabled":false,"rental_uris":{"android":"levelo://app?vid=7db9cb42-4c34-4cef-901a-ca045888084c","ios":"levelo://app?vid=7db9cb42-4c34-4cef-901a-ca045888084c"},"vehicle_type_id":"4","last_reported":1725966443,"current_range_meters":8000,"station_id":"ce4bgs12rcd13ifvqcag","pricing_plan_id":"cebpf4jnsgd1na2vs0mg"},{"bike_id":"893900fa-905b-44d9-b4f5-8131c552abed","system_id":"levelo_inurba_marseille","lat":43.30533,"lon":5.36712,"is_reserved":false,"is_disabled":false,"rental_uris":{"android":"levelo://app?vid=893900fa-905b-44d9-b4f5-8131c552abed","ios":"levelo://app?vid=893900fa-905b-44d9-b4f5-8131c552abed"},"vehicle_type_id":"4","last_reported":1725966443,"current_range_meters":35200,"station_id":"ce4bgrp2rcd13ifvqc9g","pricing_plan_id":"cebpf4jnsgd1na2vs0mg"},{"bike_id":"317167fb-451a-48ab-aff6-0945e2c67bfb","system_id":"levelo_inurba_marseille","lat":43.23194,"lon":5.40003,"is_reserved":false,"is_disabled":false,"rental_uris":{"android":"levelo://app?vid=317167fb-451a-48ab-aff6-0945e2c67bfb","ios":"levelo://app?vid=317167fb-451a-48ab-aff6-0945e2c67bfb"},"vehicle_type_id":"4","last_reported":1725966443,"current_range_meters":19600,"station_id":"ce4bhn12rcd13ifvqgqg","pricing_plan_id":"cebpf4jnsgd1na2vs0mg"},{"bike_id":"bc30dbe3-2402-4b3a-b5da-8f5d9a126da2","system_id":"levelo_inurba_marseille","lat":43.25915,"lon":5.40872,"is_reserved":false,"is_disabled":false,"rental_uris":{"android":"levelo://app?vid=bc30dbe3-2402-4b3a-b5da-8f5d9a126da2","ios":"levelo://app?vid=bc30dbe3-2402-4b3a-b5da-8f5d9a126da2"},"vehicle_type_id":"4","last_reported":1725966443,"current_range_meters":25600,"station_id":"ce4bhm92rcd13ifvqglg","pricing_plan_id":"cebpf4jnsgd1na2vs0mg"},{"bike_id":"9938e91c-265b-40a5-a9ee-a8a818767b92","system_id":"levelo_inurba_marseille","lat":43.24673,"lon":5.38161,"is_reserved":false,"is_disabled":false,"rental_uris":{"android":"levelo://app?vid=9938e91c-265b-40a5-a9ee-a8a818767b92","ios":"levelo://app?vid=9938e91c-265b-40a5-a9ee-a8a818767b92"},"vehicle_type_id":"4","last_reported":1725966443,"current_range_meters":14800,"station_id":"ce4bhih2rcd13ifvqfr0","pricing_plan_id":"cebpf4jnsgd1na2vs0mg"},{"bike_id":"dce47342-aca1-4a7e-b8b6-23387cd20a97","system_id":"levelo_inurba_marseille","lat":43.30549,"lon":5.36713,"is_reserved":false,"is_disabled":false,"rental_uris":{"android":"levelo://app?vid=dce47342-aca1-4a7e-b8b6-23387cd20a97","ios":"levelo://app?vid=dce47342-aca1-4a7e-b8b6-23387cd20a97"},"vehicle_type_id":"4","last_reported":1725966443,"current_range_meters":32000,"station_id":"ce4bgrp2rcd13ifvqc9g","pricing_plan_id":"cebpf4jnsgd1na2vs0mg"},{"bike_id":"b02222ec-0387-4ff5-8918-29e62bcf5a98","system_id":"levelo_inurba_marseille","lat":43.32484,"lon":5.36572,"is_reserved":false,"is_disabled":false,"rental_uris":{"android":"levelo://app?vid=b02222ec-0387-4ff5-8918-29e62bcf5a98","ios":"levelo://app?vid=b02222ec-0387-4ff5-8918-29e62bcf5a98"},"vehicle_type_id":"4","last_reported":1725966443,"current_range_meters":20800,"station_id":"ce4bhs12rcd13ifvqhvg","pricing_plan_id":"cebpf4jnsgd1na2vs0mg"},{"bike_id":"25a734f0-5a58-49fa-9e2e-761a6040d468","system_id":"levelo_inurba_marseille","lat":43.23148,"lon":5.43715,"is_reserved":false,"is_disabled":false,"rental_uris":{"android":"levelo://app?vid=25a734f0-5a58-49fa-9e2e-761a6040d468","ios":"levelo://app?vid=25a734f0-5a58-49fa-9e2e-761a6040d468"},"vehicle_type_id":"4","last_reported":1725966443,"current_range_meters":25200,"station_id":"ce4bhmp2rcd13ifvqgog","pricing_plan_id":"cebpf4jnsgd1na2vs0mg"},{"bike_id":"273bfe13-bc71-40ca-9955-e31d49cb88e0","system_id":"levelo_inurba_marseille","lat":43.23956,"lon":5.36626,"is_reserved":false,"is_disabled":false,"rental_uris":{"android":"levelo://app?vid=273bfe13-bc71-40ca-9955-e31d49cb88e0","ios":"levelo://app?vid=273bfe13-bc71-40ca-9955-e31d49cb88e0"},"vehicle_type_id":"4","last_reported":1725966443,"current_range_meters":37600,"station_id":"ce4bhi12rcd13ifvqfp0","pricing_plan_id":"cebpf4jnsgd1na2vs0mg"},{"bike_id":"ca6aed97-e86d-45ec-b114-09e6a1bfd84d","system_id":"levelo_inurba_marseille","lat":43.29786,"lon":5.37102,"is_reserved":false,"is_disabled":false,"rental_uris":{"android":"levelo://app?vid=ca6aed97-e86d-45ec-b114-09e6a1bfd84d","ios":"levelo://app?vid=ca6aed97-e86d-45ec-b114-09e6a1bfd84d"},"vehicle_type_id":"4","last_reported":1725966443,"current_range_meters":37600,"station_id":"ce4bgop2rcd13ifvqc1g","pricing_plan_id":"cebpf4jnsgd1na2vs0mg"},{"bike_id":"16cd0dcf-4345-473e-bf5c-7be705310706","system_id":"levelo_inurba_marseille","lat":43.27061,"lon":5.4227,"is_reserved":false,"is_disabled":false,"rental_uris":{"android":"levelo://app?vid=16cd0dcf-4345-473e-bf5c-7be705310706","ios":"levelo://app?vid=16cd0dcf-4345-473e-bf5c-7be705310706"},"vehicle_type_id":"4","last_reported":1725966443,"current_range_meters":35200,"station_id":"ce4bhk92rcd13ifvqgb0","pricing_plan_id":"cebpf4jnsgd1na2vs0mg"},{"bike_id":"dc8b6e4b-b7ae-47fe-871e-e18986256c73","system_id":"levelo_inurba_marseille","lat":43.30788,"lon":5.38162,"is_reserved":false,"is_disabled":false,"rental_uris":{"android":"levelo://app?vid=dc8b6e4b-b7ae-47fe-871e-e18986256c73","ios":"levelo://app?vid=dc8b6e4b-b7ae-47fe-871e-e18986256c73"},"vehicle_type_id":"4","last_reported":1725966443,"current_range_meters":2000,"station_id":"ce4bgt12rcd13ifvqce0","pricing_plan_id":"cebpf4jnsgd1na2vs0mg"},{"bike_id":"0942d3bc-a18c-46a1-a431-b07a6a76623e","system_id":"levelo_inurba_marseille","lat":43.29568,"lon":5.39968,"is_reserved":false,"is_disabled":false,"rental_uris":{"android":"levelo://app?vid=0942d3bc-a18c-46a1-a431-b07a6a76623e","ios":"levelo://app?vid=0942d3bc-a18c-46a1-a431-b07a6a76623e"},"vehicle_type_id":"4","last_reported":1725966443,"current_range_meters":8800,"station_id":"ce4bh312rcd13ifvqdj0","pricing_plan_id":"cebpf4jnsgd1na2vs0mg"},{"bike_id":"ba3351b0-b40d-4495-b526-e6c11b735fd1","system_id":"levelo_inurba_marseille","lat":43.26676,"lon":5.38265,"is_reserved":false,"is_disabled":false,"rental_uris":{"android":"levelo://app?vid=ba3351b0-b40d-4495-b526-e6c11b735fd1","ios":"levelo://app?vid=ba3351b0-b40d-4495-b526-e6c11b735fd1"},"vehicle_type_id":"4","last_reported":1725966443,"current_range_meters":18000,"station_id":"ce4bhg92rcd13ifvqf90","pricing_plan_id":"cebpf4jnsgd1na2vs0mg"},{"bike_id":"5c7e1587-0249-4cf2-a25f-67677ea61604","system_id":"levelo_inurba_marseille","lat":43.29231,"lon":5.36067,"is_reserved":false,"is_disabled":false,"rental_uris":{"android":"levelo://app?vid=5c7e1587-0249-4cf2-a25f-67677ea61604","ios":"levelo://app?vid=5c7e1587-0249-4cf2-a25f-67677ea61604"},"vehicle_type_id":"4","last_reported":1725966443,"current_range_meters":34800,"station_id":"ce4bhbh2rcd13ifvqeqg","pricing_plan_id":"cebpf4jnsgd1na2vs0mg"},{"bike_id":"c3a2d180-d8ad-4ae2-8a81-0fea96cbda98","system_id":"levelo_inurba_marseille","lat":43.29095,"lon":5.38116,"is_reserved":false,"is_disabled":false,"rental_uris":{"android":"levelo://app?vid=c3a2d180-d8ad-4ae2-8a81-0fea96cbda98","ios":"levelo://app?vid=c3a2d180-d8ad-4ae2-8a81-0fea96cbda98"},"vehicle_type_id":"4","last_reported":1725966443,"current_range_meters":26000,"station_id":"ce4bh512rcd13ifvqe2g","pricing_plan_id":"cebpf4jnsgd1na2vs0mg"},{"bike_id":"ab19811c-a902-4d59-9093-d4cac6bd552d","system_id":"levelo_inurba_marseille","lat":43.30878,"lon":5.39646,"is_reserved":false,"is_disabled":false,"rental_uris":{"android":"levelo://app?vid=ab19811c-a902-4d59-9093-d4cac6bd552d","ios":"levelo://app?vid=ab19811c-a902-4d59-9093-d4cac6bd552d"},"vehicle_type_id":"4","last_reported":1725966443,"current_range_meters":34800,"station_id":"ce4bh012rcd13ifvqcv0","pricing_plan_id":"cebpf4jnsgd1na2vs0mg"},{"bike_id":"73204a20-b243-4f3c-bf49-9b59588294d1","system_id":"levelo_inurba_marseille","lat":43.23147,"lon":5.43716,"is_reserved":false,"is_disabled":false,"rental_uris":{"android":"levelo://app?vid=73204a20-b243-4f3c-bf49-9b59588294d1","ios":"levelo://app?vid=73204a20-b243-4f3c-bf49-9b59588294d1"},"vehicle_type_id":"4","last_reported":1725966443,"current_range_meters":37600,"station_id":"ce4bhmp2rcd13ifvqgog","pricing_plan_id":"cebpf4jnsgd1na2vs0mg"},{"bike_id":"86155553-b2dc-40ef-99b1-d1f15363aa86","system_id":"levelo_inurba_marseille","lat":43.31331,"lon":5.39688,"is_reserved":false,"is_disabled":false,"rental_uris":{"android":"levelo://app?vid=86155553-b2dc-40ef-99b1-d1f15363aa86","ios":"levelo://app?vid=86155553-b2dc-40ef-99b1-d1f15363aa86"},"vehicle_type_id":"4","last_reported":1725966443,"current_range_meters":24400,"station_id":"ce4bgvp2rcd13ifvqcu0","pricing_plan_id":"cebpf4jnsgd1na2vs0mg"},{"bike_id":"173a22a6-c6b3-4156-ad2b-4962f41c7342","system_id":"levelo_inurba_marseille","lat":43.30519,"lon":5.36707,"is_reserved":false,"is_disabled":false,"rental_uris":{"android":"levelo://app?vid=173a22a6-c6b3-4156-ad2b-4962f41c7342","ios":"levelo://app?vid=173a22a6-c6b3-4156-ad2b-4962f41c7342"},"vehicle_type_id":"4","last_reported":1725966443,"current_range_meters":33600,"station_id":"ce4bgrp2rcd13ifvqc9g","pricing_plan_id":"cebpf4jnsgd1na2vs0mg"},{"bike_id":"999c5921-2595-4480-9095-57d794fca349","system_id":"levelo_inurba_marseille","lat":43.30321,"lon":5.40432,"is_reserved":false,"is_disabled":false,"rental_uris":{"android":"levelo://app?vid=999c5921-2595-4480-9095-57d794fca349","ios":"levelo://app?vid=999c5921-2595-4480-9095-57d794fca349"},"vehicle_type_id":"4","last_reported":1725966443,"current_range_meters":34000,"station_id":"ce4bh012rcd13ifvqd10","pricing_plan_id":"cebpf4jnsgd1na2vs0mg"},{"bike_id":"5e541c14-39ab-4d22-9359-c27581dd3dd8","system_id":"levelo_inurba_marseille","lat":43.2438,"lon":5.37061,"is_reserved":false,"is_disabled":false,"rental_uris":{"android":"levelo://app?vid=5e541c14-39ab-4d22-9359-c27581dd3dd8","ios":"levelo://app?vid=5e541c14-39ab-4d22-9359-c27581dd3dd8"},"vehicle_type_id":"4","last_reported":1725966443,"current_range_meters":37600,"station_id":"ce4bhhh2rcd13ifvqfk0","pricing_plan_id":"cebpf4jnsgd1na2vs0mg"},{"bike_id":"412172b1-efd8-4ba3-9168-668e15fed85c","system_id":"levelo_inurba_marseille","lat":43.30889,"lon":5.39623,"is_reserved":false,"is_disabled":false,"rental_uris":{"android":"levelo://app?vid=412172b1-efd8-4ba3-9168-668e15fed85c","ios":"levelo://app?vid=412172b1-efd8-4ba3-9168-668e15fed85c"},"vehicle_type_id":"4","last_reported":1725966443,"current_range_meters":4800,"station_id":"ce4bh012rcd13ifvqcv0","pricing_plan_id":"cebpf4jnsgd1na2vs0mg"},{"bike_id":"46b6ace0-dac8-4fc2-a1a1-53ffd370f033","system_id":"levelo_inurba_marseille","lat":43.28609,"lon":5.35097,"is_reserved":false,"is_disabled":false,"rental_uris":{"android":"levelo://app?vid=46b6ace0-dac8-4fc2-a1a1-53ffd370f033","ios":"levelo://app?vid=46b6ace0-dac8-4fc2-a1a1-53ffd370f033"},"vehicle_type_id":"4","last_reported":1725966443,"current_range_meters":32000,"station_id":"ce4bhch2rcd13ifvqeug","pricing_plan_id":"cebpf4jnsgd1na2vs0mg"},{"bike_id":"067947df-892a-4e59-be51-b95ecfbdec67","system_id":"levelo_inurba_marseille","lat":43.292192,"lon":5.360499,"is_reserved":false,"is_disabled":false,"rental_uris":{"android":"levelo://app?vid=067947df-892a-4e59-be51-b95ecfbdec67","ios":"levelo://app?vid=067947df-892a-4e59-be51-b95ecfbdec67"},"vehicle_type_id":"4","last_reported":1725966443,"current_range_meters":33600,"station_id":"ce4bhbh2rcd13ifvqeqg","pricing_plan_id":"cebpf4jnsgd1na2vs0mg"},{"bike_id":"fdca97e8-83e0-460a-b6a1-a8e83b4b02ec","system_id":"levelo_inurba_marseille","lat":43.2835,"lon":5.38092,"is_reserved":false,"is_disabled":false,"rental_uris":{"android":"levelo://app?vid=fdca97e8-83e0-460a-b6a1-a8e83b4b02ec","ios":"levelo://app?vid=fdca97e8-83e0-460a-b6a1-a8e83b4b02ec"},"vehicle_type_id":"4","last_reported":1725966443,"current_range_meters":12800,"station_id":"ce4bh412rcd13ifvqdr0","pricing_plan_id":"cebpf4jnsgd1na2vs0mg"},{"bike_id":"e8fa4fe3-842c-4d75-8025-36f274f8acb7","system_id":"levelo_inurba_marseille","lat":43.24803,"lon":5.37452,"is_reserved":false,"is_disabled":false,"rental_uris":{"android":"levelo://app?vid=e8fa4fe3-842c-4d75-8025-36f274f8acb7","ios":"levelo://app?vid=e8fa4fe3-842c-4d75-8025-36f274f8acb7"},"vehicle_type_id":"4","last_reported":1725966443,"current_range_meters":32800,"station_id":"ce4bhgh2rcd13ifvqfb0","pricing_plan_id":"cebpf4jnsgd1na2vs0mg"},{"bike_id":"12872647-4372-4cf2-9fc5-598f616cb55c","system_id":"levelo_inurba_marseille","lat":43.24069,"lon":5.37753,"is_reserved":false,"is_disabled":false,"rental_uris":{"android":"levelo://app?vid=12872647-4372-4cf2-9fc5-598f616cb55c","ios":"levelo://app?vid=12872647-4372-4cf2-9fc5-598f616cb55c"},"vehicle_type_id":"4","last_reported":1725966443,"current_range_meters":22800,"station_id":"ce4bhnp2rcd13ifvqgvg","pricing_plan_id":"cebpf4jnsgd1na2vs0mg"},{"bike_id":"8f7e7c6c-886c-4dbc-9b1a-c784a392ed20","system_id":"levelo_inurba_marseille","lat":43.26862,"lon":5.39433,"is_reserved":false,"is_disabled":false,"rental_uris":{"android":"levelo://app?vid=8f7e7c6c-886c-4dbc-9b1a-c784a392ed20","ios":"levelo://app?vid=8f7e7c6c-886c-4dbc-9b1a-c784a392ed20"},"vehicle_type_id":"4","last_reported":1725966443,"current_range_meters":8800,"station_id":"","pricing_plan_id":"cebpf4jnsgd1na2vs0mg"},{"bike_id":"d0a22151-5873-4516-ad59-35801290152e","system_id":"levelo_inurba_marseille","lat":43.23195,"lon":5.35557,"is_reserved":false,"is_disabled":false,"rental_uris":{"android":"levelo://app?vid=d0a22151-5873-4516-ad59-35801290152e","ios":"levelo://app?vid=d0a22151-5873-4516-ad59-35801290152e"},"vehicle_type_id":"4","last_reported":1725966443,"current_range_meters":9600,"station_id":"ce4bhu92rcd13ifvqi70","pricing_plan_id":"cebpf4jnsgd1na2vs0mg"},{"bike_id":"964f7061-4c45-429e-905a-a5dfa4b7fcd5","system_id":"levelo_inurba_marseille","lat":43.30597,"lon":5.39358,"is_reserved":false,"is_disabled":false,"rental_uris":{"android":"levelo://app?vid=964f7061-4c45-429e-905a-a5dfa4b7fcd5","ios":"levelo://app?vid=964f7061-4c45-429e-905a-a5dfa4b7fcd5"},"vehicle_type_id":"4","last_reported":1725966443,"current_range_meters":39200,"station_id":"ce4bh0p2rcd13ifvqd80","pricing_plan_id":"cebpf4jnsgd1na2vs0mg"},{"bike_id":"3920a849-8a6b-49bc-ae78-e5b2e212c3f8","system_id":"levelo_inurba_marseille","lat":43.30947,"lon":5.39053,"is_reserved":false,"is_disabled":false,"rental_uris":{"android":"levelo://app?vid=3920a849-8a6b-49bc-ae78-e5b2e212c3f8","ios":"levelo://app?vid=3920a849-8a6b-49bc-ae78-e5b2e212c3f8"},"vehicle_type_id":"4","last_reported":1725966443,"current_range_meters":37600,"station_id":"ce4bgup2rcd13ifvqco0","pricing_plan_id":"cebpf4jnsgd1na2vs0mg"},{"bike_id":"6ae67ca1-333d-433a-a1b3-1340f53b826c","system_id":"levelo_inurba_marseille","lat":43.32334,"lon":5.40612,"is_reserved":false,"is_disabled":false,"rental_uris":{"android":"levelo://app?vid=6ae67ca1-333d-433a-a1b3-1340f53b826c","ios":"levelo://app?vid=6ae67ca1-333d-433a-a1b3-1340f53b826c"},"vehicle_type_id":"4","last_reported":1725966443,"current_range_meters":8800,"station_id":"ce4bhq92rcd13ifvqhjg","pricing_plan_id":"cebpf4jnsgd1na2vs0mg"},{"bike_id":"6d24c51d-fd48-412e-a058-8a6d3e92fbb5","system_id":"levelo_inurba_marseille","lat":43.301424,"lon":5.398603,"is_reserved":false,"is_disabled":false,"rental_uris":{"android":"levelo://app?vid=6d24c51d-fd48-412e-a058-8a6d3e92fbb5","ios":"levelo://app?vid=6d24c51d-fd48-412e-a058-8a6d3e92fbb5"},"vehicle_type_id":"4","last_reported":1725966443,"current_range_meters":38800,"station_id":"ce4bh0h2rcd13ifvqd40","pricing_plan_id":"cebpf4jnsgd1na2vs0mg"},{"bike_id":"f7f6f6cc-c03e-46be-9b58-df85d1fdc5ae","system_id":"levelo_inurba_marseille","lat":43.2942,"lon":5.38621,"is_reserved":false,"is_disabled":false,"rental_uris":{"android":"levelo://app?vid=f7f6f6cc-c03e-46be-9b58-df85d1fdc5ae","ios":"levelo://app?vid=f7f6f6cc-c03e-46be-9b58-df85d1fdc5ae"},"vehicle_type_id":"4","last_reported":1725966443,"current_range_meters":10000,"station_id":"ce4bh2h2rcd13ifvqdh0","pricing_plan_id":"cebpf4jnsgd1na2vs0mg"},{"bike_id":"860f63ce-3c9e-4e0e-b9ef-63638adf3621","system_id":"levelo_inurba_marseille","lat":43.26777,"lon":5.39413,"is_reserved":false,"is_disabled":false,"rental_uris":{"android":"levelo://app?vid=860f63ce-3c9e-4e0e-b9ef-63638adf3621","ios":"levelo://app?vid=860f63ce-3c9e-4e0e-b9ef-63638adf3621"},"vehicle_type_id":"4","last_reported":1725966443,"current_range_meters":28000,"station_id":"ce4bhh12rcd13ifvqfg0","pricing_plan_id":"cebpf4jnsgd1na2vs0mg"},{"bike_id":"803132e3-5aee-48cf-a340-ad62d002ba46","system_id":"levelo_inurba_marseille","lat":43.31071,"lon":5.3836,"is_reserved":false,"is_disabled":false,"rental_uris":{"android":"levelo://app?vid=803132e3-5aee-48cf-a340-ad62d002ba46","ios":"levelo://app?vid=803132e3-5aee-48cf-a340-ad62d002ba46"},"vehicle_type_id":"4","last_reported":1725966443,"current_range_meters":28400,"station_id":"ce4bgv92rcd13ifvqcr0","pricing_plan_id":"cebpf4jnsgd1na2vs0mg"},{"bike_id":"a32ef2c7-056d-4011-9964-61f5727ac5e3","system_id":"levelo_inurba_marseille","lat":43.30187,"lon":5.36616,"is_reserved":false,"is_disabled":false,"rental_uris":{"android":"levelo://app?vid=a32ef2c7-056d-4011-9964-61f5727ac5e3","ios":"levelo://app?vid=a32ef2c7-056d-4011-9964-61f5727ac5e3"},"vehicle_type_id":"4","last_reported":1725966443,"current_range_meters":17600,"station_id":"ce4bgrh2rcd13ifvqc8g","pricing_plan_id":"cebpf4jnsgd1na2vs0mg"},{"bike_id":"47383cd3-6119-4304-bb3a-0a9a3634a1f1","system_id":"levelo_inurba_marseille","lat":43.23144,"lon":5.43712,"is_reserved":false,"is_disabled":false,"rental_uris":{"android":"levelo://app?vid=47383cd3-6119-4304-bb3a-0a9a3634a1f1","ios":"levelo://app?vid=47383cd3-6119-4304-bb3a-0a9a3634a1f1"},"vehicle_type_id":"4","last_reported":1725966443,"current_range_meters":16800,"station_id":"ce4bhmp2rcd13ifvqgog","pricing_plan_id":"cebpf4jnsgd1na2vs0mg"},{"bike_id":"a4d5373b-202a-41bc-a6de-150b9afc8bf5","system_id":"levelo_inurba_marseille","lat":43.28617,"lon":5.35104,"is_reserved":false,"is_disabled":false,"rental_uris":{"android":"levelo://app?vid=a4d5373b-202a-41bc-a6de-150b9afc8bf5","ios":"levelo://app?vid=a4d5373b-202a-41bc-a6de-150b9afc8bf5"},"vehicle_type_id":"4","last_reported":1725966443,"current_range_meters":37600,"station_id":"ce4bhch2rcd13ifvqeug","pricing_plan_id":"cebpf4jnsgd1na2vs0mg"},{"bike_id":"a94e47fa-8b12-445d-ad21-69b707a2812a","system_id":"levelo_inurba_marseille","lat":43.28076,"lon":5.39655,"is_reserved":false,"is_disabled":false,"rental_uris":{"android":"levelo://app?vid=a94e47fa-8b12-445d-ad21-69b707a2812a","ios":"levelo://app?vid=a94e47fa-8b12-445d-ad21-69b707a2812a"},"vehicle_type_id":"4","last_reported":1725966443,"current_range_meters":14400,"station_id":"ce4bho12rcd13ifvqh2g","pricing_plan_id":"cebpf4jnsgd1na2vs0mg"},{"bike_id":"75e62f0c-a1f4-4d7d-8acf-b859e81b184e","system_id":"levelo_inurba_marseille","lat":43.305953,"lon":5.393706,"is_reserved":false,"is_disabled":false,"rental_uris":{"android":"levelo://app?vid=75e62f0c-a1f4-4d7d-8acf-b859e81b184e","ios":"levelo://app?vid=75e62f0c-a1f4-4d7d-8acf-b859e81b184e"},"vehicle_type_id":"4","last_reported":1725966443,"current_range_meters":19200,"station_id":"","pricing_plan_id":"cebpf4jnsgd1na2vs0mg"},{"bike_id":"d233bbcf-1837-4d8e-902d-8e919213c511","system_id":"levelo_inurba_marseille","lat":43.29894,"lon":5.43671,"is_reserved":false,"is_disabled":false,"rental_uris":{"android":"levelo://app?vid=d233bbcf-1837-4d8e-902d-8e919213c511","ios":"levelo://app?vid=d233bbcf-1837-4d8e-902d-8e919213c511"},"vehicle_type_id":"4","last_reported":1725966443,"current_range_meters":12800,"station_id":"ce4bhpp2rcd13ifvqhfg","pricing_plan_id":"cebpf4jnsgd1na2vs0mg"},{"bike_id":"694fa979-5d79-423d-87a5-27d4438d57b4","system_id":"levelo_inurba_marseille","lat":43.27494,"lon":5.42446,"is_reserved":false,"is_disabled":false,"rental_uris":{"android":"levelo://app?vid=694fa979-5d79-423d-87a5-27d4438d57b4","ios":"levelo://app?vid=694fa979-5d79-423d-87a5-27d4438d57b4"},"vehicle_type_id":"4","last_reported":1725966443,"current_range_meters":12000,"station_id":"ce4bhn92rcd13ifvqgrg","pricing_plan_id":"cebpf4jnsgd1na2vs0mg"},{"bike_id":"63f2511a-0cf9-4129-9311-5eb3644af046","system_id":"levelo_inurba_marseille","lat":43.24803,"lon":5.3746,"is_reserved":false,"is_disabled":false,"rental_uris":{"android":"levelo://app?vid=63f2511a-0cf9-4129-9311-5eb3644af046","ios":"levelo://app?vid=63f2511a-0cf9-4129-9311-5eb3644af046"},"vehicle_type_id":"4","last_reported":1725966443,"current_range_meters":12800,"station_id":"ce4bhgh2rcd13ifvqfb0","pricing_plan_id":"cebpf4jnsgd1na2vs0mg"},{"bike_id":"ab0b3daa-8c36-4283-b57e-0f9ab5b0738f","system_id":"levelo_inurba_marseille","lat":43.24548,"lon":5.39527,"is_reserved":false,"is_disabled":false,"rental_uris":{"android":"levelo://app?vid=ab0b3daa-8c36-4283-b57e-0f9ab5b0738f","ios":"levelo://app?vid=ab0b3daa-8c36-4283-b57e-0f9ab5b0738f"},"vehicle_type_id":"4","last_reported":1725966443,"current_range_meters":22400,"station_id":"ce4bhlp2rcd13ifvqgjg","pricing_plan_id":"cebpf4jnsgd1na2vs0mg"},{"bike_id":"730f1596-4499-46bb-bc0b-165e5703bfb2","system_id":"levelo_inurba_marseille","lat":43.28257,"lon":5.35057,"is_reserved":false,"is_disabled":false,"rental_uris":{"android":"levelo://app?vid=730f1596-4499-46bb-bc0b-165e5703bfb2","ios":"levelo://app?vid=730f1596-4499-46bb-bc0b-165e5703bfb2"},"vehicle_type_id":"4","last_reported":1725966443,"current_range_meters":38800,"station_id":"ce4bhbp2rcd13ifvqerg","pricing_plan_id":"cebpf4jnsgd1na2vs0mg"},{"bike_id":"740479e5-c902-41d7-abb4-443cc1a8ce70","system_id":"levelo_inurba_marseille","lat":43.28567,"lon":5.39482,"is_reserved":false,"is_disabled":false,"rental_uris":{"android":"levelo://app?vid=740479e5-c902-41d7-abb4-443cc1a8ce70","ios":"levelo://app?vid=740479e5-c902-41d7-abb4-443cc1a8ce70"},"vehicle_type_id":"4","last_reported":1725966443,"current_range_meters":16800,"station_id":"ce4bh292rcd13ifvqdg0","pricing_plan_id":"cebpf4jnsgd1na2vs0mg"},{"bike_id":"a1e52c1c-3844-4829-9d7b-ff0033a9b77d","system_id":"levelo_inurba_marseille","lat":43.28407,"lon":5.34991,"is_reserved":false,"is_disabled":false,"rental_uris":{"android":"levelo://app?vid=a1e52c1c-3844-4829-9d7b-ff0033a9b77d","ios":"levelo://app?vid=a1e52c1c-3844-4829-9d7b-ff0033a9b77d"},"vehicle_type_id":"4","last_reported":1725966443,"current_range_meters":6400,"station_id":"ce4bhbh2rcd13ifvqepg","pricing_plan_id":"cebpf4jnsgd1na2vs0mg"},{"bike_id":"e8b70477-2349-41c8-af76-fca03ce6f277","system_id":"levelo_inurba_marseille","lat":43.3117,"lon":5.38713,"is_reserved":false,"is_disabled":false,"rental_uris":{"android":"levelo://app?vid=e8b70477-2349-41c8-af76-fca03ce6f277","ios":"levelo://app?vid=e8b70477-2349-41c8-af76-fca03ce6f277"},"vehicle_type_id":"4","last_reported":1725966443,"current_range_meters":26800,"station_id":"ce4bgv12rcd13ifvqcp0","pricing_plan_id":"cebpf4jnsgd1na2vs0mg"},{"bike_id":"9225067c-3649-47d7-adc9-1baa05ea292e","system_id":"levelo_inurba_marseille","lat":43.31482,"lon":5.37302,"is_reserved":false,"is_disabled":false,"rental_uris":{"android":"levelo://app?vid=9225067c-3649-47d7-adc9-1baa05ea292e","ios":"levelo://app?vid=9225067c-3649-47d7-adc9-1baa05ea292e"},"vehicle_type_id":"4","last_reported":1725966443,"current_range_meters":14000,"station_id":"ce4bgt12rcd13ifvqcd0","pricing_plan_id":"cebpf4jnsgd1na2vs0mg"},{"bike_id":"64f25725-e05b-4f29-8181-60e04b4ee309","system_id":"levelo_inurba_marseille","lat":43.24386,"lon":5.37063,"is_reserved":false,"is_disabled":false,"rental_uris":{"android":"levelo://app?vid=64f25725-e05b-4f29-8181-60e04b4ee309","ios":"levelo://app?vid=64f25725-e05b-4f29-8181-60e04b4ee309"},"vehicle_type_id":"4","last_reported":1725966443,"current_range_meters":6800,"station_id":"ce4bhhh2rcd13ifvqfk0","pricing_plan_id":"cebpf4jnsgd1na2vs0mg"},{"bike_id":"826c67b4-92a4-4181-a48a-d216e8cccd3f","system_id":"levelo_inurba_marseille","lat":43.25496,"lon":5.37646,"is_reserved":false,"is_disabled":false,"rental_uris":{"android":"levelo://app?vid=826c67b4-92a4-4181-a48a-d216e8cccd3f","ios":"levelo://app?vid=826c67b4-92a4-4181-a48a-d216e8cccd3f"},"vehicle_type_id":"4","last_reported":1725966443,"current_range_meters":39200,"station_id":"ce4bhh12rcd13ifvqff0","pricing_plan_id":"cebpf4jnsgd1na2vs0mg"},{"bike_id":"ec2312e3-63ea-4f31-a2d4-d85a21c1616a","system_id":"levelo_inurba_marseille","lat":43.33779,"lon":5.37472,"is_reserved":false,"is_disabled":false,"rental_uris":{"android":"levelo://app?vid=ec2312e3-63ea-4f31-a2d4-d85a21c1616a","ios":"levelo://app?vid=ec2312e3-63ea-4f31-a2d4-d85a21c1616a"},"vehicle_type_id":"4","last_reported":1725966443,"current_range_meters":38800,"station_id":"","pricing_plan_id":"cebpf4jnsgd1na2vs0mg"},{"bike_id":"1aa4492a-580a-450a-8d6a-872a23924447","system_id":"levelo_inurba_marseille","lat":43.28938,"lon":5.36642,"is_reserved":false,"is_disabled":false,"rental_uris":{"android":"levelo://app?vid=1aa4492a-580a-450a-8d6a-872a23924447","ios":"levelo://app?vid=1aa4492a-580a-450a-8d6a-872a23924447"},"vehicle_type_id":"4","last_reported":1725966443,"current_range_meters":19600,"station_id":"ce4bhap2rcd13ifvqek0","pricing_plan_id":"cebpf4jnsgd1na2vs0mg"},{"bike_id":"ba71fde6-330c-4694-b58a-6b28fa15c9ce","system_id":"levelo_inurba_marseille","lat":43.30458,"lon":5.379,"is_reserved":false,"is_disabled":false,"rental_uris":{"android":"levelo://app?vid=ba71fde6-330c-4694-b58a-6b28fa15c9ce","ios":"levelo://app?vid=ba71fde6-330c-4694-b58a-6b28fa15c9ce"},"vehicle_type_id":"4","last_reported":1725966443,"current_range_meters":39200,"station_id":"ce4bgup2rcd13ifvqcn0","pricing_plan_id":"cebpf4jnsgd1na2vs0mg"},{"bike_id":"4fcb88af-d8cb-4c21-95cc-dbbe59be27be","system_id":"levelo_inurba_marseille","lat":43.31345,"lon":5.36696,"is_reserved":false,"is_disabled":false,"rental_uris":{"android":"levelo://app?vid=4fcb88af-d8cb-4c21-95cc-dbbe59be27be","ios":"levelo://app?vid=4fcb88af-d8cb-4c21-95cc-dbbe59be27be"},"vehicle_type_id":"4","last_reported":1725966443,"current_range_meters":25200,"station_id":"ce4bgr92rcd13ifvqc6g","pricing_plan_id":"cebpf4jnsgd1na2vs0mg"},{"bike_id":"35e60698-596c-4f8e-9c5b-f2842525c1ad","system_id":"levelo_inurba_marseille","lat":43.23172,"lon":5.39984,"is_reserved":false,"is_disabled":false,"rental_uris":{"android":"levelo://app?vid=35e60698-596c-4f8e-9c5b-f2842525c1ad","ios":"levelo://app?vid=35e60698-596c-4f8e-9c5b-f2842525c1ad"},"vehicle_type_id":"4","last_reported":1725966443,"current_range_meters":9600,"station_id":"ce4bhn12rcd13ifvqgqg","pricing_plan_id":"cebpf4jnsgd1na2vs0mg"},{"bike_id":"b6da3660-ce27-406a-b044-932a3f6ca395","system_id":"levelo_inurba_marseille","lat":43.29103,"lon":5.38128,"is_reserved":false,"is_disabled":false,"rental_uris":{"android":"levelo://app?vid=b6da3660-ce27-406a-b044-932a3f6ca395","ios":"levelo://app?vid=b6da3660-ce27-406a-b044-932a3f6ca395"},"vehicle_type_id":"4","last_reported":1725966443,"current_range_meters":32000,"station_id":"ce4bh512rcd13ifvqe2g","pricing_plan_id":"cebpf4jnsgd1na2vs0mg"},{"bike_id":"3c6c0f4e-a3ab-4518-a08c-6f8d1166e07c","system_id":"levelo_inurba_marseille","lat":43.23149,"lon":5.43707,"is_reserved":false,"is_disabled":false,"rental_uris":{"android":"levelo://app?vid=3c6c0f4e-a3ab-4518-a08c-6f8d1166e07c","ios":"levelo://app?vid=3c6c0f4e-a3ab-4518-a08c-6f8d1166e07c"},"vehicle_type_id":"4","last_reported":1725966443,"current_range_meters":38400,"station_id":"ce4bhmp2rcd13ifvqgog","pricing_plan_id":"cebpf4jnsgd1na2vs0mg"},{"bike_id":"bfed5c0e-017e-4ebc-8269-a967ed5a310c","system_id":"levelo_inurba_marseille","lat":43.25115,"lon":5.40317,"is_reserved":false,"is_disabled":false,"rental_uris":{"android":"levelo://app?vid=bfed5c0e-017e-4ebc-8269-a967ed5a310c","ios":"levelo://app?vid=bfed5c0e-017e-4ebc-8269-a967ed5a310c"},"vehicle_type_id":"4","last_reported":1725966443,"current_range_meters":9200,"station_id":"ce4bhlh2rcd13ifvqgig","pricing_plan_id":"cebpf4jnsgd1na2vs0mg"},{"bike_id":"fc7d615f-1a12-4f5c-822f-a64d0708f6e2","system_id":"levelo_inurba_marseille","lat":43.2315,"lon":5.43695,"is_reserved":false,"is_disabled":false,"rental_uris":{"android":"levelo://app?vid=fc7d615f-1a12-4f5c-822f-a64d0708f6e2","ios":"levelo://app?vid=fc7d615f-1a12-4f5c-822f-a64d0708f6e2"},"vehicle_type_id":"4","last_reported":1725966443,"current_range_meters":35600,"station_id":"ce4bhmp2rcd13ifvqgog","pricing_plan_id":"cebpf4jnsgd1na2vs0mg"},{"bike_id":"80c7b8dd-cb92-4142-a693-af5b93dc7452","system_id":"levelo_inurba_marseille","lat":43.30658,"lon":5.40084,"is_reserved":false,"is_disabled":false,"rental_uris":{"android":"levelo://app?vid=80c7b8dd-cb92-4142-a693-af5b93dc7452","ios":"levelo://app?vid=80c7b8dd-cb92-4142-a693-af5b93dc7452"},"vehicle_type_id":"4","last_reported":1725966443,"current_range_meters":34800,"station_id":"ce4bh112rcd13ifvqda0","pricing_plan_id":"cebpf4jnsgd1na2vs0mg"},{"bike_id":"d21cb3aa-c77a-47a9-a07a-715b122e3520","system_id":"levelo_inurba_marseille","lat":43.33714,"lon":5.39191,"is_reserved":false,"is_disabled":false,"rental_uris":{"android":"levelo://app?vid=d21cb3aa-c77a-47a9-a07a-715b122e3520","ios":"levelo://app?vid=d21cb3aa-c77a-47a9-a07a-715b122e3520"},"vehicle_type_id":"4","last_reported":1725966443,"current_range_meters":38800,"station_id":"ce4bhr92rcd13ifvqhsg","pricing_plan_id":"cebpf4jnsgd1na2vs0mg"},{"bike_id":"99ff5113-63b8-4286-bc76-22496d34f647","system_id":"levelo_inurba_marseille","lat":43.23187,"lon":5.35553,"is_reserved":false,"is_disabled":false,"rental_uris":{"android":"levelo://app?vid=99ff5113-63b8-4286-bc76-22496d34f647","ios":"levelo://app?vid=99ff5113-63b8-4286-bc76-22496d34f647"},"vehicle_type_id":"4","last_reported":1725966443,"current_range_meters":5600,"station_id":"ce4bhu92rcd13ifvqi70","pricing_plan_id":"cebpf4jnsgd1na2vs0mg"},{"bike_id":"b2271fdc-77ec-463d-81cd-45840003e14b","system_id":"levelo_inurba_marseille","lat":43.28605,"lon":5.35106,"is_reserved":false,"is_disabled":false,"rental_uris":{"android":"levelo://app?vid=b2271fdc-77ec-463d-81cd-45840003e14b","ios":"levelo://app?vid=b2271fdc-77ec-463d-81cd-45840003e14b"},"vehicle_type_id":"4","last_reported":1725966443,"current_range_meters":38000,"station_id":"ce4bhch2rcd13ifvqeug","pricing_plan_id":"cebpf4jnsgd1na2vs0mg"},{"bike_id":"bc0c7842-1164-4503-a94b-e89f82d7ba1f","system_id":"levelo_inurba_marseille","lat":43.23153,"lon":5.43693,"is_reserved":false,"is_disabled":false,"rental_uris":{"android":"levelo://app?vid=bc0c7842-1164-4503-a94b-e89f82d7ba1f","ios":"levelo://app?vid=bc0c7842-1164-4503-a94b-e89f82d7ba1f"},"vehicle_type_id":"4","last_reported":1725966443,"current_range_meters":38000,"station_id":"ce4bhmp2rcd13ifvqgog","pricing_plan_id":"cebpf4jnsgd1na2vs0mg"},{"bike_id":"b525c94c-8616-4190-86ad-94ce4006abe1","system_id":"levelo_inurba_marseille","lat":43.29036,"lon":5.39966,"is_reserved":false,"is_disabled":false,"rental_uris":{"android":"levelo://app?vid=b525c94c-8616-4190-86ad-94ce4006abe1","ios":"levelo://app?vid=b525c94c-8616-4190-86ad-94ce4006abe1"},"vehicle_type_id":"4","last_reported":1725966443,"current_range_meters":13600,"station_id":"ce4bh392rcd13ifvqdm0","pricing_plan_id":"cebpf4jnsgd1na2vs0mg"},{"bike_id":"866747e3-e4f0-4e1a-a4d0-6e84ac98fd82","system_id":"levelo_inurba_marseille","lat":43.30611,"lon":5.3933,"is_reserved":false,"is_disabled":false,"rental_uris":{"android":"levelo://app?vid=866747e3-e4f0-4e1a-a4d0-6e84ac98fd82","ios":"levelo://app?vid=866747e3-e4f0-4e1a-a4d0-6e84ac98fd82"},"vehicle_type_id":"4","last_reported":1725966443,"current_range_meters":36400,"station_id":"ce4bh0p2rcd13ifvqd80","pricing_plan_id":"cebpf4jnsgd1na2vs0mg"},{"bike_id":"ab9b8990-e378-4cf6-9ff1-6f0f22223b29","system_id":"levelo_inurba_marseille","lat":43.23149,"lon":5.43699,"is_reserved":false,"is_disabled":false,"rental_uris":{"android":"levelo://app?vid=ab9b8990-e378-4cf6-9ff1-6f0f22223b29","ios":"levelo://app?vid=ab9b8990-e378-4cf6-9ff1-6f0f22223b29"},"vehicle_type_id":"4","last_reported":1725966443,"current_range_meters":15200,"station_id":"ce4bhmp2rcd13ifvqgog","pricing_plan_id":"cebpf4jnsgd1na2vs0mg"},{"bike_id":"56fe391e-723e-42df-8d0c-af51e6441891","system_id":"levelo_inurba_marseille","lat":43.23057,"lon":5.35492,"is_reserved":false,"is_disabled":false,"rental_uris":{"android":"levelo://app?vid=56fe391e-723e-42df-8d0c-af51e6441891","ios":"levelo://app?vid=56fe391e-723e-42df-8d0c-af51e6441891"},"vehicle_type_id":"4","last_reported":1725966443,"current_range_meters":3600,"station_id":"cpo3342slgdg3j2ifvpg","pricing_plan_id":"cebpf4jnsgd1na2vs0mg"},{"bike_id":"a655238b-3791-4341-bd36-dfc33e627123","system_id":"levelo_inurba_marseille","lat":43.30241,"lon":5.40059,"is_reserved":false,"is_disabled":false,"rental_uris":{"android":"levelo://app?vid=a655238b-3791-4341-bd36-dfc33e627123","ios":"levelo://app?vid=a655238b-3791-4341-bd36-dfc33e627123"},"vehicle_type_id":"4","last_reported":1725966443,"current_range_meters":35600,"station_id":"ce4bgvh2rcd13ifvqcs0","pricing_plan_id":"cebpf4jnsgd1na2vs0mg"},{"bike_id":"f2326b17-1ad9-446b-b47e-7f69b21ff0a5","system_id":"levelo_inurba_marseille","lat":43.29088,"lon":5.38127,"is_reserved":false,"is_disabled":false,"rental_uris":{"android":"levelo://app?vid=f2326b17-1ad9-446b-b47e-7f69b21ff0a5","ios":"levelo://app?vid=f2326b17-1ad9-446b-b47e-7f69b21ff0a5"},"vehicle_type_id":"4","last_reported":1725966443,"current_range_meters":20400,"station_id":"ce4bh512rcd13ifvqe2g","pricing_plan_id":"cebpf4jnsgd1na2vs0mg"},{"bike_id":"c5b54f07-9e8a-4d5d-af65-a461c660ca45","system_id":"levelo_inurba_marseille","lat":43.32289,"lon":5.38249,"is_reserved":false,"is_disabled":false,"rental_uris":{"android":"levelo://app?vid=c5b54f07-9e8a-4d5d-af65-a461c660ca45","ios":"levelo://app?vid=c5b54f07-9e8a-4d5d-af65-a461c660ca45"},"vehicle_type_id":"4","last_reported":1725966443,"current_range_meters":9600,"station_id":"ce4bhr12rcd13ifvqhqg","pricing_plan_id":"cebpf4jnsgd1na2vs0mg"},{"bike_id":"04a877bb-56db-47da-838f-2e32bc1f620d","system_id":"levelo_inurba_marseille","lat":43.28702,"lon":5.39982,"is_reserved":false,"is_disabled":false,"rental_uris":{"android":"levelo://app?vid=04a877bb-56db-47da-838f-2e32bc1f620d","ios":"levelo://app?vid=04a877bb-56db-47da-838f-2e32bc1f620d"},"vehicle_type_id":"4","last_reported":1725966443,"current_range_meters":33200,"station_id":"ce4bho92rcd13ifvqh3g","pricing_plan_id":"cebpf4jnsgd1na2vs0mg"},{"bike_id":"6167e386-6ae8-43cf-bc64-d123c7b363dd","system_id":"levelo_inurba_marseille","lat":43.25109,"lon":5.40326,"is_reserved":false,"is_disabled":false,"rental_uris":{"android":"levelo://app?vid=6167e386-6ae8-43cf-bc64-d123c7b363dd","ios":"levelo://app?vid=6167e386-6ae8-43cf-bc64-d123c7b363dd"},"vehicle_type_id":"4","last_reported":1725966443,"current_range_meters":3200,"station_id":"ce4bhlh2rcd13ifvqgig","pricing_plan_id":"cebpf4jnsgd1na2vs0mg"},{"bike_id":"f5ab10c4-6d47-48ee-9572-4519f61eb1b5","system_id":"levelo_inurba_marseille","lat":43.25933,"lon":5.40887,"is_reserved":false,"is_disabled":false,"rental_uris":{"android":"levelo://app?vid=f5ab10c4-6d47-48ee-9572-4519f61eb1b5","ios":"levelo://app?vid=f5ab10c4-6d47-48ee-9572-4519f61eb1b5"},"vehicle_type_id":"4","last_reported":1725966443,"current_range_meters":7200,"station_id":"ce4bhm92rcd13ifvqglg","pricing_plan_id":"cebpf4jnsgd1na2vs0mg"},{"bike_id":"9ccd8e94-d433-4dbf-8f75-74a8fc42dd51","system_id":"levelo_inurba_marseille","lat":43.30422,"lon":5.4128,"is_reserved":false,"is_disabled":false,"rental_uris":{"android":"levelo://app?vid=9ccd8e94-d433-4dbf-8f75-74a8fc42dd51","ios":"levelo://app?vid=9ccd8e94-d433-4dbf-8f75-74a8fc42dd51"},"vehicle_type_id":"4","last_reported":1725966443,"current_range_meters":28000,"station_id":"ce4bhop2rcd13ifvqh8g","pricing_plan_id":"cebpf4jnsgd1na2vs0mg"},{"bike_id":"6eb7f87a-fc3d-4e95-8373-87ecc2fbdea4","system_id":"levelo_inurba_marseille","lat":43.30653,"lon":5.40095,"is_reserved":false,"is_disabled":false,"rental_uris":{"android":"levelo://app?vid=6eb7f87a-fc3d-4e95-8373-87ecc2fbdea4","ios":"levelo://app?vid=6eb7f87a-fc3d-4e95-8373-87ecc2fbdea4"},"vehicle_type_id":"4","last_reported":1725966443,"current_range_meters":34000,"station_id":"ce4bh112rcd13ifvqda0","pricing_plan_id":"cebpf4jnsgd1na2vs0mg"},{"bike_id":"e238eb9a-b5ce-4daa-a070-0709dee78a5d","system_id":"levelo_inurba_marseille","lat":43.23153,"lon":5.43708,"is_reserved":false,"is_disabled":false,"rental_uris":{"android":"levelo://app?vid=e238eb9a-b5ce-4daa-a070-0709dee78a5d","ios":"levelo://app?vid=e238eb9a-b5ce-4daa-a070-0709dee78a5d"},"vehicle_type_id":"4","last_reported":1725966443,"current_range_meters":19200,"station_id":"ce4bhmp2rcd13ifvqgog","pricing_plan_id":"cebpf4jnsgd1na2vs0mg"},{"bike_id":"38f6b387-935c-4f2f-8351-4d1f2ca9a8ac","system_id":"levelo_inurba_marseille","lat":43.25501,"lon":5.37648,"is_reserved":false,"is_disabled":false,"rental_uris":{"android":"levelo://app?vid=38f6b387-935c-4f2f-8351-4d1f2ca9a8ac","ios":"levelo://app?vid=38f6b387-935c-4f2f-8351-4d1f2ca9a8ac"},"vehicle_type_id":"4","last_reported":1725966443,"current_range_meters":30800,"station_id":"ce4bhh12rcd13ifvqff0","pricing_plan_id":"cebpf4jnsgd1na2vs0mg"},{"bike_id":"025a102e-e06d-465a-ac49-ad51e1fe421c","system_id":"levelo_inurba_marseille","lat":43.27964,"lon":5.38746,"is_reserved":false,"is_disabled":false,"rental_uris":{"android":"levelo://app?vid=025a102e-e06d-465a-ac49-ad51e1fe421c","ios":"levelo://app?vid=025a102e-e06d-465a-ac49-ad51e1fe421c"},"vehicle_type_id":"4","last_reported":1725966443,"current_range_meters":28800,"station_id":"ce4bhg12rcd13ifvqf80","pricing_plan_id":"cebpf4jnsgd1na2vs0mg"},{"bike_id":"d655b562-9ac5-43dc-b6de-75eec2c288dd","system_id":"levelo_inurba_marseille","lat":43.24382,"lon":5.37052,"is_reserved":false,"is_disabled":false,"rental_uris":{"android":"levelo://app?vid=d655b562-9ac5-43dc-b6de-75eec2c288dd","ios":"levelo://app?vid=d655b562-9ac5-43dc-b6de-75eec2c288dd"},"vehicle_type_id":"4","last_reported":1725966443,"current_range_meters":9200,"station_id":"ce4bhhh2rcd13ifvqfk0","pricing_plan_id":"cebpf4jnsgd1na2vs0mg"},{"bike_id":"35a92e2d-d77b-400b-aeba-f522bf358e49","system_id":"levelo_inurba_marseille","lat":43.31856,"lon":5.37394,"is_reserved":false,"is_disabled":false,"rental_uris":{"android":"levelo://app?vid=35a92e2d-d77b-400b-aeba-f522bf358e49","ios":"levelo://app?vid=35a92e2d-d77b-400b-aeba-f522bf358e49"},"vehicle_type_id":"4","last_reported":1725966443,"current_range_meters":16400,"station_id":"ce4bgup2rcd13ifvqco0","pricing_plan_id":"cebpf4jnsgd1na2vs0mg"},{"bike_id":"d31c9de7-5ab0-4acb-9ba6-c876e2ceda5f","system_id":"levelo_inurba_marseille","lat":43.23146,"lon":5.43701,"is_reserved":false,"is_disabled":false,"rental_uris":{"android":"levelo://app?vid=d31c9de7-5ab0-4acb-9ba6-c876e2ceda5f","ios":"levelo://app?vid=d31c9de7-5ab0-4acb-9ba6-c876e2ceda5f"},"vehicle_type_id":"4","last_reported":1725966443,"current_range_meters":38400,"station_id":"ce4bhmp2rcd13ifvqgog","pricing_plan_id":"cebpf4jnsgd1na2vs0mg"},{"bike_id":"e00669eb-11a3-4f75-9e1a-5f10a237cc0f","system_id":"levelo_inurba_marseille","lat":43.29908,"lon":5.38178,"is_reserved":false,"is_disabled":false,"rental_uris":{"android":"levelo://app?vid=e00669eb-11a3-4f75-9e1a-5f10a237cc0f","ios":"levelo://app?vid=e00669eb-11a3-4f75-9e1a-5f10a237cc0f"},"vehicle_type_id":"4","last_reported":1725966443,"current_range_meters":16800,"station_id":"ce4bgj12rcd13ifvqbc0","pricing_plan_id":"cebpf4jnsgd1na2vs0mg"},{"bike_id":"689af299-077a-4b96-aadf-024a1a87228a","system_id":"levelo_inurba_marseille","lat":43.27488,"lon":5.42451,"is_reserved":false,"is_disabled":false,"rental_uris":{"android":"levelo://app?vid=689af299-077a-4b96-aadf-024a1a87228a","ios":"levelo://app?vid=689af299-077a-4b96-aadf-024a1a87228a"},"vehicle_type_id":"4","last_reported":1725966443,"current_range_meters":23200,"station_id":"ce4bhn92rcd13ifvqgrg","pricing_plan_id":"cebpf4jnsgd1na2vs0mg"},{"bike_id":"cfc6650a-34d8-4613-835d-150880fbaae0","system_id":"levelo_inurba_marseille","lat":43.2315,"lon":5.4371,"is_reserved":false,"is_disabled":false,"rental_uris":{"android":"levelo://app?vid=cfc6650a-34d8-4613-835d-150880fbaae0","ios":"levelo://app?vid=cfc6650a-34d8-4613-835d-150880fbaae0"},"vehicle_type_id":"4","last_reported":1725966443,"current_range_meters":14800,"station_id":"ce4bhmp2rcd13ifvqgog","pricing_plan_id":"cebpf4jnsgd1na2vs0mg"},{"bike_id":"78778da8-03c2-4260-b5d2-a398d9400b64","system_id":"levelo_inurba_marseille","lat":43.23152,"lon":5.43717,"is_reserved":false,"is_disabled":false,"rental_uris":{"android":"levelo://app?vid=78778da8-03c2-4260-b5d2-a398d9400b64","ios":"levelo://app?vid=78778da8-03c2-4260-b5d2-a398d9400b64"},"vehicle_type_id":"4","last_reported":1725966443,"current_range_meters":39200,"station_id":"ce4bhmp2rcd13ifvqgog","pricing_plan_id":"cebpf4jnsgd1na2vs0mg"},{"bike_id":"a8ab3590-5a5b-4426-b9a7-d954197a1a04","system_id":"levelo_inurba_marseille","lat":43.30583,"lon":5.39354,"is_reserved":false,"is_disabled":false,"rental_uris":{"android":"levelo://app?vid=a8ab3590-5a5b-4426-b9a7-d954197a1a04","ios":"levelo://app?vid=a8ab3590-5a5b-4426-b9a7-d954197a1a04"},"vehicle_type_id":"4","last_reported":1725966443,"current_range_meters":38400,"station_id":"ce4bh0p2rcd13ifvqd80","pricing_plan_id":"cebpf4jnsgd1na2vs0mg"},{"bike_id":"1413791e-c9f9-4ff2-b900-96f3076e8734","system_id":"levelo_inurba_marseille","lat":43.3054,"lon":5.36548,"is_reserved":false,"is_disabled":false,"rental_uris":{"android":"levelo://app?vid=1413791e-c9f9-4ff2-b900-96f3076e8734","ios":"levelo://app?vid=1413791e-c9f9-4ff2-b900-96f3076e8734"},"vehicle_type_id":"4","last_reported":1725966443,"current_range_meters":4400,"station_id":"ce4bgs12rcd13ifvqcag","pricing_plan_id":"cebpf4jnsgd1na2vs0mg"},{"bike_id":"00bab6a2-9a94-46e1-ba1b-dcab3d153187","system_id":"levelo_inurba_marseille","lat":43.29081,"lon":5.38149,"is_reserved":false,"is_disabled":false,"rental_uris":{"android":"levelo://app?vid=00bab6a2-9a94-46e1-ba1b-dcab3d153187","ios":"levelo://app?vid=00bab6a2-9a94-46e1-ba1b-dcab3d153187"},"vehicle_type_id":"4","last_reported":1725966443,"current_range_meters":4400,"station_id":"ce4bh512rcd13ifvqe2g","pricing_plan_id":"cebpf4jnsgd1na2vs0mg"},{"bike_id":"02e9227e-4d15-45e3-b464-2b03b597a05f","system_id":"levelo_inurba_marseille","lat":43.30541,"lon":5.36707,"is_reserved":false,"is_disabled":false,"rental_uris":{"android":"levelo://app?vid=02e9227e-4d15-45e3-b464-2b03b597a05f","ios":"levelo://app?vid=02e9227e-4d15-45e3-b464-2b03b597a05f"},"vehicle_type_id":"4","last_reported":1725966443,"current_range_meters":39200,"station_id":"ce4bgrp2rcd13ifvqc9g","pricing_plan_id":"cebpf4jnsgd1na2vs0mg"},{"bike_id":"1d583431-4535-43ff-9cfe-97c3afe38e61","system_id":"levelo_inurba_marseille","lat":43.30964,"lon":5.4006,"is_reserved":false,"is_disabled":false,"rental_uris":{"android":"levelo://app?vid=1d583431-4535-43ff-9cfe-97c3afe38e61","ios":"levelo://app?vid=1d583431-4535-43ff-9cfe-97c3afe38e61"},"vehicle_type_id":"4","last_reported":1725966443,"current_range_meters":13600,"station_id":"ce4bhpp2rcd13ifvqhgg","pricing_plan_id":"cebpf4jnsgd1na2vs0mg"},{"bike_id":"5d411a94-71dc-41e3-ae74-13086227871e","system_id":"levelo_inurba_marseille","lat":43.27493,"lon":5.42456,"is_reserved":false,"is_disabled":false,"rental_uris":{"android":"levelo://app?vid=5d411a94-71dc-41e3-ae74-13086227871e","ios":"levelo://app?vid=5d411a94-71dc-41e3-ae74-13086227871e"},"vehicle_type_id":"4","last_reported":1725966443,"current_range_meters":34000,"station_id":"ce4bhn92rcd13ifvqgrg","pricing_plan_id":"cebpf4jnsgd1na2vs0mg"},{"bike_id":"fd35fa38-adf1-4f1a-b3da-4f1d38e91ee0","system_id":"levelo_inurba_marseille","lat":43.2418,"lon":5.39714,"is_reserved":false,"is_disabled":false,"rental_uris":{"android":"levelo://app?vid=fd35fa38-adf1-4f1a-b3da-4f1d38e91ee0","ios":"levelo://app?vid=fd35fa38-adf1-4f1a-b3da-4f1d38e91ee0"},"vehicle_type_id":"4","last_reported":1725966443,"current_range_meters":18800,"station_id":"ce4bhn12rcd13ifvqgpg","pricing_plan_id":"cebpf4jnsgd1na2vs0mg"},{"bike_id":"bf5555e9-efb7-4521-b052-9d5a2c8f2941","system_id":"levelo_inurba_marseille","lat":43.25937,"lon":5.40905,"is_reserved":false,"is_disabled":false,"rental_uris":{"android":"levelo://app?vid=bf5555e9-efb7-4521-b052-9d5a2c8f2941","ios":"levelo://app?vid=bf5555e9-efb7-4521-b052-9d5a2c8f2941"},"vehicle_type_id":"4","last_reported":1725966443,"current_range_meters":30800,"station_id":"ce4bhm92rcd13ifvqglg","pricing_plan_id":"cebpf4jnsgd1na2vs0mg"},{"bike_id":"e4acbe8e-ff03-45bc-a805-3e4e64e34b8f","system_id":"levelo_inurba_marseille","lat":43.29068,"lon":5.37154,"is_reserved":false,"is_disabled":false,"rental_uris":{"android":"levelo://app?vid=e4acbe8e-ff03-45bc-a805-3e4e64e34b8f","ios":"levelo://app?vid=e4acbe8e-ff03-45bc-a805-3e4e64e34b8f"},"vehicle_type_id":"4","last_reported":1725966443,"current_range_meters":36800,"station_id":"ce4bh5p2rcd13ifvqe4g","pricing_plan_id":"cebpf4jnsgd1na2vs0mg"},{"bike_id":"209b1ebe-2b44-461a-ac23-6c23e26e9677","system_id":"levelo_inurba_marseille","lat":43.270403,"lon":5.402292,"is_reserved":false,"is_disabled":false,"rental_uris":{"android":"levelo://app?vid=209b1ebe-2b44-461a-ac23-6c23e26e9677","ios":"levelo://app?vid=209b1ebe-2b44-461a-ac23-6c23e26e9677"},"vehicle_type_id":"4","last_reported":1725966443,"current_range_meters":26000,"station_id":"ce4bhk92rcd13ifvqgc0","pricing_plan_id":"cebpf4jnsgd1na2vs0mg"},{"bike_id":"e4067140-ef5f-4d5d-b312-3ad8fb897ba0","system_id":"levelo_inurba_marseille","lat":43.25579,"lon":5.38227,"is_reserved":false,"is_disabled":false,"rental_uris":{"android":"levelo://app?vid=e4067140-ef5f-4d5d-b312-3ad8fb897ba0","ios":"levelo://app?vid=e4067140-ef5f-4d5d-b312-3ad8fb897ba0"},"vehicle_type_id":"4","last_reported":1725966443,"current_range_meters":29600,"station_id":"ce4bhih2rcd13ifvqfs0","pricing_plan_id":"cebpf4jnsgd1na2vs0mg"},{"bike_id":"ec66178c-9377-4a8d-ba34-1a39bc42f1ac","system_id":"levelo_inurba_marseille","lat":43.32287,"lon":5.38277,"is_reserved":false,"is_disabled":false,"rental_uris":{"android":"levelo://app?vid=ec66178c-9377-4a8d-ba34-1a39bc42f1ac","ios":"levelo://app?vid=ec66178c-9377-4a8d-ba34-1a39bc42f1ac"},"vehicle_type_id":"4","last_reported":1725966443,"current_range_meters":37600,"station_id":"ce4bhr12rcd13ifvqhqg","pricing_plan_id":"cebpf4jnsgd1na2vs0mg"},{"bike_id":"d64d69d8-9c31-49ca-89b0-3d0216e1a0db","system_id":"levelo_inurba_marseille","lat":43.29577,"lon":5.39991,"is_reserved":false,"is_disabled":false,"rental_uris":{"android":"levelo://app?vid=d64d69d8-9c31-49ca-89b0-3d0216e1a0db","ios":"levelo://app?vid=d64d69d8-9c31-49ca-89b0-3d0216e1a0db"},"vehicle_type_id":"4","last_reported":1725966443,"current_range_meters":24800,"station_id":"ce4bh312rcd13ifvqdj0","pricing_plan_id":"cebpf4jnsgd1na2vs0mg"},{"bike_id":"c8566ff8-48bb-4153-8f25-6ecc62ca6edb","system_id":"levelo_inurba_marseille","lat":43.34123,"lon":5.40922,"is_reserved":false,"is_disabled":false,"rental_uris":{"android":"levelo://app?vid=c8566ff8-48bb-4153-8f25-6ecc62ca6edb","ios":"levelo://app?vid=c8566ff8-48bb-4153-8f25-6ecc62ca6edb"},"vehicle_type_id":"4","last_reported":1725966443,"current_range_meters":39200,"station_id":"ce4bhqh2rcd13ifvqhlg","pricing_plan_id":"cebpf4jnsgd1na2vs0mg"},{"bike_id":"bc745383-2511-4656-a4d1-e131400dfd60","system_id":"levelo_inurba_marseille","lat":43.23195,"lon":5.35562,"is_reserved":false,"is_disabled":false,"rental_uris":{"android":"levelo://app?vid=bc745383-2511-4656-a4d1-e131400dfd60","ios":"levelo://app?vid=bc745383-2511-4656-a4d1-e131400dfd60"},"vehicle_type_id":"4","last_reported":1725966443,"current_range_meters":17200,"station_id":"ce4bhu92rcd13ifvqi70","pricing_plan_id":"cebpf4jnsgd1na2vs0mg"},{"bike_id":"f299fcd4-3f01-4e7a-b296-b035f466b1d9","system_id":"levelo_inurba_marseille","lat":43.28029,"lon":5.36943,"is_reserved":false,"is_disabled":false,"rental_uris":{"android":"levelo://app?vid=f299fcd4-3f01-4e7a-b296-b035f466b1d9","ios":"levelo://app?vid=f299fcd4-3f01-4e7a-b296-b035f466b1d9"},"vehicle_type_id":"4","last_reported":1725966443,"current_range_meters":28800,"station_id":"ce4bha12rcd13ifvqef0","pricing_plan_id":"cebpf4jnsgd1na2vs0mg"},{"bike_id":"198819be-d53e-4cbb-b11b-db02f27f94c4","system_id":"levelo_inurba_marseille","lat":43.31882,"lon":5.40741,"is_reserved":false,"is_disabled":false,"rental_uris":{"android":"levelo://app?vid=198819be-d53e-4cbb-b11b-db02f27f94c4","ios":"levelo://app?vid=198819be-d53e-4cbb-b11b-db02f27f94c4"},"vehicle_type_id":"4","last_reported":1725966443,"current_range_meters":33200,"station_id":"ce4bhq12rcd13ifvqhig","pricing_plan_id":"cebpf4jnsgd1na2vs0mg"},{"bike_id":"2995aec0-d6e8-496b-82d8-5a402d2c0f8a","system_id":"levelo_inurba_marseille","lat":43.2439,"lon":5.3706,"is_reserved":false,"is_disabled":false,"rental_uris":{"android":"levelo://app?vid=2995aec0-d6e8-496b-82d8-5a402d2c0f8a","ios":"levelo://app?vid=2995aec0-d6e8-496b-82d8-5a402d2c0f8a"},"vehicle_type_id":"4","last_reported":1725966443,"current_range_meters":10000,"station_id":"ce4bhhh2rcd13ifvqfk0","pricing_plan_id":"cebpf4jnsgd1na2vs0mg"},{"bike_id":"3b96b0a8-2f80-41be-8f46-66b0a55ee32d","system_id":"levelo_inurba_marseille","lat":43.248,"lon":5.37451,"is_reserved":false,"is_disabled":false,"rental_uris":{"android":"levelo://app?vid=3b96b0a8-2f80-41be-8f46-66b0a55ee32d","ios":"levelo://app?vid=3b96b0a8-2f80-41be-8f46-66b0a55ee32d"},"vehicle_type_id":"4","last_reported":1725966443,"current_range_meters":16000,"station_id":"ce4bhgh2rcd13ifvqfb0","pricing_plan_id":"cebpf4jnsgd1na2vs0mg"},{"bike_id":"256ff1b4-3cda-4078-ac92-9b2b566638b7","system_id":"levelo_inurba_marseille","lat":43.25571,"lon":5.38235,"is_reserved":false,"is_disabled":false,"rental_uris":{"android":"levelo://app?vid=256ff1b4-3cda-4078-ac92-9b2b566638b7","ios":"levelo://app?vid=256ff1b4-3cda-4078-ac92-9b2b566638b7"},"vehicle_type_id":"4","last_reported":1725966443,"current_range_meters":31200,"station_id":"ce4bhih2rcd13ifvqfs0","pricing_plan_id":"cebpf4jnsgd1na2vs0mg"},{"bike_id":"01f9691b-1b98-4c68-95d4-5f3e993ae191","system_id":"levelo_inurba_marseille","lat":43.32023,"lon":5.41575,"is_reserved":false,"is_disabled":false,"rental_uris":{"android":"levelo://app?vid=01f9691b-1b98-4c68-95d4-5f3e993ae191","ios":"levelo://app?vid=01f9691b-1b98-4c68-95d4-5f3e993ae191"},"vehicle_type_id":"4","last_reported":1725966443,"current_range_meters":32000,"station_id":"ce4bhq92rcd13ifvqhkg","pricing_plan_id":"cebpf4jnsgd1na2vs0mg"},{"bike_id":"cbf59a2f-5339-4273-acba-478410a57dc1","system_id":"levelo_inurba_marseille","lat":43.30952,"lon":5.39051,"is_reserved":false,"is_disabled":false,"rental_uris":{"android":"levelo://app?vid=cbf59a2f-5339-4273-acba-478410a57dc1","ios":"levelo://app?vid=cbf59a2f-5339-4273-acba-478410a57dc1"},"vehicle_type_id":"4","last_reported":1725966443,"current_range_meters":30800,"station_id":"ce4bgup2rcd13ifvqco0","pricing_plan_id":"cebpf4jnsgd1na2vs0mg"},{"bike_id":"ccbf5e43-be0f-4330-aa14-cfe13aff8a11","system_id":"levelo_inurba_marseille","lat":43.27276,"lon":5.41584,"is_reserved":false,"is_disabled":false,"rental_uris":{"android":"levelo://app?vid=ccbf5e43-be0f-4330-aa14-cfe13aff8a11","ios":"levelo://app?vid=ccbf5e43-be0f-4330-aa14-cfe13aff8a11"},"vehicle_type_id":"4","last_reported":1725966443,"current_range_meters":7200,"station_id":"","pricing_plan_id":"cebpf4jnsgd1na2vs0mg"},{"bike_id":"1fc57519-dc4d-467d-bf46-9011e657cd62","system_id":"levelo_inurba_marseille","lat":43.28934,"lon":5.36643,"is_reserved":false,"is_disabled":false,"rental_uris":{"android":"levelo://app?vid=1fc57519-dc4d-467d-bf46-9011e657cd62","ios":"levelo://app?vid=1fc57519-dc4d-467d-bf46-9011e657cd62"},"vehicle_type_id":"4","last_reported":1725966443,"current_range_meters":33600,"station_id":"ce4bhap2rcd13ifvqek0","pricing_plan_id":"cebpf4jnsgd1na2vs0mg"},{"bike_id":"fd84bdd9-9ebd-41de-943d-a473de679ba2","system_id":"levelo_inurba_marseille","lat":43.27494,"lon":5.42452,"is_reserved":false,"is_disabled":false,"rental_uris":{"android":"levelo://app?vid=fd84bdd9-9ebd-41de-943d-a473de679ba2","ios":"levelo://app?vid=fd84bdd9-9ebd-41de-943d-a473de679ba2"},"vehicle_type_id":"4","last_reported":1725966443,"current_range_meters":22400,"station_id":"ce4bhn92rcd13ifvqgrg","pricing_plan_id":"cebpf4jnsgd1na2vs0mg"},{"bike_id":"dac87991-7d0f-412e-b015-b5f3a8e6c91b","system_id":"levelo_inurba_marseille","lat":43.31758,"lon":5.39009,"is_reserved":false,"is_disabled":false,"rental_uris":{"android":"levelo://app?vid=dac87991-7d0f-412e-b015-b5f3a8e6c91b","ios":"levelo://app?vid=dac87991-7d0f-412e-b015-b5f3a8e6c91b"},"vehicle_type_id":"4","last_reported":1725966443,"current_range_meters":4000,"station_id":"ce4bhqp2rcd13ifvqhng","pricing_plan_id":"cebpf4jnsgd1na2vs0mg"},{"bike_id":"c4282c32-a9e1-4941-940f-49ec442f3ab7","system_id":"levelo_inurba_marseille","lat":43.27211,"lon":5.39175,"is_reserved":false,"is_disabled":false,"rental_uris":{"android":"levelo://app?vid=c4282c32-a9e1-4941-940f-49ec442f3ab7","ios":"levelo://app?vid=c4282c32-a9e1-4941-940f-49ec442f3ab7"},"vehicle_type_id":"4","last_reported":1725966443,"current_range_meters":9600,"station_id":"ce4bhhp2rcd13ifvqfm0","pricing_plan_id":"cebpf4jnsgd1na2vs0mg"},{"bike_id":"69e887f5-8a63-4dc2-8534-1bb6d6ddd4fa","system_id":"levelo_inurba_marseille","lat":43.23142,"lon":5.43705,"is_reserved":false,"is_disabled":false,"rental_uris":{"android":"levelo://app?vid=69e887f5-8a63-4dc2-8534-1bb6d6ddd4fa","ios":"levelo://app?vid=69e887f5-8a63-4dc2-8534-1bb6d6ddd4fa"},"vehicle_type_id":"4","last_reported":1725966443,"current_range_meters":36000,"station_id":"ce4bhmp2rcd13ifvqgog","pricing_plan_id":"cebpf4jnsgd1na2vs0mg"},{"bike_id":"663c7ea8-d368-42c6-8b30-b0f3c39f875c","system_id":"levelo_inurba_marseille","lat":43.29162,"lon":5.37149,"is_reserved":false,"is_disabled":false,"rental_uris":{"android":"levelo://app?vid=663c7ea8-d368-42c6-8b30-b0f3c39f875c","ios":"levelo://app?vid=663c7ea8-d368-42c6-8b30-b0f3c39f875c"},"vehicle_type_id":"4","last_reported":1725966443,"current_range_meters":22800,"station_id":"ce4bha92rcd13ifvqeh0","pricing_plan_id":"cebpf4jnsgd1na2vs0mg"},{"bike_id":"57d611e8-3a54-469e-8e15-ac626f0006d8","system_id":"levelo_inurba_marseille","lat":43.3054,"lon":5.36543,"is_reserved":false,"is_disabled":false,"rental_uris":{"android":"levelo://app?vid=57d611e8-3a54-469e-8e15-ac626f0006d8","ios":"levelo://app?vid=57d611e8-3a54-469e-8e15-ac626f0006d8"},"vehicle_type_id":"4","last_reported":1725966443,"current_range_meters":25200,"station_id":"ce4bgs12rcd13ifvqcag","pricing_plan_id":"cebpf4jnsgd1na2vs0mg"},{"bike_id":"e5c7d603-35a9-4269-94a5-4d3da62f8996","system_id":"levelo_inurba_marseille","lat":43.24088,"lon":5.37823,"is_reserved":false,"is_disabled":false,"rental_uris":{"android":"levelo://app?vid=e5c7d603-35a9-4269-94a5-4d3da62f8996","ios":"levelo://app?vid=e5c7d603-35a9-4269-94a5-4d3da62f8996"},"vehicle_type_id":"4","last_reported":1725966443,"current_range_meters":30800,"station_id":"ce4bhnp2rcd13ifvqgvg","pricing_plan_id":"cebpf4jnsgd1na2vs0mg"},{"bike_id":"c13e1edb-f817-452d-bc46-6f34e97f4d9c","system_id":"levelo_inurba_marseille","lat":43.24075,"lon":5.37743,"is_reserved":false,"is_disabled":false,"rental_uris":{"android":"levelo://app?vid=c13e1edb-f817-452d-bc46-6f34e97f4d9c","ios":"levelo://app?vid=c13e1edb-f817-452d-bc46-6f34e97f4d9c"},"vehicle_type_id":"4","last_reported":1725966443,"current_range_meters":32000,"station_id":"ce4bhnp2rcd13ifvqgvg","pricing_plan_id":"cebpf4jnsgd1na2vs0mg"},{"bike_id":"ed08ae95-1857-4cf4-87fe-c32ce2027df3","system_id":"levelo_inurba_marseille","lat":43.24078,"lon":5.37753,"is_reserved":false,"is_disabled":false,"rental_uris":{"android":"levelo://app?vid=ed08ae95-1857-4cf4-87fe-c32ce2027df3","ios":"levelo://app?vid=ed08ae95-1857-4cf4-87fe-c32ce2027df3"},"vehicle_type_id":"4","last_reported":1725966443,"current_range_meters":30400,"station_id":"ce4bhnp2rcd13ifvqgvg","pricing_plan_id":"cebpf4jnsgd1na2vs0mg"},{"bike_id":"626a82a3-3112-4517-a47c-f68d55d34938","system_id":"levelo_inurba_marseille","lat":43.24649,"lon":5.38895,"is_reserved":false,"is_disabled":false,"rental_uris":{"android":"levelo://app?vid=626a82a3-3112-4517-a47c-f68d55d34938","ios":"levelo://app?vid=626a82a3-3112-4517-a47c-f68d55d34938"},"vehicle_type_id":"4","last_reported":1725966443,"current_range_meters":33600,"station_id":"ce4bhg12rcd13ifvqf60","pricing_plan_id":"cebpf4jnsgd1na2vs0mg"},{"bike_id":"2e612cfa-42be-4ffb-a922-3efc828d3da2","system_id":"levelo_inurba_marseille","lat":43.24069,"lon":5.37756,"is_reserved":false,"is_disabled":false,"rental_uris":{"android":"levelo://app?vid=2e612cfa-42be-4ffb-a922-3efc828d3da2","ios":"levelo://app?vid=2e612cfa-42be-4ffb-a922-3efc828d3da2"},"vehicle_type_id":"4","last_reported":1725966443,"current_range_meters":14800,"station_id":"ce4bhnp2rcd13ifvqgvg","pricing_plan_id":"cebpf4jnsgd1na2vs0mg"},{"bike_id":"26505684-7909-4a05-a336-28c2a2ea143e","system_id":"levelo_inurba_marseille","lat":43.24081,"lon":5.37738,"is_reserved":false,"is_disabled":false,"rental_uris":{"android":"levelo://app?vid=26505684-7909-4a05-a336-28c2a2ea143e","ios":"levelo://app?vid=26505684-7909-4a05-a336-28c2a2ea143e"},"vehicle_type_id":"4","last_reported":1725966443,"current_range_meters":20400,"station_id":"ce4bhnp2rcd13ifvqgvg","pricing_plan_id":"cebpf4jnsgd1na2vs0mg"},{"bike_id":"564126ad-6c5f-4b46-af55-3d82172070fc","system_id":"levelo_inurba_marseille","lat":43.3045,"lon":5.37907,"is_reserved":false,"is_disabled":false,"rental_uris":{"android":"levelo://app?vid=564126ad-6c5f-4b46-af55-3d82172070fc","ios":"levelo://app?vid=564126ad-6c5f-4b46-af55-3d82172070fc"},"vehicle_type_id":"4","last_reported":1725966443,"current_range_meters":28800,"station_id":"ce4bgup2rcd13ifvqcn0","pricing_plan_id":"cebpf4jnsgd1na2vs0mg"},{"bike_id":"53bfff36-b94a-45fe-82e3-e585e0b70be0","system_id":"levelo_inurba_marseille","lat":43.2668,"lon":5.38264,"is_reserved":false,"is_disabled":false,"rental_uris":{"android":"levelo://app?vid=53bfff36-b94a-45fe-82e3-e585e0b70be0","ios":"levelo://app?vid=53bfff36-b94a-45fe-82e3-e585e0b70be0"},"vehicle_type_id":"4","last_reported":1725966443,"current_range_meters":28400,"station_id":"ce4bhg92rcd13ifvqf90","pricing_plan_id":"cebpf4jnsgd1na2vs0mg"},{"bike_id":"d170a587-1e00-4d01-b299-3ca4977fc50a","system_id":"levelo_inurba_marseille","lat":43.337444,"lon":5.374475,"is_reserved":false,"is_disabled":false,"rental_uris":{"android":"levelo://app?vid=d170a587-1e00-4d01-b299-3ca4977fc50a","ios":"levelo://app?vid=d170a587-1e00-4d01-b299-3ca4977fc50a"},"vehicle_type_id":"4","last_reported":1725966443,"current_range_meters":36400,"station_id":"","pricing_plan_id":"cebpf4jnsgd1na2vs0mg"},{"bike_id":"a095d557-e884-4866-b6c4-5dbebc1d04a9","system_id":"levelo_inurba_marseille","lat":43.29554,"lon":5.42277,"is_reserved":false,"is_disabled":false,"rental_uris":{"android":"levelo://app?vid=a095d557-e884-4866-b6c4-5dbebc1d04a9","ios":"levelo://app?vid=a095d557-e884-4866-b6c4-5dbebc1d04a9"},"vehicle_type_id":"4","last_reported":1725966443,"current_range_meters":20000,"station_id":"ce4bhph2rcd13ifvqhdg","pricing_plan_id":"cebpf4jnsgd1na2vs0mg"},{"bike_id":"0e5356d3-026d-4699-a743-939de75ee448","system_id":"levelo_inurba_marseille","lat":43.305953,"lon":5.393603,"is_reserved":false,"is_disabled":false,"rental_uris":{"android":"levelo://app?vid=0e5356d3-026d-4699-a743-939de75ee448","ios":"levelo://app?vid=0e5356d3-026d-4699-a743-939de75ee448"},"vehicle_type_id":"4","last_reported":1725966443,"current_range_meters":26000,"station_id":"ce4bh0p2rcd13ifvqd80","pricing_plan_id":"cebpf4jnsgd1na2vs0mg"},{"bike_id":"4a8fa40b-4bc5-4cf7-923d-e9ee40a62c3e","system_id":"levelo_inurba_marseille","lat":43.311664,"lon":5.387222,"is_reserved":false,"is_disabled":false,"rental_uris":{"android":"levelo://app?vid=4a8fa40b-4bc5-4cf7-923d-e9ee40a62c3e","ios":"levelo://app?vid=4a8fa40b-4bc5-4cf7-923d-e9ee40a62c3e"},"vehicle_type_id":"4","last_reported":1725966443,"current_range_meters":20000,"station_id":"ce4bgv12rcd13ifvqcp0","pricing_plan_id":"cebpf4jnsgd1na2vs0mg"},{"bike_id":"a7aa87aa-c630-4742-8803-81f545e239a6","system_id":"levelo_inurba_marseille","lat":43.278313,"lon":5.391974,"is_reserved":false,"is_disabled":false,"rental_uris":{"android":"levelo://app?vid=a7aa87aa-c630-4742-8803-81f545e239a6","ios":"levelo://app?vid=a7aa87aa-c630-4742-8803-81f545e239a6"},"vehicle_type_id":"4","last_reported":1725966443,"current_range_meters":24800,"station_id":"ce4bhjp2rcd13ifvqga0","pricing_plan_id":"cebpf4jnsgd1na2vs0mg"},{"bike_id":"b7481d4c-cf9b-46b4-983a-4af930f32bc9","system_id":"levelo_inurba_marseille","lat":43.31481,"lon":5.37298,"is_reserved":false,"is_disabled":false,"rental_uris":{"android":"levelo://app?vid=b7481d4c-cf9b-46b4-983a-4af930f32bc9","ios":"levelo://app?vid=b7481d4c-cf9b-46b4-983a-4af930f32bc9"},"vehicle_type_id":"4","last_reported":1725966443,"current_range_meters":38400,"station_id":"ce4bgt12rcd13ifvqcd0","pricing_plan_id":"cebpf4jnsgd1na2vs0mg"},{"bike_id":"fa0d9299-ddb2-4037-a7d6-400ddf0d18d0","system_id":"levelo_inurba_marseille","lat":43.289593,"lon":5.397104,"is_reserved":false,"is_disabled":false,"rental_uris":{"android":"levelo://app?vid=fa0d9299-ddb2-4037-a7d6-400ddf0d18d0","ios":"levelo://app?vid=fa0d9299-ddb2-4037-a7d6-400ddf0d18d0"},"vehicle_type_id":"4","last_reported":1725966443,"current_range_meters":24000,"station_id":"ce4bh3h2rcd13ifvqdn0","pricing_plan_id":"cebpf4jnsgd1na2vs0mg"},{"bike_id":"4def9189-097a-4e5e-9409-b7f001328360","system_id":"levelo_inurba_marseille","lat":43.27489,"lon":5.42455,"is_reserved":false,"is_disabled":false,"rental_uris":{"android":"levelo://app?vid=4def9189-097a-4e5e-9409-b7f001328360","ios":"levelo://app?vid=4def9189-097a-4e5e-9409-b7f001328360"},"vehicle_type_id":"4","last_reported":1725966443,"current_range_meters":26000,"station_id":"ce4bhn92rcd13ifvqgrg","pricing_plan_id":"cebpf4jnsgd1na2vs0mg"},{"bike_id":"e1afa912-2bf9-49f5-ab54-6e9af09aacb3","system_id":"levelo_inurba_marseille","lat":43.23175,"lon":5.39986,"is_reserved":false,"is_disabled":false,"rental_uris":{"android":"levelo://app?vid=e1afa912-2bf9-49f5-ab54-6e9af09aacb3","ios":"levelo://app?vid=e1afa912-2bf9-49f5-ab54-6e9af09aacb3"},"vehicle_type_id":"4","last_reported":1725966443,"current_range_meters":11200,"station_id":"ce4bhn12rcd13ifvqgqg","pricing_plan_id":"cebpf4jnsgd1na2vs0mg"},{"bike_id":"575be697-065b-4a21-be17-8e732ce43e4b","system_id":"levelo_inurba_marseille","lat":43.24385,"lon":5.37056,"is_reserved":false,"is_disabled":false,"rental_uris":{"android":"levelo://app?vid=575be697-065b-4a21-be17-8e732ce43e4b","ios":"levelo://app?vid=575be697-065b-4a21-be17-8e732ce43e4b"},"vehicle_type_id":"4","last_reported":1725966443,"current_range_meters":34800,"station_id":"ce4bhhh2rcd13ifvqfk0","pricing_plan_id":"cebpf4jnsgd1na2vs0mg"},{"bike_id":"e7036c44-a45a-4935-b5dd-c627753e0a29","system_id":"levelo_inurba_marseille","lat":43.28606,"lon":5.35097,"is_reserved":false,"is_disabled":false,"rental_uris":{"android":"levelo://app?vid=e7036c44-a45a-4935-b5dd-c627753e0a29","ios":"levelo://app?vid=e7036c44-a45a-4935-b5dd-c627753e0a29"},"vehicle_type_id":"4","last_reported":1725966443,"current_range_meters":38000,"station_id":"ce4bhch2rcd13ifvqeug","pricing_plan_id":"cebpf4jnsgd1na2vs0mg"},{"bike_id":"3077af2e-6a31-47df-9107-9d55d6896f70","system_id":"levelo_inurba_marseille","lat":43.23967,"lon":5.36625,"is_reserved":false,"is_disabled":false,"rental_uris":{"android":"levelo://app?vid=3077af2e-6a31-47df-9107-9d55d6896f70","ios":"levelo://app?vid=3077af2e-6a31-47df-9107-9d55d6896f70"},"vehicle_type_id":"4","last_reported":1725966443,"current_range_meters":12000,"station_id":"ce4bhi12rcd13ifvqfp0","pricing_plan_id":"cebpf4jnsgd1na2vs0mg"},{"bike_id":"6906b4ad-0e66-4693-a4a2-667809388bde","system_id":"levelo_inurba_marseille","lat":43.304287,"lon":5.388932,"is_reserved":false,"is_disabled":false,"rental_uris":{"android":"levelo://app?vid=6906b4ad-0e66-4693-a4a2-667809388bde","ios":"levelo://app?vid=6906b4ad-0e66-4693-a4a2-667809388bde"},"vehicle_type_id":"4","last_reported":1725966443,"current_range_meters":28400,"station_id":"ce4bgk12rcd13ifvqbi0","pricing_plan_id":"cebpf4jnsgd1na2vs0mg"},{"bike_id":"a1b8c083-b3ac-40b0-9a89-c4a2e099ea9a","system_id":"levelo_inurba_marseille","lat":43.30459,"lon":5.37903,"is_reserved":false,"is_disabled":false,"rental_uris":{"android":"levelo://app?vid=a1b8c083-b3ac-40b0-9a89-c4a2e099ea9a","ios":"levelo://app?vid=a1b8c083-b3ac-40b0-9a89-c4a2e099ea9a"},"vehicle_type_id":"4","last_reported":1725966443,"current_range_meters":35200,"station_id":"ce4bgr92rcd13ifvqc6g","pricing_plan_id":"cebpf4jnsgd1na2vs0mg"},{"bike_id":"e1fcc64e-617d-409e-af3b-b2d6f8e6c731","system_id":"levelo_inurba_marseille","lat":43.30143,"lon":5.38079,"is_reserved":false,"is_disabled":false,"rental_uris":{"android":"levelo://app?vid=e1fcc64e-617d-409e-af3b-b2d6f8e6c731","ios":"levelo://app?vid=e1fcc64e-617d-409e-af3b-b2d6f8e6c731"},"vehicle_type_id":"4","last_reported":1725966443,"current_range_meters":22800,"station_id":"ce4bgjp2rcd13ifvqbh0","pricing_plan_id":"cebpf4jnsgd1na2vs0mg"},{"bike_id":"c648b965-f80b-4c39-a65b-b5f375d89b32","system_id":"levelo_inurba_marseille","lat":43.30454,"lon":5.37904,"is_reserved":false,"is_disabled":false,"rental_uris":{"android":"levelo://app?vid=c648b965-f80b-4c39-a65b-b5f375d89b32","ios":"levelo://app?vid=c648b965-f80b-4c39-a65b-b5f375d89b32"},"vehicle_type_id":"4","last_reported":1725966443,"current_range_meters":14000,"station_id":"ce4bgup2rcd13ifvqcn0","pricing_plan_id":"cebpf4jnsgd1na2vs0mg"},{"bike_id":"fc3a0572-143d-4313-9e0d-391fb9baa90a","system_id":"levelo_inurba_marseille","lat":43.26553,"lon":5.37285,"is_reserved":false,"is_disabled":false,"rental_uris":{"android":"levelo://app?vid=fc3a0572-143d-4313-9e0d-391fb9baa90a","ios":"levelo://app?vid=fc3a0572-143d-4313-9e0d-391fb9baa90a"},"vehicle_type_id":"4","last_reported":1725966443,"current_range_meters":7200,"station_id":"ce4bhg12rcd13ifvqf70","pricing_plan_id":"cebpf4jnsgd1na2vs0mg"},{"bike_id":"2dff7ecf-db31-4b52-ab5f-c4df787b63b0","system_id":"levelo_inurba_marseille","lat":43.24551,"lon":5.39524,"is_reserved":false,"is_disabled":false,"rental_uris":{"android":"levelo://app?vid=2dff7ecf-db31-4b52-ab5f-c4df787b63b0","ios":"levelo://app?vid=2dff7ecf-db31-4b52-ab5f-c4df787b63b0"},"vehicle_type_id":"4","last_reported":1725966443,"current_range_meters":16400,"station_id":"ce4bhlp2rcd13ifvqgjg","pricing_plan_id":"cebpf4jnsgd1na2vs0mg"},{"bike_id":"a85c78bc-418c-4af0-8edd-59c76790768f","system_id":"levelo_inurba_marseille","lat":43.32476,"lon":5.36562,"is_reserved":false,"is_disabled":false,"rental_uris":{"android":"levelo://app?vid=a85c78bc-418c-4af0-8edd-59c76790768f","ios":"levelo://app?vid=a85c78bc-418c-4af0-8edd-59c76790768f"},"vehicle_type_id":"4","last_reported":1725966443,"current_range_meters":28000,"station_id":"ce4bhs12rcd13ifvqhvg","pricing_plan_id":"cebpf4jnsgd1na2vs0mg"},{"bike_id":"8bcc0cac-e194-457b-af48-a1976a5d5edd","system_id":"levelo_inurba_marseille","lat":43.24642,"lon":5.38901,"is_reserved":false,"is_disabled":false,"rental_uris":{"android":"levelo://app?vid=8bcc0cac-e194-457b-af48-a1976a5d5edd","ios":"levelo://app?vid=8bcc0cac-e194-457b-af48-a1976a5d5edd"},"vehicle_type_id":"4","last_reported":1725966443,"current_range_meters":39200,"station_id":"ce4bhg12rcd13ifvqf60","pricing_plan_id":"cebpf4jnsgd1na2vs0mg"},{"bike_id":"d9663d21-c90b-4b46-821c-b724101c7b12","system_id":"levelo_inurba_marseille","lat":43.29847,"lon":5.36263,"is_reserved":false,"is_disabled":false,"rental_uris":{"android":"levelo://app?vid=d9663d21-c90b-4b46-821c-b724101c7b12","ios":"levelo://app?vid=d9663d21-c90b-4b46-821c-b724101c7b12"},"vehicle_type_id":"4","last_reported":1725966443,"current_range_meters":36400,"station_id":"ce4bgpp2rcd13ifvqc3g","pricing_plan_id":"cebpf4jnsgd1na2vs0mg"},{"bike_id":"1512bd43-6a9b-43c3-a73e-973c1d2d5e60","system_id":"levelo_inurba_marseille","lat":43.28363,"lon":5.38612,"is_reserved":false,"is_disabled":false,"rental_uris":{"android":"levelo://app?vid=1512bd43-6a9b-43c3-a73e-973c1d2d5e60","ios":"levelo://app?vid=1512bd43-6a9b-43c3-a73e-973c1d2d5e60"},"vehicle_type_id":"4","last_reported":1725966443,"current_range_meters":36400,"station_id":"ce4bh492rcd13ifvqdvg","pricing_plan_id":"cebpf4jnsgd1na2vs0mg"},{"bike_id":"39dbd78d-2340-4344-af66-e669072084d8","system_id":"levelo_inurba_marseille","lat":43.321826,"lon":5.408032,"is_reserved":false,"is_disabled":false,"rental_uris":{"android":"levelo://app?vid=39dbd78d-2340-4344-af66-e669072084d8","ios":"levelo://app?vid=39dbd78d-2340-4344-af66-e669072084d8"},"vehicle_type_id":"4","last_reported":1725966443,"current_range_meters":26800,"station_id":"ce4bhq12rcd13ifvqhig","pricing_plan_id":"cebpf4jnsgd1na2vs0mg"},{"bike_id":"9f0a1eb3-ed63-4bc1-a966-5af9292852d5","system_id":"levelo_inurba_marseille","lat":43.29851,"lon":5.36276,"is_reserved":false,"is_disabled":false,"rental_uris":{"android":"levelo://app?vid=9f0a1eb3-ed63-4bc1-a966-5af9292852d5","ios":"levelo://app?vid=9f0a1eb3-ed63-4bc1-a966-5af9292852d5"},"vehicle_type_id":"4","last_reported":1725966443,"current_range_meters":38800,"station_id":"ce4bgpp2rcd13ifvqc3g","pricing_plan_id":"cebpf4jnsgd1na2vs0mg"},{"bike_id":"f715e76b-ad13-457f-b15f-b87bdbac5f61","system_id":"levelo_inurba_marseille","lat":43.28613,"lon":5.35094,"is_reserved":false,"is_disabled":false,"rental_uris":{"android":"levelo://app?vid=f715e76b-ad13-457f-b15f-b87bdbac5f61","ios":"levelo://app?vid=f715e76b-ad13-457f-b15f-b87bdbac5f61"},"vehicle_type_id":"4","last_reported":1725966443,"current_range_meters":27600,"station_id":"ce4bhch2rcd13ifvqeug","pricing_plan_id":"cebpf4jnsgd1na2vs0mg"},{"bike_id":"9c97f9ec-7a9d-41fa-833c-34ce56ba5dfe","system_id":"levelo_inurba_marseille","lat":43.2293,"lon":5.35375,"is_reserved":false,"is_disabled":false,"rental_uris":{"android":"levelo://app?vid=9c97f9ec-7a9d-41fa-833c-34ce56ba5dfe","ios":"levelo://app?vid=9c97f9ec-7a9d-41fa-833c-34ce56ba5dfe"},"vehicle_type_id":"4","last_reported":1725966443,"current_range_meters":6400,"station_id":"cpo3532slgdg3j2ikp40","pricing_plan_id":"cebpf4jnsgd1na2vs0mg"},{"bike_id":"74deabc1-d687-4294-9852-300975c87d9e","system_id":"levelo_inurba_marseille","lat":43.24079,"lon":5.37747,"is_reserved":false,"is_disabled":false,"rental_uris":{"android":"levelo://app?vid=74deabc1-d687-4294-9852-300975c87d9e","ios":"levelo://app?vid=74deabc1-d687-4294-9852-300975c87d9e"},"vehicle_type_id":"4","last_reported":1725966443,"current_range_meters":17600,"station_id":"ce4bhnp2rcd13ifvqgvg","pricing_plan_id":"cebpf4jnsgd1na2vs0mg"},{"bike_id":"6bc78a58-cf39-436d-963c-76da93ea5d85","system_id":"levelo_inurba_marseille","lat":43.30303,"lon":5.36904,"is_reserved":false,"is_disabled":false,"rental_uris":{"android":"levelo://app?vid=6bc78a58-cf39-436d-963c-76da93ea5d85","ios":"levelo://app?vid=6bc78a58-cf39-436d-963c-76da93ea5d85"},"vehicle_type_id":"4","last_reported":1725966443,"current_range_meters":23200,"station_id":"ce4bgqh2rcd13ifvqc5g","pricing_plan_id":"cebpf4jnsgd1na2vs0mg"},{"bike_id":"33d2dd4d-8597-4f3c-972f-4b8ad069840c","system_id":"levelo_inurba_marseille","lat":43.273776,"lon":5.36279,"is_reserved":false,"is_disabled":false,"rental_uris":{"android":"levelo://app?vid=33d2dd4d-8597-4f3c-972f-4b8ad069840c","ios":"levelo://app?vid=33d2dd4d-8597-4f3c-972f-4b8ad069840c"},"vehicle_type_id":"4","last_reported":1725966443,"current_range_meters":32000,"station_id":"ce4bhbh2rcd13ifvqeo0","pricing_plan_id":"cebpf4jnsgd1na2vs0mg"},{"bike_id":"157b91ce-8b24-4cee-af1b-7e3dad9d25e9","system_id":"levelo_inurba_marseille","lat":43.29259,"lon":5.40906,"is_reserved":false,"is_disabled":false,"rental_uris":{"android":"levelo://app?vid=157b91ce-8b24-4cee-af1b-7e3dad9d25e9","ios":"levelo://app?vid=157b91ce-8b24-4cee-af1b-7e3dad9d25e9"},"vehicle_type_id":"4","last_reported":1725966443,"current_range_meters":36800,"station_id":"ce4bh192rcd13ifvqdc0","pricing_plan_id":"cebpf4jnsgd1na2vs0mg"},{"bike_id":"4490c6dd-a0b6-4c6a-8bd3-d2268595024a","system_id":"levelo_inurba_marseille","lat":43.2407,"lon":5.37755,"is_reserved":false,"is_disabled":false,"rental_uris":{"android":"levelo://app?vid=4490c6dd-a0b6-4c6a-8bd3-d2268595024a","ios":"levelo://app?vid=4490c6dd-a0b6-4c6a-8bd3-d2268595024a"},"vehicle_type_id":"4","last_reported":1725966443,"current_range_meters":8400,"station_id":"ce4bhnp2rcd13ifvqgvg","pricing_plan_id":"cebpf4jnsgd1na2vs0mg"},{"bike_id":"1a9dfcb8-d4cc-46d1-bada-7d344f8f428d","system_id":"levelo_inurba_marseille","lat":43.30554,"lon":5.36541,"is_reserved":false,"is_disabled":false,"rental_uris":{"android":"levelo://app?vid=1a9dfcb8-d4cc-46d1-bada-7d344f8f428d","ios":"levelo://app?vid=1a9dfcb8-d4cc-46d1-bada-7d344f8f428d"},"vehicle_type_id":"4","last_reported":1725966443,"current_range_meters":40000,"station_id":"ce4bgs12rcd13ifvqcag","pricing_plan_id":"cebpf4jnsgd1na2vs0mg"},{"bike_id":"0f8d4871-40aa-4918-ae57-55191cfaadca","system_id":"levelo_inurba_marseille","lat":43.24073,"lon":5.37745,"is_reserved":false,"is_disabled":false,"rental_uris":{"android":"levelo://app?vid=0f8d4871-40aa-4918-ae57-55191cfaadca","ios":"levelo://app?vid=0f8d4871-40aa-4918-ae57-55191cfaadca"},"vehicle_type_id":"4","last_reported":1725966443,"current_range_meters":18000,"station_id":"ce4bhnp2rcd13ifvqgvg","pricing_plan_id":"cebpf4jnsgd1na2vs0mg"},{"bike_id":"e274c9df-8905-4b55-8dfb-ddc70bddfcca","system_id":"levelo_inurba_marseille","lat":43.28695,"lon":5.38645,"is_reserved":false,"is_disabled":false,"rental_uris":{"android":"levelo://app?vid=e274c9df-8905-4b55-8dfb-ddc70bddfcca","ios":"levelo://app?vid=e274c9df-8905-4b55-8dfb-ddc70bddfcca"},"vehicle_type_id":"4","last_reported":1725966443,"current_range_meters":35600,"station_id":"ce4bh492rcd13ifvqdug","pricing_plan_id":"cebpf4jnsgd1na2vs0mg"},{"bike_id":"7bb5a6c7-6dd5-4a42-9215-dad1557690cc","system_id":"levelo_inurba_marseille","lat":43.3229,"lon":5.38264,"is_reserved":false,"is_disabled":false,"rental_uris":{"android":"levelo://app?vid=7bb5a6c7-6dd5-4a42-9215-dad1557690cc","ios":"levelo://app?vid=7bb5a6c7-6dd5-4a42-9215-dad1557690cc"},"vehicle_type_id":"4","last_reported":1725966443,"current_range_meters":36400,"station_id":"ce4bhr12rcd13ifvqhqg","pricing_plan_id":"cebpf4jnsgd1na2vs0mg"},{"bike_id":"4c8ead1b-8967-4ce0-b7b0-8e421468bd0c","system_id":"levelo_inurba_marseille","lat":43.3121,"lon":5.401313,"is_reserved":false,"is_disabled":false,"rental_uris":{"android":"levelo://app?vid=4c8ead1b-8967-4ce0-b7b0-8e421468bd0c","ios":"levelo://app?vid=4c8ead1b-8967-4ce0-b7b0-8e421468bd0c"},"vehicle_type_id":"4","last_reported":1725966443,"current_range_meters":31200,"station_id":"ce4bh092rcd13ifvqd30","pricing_plan_id":"cebpf4jnsgd1na2vs0mg"},{"bike_id":"2cd02883-9ff1-4b9e-92b8-4ca94c89bc03","system_id":"levelo_inurba_marseille","lat":43.30583,"lon":5.39354,"is_reserved":false,"is_disabled":false,"rental_uris":{"android":"levelo://app?vid=2cd02883-9ff1-4b9e-92b8-4ca94c89bc03","ios":"levelo://app?vid=2cd02883-9ff1-4b9e-92b8-4ca94c89bc03"},"vehicle_type_id":"4","last_reported":1725966443,"current_range_meters":37600,"station_id":"ce4bh0p2rcd13ifvqd80","pricing_plan_id":"cebpf4jnsgd1na2vs0mg"},{"bike_id":"e33d7af7-1d86-4d8d-863a-2993bc644e02","system_id":"levelo_inurba_marseille","lat":43.283746,"lon":5.386096,"is_reserved":false,"is_disabled":false,"rental_uris":{"android":"levelo://app?vid=e33d7af7-1d86-4d8d-863a-2993bc644e02","ios":"levelo://app?vid=e33d7af7-1d86-4d8d-863a-2993bc644e02"},"vehicle_type_id":"4","last_reported":1725966443,"current_range_meters":22800,"station_id":"ce4bh492rcd13ifvqdvg","pricing_plan_id":"cebpf4jnsgd1na2vs0mg"},{"bike_id":"34ea09b7-c862-45ca-af37-ca74b5322a31","system_id":"levelo_inurba_marseille","lat":43.302749,"lon":5.377151,"is_reserved":false,"is_disabled":false,"rental_uris":{"android":"levelo://app?vid=34ea09b7-c862-45ca-af37-ca74b5322a31","ios":"levelo://app?vid=34ea09b7-c862-45ca-af37-ca74b5322a31"},"vehicle_type_id":"4","last_reported":1725966443,"current_range_meters":36800,"station_id":"ce4bguh2rcd13ifvqcj0","pricing_plan_id":"cebpf4jnsgd1na2vs0mg"},{"bike_id":"f39b2119-4a11-4daa-9c63-03c8da229918","system_id":"levelo_inurba_marseille","lat":43.27493,"lon":5.42454,"is_reserved":false,"is_disabled":false,"rental_uris":{"android":"levelo://app?vid=f39b2119-4a11-4daa-9c63-03c8da229918","ios":"levelo://app?vid=f39b2119-4a11-4daa-9c63-03c8da229918"},"vehicle_type_id":"4","last_reported":1725966443,"current_range_meters":4000,"station_id":"ce4bhn92rcd13ifvqgrg","pricing_plan_id":"cebpf4jnsgd1na2vs0mg"},{"bike_id":"f3f9b439-cb43-49e7-91bb-f7d8112b0f88","system_id":"levelo_inurba_marseille","lat":43.311062,"lon":5.377447,"is_reserved":false,"is_disabled":false,"rental_uris":{"android":"levelo://app?vid=f3f9b439-cb43-49e7-91bb-f7d8112b0f88","ios":"levelo://app?vid=f3f9b439-cb43-49e7-91bb-f7d8112b0f88"},"vehicle_type_id":"4","last_reported":1725966443,"current_range_meters":30400,"station_id":"ce4bgt92rcd13ifvqcg0","pricing_plan_id":"cebpf4jnsgd1na2vs0mg"},{"bike_id":"470a0abf-92d0-4d69-b133-0e25ac06e225","system_id":"levelo_inurba_marseille","lat":43.30872,"lon":5.3965,"is_reserved":false,"is_disabled":false,"rental_uris":{"android":"levelo://app?vid=470a0abf-92d0-4d69-b133-0e25ac06e225","ios":"levelo://app?vid=470a0abf-92d0-4d69-b133-0e25ac06e225"},"vehicle_type_id":"4","last_reported":1725966443,"current_range_meters":4400,"station_id":"ce4bh012rcd13ifvqcv0","pricing_plan_id":"cebpf4jnsgd1na2vs0mg"},{"bike_id":"8fa562c0-61d1-4dd9-a1fd-6ca60e602a14","system_id":"levelo_inurba_marseille","lat":43.27938,"lon":5.41053,"is_reserved":false,"is_disabled":false,"rental_uris":{"android":"levelo://app?vid=8fa562c0-61d1-4dd9-a1fd-6ca60e602a14","ios":"levelo://app?vid=8fa562c0-61d1-4dd9-a1fd-6ca60e602a14"},"vehicle_type_id":"4","last_reported":1725966443,"current_range_meters":13600,"station_id":"ce4bhnp2rcd13ifvqh0g","pricing_plan_id":"cebpf4jnsgd1na2vs0mg"},{"bike_id":"70741a29-0553-4045-8001-e8b52992dc18","system_id":"levelo_inurba_marseille","lat":43.2985,"lon":5.36281,"is_reserved":false,"is_disabled":false,"rental_uris":{"android":"levelo://app?vid=70741a29-0553-4045-8001-e8b52992dc18","ios":"levelo://app?vid=70741a29-0553-4045-8001-e8b52992dc18"},"vehicle_type_id":"4","last_reported":1725966443,"current_range_meters":14400,"station_id":"ce4bgpp2rcd13ifvqc3g","pricing_plan_id":"cebpf4jnsgd1na2vs0mg"},{"bike_id":"e65f8b41-3fcc-4596-8d37-b8947a214951","system_id":"levelo_inurba_marseille","lat":43.25935,"lon":5.40908,"is_reserved":false,"is_disabled":false,"rental_uris":{"android":"levelo://app?vid=e65f8b41-3fcc-4596-8d37-b8947a214951","ios":"levelo://app?vid=e65f8b41-3fcc-4596-8d37-b8947a214951"},"vehicle_type_id":"4","last_reported":1725966443,"current_range_meters":9600,"station_id":"ce4bhm92rcd13ifvqglg","pricing_plan_id":"cebpf4jnsgd1na2vs0mg"},{"bike_id":"61a68475-5572-43b9-ba00-11334e8fcd81","system_id":"levelo_inurba_marseille","lat":43.29051,"lon":5.37045,"is_reserved":false,"is_disabled":false,"rental_uris":{"android":"levelo://app?vid=61a68475-5572-43b9-ba00-11334e8fcd81","ios":"levelo://app?vid=61a68475-5572-43b9-ba00-11334e8fcd81"},"vehicle_type_id":"4","last_reported":1725966443,"current_range_meters":26000,"station_id":"ce4bhb12rcd13ifvqem0","pricing_plan_id":"cebpf4jnsgd1na2vs0mg"},{"bike_id":"c25f4ee1-6a3f-495d-a665-830864265582","system_id":"levelo_inurba_marseille","lat":43.30592,"lon":5.39364,"is_reserved":false,"is_disabled":false,"rental_uris":{"android":"levelo://app?vid=c25f4ee1-6a3f-495d-a665-830864265582","ios":"levelo://app?vid=c25f4ee1-6a3f-495d-a665-830864265582"},"vehicle_type_id":"4","last_reported":1725966443,"current_range_meters":32400,"station_id":"ce4bh0p2rcd13ifvqd80","pricing_plan_id":"cebpf4jnsgd1na2vs0mg"},{"bike_id":"865e367f-95e6-45f0-9b56-cfb3c3980b2b","system_id":"levelo_inurba_marseille","lat":43.2679,"lon":5.3941,"is_reserved":false,"is_disabled":false,"rental_uris":{"android":"levelo://app?vid=865e367f-95e6-45f0-9b56-cfb3c3980b2b","ios":"levelo://app?vid=865e367f-95e6-45f0-9b56-cfb3c3980b2b"},"vehicle_type_id":"4","last_reported":1725966443,"current_range_meters":20000,"station_id":"ce4bhh12rcd13ifvqfg0","pricing_plan_id":"cebpf4jnsgd1na2vs0mg"},{"bike_id":"cabda9e9-7860-47fd-8f84-0b89bf5acb47","system_id":"levelo_inurba_marseille","lat":43.30137,"lon":5.38064,"is_reserved":false,"is_disabled":false,"rental_uris":{"android":"levelo://app?vid=cabda9e9-7860-47fd-8f84-0b89bf5acb47","ios":"levelo://app?vid=cabda9e9-7860-47fd-8f84-0b89bf5acb47"},"vehicle_type_id":"4","last_reported":1725966443,"current_range_meters":33200,"station_id":"ce4bgjp2rcd13ifvqbh0","pricing_plan_id":"cebpf4jnsgd1na2vs0mg"},{"bike_id":"bf3f6b11-b600-497a-84fe-1a0c1f2f273f","system_id":"levelo_inurba_marseille","lat":43.3237,"lon":5.38926,"is_reserved":false,"is_disabled":false,"rental_uris":{"android":"levelo://app?vid=bf3f6b11-b600-497a-84fe-1a0c1f2f273f","ios":"levelo://app?vid=bf3f6b11-b600-497a-84fe-1a0c1f2f273f"},"vehicle_type_id":"4","last_reported":1725966443,"current_range_meters":18800,"station_id":"","pricing_plan_id":"cebpf4jnsgd1na2vs0mg"},{"bike_id":"bb49f5de-bcc9-48e3-b95a-c2f48d1887cd","system_id":"levelo_inurba_marseille","lat":43.305311,"lon":5.384425,"is_reserved":false,"is_disabled":false,"rental_uris":{"android":"levelo://app?vid=bb49f5de-bcc9-48e3-b95a-c2f48d1887cd","ios":"levelo://app?vid=bb49f5de-bcc9-48e3-b95a-c2f48d1887cd"},"vehicle_type_id":"4","last_reported":1725966443,"current_range_meters":33600,"station_id":"ce4bgg92rcd13ifvqb30","pricing_plan_id":"cebpf4jnsgd1na2vs0mg"},{"bike_id":"c751c2ca-b94f-4305-b133-7a17b4775307","system_id":"levelo_inurba_marseille","lat":43.24385,"lon":5.37054,"is_reserved":false,"is_disabled":false,"rental_uris":{"android":"levelo://app?vid=c751c2ca-b94f-4305-b133-7a17b4775307","ios":"levelo://app?vid=c751c2ca-b94f-4305-b133-7a17b4775307"},"vehicle_type_id":"4","last_reported":1725966443,"current_range_meters":34800,"station_id":"ce4bhhh2rcd13ifvqfk0","pricing_plan_id":"cebpf4jnsgd1na2vs0mg"},{"bike_id":"62cd0c38-07f0-4872-a1a4-75942b08017c","system_id":"levelo_inurba_marseille","lat":43.30809,"lon":5.38138,"is_reserved":false,"is_disabled":false,"rental_uris":{"android":"levelo://app?vid=62cd0c38-07f0-4872-a1a4-75942b08017c","ios":"levelo://app?vid=62cd0c38-07f0-4872-a1a4-75942b08017c"},"vehicle_type_id":"4","last_reported":1725966443,"current_range_meters":36400,"station_id":"ce4bgt12rcd13ifvqce0","pricing_plan_id":"cebpf4jnsgd1na2vs0mg"},{"bike_id":"7c3b3b6e-7ae9-4e0b-ad72-3d004d79b289","system_id":"levelo_inurba_marseille","lat":43.31271,"lon":5.40177,"is_reserved":false,"is_disabled":false,"rental_uris":{"android":"levelo://app?vid=7c3b3b6e-7ae9-4e0b-ad72-3d004d79b289","ios":"levelo://app?vid=7c3b3b6e-7ae9-4e0b-ad72-3d004d79b289"},"vehicle_type_id":"4","last_reported":1725966443,"current_range_meters":26800,"station_id":"ce4bh092rcd13ifvqd30","pricing_plan_id":"cebpf4jnsgd1na2vs0mg"},{"bike_id":"6015af6b-8d18-4994-93c9-999669b8837d","system_id":"levelo_inurba_marseille","lat":43.32367,"lon":5.38874,"is_reserved":false,"is_disabled":false,"rental_uris":{"android":"levelo://app?vid=6015af6b-8d18-4994-93c9-999669b8837d","ios":"levelo://app?vid=6015af6b-8d18-4994-93c9-999669b8837d"},"vehicle_type_id":"4","last_reported":1725966443,"current_range_meters":10000,"station_id":"ce4bhqp2rcd13ifvqhog","pricing_plan_id":"cebpf4jnsgd1na2vs0mg"},{"bike_id":"24196bb8-3abb-46a9-9d11-d539919f0b23","system_id":"levelo_inurba_marseille","lat":43.240654,"lon":5.377939,"is_reserved":false,"is_disabled":false,"rental_uris":{"android":"levelo://app?vid=24196bb8-3abb-46a9-9d11-d539919f0b23","ios":"levelo://app?vid=24196bb8-3abb-46a9-9d11-d539919f0b23"},"vehicle_type_id":"4","last_reported":1725966443,"current_range_meters":24000,"station_id":"ce4bhnp2rcd13ifvqgvg","pricing_plan_id":"cebpf4jnsgd1na2vs0mg"},{"bike_id":"96eb31e7-62b0-402a-8ecb-9f951547177e","system_id":"levelo_inurba_marseille","lat":43.296324,"lon":5.377046,"is_reserved":false,"is_disabled":false,"rental_uris":{"android":"levelo://app?vid=96eb31e7-62b0-402a-8ecb-9f951547177e","ios":"levelo://app?vid=96eb31e7-62b0-402a-8ecb-9f951547177e"},"vehicle_type_id":"4","last_reported":1725966443,"current_range_meters":14400,"station_id":"ce4bgjh2rcd13ifvqbf0","pricing_plan_id":"cebpf4jnsgd1na2vs0mg"},{"bike_id":"944b4f05-0a90-43b3-a100-26d80aa76b0b","system_id":"levelo_inurba_marseille","lat":43.3059,"lon":5.39364,"is_reserved":false,"is_disabled":false,"rental_uris":{"android":"levelo://app?vid=944b4f05-0a90-43b3-a100-26d80aa76b0b","ios":"levelo://app?vid=944b4f05-0a90-43b3-a100-26d80aa76b0b"},"vehicle_type_id":"4","last_reported":1725966443,"current_range_meters":21600,"station_id":"ce4bh0p2rcd13ifvqd80","pricing_plan_id":"cebpf4jnsgd1na2vs0mg"},{"bike_id":"109a1101-907d-480f-b4f1-6cd46320c406","system_id":"levelo_inurba_marseille","lat":43.30528,"lon":5.36556,"is_reserved":false,"is_disabled":false,"rental_uris":{"android":"levelo://app?vid=109a1101-907d-480f-b4f1-6cd46320c406","ios":"levelo://app?vid=109a1101-907d-480f-b4f1-6cd46320c406"},"vehicle_type_id":"4","last_reported":1725966443,"current_range_meters":22000,"station_id":"ce4bgs12rcd13ifvqcag","pricing_plan_id":"cebpf4jnsgd1na2vs0mg"},{"bike_id":"6847f926-ac3a-46b3-9368-f60f2960fd67","system_id":"levelo_inurba_marseille","lat":43.30291,"lon":5.36903,"is_reserved":false,"is_disabled":false,"rental_uris":{"android":"levelo://app?vid=6847f926-ac3a-46b3-9368-f60f2960fd67","ios":"levelo://app?vid=6847f926-ac3a-46b3-9368-f60f2960fd67"},"vehicle_type_id":"4","last_reported":1725966443,"current_range_meters":35600,"station_id":"ce4bgqh2rcd13ifvqc5g","pricing_plan_id":"cebpf4jnsgd1na2vs0mg"},{"bike_id":"f2cfa053-d5eb-4a1a-90a3-df0c31fb4ae7","system_id":"levelo_inurba_marseille","lat":43.24802,"lon":5.37452,"is_reserved":false,"is_disabled":false,"rental_uris":{"android":"levelo://app?vid=f2cfa053-d5eb-4a1a-90a3-df0c31fb4ae7","ios":"levelo://app?vid=f2cfa053-d5eb-4a1a-90a3-df0c31fb4ae7"},"vehicle_type_id":"4","last_reported":1725966443,"current_range_meters":32800,"station_id":"ce4bhgh2rcd13ifvqfb0","pricing_plan_id":"cebpf4jnsgd1na2vs0mg"},{"bike_id":"545ccded-1555-404f-bccf-71f2cb767298","system_id":"levelo_inurba_marseille","lat":43.28568,"lon":5.39494,"is_reserved":false,"is_disabled":false,"rental_uris":{"android":"levelo://app?vid=545ccded-1555-404f-bccf-71f2cb767298","ios":"levelo://app?vid=545ccded-1555-404f-bccf-71f2cb767298"},"vehicle_type_id":"4","last_reported":1725966443,"current_range_meters":26000,"station_id":"ce4bh292rcd13ifvqdg0","pricing_plan_id":"cebpf4jnsgd1na2vs0mg"},{"bike_id":"97e6c8e4-f770-4de0-ba9b-deb2b2948e9c","system_id":"levelo_inurba_marseille","lat":43.25926,"lon":5.40902,"is_reserved":false,"is_disabled":false,"rental_uris":{"android":"levelo://app?vid=97e6c8e4-f770-4de0-ba9b-deb2b2948e9c","ios":"levelo://app?vid=97e6c8e4-f770-4de0-ba9b-deb2b2948e9c"},"vehicle_type_id":"4","last_reported":1725966443,"current_range_meters":16800,"station_id":"ce4bhm92rcd13ifvqglg","pricing_plan_id":"cebpf4jnsgd1na2vs0mg"},{"bike_id":"a56e0313-2f46-466c-b71e-0dddf2401d63","system_id":"levelo_inurba_marseille","lat":43.23051,"lon":5.35484,"is_reserved":false,"is_disabled":false,"rental_uris":{"android":"levelo://app?vid=a56e0313-2f46-466c-b71e-0dddf2401d63","ios":"levelo://app?vid=a56e0313-2f46-466c-b71e-0dddf2401d63"},"vehicle_type_id":"4","last_reported":1725966443,"current_range_meters":20400,"station_id":"cpo3342slgdg3j2ifvpg","pricing_plan_id":"cebpf4jnsgd1na2vs0mg"},{"bike_id":"75e02a2d-ff75-479b-9384-7d7926bb2de5","system_id":"levelo_inurba_marseille","lat":43.27559,"lon":5.38418,"is_reserved":false,"is_disabled":false,"rental_uris":{"android":"levelo://app?vid=75e02a2d-ff75-479b-9384-7d7926bb2de5","ios":"levelo://app?vid=75e02a2d-ff75-479b-9384-7d7926bb2de5"},"vehicle_type_id":"4","last_reported":1725966443,"current_range_meters":27600,"station_id":"ce4bhh92rcd13ifvqfi0","pricing_plan_id":"cebpf4jnsgd1na2vs0mg"},{"bike_id":"533c3e24-34a6-4ec7-a1d2-cbfccfd8aad2","system_id":"levelo_inurba_marseille","lat":43.305901,"lon":5.393574,"is_reserved":false,"is_disabled":false,"rental_uris":{"android":"levelo://app?vid=533c3e24-34a6-4ec7-a1d2-cbfccfd8aad2","ios":"levelo://app?vid=533c3e24-34a6-4ec7-a1d2-cbfccfd8aad2"},"vehicle_type_id":"4","last_reported":1725966443,"current_range_meters":37600,"station_id":"ce4bh0p2rcd13ifvqd80","pricing_plan_id":"cebpf4jnsgd1na2vs0mg"},{"bike_id":"7781b5ba-e569-4e0d-ba58-a467754dc7d7","system_id":"levelo_inurba_marseille","lat":43.30178,"lon":5.36637,"is_reserved":false,"is_disabled":false,"rental_uris":{"android":"levelo://app?vid=7781b5ba-e569-4e0d-ba58-a467754dc7d7","ios":"levelo://app?vid=7781b5ba-e569-4e0d-ba58-a467754dc7d7"},"vehicle_type_id":"4","last_reported":1725966443,"current_range_meters":38800,"station_id":"ce4bgrh2rcd13ifvqc8g","pricing_plan_id":"cebpf4jnsgd1na2vs0mg"},{"bike_id":"51ab8d72-d4f0-4b3c-b628-8aafce00ef88","system_id":"levelo_inurba_marseille","lat":43.23961,"lon":5.36629,"is_reserved":false,"is_disabled":false,"rental_uris":{"android":"levelo://app?vid=51ab8d72-d4f0-4b3c-b628-8aafce00ef88","ios":"levelo://app?vid=51ab8d72-d4f0-4b3c-b628-8aafce00ef88"},"vehicle_type_id":"4","last_reported":1725966443,"current_range_meters":2000,"station_id":"ce4bhi12rcd13ifvqfp0","pricing_plan_id":"cebpf4jnsgd1na2vs0mg"},{"bike_id":"59d2893a-d1ce-4346-9856-cf825097e6cb","system_id":"levelo_inurba_marseille","lat":43.23188,"lon":5.35554,"is_reserved":false,"is_disabled":false,"rental_uris":{"android":"levelo://app?vid=59d2893a-d1ce-4346-9856-cf825097e6cb","ios":"levelo://app?vid=59d2893a-d1ce-4346-9856-cf825097e6cb"},"vehicle_type_id":"4","last_reported":1725966443,"current_range_meters":23200,"station_id":"ce4bhu92rcd13ifvqi70","pricing_plan_id":"cebpf4jnsgd1na2vs0mg"},{"bike_id":"340e4376-2578-41a7-8b22-74d628f1e3d4","system_id":"levelo_inurba_marseille","lat":43.26682,"lon":5.38269,"is_reserved":false,"is_disabled":false,"rental_uris":{"android":"levelo://app?vid=340e4376-2578-41a7-8b22-74d628f1e3d4","ios":"levelo://app?vid=340e4376-2578-41a7-8b22-74d628f1e3d4"},"vehicle_type_id":"4","last_reported":1725966443,"current_range_meters":37600,"station_id":"ce4bhg92rcd13ifvqf90","pricing_plan_id":"cebpf4jnsgd1na2vs0mg"},{"bike_id":"a3d5cb92-4e73-44ae-9bee-b4d9af749fce","system_id":"levelo_inurba_marseille","lat":43.22914,"lon":5.35338,"is_reserved":false,"is_disabled":false,"rental_uris":{"android":"levelo://app?vid=a3d5cb92-4e73-44ae-9bee-b4d9af749fce","ios":"levelo://app?vid=a3d5cb92-4e73-44ae-9bee-b4d9af749fce"},"vehicle_type_id":"4","last_reported":1725966443,"current_range_meters":32800,"station_id":"cpo3532slgdg3j2ikp40","pricing_plan_id":"cebpf4jnsgd1na2vs0mg"},{"bike_id":"fdcfd745-c154-4bd2-90b5-6f3754127509","system_id":"levelo_inurba_marseille","lat":43.30636,"lon":5.4008,"is_reserved":false,"is_disabled":false,"rental_uris":{"android":"levelo://app?vid=fdcfd745-c154-4bd2-90b5-6f3754127509","ios":"levelo://app?vid=fdcfd745-c154-4bd2-90b5-6f3754127509"},"vehicle_type_id":"4","last_reported":1725966443,"current_range_meters":35200,"station_id":"ce4bh112rcd13ifvqda0","pricing_plan_id":"cebpf4jnsgd1na2vs0mg"},{"bike_id":"4a1cb237-1220-47d5-81e2-342a5bf16cbb","system_id":"levelo_inurba_marseille","lat":43.26672,"lon":5.38269,"is_reserved":false,"is_disabled":false,"rental_uris":{"android":"levelo://app?vid=4a1cb237-1220-47d5-81e2-342a5bf16cbb","ios":"levelo://app?vid=4a1cb237-1220-47d5-81e2-342a5bf16cbb"},"vehicle_type_id":"4","last_reported":1725966443,"current_range_meters":6800,"station_id":"ce4bhg92rcd13ifvqf90","pricing_plan_id":"cebpf4jnsgd1na2vs0mg"},{"bike_id":"ad1464b8-d13f-49ef-b212-c0ade26e3b98","system_id":"levelo_inurba_marseille","lat":43.32033,"lon":5.41559,"is_reserved":false,"is_disabled":false,"rental_uris":{"android":"levelo://app?vid=ad1464b8-d13f-49ef-b212-c0ade26e3b98","ios":"levelo://app?vid=ad1464b8-d13f-49ef-b212-c0ade26e3b98"},"vehicle_type_id":"4","last_reported":1725966443,"current_range_meters":24400,"station_id":"ce4bhq92rcd13ifvqhkg","pricing_plan_id":"cebpf4jnsgd1na2vs0mg"},{"bike_id":"35b4ccbe-337e-42f5-b64b-d3d4516b0316","system_id":"levelo_inurba_marseille","lat":43.27489,"lon":5.42455,"is_reserved":false,"is_disabled":false,"rental_uris":{"android":"levelo://app?vid=35b4ccbe-337e-42f5-b64b-d3d4516b0316","ios":"levelo://app?vid=35b4ccbe-337e-42f5-b64b-d3d4516b0316"},"vehicle_type_id":"4","last_reported":1725966443,"current_range_meters":30000,"station_id":"ce4bhn92rcd13ifvqgrg","pricing_plan_id":"cebpf4jnsgd1na2vs0mg"},{"bike_id":"36957c4a-63f7-4ac2-b13f-75039c754322","system_id":"levelo_inurba_marseille","lat":43.31324,"lon":5.39697,"is_reserved":false,"is_disabled":false,"rental_uris":{"android":"levelo://app?vid=36957c4a-63f7-4ac2-b13f-75039c754322","ios":"levelo://app?vid=36957c4a-63f7-4ac2-b13f-75039c754322"},"vehicle_type_id":"4","last_reported":1725966443,"current_range_meters":38800,"station_id":"ce4bgvp2rcd13ifvqcu0","pricing_plan_id":"cebpf4jnsgd1na2vs0mg"},{"bike_id":"a833bd0f-f0a4-42aa-917b-52fb705f5deb","system_id":"levelo_inurba_marseille","lat":43.28157,"lon":5.42633,"is_reserved":false,"is_disabled":false,"rental_uris":{"android":"levelo://app?vid=a833bd0f-f0a4-42aa-917b-52fb705f5deb","ios":"levelo://app?vid=a833bd0f-f0a4-42aa-917b-52fb705f5deb"},"vehicle_type_id":"4","last_reported":1725966443,"current_range_meters":2000,"station_id":"ce4bhnh2rcd13ifvqgug","pricing_plan_id":"cebpf4jnsgd1na2vs0mg"},{"bike_id":"e8fc6b8f-e8e7-4a87-91a0-37c420b2063e","system_id":"levelo_inurba_marseille","lat":43.30458,"lon":5.37905,"is_reserved":false,"is_disabled":false,"rental_uris":{"android":"levelo://app?vid=e8fc6b8f-e8e7-4a87-91a0-37c420b2063e","ios":"levelo://app?vid=e8fc6b8f-e8e7-4a87-91a0-37c420b2063e"},"vehicle_type_id":"4","last_reported":1725966443,"current_range_meters":15200,"station_id":"ce4bgup2rcd13ifvqcn0","pricing_plan_id":"cebpf4jnsgd1na2vs0mg"},{"bike_id":"4246cf12-c6e9-4200-a814-6e19f239ac8e","system_id":"levelo_inurba_marseille","lat":43.28339,"lon":5.381,"is_reserved":false,"is_disabled":false,"rental_uris":{"android":"levelo://app?vid=4246cf12-c6e9-4200-a814-6e19f239ac8e","ios":"levelo://app?vid=4246cf12-c6e9-4200-a814-6e19f239ac8e"},"vehicle_type_id":"4","last_reported":1725966443,"current_range_meters":27200,"station_id":"ce4bh412rcd13ifvqdr0","pricing_plan_id":"cebpf4jnsgd1na2vs0mg"},{"bike_id":"332932d0-92ff-49d3-a21b-9c84db8d9aef","system_id":"levelo_inurba_marseille","lat":43.299311,"lon":5.374746,"is_reserved":false,"is_disabled":false,"rental_uris":{"android":"levelo://app?vid=332932d0-92ff-49d3-a21b-9c84db8d9aef","ios":"levelo://app?vid=332932d0-92ff-49d3-a21b-9c84db8d9aef"},"vehicle_type_id":"4","last_reported":1725966443,"current_range_meters":20000,"station_id":"ce4bgjh2rcd13ifvqbg0","pricing_plan_id":"cebpf4jnsgd1na2vs0mg"},{"bike_id":"bc4b8d31-94ad-438f-b80a-310115a258f9","system_id":"levelo_inurba_marseille","lat":43.30597,"lon":5.39365,"is_reserved":false,"is_disabled":false,"rental_uris":{"android":"levelo://app?vid=bc4b8d31-94ad-438f-b80a-310115a258f9","ios":"levelo://app?vid=bc4b8d31-94ad-438f-b80a-310115a258f9"},"vehicle_type_id":"4","last_reported":1725966443,"current_range_meters":39200,"station_id":"ce4bh0p2rcd13ifvqd80","pricing_plan_id":"cebpf4jnsgd1na2vs0mg"},{"bike_id":"cec62b90-ad02-4595-b497-cd64d99bf98c","system_id":"levelo_inurba_marseille","lat":43.30533,"lon":5.36706,"is_reserved":false,"is_disabled":false,"rental_uris":{"android":"levelo://app?vid=cec62b90-ad02-4595-b497-cd64d99bf98c","ios":"levelo://app?vid=cec62b90-ad02-4595-b497-cd64d99bf98c"},"vehicle_type_id":"4","last_reported":1725966443,"current_range_meters":38800,"station_id":"ce4bgrp2rcd13ifvqc9g","pricing_plan_id":"cebpf4jnsgd1na2vs0mg"},{"bike_id":"7d4236b0-d19b-4de7-acc4-1c5f7f5686c5","system_id":"levelo_inurba_marseille","lat":43.23148,"lon":5.43716,"is_reserved":false,"is_disabled":false,"rental_uris":{"android":"levelo://app?vid=7d4236b0-d19b-4de7-acc4-1c5f7f5686c5","ios":"levelo://app?vid=7d4236b0-d19b-4de7-acc4-1c5f7f5686c5"},"vehicle_type_id":"4","last_reported":1725966443,"current_range_meters":17200,"station_id":"ce4bhmp2rcd13ifvqgog","pricing_plan_id":"cebpf4jnsgd1na2vs0mg"},{"bike_id":"313ced04-08c2-4b99-b131-ed80a00e83f4","system_id":"levelo_inurba_marseille","lat":43.275008,"lon":5.389565,"is_reserved":false,"is_disabled":false,"rental_uris":{"android":"levelo://app?vid=313ced04-08c2-4b99-b131-ed80a00e83f4","ios":"levelo://app?vid=313ced04-08c2-4b99-b131-ed80a00e83f4"},"vehicle_type_id":"4","last_reported":1725966443,"current_range_meters":26000,"station_id":"ce4bhi12rcd13ifvqfo0","pricing_plan_id":"cebpf4jnsgd1na2vs0mg"},{"bike_id":"146c1806-743d-4d81-b8ce-b5941ac15c8a","system_id":"levelo_inurba_marseille","lat":43.24173,"lon":5.3971,"is_reserved":false,"is_disabled":false,"rental_uris":{"android":"levelo://app?vid=146c1806-743d-4d81-b8ce-b5941ac15c8a","ios":"levelo://app?vid=146c1806-743d-4d81-b8ce-b5941ac15c8a"},"vehicle_type_id":"4","last_reported":1725966443,"current_range_meters":19200,"station_id":"ce4bhn12rcd13ifvqgpg","pricing_plan_id":"cebpf4jnsgd1na2vs0mg"},{"bike_id":"f9775d8f-4220-4ed5-bf5f-6156401c86a7","system_id":"levelo_inurba_marseille","lat":43.33018,"lon":5.39036,"is_reserved":false,"is_disabled":false,"rental_uris":{"android":"levelo://app?vid=f9775d8f-4220-4ed5-bf5f-6156401c86a7","ios":"levelo://app?vid=f9775d8f-4220-4ed5-bf5f-6156401c86a7"},"vehicle_type_id":"4","last_reported":1725966443,"current_range_meters":39200,"station_id":"ce4bhr92rcd13ifvqhrg","pricing_plan_id":"cebpf4jnsgd1na2vs0mg"},{"bike_id":"c609ba91-85ed-49e2-9aed-ac1d5cc16555","system_id":"levelo_inurba_marseille","lat":43.3266,"lon":5.4099,"is_reserved":false,"is_disabled":false,"rental_uris":{"android":"levelo://app?vid=c609ba91-85ed-49e2-9aed-ac1d5cc16555","ios":"levelo://app?vid=c609ba91-85ed-49e2-9aed-ac1d5cc16555"},"vehicle_type_id":"4","last_reported":1725966443,"current_range_meters":20000,"station_id":"ce4bhpp2rcd13ifvqhgg","pricing_plan_id":"cebpf4jnsgd1na2vs0mg"},{"bike_id":"d7d8c95c-9a73-4f31-b7ca-0c01751303a0","system_id":"levelo_inurba_marseille","lat":43.23052,"lon":5.3549,"is_reserved":false,"is_disabled":false,"rental_uris":{"android":"levelo://app?vid=d7d8c95c-9a73-4f31-b7ca-0c01751303a0","ios":"levelo://app?vid=d7d8c95c-9a73-4f31-b7ca-0c01751303a0"},"vehicle_type_id":"4","last_reported":1725966443,"current_range_meters":11200,"station_id":"cpo3342slgdg3j2ifvpg","pricing_plan_id":"cebpf4jnsgd1na2vs0mg"},{"bike_id":"cf0e8986-f6a9-4f5b-9547-4ee9fd512e06","system_id":"levelo_inurba_marseille","lat":43.28817,"lon":5.39142,"is_reserved":false,"is_disabled":false,"rental_uris":{"android":"levelo://app?vid=cf0e8986-f6a9-4f5b-9547-4ee9fd512e06","ios":"levelo://app?vid=cf0e8986-f6a9-4f5b-9547-4ee9fd512e06"},"vehicle_type_id":"4","last_reported":1725966443,"current_range_meters":29600,"station_id":"","pricing_plan_id":"cebpf4jnsgd1na2vs0mg"},{"bike_id":"bae5bc3f-34f0-4500-bb53-b6190e7f8762","system_id":"levelo_inurba_marseille","lat":43.29265,"lon":5.36851,"is_reserved":false,"is_disabled":false,"rental_uris":{"android":"levelo://app?vid=bae5bc3f-34f0-4500-bb53-b6190e7f8762","ios":"levelo://app?vid=bae5bc3f-34f0-4500-bb53-b6190e7f8762"},"vehicle_type_id":"4","last_reported":1725966443,"current_range_meters":9600,"station_id":"ce4bhbp2rcd13ifvqesg","pricing_plan_id":"cebpf4jnsgd1na2vs0mg"},