{"last_updated":1687111665,"ttl":30,"version":"2.2","data":{"bikes":[{"bike_id":"b84125ca-83c2-4b68-81a6-12e4d2926016","system_id":"levelo_inurba_marseille","lat":43.312239,"lon":5.368562,"is_reserved":false,"is_disabled":false,"rental_uris":{"android":"levelo://app?vid=b84125ca-83c2-4b68-81a6-12e4d2926016","ios":"levelo://app?vid=b84125ca-83c2-4b68-81a6-12e4d2926016"},"vehicle_type_id":"4","last_reported":1687111666,"current_range_meters":400,"station_id":"ce4bgl92rcd13ifvqbq0","pricing_plan_id":"free"},{"bike_id":"595b09ae-ade1-4d40-83eb-548895143d38","system_id":"levelo_inurba_marseille","lat":43.314811,"lon":5.373103,"is_reserved":false,"is_disabled":false,"rental_uris":{"android":"levelo://app?vid=595b09ae-ade1-4d40-83eb-548895143d38","ios":"levelo://app?vid=595b09ae-ade1-4d40-83eb-548895143d38"},"vehicle_type_id":"4","last_reported":1687111666,"current_range_meters":31200,"station_id":"ce4bgt12rcd13ifvqcd0","pricing_plan_id":"free"},{"bike_id":"3e276c88-69f7-4ce6-8ab9-1adc048d59fc","system_id":"levelo_inurba_marseille","lat":43.305368,"lon":5.367343,"is_reserved":false,"is_disabled":false,"rental_uris":{"android":"levelo://app?vid=3e276c88-69f7-4ce6-8ab9-1adc048d59fc","ios":"levelo://app?vid=3e276c88-69f7-4ce6-8ab9-1adc048d59fc"},"vehicle_type_id":"4","last_reported":1687111666,"current_range_meters":0,"station_id":"ce4bgrp2rcd13ifvqc9g","pricing_plan_id":"free"},{"bike_id":"929e5808-f580-4c02-ac93-0fea330f4095","system_id":"levelo_inurba_marseille","lat":43.305989,"lon":5.37225,"is_reserved":false,"is_disabled":false,"rental_uris":{"android":"levelo://app?vid=929e5808-f580-4c02-ac93-0fea330f4095","ios":"levelo://app?vid=929e5808-f580-4c02-ac93-0fea330f4095"},"vehicle_type_id":"4","last_reported":1687111666,"current_range_meters":0,"station_id":"ce4bgqh2rcd13ifvqc4g","pricing_plan_id":"free"},{"bike_id":"6785412e-3e65-4aa4-801d-d66c9d23e811","system_id":"levelo_inurba_marseille","lat":43.311125,"lon":5.377624,"is_reserved":false,"is_disabled":false,"rental_uris":{"android":"levelo://app?vid=6785412e-3e65-4aa4-801d-d66c9d23e811","ios":"levelo://app?vid=6785412e-3e65-4aa4-801d-d66c9d23e811"},"vehicle_type_id":"4","last_reported":1687111666,"current_range_meters":3600,"station_id":"ce4bgt92rcd13ifvqcg0","pricing_plan_id":"free"},{"bike_id":"2424216c-0462-4ad0-b127-d0366c91b61c","system_id":"levelo_inurba_marseille","lat":43.31691,"lon":5.37681,"is_reserved":false,"is_disabled":false,"rental_uris":{"android":"levelo://app?vid=2424216c-0462-4ad0-b127-d0366c91b61c","ios":"levelo://app?vid=2424216c-0462-4ad0-b127-d0366c91b61c"},"vehicle_type_id":"4","last_reported":1687111666,"current_range_meters":27600,"station_id":"","pricing_plan_id":"free"},{"bike_id":"b48459f9-b0d0-4408-a23f-f04fe16e41c6","system_id":"levelo_inurba_marseille","lat":43.317075,"lon":5.377367,"is_reserved":false,"is_disabled":false,"rental_uris":{"android":"levelo://app?vid=b48459f9-b0d0-4408-a23f-f04fe16e41c6","ios":"levelo://app?vid=b48459f9-b0d0-4408-a23f-f04fe16e41c6"},"vehicle_type_id":"4","last_reported":1687111666,"current_range_meters":23200,"station_id":"ce4bgth2rcd13ifvqch0","pricing_plan_id":"free"},{"bike_id":"8d51db3c-ddf0-4868-a42f-0868b9c8ed86","system_id":"levelo_inurba_marseille","lat":43.31534,"lon":5.38044,"is_reserved":false,"is_disabled":false,"rental_uris":{"android":"levelo://app?vid=8d51db3c-ddf0-4868-a42f-0868b9c8ed86","ios":"levelo://app?vid=8d51db3c-ddf0-4868-a42f-0868b9c8ed86"},"vehicle_type_id":"4","last_reported":1687111666,"current_range_meters":28800,"station_id":"ce4bhsp2rcd13ifvqi50","pricing_plan_id":"free"},{"bike_id":"cada2054-cd0b-4ffd-b35d-70e3683fc5a7","system_id":"levelo_inurba_marseille","lat":43.31531,"lon":5.38047,"is_reserved":false,"is_disabled":false,"rental_uris":{"android":"levelo://app?vid=cada2054-cd0b-4ffd-b35d-70e3683fc5a7","ios":"levelo://app?vid=cada2054-cd0b-4ffd-b35d-70e3683fc5a7"},"vehicle_type_id":"4","last_reported":1687111666,"current_range_meters":28800,"station_id":"ce4bhsp2rcd13ifvqi50","pricing_plan_id":"free"},{"bike_id":"ae33307b-fcd5-479b-9ae1-9002ed226c6e","system_id":"levelo_inurba_marseille","lat":43.308012,"lon":5.381511,"is_reserved":false,"is_disabled":false,"rental_uris":{"android":"levelo://app?vid=ae33307b-fcd5-479b-9ae1-9002ed226c6e","ios":"levelo://app?vid=ae33307b-fcd5-479b-9ae1-9002ed226c6e"},"vehicle_type_id":"4","last_reported":1687111666,"current_range_meters":28800,"station_id":"ce4bgt12rcd13ifvqce0","pricing_plan_id":"free"},{"bike_id":"2f058d0b-a0a2-433e-9612-3bebc1e770e3","system_id":"levelo_inurba_marseille","lat":43.30789,"lon":5.38157,"is_reserved":false,"is_disabled":false,"rental_uris":{"android":"levelo://app?vid=2f058d0b-a0a2-433e-9612-3bebc1e770e3","ios":"levelo://app?vid=2f058d0b-a0a2-433e-9612-3bebc1e770e3"},"vehicle_type_id":"4","last_reported":1687111666,"current_range_meters":29600,"station_id":"ce4bgt12rcd13ifvqce0","pricing_plan_id":"free"},{"bike_id":"43fc693e-f2a9-4aec-8fd9-d094bb02cb70","system_id":"levelo_inurba_marseille","lat":43.304606,"lon":5.379026,"is_reserved":false,"is_disabled":false,"rental_uris":{"android":"levelo://app?vid=43fc693e-f2a9-4aec-8fd9-d094bb02cb70","ios":"levelo://app?vid=43fc693e-f2a9-4aec-8fd9-d094bb02cb70"},"vehicle_type_id":"4","last_reported":1687111666,"current_range_meters":16800,"station_id":"ce4bgup2rcd13ifvqcn0","pricing_plan_id":"free"},{"bike_id":"2f52c7b2-cd86-4520-a9b8-ef8d0fae313b","system_id":"levelo_inurba_marseille","lat":43.319935,"lon":5.381699,"is_reserved":false,"is_disabled":false,"rental_uris":{"android":"levelo://app?vid=2f52c7b2-cd86-4520-a9b8-ef8d0fae313b","ios":"levelo://app?vid=2f52c7b2-cd86-4520-a9b8-ef8d0fae313b"},"vehicle_type_id":"4","last_reported":1687111666,"current_range_meters":20800,"station_id":"ce4bhr12rcd13ifvqhpg","pricing_plan_id":"free"},{"bike_id":"2c152ee3-4421-43d1-adff-980320d8a862","system_id":"levelo_inurba_marseille","lat":43.319935,"lon":5.381699,"is_reserved":false,"is_disabled":false,"rental_uris":{"android":"levelo://app?vid=2c152ee3-4421-43d1-adff-980320d8a862","ios":"levelo://app?vid=2c152ee3-4421-43d1-adff-980320d8a862"},"vehicle_type_id":"4","last_reported":1687111666,"current_range_meters":4800,"station_id":"ce4bhr12rcd13ifvqhpg","pricing_plan_id":"free"},{"bike_id":"330412da-b9eb-49fa-9ba0-9288ee9ddd31","system_id":"levelo_inurba_marseille","lat":43.30086,"lon":5.37506,"is_reserved":false,"is_disabled":false,"rental_uris":{"android":"levelo://app?vid=330412da-b9eb-49fa-9ba0-9288ee9ddd31","ios":"levelo://app?vid=330412da-b9eb-49fa-9ba0-9288ee9ddd31"},"vehicle_type_id":"4","last_reported":1687111666,"current_range_meters":13600,"station_id":"","pricing_plan_id":"free"},{"bike_id":"1d47b2e2-b6b2-467e-89b2-30c2b3dd988b","system_id":"levelo_inurba_marseille","lat":43.31371,"lon":5.38519,"is_reserved":false,"is_disabled":false,"rental_uris":{"android":"levelo://app?vid=1d47b2e2-b6b2-467e-89b2-30c2b3dd988b","ios":"levelo://app?vid=1d47b2e2-b6b2-467e-89b2-30c2b3dd988b"},"vehicle_type_id":"4","last_reported":1687111666,"current_range_meters":10400,"station_id":"","pricing_plan_id":"free"},{"bike_id":"f9f3d785-2ec9-4c20-95b2-a15193bded1b","system_id":"levelo_inurba_marseille","lat":43.299222,"lon":5.365554,"is_reserved":false,"is_disabled":false,"rental_uris":{"android":"levelo://app?vid=f9f3d785-2ec9-4c20-95b2-a15193bded1b","ios":"levelo://app?vid=f9f3d785-2ec9-4c20-95b2-a15193bded1b"},"vehicle_type_id":"4","last_reported":1687111666,"current_range_meters":16000,"station_id":"ce4bgm92rcd13ifvqbr0","pricing_plan_id":"free"},{"bike_id":"9c485ce5-1a4a-4956-96a1-c4587ca7eb02","system_id":"levelo_inurba_marseille","lat":43.299243,"lon":5.374807,"is_reserved":false,"is_disabled":false,"rental_uris":{"android":"levelo://app?vid=9c485ce5-1a4a-4956-96a1-c4587ca7eb02","ios":"levelo://app?vid=9c485ce5-1a4a-4956-96a1-c4587ca7eb02"},"vehicle_type_id":"4","last_reported":1687111666,"current_range_meters":3200,"station_id":"ce4bgjh2rcd13ifvqbg0","pricing_plan_id":"free"},{"bike_id":"ebcad968-9b7e-476e-8b97-1ae0d28ad6bb","system_id":"levelo_inurba_marseille","lat":43.311722,"lon":5.387247,"is_reserved":false,"is_disabled":false,"rental_uris":{"android":"levelo://app?vid=ebcad968-9b7e-476e-8b97-1ae0d28ad6bb","ios":"levelo://app?vid=ebcad968-9b7e-476e-8b97-1ae0d28ad6bb"},"vehicle_type_id":"4","last_reported":1687111666,"current_range_meters":12800,"station_id":"ce4bgv12rcd13ifvqcp0","pricing_plan_id":"free"},{"bike_id":"91156e17-d760-4d6c-a619-e446aba07793","system_id":"levelo_inurba_marseille","lat":43.311722,"lon":5.387247,"is_reserved":false,"is_disabled":false,"rental_uris":{"android":"levelo://app?vid=91156e17-d760-4d6c-a619-e446aba07793","ios":"levelo://app?vid=91156e17-d760-4d6c-a619-e446aba07793"},"vehicle_type_id":"4","last_reported":1687111666,"current_range_meters":14400,"station_id":"ce4bgv12rcd13ifvqcp0","pricing_plan_id":"free"},{"bike_id":"bc0f2c12-e9a5-4d22-8fcc-fd9f79786983","system_id":"levelo_inurba_marseille","lat":43.311722,"lon":5.387247,"is_reserved":false,"is_disabled":false,"rental_uris":{"android":"levelo://app?vid=bc0f2c12-e9a5-4d22-8fcc-fd9f79786983","ios":"levelo://app?vid=bc0f2c12-e9a5-4d22-8fcc-fd9f79786983"},"vehicle_type_id":"4","last_reported":1687111666,"current_range_meters":17200,"station_id":"ce4bgv12rcd13ifvqcp0","pricing_plan_id":"free"},{"bike_id":"0d98e25e-fd23-47b9-9185-8e487ef7ec91","system_id":"levelo_inurba_marseille","lat":43.311722,"lon":5.387247,"is_reserved":false,"is_disabled":false,"rental_uris":{"android":"levelo://app?vid=0d98e25e-fd23-47b9-9185-8e487ef7ec91","ios":"levelo://app?vid=0d98e25e-fd23-47b9-9185-8e487ef7ec91"},"vehicle_type_id":"4","last_reported":1687111666,"current_range_meters":12400,"station_id":"ce4bgv12rcd13ifvqcp0","pricing_plan_id":"free"},{"bike_id":"65955c55-2f96-4af4-bedf-12be5ae7b87f","system_id":"levelo_inurba_marseille","lat":43.311722,"lon":5.387247,"is_reserved":false,"is_disabled":false,"rental_uris":{"android":"levelo://app?vid=65955c55-2f96-4af4-bedf-12be5ae7b87f","ios":"levelo://app?vid=65955c55-2f96-4af4-bedf-12be5ae7b87f"},"vehicle_type_id":"4","last_reported":1687111666,"current_range_meters":9600,"station_id":"ce4bgv12rcd13ifvqcp0","pricing_plan_id":"free"},{"bike_id":"b7185671-a137-49f8-b4d6-f89f4e04a279","system_id":"levelo_inurba_marseille","lat":43.311722,"lon":5.387247,"is_reserved":false,"is_disabled":false,"rental_uris":{"android":"levelo://app?vid=b7185671-a137-49f8-b4d6-f89f4e04a279","ios":"levelo://app?vid=b7185671-a137-49f8-b4d6-f89f4e04a279"},"vehicle_type_id":"4","last_reported":1687111666,"current_range_meters":2800,"station_id":"ce4bgv12rcd13ifvqcp0","pricing_plan_id":"free"},{"bike_id":"a728e8fd-ba2d-44bb-af04-ede21f21149a","system_id":"levelo_inurba_marseille","lat":43.297794,"lon":5.370888,"is_reserved":false,"is_disabled":false,"rental_uris":{"android":"levelo://app?vid=a728e8fd-ba2d-44bb-af04-ede21f21149a","ios":"levelo://app?vid=a728e8fd-ba2d-44bb-af04-ede21f21149a"},"vehicle_type_id":"4","last_reported":1687111666,"current_range_meters":2000,"station_id":"ce4bgop2rcd13ifvqc1g","pricing_plan_id":"free"},{"bike_id":"37d9b9e1-79d4-42b4-925e-88f8da124109","system_id":"levelo_inurba_marseille","lat":43.297794,"lon":5.370888,"is_reserved":false,"is_disabled":false,"rental_uris":{"android":"levelo://app?vid=37d9b9e1-79d4-42b4-925e-88f8da124109","ios":"levelo://app?vid=37d9b9e1-79d4-42b4-925e-88f8da124109"},"vehicle_type_id":"4","last_reported":1687111666,"current_range_meters":20400,"station_id":"ce4bgop2rcd13ifvqc1g","pricing_plan_id":"free"},{"bike_id":"fd589879-b8aa-4190-83a9-e6c8c667f62f","system_id":"levelo_inurba_marseille","lat":43.297794,"lon":5.370888,"is_reserved":false,"is_disabled":false,"rental_uris":{"android":"levelo://app?vid=fd589879-b8aa-4190-83a9-e6c8c667f62f","ios":"levelo://app?vid=fd589879-b8aa-4190-83a9-e6c8c667f62f"},"vehicle_type_id":"4","last_reported":1687111666,"current_range_meters":23600,"station_id":"ce4bgop2rcd13ifvqc1g","pricing_plan_id":"free"},{"bike_id":"27e857a0-6074-435d-85c0-7fc3761f1cbb","system_id":"levelo_inurba_marseille","lat":43.32827,"lon":5.36677,"is_reserved":false,"is_disabled":false,"rental_uris":{"android":"levelo://app?vid=27e857a0-6074-435d-85c0-7fc3761f1cbb","ios":"levelo://app?vid=27e857a0-6074-435d-85c0-7fc3761f1cbb"},"vehicle_type_id":"4","last_reported":1687111666,"current_range_meters":29200,"station_id":"ce4bhs92rcd13ifvqi0g","pricing_plan_id":"free"},{"bike_id":"6d5ccf33-759a-4c7a-af82-9f67388b4177","system_id":"levelo_inurba_marseille","lat":43.32829,"lon":5.36672,"is_reserved":false,"is_disabled":false,"rental_uris":{"android":"levelo://app?vid=6d5ccf33-759a-4c7a-af82-9f67388b4177","ios":"levelo://app?vid=6d5ccf33-759a-4c7a-af82-9f67388b4177"},"vehicle_type_id":"4","last_reported":1687111666,"current_range_meters":30000,"station_id":"ce4bhs92rcd13ifvqi0g","pricing_plan_id":"free"},{"bike_id":"731cce5d-c725-402d-b941-54910a08f036","system_id":"levelo_inurba_marseille","lat":43.3283,"lon":5.36677,"is_reserved":false,"is_disabled":false,"rental_uris":{"android":"levelo://app?vid=731cce5d-c725-402d-b941-54910a08f036","ios":"levelo://app?vid=731cce5d-c725-402d-b941-54910a08f036"},"vehicle_type_id":"4","last_reported":1687111666,"current_range_meters":29200,"station_id":"ce4bhs92rcd13ifvqi0g","pricing_plan_id":"free"},{"bike_id":"eb463cab-b54c-4ed2-a710-d6d777606789","system_id":"levelo_inurba_marseille","lat":43.32832,"lon":5.36685,"is_reserved":false,"is_disabled":false,"rental_uris":{"android":"levelo://app?vid=eb463cab-b54c-4ed2-a710-d6d777606789","ios":"levelo://app?vid=eb463cab-b54c-4ed2-a710-d6d777606789"},"vehicle_type_id":"4","last_reported":1687111666,"current_range_meters":16800,"station_id":"ce4bhs92rcd13ifvqi0g","pricing_plan_id":"free"},{"bike_id":"c4c82479-60a6-4390-8970-3229e3eebb9c","system_id":"levelo_inurba_marseille","lat":43.32832,"lon":5.36677,"is_reserved":false,"is_disabled":false,"rental_uris":{"android":"levelo://app?vid=c4c82479-60a6-4390-8970-3229e3eebb9c","ios":"levelo://app?vid=c4c82479-60a6-4390-8970-3229e3eebb9c"},"vehicle_type_id":"4","last_reported":1687111666,"current_range_meters":18400,"station_id":"ce4bhs92rcd13ifvqi0g","pricing_plan_id":"free"},{"bike_id":"69bf5c29-7e5d-45c7-b1b2-514d42707ee7","system_id":"levelo_inurba_marseille","lat":43.32833,"lon":5.36686,"is_reserved":false,"is_disabled":false,"rental_uris":{"android":"levelo://app?vid=69bf5c29-7e5d-45c7-b1b2-514d42707ee7","ios":"levelo://app?vid=69bf5c29-7e5d-45c7-b1b2-514d42707ee7"},"vehicle_type_id":"4","last_reported":1687111666,"current_range_meters":29600,"station_id":"ce4bhs92rcd13ifvqi0g","pricing_plan_id":"free"},{"bike_id":"78911849-321a-41c5-b67b-eefecdab885b","system_id":"levelo_inurba_marseille","lat":43.32833,"lon":5.3668,"is_reserved":false,"is_disabled":false,"rental_uris":{"android":"levelo://app?vid=78911849-321a-41c5-b67b-eefecdab885b","ios":"levelo://app?vid=78911849-321a-41c5-b67b-eefecdab885b"},"vehicle_type_id":"4","last_reported":1687111666,"current_range_meters":11600,"station_id":"ce4bhs92rcd13ifvqi0g","pricing_plan_id":"free"},{"bike_id":"9e60ff88-fe04-4b70-9af4-05a83fe316c7","system_id":"levelo_inurba_marseille","lat":43.32835,"lon":5.36685,"is_reserved":false,"is_disabled":false,"rental_uris":{"android":"levelo://app?vid=9e60ff88-fe04-4b70-9af4-05a83fe316c7","ios":"levelo://app?vid=9e60ff88-fe04-4b70-9af4-05a83fe316c7"},"vehicle_type_id":"4","last_reported":1687111666,"current_range_meters":28000,"station_id":"ce4bhs92rcd13ifvqi0g","pricing_plan_id":"free"},{"bike_id":"176f4894-d7fc-460e-aa5d-7c8c1e206dc3","system_id":"levelo_inurba_marseille","lat":43.29711,"lon":5.36603,"is_reserved":false,"is_disabled":false,"rental_uris":{"android":"levelo://app?vid=176f4894-d7fc-460e-aa5d-7c8c1e206dc3","ios":"levelo://app?vid=176f4894-d7fc-460e-aa5d-7c8c1e206dc3"},"vehicle_type_id":"4","last_reported":1687111666,"current_range_meters":10000,"station_id":"ce4bgn12rcd13ifvqbt0","pricing_plan_id":"free"},{"bike_id":"88d0330c-5bb0-4a19-9b65-d4683b42e015","system_id":"levelo_inurba_marseille","lat":43.29683,"lon":5.36046,"is_reserved":false,"is_disabled":false,"rental_uris":{"android":"levelo://app?vid=88d0330c-5bb0-4a19-9b65-d4683b42e015","ios":"levelo://app?vid=88d0330c-5bb0-4a19-9b65-d4683b42e015"},"vehicle_type_id":"4","last_reported":1687111666,"current_range_meters":2000,"station_id":"","pricing_plan_id":"free"},{"bike_id":"86b27436-6f21-4d59-80d7-c9e197f7c099","system_id":"levelo_inurba_marseille","lat":43.29573,"lon":5.367355,"is_reserved":false,"is_disabled":false,"rental_uris":{"android":"levelo://app?vid=86b27436-6f21-4d59-80d7-c9e197f7c099","ios":"levelo://app?vid=86b27436-6f21-4d59-80d7-c9e197f7c099"},"vehicle_type_id":"4","last_reported":1687111666,"current_range_meters":0,"station_id":"ce4bgph2rcd13ifvqc2g","pricing_plan_id":"free"},{"bike_id":"cb8b9da1-20a5-4d25-add9-61e21b9bdeaf","system_id":"levelo_inurba_marseille","lat":43.29573,"lon":5.367355,"is_reserved":false,"is_disabled":false,"rental_uris":{"android":"levelo://app?vid=cb8b9da1-20a5-4d25-add9-61e21b9bdeaf","ios":"levelo://app?vid=cb8b9da1-20a5-4d25-add9-61e21b9bdeaf"},"vehicle_type_id":"4","last_reported":1687111666,"current_range_meters":2400,"station_id":"ce4bgph2rcd13ifvqc2g","pricing_plan_id":"free"},{"bike_id":"a9d8887f-9a20-444c-a007-ef01315a79dc","system_id":"levelo_inurba_marseille","lat":43.29573,"lon":5.367355,"is_reserved":false,"is_disabled":false,"rental_uris":{"android":"levelo://app?vid=a9d8887f-9a20-444c-a007-ef01315a79dc","ios":"levelo://app?vid=a9d8887f-9a20-444c-a007-ef01315a79dc"},"vehicle_type_id":"4","last_reported":1687111666,"current_range_meters":800,"station_id":"ce4bgph2rcd13ifvqc2g","pricing_plan_id":"free"},{"bike_id":"24f41ca5-b432-4feb-a0c8-a15026b97306","system_id":"levelo_inurba_marseille","lat":43.296131,"lon":5.370773,"is_reserved":false,"is_disabled":false,"rental_uris":{"android":"levelo://app?vid=24f41ca5-b432-4feb-a0c8-a15026b97306","ios":"levelo://app?vid=24f41ca5-b432-4feb-a0c8-a15026b97306"},"vehicle_type_id":"4","last_reported":1687111666,"current_range_meters":11200,"station_id":"ce4bgnh2rcd13ifvqc0g","pricing_plan_id":"free"},{"bike_id":"70a7a297-c6aa-403a-979e-d2246d04ddab","system_id":"levelo_inurba_marseille","lat":43.296935,"lon":5.376544,"is_reserved":false,"is_disabled":false,"rental_uris":{"android":"levelo://app?vid=70a7a297-c6aa-403a-979e-d2246d04ddab","ios":"levelo://app?vid=70a7a297-c6aa-403a-979e-d2246d04ddab"},"vehicle_type_id":"4","last_reported":1687111666,"current_range_meters":2000,"station_id":"ce4bgkh2rcd13ifvqbl0","pricing_plan_id":"free"},{"bike_id":"241539c4-4853-4239-b46f-bb04dcc16875","system_id":"levelo_inurba_marseille","lat":43.30962,"lon":5.39027,"is_reserved":false,"is_disabled":false,"rental_uris":{"android":"levelo://app?vid=241539c4-4853-4239-b46f-bb04dcc16875","ios":"levelo://app?vid=241539c4-4853-4239-b46f-bb04dcc16875"},"vehicle_type_id":"4","last_reported":1687111666,"current_range_meters":10400,"station_id":"ce4bgup2rcd13ifvqco0","pricing_plan_id":"free"},{"bike_id":"1c6b0ce2-ede3-4c20-8b50-b7f1832503e8","system_id":"levelo_inurba_marseille","lat":43.30963,"lon":5.39038,"is_reserved":false,"is_disabled":false,"rental_uris":{"android":"levelo://app?vid=1c6b0ce2-ede3-4c20-8b50-b7f1832503e8","ios":"levelo://app?vid=1c6b0ce2-ede3-4c20-8b50-b7f1832503e8"},"vehicle_type_id":"4","last_reported":1687111666,"current_range_meters":23200,"station_id":"ce4bgup2rcd13ifvqco0","pricing_plan_id":"free"},{"bike_id":"e701132b-ecd1-403b-a603-a644be34ba54","system_id":"levelo_inurba_marseille","lat":43.296263,"lon":5.377094,"is_reserved":false,"is_disabled":false,"rental_uris":{"android":"levelo://app?vid=e701132b-ecd1-403b-a603-a644be34ba54","ios":"levelo://app?vid=e701132b-ecd1-403b-a603-a644be34ba54"},"vehicle_type_id":"4","last_reported":1687111666,"current_range_meters":0,"station_id":"ce4bgi92rcd13ifvqb90","pricing_plan_id":"free"},{"bike_id":"250c8a96-8498-4211-b8f3-1b00a8d1fbaf","system_id":"levelo_inurba_marseille","lat":43.296477,"lon":5.37768,"is_reserved":false,"is_disabled":false,"rental_uris":{"android":"levelo://app?vid=250c8a96-8498-4211-b8f3-1b00a8d1fbaf","ios":"levelo://app?vid=250c8a96-8498-4211-b8f3-1b00a8d1fbaf"},"vehicle_type_id":"4","last_reported":1687111666,"current_range_meters":12000,"station_id":"","pricing_plan_id":"free"},{"bike_id":"fead9b8e-5f69-4420-8b16-004268e17893","system_id":"levelo_inurba_marseille","lat":43.296277,"lon":5.377108,"is_reserved":false,"is_disabled":false,"rental_uris":{"android":"levelo://app?vid=fead9b8e-5f69-4420-8b16-004268e17893","ios":"levelo://app?vid=fead9b8e-5f69-4420-8b16-004268e17893"},"vehicle_type_id":"4","last_reported":1687111666,"current_range_meters":0,"station_id":"ce4bgi92rcd13ifvqb90","pricing_plan_id":"free"},{"bike_id":"d243d5af-270b-49cf-b0cc-1718be1631c1","system_id":"levelo_inurba_marseille","lat":43.296277,"lon":5.377108,"is_reserved":false,"is_disabled":false,"rental_uris":{"android":"levelo://app?vid=d243d5af-270b-49cf-b0cc-1718be1631c1","ios":"levelo://app?vid=d243d5af-270b-49cf-b0cc-1718be1631c1"},"vehicle_type_id":"4","last_reported":1687111666,"current_range_meters":0,"station_id":"ce4bgi92rcd13ifvqb90","pricing_plan_id":"free"},{"bike_id":"eb56f040-d7e3-440c-9d05-82afe187dd21","system_id":"levelo_inurba_marseille","lat":43.299707,"lon":5.384859,"is_reserved":false,"is_disabled":false,"rental_uris":{"android":"levelo://app?vid=eb56f040-d7e3-440c-9d05-82afe187dd21","ios":"levelo://app?vid=eb56f040-d7e3-440c-9d05-82afe187dd21"},"vehicle_type_id":"4","last_reported":1687111666,"current_range_meters":28400,"station_id":"ce4bgj92rcd13ifvqbd0","pricing_plan_id":"free"},{"bike_id":"da407586-1a0a-428f-b284-996d6bd8f792","system_id":"levelo_inurba_marseille","lat":43.29971,"lon":5.38492,"is_reserved":false,"is_disabled":false,"rental_uris":{"android":"levelo://app?vid=da407586-1a0a-428f-b284-996d6bd8f792","ios":"levelo://app?vid=da407586-1a0a-428f-b284-996d6bd8f792"},"vehicle_type_id":"4","last_reported":1687111666,"current_range_meters":0,"station_id":"ce4bgj92rcd13ifvqbd0","pricing_plan_id":"free"},{"bike_id":"bb335696-9086-470f-9c5f-1244bc2e0b8f","system_id":"levelo_inurba_marseille","lat":43.29966,"lon":5.38494,"is_reserved":false,"is_disabled":false,"rental_uris":{"android":"levelo://app?vid=bb335696-9086-470f-9c5f-1244bc2e0b8f","ios":"levelo://app?vid=bb335696-9086-470f-9c5f-1244bc2e0b8f"},"vehicle_type_id":"4","last_reported":1687111666,"current_range_meters":27600,"station_id":"ce4bgj92rcd13ifvqbd0","pricing_plan_id":"free"},{"bike_id":"25de4ad5-6a69-4c98-ab72-99bfeb54004a","system_id":"levelo_inurba_marseille","lat":43.32367,"lon":5.388836,"is_reserved":false,"is_disabled":false,"rental_uris":{"android":"levelo://app?vid=25de4ad5-6a69-4c98-ab72-99bfeb54004a","ios":"levelo://app?vid=25de4ad5-6a69-4c98-ab72-99bfeb54004a"},"vehicle_type_id":"4","last_reported":1687111666,"current_range_meters":22800,"station_id":"ce4bhqp2rcd13ifvqhog","pricing_plan_id":"free"},{"bike_id":"26dfd23d-603f-4cbe-b9fe-fc09e60c0c79","system_id":"levelo_inurba_marseille","lat":43.32367,"lon":5.388836,"is_reserved":false,"is_disabled":false,"rental_uris":{"android":"levelo://app?vid=26dfd23d-603f-4cbe-b9fe-fc09e60c0c79","ios":"levelo://app?vid=26dfd23d-603f-4cbe-b9fe-fc09e60c0c79"},"vehicle_type_id":"4","last_reported":1687111666,"current_range_meters":26400,"station_id":"ce4bhqp2rcd13ifvqhog","pricing_plan_id":"free"},{"bike_id":"71009a0a-f485-4796-8d64-dfa1229a45be","system_id":"levelo_inurba_marseille","lat":43.32367,"lon":5.388836,"is_reserved":false,"is_disabled":false,"rental_uris":{"android":"levelo://app?vid=71009a0a-f485-4796-8d64-dfa1229a45be","ios":"levelo://app?vid=71009a0a-f485-4796-8d64-dfa1229a45be"},"vehicle_type_id":"4","last_reported":1687111666,"current_range_meters":22000,"station_id":"ce4bhqp2rcd13ifvqhog","pricing_plan_id":"free"},{"bike_id":"2631e748-85e1-4b40-b01a-e9aaa60e9430","system_id":"levelo_inurba_marseille","lat":43.32367,"lon":5.388836,"is_reserved":false,"is_disabled":false,"rental_uris":{"android":"levelo://app?vid=2631e748-85e1-4b40-b01a-e9aaa60e9430","ios":"levelo://app?vid=2631e748-85e1-4b40-b01a-e9aaa60e9430"},"vehicle_type_id":"4","last_reported":1687111666,"current_range_meters":16000,"station_id":"ce4bhqp2rcd13ifvqhog","pricing_plan_id":"free"},{"bike_id":"c25bbca6-334a-48c9-b2aa-c69eb97c9d81","system_id":"levelo_inurba_marseille","lat":43.32367,"lon":5.388836,"is_reserved":false,"is_disabled":false,"rental_uris":{"android":"levelo://app?vid=c25bbca6-334a-48c9-b2aa-c69eb97c9d81","ios":"levelo://app?vid=c25bbca6-334a-48c9-b2aa-c69eb97c9d81"},"vehicle_type_id":"4","last_reported":1687111666,"current_range_meters":28800,"station_id":"ce4bhqp2rcd13ifvqhog","pricing_plan_id":"free"},{"bike_id":"ddfc5404-900a-4c3b-9a48-580715a2bbcf","system_id":"levelo_inurba_marseille","lat":43.29601,"lon":5.381084,"is_reserved":false,"is_disabled":false,"rental_uris":{"android":"levelo://app?vid=ddfc5404-900a-4c3b-9a48-580715a2bbcf","ios":"levelo://app?vid=ddfc5404-900a-4c3b-9a48-580715a2bbcf"},"vehicle_type_id":"4","last_reported":1687111666,"current_range_meters":9200,"station_id":"ce4bgl12rcd13ifvqbo0","pricing_plan_id":"free"},{"bike_id":"961a388a-e703-4b80-90aa-649d671b4c12","system_id":"levelo_inurba_marseille","lat":43.29274,"lon":5.3686,"is_reserved":false,"is_disabled":false,"rental_uris":{"android":"levelo://app?vid=961a388a-e703-4b80-90aa-649d671b4c12","ios":"levelo://app?vid=961a388a-e703-4b80-90aa-649d671b4c12"},"vehicle_type_id":"4","last_reported":1687111666,"current_range_meters":400,"station_id":"ce4bhbp2rcd13ifvqesg","pricing_plan_id":"free"},{"bike_id":"55899e59-488a-489a-a2de-219417e63125","system_id":"levelo_inurba_marseille","lat":43.2936,"lon":5.37835,"is_reserved":false,"is_disabled":false,"rental_uris":{"android":"levelo://app?vid=55899e59-488a-489a-a2de-219417e63125","ios":"levelo://app?vid=55899e59-488a-489a-a2de-219417e63125"},"vehicle_type_id":"4","last_reported":1687111666,"current_range_meters":15600,"station_id":"ce4bgjh2rcd13ifvqbf0","pricing_plan_id":"free"},{"bike_id":"8d8f2f64-4552-47c3-9ab5-0805204558ef","system_id":"levelo_inurba_marseille","lat":43.291675,"lon":5.371583,"is_reserved":false,"is_disabled":false,"rental_uris":{"android":"levelo://app?vid=8d8f2f64-4552-47c3-9ab5-0805204558ef","ios":"levelo://app?vid=8d8f2f64-4552-47c3-9ab5-0805204558ef"},"vehicle_type_id":"4","last_reported":1687111666,"current_range_meters":20800,"station_id":"ce4bha92rcd13ifvqeh0","pricing_plan_id":"free"},{"bike_id":"7ba004d4-187d-4546-9b6d-96546f72fc52","system_id":"levelo_inurba_marseille","lat":43.313291,"lon":5.396838,"is_reserved":false,"is_disabled":false,"rental_uris":{"android":"levelo://app?vid=7ba004d4-187d-4546-9b6d-96546f72fc52","ios":"levelo://app?vid=7ba004d4-187d-4546-9b6d-96546f72fc52"},"vehicle_type_id":"4","last_reported":1687111666,"current_range_meters":12000,"station_id":"ce4bgvp2rcd13ifvqcu0","pricing_plan_id":"free"},{"bike_id":"6a823635-0af9-47b3-87f5-94a26ee7c19b","system_id":"levelo_inurba_marseille","lat":43.31333,"lon":5.397,"is_reserved":false,"is_disabled":false,"rental_uris":{"android":"levelo://app?vid=6a823635-0af9-47b3-87f5-94a26ee7c19b","ios":"levelo://app?vid=6a823635-0af9-47b3-87f5-94a26ee7c19b"},"vehicle_type_id":"4","last_reported":1687111666,"current_range_meters":0,"station_id":"ce4bgvp2rcd13ifvqcu0","pricing_plan_id":"free"},{"bike_id":"9cbe08f3-19e4-4769-9116-9db090f169af","system_id":"levelo_inurba_marseille","lat":43.309038,"lon":5.396546,"is_reserved":false,"is_disabled":false,"rental_uris":{"android":"levelo://app?vid=9cbe08f3-19e4-4769-9116-9db090f169af","ios":"levelo://app?vid=9cbe08f3-19e4-4769-9116-9db090f169af"},"vehicle_type_id":"4","last_reported":1687111666,"current_range_meters":26400,"station_id":"ce4bh012rcd13ifvqcv0","pricing_plan_id":"free"},{"bike_id":"15fc0071-c2e2-4d73-b157-668c4bd0816d","system_id":"levelo_inurba_marseille","lat":43.29626,"lon":5.38681,"is_reserved":false,"is_disabled":false,"rental_uris":{"android":"levelo://app?vid=15fc0071-c2e2-4d73-b157-668c4bd0816d","ios":"levelo://app?vid=15fc0071-c2e2-4d73-b157-668c4bd0816d"},"vehicle_type_id":"4","last_reported":1687111666,"current_range_meters":2000,"station_id":"ce4bgih2rcd13ifvqba0","pricing_plan_id":"free"},{"bike_id":"21e3e043-358d-45d1-bcc2-94c8058cd9a3","system_id":"levelo_inurba_marseille","lat":43.29529,"lon":5.385581,"is_reserved":false,"is_disabled":false,"rental_uris":{"android":"levelo://app?vid=21e3e043-358d-45d1-bcc2-94c8058cd9a3","ios":"levelo://app?vid=21e3e043-358d-45d1-bcc2-94c8058cd9a3"},"vehicle_type_id":"4","last_reported":1687111666,"current_range_meters":1200,"station_id":"ce4bgih2rcd13ifvqba0","pricing_plan_id":"free"},{"bike_id":"aeea5741-6987-4726-b61f-31f24b5314fc","system_id":"levelo_inurba_marseille","lat":43.290779,"lon":5.371482,"is_reserved":false,"is_disabled":false,"rental_uris":{"android":"levelo://app?vid=aeea5741-6987-4726-b61f-31f24b5314fc","ios":"levelo://app?vid=aeea5741-6987-4726-b61f-31f24b5314fc"},"vehicle_type_id":"4","last_reported":1687111666,"current_range_meters":0,"station_id":"ce4bh5p2rcd13ifvqe4g","pricing_plan_id":"free"},{"bike_id":"4bd2f2ea-c924-4d60-9f6d-e25671b69939","system_id":"levelo_inurba_marseille","lat":43.290631,"lon":5.359244,"is_reserved":false,"is_disabled":false,"rental_uris":{"android":"levelo://app?vid=4bd2f2ea-c924-4d60-9f6d-e25671b69939","ios":"levelo://app?vid=4bd2f2ea-c924-4d60-9f6d-e25671b69939"},"vehicle_type_id":"4","last_reported":1687111666,"current_range_meters":4800,"station_id":"ce4bha92rcd13ifvqeg0","pricing_plan_id":"free"},{"bike_id":"9b1d5baa-1776-4714-b651-38c23ee88150","system_id":"levelo_inurba_marseille","lat":43.29043,"lon":5.37567,"is_reserved":false,"is_disabled":false,"rental_uris":{"android":"levelo://app?vid=9b1d5baa-1776-4714-b651-38c23ee88150","ios":"levelo://app?vid=9b1d5baa-1776-4714-b651-38c23ee88150"},"vehicle_type_id":"4","last_reported":1687111666,"current_range_meters":28400,"station_id":"ce4bh692rcd13ifvqe90","pricing_plan_id":"free"},{"bike_id":"ec01e58d-dd67-4a3f-8200-086536fe2977","system_id":"levelo_inurba_marseille","lat":43.29036,"lon":5.37558,"is_reserved":false,"is_disabled":false,"rental_uris":{"android":"levelo://app?vid=ec01e58d-dd67-4a3f-8200-086536fe2977","ios":"levelo://app?vid=ec01e58d-dd67-4a3f-8200-086536fe2977"},"vehicle_type_id":"4","last_reported":1687111666,"current_range_meters":17200,"station_id":"ce4bh692rcd13ifvqe90","pricing_plan_id":"free"},{"bike_id":"5db97513-1789-4813-967c-68f9b36822d9","system_id":"levelo_inurba_marseille","lat":43.28935,"lon":5.36636,"is_reserved":false,"is_disabled":false,"rental_uris":{"android":"levelo://app?vid=5db97513-1789-4813-967c-68f9b36822d9","ios":"levelo://app?vid=5db97513-1789-4813-967c-68f9b36822d9"},"vehicle_type_id":"4","last_reported":1687111666,"current_range_meters":24000,"station_id":"ce4bhap2rcd13ifvqek0","pricing_plan_id":"free"},{"bike_id":"6223f860-6c1e-491d-a2fc-018f9da9d88f","system_id":"levelo_inurba_marseille","lat":43.289468,"lon":5.363719,"is_reserved":false,"is_disabled":false,"rental_uris":{"android":"levelo://app?vid=6223f860-6c1e-491d-a2fc-018f9da9d88f","ios":"levelo://app?vid=6223f860-6c1e-491d-a2fc-018f9da9d88f"},"vehicle_type_id":"4","last_reported":1687111666,"current_range_meters":5200,"station_id":"ce4bhc92rcd13ifvqetg","pricing_plan_id":"free"},{"bike_id":"28e363e6-937c-4d62-b722-32ec739c38e6","system_id":"levelo_inurba_marseille","lat":43.289184,"lon":5.366408,"is_reserved":false,"is_disabled":false,"rental_uris":{"android":"levelo://app?vid=28e363e6-937c-4d62-b722-32ec739c38e6","ios":"levelo://app?vid=28e363e6-937c-4d62-b722-32ec739c38e6"},"vehicle_type_id":"4","last_reported":1687111666,"current_range_meters":0,"station_id":"ce4bhap2rcd13ifvqek0","pricing_plan_id":"free"},{"bike_id":"e7d86f54-9f8c-4013-8769-fc0ad6422149","system_id":"levelo_inurba_marseille","lat":43.289468,"lon":5.363719,"is_reserved":false,"is_disabled":false,"rental_uris":{"android":"levelo://app?vid=e7d86f54-9f8c-4013-8769-fc0ad6422149","ios":"levelo://app?vid=e7d86f54-9f8c-4013-8769-fc0ad6422149"},"vehicle_type_id":"4","last_reported":1687111666,"current_range_meters":3200,"station_id":"ce4bhc92rcd13ifvqetg","pricing_plan_id":"free"},{"bike_id":"a1081af4-e834-4c3d-9abf-c927545285cf","system_id":"levelo_inurba_marseille","lat":43.30415,"lon":5.397375,"is_reserved":false,"is_disabled":false,"rental_uris":{"android":"levelo://app?vid=a1081af4-e834-4c3d-9abf-c927545285cf","ios":"levelo://app?vid=a1081af4-e834-4c3d-9abf-c927545285cf"},"vehicle_type_id":"4","last_reported":1687111666,"current_range_meters":7200,"station_id":"","pricing_plan_id":"free"},{"bike_id":"ae3cfb17-ac07-4acf-8d45-c2a04670ee66","system_id":"levelo_inurba_marseille","lat":43.28913,"lon":5.37142,"is_reserved":false,"is_disabled":false,"rental_uris":{"android":"levelo://app?vid=ae3cfb17-ac07-4acf-8d45-c2a04670ee66","ios":"levelo://app?vid=ae3cfb17-ac07-4acf-8d45-c2a04670ee66"},"vehicle_type_id":"4","last_reported":1687111666,"current_range_meters":20000,"station_id":"","pricing_plan_id":"free"},{"bike_id":"38eb09af-7166-42b9-865e-84246929498f","system_id":"levelo_inurba_marseille","lat":43.292644,"lon":5.384257,"is_reserved":false,"is_disabled":false,"rental_uris":{"android":"levelo://app?vid=38eb09af-7166-42b9-865e-84246929498f","ios":"levelo://app?vid=38eb09af-7166-42b9-865e-84246929498f"},"vehicle_type_id":"4","last_reported":1687111666,"current_range_meters":32000,"station_id":"ce4bh692rcd13ifvqea0","pricing_plan_id":"free"},{"bike_id":"a3e7c87c-1f45-4c65-bad8-458e1c2093dd","system_id":"levelo_inurba_marseille","lat":43.292642,"lon":5.384254,"is_reserved":false,"is_disabled":false,"rental_uris":{"android":"levelo://app?vid=a3e7c87c-1f45-4c65-bad8-458e1c2093dd","ios":"levelo://app?vid=a3e7c87c-1f45-4c65-bad8-458e1c2093dd"},"vehicle_type_id":"4","last_reported":1687111666,"current_range_meters":7600,"station_id":"ce4bh692rcd13ifvqea0","pricing_plan_id":"free"},{"bike_id":"43199a4d-7044-4071-a334-4bbe796c17f7","system_id":"levelo_inurba_marseille","lat":43.292642,"lon":5.384254,"is_reserved":false,"is_disabled":false,"rental_uris":{"android":"levelo://app?vid=43199a4d-7044-4071-a334-4bbe796c17f7","ios":"levelo://app?vid=43199a4d-7044-4071-a334-4bbe796c17f7"},"vehicle_type_id":"4","last_reported":1687111666,"current_range_meters":10000,"station_id":"ce4bh692rcd13ifvqea0","pricing_plan_id":"free"},{"bike_id":"76354b93-b8e4-431b-889e-a1ce5b5890f6","system_id":"levelo_inurba_marseille","lat":43.290104,"lon":5.356111,"is_reserved":false,"is_disabled":false,"rental_uris":{"android":"levelo://app?vid=76354b93-b8e4-431b-889e-a1ce5b5890f6","ios":"levelo://app?vid=76354b93-b8e4-431b-889e-a1ce5b5890f6"},"vehicle_type_id":"4","last_reported":1687111666,"current_range_meters":1600,"station_id":"ce4bhb92rcd13ifvqen0","pricing_plan_id":"free"},{"bike_id":"2b9e84aa-58f9-453b-a04d-d55e46d0b63e","system_id":"levelo_inurba_marseille","lat":43.290995,"lon":5.381361,"is_reserved":false,"is_disabled":false,"rental_uris":{"android":"levelo://app?vid=2b9e84aa-58f9-453b-a04d-d55e46d0b63e","ios":"levelo://app?vid=2b9e84aa-58f9-453b-a04d-d55e46d0b63e"},"vehicle_type_id":"4","last_reported":1687111666,"current_range_meters":17200,"station_id":"ce4bh512rcd13ifvqe2g","pricing_plan_id":"free"},{"bike_id":"e0a82537-e33f-4184-baa3-9d51a727359f","system_id":"levelo_inurba_marseille","lat":43.290995,"lon":5.381361,"is_reserved":false,"is_disabled":false,"rental_uris":{"android":"levelo://app?vid=e0a82537-e33f-4184-baa3-9d51a727359f","ios":"levelo://app?vid=e0a82537-e33f-4184-baa3-9d51a727359f"},"vehicle_type_id":"4","last_reported":1687111666,"current_range_meters":3200,"station_id":"ce4bh512rcd13ifvqe2g","pricing_plan_id":"free"},{"bike_id":"c8651228-f0ca-46eb-8863-d455d12176bd","system_id":"levelo_inurba_marseille","lat":43.290995,"lon":5.381361,"is_reserved":false,"is_disabled":false,"rental_uris":{"android":"levelo://app?vid=c8651228-f0ca-46eb-8863-d455d12176bd","ios":"levelo://app?vid=c8651228-f0ca-46eb-8863-d455d12176bd"},"vehicle_type_id":"4","last_reported":1687111666,"current_range_meters":29600,"station_id":"ce4bh512rcd13ifvqe2g","pricing_plan_id":"free"},{"bike_id":"b9b44b37-7edf-4ab6-8685-17eb58a26dbc","system_id":"levelo_inurba_marseille","lat":43.295169,"lon":5.390426,"is_reserved":false,"is_disabled":false,"rental_uris":{"android":"levelo://app?vid=b9b44b37-7edf-4ab6-8685-17eb58a26dbc","ios":"levelo://app?vid=b9b44b37-7edf-4ab6-8685-17eb58a26dbc"},"vehicle_type_id":"4","last_reported":1687111666,"current_range_meters":30000,"station_id":"ce4bh3p2rcd13ifvqdp0","pricing_plan_id":"free"},{"bike_id":"c0fb8083-e02d-4dec-b1b9-fa095e6c5b75","system_id":"levelo_inurba_marseille","lat":43.337396,"lon":5.374526,"is_reserved":false,"is_disabled":false,"rental_uris":{"android":"levelo://app?vid=c0fb8083-e02d-4dec-b1b9-fa095e6c5b75","ios":"levelo://app?vid=c0fb8083-e02d-4dec-b1b9-fa095e6c5b75"},"vehicle_type_id":"4","last_reported":1687111666,"current_range_meters":0,"station_id":"ce4bhp92rcd13ifvqhag","pricing_plan_id":"free"},{"bike_id":"41a8749b-6d93-4d1b-8e52-c5f60f65ae7c","system_id":"levelo_inurba_marseille","lat":43.33752,"lon":5.37443,"is_reserved":false,"is_disabled":false,"rental_uris":{"android":"levelo://app?vid=41a8749b-6d93-4d1b-8e52-c5f60f65ae7c","ios":"levelo://app?vid=41a8749b-6d93-4d1b-8e52-c5f60f65ae7c"},"vehicle_type_id":"4","last_reported":1687111666,"current_range_meters":26000,"station_id":"","pricing_plan_id":"free"},{"bike_id":"53c6f746-b7a4-4cb5-a805-950a0d6fe1e6","system_id":"levelo_inurba_marseille","lat":43.295194,"lon":5.39397,"is_reserved":false,"is_disabled":false,"rental_uris":{"android":"levelo://app?vid=53c6f746-b7a4-4cb5-a805-950a0d6fe1e6","ios":"levelo://app?vid=53c6f746-b7a4-4cb5-a805-950a0d6fe1e6"},"vehicle_type_id":"4","last_reported":1687111666,"current_range_meters":0,"station_id":"ce4bh292rcd13ifvqdf0","pricing_plan_id":"free"},{"bike_id":"c45eb6b0-29dc-43ad-a86a-0819f63a895e","system_id":"levelo_inurba_marseille","lat":43.28872,"lon":5.38208,"is_reserved":false,"is_disabled":false,"rental_uris":{"android":"levelo://app?vid=c45eb6b0-29dc-43ad-a86a-0819f63a895e","ios":"levelo://app?vid=c45eb6b0-29dc-43ad-a86a-0819f63a895e"},"vehicle_type_id":"4","last_reported":1687111666,"current_range_meters":3200,"station_id":"","pricing_plan_id":"free"},{"bike_id":"0c622936-96bc-4b82-b074-36b20e288107","system_id":"levelo_inurba_marseille","lat":43.283998,"lon":5.375062,"is_reserved":false,"is_disabled":false,"rental_uris":{"android":"levelo://app?vid=0c622936-96bc-4b82-b074-36b20e288107","ios":"levelo://app?vid=0c622936-96bc-4b82-b074-36b20e288107"},"vehicle_type_id":"4","last_reported":1687111666,"current_range_meters":16000,"station_id":"ce4bh412rcd13ifvqds0","pricing_plan_id":"free"},{"bike_id":"f2bdeca6-f817-4326-98f1-c3ef41860d43","system_id":"levelo_inurba_marseille","lat":43.290336,"lon":5.386425,"is_reserved":false,"is_disabled":false,"rental_uris":{"android":"levelo://app?vid=f2bdeca6-f817-4326-98f1-c3ef41860d43","ios":"levelo://app?vid=f2bdeca6-f817-4326-98f1-c3ef41860d43"},"vehicle_type_id":"4","last_reported":1687111666,"current_range_meters":23600,"station_id":"ce4bh4p2rcd13ifvqe0g","pricing_plan_id":"free"},{"bike_id":"af2156dd-f6fd-46b6-918a-98829c38284e","system_id":"levelo_inurba_marseille","lat":43.26681,"lon":5.382694,"is_reserved":false,"is_disabled":false,"rental_uris":{"android":"levelo://app?vid=af2156dd-f6fd-46b6-918a-98829c38284e","ios":"levelo://app?vid=af2156dd-f6fd-46b6-918a-98829c38284e"},"vehicle_type_id":"4","last_reported":1687111666,"current_range_meters":20400,"station_id":"ce4bhg92rcd13ifvqf90","pricing_plan_id":"free"},{"bike_id":"b5ae55e7-2b74-4dc9-9ce7-77a5da983c6d","system_id":"levelo_inurba_marseille","lat":43.287184,"lon":5.37937,"is_reserved":false,"is_disabled":false,"rental_uris":{"android":"levelo://app?vid=b5ae55e7-2b74-4dc9-9ce7-77a5da983c6d","ios":"levelo://app?vid=b5ae55e7-2b74-4dc9-9ce7-77a5da983c6d"},"vehicle_type_id":"4","last_reported":1687111666,"current_range_meters":19600,"station_id":"ce4bh9p2rcd13ifvqec0","pricing_plan_id":"free"},{"bike_id":"08710799-ba68-4a7a-969f-c57e7088394b","system_id":"levelo_inurba_marseille","lat":43.28714,"lon":5.37945,"is_reserved":false,"is_disabled":false,"rental_uris":{"android":"levelo://app?vid=08710799-ba68-4a7a-969f-c57e7088394b","ios":"levelo://app?vid=08710799-ba68-4a7a-969f-c57e7088394b"},"vehicle_type_id":"4","last_reported":1687111666,"current_range_meters":5600,"station_id":"ce4bh9p2rcd13ifvqec0","pricing_plan_id":"free"},{"bike_id":"13ba674e-9853-4add-bdd2-edd178da6577","system_id":"levelo_inurba_marseille","lat":43.291994,"lon":5.392907,"is_reserved":false,"is_disabled":false,"rental_uris":{"android":"levelo://app?vid=13ba674e-9853-4add-bdd2-edd178da6577","ios":"levelo://app?vid=13ba674e-9853-4add-bdd2-edd178da6577"},"vehicle_type_id":"4","last_reported":1687111666,"current_range_meters":5200,"station_id":"ce4bh192rcd13ifvqdd0","pricing_plan_id":"free"},{"bike_id":"d29b468c-4f33-4aed-b4af-a3eff7c119d7","system_id":"levelo_inurba_marseille","lat":43.29195,"lon":5.39322,"is_reserved":false,"is_disabled":false,"rental_uris":{"android":"levelo://app?vid=d29b468c-4f33-4aed-b4af-a3eff7c119d7","ios":"levelo://app?vid=d29b468c-4f33-4aed-b4af-a3eff7c119d7"},"vehicle_type_id":"4","last_reported":1687111666,"current_range_meters":6800,"station_id":"ce4bh192rcd13ifvqdd0","pricing_plan_id":"free"},{"bike_id":"9c28d82a-c1b3-46f5-a7a0-8c0a7fb3ff9b","system_id":"levelo_inurba_marseille","lat":43.29196,"lon":5.39324,"is_reserved":false,"is_disabled":false,"rental_uris":{"android":"levelo://app?vid=9c28d82a-c1b3-46f5-a7a0-8c0a7fb3ff9b","ios":"levelo://app?vid=9c28d82a-c1b3-46f5-a7a0-8c0a7fb3ff9b"},"vehicle_type_id":"4","last_reported":1687111666,"current_range_meters":8000,"station_id":"","pricing_plan_id":"free"},{"bike_id":"fd3b84ec-be9f-4d50-bf43-58d44f8b5fbb","system_id":"levelo_inurba_marseille","lat":43.283998,"lon":5.375062,"is_reserved":false,"is_disabled":false,"rental_uris":{"android":"levelo://app?vid=fd3b84ec-be9f-4d50-bf43-58d44f8b5fbb","ios":"levelo://app?vid=fd3b84ec-be9f-4d50-bf43-58d44f8b5fbb"},"vehicle_type_id":"4","last_reported":1687111666,"current_range_meters":18400,"station_id":"ce4bh412rcd13ifvqds0","pricing_plan_id":"free"},{"bike_id":"6e65d77e-a264-4049-8bc1-dccb3b0d023f","system_id":"levelo_inurba_marseille","lat":43.285856,"lon":5.350771,"is_reserved":false,"is_disabled":false,"rental_uris":{"android":"levelo://app?vid=6e65d77e-a264-4049-8bc1-dccb3b0d023f","ios":"levelo://app?vid=6e65d77e-a264-4049-8bc1-dccb3b0d023f"},"vehicle_type_id":"4","last_reported":1687111666,"current_range_meters":0,"station_id":"ce4bhch2rcd13ifvqeug","pricing_plan_id":"free"},{"bike_id":"b120e251-69aa-4110-a3e9-a5cf2c8b0866","system_id":"levelo_inurba_marseille","lat":43.285856,"lon":5.350771,"is_reserved":false,"is_disabled":false,"rental_uris":{"android":"levelo://app?vid=b120e251-69aa-4110-a3e9-a5cf2c8b0866","ios":"levelo://app?vid=b120e251-69aa-4110-a3e9-a5cf2c8b0866"},"vehicle_type_id":"4","last_reported":1687111666,"current_range_meters":8400,"station_id":"ce4bhch2rcd13ifvqeug","pricing_plan_id":"free"},{"bike_id":"e0be51ef-4b64-42ed-a697-c1d6ff7c50bf","system_id":"levelo_inurba_marseille","lat":43.28617,"lon":5.35106,"is_reserved":false,"is_disabled":false,"rental_uris":{"android":"levelo://app?vid=e0be51ef-4b64-42ed-a697-c1d6ff7c50bf","ios":"levelo://app?vid=e0be51ef-4b64-42ed-a697-c1d6ff7c50bf"},"vehicle_type_id":"4","last_reported":1687111666,"current_range_meters":2000,"station_id":"ce4bhch2rcd13ifvqeug","pricing_plan_id":"free"},{"bike_id":"ec46c30f-3780-4056-8b6d-f8c45c8ab29e","system_id":"levelo_inurba_marseille","lat":43.28615,"lon":5.35103,"is_reserved":false,"is_disabled":false,"rental_uris":{"android":"levelo://app?vid=ec46c30f-3780-4056-8b6d-f8c45c8ab29e","ios":"levelo://app?vid=ec46c30f-3780-4056-8b6d-f8c45c8ab29e"},"vehicle_type_id":"4","last_reported":1687111666,"current_range_meters":2800,"station_id":"ce4bhch2rcd13ifvqeug","pricing_plan_id":"free"},{"bike_id":"899c7ee9-8c2f-47b9-b79b-ac02987e1d6a","system_id":"levelo_inurba_marseille","lat":43.283998,"lon":5.375062,"is_reserved":false,"is_disabled":false,"rental_uris":{"android":"levelo://app?vid=899c7ee9-8c2f-47b9-b79b-ac02987e1d6a","ios":"levelo://app?vid=899c7ee9-8c2f-47b9-b79b-ac02987e1d6a"},"vehicle_type_id":"4","last_reported":1687111666,"current_range_meters":5600,"station_id":"ce4bh412rcd13ifvqds0","pricing_plan_id":"free"},{"bike_id":"151197d0-4e3b-4721-97c3-61bd8be7b14e","system_id":"levelo_inurba_marseille","lat":43.28424,"lon":5.375115,"is_reserved":false,"is_disabled":false,"rental_uris":{"android":"levelo://app?vid=151197d0-4e3b-4721-97c3-61bd8be7b14e","ios":"levelo://app?vid=151197d0-4e3b-4721-97c3-61bd8be7b14e"},"vehicle_type_id":"4","last_reported":1687111666,"current_range_meters":13600,"station_id":"","pricing_plan_id":"free"},{"bike_id":"e646631c-49da-4cf2-9063-e6b9a3a70bcc","system_id":"levelo_inurba_marseille","lat":43.286595,"lon":5.386795,"is_reserved":false,"is_disabled":false,"rental_uris":{"android":"levelo://app?vid=e646631c-49da-4cf2-9063-e6b9a3a70bcc","ios":"levelo://app?vid=e646631c-49da-4cf2-9063-e6b9a3a70bcc"},"vehicle_type_id":"4","last_reported":1687111666,"current_range_meters":0,"station_id":"ce4bh492rcd13ifvqdug","pricing_plan_id":"free"},{"bike_id":"8ccd7c34-8984-46c7-a9f8-1e799f46af09","system_id":"levelo_inurba_marseille","lat":43.28521,"lon":5.35089,"is_reserved":false,"is_disabled":false,"rental_uris":{"android":"levelo://app?vid=8ccd7c34-8984-46c7-a9f8-1e799f46af09","ios":"levelo://app?vid=8ccd7c34-8984-46c7-a9f8-1e799f46af09"},"vehicle_type_id":"4","last_reported":1687111666,"current_range_meters":4400,"station_id":"","pricing_plan_id":"free"},{"bike_id":"43275ef6-770c-4f0e-926c-1c3aecd7abec","system_id":"levelo_inurba_marseille","lat":43.287909,"lon":5.390554,"is_reserved":false,"is_disabled":false,"rental_uris":{"android":"levelo://app?vid=43275ef6-770c-4f0e-926c-1c3aecd7abec","ios":"levelo://app?vid=43275ef6-770c-4f0e-926c-1c3aecd7abec"},"vehicle_type_id":"4","last_reported":1687111666,"current_range_meters":11600,"station_id":"","pricing_plan_id":"free"},{"bike_id":"8db5d0f0-ce73-4340-a31c-90dcfe30380a","system_id":"levelo_inurba_marseille","lat":43.323464,"lon":5.406297,"is_reserved":false,"is_disabled":false,"rental_uris":{"android":"levelo://app?vid=8db5d0f0-ce73-4340-a31c-90dcfe30380a","ios":"levelo://app?vid=8db5d0f0-ce73-4340-a31c-90dcfe30380a"},"vehicle_type_id":"4","last_reported":1687111666,"current_range_meters":24000,"station_id":"ce4bhq92rcd13ifvqhjg","pricing_plan_id":"free"},{"bike_id":"536b47a7-25f9-49cb-9608-1b3c49b68cf4","system_id":"levelo_inurba_marseille","lat":43.33718,"lon":5.39191,"is_reserved":false,"is_disabled":false,"rental_uris":{"android":"levelo://app?vid=536b47a7-25f9-49cb-9608-1b3c49b68cf4","ios":"levelo://app?vid=536b47a7-25f9-49cb-9608-1b3c49b68cf4"},"vehicle_type_id":"4","last_reported":1687111666,"current_range_meters":9200,"station_id":"","pricing_plan_id":"free"},{"bike_id":"d9b3fe2e-266e-4d16-96a6-06f2b72ab384","system_id":"levelo_inurba_marseille","lat":43.284787,"lon":5.384116,"is_reserved":false,"is_disabled":false,"rental_uris":{"android":"levelo://app?vid=d9b3fe2e-266e-4d16-96a6-06f2b72ab384","ios":"levelo://app?vid=d9b3fe2e-266e-4d16-96a6-06f2b72ab384"},"vehicle_type_id":"4","last_reported":1687111666,"current_range_meters":7600,"station_id":"ce4bh512rcd13ifvqe3g","pricing_plan_id":"free"},{"bike_id":"4e8b587e-11f1-4ab5-be23-f13cf6b05616","system_id":"levelo_inurba_marseille","lat":43.284787,"lon":5.384116,"is_reserved":false,"is_disabled":false,"rental_uris":{"android":"levelo://app?vid=4e8b587e-11f1-4ab5-be23-f13cf6b05616","ios":"levelo://app?vid=4e8b587e-11f1-4ab5-be23-f13cf6b05616"},"vehicle_type_id":"4","last_reported":1687111666,"current_range_meters":0,"station_id":"ce4bh512rcd13ifvqe3g","pricing_plan_id":"free"},{"bike_id":"1354108c-3064-4e9b-ba29-4200bd1848e0","system_id":"levelo_inurba_marseille","lat":43.28476,"lon":5.38415,"is_reserved":false,"is_disabled":false,"rental_uris":{"android":"levelo://app?vid=1354108c-3064-4e9b-ba29-4200bd1848e0","ios":"levelo://app?vid=1354108c-3064-4e9b-ba29-4200bd1848e0"},"vehicle_type_id":"4","last_reported":1687111666,"current_range_meters":22400,"station_id":"ce4bh512rcd13ifvqe3g","pricing_plan_id":"free"},{"bike_id":"98821f29-8d62-46c9-b37a-feefa8906c9b","system_id":"levelo_inurba_marseille","lat":43.28475,"lon":5.38414,"is_reserved":false,"is_disabled":false,"rental_uris":{"android":"levelo://app?vid=98821f29-8d62-46c9-b37a-feefa8906c9b","ios":"levelo://app?vid=98821f29-8d62-46c9-b37a-feefa8906c9b"},"vehicle_type_id":"4","last_reported":1687111666,"current_range_meters":13600,"station_id":"ce4bh512rcd13ifvqe3g","pricing_plan_id":"free"},{"bike_id":"5d164f7d-0297-4d60-b2a8-151840b736ac","system_id":"levelo_inurba_marseille","lat":43.288497,"lon":5.393089,"is_reserved":false,"is_disabled":false,"rental_uris":{"android":"levelo://app?vid=5d164f7d-0297-4d60-b2a8-151840b736ac","ios":"levelo://app?vid=5d164f7d-0297-4d60-b2a8-151840b736ac"},"vehicle_type_id":"4","last_reported":1687111666,"current_range_meters":6000,"station_id":"ce4bh2p2rcd13ifvqdi0","pricing_plan_id":"free"},{"bike_id":"1e7760ae-b6ce-4458-8f1f-b8f448333923","system_id":"levelo_inurba_marseille","lat":43.284787,"lon":5.384116,"is_reserved":false,"is_disabled":false,"rental_uris":{"android":"levelo://app?vid=1e7760ae-b6ce-4458-8f1f-b8f448333923","ios":"levelo://app?vid=1e7760ae-b6ce-4458-8f1f-b8f448333923"},"vehicle_type_id":"4","last_reported":1687111666,"current_range_meters":22800,"station_id":"ce4bh512rcd13ifvqe3g","pricing_plan_id":"free"},{"bike_id":"956fe3f9-b18f-4822-a6d0-02de5de83354","system_id":"levelo_inurba_marseille","lat":43.288497,"lon":5.393089,"is_reserved":false,"is_disabled":false,"rental_uris":{"android":"levelo://app?vid=956fe3f9-b18f-4822-a6d0-02de5de83354","ios":"levelo://app?vid=956fe3f9-b18f-4822-a6d0-02de5de83354"},"vehicle_type_id":"4","last_reported":1687111666,"current_range_meters":17600,"station_id":"ce4bh2p2rcd13ifvqdi0","pricing_plan_id":"free"},{"bike_id":"f97fdf07-f6cc-4798-a4e4-c43e29da4426","system_id":"levelo_inurba_marseille","lat":43.288339,"lon":5.392853,"is_reserved":false,"is_disabled":false,"rental_uris":{"android":"levelo://app?vid=f97fdf07-f6cc-4798-a4e4-c43e29da4426","ios":"levelo://app?vid=f97fdf07-f6cc-4798-a4e4-c43e29da4426"},"vehicle_type_id":"4","last_reported":1687111666,"current_range_meters":19200,"station_id":"ce4bh2p2rcd13ifvqdi0","pricing_plan_id":"free"},{"bike_id":"00b4d942-d645-4a17-a320-9c02b5ecca68","system_id":"levelo_inurba_marseille","lat":43.288501,"lon":5.393087,"is_reserved":false,"is_disabled":false,"rental_uris":{"android":"levelo://app?vid=00b4d942-d645-4a17-a320-9c02b5ecca68","ios":"levelo://app?vid=00b4d942-d645-4a17-a320-9c02b5ecca68"},"vehicle_type_id":"4","last_reported":1687111666,"current_range_meters":21200,"station_id":"ce4bh2p2rcd13ifvqdi0","pricing_plan_id":"free"},{"bike_id":"213ef59f-eab2-49c8-b4ea-030e664db938","system_id":"levelo_inurba_marseille","lat":43.283498,"lon":5.380948,"is_reserved":false,"is_disabled":false,"rental_uris":{"android":"levelo://app?vid=213ef59f-eab2-49c8-b4ea-030e664db938","ios":"levelo://app?vid=213ef59f-eab2-49c8-b4ea-030e664db938"},"vehicle_type_id":"4","last_reported":1687111666,"current_range_meters":1200,"station_id":"ce4bh412rcd13ifvqdr0","pricing_plan_id":"free"},{"bike_id":"849e9c20-c800-455b-a5cb-02cd278ae869","system_id":"levelo_inurba_marseille","lat":43.283498,"lon":5.380948,"is_reserved":false,"is_disabled":false,"rental_uris":{"android":"levelo://app?vid=849e9c20-c800-455b-a5cb-02cd278ae869","ios":"levelo://app?vid=849e9c20-c800-455b-a5cb-02cd278ae869"},"vehicle_type_id":"4","last_reported":1687111666,"current_range_meters":14800,"station_id":"ce4bh412rcd13ifvqdr0","pricing_plan_id":"free"},{"bike_id":"41b86e84-fd2f-43fc-83cc-c1059f08b7ef","system_id":"levelo_inurba_marseille","lat":43.283498,"lon":5.380948,"is_reserved":false,"is_disabled":false,"rental_uris":{"android":"levelo://app?vid=41b86e84-fd2f-43fc-83cc-c1059f08b7ef","ios":"levelo://app?vid=41b86e84-fd2f-43fc-83cc-c1059f08b7ef"},"vehicle_type_id":"4","last_reported":1687111666,"current_range_meters":31200,"station_id":"ce4bh412rcd13ifvqdr0","pricing_plan_id":"free"},{"bike_id":"16e5fedd-6e86-436a-a0a2-72c7cd60a6ea","system_id":"levelo_inurba_marseille","lat":43.32194,"lon":5.40786,"is_reserved":false,"is_disabled":false,"rental_uris":{"android":"levelo://app?vid=16e5fedd-6e86-436a-a0a2-72c7cd60a6ea","ios":"levelo://app?vid=16e5fedd-6e86-436a-a0a2-72c7cd60a6ea"},"vehicle_type_id":"4","last_reported":1687111666,"current_range_meters":31200,"station_id":"","pricing_plan_id":"free"},{"bike_id":"1dea90a0-ffa3-4cff-b7da-d2ccd2d78731","system_id":"levelo_inurba_marseille","lat":43.287154,"lon":5.399979,"is_reserved":false,"is_disabled":false,"rental_uris":{"android":"levelo://app?vid=1dea90a0-ffa3-4cff-b7da-d2ccd2d78731","ios":"levelo://app?vid=1dea90a0-ffa3-4cff-b7da-d2ccd2d78731"},"vehicle_type_id":"4","last_reported":1687111666,"current_range_meters":8000,"station_id":"ce4bho92rcd13ifvqh3g","pricing_plan_id":"free"},{"bike_id":"c3f61c06-f6fa-46a8-a42a-c90b4f0c433e","system_id":"levelo_inurba_marseille","lat":43.28268,"lon":5.35074,"is_reserved":false,"is_disabled":false,"rental_uris":{"android":"levelo://app?vid=c3f61c06-f6fa-46a8-a42a-c90b4f0c433e","ios":"levelo://app?vid=c3f61c06-f6fa-46a8-a42a-c90b4f0c433e"},"vehicle_type_id":"4","last_reported":1687111666,"current_range_meters":31200,"station_id":"ce4bhbp2rcd13ifvqerg","pricing_plan_id":"free"},{"bike_id":"edd4e3b5-0757-4b4c-9b4e-cda5302c227b","system_id":"levelo_inurba_marseille","lat":43.28258,"lon":5.3508,"is_reserved":false,"is_disabled":false,"rental_uris":{"android":"levelo://app?vid=edd4e3b5-0757-4b4c-9b4e-cda5302c227b","ios":"levelo://app?vid=edd4e3b5-0757-4b4c-9b4e-cda5302c227b"},"vehicle_type_id":"4","last_reported":1687111666,"current_range_meters":30800,"station_id":"ce4bhbp2rcd13ifvqerg","pricing_plan_id":"free"},{"bike_id":"9301720b-0da1-429e-bc1c-ce2f4cdae871","system_id":"levelo_inurba_marseille","lat":43.280382,"lon":5.369291,"is_reserved":false,"is_disabled":false,"rental_uris":{"android":"levelo://app?vid=9301720b-0da1-429e-bc1c-ce2f4cdae871","ios":"levelo://app?vid=9301720b-0da1-429e-bc1c-ce2f4cdae871"},"vehicle_type_id":"4","last_reported":1687111666,"current_range_meters":24800,"station_id":"ce4bha12rcd13ifvqef0","pricing_plan_id":"free"},{"bike_id":"46eb29ba-ab8d-492f-8f04-16415aa2c203","system_id":"levelo_inurba_marseille","lat":43.28035,"lon":5.36954,"is_reserved":false,"is_disabled":false,"rental_uris":{"android":"levelo://app?vid=46eb29ba-ab8d-492f-8f04-16415aa2c203","ios":"levelo://app?vid=46eb29ba-ab8d-492f-8f04-16415aa2c203"},"vehicle_type_id":"4","last_reported":1687111666,"current_range_meters":8800,"station_id":"ce4bha12rcd13ifvqef0","pricing_plan_id":"free"},{"bike_id":"ff518200-6c70-4322-ba2f-07ee1b6b69a2","system_id":"levelo_inurba_marseille","lat":43.280382,"lon":5.369291,"is_reserved":false,"is_disabled":false,"rental_uris":{"android":"levelo://app?vid=ff518200-6c70-4322-ba2f-07ee1b6b69a2","ios":"levelo://app?vid=ff518200-6c70-4322-ba2f-07ee1b6b69a2"},"vehicle_type_id":"4","last_reported":1687111666,"current_range_meters":1600,"station_id":"ce4bha12rcd13ifvqef0","pricing_plan_id":"free"},{"bike_id":"e158a977-fae2-48fa-b9b2-e1951d31705f","system_id":"levelo_inurba_marseille","lat":43.280382,"lon":5.369291,"is_reserved":false,"is_disabled":false,"rental_uris":{"android":"levelo://app?vid=e158a977-fae2-48fa-b9b2-e1951d31705f","ios":"levelo://app?vid=e158a977-fae2-48fa-b9b2-e1951d31705f"},"vehicle_type_id":"4","last_reported":1687111666,"current_range_meters":8000,"station_id":"ce4bha12rcd13ifvqef0","pricing_plan_id":"free"},{"bike_id":"c7e4199f-cf79-4df7-a5bf-1f4e146111bc","system_id":"levelo_inurba_marseille","lat":43.296263,"lon":5.40601,"is_reserved":false,"is_disabled":false,"rental_uris":{"android":"levelo://app?vid=c7e4199f-cf79-4df7-a5bf-1f4e146111bc","ios":"levelo://app?vid=c7e4199f-cf79-4df7-a5bf-1f4e146111bc"},"vehicle_type_id":"4","last_reported":1687111666,"current_range_meters":26000,"station_id":"ce4bh0h2rcd13ifvqd60","pricing_plan_id":"free"},{"bike_id":"34db491e-895c-4a86-911d-4b5bb64d71b0","system_id":"levelo_inurba_marseille","lat":43.29041,"lon":5.399634,"is_reserved":false,"is_disabled":false,"rental_uris":{"android":"levelo://app?vid=34db491e-895c-4a86-911d-4b5bb64d71b0","ios":"levelo://app?vid=34db491e-895c-4a86-911d-4b5bb64d71b0"},"vehicle_type_id":"4","last_reported":1687111666,"current_range_meters":0,"station_id":"ce4bh392rcd13ifvqdm0","pricing_plan_id":"free"},{"bike_id":"96ae68b7-62c6-4f74-b396-f99b0de9ebc3","system_id":"levelo_inurba_marseille","lat":43.281044,"lon":5.378308,"is_reserved":false,"is_disabled":false,"rental_uris":{"android":"levelo://app?vid=96ae68b7-62c6-4f74-b396-f99b0de9ebc3","ios":"levelo://app?vid=96ae68b7-62c6-4f74-b396-f99b0de9ebc3"},"vehicle_type_id":"4","last_reported":1687111666,"current_range_meters":26400,"station_id":"ce4bha12rcd13ifvqee0","pricing_plan_id":"free"},{"bike_id":"f9bbb0ea-4e51-41f2-88f8-78866b0294ee","system_id":"levelo_inurba_marseille","lat":43.284462,"lon":5.392121,"is_reserved":false,"is_disabled":false,"rental_uris":{"android":"levelo://app?vid=f9bbb0ea-4e51-41f2-88f8-78866b0294ee","ios":"levelo://app?vid=f9bbb0ea-4e51-41f2-88f8-78866b0294ee"},"vehicle_type_id":"4","last_reported":1687111666,"current_range_meters":13200,"station_id":"ce4bhoh2rcd13ifvqh5g","pricing_plan_id":"free"},{"bike_id":"a8ec5529-1536-49b2-a7e6-0c10b69c551a","system_id":"levelo_inurba_marseille","lat":43.284462,"lon":5.392121,"is_reserved":false,"is_disabled":false,"rental_uris":{"android":"levelo://app?vid=a8ec5529-1536-49b2-a7e6-0c10b69c551a","ios":"levelo://app?vid=a8ec5529-1536-49b2-a7e6-0c10b69c551a"},"vehicle_type_id":"4","last_reported":1687111666,"current_range_meters":2400,"station_id":"ce4bhoh2rcd13ifvqh5g","pricing_plan_id":"free"},{"bike_id":"459c5b99-15eb-4074-a238-cf4781d83532","system_id":"levelo_inurba_marseille","lat":43.284462,"lon":5.392121,"is_reserved":false,"is_disabled":false,"rental_uris":{"android":"levelo://app?vid=459c5b99-15eb-4074-a238-cf4781d83532","ios":"levelo://app?vid=459c5b99-15eb-4074-a238-cf4781d83532"},"vehicle_type_id":"4","last_reported":1687111666,"current_range_meters":5200,"station_id":"ce4bhoh2rcd13ifvqh5g","pricing_plan_id":"free"},{"bike_id":"5411b4e5-2e76-4311-8b27-1c989335131e","system_id":"levelo_inurba_marseille","lat":43.284462,"lon":5.392121,"is_reserved":false,"is_disabled":false,"rental_uris":{"android":"levelo://app?vid=5411b4e5-2e76-4311-8b27-1c989335131e","ios":"levelo://app?vid=5411b4e5-2e76-4311-8b27-1c989335131e"},"vehicle_type_id":"4","last_reported":1687111666,"current_range_meters":0,"station_id":"ce4bhoh2rcd13ifvqh5g","pricing_plan_id":"free"},{"bike_id":"e7607c34-2658-48c5-8894-429c92362894","system_id":"levelo_inurba_marseille","lat":43.285742,"lon":5.395004,"is_reserved":false,"is_disabled":false,"rental_uris":{"android":"levelo://app?vid=e7607c34-2658-48c5-8894-429c92362894","ios":"levelo://app?vid=e7607c34-2658-48c5-8894-429c92362894"},"vehicle_type_id":"4","last_reported":1687111666,"current_range_meters":13200,"station_id":"ce4bh292rcd13ifvqdg0","pricing_plan_id":"free"},{"bike_id":"d852f400-3f6d-410c-b0a0-e8cefa552d0b","system_id":"levelo_inurba_marseille","lat":43.28575,"lon":5.39488,"is_reserved":false,"is_disabled":false,"rental_uris":{"android":"levelo://app?vid=d852f400-3f6d-410c-b0a0-e8cefa552d0b","ios":"levelo://app?vid=d852f400-3f6d-410c-b0a0-e8cefa552d0b"},"vehicle_type_id":"4","last_reported":1687111666,"current_range_meters":8000,"station_id":"","pricing_plan_id":"free"},{"bike_id":"672ca5d9-8b55-4ab1-836e-86961f106880","system_id":"levelo_inurba_marseille","lat":43.326605,"lon":5.409903,"is_reserved":false,"is_disabled":false,"rental_uris":{"android":"levelo://app?vid=672ca5d9-8b55-4ab1-836e-86961f106880","ios":"levelo://app?vid=672ca5d9-8b55-4ab1-836e-86961f106880"},"vehicle_type_id":"4","last_reported":1687111666,"current_range_meters":28800,"station_id":"ce4bhpp2rcd13ifvqhgg","pricing_plan_id":"free"},{"bike_id":"246e72c2-0f74-474e-8ca0-b4597aeec617","system_id":"levelo_inurba_marseille","lat":43.326605,"lon":5.409903,"is_reserved":false,"is_disabled":false,"rental_uris":{"android":"levelo://app?vid=246e72c2-0f74-474e-8ca0-b4597aeec617","ios":"levelo://app?vid=246e72c2-0f74-474e-8ca0-b4597aeec617"},"vehicle_type_id":"4","last_reported":1687111666,"current_range_meters":29600,"station_id":"ce4bhpp2rcd13ifvqhgg","pricing_plan_id":"free"},{"bike_id":"0f1036b8-e561-4078-8678-2d094e6d0668","system_id":"levelo_inurba_marseille","lat":43.304188,"lon":5.412904,"is_reserved":false,"is_disabled":false,"rental_uris":{"android":"levelo://app?vid=0f1036b8-e561-4078-8678-2d094e6d0668","ios":"levelo://app?vid=0f1036b8-e561-4078-8678-2d094e6d0668"},"vehicle_type_id":"4","last_reported":1687111666,"current_range_meters":13600,"station_id":"ce4bhop2rcd13ifvqh8g","pricing_plan_id":"free"},{"bike_id":"90e1322f-5279-41cb-9349-3fabc4ae2421","system_id":"levelo_inurba_marseille","lat":43.304188,"lon":5.412904,"is_reserved":false,"is_disabled":false,"rental_uris":{"android":"levelo://app?vid=90e1322f-5279-41cb-9349-3fabc4ae2421","ios":"levelo://app?vid=90e1322f-5279-41cb-9349-3fabc4ae2421"},"vehicle_type_id":"4","last_reported":1687111666,"current_range_meters":2800,"station_id":"ce4bhop2rcd13ifvqh8g","pricing_plan_id":"free"},{"bike_id":"642a746c-523a-4cb2-b6ed-594b53ad81da","system_id":"levelo_inurba_marseille","lat":43.304188,"lon":5.412904,"is_reserved":false,"is_disabled":false,"rental_uris":{"android":"levelo://app?vid=642a746c-523a-4cb2-b6ed-594b53ad81da","ios":"levelo://app?vid=642a746c-523a-4cb2-b6ed-594b53ad81da"},"vehicle_type_id":"4","last_reported":1687111666,"current_range_meters":30400,"station_id":"ce4bhop2rcd13ifvqh8g","pricing_plan_id":"free"},{"bike_id":"84feadda-530c-41c8-b9ac-6e1cf93301a9","system_id":"levelo_inurba_marseille","lat":43.27908,"lon":5.38002,"is_reserved":false,"is_disabled":false,"rental_uris":{"android":"levelo://app?vid=84feadda-530c-41c8-b9ac-6e1cf93301a9","ios":"levelo://app?vid=84feadda-530c-41c8-b9ac-6e1cf93301a9"},"vehicle_type_id":"4","last_reported":1687111666,"current_range_meters":0,"station_id":"","pricing_plan_id":"free"},{"bike_id":"70b5b54f-5bd7-488d-9095-634547845e4a","system_id":"levelo_inurba_marseille","lat":43.27909,"lon":5.38013,"is_reserved":false,"is_disabled":false,"rental_uris":{"android":"levelo://app?vid=70b5b54f-5bd7-488d-9095-634547845e4a","ios":"levelo://app?vid=70b5b54f-5bd7-488d-9095-634547845e4a"},"vehicle_type_id":"4","last_reported":1687111666,"current_range_meters":0,"station_id":"","pricing_plan_id":"free"},{"bike_id":"0abc040b-833f-42b8-a011-efdde425bf39","system_id":"levelo_inurba_marseille","lat":43.27904,"lon":5.38017,"is_reserved":false,"is_disabled":false,"rental_uris":{"android":"levelo://app?vid=0abc040b-833f-42b8-a011-efdde425bf39","ios":"levelo://app?vid=0abc040b-833f-42b8-a011-efdde425bf39"},"vehicle_type_id":"4","last_reported":1687111666,"current_range_meters":4400,"station_id":"","pricing_plan_id":"free"},{"bike_id":"96008777-41fc-462e-b0e5-13a098951b23","system_id":"levelo_inurba_marseille","lat":43.287154,"lon":5.399979,"is_reserved":false,"is_disabled":false,"rental_uris":{"android":"levelo://app?vid=96008777-41fc-462e-b0e5-13a098951b23","ios":"levelo://app?vid=96008777-41fc-462e-b0e5-13a098951b23"},"vehicle_type_id":"4","last_reported":1687111666,"current_range_meters":10000,"station_id":"ce4bho92rcd13ifvqh3g","pricing_plan_id":"free"},{"bike_id":"a7188cd6-6e0e-4ca2-800a-a4d52c3b4196","system_id":"levelo_inurba_marseille","lat":43.287154,"lon":5.399979,"is_reserved":false,"is_disabled":false,"rental_uris":{"android":"levelo://app?vid=a7188cd6-6e0e-4ca2-800a-a4d52c3b4196","ios":"levelo://app?vid=a7188cd6-6e0e-4ca2-800a-a4d52c3b4196"},"vehicle_type_id":"4","last_reported":1687111666,"current_range_meters":21600,"station_id":"ce4bho92rcd13ifvqh3g","pricing_plan_id":"free"},{"bike_id":"d200f375-6993-4a35-bee4-e4b9dac669de","system_id":"levelo_inurba_marseille","lat":43.279742,"lon":5.38744,"is_reserved":false,"is_disabled":false,"rental_uris":{"android":"levelo://app?vid=d200f375-6993-4a35-bee4-e4b9dac669de","ios":"levelo://app?vid=d200f375-6993-4a35-bee4-e4b9dac669de"},"vehicle_type_id":"4","last_reported":1687111666,"current_range_meters":3600,"station_id":"ce4bhg12rcd13ifvqf80","pricing_plan_id":"free"},{"bike_id":"4ebb8a04-835a-4cd7-84ad-75fba8d282d7","system_id":"levelo_inurba_marseille","lat":43.279742,"lon":5.38744,"is_reserved":false,"is_disabled":false,"rental_uris":{"android":"levelo://app?vid=4ebb8a04-835a-4cd7-84ad-75fba8d282d7","ios":"levelo://app?vid=4ebb8a04-835a-4cd7-84ad-75fba8d282d7"},"vehicle_type_id":"4","last_reported":1687111666,"current_range_meters":14800,"station_id":"ce4bhg12rcd13ifvqf80","pricing_plan_id":"free"},{"bike_id":"b9340faf-573b-4c94-bdda-41ff6cea8c76","system_id":"levelo_inurba_marseille","lat":43.320045,"lon":5.415046,"is_reserved":false,"is_disabled":false,"rental_uris":{"android":"levelo://app?vid=b9340faf-573b-4c94-bdda-41ff6cea8c76","ios":"levelo://app?vid=b9340faf-573b-4c94-bdda-41ff6cea8c76"},"vehicle_type_id":"4","last_reported":1687111666,"current_range_meters":29600,"station_id":"ce4bhq92rcd13ifvqhkg","pricing_plan_id":"free"},{"bike_id":"f3c266f2-b110-4e76-afb8-70d063259de9","system_id":"levelo_inurba_marseille","lat":43.29256,"lon":5.40906,"is_reserved":false,"is_disabled":false,"rental_uris":{"android":"levelo://app?vid=f3c266f2-b110-4e76-afb8-70d063259de9","ios":"levelo://app?vid=f3c266f2-b110-4e76-afb8-70d063259de9"},"vehicle_type_id":"4","last_reported":1687111666,"current_range_meters":0,"station_id":"ce4bh192rcd13ifvqdc0","pricing_plan_id":"free"},{"bike_id":"d6ff23ef-5f51-41c3-be12-6a99cef30a64","system_id":"levelo_inurba_marseille","lat":43.292571,"lon":5.409107,"is_reserved":false,"is_disabled":false,"rental_uris":{"android":"levelo://app?vid=d6ff23ef-5f51-41c3-be12-6a99cef30a64","ios":"levelo://app?vid=d6ff23ef-5f51-41c3-be12-6a99cef30a64"},"vehicle_type_id":"4","last_reported":1687111666,"current_range_meters":2400,"station_id":"ce4bh192rcd13ifvqdc0","pricing_plan_id":"free"},{"bike_id":"f1823d82-43dc-4984-9359-7a508e9d8409","system_id":"levelo_inurba_marseille","lat":43.32543,"lon":5.41435,"is_reserved":false,"is_disabled":false,"rental_uris":{"android":"levelo://app?vid=f1823d82-43dc-4984-9359-7a508e9d8409","ios":"levelo://app?vid=f1823d82-43dc-4984-9359-7a508e9d8409"},"vehicle_type_id":"4","last_reported":1687111666,"current_range_meters":31200,"station_id":"ce4bhq12rcd13ifvqhhg","pricing_plan_id":"free"},{"bike_id":"22f7e34c-ef82-461d-8752-c9c9cceeda75","system_id":"levelo_inurba_marseille","lat":43.27621,"lon":5.36115,"is_reserved":false,"is_disabled":false,"rental_uris":{"android":"levelo://app?vid=22f7e34c-ef82-461d-8752-c9c9cceeda75","ios":"levelo://app?vid=22f7e34c-ef82-461d-8752-c9c9cceeda75"},"vehicle_type_id":"4","last_reported":1687111666,"current_range_meters":30800,"station_id":"ce4bgj92rcd13ifvqbe0","pricing_plan_id":"free"},{"bike_id":"073b27fa-11a6-44ef-826b-e89cf48c335f","system_id":"levelo_inurba_marseille","lat":43.303837,"lon":5.418724,"is_reserved":false,"is_disabled":false,"rental_uris":{"android":"levelo://app?vid=073b27fa-11a6-44ef-826b-e89cf48c335f","ios":"levelo://app?vid=073b27fa-11a6-44ef-826b-e89cf48c335f"},"vehicle_type_id":"4","last_reported":1687111666,"current_range_meters":1200,"station_id":"ce4bhop2rcd13ifvqh7g","pricing_plan_id":"free"},{"bike_id":"6275aaca-a354-407f-be44-df40f2969d44","system_id":"levelo_inurba_marseille","lat":43.273796,"lon":5.362588,"is_reserved":false,"is_disabled":false,"rental_uris":{"android":"levelo://app?vid=6275aaca-a354-407f-be44-df40f2969d44","ios":"levelo://app?vid=6275aaca-a354-407f-be44-df40f2969d44"},"vehicle_type_id":"4","last_reported":1687111666,"current_range_meters":31200,"station_id":"ce4bhbh2rcd13ifvqeo0","pricing_plan_id":"free"},{"bike_id":"76c88634-809a-4582-89fd-7b534980b789","system_id":"levelo_inurba_marseille","lat":43.336134,"lon":5.410341,"is_reserved":false,"is_disabled":false,"rental_uris":{"android":"levelo://app?vid=76c88634-809a-4582-89fd-7b534980b789","ios":"levelo://app?vid=76c88634-809a-4582-89fd-7b534980b789"},"vehicle_type_id":"4","last_reported":1687111666,"current_range_meters":21600,"station_id":"ce4bhqh2rcd13ifvqhmg","pricing_plan_id":"free"},{"bike_id":"813cea3e-ab33-42bf-acb5-e4e9a30c73ae","system_id":"levelo_inurba_marseille","lat":43.31729,"lon":5.42402,"is_reserved":false,"is_disabled":false,"rental_uris":{"android":"levelo://app?vid=813cea3e-ab33-42bf-acb5-e4e9a30c73ae","ios":"levelo://app?vid=813cea3e-ab33-42bf-acb5-e4e9a30c73ae"},"vehicle_type_id":"4","last_reported":1687111666,"current_range_meters":28000,"station_id":"ce4bhp92rcd13ifvqhbg","pricing_plan_id":"free"},{"bike_id":"c9118ee2-e487-41b2-adb4-b8e2b83b57d2","system_id":"levelo_inurba_marseille","lat":43.310785,"lon":5.424305,"is_reserved":false,"is_disabled":false,"rental_uris":{"android":"levelo://app?vid=c9118ee2-e487-41b2-adb4-b8e2b83b57d2","ios":"levelo://app?vid=c9118ee2-e487-41b2-adb4-b8e2b83b57d2"},"vehicle_type_id":"4","last_reported":1687111666,"current_range_meters":31600,"station_id":"ce4bhp92rcd13ifvqhag","pricing_plan_id":"free"},{"bike_id":"518bf655-ad91-4716-8aa4-5e22e25b594d","system_id":"levelo_inurba_marseille","lat":43.273125,"lon":5.390731,"is_reserved":false,"is_disabled":false,"rental_uris":{"android":"levelo://app?vid=518bf655-ad91-4716-8aa4-5e22e25b594d","ios":"levelo://app?vid=518bf655-ad91-4716-8aa4-5e22e25b594d"},"vehicle_type_id":"4","last_reported":1687111666,"current_range_meters":25200,"station_id":"ce4bhgp2rcd13ifvqfe0","pricing_plan_id":"free"},{"bike_id":"a670ef55-fa28-46ef-be87-f2b252cb9a4f","system_id":"levelo_inurba_marseille","lat":43.2743,"lon":5.39413,"is_reserved":false,"is_disabled":false,"rental_uris":{"android":"levelo://app?vid=a670ef55-fa28-46ef-be87-f2b252cb9a4f","ios":"levelo://app?vid=a670ef55-fa28-46ef-be87-f2b252cb9a4f"},"vehicle_type_id":"4","last_reported":1687111666,"current_range_meters":2400,"station_id":"","pricing_plan_id":"free"},{"bike_id":"f82c4e0b-ce86-4de4-962b-f266d6ba506e","system_id":"levelo_inurba_marseille","lat":43.27304,"lon":5.39088,"is_reserved":false,"is_disabled":false,"rental_uris":{"android":"levelo://app?vid=f82c4e0b-ce86-4de4-962b-f266d6ba506e","ios":"levelo://app?vid=f82c4e0b-ce86-4de4-962b-f266d6ba506e"},"vehicle_type_id":"4","last_reported":1687111666,"current_range_meters":28400,"station_id":"ce4bhgp2rcd13ifvqfe0","pricing_plan_id":"free"},{"bike_id":"d5fd97ff-3adc-446c-9878-876cc19b66ce","system_id":"levelo_inurba_marseille","lat":43.30415,"lon":5.42536,"is_reserved":false,"is_disabled":false,"rental_uris":{"android":"levelo://app?vid=d5fd97ff-3adc-446c-9878-876cc19b66ce","ios":"levelo://app?vid=d5fd97ff-3adc-446c-9878-876cc19b66ce"},"vehicle_type_id":"4","last_reported":1687111666,"current_range_meters":0,"station_id":"ce4bhoh2rcd13ifvqh6g","pricing_plan_id":"free"},{"bike_id":"347d67e7-7016-4f67-b2bc-6ddd87980343","system_id":"levelo_inurba_marseille","lat":43.29551,"lon":5.42294,"is_reserved":false,"is_disabled":false,"rental_uris":{"android":"levelo://app?vid=347d67e7-7016-4f67-b2bc-6ddd87980343","ios":"levelo://app?vid=347d67e7-7016-4f67-b2bc-6ddd87980343"},"vehicle_type_id":"4","last_reported":1687111666,"current_range_meters":3200,"station_id":"ce4bhph2rcd13ifvqhdg","pricing_plan_id":"free"},{"bike_id":"38ceebab-b9da-4438-ad0c-da836948db15","system_id":"levelo_inurba_marseille","lat":43.272118,"lon":5.391758,"is_reserved":false,"is_disabled":false,"rental_uris":{"android":"levelo://app?vid=38ceebab-b9da-4438-ad0c-da836948db15","ios":"levelo://app?vid=38ceebab-b9da-4438-ad0c-da836948db15"},"vehicle_type_id":"4","last_reported":1687111666,"current_range_meters":1200,"station_id":"ce4bhhp2rcd13ifvqfm0","pricing_plan_id":"free"},{"bike_id":"249afd22-becd-4fbb-bf5a-7dd674f35f2f","system_id":"levelo_inurba_marseille","lat":43.26687,"lon":5.3827,"is_reserved":false,"is_disabled":false,"rental_uris":{"android":"levelo://app?vid=249afd22-becd-4fbb-bf5a-7dd674f35f2f","ios":"levelo://app?vid=249afd22-becd-4fbb-bf5a-7dd674f35f2f"},"vehicle_type_id":"4","last_reported":1687111666,"current_range_meters":28000,"station_id":"ce4bhg92rcd13ifvqf90","pricing_plan_id":"free"},{"bike_id":"e76d87c2-2b9e-49fa-9da1-67a2f138a5b4","system_id":"levelo_inurba_marseille","lat":43.26685,"lon":5.38268,"is_reserved":false,"is_disabled":false,"rental_uris":{"android":"levelo://app?vid=e76d87c2-2b9e-49fa-9da1-67a2f138a5b4","ios":"levelo://app?vid=e76d87c2-2b9e-49fa-9da1-67a2f138a5b4"},"vehicle_type_id":"4","last_reported":1687111666,"current_range_meters":30000,"station_id":"ce4bhg92rcd13ifvqf90","pricing_plan_id":"free"},{"bike_id":"7621fa8b-e313-4a5e-8c10-742231d2e1af","system_id":"levelo_inurba_marseille","lat":43.26685,"lon":5.3827,"is_reserved":false,"is_disabled":false,"rental_uris":{"android":"levelo://app?vid=7621fa8b-e313-4a5e-8c10-742231d2e1af","ios":"levelo://app?vid=7621fa8b-e313-4a5e-8c10-742231d2e1af"},"vehicle_type_id":"4","last_reported":1687111666,"current_range_meters":31200,"station_id":"ce4bhg92rcd13ifvqf90","pricing_plan_id":"free"},{"bike_id":"c0eb1fd9-f42f-4c8b-ba57-ddf8a7ab4550","system_id":"levelo_inurba_marseille","lat":43.26681,"lon":5.382694,"is_reserved":false,"is_disabled":false,"rental_uris":{"android":"levelo://app?vid=c0eb1fd9-f42f-4c8b-ba57-ddf8a7ab4550","ios":"levelo://app?vid=c0eb1fd9-f42f-4c8b-ba57-ddf8a7ab4550"},"vehicle_type_id":"4","last_reported":1687111666,"current_range_meters":13600,"station_id":"ce4bhg92rcd13ifvqf90","pricing_plan_id":"free"},{"bike_id":"ffb123f5-351a-4a2d-afb8-5f6ee5d19439","system_id":"levelo_inurba_marseille","lat":43.26681,"lon":5.382694,"is_reserved":false,"is_disabled":false,"rental_uris":{"android":"levelo://app?vid=ffb123f5-351a-4a2d-afb8-5f6ee5d19439","ios":"levelo://app?vid=ffb123f5-351a-4a2d-afb8-5f6ee5d19439"},"vehicle_type_id":"4","last_reported":1687111666,"current_range_meters":22800,"station_id":"ce4bhg92rcd13ifvqf90","pricing_plan_id":"free"},{"bike_id":"2cc79cf9-bec1-4444-9b4d-dd5c0ec59b62","system_id":"levelo_inurba_marseille","lat":43.26681,"lon":5.382694,"is_reserved":false,"is_disabled":false,"rental_uris":{"android":"levelo://app?vid=2cc79cf9-bec1-4444-9b4d-dd5c0ec59b62","ios":"levelo://app?vid=2cc79cf9-bec1-4444-9b4d-dd5c0ec59b62"},"vehicle_type_id":"4","last_reported":1687111666,"current_range_meters":2400,"station_id":"ce4bhg92rcd13ifvqf90","pricing_plan_id":"free"},{"bike_id":"777f4b71-b492-4bc1-a6e9-1d4f74aa6180","system_id":"levelo_inurba_marseille","lat":43.26681,"lon":5.38268,"is_reserved":false,"is_disabled":false,"rental_uris":{"android":"levelo://app?vid=777f4b71-b492-4bc1-a6e9-1d4f74aa6180","ios":"levelo://app?vid=777f4b71-b492-4bc1-a6e9-1d4f74aa6180"},"vehicle_type_id":"4","last_reported":1687111666,"current_range_meters":19600,"station_id":"ce4bhg92rcd13ifvqf90","pricing_plan_id":"free"},{"bike_id":"34c8d362-f70f-4afd-90b8-382a46ff09d9","system_id":"levelo_inurba_marseille","lat":43.26681,"lon":5.382694,"is_reserved":false,"is_disabled":false,"rental_uris":{"android":"levelo://app?vid=34c8d362-f70f-4afd-90b8-382a46ff09d9","ios":"levelo://app?vid=34c8d362-f70f-4afd-90b8-382a46ff09d9"},"vehicle_type_id":"4","last_reported":1687111666,"current_range_meters":30000,"station_id":"ce4bhg92rcd13ifvqf90","pricing_plan_id":"free"},{"bike_id":"30db2ede-c6f8-4d72-9ef5-568e7fcd31b8","system_id":"levelo_inurba_marseille","lat":43.26681,"lon":5.382694,"is_reserved":false,"is_disabled":false,"rental_uris":{"android":"levelo://app?vid=30db2ede-c6f8-4d72-9ef5-568e7fcd31b8","ios":"levelo://app?vid=30db2ede-c6f8-4d72-9ef5-568e7fcd31b8"},"vehicle_type_id":"4","last_reported":1687111666,"current_range_meters":7200,"station_id":"ce4bhg92rcd13ifvqf90","pricing_plan_id":"free"},{"bike_id":"3fb25529-8b2f-4757-a92d-b51c6ebb175d","system_id":"levelo_inurba_marseille","lat":43.26432,"lon":5.37376,"is_reserved":false,"is_disabled":false,"rental_uris":{"android":"levelo://app?vid=3fb25529-8b2f-4757-a92d-b51c6ebb175d","ios":"levelo://app?vid=3fb25529-8b2f-4757-a92d-b51c6ebb175d"},"vehicle_type_id":"4","last_reported":1687111666,"current_range_meters":31200,"station_id":"","pricing_plan_id":"free"},{"bike_id":"cfba2fbe-9ed5-423f-b411-8d6c38451715","system_id":"levelo_inurba_marseille","lat":43.27996,"lon":5.416624,"is_reserved":false,"is_disabled":false,"rental_uris":{"android":"levelo://app?vid=cfba2fbe-9ed5-423f-b411-8d6c38451715","ios":"levelo://app?vid=cfba2fbe-9ed5-423f-b411-8d6c38451715"},"vehicle_type_id":"4","last_reported":1687111666,"current_range_meters":20800,"station_id":"ce4bho12rcd13ifvqh1g","pricing_plan_id":"free"},{"bike_id":"dd7611c7-9bcd-44c4-bf4d-6f3533d19637","system_id":"levelo_inurba_marseille","lat":43.267966,"lon":5.393976,"is_reserved":false,"is_disabled":false,"rental_uris":{"android":"levelo://app?vid=dd7611c7-9bcd-44c4-bf4d-6f3533d19637","ios":"levelo://app?vid=dd7611c7-9bcd-44c4-bf4d-6f3533d19637"},"vehicle_type_id":"4","last_reported":1687111666,"current_range_meters":0,"station_id":"ce4bhh12rcd13ifvqfg0","pricing_plan_id":"free"},{"bike_id":"3987290e-fd4b-4f2b-81c0-57fca98f9cde","system_id":"levelo_inurba_marseille","lat":43.267966,"lon":5.393976,"is_reserved":false,"is_disabled":false,"rental_uris":{"android":"levelo://app?vid=3987290e-fd4b-4f2b-81c0-57fca98f9cde","ios":"levelo://app?vid=3987290e-fd4b-4f2b-81c0-57fca98f9cde"},"vehicle_type_id":"4","last_reported":1687111666,"current_range_meters":30800,"station_id":"ce4bhh12rcd13ifvqfg0","pricing_plan_id":"free"},{"bike_id":"e09ee2df-5eb5-400b-b4e8-a2efdba018fe","system_id":"levelo_inurba_marseille","lat":43.308,"lon":5.43518,"is_reserved":false,"is_disabled":false,"rental_uris":{"android":"levelo://app?vid=e09ee2df-5eb5-400b-b4e8-a2efdba018fe","ios":"levelo://app?vid=e09ee2df-5eb5-400b-b4e8-a2efdba018fe"},"vehicle_type_id":"4","last_reported":1687111666,"current_range_meters":3600,"station_id":"ce4bhph2rcd13ifvqheg","pricing_plan_id":"free"},{"bike_id":"935a4aec-1547-4073-a330-9bf4a8e0fb00","system_id":"levelo_inurba_marseille","lat":43.30807,"lon":5.43523,"is_reserved":false,"is_disabled":false,"rental_uris":{"android":"levelo://app?vid=935a4aec-1547-4073-a330-9bf4a8e0fb00","ios":"levelo://app?vid=935a4aec-1547-4073-a330-9bf4a8e0fb00"},"vehicle_type_id":"4","last_reported":1687111666,"current_range_meters":22400,"station_id":"ce4bhph2rcd13ifvqheg","pricing_plan_id":"free"},{"bike_id":"78f3b891-ab21-474d-8196-5a3a78d41191","system_id":"levelo_inurba_marseille","lat":43.265569,"lon":5.390047,"is_reserved":false,"is_disabled":false,"rental_uris":{"android":"levelo://app?vid=78f3b891-ab21-474d-8196-5a3a78d41191","ios":"levelo://app?vid=78f3b891-ab21-474d-8196-5a3a78d41191"},"vehicle_type_id":"4","last_reported":1687111666,"current_range_meters":0,"station_id":"ce4bhe12rcd13ifvqf30","pricing_plan_id":"free"},{"bike_id":"1098de37-00e5-41fd-964d-fef8eb8dcece","system_id":"levelo_inurba_marseille","lat":43.265569,"lon":5.390047,"is_reserved":false,"is_disabled":false,"rental_uris":{"android":"levelo://app?vid=1098de37-00e5-41fd-964d-fef8eb8dcece","ios":"levelo://app?vid=1098de37-00e5-41fd-964d-fef8eb8dcece"},"vehicle_type_id":"4","last_reported":1687111666,"current_range_meters":17600,"station_id":"ce4bhe12rcd13ifvqf30","pricing_plan_id":"free"},{"bike_id":"b066fd2e-fa18-421e-a690-c0788cff4b05","system_id":"levelo_inurba_marseille","lat":43.265569,"lon":5.390047,"is_reserved":false,"is_disabled":false,"rental_uris":{"android":"levelo://app?vid=b066fd2e-fa18-421e-a690-c0788cff4b05","ios":"levelo://app?vid=b066fd2e-fa18-421e-a690-c0788cff4b05"},"vehicle_type_id":"4","last_reported":1687111666,"current_range_meters":9600,"station_id":"ce4bhe12rcd13ifvqf30","pricing_plan_id":"free"},{"bike_id":"cda28a23-f977-444e-be81-0c35c0e3524a","system_id":"levelo_inurba_marseille","lat":43.30828,"lon":5.43556,"is_reserved":false,"is_disabled":false,"rental_uris":{"android":"levelo://app?vid=cda28a23-f977-444e-be81-0c35c0e3524a","ios":"levelo://app?vid=cda28a23-f977-444e-be81-0c35c0e3524a"},"vehicle_type_id":"4","last_reported":1687111666,"current_range_meters":0,"station_id":"","pricing_plan_id":"free"},{"bike_id":"cef75440-aac7-4f24-8fff-dd224981186d","system_id":"levelo_inurba_marseille","lat":43.26193,"lon":5.37441,"is_reserved":false,"is_disabled":false,"rental_uris":{"android":"levelo://app?vid=cef75440-aac7-4f24-8fff-dd224981186d","ios":"levelo://app?vid=cef75440-aac7-4f24-8fff-dd224981186d"},"vehicle_type_id":"4","last_reported":1687111666,"current_range_meters":4400,"station_id":"ce4bhgp2rcd13ifvqfc0","pricing_plan_id":"free"},{"bike_id":"febfa727-b64b-4320-ad0b-4f58d5d96b34","system_id":"levelo_inurba_marseille","lat":43.26191,"lon":5.37442,"is_reserved":false,"is_disabled":false,"rental_uris":{"android":"levelo://app?vid=febfa727-b64b-4320-ad0b-4f58d5d96b34","ios":"levelo://app?vid=febfa727-b64b-4320-ad0b-4f58d5d96b34"},"vehicle_type_id":"4","last_reported":1687111666,"current_range_meters":800,"station_id":"ce4bhgp2rcd13ifvqfc0","pricing_plan_id":"free"},{"bike_id":"2d485b4e-21ca-4b83-aa9c-1941244c527b","system_id":"levelo_inurba_marseille","lat":43.2619,"lon":5.37446,"is_reserved":false,"is_disabled":false,"rental_uris":{"android":"levelo://app?vid=2d485b4e-21ca-4b83-aa9c-1941244c527b","ios":"levelo://app?vid=2d485b4e-21ca-4b83-aa9c-1941244c527b"},"vehicle_type_id":"4","last_reported":1687111666,"current_range_meters":0,"station_id":"ce4bhgp2rcd13ifvqfc0","pricing_plan_id":"free"},{"bike_id":"39b32d36-1584-480b-9eac-6788e48c3abc","system_id":"levelo_inurba_marseille","lat":43.26187,"lon":5.37442,"is_reserved":false,"is_disabled":false,"rental_uris":{"android":"levelo://app?vid=39b32d36-1584-480b-9eac-6788e48c3abc","ios":"levelo://app?vid=39b32d36-1584-480b-9eac-6788e48c3abc"},"vehicle_type_id":"4","last_reported":1687111666,"current_range_meters":16400,"station_id":"ce4bhgp2rcd13ifvqfc0","pricing_plan_id":"free"},{"bike_id":"72c93a2b-9eaf-4635-82fd-ea94f8300d5c","system_id":"levelo_inurba_marseille","lat":43.31713,"lon":5.43706,"is_reserved":false,"is_disabled":false,"rental_uris":{"android":"levelo://app?vid=72c93a2b-9eaf-4635-82fd-ea94f8300d5c","ios":"levelo://app?vid=72c93a2b-9eaf-4635-82fd-ea94f8300d5c"},"vehicle_type_id":"4","last_reported":1687111666,"current_range_meters":22400,"station_id":"ce4bhp92rcd13ifvqhcg","pricing_plan_id":"free"},{"bike_id":"9bf905c2-7b41-48ec-bfc6-155ec656c7ee","system_id":"levelo_inurba_marseille","lat":43.317104,"lon":5.436818,"is_reserved":false,"is_disabled":false,"rental_uris":{"android":"levelo://app?vid=9bf905c2-7b41-48ec-bfc6-155ec656c7ee","ios":"levelo://app?vid=9bf905c2-7b41-48ec-bfc6-155ec656c7ee"},"vehicle_type_id":"4","last_reported":1687111666,"current_range_meters":31600,"station_id":"ce4bhp92rcd13ifvqhcg","pricing_plan_id":"free"},{"bike_id":"df937aa2-e5ca-492d-b726-b96bea986152","system_id":"levelo_inurba_marseille","lat":43.26213,"lon":5.37922,"is_reserved":false,"is_disabled":false,"rental_uris":{"android":"levelo://app?vid=df937aa2-e5ca-492d-b726-b96bea986152","ios":"levelo://app?vid=df937aa2-e5ca-492d-b726-b96bea986152"},"vehicle_type_id":"4","last_reported":1687111666,"current_range_meters":12000,"station_id":"ce4bhjp2rcd13ifvqg90","pricing_plan_id":"free"},{"bike_id":"fc7bd63b-73f7-401f-8c62-5b0338652175","system_id":"levelo_inurba_marseille","lat":43.26213,"lon":5.37922,"is_reserved":false,"is_disabled":false,"rental_uris":{"android":"levelo://app?vid=fc7bd63b-73f7-401f-8c62-5b0338652175","ios":"levelo://app?vid=fc7bd63b-73f7-401f-8c62-5b0338652175"},"vehicle_type_id":"4","last_reported":1687111666,"current_range_meters":13200,"station_id":"ce4bhjp2rcd13ifvqg90","pricing_plan_id":"free"},{"bike_id":"9242fce0-e2d6-4b22-a886-b74159888c34","system_id":"levelo_inurba_marseille","lat":43.262168,"lon":5.379536,"is_reserved":false,"is_disabled":false,"rental_uris":{"android":"levelo://app?vid=9242fce0-e2d6-4b22-a886-b74159888c34","ios":"levelo://app?vid=9242fce0-e2d6-4b22-a886-b74159888c34"},"vehicle_type_id":"4","last_reported":1687111666,"current_range_meters":18400,"station_id":"ce4bhjp2rcd13ifvqg90","pricing_plan_id":"free"},{"bike_id":"ddf5275b-ae97-4120-9de2-5166c65ab873","system_id":"levelo_inurba_marseille","lat":43.26213,"lon":5.37925,"is_reserved":false,"is_disabled":false,"rental_uris":{"android":"levelo://app?vid=ddf5275b-ae97-4120-9de2-5166c65ab873","ios":"levelo://app?vid=ddf5275b-ae97-4120-9de2-5166c65ab873"},"vehicle_type_id":"4","last_reported":1687111666,"current_range_meters":0,"station_id":"ce4bhjp2rcd13ifvqg90","pricing_plan_id":"free"},{"bike_id":"7e62eef8-7ea4-42f8-87ba-4097c26363bb","system_id":"levelo_inurba_marseille","lat":43.26213,"lon":5.37929,"is_reserved":false,"is_disabled":false,"rental_uris":{"android":"levelo://app?vid=7e62eef8-7ea4-42f8-87ba-4097c26363bb","ios":"levelo://app?vid=7e62eef8-7ea4-42f8-87ba-4097c26363bb"},"vehicle_type_id":"4","last_reported":1687111666,"current_range_meters":7200,"station_id":"ce4bhjp2rcd13ifvqg90","pricing_plan_id":"free"},{"bike_id":"76e1c873-036c-4884-b45e-02a107f007b1","system_id":"levelo_inurba_marseille","lat":43.26213,"lon":5.3793,"is_reserved":false,"is_disabled":false,"rental_uris":{"android":"levelo://app?vid=76e1c873-036c-4884-b45e-02a107f007b1","ios":"levelo://app?vid=76e1c873-036c-4884-b45e-02a107f007b1"},"vehicle_type_id":"4","last_reported":1687111666,"current_range_meters":2800,"station_id":"ce4bhjp2rcd13ifvqg90","pricing_plan_id":"free"},{"bike_id":"f1ab7711-710b-4353-8066-0674123a7482","system_id":"levelo_inurba_marseille","lat":43.26212,"lon":5.37924,"is_reserved":false,"is_disabled":false,"rental_uris":{"android":"levelo://app?vid=f1ab7711-710b-4353-8066-0674123a7482","ios":"levelo://app?vid=f1ab7711-710b-4353-8066-0674123a7482"},"vehicle_type_id":"4","last_reported":1687111666,"current_range_meters":20800,"station_id":"ce4bhjp2rcd13ifvqg90","pricing_plan_id":"free"},{"bike_id":"e96a64f3-07cb-45e5-a9e2-76966b0746f5","system_id":"levelo_inurba_marseille","lat":43.26211,"lon":5.37919,"is_reserved":false,"is_disabled":false,"rental_uris":{"android":"levelo://app?vid=e96a64f3-07cb-45e5-a9e2-76966b0746f5","ios":"levelo://app?vid=e96a64f3-07cb-45e5-a9e2-76966b0746f5"},"vehicle_type_id":"4","last_reported":1687111666,"current_range_meters":25600,"station_id":"ce4bhjp2rcd13ifvqg90","pricing_plan_id":"free"},{"bike_id":"d54b6070-f92d-46b7-9d8e-dd2a2c443c43","system_id":"levelo_inurba_marseille","lat":43.26212,"lon":5.37928,"is_reserved":false,"is_disabled":false,"rental_uris":{"android":"levelo://app?vid=d54b6070-f92d-46b7-9d8e-dd2a2c443c43","ios":"levelo://app?vid=d54b6070-f92d-46b7-9d8e-dd2a2c443c43"},"vehicle_type_id":"4","last_reported":1687111666,"current_range_meters":19600,"station_id":"ce4bhjp2rcd13ifvqg90","pricing_plan_id":"free"},{"bike_id":"0564c76b-75c5-4cf4-9b4d-fadf4ba608d5","system_id":"levelo_inurba_marseille","lat":43.26212,"lon":5.37932,"is_reserved":false,"is_disabled":false,"rental_uris":{"android":"levelo://app?vid=0564c76b-75c5-4cf4-9b4d-fadf4ba608d5","ios":"levelo://app?vid=0564c76b-75c5-4cf4-9b4d-fadf4ba608d5"},"vehicle_type_id":"4","last_reported":1687111666,"current_range_meters":6800,"station_id":"ce4bhjp2rcd13ifvqg90","pricing_plan_id":"free"},{"bike_id":"0531736f-8d2d-4926-9ba0-8853709f3afa","system_id":"levelo_inurba_marseille","lat":43.26211,"lon":5.37927,"is_reserved":false,"is_disabled":false,"rental_uris":{"android":"levelo://app?vid=0531736f-8d2d-4926-9ba0-8853709f3afa","ios":"levelo://app?vid=0531736f-8d2d-4926-9ba0-8853709f3afa"},"vehicle_type_id":"4","last_reported":1687111666,"current_range_meters":9600,"station_id":"ce4bhjp2rcd13ifvqg90","pricing_plan_id":"free"},{"bike_id":"4f7713b2-8a26-4e46-ae1d-e5f7f231a42a","system_id":"levelo_inurba_marseille","lat":43.26211,"lon":5.37927,"is_reserved":false,"is_disabled":false,"rental_uris":{"android":"levelo://app?vid=4f7713b2-8a26-4e46-ae1d-e5f7f231a42a","ios":"levelo://app?vid=4f7713b2-8a26-4e46-ae1d-e5f7f231a42a"},"vehicle_type_id":"4","last_reported":1687111666,"current_range_meters":25600,"station_id":"ce4bhjp2rcd13ifvqg90","pricing_plan_id":"free"},{"bike_id":"b353b798-e889-4861-a62e-7f8dce0c4b66","system_id":"levelo_inurba_marseille","lat":43.26211,"lon":5.37929,"is_reserved":false,"is_disabled":false,"rental_uris":{"android":"levelo://app?vid=b353b798-e889-4861-a62e-7f8dce0c4b66","ios":"levelo://app?vid=b353b798-e889-4861-a62e-7f8dce0c4b66"},"vehicle_type_id":"4","last_reported":1687111666,"current_range_meters":24400,"station_id":"ce4bhjp2rcd13ifvqg90","pricing_plan_id":"free"},{"bike_id":"2b677860-e715-4f30-9ae1-355c88799c66","system_id":"levelo_inurba_marseille","lat":43.2621,"lon":5.37923,"is_reserved":false,"is_disabled":false,"rental_uris":{"android":"levelo://app?vid=2b677860-e715-4f30-9ae1-355c88799c66","ios":"levelo://app?vid=2b677860-e715-4f30-9ae1-355c88799c66"},"vehicle_type_id":"4","last_reported":1687111666,"current_range_meters":8400,"station_id":"ce4bhjp2rcd13ifvqg90","pricing_plan_id":"free"},{"bike_id":"051dc262-f782-4f3c-a536-9685bbaeac9c","system_id":"levelo_inurba_marseille","lat":43.2621,"lon":5.37924,"is_reserved":false,"is_disabled":false,"rental_uris":{"android":"levelo://app?vid=051dc262-f782-4f3c-a536-9685bbaeac9c","ios":"levelo://app?vid=051dc262-f782-4f3c-a536-9685bbaeac9c"},"vehicle_type_id":"4","last_reported":1687111666,"current_range_meters":8800,"station_id":"ce4bhjp2rcd13ifvqg90","pricing_plan_id":"free"},{"bike_id":"1b32d6aa-b30d-45ea-9285-88dc8a39ebcc","system_id":"levelo_inurba_marseille","lat":43.2621,"lon":5.37926,"is_reserved":false,"is_disabled":false,"rental_uris":{"android":"levelo://app?vid=1b32d6aa-b30d-45ea-9285-88dc8a39ebcc","ios":"levelo://app?vid=1b32d6aa-b30d-45ea-9285-88dc8a39ebcc"},"vehicle_type_id":"4","last_reported":1687111666,"current_range_meters":19200,"station_id":"ce4bhjp2rcd13ifvqg90","pricing_plan_id":"free"},{"bike_id":"6957e070-7462-40b4-ba7f-c41a028599e3","system_id":"levelo_inurba_marseille","lat":43.26209,"lon":5.37924,"is_reserved":false,"is_disabled":false,"rental_uris":{"android":"levelo://app?vid=6957e070-7462-40b4-ba7f-c41a028599e3","ios":"levelo://app?vid=6957e070-7462-40b4-ba7f-c41a028599e3"},"vehicle_type_id":"4","last_reported":1687111666,"current_range_meters":11200,"station_id":"ce4bhjp2rcd13ifvqg90","pricing_plan_id":"free"},{"bike_id":"ef5dbf20-3dc5-425a-b05b-6f6cdc409ba8","system_id":"levelo_inurba_marseille","lat":43.26209,"lon":5.37926,"is_reserved":false,"is_disabled":false,"rental_uris":{"android":"levelo://app?vid=ef5dbf20-3dc5-425a-b05b-6f6cdc409ba8","ios":"levelo://app?vid=ef5dbf20-3dc5-425a-b05b-6f6cdc409ba8"},"vehicle_type_id":"4","last_reported":1687111666,"current_range_meters":25200,"station_id":"ce4bhjp2rcd13ifvqg90","pricing_plan_id":"free"},{"bike_id":"5a5ec0d3-95f6-49f0-891b-57641d5e3e08","system_id":"levelo_inurba_marseille","lat":43.26209,"lon":5.37927,"is_reserved":false,"is_disabled":false,"rental_uris":{"android":"levelo://app?vid=5a5ec0d3-95f6-49f0-891b-57641d5e3e08","ios":"levelo://app?vid=5a5ec0d3-95f6-49f0-891b-57641d5e3e08"},"vehicle_type_id":"4","last_reported":1687111666,"current_range_meters":14000,"station_id":"ce4bhjp2rcd13ifvqg90","pricing_plan_id":"free"},{"bike_id":"5a12dbb4-e9b5-4d43-abdc-8fc43f29ddcd","system_id":"levelo_inurba_marseille","lat":43.26209,"lon":5.37928,"is_reserved":false,"is_disabled":false,"rental_uris":{"android":"levelo://app?vid=5a12dbb4-e9b5-4d43-abdc-8fc43f29ddcd","ios":"levelo://app?vid=5a12dbb4-e9b5-4d43-abdc-8fc43f29ddcd"},"vehicle_type_id":"4","last_reported":1687111666,"current_range_meters":17200,"station_id":"ce4bhjp2rcd13ifvqg90","pricing_plan_id":"free"},{"bike_id":"a2aa8dff-5710-427d-9c2f-054af99bcb4f","system_id":"levelo_inurba_marseille","lat":43.262096,"lon":5.379335,"is_reserved":false,"is_disabled":false,"rental_uris":{"android":"levelo://app?vid=a2aa8dff-5710-427d-9c2f-054af99bcb4f","ios":"levelo://app?vid=a2aa8dff-5710-427d-9c2f-054af99bcb4f"},"vehicle_type_id":"4","last_reported":1687111666,"current_range_meters":0,"station_id":"ce4bhjp2rcd13ifvqg90","pricing_plan_id":"free"},{"bike_id":"2468fa3b-11a7-4887-9be2-f6e527838d7d","system_id":"levelo_inurba_marseille","lat":43.26208,"lon":5.37922,"is_reserved":false,"is_disabled":false,"rental_uris":{"android":"levelo://app?vid=2468fa3b-11a7-4887-9be2-f6e527838d7d","ios":"levelo://app?vid=2468fa3b-11a7-4887-9be2-f6e527838d7d"},"vehicle_type_id":"4","last_reported":1687111666,"current_range_meters":23200,"station_id":"ce4bhjp2rcd13ifvqg90","pricing_plan_id":"free"},{"bike_id":"8bd42547-bbd1-45e7-9d41-b4cc9c5b76b8","system_id":"levelo_inurba_marseille","lat":43.26208,"lon":5.37924,"is_reserved":false,"is_disabled":false,"rental_uris":{"android":"levelo://app?vid=8bd42547-bbd1-45e7-9d41-b4cc9c5b76b8","ios":"levelo://app?vid=8bd42547-bbd1-45e7-9d41-b4cc9c5b76b8"},"vehicle_type_id":"4","last_reported":1687111666,"current_range_meters":13600,"station_id":"ce4bhjp2rcd13ifvqg90","pricing_plan_id":"free"},{"bike_id":"b0935a74-0fe0-4b4a-8051-c179e2e05a72","system_id":"levelo_inurba_marseille","lat":43.26208,"lon":5.37925,"is_reserved":false,"is_disabled":false,"rental_uris":{"android":"levelo://app?vid=b0935a74-0fe0-4b4a-8051-c179e2e05a72","ios":"levelo://app?vid=b0935a74-0fe0-4b4a-8051-c179e2e05a72"},"vehicle_type_id":"4","last_reported":1687111666,"current_range_meters":0,"station_id":"ce4bhjp2rcd13ifvqg90","pricing_plan_id":"free"},{"bike_id":"c97c56e9-5352-4102-b685-b5690dd175eb","system_id":"levelo_inurba_marseille","lat":43.26208,"lon":5.37926,"is_reserved":false,"is_disabled":false,"rental_uris":{"android":"levelo://app?vid=c97c56e9-5352-4102-b685-b5690dd175eb","ios":"levelo://app?vid=c97c56e9-5352-4102-b685-b5690dd175eb"},"vehicle_type_id":"4","last_reported":1687111666,"current_range_meters":7200,"station_id":"ce4bhjp2rcd13ifvqg90","pricing_plan_id":"free"},{"bike_id":"225d7332-cba1-4ddb-9cb0-9cd8ad5ce47a","system_id":"levelo_inurba_marseille","lat":43.26208,"lon":5.37927,"is_reserved":false,"is_disabled":false,"rental_uris":{"android":"levelo://app?vid=225d7332-cba1-4ddb-9cb0-9cd8ad5ce47a","ios":"levelo://app?vid=225d7332-cba1-4ddb-9cb0-9cd8ad5ce47a"},"vehicle_type_id":"4","last_reported":1687111666,"current_range_meters":14000,"station_id":"ce4bhjp2rcd13ifvqg90","pricing_plan_id":"free"},{"bike_id":"37963fac-4e13-45b5-ab88-39cbbb7ade4f","system_id":"levelo_inurba_marseille","lat":43.26208,"lon":5.37928,"is_reserved":false,"is_disabled":false,"rental_uris":{"android":"levelo://app?vid=37963fac-4e13-45b5-ab88-39cbbb7ade4f","ios":"levelo://app?vid=37963fac-4e13-45b5-ab88-39cbbb7ade4f"},"vehicle_type_id":"4","last_reported":1687111666,"current_range_meters":0,"station_id":"ce4bhjp2rcd13ifvqg90","pricing_plan_id":"free"},{"bike_id":"bfce0a8a-377b-40a8-b89b-d4d178818a55","system_id":"levelo_inurba_marseille","lat":43.26207,"lon":5.37922,"is_reserved":false,"is_disabled":false,"rental_uris":{"android":"levelo://app?vid=bfce0a8a-377b-40a8-b89b-d4d178818a55","ios":"levelo://app?vid=bfce0a8a-377b-40a8-b89b-d4d178818a55"},"vehicle_type_id":"4","last_reported":1687111666,"current_range_meters":800,"station_id":"ce4bhjp2rcd13ifvqg90","pricing_plan_id":"free"},{"bike_id":"b565cc05-4131-442b-a318-fc0277dba6de","system_id":"levelo_inurba_marseille","lat":43.26208,"lon":5.3793,"is_reserved":false,"is_disabled":false,"rental_uris":{"android":"levelo://app?vid=b565cc05-4131-442b-a318-fc0277dba6de","ios":"levelo://app?vid=b565cc05-4131-442b-a318-fc0277dba6de"},"vehicle_type_id":"4","last_reported":1687111666,"current_range_meters":10000,"station_id":"ce4bhjp2rcd13ifvqg90","pricing_plan_id":"free"},{"bike_id":"859afd7c-66a4-4819-a42c-60f431f43db7","system_id":"levelo_inurba_marseille","lat":43.26207,"lon":5.37924,"is_reserved":false,"is_disabled":false,"rental_uris":{"android":"levelo://app?vid=859afd7c-66a4-4819-a42c-60f431f43db7","ios":"levelo://app?vid=859afd7c-66a4-4819-a42c-60f431f43db7"},"vehicle_type_id":"4","last_reported":1687111666,"current_range_meters":14800,"station_id":"ce4bhjp2rcd13ifvqg90","pricing_plan_id":"free"},{"bike_id":"01321b60-db16-4b5b-99c9-3f6c40fc557c","system_id":"levelo_inurba_marseille","lat":43.26207,"lon":5.37925,"is_reserved":false,"is_disabled":false,"rental_uris":{"android":"levelo://app?vid=01321b60-db16-4b5b-99c9-3f6c40fc557c","ios":"levelo://app?vid=01321b60-db16-4b5b-99c9-3f6c40fc557c"},"vehicle_type_id":"4","last_reported":1687111666,"current_range_meters":6800,"station_id":"ce4bhjp2rcd13ifvqg90","pricing_plan_id":"free"},{"bike_id":"42e70acd-de35-4ee8-94a4-aa380a123fb4","system_id":"levelo_inurba_marseille","lat":43.26207,"lon":5.37926,"is_reserved":false,"is_disabled":false,"rental_uris":{"android":"levelo://app?vid=42e70acd-de35-4ee8-94a4-aa380a123fb4","ios":"levelo://app?vid=42e70acd-de35-4ee8-94a4-aa380a123fb4"},"vehicle_type_id":"4","last_reported":1687111666,"current_range_meters":29600,"station_id":"ce4bhjp2rcd13ifvqg90","pricing_plan_id":"free"},{"bike_id":"a9092a4f-c201-496f-a723-08aae3eb2399","system_id":"levelo_inurba_marseille","lat":43.26208,"lon":5.37934,"is_reserved":false,"is_disabled":false,"rental_uris":{"android":"levelo://app?vid=a9092a4f-c201-496f-a723-08aae3eb2399","ios":"levelo://app?vid=a9092a4f-c201-496f-a723-08aae3eb2399"},"vehicle_type_id":"4","last_reported":1687111666,"current_range_meters":20000,"station_id":"ce4bhjp2rcd13ifvqg90","pricing_plan_id":"free"},{"bike_id":"c946daf2-5581-4b50-94b3-ad69d30f204d","system_id":"levelo_inurba_marseille","lat":43.26207,"lon":5.37927,"is_reserved":false,"is_disabled":false,"rental_uris":{"android":"levelo://app?vid=c946daf2-5581-4b50-94b3-ad69d30f204d","ios":"levelo://app?vid=c946daf2-5581-4b50-94b3-ad69d30f204d"},"vehicle_type_id":"4","last_reported":1687111666,"current_range_meters":12400,"station_id":"ce4bhjp2rcd13ifvqg90","pricing_plan_id":"free"},{"bike_id":"16784008-a3d3-454d-9ffe-5cd8b620a76b","system_id":"levelo_inurba_marseille","lat":43.26207,"lon":5.37928,"is_reserved":false,"is_disabled":false,"rental_uris":{"android":"levelo://app?vid=16784008-a3d3-454d-9ffe-5cd8b620a76b","ios":"levelo://app?vid=16784008-a3d3-454d-9ffe-5cd8b620a76b"},"vehicle_type_id":"4","last_reported":1687111666,"current_range_meters":11600,"station_id":"ce4bhjp2rcd13ifvqg90","pricing_plan_id":"free"},{"bike_id":"1998bd35-5e9a-42c4-b8f2-e32545ab72e1","system_id":"levelo_inurba_marseille","lat":43.26207,"lon":5.37928,"is_reserved":false,"is_disabled":false,"rental_uris":{"android":"levelo://app?vid=1998bd35-5e9a-42c4-b8f2-e32545ab72e1","ios":"levelo://app?vid=1998bd35-5e9a-42c4-b8f2-e32545ab72e1"},"vehicle_type_id":"4","last_reported":1687111666,"current_range_meters":14800,"station_id":"ce4bhjp2rcd13ifvqg90","pricing_plan_id":"free"},{"bike_id":"4f3865cb-5c93-4b02-af96-405243cc878a","system_id":"levelo_inurba_marseille","lat":43.26207,"lon":5.37929,"is_reserved":false,"is_disabled":false,"rental_uris":{"android":"levelo://app?vid=4f3865cb-5c93-4b02-af96-405243cc878a","ios":"levelo://app?vid=4f3865cb-5c93-4b02-af96-405243cc878a"},"vehicle_type_id":"4","last_reported":1687111666,"current_range_meters":26000,"station_id":"ce4bhjp2rcd13ifvqg90","pricing_plan_id":"free"},{"bike_id":"cf861f45-a4df-4d03-8b9b-8ec50b197908","system_id":"levelo_inurba_marseille","lat":43.26202,"lon":5.379299,"is_reserved":false,"is_disabled":false,"rental_uris":{"android":"levelo://app?vid=cf861f45-a4df-4d03-8b9b-8ec50b197908","ios":"levelo://app?vid=cf861f45-a4df-4d03-8b9b-8ec50b197908"},"vehicle_type_id":"4","last_reported":1687111666,"current_range_meters":29200,"station_id":"ce4bhjp2rcd13ifvqg90","pricing_plan_id":"free"},