{"last_updated":1720199284,"ttl":30,"version":"2.2","data":{"bikes":[{"bike_id":"02e4b9df-e7bb-4bad-a564-f8e54bca37d2","system_id":"levelo_inurba_marseille","lat":43.31489,"lon":5.37305,"is_reserved":false,"is_disabled":false,"rental_uris":{"android":"levelo://app?vid=02e4b9df-e7bb-4bad-a564-f8e54bca37d2","ios":"levelo://app?vid=02e4b9df-e7bb-4bad-a564-f8e54bca37d2"},"vehicle_type_id":"4","last_reported":1720199285,"current_range_meters":1600,"station_id":"ce4bgt12rcd13ifvqcd0","pricing_plan_id":"cebpf4jnsgd1na2vs0mg"},{"bike_id":"41cdcdd6-ded1-4424-b142-2da7b544bf9d","system_id":"levelo_inurba_marseille","lat":43.31792,"lon":5.36938,"is_reserved":false,"is_disabled":false,"rental_uris":{"android":"levelo://app?vid=41cdcdd6-ded1-4424-b142-2da7b544bf9d","ios":"levelo://app?vid=41cdcdd6-ded1-4424-b142-2da7b544bf9d"},"vehicle_type_id":"4","last_reported":1720199285,"current_range_meters":9600,"station_id":"","pricing_plan_id":"cebpf4jnsgd1na2vs0mg"},{"bike_id":"c79f8306-56bf-44a2-ba95-de1d7b0db9c7","system_id":"levelo_inurba_marseille","lat":43.312909,"lon":5.375559,"is_reserved":false,"is_disabled":false,"rental_uris":{"android":"levelo://app?vid=c79f8306-56bf-44a2-ba95-de1d7b0db9c7","ios":"levelo://app?vid=c79f8306-56bf-44a2-ba95-de1d7b0db9c7"},"vehicle_type_id":"4","last_reported":1720199285,"current_range_meters":0,"station_id":"","pricing_plan_id":"cebpf4jnsgd1na2vs0mg"},{"bike_id":"e137663d-8691-4bf4-a0cb-fb315a8a92f4","system_id":"levelo_inurba_marseille","lat":43.31823,"lon":5.37252,"is_reserved":false,"is_disabled":false,"rental_uris":{"android":"levelo://app?vid=e137663d-8691-4bf4-a0cb-fb315a8a92f4","ios":"levelo://app?vid=e137663d-8691-4bf4-a0cb-fb315a8a92f4"},"vehicle_type_id":"4","last_reported":1720199285,"current_range_meters":1600,"station_id":"","pricing_plan_id":"cebpf4jnsgd1na2vs0mg"},{"bike_id":"fcc4efb6-e171-459e-8130-69901586fba5","system_id":"levelo_inurba_marseille","lat":43.30537,"lon":5.367345,"is_reserved":false,"is_disabled":false,"rental_uris":{"android":"levelo://app?vid=fcc4efb6-e171-459e-8130-69901586fba5","ios":"levelo://app?vid=fcc4efb6-e171-459e-8130-69901586fba5"},"vehicle_type_id":"4","last_reported":1720199285,"current_range_meters":3200,"station_id":"ce4bgrp2rcd13ifvqc9g","pricing_plan_id":"cebpf4jnsgd1na2vs0mg"},{"bike_id":"fdd0d94e-f95a-479f-8804-48f47b3ce3a9","system_id":"levelo_inurba_marseille","lat":43.305714,"lon":5.365633,"is_reserved":false,"is_disabled":false,"rental_uris":{"android":"levelo://app?vid=fdd0d94e-f95a-479f-8804-48f47b3ce3a9","ios":"levelo://app?vid=fdd0d94e-f95a-479f-8804-48f47b3ce3a9"},"vehicle_type_id":"4","last_reported":1720199285,"current_range_meters":11200,"station_id":"ce4bgs12rcd13ifvqcag","pricing_plan_id":"cebpf4jnsgd1na2vs0mg"},{"bike_id":"8637031f-59ab-45bb-971b-461d26d099cc","system_id":"levelo_inurba_marseille","lat":43.305706,"lon":5.365654,"is_reserved":false,"is_disabled":false,"rental_uris":{"android":"levelo://app?vid=8637031f-59ab-45bb-971b-461d26d099cc","ios":"levelo://app?vid=8637031f-59ab-45bb-971b-461d26d099cc"},"vehicle_type_id":"4","last_reported":1720199285,"current_range_meters":16000,"station_id":"ce4bgs12rcd13ifvqcag","pricing_plan_id":"cebpf4jnsgd1na2vs0mg"},{"bike_id":"babb869c-6b1f-46af-9d61-a9c1b45dbc02","system_id":"levelo_inurba_marseille","lat":43.305706,"lon":5.365654,"is_reserved":false,"is_disabled":false,"rental_uris":{"android":"levelo://app?vid=babb869c-6b1f-46af-9d61-a9c1b45dbc02","ios":"levelo://app?vid=babb869c-6b1f-46af-9d61-a9c1b45dbc02"},"vehicle_type_id":"4","last_reported":1720199285,"current_range_meters":6800,"station_id":"ce4bgs12rcd13ifvqcag","pricing_plan_id":"cebpf4jnsgd1na2vs0mg"},{"bike_id":"53e7faf9-d5ea-4909-a72d-d5ef15994b0c","system_id":"levelo_inurba_marseille","lat":43.311131,"lon":5.377651,"is_reserved":false,"is_disabled":false,"rental_uris":{"android":"levelo://app?vid=53e7faf9-d5ea-4909-a72d-d5ef15994b0c","ios":"levelo://app?vid=53e7faf9-d5ea-4909-a72d-d5ef15994b0c"},"vehicle_type_id":"4","last_reported":1720199285,"current_range_meters":28000,"station_id":"ce4bgt92rcd13ifvqcg0","pricing_plan_id":"cebpf4jnsgd1na2vs0mg"},{"bike_id":"ad8c02c3-b43c-4efb-8ba1-4ac0faed2346","system_id":"levelo_inurba_marseille","lat":43.30409,"lon":5.36738,"is_reserved":false,"is_disabled":false,"rental_uris":{"android":"levelo://app?vid=ad8c02c3-b43c-4efb-8ba1-4ac0faed2346","ios":"levelo://app?vid=ad8c02c3-b43c-4efb-8ba1-4ac0faed2346"},"vehicle_type_id":"4","last_reported":1720199285,"current_range_meters":18400,"station_id":"","pricing_plan_id":"cebpf4jnsgd1na2vs0mg"},{"bike_id":"eaf33f43-5f27-4abf-bfff-b6d567248fb7","system_id":"levelo_inurba_marseille","lat":43.303065,"lon":5.368905,"is_reserved":false,"is_disabled":false,"rental_uris":{"android":"levelo://app?vid=eaf33f43-5f27-4abf-bfff-b6d567248fb7","ios":"levelo://app?vid=eaf33f43-5f27-4abf-bfff-b6d567248fb7"},"vehicle_type_id":"4","last_reported":1720199285,"current_range_meters":7200,"station_id":"","pricing_plan_id":"cebpf4jnsgd1na2vs0mg"},{"bike_id":"8cd54e7d-9a2a-40dc-bfe3-651f4808e6fb","system_id":"levelo_inurba_marseille","lat":43.301939,"lon":5.366286,"is_reserved":false,"is_disabled":false,"rental_uris":{"android":"levelo://app?vid=8cd54e7d-9a2a-40dc-bfe3-651f4808e6fb","ios":"levelo://app?vid=8cd54e7d-9a2a-40dc-bfe3-651f4808e6fb"},"vehicle_type_id":"4","last_reported":1720199285,"current_range_meters":29600,"station_id":"ce4bgrh2rcd13ifvqc8g","pricing_plan_id":"cebpf4jnsgd1na2vs0mg"},{"bike_id":"936bc79d-7f29-46bb-8f5b-b148419d376b","system_id":"levelo_inurba_marseille","lat":43.301939,"lon":5.366286,"is_reserved":false,"is_disabled":false,"rental_uris":{"android":"levelo://app?vid=936bc79d-7f29-46bb-8f5b-b148419d376b","ios":"levelo://app?vid=936bc79d-7f29-46bb-8f5b-b148419d376b"},"vehicle_type_id":"4","last_reported":1720199285,"current_range_meters":31200,"station_id":"ce4bgrh2rcd13ifvqc8g","pricing_plan_id":"cebpf4jnsgd1na2vs0mg"},{"bike_id":"f4cf2b21-7a36-418f-b6ba-ea7a509149bc","system_id":"levelo_inurba_marseille","lat":43.324771,"lon":5.36557,"is_reserved":false,"is_disabled":false,"rental_uris":{"android":"levelo://app?vid=f4cf2b21-7a36-418f-b6ba-ea7a509149bc","ios":"levelo://app?vid=f4cf2b21-7a36-418f-b6ba-ea7a509149bc"},"vehicle_type_id":"4","last_reported":1720199285,"current_range_meters":8000,"station_id":"ce4bhs12rcd13ifvqhvg","pricing_plan_id":"cebpf4jnsgd1na2vs0mg"},{"bike_id":"1b67035f-9cdd-4a18-8974-52ae3be96538","system_id":"levelo_inurba_marseille","lat":43.324771,"lon":5.36557,"is_reserved":false,"is_disabled":false,"rental_uris":{"android":"levelo://app?vid=1b67035f-9cdd-4a18-8974-52ae3be96538","ios":"levelo://app?vid=1b67035f-9cdd-4a18-8974-52ae3be96538"},"vehicle_type_id":"4","last_reported":1720199285,"current_range_meters":11600,"station_id":"ce4bhs12rcd13ifvqhvg","pricing_plan_id":"cebpf4jnsgd1na2vs0mg"},{"bike_id":"df7d3009-3084-4f61-9c80-b20bd7556d55","system_id":"levelo_inurba_marseille","lat":43.3248,"lon":5.3657,"is_reserved":false,"is_disabled":false,"rental_uris":{"android":"levelo://app?vid=df7d3009-3084-4f61-9c80-b20bd7556d55","ios":"levelo://app?vid=df7d3009-3084-4f61-9c80-b20bd7556d55"},"vehicle_type_id":"4","last_reported":1720199285,"current_range_meters":27600,"station_id":"ce4bhs12rcd13ifvqhvg","pricing_plan_id":"cebpf4jnsgd1na2vs0mg"},{"bike_id":"db29794a-735b-406d-a809-c2c7f581afbc","system_id":"levelo_inurba_marseille","lat":43.324771,"lon":5.36557,"is_reserved":false,"is_disabled":false,"rental_uris":{"android":"levelo://app?vid=db29794a-735b-406d-a809-c2c7f581afbc","ios":"levelo://app?vid=db29794a-735b-406d-a809-c2c7f581afbc"},"vehicle_type_id":"4","last_reported":1720199285,"current_range_meters":14400,"station_id":"ce4bhs12rcd13ifvqhvg","pricing_plan_id":"cebpf4jnsgd1na2vs0mg"},{"bike_id":"15155e11-4925-49a8-9ca9-ede75c71c7dc","system_id":"levelo_inurba_marseille","lat":43.324771,"lon":5.36557,"is_reserved":false,"is_disabled":false,"rental_uris":{"android":"levelo://app?vid=15155e11-4925-49a8-9ca9-ede75c71c7dc","ios":"levelo://app?vid=15155e11-4925-49a8-9ca9-ede75c71c7dc"},"vehicle_type_id":"4","last_reported":1720199285,"current_range_meters":6000,"station_id":"ce4bhs12rcd13ifvqhvg","pricing_plan_id":"cebpf4jnsgd1na2vs0mg"},{"bike_id":"7bc4b2b4-a771-4581-b1f8-e0ee23bf4dc5","system_id":"levelo_inurba_marseille","lat":43.324771,"lon":5.36557,"is_reserved":false,"is_disabled":false,"rental_uris":{"android":"levelo://app?vid=7bc4b2b4-a771-4581-b1f8-e0ee23bf4dc5","ios":"levelo://app?vid=7bc4b2b4-a771-4581-b1f8-e0ee23bf4dc5"},"vehicle_type_id":"4","last_reported":1720199285,"current_range_meters":27600,"station_id":"ce4bhs12rcd13ifvqhvg","pricing_plan_id":"cebpf4jnsgd1na2vs0mg"},{"bike_id":"dc7401a3-f714-4aea-a92a-9bc6ab1bcaf1","system_id":"levelo_inurba_marseille","lat":43.310804,"lon":5.38359,"is_reserved":false,"is_disabled":false,"rental_uris":{"android":"levelo://app?vid=dc7401a3-f714-4aea-a92a-9bc6ab1bcaf1","ios":"levelo://app?vid=dc7401a3-f714-4aea-a92a-9bc6ab1bcaf1"},"vehicle_type_id":"4","last_reported":1720199285,"current_range_meters":8800,"station_id":"ce4bgv92rcd13ifvqcr0","pricing_plan_id":"cebpf4jnsgd1na2vs0mg"},{"bike_id":"c98f37bf-7c80-4358-8965-1905aea0a038","system_id":"levelo_inurba_marseille","lat":43.302784,"lon":5.377158,"is_reserved":false,"is_disabled":false,"rental_uris":{"android":"levelo://app?vid=c98f37bf-7c80-4358-8965-1905aea0a038","ios":"levelo://app?vid=c98f37bf-7c80-4358-8965-1905aea0a038"},"vehicle_type_id":"4","last_reported":1720199285,"current_range_meters":6400,"station_id":"ce4bguh2rcd13ifvqcj0","pricing_plan_id":"cebpf4jnsgd1na2vs0mg"},{"bike_id":"44f27f16-ece0-4ae0-b84b-1edf65e7c6d6","system_id":"levelo_inurba_marseille","lat":43.302784,"lon":5.377158,"is_reserved":false,"is_disabled":false,"rental_uris":{"android":"levelo://app?vid=44f27f16-ece0-4ae0-b84b-1edf65e7c6d6","ios":"levelo://app?vid=44f27f16-ece0-4ae0-b84b-1edf65e7c6d6"},"vehicle_type_id":"4","last_reported":1720199285,"current_range_meters":17200,"station_id":"ce4bguh2rcd13ifvqcj0","pricing_plan_id":"cebpf4jnsgd1na2vs0mg"},{"bike_id":"32c38cac-3d8c-43a6-9d1e-08e440bbc464","system_id":"levelo_inurba_marseille","lat":43.30143,"lon":5.37413,"is_reserved":false,"is_disabled":false,"rental_uris":{"android":"levelo://app?vid=32c38cac-3d8c-43a6-9d1e-08e440bbc464","ios":"levelo://app?vid=32c38cac-3d8c-43a6-9d1e-08e440bbc464"},"vehicle_type_id":"4","last_reported":1720199285,"current_range_meters":30800,"station_id":"ce4bgs92rcd13ifvqcc0","pricing_plan_id":"cebpf4jnsgd1na2vs0mg"},{"bike_id":"e082b601-9c8d-4c8c-82c0-04ae12ebab13","system_id":"levelo_inurba_marseille","lat":43.301429,"lon":5.37413,"is_reserved":false,"is_disabled":false,"rental_uris":{"android":"levelo://app?vid=e082b601-9c8d-4c8c-82c0-04ae12ebab13","ios":"levelo://app?vid=e082b601-9c8d-4c8c-82c0-04ae12ebab13"},"vehicle_type_id":"4","last_reported":1720199285,"current_range_meters":5200,"station_id":"ce4bgs92rcd13ifvqcc0","pricing_plan_id":"cebpf4jnsgd1na2vs0mg"},{"bike_id":"a76476bc-d1b9-4d01-bb54-85b807919b11","system_id":"levelo_inurba_marseille","lat":43.301429,"lon":5.37413,"is_reserved":false,"is_disabled":false,"rental_uris":{"android":"levelo://app?vid=a76476bc-d1b9-4d01-bb54-85b807919b11","ios":"levelo://app?vid=a76476bc-d1b9-4d01-bb54-85b807919b11"},"vehicle_type_id":"4","last_reported":1720199285,"current_range_meters":10400,"station_id":"ce4bgs92rcd13ifvqcc0","pricing_plan_id":"cebpf4jnsgd1na2vs0mg"},{"bike_id":"e8210053-29e4-44a0-bb9d-722b739fbafb","system_id":"levelo_inurba_marseille","lat":43.302784,"lon":5.377158,"is_reserved":false,"is_disabled":false,"rental_uris":{"android":"levelo://app?vid=e8210053-29e4-44a0-bb9d-722b739fbafb","ios":"levelo://app?vid=e8210053-29e4-44a0-bb9d-722b739fbafb"},"vehicle_type_id":"4","last_reported":1720199285,"current_range_meters":6400,"station_id":"ce4bguh2rcd13ifvqcj0","pricing_plan_id":"cebpf4jnsgd1na2vs0mg"},{"bike_id":"286fde51-07d7-4e57-8c64-6562c4afaa38","system_id":"levelo_inurba_marseille","lat":43.30143,"lon":5.37413,"is_reserved":false,"is_disabled":false,"rental_uris":{"android":"levelo://app?vid=286fde51-07d7-4e57-8c64-6562c4afaa38","ios":"levelo://app?vid=286fde51-07d7-4e57-8c64-6562c4afaa38"},"vehicle_type_id":"4","last_reported":1720199285,"current_range_meters":20800,"station_id":"ce4bgs92rcd13ifvqcc0","pricing_plan_id":"cebpf4jnsgd1na2vs0mg"},{"bike_id":"7710eac3-d72d-4caa-86ee-cbe2e8e3d216","system_id":"levelo_inurba_marseille","lat":43.302784,"lon":5.377158,"is_reserved":false,"is_disabled":false,"rental_uris":{"android":"levelo://app?vid=7710eac3-d72d-4caa-86ee-cbe2e8e3d216","ios":"levelo://app?vid=7710eac3-d72d-4caa-86ee-cbe2e8e3d216"},"vehicle_type_id":"4","last_reported":1720199285,"current_range_meters":3600,"station_id":"ce4bguh2rcd13ifvqcj0","pricing_plan_id":"cebpf4jnsgd1na2vs0mg"},{"bike_id":"d631fcc0-b427-4f09-ad35-5ee0325e2748","system_id":"levelo_inurba_marseille","lat":43.31998,"lon":5.38152,"is_reserved":false,"is_disabled":false,"rental_uris":{"android":"levelo://app?vid=d631fcc0-b427-4f09-ad35-5ee0325e2748","ios":"levelo://app?vid=d631fcc0-b427-4f09-ad35-5ee0325e2748"},"vehicle_type_id":"4","last_reported":1720199285,"current_range_meters":0,"station_id":"ce4bhr12rcd13ifvqhpg","pricing_plan_id":"cebpf4jnsgd1na2vs0mg"},{"bike_id":"f5255b36-a69e-4c88-88b8-aee734110053","system_id":"levelo_inurba_marseille","lat":43.319935,"lon":5.381699,"is_reserved":false,"is_disabled":false,"rental_uris":{"android":"levelo://app?vid=f5255b36-a69e-4c88-88b8-aee734110053","ios":"levelo://app?vid=f5255b36-a69e-4c88-88b8-aee734110053"},"vehicle_type_id":"4","last_reported":1720199285,"current_range_meters":21200,"station_id":"ce4bhr12rcd13ifvqhpg","pricing_plan_id":"cebpf4jnsgd1na2vs0mg"},{"bike_id":"3c0d176c-2ba3-4cde-b63f-aaa404764894","system_id":"levelo_inurba_marseille","lat":43.313571,"lon":5.384829,"is_reserved":false,"is_disabled":false,"rental_uris":{"android":"levelo://app?vid=3c0d176c-2ba3-4cde-b63f-aaa404764894","ios":"levelo://app?vid=3c0d176c-2ba3-4cde-b63f-aaa404764894"},"vehicle_type_id":"4","last_reported":1720199285,"current_range_meters":4000,"station_id":"ce4bgt92rcd13ifvqcf0","pricing_plan_id":"cebpf4jnsgd1na2vs0mg"},{"bike_id":"2fac8131-9623-407d-9504-30422026a092","system_id":"levelo_inurba_marseille","lat":43.299724,"lon":5.371829,"is_reserved":false,"is_disabled":false,"rental_uris":{"android":"levelo://app?vid=2fac8131-9623-407d-9504-30422026a092","ios":"levelo://app?vid=2fac8131-9623-407d-9504-30422026a092"},"vehicle_type_id":"4","last_reported":1720199285,"current_range_meters":0,"station_id":"ce4bgr92rcd13ifvqc7g","pricing_plan_id":"cebpf4jnsgd1na2vs0mg"},{"bike_id":"3821aca6-c3cc-4f0a-94f4-aa0ca9569615","system_id":"levelo_inurba_marseille","lat":43.299724,"lon":5.371829,"is_reserved":false,"is_disabled":false,"rental_uris":{"android":"levelo://app?vid=3821aca6-c3cc-4f0a-94f4-aa0ca9569615","ios":"levelo://app?vid=3821aca6-c3cc-4f0a-94f4-aa0ca9569615"},"vehicle_type_id":"4","last_reported":1720199285,"current_range_meters":18400,"station_id":"ce4bgr92rcd13ifvqc7g","pricing_plan_id":"cebpf4jnsgd1na2vs0mg"},{"bike_id":"095431ac-5959-42c5-805c-6bde7670851e","system_id":"levelo_inurba_marseille","lat":43.299724,"lon":5.371829,"is_reserved":false,"is_disabled":false,"rental_uris":{"android":"levelo://app?vid=095431ac-5959-42c5-805c-6bde7670851e","ios":"levelo://app?vid=095431ac-5959-42c5-805c-6bde7670851e"},"vehicle_type_id":"4","last_reported":1720199285,"current_range_meters":20800,"station_id":"ce4bgr92rcd13ifvqc7g","pricing_plan_id":"cebpf4jnsgd1na2vs0mg"},{"bike_id":"4874c971-1b17-4481-b881-afb722d8be01","system_id":"levelo_inurba_marseille","lat":43.299724,"lon":5.371829,"is_reserved":false,"is_disabled":false,"rental_uris":{"android":"levelo://app?vid=4874c971-1b17-4481-b881-afb722d8be01","ios":"levelo://app?vid=4874c971-1b17-4481-b881-afb722d8be01"},"vehicle_type_id":"4","last_reported":1720199285,"current_range_meters":1600,"station_id":"ce4bgr92rcd13ifvqc7g","pricing_plan_id":"cebpf4jnsgd1na2vs0mg"},{"bike_id":"9e497364-e25e-417f-9454-3671d5f27b43","system_id":"levelo_inurba_marseille","lat":43.299724,"lon":5.371829,"is_reserved":false,"is_disabled":false,"rental_uris":{"android":"levelo://app?vid=9e497364-e25e-417f-9454-3671d5f27b43","ios":"levelo://app?vid=9e497364-e25e-417f-9454-3671d5f27b43"},"vehicle_type_id":"4","last_reported":1720199285,"current_range_meters":5600,"station_id":"ce4bgr92rcd13ifvqc7g","pricing_plan_id":"cebpf4jnsgd1na2vs0mg"},{"bike_id":"b3abde5f-464a-4ad2-b933-7836e2921998","system_id":"levelo_inurba_marseille","lat":43.305364,"lon":5.384119,"is_reserved":false,"is_disabled":false,"rental_uris":{"android":"levelo://app?vid=b3abde5f-464a-4ad2-b933-7836e2921998","ios":"levelo://app?vid=b3abde5f-464a-4ad2-b933-7836e2921998"},"vehicle_type_id":"4","last_reported":1720199285,"current_range_meters":4800,"station_id":"ce4bgg92rcd13ifvqb30","pricing_plan_id":"cebpf4jnsgd1na2vs0mg"},{"bike_id":"b42ba4ea-1156-4d33-b885-d4b2c585400a","system_id":"levelo_inurba_marseille","lat":43.298433,"lon":5.362774,"is_reserved":false,"is_disabled":false,"rental_uris":{"android":"levelo://app?vid=b42ba4ea-1156-4d33-b885-d4b2c585400a","ios":"levelo://app?vid=b42ba4ea-1156-4d33-b885-d4b2c585400a"},"vehicle_type_id":"4","last_reported":1720199285,"current_range_meters":0,"station_id":"ce4bgpp2rcd13ifvqc3g","pricing_plan_id":"cebpf4jnsgd1na2vs0mg"},{"bike_id":"2c427645-d40d-474e-9857-4c34f7047fac","system_id":"levelo_inurba_marseille","lat":43.311722,"lon":5.387247,"is_reserved":false,"is_disabled":false,"rental_uris":{"android":"levelo://app?vid=2c427645-d40d-474e-9857-4c34f7047fac","ios":"levelo://app?vid=2c427645-d40d-474e-9857-4c34f7047fac"},"vehicle_type_id":"4","last_reported":1720199285,"current_range_meters":0,"station_id":"ce4bgv12rcd13ifvqcp0","pricing_plan_id":"cebpf4jnsgd1na2vs0mg"},{"bike_id":"eb18eba9-d584-4195-b06f-4f50ccba6b00","system_id":"levelo_inurba_marseille","lat":43.31165,"lon":5.38719,"is_reserved":false,"is_disabled":false,"rental_uris":{"android":"levelo://app?vid=eb18eba9-d584-4195-b06f-4f50ccba6b00","ios":"levelo://app?vid=eb18eba9-d584-4195-b06f-4f50ccba6b00"},"vehicle_type_id":"4","last_reported":1720199285,"current_range_meters":0,"station_id":"ce4bgv12rcd13ifvqcp0","pricing_plan_id":"cebpf4jnsgd1na2vs0mg"},{"bike_id":"ced5b35f-4ea5-4bfa-8ac8-1fc708c7f597","system_id":"levelo_inurba_marseille","lat":43.31172,"lon":5.38726,"is_reserved":false,"is_disabled":false,"rental_uris":{"android":"levelo://app?vid=ced5b35f-4ea5-4bfa-8ac8-1fc708c7f597","ios":"levelo://app?vid=ced5b35f-4ea5-4bfa-8ac8-1fc708c7f597"},"vehicle_type_id":"4","last_reported":1720199285,"current_range_meters":0,"station_id":"ce4bgv12rcd13ifvqcp0","pricing_plan_id":"cebpf4jnsgd1na2vs0mg"},{"bike_id":"fc61b835-51c9-4ea3-a943-cad07f427fb1","system_id":"levelo_inurba_marseille","lat":43.31038,"lon":5.387099,"is_reserved":false,"is_disabled":false,"rental_uris":{"android":"levelo://app?vid=fc61b835-51c9-4ea3-a943-cad07f427fb1","ios":"levelo://app?vid=fc61b835-51c9-4ea3-a943-cad07f427fb1"},"vehicle_type_id":"4","last_reported":1720199285,"current_range_meters":4800,"station_id":"","pricing_plan_id":"cebpf4jnsgd1na2vs0mg"},{"bike_id":"3ed1a6ee-73a5-448b-aab8-7dd05117cb66","system_id":"levelo_inurba_marseille","lat":43.30169,"lon":5.38136,"is_reserved":false,"is_disabled":false,"rental_uris":{"android":"levelo://app?vid=3ed1a6ee-73a5-448b-aab8-7dd05117cb66","ios":"levelo://app?vid=3ed1a6ee-73a5-448b-aab8-7dd05117cb66"},"vehicle_type_id":"4","last_reported":1720199285,"current_range_meters":0,"station_id":"","pricing_plan_id":"cebpf4jnsgd1na2vs0mg"},{"bike_id":"21ab68ef-f61e-4ff3-b293-2b258dcc8686","system_id":"levelo_inurba_marseille","lat":43.322833,"lon":5.382707,"is_reserved":false,"is_disabled":false,"rental_uris":{"android":"levelo://app?vid=21ab68ef-f61e-4ff3-b293-2b258dcc8686","ios":"levelo://app?vid=21ab68ef-f61e-4ff3-b293-2b258dcc8686"},"vehicle_type_id":"4","last_reported":1720199285,"current_range_meters":0,"station_id":"ce4bhr12rcd13ifvqhqg","pricing_plan_id":"cebpf4jnsgd1na2vs0mg"},{"bike_id":"24b9ff1f-0fd6-49aa-a906-87384c24a8d7","system_id":"levelo_inurba_marseille","lat":43.322872,"lon":5.382756,"is_reserved":false,"is_disabled":false,"rental_uris":{"android":"levelo://app?vid=24b9ff1f-0fd6-49aa-a906-87384c24a8d7","ios":"levelo://app?vid=24b9ff1f-0fd6-49aa-a906-87384c24a8d7"},"vehicle_type_id":"4","last_reported":1720199285,"current_range_meters":4800,"station_id":"ce4bhr12rcd13ifvqhqg","pricing_plan_id":"cebpf4jnsgd1na2vs0mg"},{"bike_id":"b59e350f-6f08-4d06-82ea-fd9dc0e41755","system_id":"levelo_inurba_marseille","lat":43.322872,"lon":5.382756,"is_reserved":false,"is_disabled":false,"rental_uris":{"android":"levelo://app?vid=b59e350f-6f08-4d06-82ea-fd9dc0e41755","ios":"levelo://app?vid=b59e350f-6f08-4d06-82ea-fd9dc0e41755"},"vehicle_type_id":"4","last_reported":1720199285,"current_range_meters":18400,"station_id":"ce4bhr12rcd13ifvqhqg","pricing_plan_id":"cebpf4jnsgd1na2vs0mg"},{"bike_id":"82f58178-8f89-479f-a33f-971fd10a7a10","system_id":"levelo_inurba_marseille","lat":43.298255,"lon":5.376871,"is_reserved":false,"is_disabled":false,"rental_uris":{"android":"levelo://app?vid=82f58178-8f89-479f-a33f-971fd10a7a10","ios":"levelo://app?vid=82f58178-8f89-479f-a33f-971fd10a7a10"},"vehicle_type_id":"4","last_reported":1720199285,"current_range_meters":5600,"station_id":"","pricing_plan_id":"cebpf4jnsgd1na2vs0mg"},{"bike_id":"c46fe14d-25d4-4668-972a-a708cbfbde57","system_id":"levelo_inurba_marseille","lat":43.2968,"lon":5.37291,"is_reserved":false,"is_disabled":false,"rental_uris":{"android":"levelo://app?vid=c46fe14d-25d4-4668-972a-a708cbfbde57","ios":"levelo://app?vid=c46fe14d-25d4-4668-972a-a708cbfbde57"},"vehicle_type_id":"4","last_reported":1720199285,"current_range_meters":19600,"station_id":"ce4bgk12rcd13ifvqbj0","pricing_plan_id":"cebpf4jnsgd1na2vs0mg"},{"bike_id":"b0f43224-b28b-4e0a-989a-863079de3908","system_id":"levelo_inurba_marseille","lat":43.296306,"lon":5.36719,"is_reserved":false,"is_disabled":false,"rental_uris":{"android":"levelo://app?vid=b0f43224-b28b-4e0a-989a-863079de3908","ios":"levelo://app?vid=b0f43224-b28b-4e0a-989a-863079de3908"},"vehicle_type_id":"4","last_reported":1720199285,"current_range_meters":20800,"station_id":"","pricing_plan_id":"cebpf4jnsgd1na2vs0mg"},{"bike_id":"280525b4-850d-4349-9c72-4f70d3424eeb","system_id":"levelo_inurba_marseille","lat":43.32728,"lon":5.37848,"is_reserved":false,"is_disabled":false,"rental_uris":{"android":"levelo://app?vid=280525b4-850d-4349-9c72-4f70d3424eeb","ios":"levelo://app?vid=280525b4-850d-4349-9c72-4f70d3424eeb"},"vehicle_type_id":"4","last_reported":1720199285,"current_range_meters":9200,"station_id":"","pricing_plan_id":"cebpf4jnsgd1na2vs0mg"},{"bike_id":"9ada5cfb-1c0f-4e29-9066-6c3b83387a2e","system_id":"levelo_inurba_marseille","lat":43.296131,"lon":5.370791,"is_reserved":false,"is_disabled":false,"rental_uris":{"android":"levelo://app?vid=9ada5cfb-1c0f-4e29-9066-6c3b83387a2e","ios":"levelo://app?vid=9ada5cfb-1c0f-4e29-9066-6c3b83387a2e"},"vehicle_type_id":"4","last_reported":1720199285,"current_range_meters":0,"station_id":"ce4bgnh2rcd13ifvqc0g","pricing_plan_id":"cebpf4jnsgd1na2vs0mg"},{"bike_id":"7ae78e7c-74ca-4a39-8931-0ed37ff37e2f","system_id":"levelo_inurba_marseille","lat":43.297163,"lon":5.365866,"is_reserved":false,"is_disabled":false,"rental_uris":{"android":"levelo://app?vid=7ae78e7c-74ca-4a39-8931-0ed37ff37e2f","ios":"levelo://app?vid=7ae78e7c-74ca-4a39-8931-0ed37ff37e2f"},"vehicle_type_id":"4","last_reported":1720199285,"current_range_meters":18000,"station_id":"ce4bgn12rcd13ifvqbt0","pricing_plan_id":"cebpf4jnsgd1na2vs0mg"},{"bike_id":"7b780134-307b-491f-8298-7d2b08e02d9d","system_id":"levelo_inurba_marseille","lat":43.309589,"lon":5.390258,"is_reserved":false,"is_disabled":false,"rental_uris":{"android":"levelo://app?vid=7b780134-307b-491f-8298-7d2b08e02d9d","ios":"levelo://app?vid=7b780134-307b-491f-8298-7d2b08e02d9d"},"vehicle_type_id":"4","last_reported":1720199285,"current_range_meters":24800,"station_id":"ce4bgup2rcd13ifvqco0","pricing_plan_id":"cebpf4jnsgd1na2vs0mg"},{"bike_id":"5f1abacc-515d-4544-9bf7-38375b55b1ea","system_id":"levelo_inurba_marseille","lat":43.309589,"lon":5.390258,"is_reserved":false,"is_disabled":false,"rental_uris":{"android":"levelo://app?vid=5f1abacc-515d-4544-9bf7-38375b55b1ea","ios":"levelo://app?vid=5f1abacc-515d-4544-9bf7-38375b55b1ea"},"vehicle_type_id":"4","last_reported":1720199285,"current_range_meters":23200,"station_id":"ce4bgup2rcd13ifvqco0","pricing_plan_id":"cebpf4jnsgd1na2vs0mg"},{"bike_id":"c4cf5796-244d-4d16-ab55-52595cfb8c8b","system_id":"levelo_inurba_marseille","lat":43.29579,"lon":5.37516,"is_reserved":false,"is_disabled":false,"rental_uris":{"android":"levelo://app?vid=c4cf5796-244d-4d16-ab55-52595cfb8c8b","ios":"levelo://app?vid=c4cf5796-244d-4d16-ab55-52595cfb8c8b"},"vehicle_type_id":"4","last_reported":1720199285,"current_range_meters":18800,"station_id":"ce4bgh92rcd13ifvqb50","pricing_plan_id":"cebpf4jnsgd1na2vs0mg"},{"bike_id":"5632396d-39bb-4dd0-b352-1ae6730e4154","system_id":"levelo_inurba_marseille","lat":43.29572,"lon":5.37513,"is_reserved":false,"is_disabled":false,"rental_uris":{"android":"levelo://app?vid=5632396d-39bb-4dd0-b352-1ae6730e4154","ios":"levelo://app?vid=5632396d-39bb-4dd0-b352-1ae6730e4154"},"vehicle_type_id":"4","last_reported":1720199285,"current_range_meters":28400,"station_id":"ce4bgh92rcd13ifvqb50","pricing_plan_id":"cebpf4jnsgd1na2vs0mg"},{"bike_id":"1382be60-36ba-4586-9f56-3d1fd56e7367","system_id":"levelo_inurba_marseille","lat":43.304278,"lon":5.388868,"is_reserved":false,"is_disabled":false,"rental_uris":{"android":"levelo://app?vid=1382be60-36ba-4586-9f56-3d1fd56e7367","ios":"levelo://app?vid=1382be60-36ba-4586-9f56-3d1fd56e7367"},"vehicle_type_id":"4","last_reported":1720199285,"current_range_meters":12400,"station_id":"ce4bgk12rcd13ifvqbi0","pricing_plan_id":"cebpf4jnsgd1na2vs0mg"},{"bike_id":"1e55bb4b-126e-4305-8b30-ee896722c2b5","system_id":"levelo_inurba_marseille","lat":43.29523,"lon":5.37493,"is_reserved":false,"is_disabled":false,"rental_uris":{"android":"levelo://app?vid=1e55bb4b-126e-4305-8b30-ee896722c2b5","ios":"levelo://app?vid=1e55bb4b-126e-4305-8b30-ee896722c2b5"},"vehicle_type_id":"4","last_reported":1720199285,"current_range_meters":0,"station_id":"","pricing_plan_id":"cebpf4jnsgd1na2vs0mg"},{"bike_id":"f60d6b60-ec93-4c1f-8fce-996a19c89bd3","system_id":"levelo_inurba_marseille","lat":43.299717,"lon":5.384845,"is_reserved":false,"is_disabled":false,"rental_uris":{"android":"levelo://app?vid=f60d6b60-ec93-4c1f-8fce-996a19c89bd3","ios":"levelo://app?vid=f60d6b60-ec93-4c1f-8fce-996a19c89bd3"},"vehicle_type_id":"4","last_reported":1720199285,"current_range_meters":0,"station_id":"ce4bgj92rcd13ifvqbd0","pricing_plan_id":"cebpf4jnsgd1na2vs0mg"},{"bike_id":"1249b1fd-b1f0-4d26-a5eb-6fae511006d6","system_id":"levelo_inurba_marseille","lat":43.299724,"lon":5.384848,"is_reserved":false,"is_disabled":false,"rental_uris":{"android":"levelo://app?vid=1249b1fd-b1f0-4d26-a5eb-6fae511006d6","ios":"levelo://app?vid=1249b1fd-b1f0-4d26-a5eb-6fae511006d6"},"vehicle_type_id":"4","last_reported":1720199285,"current_range_meters":24800,"station_id":"ce4bgj92rcd13ifvqbd0","pricing_plan_id":"cebpf4jnsgd1na2vs0mg"},{"bike_id":"37acb51e-be68-4409-a673-8c4d37091196","system_id":"levelo_inurba_marseille","lat":43.29518,"lon":5.37519,"is_reserved":false,"is_disabled":false,"rental_uris":{"android":"levelo://app?vid=37acb51e-be68-4409-a673-8c4d37091196","ios":"levelo://app?vid=37acb51e-be68-4409-a673-8c4d37091196"},"vehicle_type_id":"4","last_reported":1720199285,"current_range_meters":0,"station_id":"ce4bgkp2rcd13ifvqbmg","pricing_plan_id":"cebpf4jnsgd1na2vs0mg"},{"bike_id":"970c4456-8dcb-430d-b1e4-3f02b9f019b0","system_id":"levelo_inurba_marseille","lat":43.301396,"lon":5.387812,"is_reserved":false,"is_disabled":false,"rental_uris":{"android":"levelo://app?vid=970c4456-8dcb-430d-b1e4-3f02b9f019b0","ios":"levelo://app?vid=970c4456-8dcb-430d-b1e4-3f02b9f019b0"},"vehicle_type_id":"4","last_reported":1720199285,"current_range_meters":0,"station_id":"ce4bghh2rcd13ifvqb60","pricing_plan_id":"cebpf4jnsgd1na2vs0mg"},{"bike_id":"7da2dcab-7ff2-4e53-a024-f6ba789044b3","system_id":"levelo_inurba_marseille","lat":43.30135,"lon":5.3879,"is_reserved":false,"is_disabled":false,"rental_uris":{"android":"levelo://app?vid=7da2dcab-7ff2-4e53-a024-f6ba789044b3","ios":"levelo://app?vid=7da2dcab-7ff2-4e53-a024-f6ba789044b3"},"vehicle_type_id":"4","last_reported":1720199285,"current_range_meters":31600,"station_id":"ce4bghh2rcd13ifvqb60","pricing_plan_id":"cebpf4jnsgd1na2vs0mg"},{"bike_id":"703e14ca-d678-45c0-a0bf-cea46d267c56","system_id":"levelo_inurba_marseille","lat":43.32367,"lon":5.388836,"is_reserved":false,"is_disabled":false,"rental_uris":{"android":"levelo://app?vid=703e14ca-d678-45c0-a0bf-cea46d267c56","ios":"levelo://app?vid=703e14ca-d678-45c0-a0bf-cea46d267c56"},"vehicle_type_id":"4","last_reported":1720199285,"current_range_meters":0,"station_id":"ce4bhqp2rcd13ifvqhog","pricing_plan_id":"cebpf4jnsgd1na2vs0mg"},{"bike_id":"32248d26-6795-4c25-a05b-1f85f60aa7a2","system_id":"levelo_inurba_marseille","lat":43.29601,"lon":5.381084,"is_reserved":false,"is_disabled":false,"rental_uris":{"android":"levelo://app?vid=32248d26-6795-4c25-a05b-1f85f60aa7a2","ios":"levelo://app?vid=32248d26-6795-4c25-a05b-1f85f60aa7a2"},"vehicle_type_id":"4","last_reported":1720199285,"current_range_meters":6800,"station_id":"ce4bgl12rcd13ifvqbo0","pricing_plan_id":"cebpf4jnsgd1na2vs0mg"},{"bike_id":"93317759-a9a8-4cc1-9778-f987ee794907","system_id":"levelo_inurba_marseille","lat":43.29601,"lon":5.381084,"is_reserved":false,"is_disabled":false,"rental_uris":{"android":"levelo://app?vid=93317759-a9a8-4cc1-9778-f987ee794907","ios":"levelo://app?vid=93317759-a9a8-4cc1-9778-f987ee794907"},"vehicle_type_id":"4","last_reported":1720199285,"current_range_meters":24000,"station_id":"ce4bgl12rcd13ifvqbo0","pricing_plan_id":"cebpf4jnsgd1na2vs0mg"},{"bike_id":"90b5dcdb-1c12-4754-8521-a8dfc5e61781","system_id":"levelo_inurba_marseille","lat":43.29601,"lon":5.381084,"is_reserved":false,"is_disabled":false,"rental_uris":{"android":"levelo://app?vid=90b5dcdb-1c12-4754-8521-a8dfc5e61781","ios":"levelo://app?vid=90b5dcdb-1c12-4754-8521-a8dfc5e61781"},"vehicle_type_id":"4","last_reported":1720199285,"current_range_meters":30800,"station_id":"ce4bgl12rcd13ifvqbo0","pricing_plan_id":"cebpf4jnsgd1na2vs0mg"},{"bike_id":"44202f41-bdf4-40c4-b3f6-213961ce2b3f","system_id":"levelo_inurba_marseille","lat":43.29602,"lon":5.381084,"is_reserved":false,"is_disabled":false,"rental_uris":{"android":"levelo://app?vid=44202f41-bdf4-40c4-b3f6-213961ce2b3f","ios":"levelo://app?vid=44202f41-bdf4-40c4-b3f6-213961ce2b3f"},"vehicle_type_id":"4","last_reported":1720199285,"current_range_meters":9600,"station_id":"ce4bgl12rcd13ifvqbo0","pricing_plan_id":"cebpf4jnsgd1na2vs0mg"},{"bike_id":"0be4c52d-20f8-46f1-b5c6-c8dc1f8b9ee9","system_id":"levelo_inurba_marseille","lat":43.29593,"lon":5.38108,"is_reserved":false,"is_disabled":false,"rental_uris":{"android":"levelo://app?vid=0be4c52d-20f8-46f1-b5c6-c8dc1f8b9ee9","ios":"levelo://app?vid=0be4c52d-20f8-46f1-b5c6-c8dc1f8b9ee9"},"vehicle_type_id":"4","last_reported":1720199285,"current_range_meters":0,"station_id":"ce4bgl12rcd13ifvqbo0","pricing_plan_id":"cebpf4jnsgd1na2vs0mg"},{"bike_id":"6ae7b72c-49f9-472f-9fc7-be56d8ac7737","system_id":"levelo_inurba_marseille","lat":43.295885,"lon":5.381015,"is_reserved":false,"is_disabled":false,"rental_uris":{"android":"levelo://app?vid=6ae7b72c-49f9-472f-9fc7-be56d8ac7737","ios":"levelo://app?vid=6ae7b72c-49f9-472f-9fc7-be56d8ac7737"},"vehicle_type_id":"4","last_reported":1720199285,"current_range_meters":31200,"station_id":"ce4bgl12rcd13ifvqbo0","pricing_plan_id":"cebpf4jnsgd1na2vs0mg"},{"bike_id":"16c5a607-f8b5-41c5-b3c0-18b6fe4b9685","system_id":"levelo_inurba_marseille","lat":43.29601,"lon":5.381084,"is_reserved":false,"is_disabled":false,"rental_uris":{"android":"levelo://app?vid=16c5a607-f8b5-41c5-b3c0-18b6fe4b9685","ios":"levelo://app?vid=16c5a607-f8b5-41c5-b3c0-18b6fe4b9685"},"vehicle_type_id":"4","last_reported":1720199285,"current_range_meters":12000,"station_id":"ce4bgl12rcd13ifvqbo0","pricing_plan_id":"cebpf4jnsgd1na2vs0mg"},{"bike_id":"09aca2b1-d0b7-46d2-97c4-d88d1a006823","system_id":"levelo_inurba_marseille","lat":43.2958,"lon":5.38115,"is_reserved":false,"is_disabled":false,"rental_uris":{"android":"levelo://app?vid=09aca2b1-d0b7-46d2-97c4-d88d1a006823","ios":"levelo://app?vid=09aca2b1-d0b7-46d2-97c4-d88d1a006823"},"vehicle_type_id":"4","last_reported":1720199285,"current_range_meters":18800,"station_id":"","pricing_plan_id":"cebpf4jnsgd1na2vs0mg"},{"bike_id":"b70c9775-d71a-43ac-a56a-c1d7a6ff019b","system_id":"levelo_inurba_marseille","lat":43.29306,"lon":5.37161,"is_reserved":false,"is_disabled":false,"rental_uris":{"android":"levelo://app?vid=b70c9775-d71a-43ac-a56a-c1d7a6ff019b","ios":"levelo://app?vid=b70c9775-d71a-43ac-a56a-c1d7a6ff019b"},"vehicle_type_id":"4","last_reported":1720199285,"current_range_meters":800,"station_id":"ce4bgh92rcd13ifvqb40","pricing_plan_id":"cebpf4jnsgd1na2vs0mg"},{"bike_id":"3485aa8c-b94f-4ea9-b5ea-a54972879af5","system_id":"levelo_inurba_marseille","lat":43.292749,"lon":5.368398,"is_reserved":false,"is_disabled":false,"rental_uris":{"android":"levelo://app?vid=3485aa8c-b94f-4ea9-b5ea-a54972879af5","ios":"levelo://app?vid=3485aa8c-b94f-4ea9-b5ea-a54972879af5"},"vehicle_type_id":"4","last_reported":1720199285,"current_range_meters":13200,"station_id":"ce4bhbp2rcd13ifvqesg","pricing_plan_id":"cebpf4jnsgd1na2vs0mg"},{"bike_id":"e8c22482-9319-4a68-9869-c1463180d575","system_id":"levelo_inurba_marseille","lat":43.29303,"lon":5.37169,"is_reserved":false,"is_disabled":false,"rental_uris":{"android":"levelo://app?vid=e8c22482-9319-4a68-9869-c1463180d575","ios":"levelo://app?vid=e8c22482-9319-4a68-9869-c1463180d575"},"vehicle_type_id":"4","last_reported":1720199285,"current_range_meters":20000,"station_id":"ce4bgh92rcd13ifvqb40","pricing_plan_id":"cebpf4jnsgd1na2vs0mg"},{"bike_id":"ac30dfb0-a92c-40c5-bb28-dca653b82adc","system_id":"levelo_inurba_marseille","lat":43.292749,"lon":5.368402,"is_reserved":false,"is_disabled":false,"rental_uris":{"android":"levelo://app?vid=ac30dfb0-a92c-40c5-bb28-dca653b82adc","ios":"levelo://app?vid=ac30dfb0-a92c-40c5-bb28-dca653b82adc"},"vehicle_type_id":"4","last_reported":1720199285,"current_range_meters":26800,"station_id":"ce4bhbp2rcd13ifvqesg","pricing_plan_id":"cebpf4jnsgd1na2vs0mg"},{"bike_id":"26f5aae0-2053-4d9a-b590-e9a1a59ef332","system_id":"levelo_inurba_marseille","lat":43.29302,"lon":5.37169,"is_reserved":false,"is_disabled":false,"rental_uris":{"android":"levelo://app?vid=26f5aae0-2053-4d9a-b590-e9a1a59ef332","ios":"levelo://app?vid=26f5aae0-2053-4d9a-b590-e9a1a59ef332"},"vehicle_type_id":"4","last_reported":1720199285,"current_range_meters":28800,"station_id":"ce4bgh92rcd13ifvqb40","pricing_plan_id":"cebpf4jnsgd1na2vs0mg"},{"bike_id":"c36c118b-c301-4a88-b1f3-2109683ec14c","system_id":"levelo_inurba_marseille","lat":43.29299,"lon":5.37173,"is_reserved":false,"is_disabled":false,"rental_uris":{"android":"levelo://app?vid=c36c118b-c301-4a88-b1f3-2109683ec14c","ios":"levelo://app?vid=c36c118b-c301-4a88-b1f3-2109683ec14c"},"vehicle_type_id":"4","last_reported":1720199285,"current_range_meters":400,"station_id":"ce4bgh92rcd13ifvqb40","pricing_plan_id":"cebpf4jnsgd1na2vs0mg"},{"bike_id":"a8dce01e-3354-4f06-b822-ea7269b57d0d","system_id":"levelo_inurba_marseille","lat":43.29305,"lon":5.37442,"is_reserved":false,"is_disabled":false,"rental_uris":{"android":"levelo://app?vid=a8dce01e-3354-4f06-b822-ea7269b57d0d","ios":"levelo://app?vid=a8dce01e-3354-4f06-b822-ea7269b57d0d"},"vehicle_type_id":"4","last_reported":1720199285,"current_range_meters":25600,"station_id":"ce4bgi12rcd13ifvqb70","pricing_plan_id":"cebpf4jnsgd1na2vs0mg"},{"bike_id":"2b8eb56f-2af3-44bf-ad5e-57f5f934dee6","system_id":"levelo_inurba_marseille","lat":43.29304,"lon":5.37453,"is_reserved":false,"is_disabled":false,"rental_uris":{"android":"levelo://app?vid=2b8eb56f-2af3-44bf-ad5e-57f5f934dee6","ios":"levelo://app?vid=2b8eb56f-2af3-44bf-ad5e-57f5f934dee6"},"vehicle_type_id":"4","last_reported":1720199285,"current_range_meters":2000,"station_id":"ce4bgi12rcd13ifvqb70","pricing_plan_id":"cebpf4jnsgd1na2vs0mg"},{"bike_id":"844ee522-dc77-4315-bd37-dd4253375bdc","system_id":"levelo_inurba_marseille","lat":43.29302,"lon":5.37448,"is_reserved":false,"is_disabled":false,"rental_uris":{"android":"levelo://app?vid=844ee522-dc77-4315-bd37-dd4253375bdc","ios":"levelo://app?vid=844ee522-dc77-4315-bd37-dd4253375bdc"},"vehicle_type_id":"4","last_reported":1720199285,"current_range_meters":31600,"station_id":"ce4bgi12rcd13ifvqb70","pricing_plan_id":"cebpf4jnsgd1na2vs0mg"},{"bike_id":"c1964640-8a44-4fb4-8f36-14f3cafe6760","system_id":"levelo_inurba_marseille","lat":43.29306,"lon":5.37468,"is_reserved":false,"is_disabled":false,"rental_uris":{"android":"levelo://app?vid=c1964640-8a44-4fb4-8f36-14f3cafe6760","ios":"levelo://app?vid=c1964640-8a44-4fb4-8f36-14f3cafe6760"},"vehicle_type_id":"4","last_reported":1720199285,"current_range_meters":19200,"station_id":"ce4bgi12rcd13ifvqb70","pricing_plan_id":"cebpf4jnsgd1na2vs0mg"},{"bike_id":"fe987be6-7cdc-4e96-bfc4-ad7d363c479f","system_id":"levelo_inurba_marseille","lat":43.293009,"lon":5.374584,"is_reserved":false,"is_disabled":false,"rental_uris":{"android":"levelo://app?vid=fe987be6-7cdc-4e96-bfc4-ad7d363c479f","ios":"levelo://app?vid=fe987be6-7cdc-4e96-bfc4-ad7d363c479f"},"vehicle_type_id":"4","last_reported":1720199285,"current_range_meters":24400,"station_id":"ce4bgi12rcd13ifvqb70","pricing_plan_id":"cebpf4jnsgd1na2vs0mg"},{"bike_id":"d5398ed5-b02c-4b31-af15-36be81607a93","system_id":"levelo_inurba_marseille","lat":43.293031,"lon":5.374605,"is_reserved":false,"is_disabled":false,"rental_uris":{"android":"levelo://app?vid=d5398ed5-b02c-4b31-af15-36be81607a93","ios":"levelo://app?vid=d5398ed5-b02c-4b31-af15-36be81607a93"},"vehicle_type_id":"4","last_reported":1720199285,"current_range_meters":17600,"station_id":"ce4bgi12rcd13ifvqb70","pricing_plan_id":"cebpf4jnsgd1na2vs0mg"},{"bike_id":"1987670a-e2ac-40c2-830b-67b32ef6fd91","system_id":"levelo_inurba_marseille","lat":43.29301,"lon":5.37459,"is_reserved":false,"is_disabled":false,"rental_uris":{"android":"levelo://app?vid=1987670a-e2ac-40c2-830b-67b32ef6fd91","ios":"levelo://app?vid=1987670a-e2ac-40c2-830b-67b32ef6fd91"},"vehicle_type_id":"4","last_reported":1720199285,"current_range_meters":0,"station_id":"ce4bgi12rcd13ifvqb70","pricing_plan_id":"cebpf4jnsgd1na2vs0mg"},{"bike_id":"934b26c4-8c8c-49cf-a1bd-5bc91fab7f56","system_id":"levelo_inurba_marseille","lat":43.293,"lon":5.37459,"is_reserved":false,"is_disabled":false,"rental_uris":{"android":"levelo://app?vid=934b26c4-8c8c-49cf-a1bd-5bc91fab7f56","ios":"levelo://app?vid=934b26c4-8c8c-49cf-a1bd-5bc91fab7f56"},"vehicle_type_id":"4","last_reported":1720199285,"current_range_meters":23600,"station_id":"ce4bgi12rcd13ifvqb70","pricing_plan_id":"cebpf4jnsgd1na2vs0mg"},{"bike_id":"40d784de-86d4-45fd-82a1-fa6b1ce4d8e7","system_id":"levelo_inurba_marseille","lat":43.305994,"lon":5.393687,"is_reserved":false,"is_disabled":false,"rental_uris":{"android":"levelo://app?vid=40d784de-86d4-45fd-82a1-fa6b1ce4d8e7","ios":"levelo://app?vid=40d784de-86d4-45fd-82a1-fa6b1ce4d8e7"},"vehicle_type_id":"4","last_reported":1720199285,"current_range_meters":0,"station_id":"ce4bh0p2rcd13ifvqd80","pricing_plan_id":"cebpf4jnsgd1na2vs0mg"},{"bike_id":"0bad1949-f082-4ff0-b360-6caa858321db","system_id":"levelo_inurba_marseille","lat":43.29287,"lon":5.37455,"is_reserved":false,"is_disabled":false,"rental_uris":{"android":"levelo://app?vid=0bad1949-f082-4ff0-b360-6caa858321db","ios":"levelo://app?vid=0bad1949-f082-4ff0-b360-6caa858321db"},"vehicle_type_id":"4","last_reported":1720199285,"current_range_meters":31200,"station_id":"ce4bgi12rcd13ifvqb70","pricing_plan_id":"cebpf4jnsgd1na2vs0mg"},{"bike_id":"d592a13d-4186-4aab-9e44-ecfde5796a79","system_id":"levelo_inurba_marseille","lat":43.2929,"lon":5.37471,"is_reserved":false,"is_disabled":false,"rental_uris":{"android":"levelo://app?vid=d592a13d-4186-4aab-9e44-ecfde5796a79","ios":"levelo://app?vid=d592a13d-4186-4aab-9e44-ecfde5796a79"},"vehicle_type_id":"4","last_reported":1720199285,"current_range_meters":30800,"station_id":"ce4bgi12rcd13ifvqb70","pricing_plan_id":"cebpf4jnsgd1na2vs0mg"},{"bike_id":"1145cc68-6cfa-4aa5-9975-0ceac20f0c4c","system_id":"levelo_inurba_marseille","lat":43.302992,"lon":5.392136,"is_reserved":false,"is_disabled":false,"rental_uris":{"android":"levelo://app?vid=1145cc68-6cfa-4aa5-9975-0ceac20f0c4c","ios":"levelo://app?vid=1145cc68-6cfa-4aa5-9975-0ceac20f0c4c"},"vehicle_type_id":"4","last_reported":1720199285,"current_range_meters":800,"station_id":"ce4bgkh2rcd13ifvqbk0","pricing_plan_id":"cebpf4jnsgd1na2vs0mg"},{"bike_id":"f6f63a0e-c511-45ba-9860-7558ecb52922","system_id":"levelo_inurba_marseille","lat":43.302992,"lon":5.392136,"is_reserved":false,"is_disabled":false,"rental_uris":{"android":"levelo://app?vid=f6f63a0e-c511-45ba-9860-7558ecb52922","ios":"levelo://app?vid=f6f63a0e-c511-45ba-9860-7558ecb52922"},"vehicle_type_id":"4","last_reported":1720199285,"current_range_meters":11600,"station_id":"ce4bgkh2rcd13ifvqbk0","pricing_plan_id":"cebpf4jnsgd1na2vs0mg"},{"bike_id":"0b2c464d-2a10-406a-b358-ca8d7d8cb7cf","system_id":"levelo_inurba_marseille","lat":43.2936,"lon":5.37835,"is_reserved":false,"is_disabled":false,"rental_uris":{"android":"levelo://app?vid=0b2c464d-2a10-406a-b358-ca8d7d8cb7cf","ios":"levelo://app?vid=0b2c464d-2a10-406a-b358-ca8d7d8cb7cf"},"vehicle_type_id":"4","last_reported":1720199285,"current_range_meters":14400,"station_id":"ce4bgjh2rcd13ifvqbf0","pricing_plan_id":"cebpf4jnsgd1na2vs0mg"},{"bike_id":"2dab0def-f5b9-400f-8bf4-5701f54ccc6e","system_id":"levelo_inurba_marseille","lat":43.302992,"lon":5.392136,"is_reserved":false,"is_disabled":false,"rental_uris":{"android":"levelo://app?vid=2dab0def-f5b9-400f-8bf4-5701f54ccc6e","ios":"levelo://app?vid=2dab0def-f5b9-400f-8bf4-5701f54ccc6e"},"vehicle_type_id":"4","last_reported":1720199285,"current_range_meters":16400,"station_id":"ce4bgkh2rcd13ifvqbk0","pricing_plan_id":"cebpf4jnsgd1na2vs0mg"},{"bike_id":"98665185-9cb9-4aad-a65d-2db10213e4b3","system_id":"levelo_inurba_marseille","lat":43.292311,"lon":5.360731,"is_reserved":false,"is_disabled":false,"rental_uris":{"android":"levelo://app?vid=98665185-9cb9-4aad-a65d-2db10213e4b3","ios":"levelo://app?vid=98665185-9cb9-4aad-a65d-2db10213e4b3"},"vehicle_type_id":"4","last_reported":1720199285,"current_range_meters":1600,"station_id":"ce4bhbh2rcd13ifvqeqg","pricing_plan_id":"cebpf4jnsgd1na2vs0mg"},{"bike_id":"00122f43-5ad7-471a-a47d-a316ad9c0d96","system_id":"levelo_inurba_marseille","lat":43.292311,"lon":5.360731,"is_reserved":false,"is_disabled":false,"rental_uris":{"android":"levelo://app?vid=00122f43-5ad7-471a-a47d-a316ad9c0d96","ios":"levelo://app?vid=00122f43-5ad7-471a-a47d-a316ad9c0d96"},"vehicle_type_id":"4","last_reported":1720199285,"current_range_meters":3600,"station_id":"ce4bhbh2rcd13ifvqeqg","pricing_plan_id":"cebpf4jnsgd1na2vs0mg"},{"bike_id":"8a0b3f41-0f54-41d9-87ff-f5a939ea2048","system_id":"levelo_inurba_marseille","lat":43.29225,"lon":5.36061,"is_reserved":false,"is_disabled":false,"rental_uris":{"android":"levelo://app?vid=8a0b3f41-0f54-41d9-87ff-f5a939ea2048","ios":"levelo://app?vid=8a0b3f41-0f54-41d9-87ff-f5a939ea2048"},"vehicle_type_id":"4","last_reported":1720199285,"current_range_meters":22800,"station_id":"ce4bhbh2rcd13ifvqeqg","pricing_plan_id":"cebpf4jnsgd1na2vs0mg"},{"bike_id":"ff628309-3b84-4b30-ab82-a8d1c2c467bb","system_id":"levelo_inurba_marseille","lat":43.292311,"lon":5.360731,"is_reserved":false,"is_disabled":false,"rental_uris":{"android":"levelo://app?vid=ff628309-3b84-4b30-ab82-a8d1c2c467bb","ios":"levelo://app?vid=ff628309-3b84-4b30-ab82-a8d1c2c467bb"},"vehicle_type_id":"4","last_reported":1720199285,"current_range_meters":12400,"station_id":"ce4bhbh2rcd13ifvqeqg","pricing_plan_id":"cebpf4jnsgd1na2vs0mg"},{"bike_id":"dfa95bc7-300e-4d6e-b833-7874288ab9c4","system_id":"levelo_inurba_marseille","lat":43.292143,"lon":5.360547,"is_reserved":false,"is_disabled":false,"rental_uris":{"android":"levelo://app?vid=dfa95bc7-300e-4d6e-b833-7874288ab9c4","ios":"levelo://app?vid=dfa95bc7-300e-4d6e-b833-7874288ab9c4"},"vehicle_type_id":"4","last_reported":1720199285,"current_range_meters":0,"station_id":"ce4bhbh2rcd13ifvqeqg","pricing_plan_id":"cebpf4jnsgd1na2vs0mg"},{"bike_id":"66384173-b5ce-4b12-8dbd-40e62fd720c2","system_id":"levelo_inurba_marseille","lat":43.30085,"lon":5.390856,"is_reserved":false,"is_disabled":false,"rental_uris":{"android":"levelo://app?vid=66384173-b5ce-4b12-8dbd-40e62fd720c2","ios":"levelo://app?vid=66384173-b5ce-4b12-8dbd-40e62fd720c2"},"vehicle_type_id":"4","last_reported":1720199285,"current_range_meters":6400,"station_id":"ce4bh192rcd13ifvqdb0","pricing_plan_id":"cebpf4jnsgd1na2vs0mg"},{"bike_id":"42522a8c-7af6-47d8-a573-d5e165c64602","system_id":"levelo_inurba_marseille","lat":43.291671,"lon":5.371575,"is_reserved":false,"is_disabled":false,"rental_uris":{"android":"levelo://app?vid=42522a8c-7af6-47d8-a573-d5e165c64602","ios":"levelo://app?vid=42522a8c-7af6-47d8-a573-d5e165c64602"},"vehicle_type_id":"4","last_reported":1720199285,"current_range_meters":2400,"station_id":"ce4bha92rcd13ifvqeh0","pricing_plan_id":"cebpf4jnsgd1na2vs0mg"},{"bike_id":"c4e8b786-4712-4632-85c6-08f17374e543","system_id":"levelo_inurba_marseille","lat":43.291671,"lon":5.371575,"is_reserved":false,"is_disabled":false,"rental_uris":{"android":"levelo://app?vid=c4e8b786-4712-4632-85c6-08f17374e543","ios":"levelo://app?vid=c4e8b786-4712-4632-85c6-08f17374e543"},"vehicle_type_id":"4","last_reported":1720199285,"current_range_meters":800,"station_id":"ce4bha92rcd13ifvqeh0","pricing_plan_id":"cebpf4jnsgd1na2vs0mg"},{"bike_id":"9bc96312-3f03-4e23-b0d7-d43bc0752bb8","system_id":"levelo_inurba_marseille","lat":43.292005,"lon":5.357875,"is_reserved":false,"is_disabled":false,"rental_uris":{"android":"levelo://app?vid=9bc96312-3f03-4e23-b0d7-d43bc0752bb8","ios":"levelo://app?vid=9bc96312-3f03-4e23-b0d7-d43bc0752bb8"},"vehicle_type_id":"4","last_reported":1720199285,"current_range_meters":800,"station_id":"ce4bhb12rcd13ifvqel0","pricing_plan_id":"cebpf4jnsgd1na2vs0mg"},{"bike_id":"b8f1aea1-a709-4dd8-8c87-32a81ad15c07","system_id":"levelo_inurba_marseille","lat":43.291994,"lon":5.357886,"is_reserved":false,"is_disabled":false,"rental_uris":{"android":"levelo://app?vid=b8f1aea1-a709-4dd8-8c87-32a81ad15c07","ios":"levelo://app?vid=b8f1aea1-a709-4dd8-8c87-32a81ad15c07"},"vehicle_type_id":"4","last_reported":1720199285,"current_range_meters":0,"station_id":"ce4bhb12rcd13ifvqel0","pricing_plan_id":"cebpf4jnsgd1na2vs0mg"},{"bike_id":"3731d47f-a27d-4d46-bdab-72ee1ad6982e","system_id":"levelo_inurba_marseille","lat":43.291994,"lon":5.357886,"is_reserved":false,"is_disabled":false,"rental_uris":{"android":"levelo://app?vid=3731d47f-a27d-4d46-bdab-72ee1ad6982e","ios":"levelo://app?vid=3731d47f-a27d-4d46-bdab-72ee1ad6982e"},"vehicle_type_id":"4","last_reported":1720199285,"current_range_meters":2800,"station_id":"ce4bhb12rcd13ifvqel0","pricing_plan_id":"cebpf4jnsgd1na2vs0mg"},{"bike_id":"f9998228-7d2a-4891-beb6-573706abad9b","system_id":"levelo_inurba_marseille","lat":43.309047,"lon":5.396551,"is_reserved":false,"is_disabled":false,"rental_uris":{"android":"levelo://app?vid=f9998228-7d2a-4891-beb6-573706abad9b","ios":"levelo://app?vid=f9998228-7d2a-4891-beb6-573706abad9b"},"vehicle_type_id":"4","last_reported":1720199285,"current_range_meters":2400,"station_id":"ce4bh012rcd13ifvqcv0","pricing_plan_id":"cebpf4jnsgd1na2vs0mg"},{"bike_id":"1489bb94-cffe-42d6-8004-ca530319f001","system_id":"levelo_inurba_marseille","lat":43.313291,"lon":5.396838,"is_reserved":false,"is_disabled":false,"rental_uris":{"android":"levelo://app?vid=1489bb94-cffe-42d6-8004-ca530319f001","ios":"levelo://app?vid=1489bb94-cffe-42d6-8004-ca530319f001"},"vehicle_type_id":"4","last_reported":1720199285,"current_range_meters":3200,"station_id":"ce4bgvp2rcd13ifvqcu0","pricing_plan_id":"cebpf4jnsgd1na2vs0mg"},{"bike_id":"ff91f3d8-1e79-4f0d-8851-02e9d10e25e7","system_id":"levelo_inurba_marseille","lat":43.309038,"lon":5.396546,"is_reserved":false,"is_disabled":false,"rental_uris":{"android":"levelo://app?vid=ff91f3d8-1e79-4f0d-8851-02e9d10e25e7","ios":"levelo://app?vid=ff91f3d8-1e79-4f0d-8851-02e9d10e25e7"},"vehicle_type_id":"4","last_reported":1720199285,"current_range_meters":10000,"station_id":"ce4bh012rcd13ifvqcv0","pricing_plan_id":"cebpf4jnsgd1na2vs0mg"},{"bike_id":"8a2f7a54-197b-4d1c-89b9-788e99884b5b","system_id":"levelo_inurba_marseille","lat":43.309047,"lon":5.396551,"is_reserved":false,"is_disabled":false,"rental_uris":{"android":"levelo://app?vid=8a2f7a54-197b-4d1c-89b9-788e99884b5b","ios":"levelo://app?vid=8a2f7a54-197b-4d1c-89b9-788e99884b5b"},"vehicle_type_id":"4","last_reported":1720199285,"current_range_meters":3200,"station_id":"ce4bh012rcd13ifvqcv0","pricing_plan_id":"cebpf4jnsgd1na2vs0mg"},{"bike_id":"58c83893-b4cd-4eb1-906a-368c4b60e8bd","system_id":"levelo_inurba_marseille","lat":43.313291,"lon":5.396838,"is_reserved":false,"is_disabled":false,"rental_uris":{"android":"levelo://app?vid=58c83893-b4cd-4eb1-906a-368c4b60e8bd","ios":"levelo://app?vid=58c83893-b4cd-4eb1-906a-368c4b60e8bd"},"vehicle_type_id":"4","last_reported":1720199285,"current_range_meters":4800,"station_id":"ce4bgvp2rcd13ifvqcu0","pricing_plan_id":"cebpf4jnsgd1na2vs0mg"},{"bike_id":"4d2bbdf9-5d7a-4fa2-bf27-fe248680be04","system_id":"levelo_inurba_marseille","lat":43.292005,"lon":5.357875,"is_reserved":false,"is_disabled":false,"rental_uris":{"android":"levelo://app?vid=4d2bbdf9-5d7a-4fa2-bf27-fe248680be04","ios":"levelo://app?vid=4d2bbdf9-5d7a-4fa2-bf27-fe248680be04"},"vehicle_type_id":"4","last_reported":1720199285,"current_range_meters":0,"station_id":"ce4bhb12rcd13ifvqel0","pricing_plan_id":"cebpf4jnsgd1na2vs0mg"},{"bike_id":"096fb28a-d1ce-4a14-9110-cde162180ff2","system_id":"levelo_inurba_marseille","lat":43.29531,"lon":5.38531,"is_reserved":false,"is_disabled":false,"rental_uris":{"android":"levelo://app?vid=096fb28a-d1ce-4a14-9110-cde162180ff2","ios":"levelo://app?vid=096fb28a-d1ce-4a14-9110-cde162180ff2"},"vehicle_type_id":"4","last_reported":1720199285,"current_range_meters":400,"station_id":"ce4bgih2rcd13ifvqba0","pricing_plan_id":"cebpf4jnsgd1na2vs0mg"},{"bike_id":"824cba30-5b44-4782-a456-d74bd63aa6d6","system_id":"levelo_inurba_marseille","lat":43.29535,"lon":5.38539,"is_reserved":false,"is_disabled":false,"rental_uris":{"android":"levelo://app?vid=824cba30-5b44-4782-a456-d74bd63aa6d6","ios":"levelo://app?vid=824cba30-5b44-4782-a456-d74bd63aa6d6"},"vehicle_type_id":"4","last_reported":1720199285,"current_range_meters":20400,"station_id":"ce4bgih2rcd13ifvqba0","pricing_plan_id":"cebpf4jnsgd1na2vs0mg"},{"bike_id":"749da511-b1dc-4457-9e34-6ebc826e3567","system_id":"levelo_inurba_marseille","lat":43.295327,"lon":5.38539,"is_reserved":false,"is_disabled":false,"rental_uris":{"android":"levelo://app?vid=749da511-b1dc-4457-9e34-6ebc826e3567","ios":"levelo://app?vid=749da511-b1dc-4457-9e34-6ebc826e3567"},"vehicle_type_id":"4","last_reported":1720199285,"current_range_meters":22000,"station_id":"ce4bgih2rcd13ifvqba0","pricing_plan_id":"cebpf4jnsgd1na2vs0mg"},{"bike_id":"67133372-01f9-4e07-8803-368687e28662","system_id":"levelo_inurba_marseille","lat":43.29533,"lon":5.38542,"is_reserved":false,"is_disabled":false,"rental_uris":{"android":"levelo://app?vid=67133372-01f9-4e07-8803-368687e28662","ios":"levelo://app?vid=67133372-01f9-4e07-8803-368687e28662"},"vehicle_type_id":"4","last_reported":1720199285,"current_range_meters":4400,"station_id":"ce4bgih2rcd13ifvqba0","pricing_plan_id":"cebpf4jnsgd1na2vs0mg"},{"bike_id":"4e47ad5b-3213-479a-be5b-850abafab79c","system_id":"levelo_inurba_marseille","lat":43.29526,"lon":5.38532,"is_reserved":false,"is_disabled":false,"rental_uris":{"android":"levelo://app?vid=4e47ad5b-3213-479a-be5b-850abafab79c","ios":"levelo://app?vid=4e47ad5b-3213-479a-be5b-850abafab79c"},"vehicle_type_id":"4","last_reported":1720199285,"current_range_meters":25200,"station_id":"ce4bgih2rcd13ifvqba0","pricing_plan_id":"cebpf4jnsgd1na2vs0mg"},{"bike_id":"78f397b6-52f8-40c7-b578-9395bf4fb963","system_id":"levelo_inurba_marseille","lat":43.29531,"lon":5.38542,"is_reserved":false,"is_disabled":false,"rental_uris":{"android":"levelo://app?vid=78f397b6-52f8-40c7-b578-9395bf4fb963","ios":"levelo://app?vid=78f397b6-52f8-40c7-b578-9395bf4fb963"},"vehicle_type_id":"4","last_reported":1720199285,"current_range_meters":15200,"station_id":"ce4bgih2rcd13ifvqba0","pricing_plan_id":"cebpf4jnsgd1na2vs0mg"},{"bike_id":"1a95ce8d-56b1-4014-be0c-02ba83489cc6","system_id":"levelo_inurba_marseille","lat":43.29534,"lon":5.38548,"is_reserved":false,"is_disabled":false,"rental_uris":{"android":"levelo://app?vid=1a95ce8d-56b1-4014-be0c-02ba83489cc6","ios":"levelo://app?vid=1a95ce8d-56b1-4014-be0c-02ba83489cc6"},"vehicle_type_id":"4","last_reported":1720199285,"current_range_meters":24800,"station_id":"ce4bgih2rcd13ifvqba0","pricing_plan_id":"cebpf4jnsgd1na2vs0mg"},{"bike_id":"78f2cbbe-913e-4652-a2aa-c2db92127fb1","system_id":"levelo_inurba_marseille","lat":43.2953,"lon":5.38547,"is_reserved":false,"is_disabled":false,"rental_uris":{"android":"levelo://app?vid=78f2cbbe-913e-4652-a2aa-c2db92127fb1","ios":"levelo://app?vid=78f2cbbe-913e-4652-a2aa-c2db92127fb1"},"vehicle_type_id":"4","last_reported":1720199285,"current_range_meters":14800,"station_id":"ce4bgih2rcd13ifvqba0","pricing_plan_id":"cebpf4jnsgd1na2vs0mg"},{"bike_id":"a937268c-192e-4721-9152-9691436f10fc","system_id":"levelo_inurba_marseille","lat":43.29529,"lon":5.38546,"is_reserved":false,"is_disabled":false,"rental_uris":{"android":"levelo://app?vid=a937268c-192e-4721-9152-9691436f10fc","ios":"levelo://app?vid=a937268c-192e-4721-9152-9691436f10fc"},"vehicle_type_id":"4","last_reported":1720199285,"current_range_meters":0,"station_id":"ce4bgih2rcd13ifvqba0","pricing_plan_id":"cebpf4jnsgd1na2vs0mg"},{"bike_id":"ca1f76b4-692b-49f8-a333-c9caf8f5aa6a","system_id":"levelo_inurba_marseille","lat":43.2953,"lon":5.38549,"is_reserved":false,"is_disabled":false,"rental_uris":{"android":"levelo://app?vid=ca1f76b4-692b-49f8-a333-c9caf8f5aa6a","ios":"levelo://app?vid=ca1f76b4-692b-49f8-a333-c9caf8f5aa6a"},"vehicle_type_id":"4","last_reported":1720199285,"current_range_meters":10000,"station_id":"ce4bgih2rcd13ifvqba0","pricing_plan_id":"cebpf4jnsgd1na2vs0mg"},{"bike_id":"6e70bb37-c8c7-4483-85b6-a124514b4fbe","system_id":"levelo_inurba_marseille","lat":43.2953,"lon":5.38552,"is_reserved":false,"is_disabled":false,"rental_uris":{"android":"levelo://app?vid=6e70bb37-c8c7-4483-85b6-a124514b4fbe","ios":"levelo://app?vid=6e70bb37-c8c7-4483-85b6-a124514b4fbe"},"vehicle_type_id":"4","last_reported":1720199285,"current_range_meters":400,"station_id":"ce4bgih2rcd13ifvqba0","pricing_plan_id":"cebpf4jnsgd1na2vs0mg"},{"bike_id":"a23c705d-11e9-4bb9-a1d9-82b1189750d4","system_id":"levelo_inurba_marseille","lat":43.29528,"lon":5.38549,"is_reserved":false,"is_disabled":false,"rental_uris":{"android":"levelo://app?vid=a23c705d-11e9-4bb9-a1d9-82b1189750d4","ios":"levelo://app?vid=a23c705d-11e9-4bb9-a1d9-82b1189750d4"},"vehicle_type_id":"4","last_reported":1720199285,"current_range_meters":10000,"station_id":"ce4bgih2rcd13ifvqba0","pricing_plan_id":"cebpf4jnsgd1na2vs0mg"},{"bike_id":"5710ad99-60da-4a5a-b7f9-d0d1f7033265","system_id":"levelo_inurba_marseille","lat":43.29528,"lon":5.38551,"is_reserved":false,"is_disabled":false,"rental_uris":{"android":"levelo://app?vid=5710ad99-60da-4a5a-b7f9-d0d1f7033265","ios":"levelo://app?vid=5710ad99-60da-4a5a-b7f9-d0d1f7033265"},"vehicle_type_id":"4","last_reported":1720199285,"current_range_meters":3600,"station_id":"ce4bgih2rcd13ifvqba0","pricing_plan_id":"cebpf4jnsgd1na2vs0mg"},{"bike_id":"4c4fe3a5-e7df-424d-a71f-10431b430c61","system_id":"levelo_inurba_marseille","lat":43.29524,"lon":5.38546,"is_reserved":false,"is_disabled":false,"rental_uris":{"android":"levelo://app?vid=4c4fe3a5-e7df-424d-a71f-10431b430c61","ios":"levelo://app?vid=4c4fe3a5-e7df-424d-a71f-10431b430c61"},"vehicle_type_id":"4","last_reported":1720199285,"current_range_meters":16400,"station_id":"ce4bgih2rcd13ifvqba0","pricing_plan_id":"cebpf4jnsgd1na2vs0mg"},{"bike_id":"0c5327a6-306a-4525-b2c6-f18328802607","system_id":"levelo_inurba_marseille","lat":43.29529,"lon":5.385581,"is_reserved":false,"is_disabled":false,"rental_uris":{"android":"levelo://app?vid=0c5327a6-306a-4525-b2c6-f18328802607","ios":"levelo://app?vid=0c5327a6-306a-4525-b2c6-f18328802607"},"vehicle_type_id":"4","last_reported":1720199285,"current_range_meters":9600,"station_id":"ce4bgih2rcd13ifvqba0","pricing_plan_id":"cebpf4jnsgd1na2vs0mg"},{"bike_id":"3278c636-886a-4eea-b273-293ef0795848","system_id":"levelo_inurba_marseille","lat":43.29529,"lon":5.385581,"is_reserved":false,"is_disabled":false,"rental_uris":{"android":"levelo://app?vid=3278c636-886a-4eea-b273-293ef0795848","ios":"levelo://app?vid=3278c636-886a-4eea-b273-293ef0795848"},"vehicle_type_id":"4","last_reported":1720199285,"current_range_meters":15200,"station_id":"ce4bgih2rcd13ifvqba0","pricing_plan_id":"cebpf4jnsgd1na2vs0mg"},{"bike_id":"ab8db69b-42a3-4f62-b054-0c56e3d1024b","system_id":"levelo_inurba_marseille","lat":43.290779,"lon":5.371482,"is_reserved":false,"is_disabled":false,"rental_uris":{"android":"levelo://app?vid=ab8db69b-42a3-4f62-b054-0c56e3d1024b","ios":"levelo://app?vid=ab8db69b-42a3-4f62-b054-0c56e3d1024b"},"vehicle_type_id":"4","last_reported":1720199285,"current_range_meters":12800,"station_id":"ce4bh5p2rcd13ifvqe4g","pricing_plan_id":"cebpf4jnsgd1na2vs0mg"},{"bike_id":"5339f753-d91c-4557-b86d-86913dcb951f","system_id":"levelo_inurba_marseille","lat":43.302008,"lon":5.394694,"is_reserved":false,"is_disabled":false,"rental_uris":{"android":"levelo://app?vid=5339f753-d91c-4557-b86d-86913dcb951f","ios":"levelo://app?vid=5339f753-d91c-4557-b86d-86913dcb951f"},"vehicle_type_id":"4","last_reported":1720199285,"current_range_meters":24000,"station_id":"ce4bh0p2rcd13ifvqd70","pricing_plan_id":"cebpf4jnsgd1na2vs0mg"},{"bike_id":"66283bd6-4793-4ff7-afc5-1ee0da528c6f","system_id":"levelo_inurba_marseille","lat":43.302008,"lon":5.394694,"is_reserved":false,"is_disabled":false,"rental_uris":{"android":"levelo://app?vid=66283bd6-4793-4ff7-afc5-1ee0da528c6f","ios":"levelo://app?vid=66283bd6-4793-4ff7-afc5-1ee0da528c6f"},"vehicle_type_id":"4","last_reported":1720199285,"current_range_meters":0,"station_id":"ce4bh0p2rcd13ifvqd70","pricing_plan_id":"cebpf4jnsgd1na2vs0mg"},{"bike_id":"911ff7c5-6c7b-467d-8695-2dab1d448b58","system_id":"levelo_inurba_marseille","lat":43.29424,"lon":5.38615,"is_reserved":false,"is_disabled":false,"rental_uris":{"android":"levelo://app?vid=911ff7c5-6c7b-467d-8695-2dab1d448b58","ios":"levelo://app?vid=911ff7c5-6c7b-467d-8695-2dab1d448b58"},"vehicle_type_id":"4","last_reported":1720199285,"current_range_meters":31200,"station_id":"ce4bh2h2rcd13ifvqdh0","pricing_plan_id":"cebpf4jnsgd1na2vs0mg"},{"bike_id":"25933bdb-9cce-446c-90b3-19b70af53a62","system_id":"levelo_inurba_marseille","lat":43.294247,"lon":5.38624,"is_reserved":false,"is_disabled":false,"rental_uris":{"android":"levelo://app?vid=25933bdb-9cce-446c-90b3-19b70af53a62","ios":"levelo://app?vid=25933bdb-9cce-446c-90b3-19b70af53a62"},"vehicle_type_id":"4","last_reported":1720199285,"current_range_meters":21600,"station_id":"ce4bh2h2rcd13ifvqdh0","pricing_plan_id":"cebpf4jnsgd1na2vs0mg"},{"bike_id":"f26da5b8-05e7-4402-9f6f-cfbbf985061f","system_id":"levelo_inurba_marseille","lat":43.29423,"lon":5.38622,"is_reserved":false,"is_disabled":false,"rental_uris":{"android":"levelo://app?vid=f26da5b8-05e7-4402-9f6f-cfbbf985061f","ios":"levelo://app?vid=f26da5b8-05e7-4402-9f6f-cfbbf985061f"},"vehicle_type_id":"4","last_reported":1720199285,"current_range_meters":19600,"station_id":"ce4bh2h2rcd13ifvqdh0","pricing_plan_id":"cebpf4jnsgd1na2vs0mg"},{"bike_id":"eb8eafe8-6101-4741-a15f-0672fbca0e35","system_id":"levelo_inurba_marseille","lat":43.29419,"lon":5.38619,"is_reserved":false,"is_disabled":false,"rental_uris":{"android":"levelo://app?vid=eb8eafe8-6101-4741-a15f-0672fbca0e35","ios":"levelo://app?vid=eb8eafe8-6101-4741-a15f-0672fbca0e35"},"vehicle_type_id":"4","last_reported":1720199285,"current_range_meters":15200,"station_id":"ce4bh2h2rcd13ifvqdh0","pricing_plan_id":"cebpf4jnsgd1na2vs0mg"},{"bike_id":"c1f9dbbd-7493-4224-87ad-79b018513b22","system_id":"levelo_inurba_marseille","lat":43.294162,"lon":5.386292,"is_reserved":false,"is_disabled":false,"rental_uris":{"android":"levelo://app?vid=c1f9dbbd-7493-4224-87ad-79b018513b22","ios":"levelo://app?vid=c1f9dbbd-7493-4224-87ad-79b018513b22"},"vehicle_type_id":"4","last_reported":1720199285,"current_range_meters":6400,"station_id":"ce4bh2h2rcd13ifvqdh0","pricing_plan_id":"cebpf4jnsgd1na2vs0mg"},{"bike_id":"46aec4e1-d0f5-4a54-88bc-d9b711b0fb61","system_id":"levelo_inurba_marseille","lat":43.294153,"lon":5.386305,"is_reserved":false,"is_disabled":false,"rental_uris":{"android":"levelo://app?vid=46aec4e1-d0f5-4a54-88bc-d9b711b0fb61","ios":"levelo://app?vid=46aec4e1-d0f5-4a54-88bc-d9b711b0fb61"},"vehicle_type_id":"4","last_reported":1720199285,"current_range_meters":28400,"station_id":"ce4bh2h2rcd13ifvqdh0","pricing_plan_id":"cebpf4jnsgd1na2vs0mg"},{"bike_id":"3c0fda5e-49a7-4147-b67b-1c595ad75a1b","system_id":"levelo_inurba_marseille","lat":43.294162,"lon":5.386292,"is_reserved":false,"is_disabled":false,"rental_uris":{"android":"levelo://app?vid=3c0fda5e-49a7-4147-b67b-1c595ad75a1b","ios":"levelo://app?vid=3c0fda5e-49a7-4147-b67b-1c595ad75a1b"},"vehicle_type_id":"4","last_reported":1720199285,"current_range_meters":3600,"station_id":"ce4bh2h2rcd13ifvqdh0","pricing_plan_id":"cebpf4jnsgd1na2vs0mg"},{"bike_id":"cb1c7ea6-bfad-4bc4-81af-67aed23a1888","system_id":"levelo_inurba_marseille","lat":43.294162,"lon":5.386292,"is_reserved":false,"is_disabled":false,"rental_uris":{"android":"levelo://app?vid=cb1c7ea6-bfad-4bc4-81af-67aed23a1888","ios":"levelo://app?vid=cb1c7ea6-bfad-4bc4-81af-67aed23a1888"},"vehicle_type_id":"4","last_reported":1720199285,"current_range_meters":16400,"station_id":"ce4bh2h2rcd13ifvqdh0","pricing_plan_id":"cebpf4jnsgd1na2vs0mg"},{"bike_id":"cb94565f-b567-4f33-8f1c-1e47ea7e67a6","system_id":"levelo_inurba_marseille","lat":43.29418,"lon":5.38625,"is_reserved":false,"is_disabled":false,"rental_uris":{"android":"levelo://app?vid=cb94565f-b567-4f33-8f1c-1e47ea7e67a6","ios":"levelo://app?vid=cb94565f-b567-4f33-8f1c-1e47ea7e67a6"},"vehicle_type_id":"4","last_reported":1720199285,"current_range_meters":8800,"station_id":"ce4bh2h2rcd13ifvqdh0","pricing_plan_id":"cebpf4jnsgd1na2vs0mg"},{"bike_id":"0d0ea83d-6509-4811-a8c7-c6d377fb5919","system_id":"levelo_inurba_marseille","lat":43.294162,"lon":5.386292,"is_reserved":false,"is_disabled":false,"rental_uris":{"android":"levelo://app?vid=0d0ea83d-6509-4811-a8c7-c6d377fb5919","ios":"levelo://app?vid=0d0ea83d-6509-4811-a8c7-c6d377fb5919"},"vehicle_type_id":"4","last_reported":1720199285,"current_range_meters":31200,"station_id":"ce4bh2h2rcd13ifvqdh0","pricing_plan_id":"cebpf4jnsgd1na2vs0mg"},{"bike_id":"16178005-5dee-465e-ac5b-5832bfedfd45","system_id":"levelo_inurba_marseille","lat":43.294162,"lon":5.386292,"is_reserved":false,"is_disabled":false,"rental_uris":{"android":"levelo://app?vid=16178005-5dee-465e-ac5b-5832bfedfd45","ios":"levelo://app?vid=16178005-5dee-465e-ac5b-5832bfedfd45"},"vehicle_type_id":"4","last_reported":1720199285,"current_range_meters":18800,"station_id":"ce4bh2h2rcd13ifvqdh0","pricing_plan_id":"cebpf4jnsgd1na2vs0mg"},{"bike_id":"ccd272e0-b853-4d24-9465-9fd6ffc1e828","system_id":"levelo_inurba_marseille","lat":43.29417,"lon":5.38627,"is_reserved":false,"is_disabled":false,"rental_uris":{"android":"levelo://app?vid=ccd272e0-b853-4d24-9465-9fd6ffc1e828","ios":"levelo://app?vid=ccd272e0-b853-4d24-9465-9fd6ffc1e828"},"vehicle_type_id":"4","last_reported":1720199285,"current_range_meters":2000,"station_id":"ce4bh2h2rcd13ifvqdh0","pricing_plan_id":"cebpf4jnsgd1na2vs0mg"},{"bike_id":"e8ccc27c-69a4-48e5-9456-45f5a2f77a76","system_id":"levelo_inurba_marseille","lat":43.294162,"lon":5.386292,"is_reserved":false,"is_disabled":false,"rental_uris":{"android":"levelo://app?vid=e8ccc27c-69a4-48e5-9456-45f5a2f77a76","ios":"levelo://app?vid=e8ccc27c-69a4-48e5-9456-45f5a2f77a76"},"vehicle_type_id":"4","last_reported":1720199285,"current_range_meters":17600,"station_id":"ce4bh2h2rcd13ifvqdh0","pricing_plan_id":"cebpf4jnsgd1na2vs0mg"},{"bike_id":"733f9527-dfc1-4059-95a9-0c774e3ed333","system_id":"levelo_inurba_marseille","lat":43.29416,"lon":5.38627,"is_reserved":false,"is_disabled":false,"rental_uris":{"android":"levelo://app?vid=733f9527-dfc1-4059-95a9-0c774e3ed333","ios":"levelo://app?vid=733f9527-dfc1-4059-95a9-0c774e3ed333"},"vehicle_type_id":"4","last_reported":1720199285,"current_range_meters":13200,"station_id":"ce4bh2h2rcd13ifvqdh0","pricing_plan_id":"cebpf4jnsgd1na2vs0mg"},{"bike_id":"0423e4e0-7cdc-4916-aef4-2b7986e9ef7c","system_id":"levelo_inurba_marseille","lat":43.29416,"lon":5.3863,"is_reserved":false,"is_disabled":false,"rental_uris":{"android":"levelo://app?vid=0423e4e0-7cdc-4916-aef4-2b7986e9ef7c","ios":"levelo://app?vid=0423e4e0-7cdc-4916-aef4-2b7986e9ef7c"},"vehicle_type_id":"4","last_reported":1720199285,"current_range_meters":14000,"station_id":"ce4bh2h2rcd13ifvqdh0","pricing_plan_id":"cebpf4jnsgd1na2vs0mg"},{"bike_id":"0a83e868-4ef3-49fc-b3e5-dc5c6351f540","system_id":"levelo_inurba_marseille","lat":43.294162,"lon":5.386292,"is_reserved":false,"is_disabled":false,"rental_uris":{"android":"levelo://app?vid=0a83e868-4ef3-49fc-b3e5-dc5c6351f540","ios":"levelo://app?vid=0a83e868-4ef3-49fc-b3e5-dc5c6351f540"},"vehicle_type_id":"4","last_reported":1720199285,"current_range_meters":29200,"station_id":"ce4bh2h2rcd13ifvqdh0","pricing_plan_id":"cebpf4jnsgd1na2vs0mg"},{"bike_id":"73f4c9ac-51fa-41c6-91d9-6a51af632d89","system_id":"levelo_inurba_marseille","lat":43.289184,"lon":5.366408,"is_reserved":false,"is_disabled":false,"rental_uris":{"android":"levelo://app?vid=73f4c9ac-51fa-41c6-91d9-6a51af632d89","ios":"levelo://app?vid=73f4c9ac-51fa-41c6-91d9-6a51af632d89"},"vehicle_type_id":"4","last_reported":1720199285,"current_range_meters":4000,"station_id":"ce4bhap2rcd13ifvqek0","pricing_plan_id":"cebpf4jnsgd1na2vs0mg"},{"bike_id":"4f599ed6-85cf-43b1-9db8-edaed0587f6a","system_id":"levelo_inurba_marseille","lat":43.294162,"lon":5.386292,"is_reserved":false,"is_disabled":false,"rental_uris":{"android":"levelo://app?vid=4f599ed6-85cf-43b1-9db8-edaed0587f6a","ios":"levelo://app?vid=4f599ed6-85cf-43b1-9db8-edaed0587f6a"},"vehicle_type_id":"4","last_reported":1720199285,"current_range_meters":3200,"station_id":"ce4bh2h2rcd13ifvqdh0","pricing_plan_id":"cebpf4jnsgd1na2vs0mg"},{"bike_id":"8029826d-c8d7-4472-9074-9f203bfd009b","system_id":"levelo_inurba_marseille","lat":43.294162,"lon":5.386292,"is_reserved":false,"is_disabled":false,"rental_uris":{"android":"levelo://app?vid=8029826d-c8d7-4472-9074-9f203bfd009b","ios":"levelo://app?vid=8029826d-c8d7-4472-9074-9f203bfd009b"},"vehicle_type_id":"4","last_reported":1720199285,"current_range_meters":31200,"station_id":"ce4bh2h2rcd13ifvqdh0","pricing_plan_id":"cebpf4jnsgd1na2vs0mg"},{"bike_id":"674c4758-d47c-40a2-860d-e46b511d247d","system_id":"levelo_inurba_marseille","lat":43.294162,"lon":5.386292,"is_reserved":false,"is_disabled":false,"rental_uris":{"android":"levelo://app?vid=674c4758-d47c-40a2-860d-e46b511d247d","ios":"levelo://app?vid=674c4758-d47c-40a2-860d-e46b511d247d"},"vehicle_type_id":"4","last_reported":1720199285,"current_range_meters":30400,"station_id":"ce4bh2h2rcd13ifvqdh0","pricing_plan_id":"cebpf4jnsgd1na2vs0mg"},{"bike_id":"5abd6456-c332-403b-8302-d0fdf35abbcd","system_id":"levelo_inurba_marseille","lat":43.294162,"lon":5.386292,"is_reserved":false,"is_disabled":false,"rental_uris":{"android":"levelo://app?vid=5abd6456-c332-403b-8302-d0fdf35abbcd","ios":"levelo://app?vid=5abd6456-c332-403b-8302-d0fdf35abbcd"},"vehicle_type_id":"4","last_reported":1720199285,"current_range_meters":31200,"station_id":"ce4bh2h2rcd13ifvqdh0","pricing_plan_id":"cebpf4jnsgd1na2vs0mg"},{"bike_id":"45dace48-5d9e-414a-aee9-935c52f5c12f","system_id":"levelo_inurba_marseille","lat":43.294162,"lon":5.386292,"is_reserved":false,"is_disabled":false,"rental_uris":{"android":"levelo://app?vid=45dace48-5d9e-414a-aee9-935c52f5c12f","ios":"levelo://app?vid=45dace48-5d9e-414a-aee9-935c52f5c12f"},"vehicle_type_id":"4","last_reported":1720199285,"current_range_meters":2800,"station_id":"ce4bh2h2rcd13ifvqdh0","pricing_plan_id":"cebpf4jnsgd1na2vs0mg"},{"bike_id":"08e70d45-e923-438e-a53f-aa4c12393556","system_id":"levelo_inurba_marseille","lat":43.292707,"lon":5.384373,"is_reserved":false,"is_disabled":false,"rental_uris":{"android":"levelo://app?vid=08e70d45-e923-438e-a53f-aa4c12393556","ios":"levelo://app?vid=08e70d45-e923-438e-a53f-aa4c12393556"},"vehicle_type_id":"4","last_reported":1720199285,"current_range_meters":31200,"station_id":"ce4bh692rcd13ifvqea0","pricing_plan_id":"cebpf4jnsgd1na2vs0mg"},{"bike_id":"38b5e9ae-2516-4544-b15a-3dd25c45e906","system_id":"levelo_inurba_marseille","lat":43.292642,"lon":5.384254,"is_reserved":false,"is_disabled":false,"rental_uris":{"android":"levelo://app?vid=38b5e9ae-2516-4544-b15a-3dd25c45e906","ios":"levelo://app?vid=38b5e9ae-2516-4544-b15a-3dd25c45e906"},"vehicle_type_id":"4","last_reported":1720199285,"current_range_meters":22000,"station_id":"ce4bh692rcd13ifvqea0","pricing_plan_id":"cebpf4jnsgd1na2vs0mg"},{"bike_id":"3893284f-36bf-4763-957a-6322d04deb23","system_id":"levelo_inurba_marseille","lat":43.292644,"lon":5.384257,"is_reserved":false,"is_disabled":false,"rental_uris":{"android":"levelo://app?vid=3893284f-36bf-4763-957a-6322d04deb23","ios":"levelo://app?vid=3893284f-36bf-4763-957a-6322d04deb23"},"vehicle_type_id":"4","last_reported":1720199285,"current_range_meters":13200,"station_id":"ce4bh692rcd13ifvqea0","pricing_plan_id":"cebpf4jnsgd1na2vs0mg"},{"bike_id":"e4af2cad-9ea5-4b20-b636-e6908c3ef0d4","system_id":"levelo_inurba_marseille","lat":43.29266,"lon":5.38446,"is_reserved":false,"is_disabled":false,"rental_uris":{"android":"levelo://app?vid=e4af2cad-9ea5-4b20-b636-e6908c3ef0d4","ios":"levelo://app?vid=e4af2cad-9ea5-4b20-b636-e6908c3ef0d4"},"vehicle_type_id":"4","last_reported":1720199285,"current_range_meters":23600,"station_id":"ce4bh692rcd13ifvqea0","pricing_plan_id":"cebpf4jnsgd1na2vs0mg"},{"bike_id":"66adc276-c2a6-4508-9b3c-11f2bca185cf","system_id":"levelo_inurba_marseille","lat":43.292644,"lon":5.384257,"is_reserved":false,"is_disabled":false,"rental_uris":{"android":"levelo://app?vid=66adc276-c2a6-4508-9b3c-11f2bca185cf","ios":"levelo://app?vid=66adc276-c2a6-4508-9b3c-11f2bca185cf"},"vehicle_type_id":"4","last_reported":1720199285,"current_range_meters":2800,"station_id":"ce4bh692rcd13ifvqea0","pricing_plan_id":"cebpf4jnsgd1na2vs0mg"},{"bike_id":"c0a8e121-282b-46c0-a1f0-4fdb9d3cd678","system_id":"levelo_inurba_marseille","lat":43.292643,"lon":5.384459,"is_reserved":false,"is_disabled":false,"rental_uris":{"android":"levelo://app?vid=c0a8e121-282b-46c0-a1f0-4fdb9d3cd678","ios":"levelo://app?vid=c0a8e121-282b-46c0-a1f0-4fdb9d3cd678"},"vehicle_type_id":"4","last_reported":1720199285,"current_range_meters":30400,"station_id":"ce4bh692rcd13ifvqea0","pricing_plan_id":"cebpf4jnsgd1na2vs0mg"},{"bike_id":"bc388f9b-f6bf-4724-b6bc-d7efc322cfc7","system_id":"levelo_inurba_marseille","lat":43.292643,"lon":5.384464,"is_reserved":false,"is_disabled":false,"rental_uris":{"android":"levelo://app?vid=bc388f9b-f6bf-4724-b6bc-d7efc322cfc7","ios":"levelo://app?vid=bc388f9b-f6bf-4724-b6bc-d7efc322cfc7"},"vehicle_type_id":"4","last_reported":1720199285,"current_range_meters":31200,"station_id":"ce4bh692rcd13ifvqea0","pricing_plan_id":"cebpf4jnsgd1na2vs0mg"},{"bike_id":"1316a878-eef9-4636-a2da-ea9dcf1802d5","system_id":"levelo_inurba_marseille","lat":43.304274,"lon":5.397513,"is_reserved":false,"is_disabled":false,"rental_uris":{"android":"levelo://app?vid=1316a878-eef9-4636-a2da-ea9dcf1802d5","ios":"levelo://app?vid=1316a878-eef9-4636-a2da-ea9dcf1802d5"},"vehicle_type_id":"4","last_reported":1720199285,"current_range_meters":0,"station_id":"ce4bh092rcd13ifvqd20","pricing_plan_id":"cebpf4jnsgd1na2vs0mg"},{"bike_id":"0984a95d-5ead-4a25-ac66-34ad200f12f7","system_id":"levelo_inurba_marseille","lat":43.292642,"lon":5.384254,"is_reserved":false,"is_disabled":false,"rental_uris":{"android":"levelo://app?vid=0984a95d-5ead-4a25-ac66-34ad200f12f7","ios":"levelo://app?vid=0984a95d-5ead-4a25-ac66-34ad200f12f7"},"vehicle_type_id":"4","last_reported":1720199285,"current_range_meters":19200,"station_id":"ce4bh692rcd13ifvqea0","pricing_plan_id":"cebpf4jnsgd1na2vs0mg"},{"bike_id":"c81c2108-8553-445e-a947-b5c7aa7af512","system_id":"levelo_inurba_marseille","lat":43.292644,"lon":5.384257,"is_reserved":false,"is_disabled":false,"rental_uris":{"android":"levelo://app?vid=c81c2108-8553-445e-a947-b5c7aa7af512","ios":"levelo://app?vid=c81c2108-8553-445e-a947-b5c7aa7af512"},"vehicle_type_id":"4","last_reported":1720199285,"current_range_meters":28800,"station_id":"ce4bh692rcd13ifvqea0","pricing_plan_id":"cebpf4jnsgd1na2vs0mg"},{"bike_id":"35ea4e8c-0ad0-4582-a9c0-4b6d052309b8","system_id":"levelo_inurba_marseille","lat":43.292644,"lon":5.384257,"is_reserved":false,"is_disabled":false,"rental_uris":{"android":"levelo://app?vid=35ea4e8c-0ad0-4582-a9c0-4b6d052309b8","ios":"levelo://app?vid=35ea4e8c-0ad0-4582-a9c0-4b6d052309b8"},"vehicle_type_id":"4","last_reported":1720199285,"current_range_meters":21600,"station_id":"ce4bh692rcd13ifvqea0","pricing_plan_id":"cebpf4jnsgd1na2vs0mg"},{"bike_id":"17950b6e-60ec-4f16-a57a-3316c6cbddfa","system_id":"levelo_inurba_marseille","lat":43.292644,"lon":5.384257,"is_reserved":false,"is_disabled":false,"rental_uris":{"android":"levelo://app?vid=17950b6e-60ec-4f16-a57a-3316c6cbddfa","ios":"levelo://app?vid=17950b6e-60ec-4f16-a57a-3316c6cbddfa"},"vehicle_type_id":"4","last_reported":1720199285,"current_range_meters":31200,"station_id":"ce4bh692rcd13ifvqea0","pricing_plan_id":"cebpf4jnsgd1na2vs0mg"},{"bike_id":"1aa749f9-95c8-4f05-a685-0d9872760a9b","system_id":"levelo_inurba_marseille","lat":43.292642,"lon":5.384254,"is_reserved":false,"is_disabled":false,"rental_uris":{"android":"levelo://app?vid=1aa749f9-95c8-4f05-a685-0d9872760a9b","ios":"levelo://app?vid=1aa749f9-95c8-4f05-a685-0d9872760a9b"},"vehicle_type_id":"4","last_reported":1720199285,"current_range_meters":25600,"station_id":"ce4bh692rcd13ifvqea0","pricing_plan_id":"cebpf4jnsgd1na2vs0mg"},{"bike_id":"6c84a559-84a3-4533-b805-1dc456d04613","system_id":"levelo_inurba_marseille","lat":43.29259,"lon":5.38448,"is_reserved":false,"is_disabled":false,"rental_uris":{"android":"levelo://app?vid=6c84a559-84a3-4533-b805-1dc456d04613","ios":"levelo://app?vid=6c84a559-84a3-4533-b805-1dc456d04613"},"vehicle_type_id":"4","last_reported":1720199285,"current_range_meters":31200,"station_id":"ce4bh692rcd13ifvqea0","pricing_plan_id":"cebpf4jnsgd1na2vs0mg"},{"bike_id":"3939d1f6-fa17-4b44-863d-8b93a717b113","system_id":"levelo_inurba_marseille","lat":43.292642,"lon":5.384254,"is_reserved":false,"is_disabled":false,"rental_uris":{"android":"levelo://app?vid=3939d1f6-fa17-4b44-863d-8b93a717b113","ios":"levelo://app?vid=3939d1f6-fa17-4b44-863d-8b93a717b113"},"vehicle_type_id":"4","last_reported":1720199285,"current_range_meters":31200,"station_id":"ce4bh692rcd13ifvqea0","pricing_plan_id":"cebpf4jnsgd1na2vs0mg"},{"bike_id":"b4a1ebcf-8ca5-49e8-9345-2ee324223778","system_id":"levelo_inurba_marseille","lat":43.294162,"lon":5.386292,"is_reserved":false,"is_disabled":false,"rental_uris":{"android":"levelo://app?vid=b4a1ebcf-8ca5-49e8-9345-2ee324223778","ios":"levelo://app?vid=b4a1ebcf-8ca5-49e8-9345-2ee324223778"},"vehicle_type_id":"4","last_reported":1720199285,"current_range_meters":14000,"station_id":"ce4bh2h2rcd13ifvqdh0","pricing_plan_id":"cebpf4jnsgd1na2vs0mg"},{"bike_id":"47ddd8f9-f385-421e-b596-360ddfb25b9e","system_id":"levelo_inurba_marseille","lat":43.292644,"lon":5.384257,"is_reserved":false,"is_disabled":false,"rental_uris":{"android":"levelo://app?vid=47ddd8f9-f385-421e-b596-360ddfb25b9e","ios":"levelo://app?vid=47ddd8f9-f385-421e-b596-360ddfb25b9e"},"vehicle_type_id":"4","last_reported":1720199285,"current_range_meters":3600,"station_id":"ce4bh692rcd13ifvqea0","pricing_plan_id":"cebpf4jnsgd1na2vs0mg"},{"bike_id":"9a39450e-f08e-4aa8-b2dd-f3d6d9857763","system_id":"levelo_inurba_marseille","lat":43.290104,"lon":5.356111,"is_reserved":false,"is_disabled":false,"rental_uris":{"android":"levelo://app?vid=9a39450e-f08e-4aa8-b2dd-f3d6d9857763","ios":"levelo://app?vid=9a39450e-f08e-4aa8-b2dd-f3d6d9857763"},"vehicle_type_id":"4","last_reported":1720199285,"current_range_meters":28000,"station_id":"ce4bhb92rcd13ifvqen0","pricing_plan_id":"cebpf4jnsgd1na2vs0mg"},{"bike_id":"15ad8493-b13c-43b1-b0cc-c19ecd028f3d","system_id":"levelo_inurba_marseille","lat":43.290104,"lon":5.356111,"is_reserved":false,"is_disabled":false,"rental_uris":{"android":"levelo://app?vid=15ad8493-b13c-43b1-b0cc-c19ecd028f3d","ios":"levelo://app?vid=15ad8493-b13c-43b1-b0cc-c19ecd028f3d"},"vehicle_type_id":"4","last_reported":1720199285,"current_range_meters":9200,"station_id":"ce4bhb92rcd13ifvqen0","pricing_plan_id":"cebpf4jnsgd1na2vs0mg"},{"bike_id":"d9f2fe8c-7b7b-47f3-8347-7246b9d55bf4","system_id":"levelo_inurba_marseille","lat":43.290104,"lon":5.356111,"is_reserved":false,"is_disabled":false,"rental_uris":{"android":"levelo://app?vid=d9f2fe8c-7b7b-47f3-8347-7246b9d55bf4","ios":"levelo://app?vid=d9f2fe8c-7b7b-47f3-8347-7246b9d55bf4"},"vehicle_type_id":"4","last_reported":1720199285,"current_range_meters":0,"station_id":"ce4bhb92rcd13ifvqen0","pricing_plan_id":"cebpf4jnsgd1na2vs0mg"},{"bike_id":"fb9e89fb-c4e3-4ebb-9898-befa9342f166","system_id":"levelo_inurba_marseille","lat":43.290104,"lon":5.356111,"is_reserved":false,"is_disabled":false,"rental_uris":{"android":"levelo://app?vid=fb9e89fb-c4e3-4ebb-9898-befa9342f166","ios":"levelo://app?vid=fb9e89fb-c4e3-4ebb-9898-befa9342f166"},"vehicle_type_id":"4","last_reported":1720199285,"current_range_meters":17200,"station_id":"ce4bhb92rcd13ifvqen0","pricing_plan_id":"cebpf4jnsgd1na2vs0mg"},{"bike_id":"ac05fa80-c0e2-475c-b922-0b54ae810692","system_id":"levelo_inurba_marseille","lat":43.330442,"lon":5.389148,"is_reserved":false,"is_disabled":false,"rental_uris":{"android":"levelo://app?vid=ac05fa80-c0e2-475c-b922-0b54ae810692","ios":"levelo://app?vid=ac05fa80-c0e2-475c-b922-0b54ae810692"},"vehicle_type_id":"4","last_reported":1720199285,"current_range_meters":27200,"station_id":"ce4bhr92rcd13ifvqhrg","pricing_plan_id":"cebpf4jnsgd1na2vs0mg"},{"bike_id":"b0f32729-bf1a-4186-ac32-128b97c650c2","system_id":"levelo_inurba_marseille","lat":43.289741,"lon":5.378306,"is_reserved":false,"is_disabled":false,"rental_uris":{"android":"levelo://app?vid=b0f32729-bf1a-4186-ac32-128b97c650c2","ios":"levelo://app?vid=b0f32729-bf1a-4186-ac32-128b97c650c2"},"vehicle_type_id":"4","last_reported":1720199285,"current_range_meters":0,"station_id":"ce4bh9p2rcd13ifvqed0","pricing_plan_id":"cebpf4jnsgd1na2vs0mg"},{"bike_id":"9c5d54f4-e8fd-49eb-8761-9d0aea3dfa58","system_id":"levelo_inurba_marseille","lat":43.330442,"lon":5.389148,"is_reserved":false,"is_disabled":false,"rental_uris":{"android":"levelo://app?vid=9c5d54f4-e8fd-49eb-8761-9d0aea3dfa58","ios":"levelo://app?vid=9c5d54f4-e8fd-49eb-8761-9d0aea3dfa58"},"vehicle_type_id":"4","last_reported":1720199285,"current_range_meters":16800,"station_id":"ce4bhr92rcd13ifvqhrg","pricing_plan_id":"cebpf4jnsgd1na2vs0mg"},{"bike_id":"3dc01769-b2b3-4df8-a125-e19a23543e97","system_id":"levelo_inurba_marseille","lat":43.330442,"lon":5.389148,"is_reserved":false,"is_disabled":false,"rental_uris":{"android":"levelo://app?vid=3dc01769-b2b3-4df8-a125-e19a23543e97","ios":"levelo://app?vid=3dc01769-b2b3-4df8-a125-e19a23543e97"},"vehicle_type_id":"4","last_reported":1720199285,"current_range_meters":0,"station_id":"ce4bhr92rcd13ifvqhrg","pricing_plan_id":"cebpf4jnsgd1na2vs0mg"},{"bike_id":"5be52ae1-396b-4176-9d38-0dd1a8699721","system_id":"levelo_inurba_marseille","lat":43.330442,"lon":5.389148,"is_reserved":false,"is_disabled":false,"rental_uris":{"android":"levelo://app?vid=5be52ae1-396b-4176-9d38-0dd1a8699721","ios":"levelo://app?vid=5be52ae1-396b-4176-9d38-0dd1a8699721"},"vehicle_type_id":"4","last_reported":1720199285,"current_range_meters":8800,"station_id":"ce4bhr92rcd13ifvqhrg","pricing_plan_id":"cebpf4jnsgd1na2vs0mg"},{"bike_id":"583687a2-2b1c-4ce7-89b7-47153446cd86","system_id":"levelo_inurba_marseille","lat":43.330442,"lon":5.389148,"is_reserved":false,"is_disabled":false,"rental_uris":{"android":"levelo://app?vid=583687a2-2b1c-4ce7-89b7-47153446cd86","ios":"levelo://app?vid=583687a2-2b1c-4ce7-89b7-47153446cd86"},"vehicle_type_id":"4","last_reported":1720199285,"current_range_meters":12000,"station_id":"ce4bhr92rcd13ifvqhrg","pricing_plan_id":"cebpf4jnsgd1na2vs0mg"},{"bike_id":"0d29e6c0-eb9e-4379-b0e4-44027295713e","system_id":"levelo_inurba_marseille","lat":43.330442,"lon":5.389148,"is_reserved":false,"is_disabled":false,"rental_uris":{"android":"levelo://app?vid=0d29e6c0-eb9e-4379-b0e4-44027295713e","ios":"levelo://app?vid=0d29e6c0-eb9e-4379-b0e4-44027295713e"},"vehicle_type_id":"4","last_reported":1720199285,"current_range_meters":8400,"station_id":"ce4bhr92rcd13ifvqhrg","pricing_plan_id":"cebpf4jnsgd1na2vs0mg"},{"bike_id":"c08aacbd-17e6-4803-966b-1a27fed5f7fe","system_id":"levelo_inurba_marseille","lat":43.295169,"lon":5.390426,"is_reserved":false,"is_disabled":false,"rental_uris":{"android":"levelo://app?vid=c08aacbd-17e6-4803-966b-1a27fed5f7fe","ios":"levelo://app?vid=c08aacbd-17e6-4803-966b-1a27fed5f7fe"},"vehicle_type_id":"4","last_reported":1720199285,"current_range_meters":800,"station_id":"ce4bh3p2rcd13ifvqdp0","pricing_plan_id":"cebpf4jnsgd1na2vs0mg"},{"bike_id":"cb67c066-87e7-4d67-a638-6644c9941040","system_id":"levelo_inurba_marseille","lat":43.29025,"lon":5.38133,"is_reserved":false,"is_disabled":false,"rental_uris":{"android":"levelo://app?vid=cb67c066-87e7-4d67-a638-6644c9941040","ios":"levelo://app?vid=cb67c066-87e7-4d67-a638-6644c9941040"},"vehicle_type_id":"4","last_reported":1720199285,"current_range_meters":0,"station_id":"ce4bh4p2rcd13ifvqe1g","pricing_plan_id":"cebpf4jnsgd1na2vs0mg"},{"bike_id":"ea8155d0-9560-4fc8-9930-7578b163af7b","system_id":"levelo_inurba_marseille","lat":43.2901,"lon":5.381269,"is_reserved":false,"is_disabled":false,"rental_uris":{"android":"levelo://app?vid=ea8155d0-9560-4fc8-9930-7578b163af7b","ios":"levelo://app?vid=ea8155d0-9560-4fc8-9930-7578b163af7b"},"vehicle_type_id":"4","last_reported":1720199285,"current_range_meters":400,"station_id":"ce4bh4p2rcd13ifvqe1g","pricing_plan_id":"cebpf4jnsgd1na2vs0mg"},{"bike_id":"ffb51bdb-e80c-4486-a7f3-475867458685","system_id":"levelo_inurba_marseille","lat":43.2901,"lon":5.381269,"is_reserved":false,"is_disabled":false,"rental_uris":{"android":"levelo://app?vid=ffb51bdb-e80c-4486-a7f3-475867458685","ios":"levelo://app?vid=ffb51bdb-e80c-4486-a7f3-475867458685"},"vehicle_type_id":"4","last_reported":1720199285,"current_range_meters":22800,"station_id":"ce4bh4p2rcd13ifvqe1g","pricing_plan_id":"cebpf4jnsgd1na2vs0mg"},{"bike_id":"423bc0d7-7e73-4038-bdf9-69d3739c1393","system_id":"levelo_inurba_marseille","lat":43.28852,"lon":5.35858,"is_reserved":false,"is_disabled":false,"rental_uris":{"android":"levelo://app?vid=423bc0d7-7e73-4038-bdf9-69d3739c1393","ios":"levelo://app?vid=423bc0d7-7e73-4038-bdf9-69d3739c1393"},"vehicle_type_id":"4","last_reported":1720199285,"current_range_meters":17600,"station_id":"","pricing_plan_id":"cebpf4jnsgd1na2vs0mg"},{"bike_id":"de3158e0-461e-437e-a8b5-cb5c78eff192","system_id":"levelo_inurba_marseille","lat":43.28856,"lon":5.358371,"is_reserved":false,"is_disabled":false,"rental_uris":{"android":"levelo://app?vid=de3158e0-461e-437e-a8b5-cb5c78eff192","ios":"levelo://app?vid=de3158e0-461e-437e-a8b5-cb5c78eff192"},"vehicle_type_id":"4","last_reported":1720199285,"current_range_meters":800,"station_id":"ce4bhb12rcd13ifvqem0","pricing_plan_id":"cebpf4jnsgd1na2vs0mg"},{"bike_id":"aba2828a-8969-4d51-89f6-662cf4931199","system_id":"levelo_inurba_marseille","lat":43.28832,"lon":5.35859,"is_reserved":false,"is_disabled":false,"rental_uris":{"android":"levelo://app?vid=aba2828a-8969-4d51-89f6-662cf4931199","ios":"levelo://app?vid=aba2828a-8969-4d51-89f6-662cf4931199"},"vehicle_type_id":"4","last_reported":1720199285,"current_range_meters":0,"station_id":"ce4bhb12rcd13ifvqem0","pricing_plan_id":"cebpf4jnsgd1na2vs0mg"},{"bike_id":"352233c4-9f2a-41f0-bb4b-472130b9819c","system_id":"levelo_inurba_marseille","lat":43.312609,"lon":5.401662,"is_reserved":false,"is_disabled":false,"rental_uris":{"android":"levelo://app?vid=352233c4-9f2a-41f0-bb4b-472130b9819c","ios":"levelo://app?vid=352233c4-9f2a-41f0-bb4b-472130b9819c"},"vehicle_type_id":"4","last_reported":1720199285,"current_range_meters":6400,"station_id":"ce4bh092rcd13ifvqd30","pricing_plan_id":"cebpf4jnsgd1na2vs0mg"},{"bike_id":"e014d1fb-8567-49b4-b97e-0644bd7f348e","system_id":"levelo_inurba_marseille","lat":43.337494,"lon":5.374532,"is_reserved":false,"is_disabled":false,"rental_uris":{"android":"levelo://app?vid=e014d1fb-8567-49b4-b97e-0644bd7f348e","ios":"levelo://app?vid=e014d1fb-8567-49b4-b97e-0644bd7f348e"},"vehicle_type_id":"4","last_reported":1720199285,"current_range_meters":28000,"station_id":"","pricing_plan_id":"cebpf4jnsgd1na2vs0mg"},{"bike_id":"d9c741ce-682d-468a-9e9d-ac147b49d3c9","system_id":"levelo_inurba_marseille","lat":43.31269,"lon":5.4018,"is_reserved":false,"is_disabled":false,"rental_uris":{"android":"levelo://app?vid=d9c741ce-682d-468a-9e9d-ac147b49d3c9","ios":"levelo://app?vid=d9c741ce-682d-468a-9e9d-ac147b49d3c9"},"vehicle_type_id":"4","last_reported":1720199285,"current_range_meters":28800,"station_id":"ce4bh092rcd13ifvqd30","pricing_plan_id":"cebpf4jnsgd1na2vs0mg"},{"bike_id":"77025aa7-5ee0-40be-b48a-775490ad13dc","system_id":"levelo_inurba_marseille","lat":43.312609,"lon":5.401662,"is_reserved":false,"is_disabled":false,"rental_uris":{"android":"levelo://app?vid=77025aa7-5ee0-40be-b48a-775490ad13dc","ios":"levelo://app?vid=77025aa7-5ee0-40be-b48a-775490ad13dc"},"vehicle_type_id":"4","last_reported":1720199285,"current_range_meters":3600,"station_id":"ce4bh092rcd13ifvqd30","pricing_plan_id":"cebpf4jnsgd1na2vs0mg"},{"bike_id":"41fcb31e-469f-4a07-8a88-fbe57c2d85f5","system_id":"levelo_inurba_marseille","lat":43.33755,"lon":5.37455,"is_reserved":false,"is_disabled":false,"rental_uris":{"android":"levelo://app?vid=41fcb31e-469f-4a07-8a88-fbe57c2d85f5","ios":"levelo://app?vid=41fcb31e-469f-4a07-8a88-fbe57c2d85f5"},"vehicle_type_id":"4","last_reported":1720199285,"current_range_meters":30800,"station_id":"","pricing_plan_id":"cebpf4jnsgd1na2vs0mg"},{"bike_id":"68ef8faa-8b41-491b-bfe4-7ecd1860340b","system_id":"levelo_inurba_marseille","lat":43.337627,"lon":5.374409,"is_reserved":false,"is_disabled":false,"rental_uris":{"android":"levelo://app?vid=68ef8faa-8b41-491b-bfe4-7ecd1860340b","ios":"levelo://app?vid=68ef8faa-8b41-491b-bfe4-7ecd1860340b"},"vehicle_type_id":"4","last_reported":1720199285,"current_range_meters":22400,"station_id":"","pricing_plan_id":"cebpf4jnsgd1na2vs0mg"},{"bike_id":"22664dbb-05c6-44b7-ac76-723d395f476e","system_id":"levelo_inurba_marseille","lat":43.33767,"lon":5.37431,"is_reserved":false,"is_disabled":false,"rental_uris":{"android":"levelo://app?vid=22664dbb-05c6-44b7-ac76-723d395f476e","ios":"levelo://app?vid=22664dbb-05c6-44b7-ac76-723d395f476e"},"vehicle_type_id":"4","last_reported":1720199285,"current_range_meters":30800,"station_id":"","pricing_plan_id":"cebpf4jnsgd1na2vs0mg"},{"bike_id":"8e3e9c61-a1f2-44c7-9dfc-6944991b8188","system_id":"levelo_inurba_marseille","lat":43.33759,"lon":5.37481,"is_reserved":false,"is_disabled":false,"rental_uris":{"android":"levelo://app?vid=8e3e9c61-a1f2-44c7-9dfc-6944991b8188","ios":"levelo://app?vid=8e3e9c61-a1f2-44c7-9dfc-6944991b8188"},"vehicle_type_id":"4","last_reported":1720199285,"current_range_meters":26400,"station_id":"","pricing_plan_id":"cebpf4jnsgd1na2vs0mg"},{"bike_id":"0af07e00-b592-40d1-bfb8-0ae4dde4533a","system_id":"levelo_inurba_marseille","lat":43.30642,"lon":5.401031,"is_reserved":false,"is_disabled":false,"rental_uris":{"android":"levelo://app?vid=0af07e00-b592-40d1-bfb8-0ae4dde4533a","ios":"levelo://app?vid=0af07e00-b592-40d1-bfb8-0ae4dde4533a"},"vehicle_type_id":"4","last_reported":1720199285,"current_range_meters":3600,"station_id":"ce4bh112rcd13ifvqda0","pricing_plan_id":"cebpf4jnsgd1na2vs0mg"},{"bike_id":"ba77c056-6fe7-4228-884f-a9f07e3f5ccc","system_id":"levelo_inurba_marseille","lat":43.33766,"lon":5.37452,"is_reserved":false,"is_disabled":false,"rental_uris":{"android":"levelo://app?vid=ba77c056-6fe7-4228-884f-a9f07e3f5ccc","ios":"levelo://app?vid=ba77c056-6fe7-4228-884f-a9f07e3f5ccc"},"vehicle_type_id":"4","last_reported":1720199285,"current_range_meters":29600,"station_id":"ce4rr2p2rcd13i802rgg","pricing_plan_id":"cebpf4jnsgd1na2vs0mg"},{"bike_id":"d18fc15d-e9a7-4dbb-9aed-fc17bcc86552","system_id":"levelo_inurba_marseille","lat":43.337693,"lon":5.374366,"is_reserved":false,"is_disabled":false,"rental_uris":{"android":"levelo://app?vid=d18fc15d-e9a7-4dbb-9aed-fc17bcc86552","ios":"levelo://app?vid=d18fc15d-e9a7-4dbb-9aed-fc17bcc86552"},"vehicle_type_id":"4","last_reported":1720199285,"current_range_meters":21600,"station_id":"ce4rr2p2rcd13i802rgg","pricing_plan_id":"cebpf4jnsgd1na2vs0mg"},{"bike_id":"f6cdd438-ee2e-4a63-b123-268c4f9de8c8","system_id":"levelo_inurba_marseille","lat":43.30642,"lon":5.401031,"is_reserved":false,"is_disabled":false,"rental_uris":{"android":"levelo://app?vid=f6cdd438-ee2e-4a63-b123-268c4f9de8c8","ios":"levelo://app?vid=f6cdd438-ee2e-4a63-b123-268c4f9de8c8"},"vehicle_type_id":"4","last_reported":1720199285,"current_range_meters":7600,"station_id":"ce4bh112rcd13ifvqda0","pricing_plan_id":"cebpf4jnsgd1na2vs0mg"},{"bike_id":"02e66ad7-8e6c-4c1e-8781-69a2a4060c5e","system_id":"levelo_inurba_marseille","lat":43.301117,"lon":5.398795,"is_reserved":false,"is_disabled":false,"rental_uris":{"android":"levelo://app?vid=02e66ad7-8e6c-4c1e-8781-69a2a4060c5e","ios":"levelo://app?vid=02e66ad7-8e6c-4c1e-8781-69a2a4060c5e"},"vehicle_type_id":"4","last_reported":1720199285,"current_range_meters":15200,"station_id":"ce4bh0h2rcd13ifvqd40","pricing_plan_id":"cebpf4jnsgd1na2vs0mg"},{"bike_id":"bbd4e589-4ffb-44f9-abe2-74ee0be4e03f","system_id":"levelo_inurba_marseille","lat":43.301117,"lon":5.398795,"is_reserved":false,"is_disabled":false,"rental_uris":{"android":"levelo://app?vid=bbd4e589-4ffb-44f9-abe2-74ee0be4e03f","ios":"levelo://app?vid=bbd4e589-4ffb-44f9-abe2-74ee0be4e03f"},"vehicle_type_id":"4","last_reported":1720199285,"current_range_meters":24000,"station_id":"ce4bh0h2rcd13ifvqd40","pricing_plan_id":"cebpf4jnsgd1na2vs0mg"},{"bike_id":"fdbb5b18-1bd8-4753-8b57-a1c5d2b86029","system_id":"levelo_inurba_marseille","lat":43.301117,"lon":5.398795,"is_reserved":false,"is_disabled":false,"rental_uris":{"android":"levelo://app?vid=fdbb5b18-1bd8-4753-8b57-a1c5d2b86029","ios":"levelo://app?vid=fdbb5b18-1bd8-4753-8b57-a1c5d2b86029"},"vehicle_type_id":"4","last_reported":1720199285,"current_range_meters":13200,"station_id":"ce4bh0h2rcd13ifvqd40","pricing_plan_id":"cebpf4jnsgd1na2vs0mg"},{"bike_id":"425085d4-3fed-43a6-97da-de9535746ef7","system_id":"levelo_inurba_marseille","lat":43.301355,"lon":5.398735,"is_reserved":false,"is_disabled":false,"rental_uris":{"android":"levelo://app?vid=425085d4-3fed-43a6-97da-de9535746ef7","ios":"levelo://app?vid=425085d4-3fed-43a6-97da-de9535746ef7"},"vehicle_type_id":"4","last_reported":1720199285,"current_range_meters":0,"station_id":"ce4bh0h2rcd13ifvqd40","pricing_plan_id":"cebpf4jnsgd1na2vs0mg"},{"bike_id":"23f23076-343b-4f1f-b4f2-404480f40409","system_id":"levelo_inurba_marseille","lat":43.28727,"lon":5.36078,"is_reserved":false,"is_disabled":false,"rental_uris":{"android":"levelo://app?vid=23f23076-343b-4f1f-b4f2-404480f40409","ios":"levelo://app?vid=23f23076-343b-4f1f-b4f2-404480f40409"},"vehicle_type_id":"4","last_reported":1720199285,"current_range_meters":10000,"station_id":"cki0cbj6b192h4jlfktg","pricing_plan_id":"cebpf4jnsgd1na2vs0mg"},{"bike_id":"628d2738-32b2-4d96-a18c-13af572533c2","system_id":"levelo_inurba_marseille","lat":43.28725,"lon":5.36084,"is_reserved":false,"is_disabled":false,"rental_uris":{"android":"levelo://app?vid=628d2738-32b2-4d96-a18c-13af572533c2","ios":"levelo://app?vid=628d2738-32b2-4d96-a18c-13af572533c2"},"vehicle_type_id":"4","last_reported":1720199285,"current_range_meters":12000,"station_id":"cki0cbj6b192h4jlfktg","pricing_plan_id":"cebpf4jnsgd1na2vs0mg"},{"bike_id":"5d461fa7-1e2f-4845-8442-8211ce6a60b2","system_id":"levelo_inurba_marseille","lat":43.298681,"lon":5.397225,"is_reserved":false,"is_disabled":false,"rental_uris":{"android":"levelo://app?vid=5d461fa7-1e2f-4845-8442-8211ce6a60b2","ios":"levelo://app?vid=5d461fa7-1e2f-4845-8442-8211ce6a60b2"},"vehicle_type_id":"4","last_reported":1720199285,"current_range_meters":31200,"station_id":"ce4bh0h2rcd13ifvqd50","pricing_plan_id":"cebpf4jnsgd1na2vs0mg"},{"bike_id":"05807766-9390-4de4-b326-0b8e2ab5a590","system_id":"levelo_inurba_marseille","lat":43.29877,"lon":5.3974,"is_reserved":false,"is_disabled":false,"rental_uris":{"android":"levelo://app?vid=05807766-9390-4de4-b326-0b8e2ab5a590","ios":"levelo://app?vid=05807766-9390-4de4-b326-0b8e2ab5a590"},"vehicle_type_id":"4","last_reported":1720199285,"current_range_meters":31200,"station_id":"ce4bh0h2rcd13ifvqd50","pricing_plan_id":"cebpf4jnsgd1na2vs0mg"},{"bike_id":"84ca73e9-e504-4941-b46a-99470191b6e8","system_id":"levelo_inurba_marseille","lat":43.286593,"lon":5.363346,"is_reserved":false,"is_disabled":false,"rental_uris":{"android":"levelo://app?vid=84ca73e9-e504-4941-b46a-99470191b6e8","ios":"levelo://app?vid=84ca73e9-e504-4941-b46a-99470191b6e8"},"vehicle_type_id":"4","last_reported":1720199285,"current_range_meters":0,"station_id":"ce4bhah2rcd13ifvqej0","pricing_plan_id":"cebpf4jnsgd1na2vs0mg"},{"bike_id":"a92b712b-a45e-4db5-bbcc-8e7161701634","system_id":"levelo_inurba_marseille","lat":43.298681,"lon":5.397225,"is_reserved":false,"is_disabled":false,"rental_uris":{"android":"levelo://app?vid=a92b712b-a45e-4db5-bbcc-8e7161701634","ios":"levelo://app?vid=a92b712b-a45e-4db5-bbcc-8e7161701634"},"vehicle_type_id":"4","last_reported":1720199285,"current_range_meters":31200,"station_id":"ce4bh0h2rcd13ifvqd50","pricing_plan_id":"cebpf4jnsgd1na2vs0mg"},{"bike_id":"6ddec38c-a762-445c-97f0-f7a653ac07f9","system_id":"levelo_inurba_marseille","lat":43.28657,"lon":5.36352,"is_reserved":false,"is_disabled":false,"rental_uris":{"android":"levelo://app?vid=6ddec38c-a762-445c-97f0-f7a653ac07f9","ios":"levelo://app?vid=6ddec38c-a762-445c-97f0-f7a653ac07f9"},"vehicle_type_id":"4","last_reported":1720199285,"current_range_meters":0,"station_id":"ce4bhah2rcd13ifvqej0","pricing_plan_id":"cebpf4jnsgd1na2vs0mg"},{"bike_id":"91012a1b-74fc-4f09-9ebf-31ac43a9b53b","system_id":"levelo_inurba_marseille","lat":43.289307,"lon":5.38406,"is_reserved":false,"is_disabled":false,"rental_uris":{"android":"levelo://app?vid=91012a1b-74fc-4f09-9ebf-31ac43a9b53b","ios":"levelo://app?vid=91012a1b-74fc-4f09-9ebf-31ac43a9b53b"},"vehicle_type_id":"4","last_reported":1720199285,"current_range_meters":0,"station_id":"ce4bh612rcd13ifvqe6g","pricing_plan_id":"cebpf4jnsgd1na2vs0mg"},{"bike_id":"088bda40-d0ea-4986-ab31-1b5e266b5cef","system_id":"levelo_inurba_marseille","lat":43.30249,"lon":5.40062,"is_reserved":false,"is_disabled":false,"rental_uris":{"android":"levelo://app?vid=088bda40-d0ea-4986-ab31-1b5e266b5cef","ios":"levelo://app?vid=088bda40-d0ea-4986-ab31-1b5e266b5cef"},"vehicle_type_id":"4","last_reported":1720199285,"current_range_meters":0,"station_id":"ce4bgvh2rcd13ifvqcs0","pricing_plan_id":"cebpf4jnsgd1na2vs0mg"},{"bike_id":"4a3da9c0-f749-4264-a927-b82684027365","system_id":"levelo_inurba_marseille","lat":43.290345,"lon":5.38646,"is_reserved":false,"is_disabled":false,"rental_uris":{"android":"levelo://app?vid=4a3da9c0-f749-4264-a927-b82684027365","ios":"levelo://app?vid=4a3da9c0-f749-4264-a927-b82684027365"},"vehicle_type_id":"4","last_reported":1720199285,"current_range_meters":2800,"station_id":"ce4bh4p2rcd13ifvqe0g","pricing_plan_id":"cebpf4jnsgd1na2vs0mg"},{"bike_id":"c9b12fa5-35ef-478f-81c2-599df9cdc15e","system_id":"levelo_inurba_marseille","lat":43.287184,"lon":5.37937,"is_reserved":false,"is_disabled":false,"rental_uris":{"android":"levelo://app?vid=c9b12fa5-35ef-478f-81c2-599df9cdc15e","ios":"levelo://app?vid=c9b12fa5-35ef-478f-81c2-599df9cdc15e"},"vehicle_type_id":"4","last_reported":1720199285,"current_range_meters":1200,"station_id":"ce4bh9p2rcd13ifvqec0","pricing_plan_id":"cebpf4jnsgd1na2vs0mg"},{"bike_id":"4de09e79-83cd-46d2-aa8c-f104277c45c6","system_id":"levelo_inurba_marseille","lat":43.287184,"lon":5.37937,"is_reserved":false,"is_disabled":false,"rental_uris":{"android":"levelo://app?vid=4de09e79-83cd-46d2-aa8c-f104277c45c6","ios":"levelo://app?vid=4de09e79-83cd-46d2-aa8c-f104277c45c6"},"vehicle_type_id":"4","last_reported":1720199285,"current_range_meters":15600,"station_id":"ce4bh9p2rcd13ifvqec0","pricing_plan_id":"cebpf4jnsgd1na2vs0mg"},{"bike_id":"91ff4df5-eaf3-4e69-aea7-27159f7a92fc","system_id":"levelo_inurba_marseille","lat":43.287184,"lon":5.37937,"is_reserved":false,"is_disabled":false,"rental_uris":{"android":"levelo://app?vid=91ff4df5-eaf3-4e69-aea7-27159f7a92fc","ios":"levelo://app?vid=91ff4df5-eaf3-4e69-aea7-27159f7a92fc"},"vehicle_type_id":"4","last_reported":1720199285,"current_range_meters":1600,"station_id":"ce4bh9p2rcd13ifvqec0","pricing_plan_id":"cebpf4jnsgd1na2vs0mg"},{"bike_id":"5303faad-6049-446a-ac85-90013ce2e75f","system_id":"levelo_inurba_marseille","lat":43.287185,"lon":5.379373,"is_reserved":false,"is_disabled":false,"rental_uris":{"android":"levelo://app?vid=5303faad-6049-446a-ac85-90013ce2e75f","ios":"levelo://app?vid=5303faad-6049-446a-ac85-90013ce2e75f"},"vehicle_type_id":"4","last_reported":1720199285,"current_range_meters":30400,"station_id":"ce4bh9p2rcd13ifvqec0","pricing_plan_id":"cebpf4jnsgd1na2vs0mg"},{"bike_id":"3c6926a1-4199-470a-bf61-e385043500e1","system_id":"levelo_inurba_marseille","lat":43.31682,"lon":5.40473,"is_reserved":false,"is_disabled":false,"rental_uris":{"android":"levelo://app?vid=3c6926a1-4199-470a-bf61-e385043500e1","ios":"levelo://app?vid=3c6926a1-4199-470a-bf61-e385043500e1"},"vehicle_type_id":"4","last_reported":1720199285,"current_range_meters":20800,"station_id":"ce4bh012rcd13ifvqd00","pricing_plan_id":"cebpf4jnsgd1na2vs0mg"},{"bike_id":"df385e4d-63fa-46dd-bf5b-3e87988e7e4b","system_id":"levelo_inurba_marseille","lat":43.316821,"lon":5.404737,"is_reserved":false,"is_disabled":false,"rental_uris":{"android":"levelo://app?vid=df385e4d-63fa-46dd-bf5b-3e87988e7e4b","ios":"levelo://app?vid=df385e4d-63fa-46dd-bf5b-3e87988e7e4b"},"vehicle_type_id":"4","last_reported":1720199285,"current_range_meters":24400,"station_id":"ce4bh012rcd13ifvqd00","pricing_plan_id":"cebpf4jnsgd1na2vs0mg"},{"bike_id":"d73c892b-8395-4d44-b8c3-e35663dc5808","system_id":"levelo_inurba_marseille","lat":43.291994,"lon":5.392907,"is_reserved":false,"is_disabled":false,"rental_uris":{"android":"levelo://app?vid=d73c892b-8395-4d44-b8c3-e35663dc5808","ios":"levelo://app?vid=d73c892b-8395-4d44-b8c3-e35663dc5808"},"vehicle_type_id":"4","last_reported":1720199285,"current_range_meters":0,"station_id":"ce4bh192rcd13ifvqdd0","pricing_plan_id":"cebpf4jnsgd1na2vs0mg"},