{"last_updated":1692464671,"ttl":30,"version":"2.2","data":{"bikes":[{"bike_id":"f22ca441-4e4e-4660-b824-b2f46943e54d","system_id":"levelo_inurba_marseille","lat":43.312239,"lon":5.368562,"is_reserved":false,"is_disabled":false,"rental_uris":{"android":"levelo://app?vid=f22ca441-4e4e-4660-b824-b2f46943e54d","ios":"levelo://app?vid=f22ca441-4e4e-4660-b824-b2f46943e54d"},"vehicle_type_id":"4","last_reported":1692464672,"current_range_meters":31200,"station_id":"ce4bgl92rcd13ifvqbq0","pricing_plan_id":"free"},{"bike_id":"a580b134-d447-4f71-841b-05e4e4f0e58a","system_id":"levelo_inurba_marseille","lat":43.312239,"lon":5.368562,"is_reserved":false,"is_disabled":false,"rental_uris":{"android":"levelo://app?vid=a580b134-d447-4f71-841b-05e4e4f0e58a","ios":"levelo://app?vid=a580b134-d447-4f71-841b-05e4e4f0e58a"},"vehicle_type_id":"4","last_reported":1692464672,"current_range_meters":30800,"station_id":"ce4bgl92rcd13ifvqbq0","pricing_plan_id":"free"},{"bike_id":"798484b3-d62c-4b6b-8973-f9fadb03d90c","system_id":"levelo_inurba_marseille","lat":43.312239,"lon":5.368562,"is_reserved":false,"is_disabled":false,"rental_uris":{"android":"levelo://app?vid=798484b3-d62c-4b6b-8973-f9fadb03d90c","ios":"levelo://app?vid=798484b3-d62c-4b6b-8973-f9fadb03d90c"},"vehicle_type_id":"4","last_reported":1692464672,"current_range_meters":31200,"station_id":"ce4bgl92rcd13ifvqbq0","pricing_plan_id":"free"},{"bike_id":"551d0656-3361-4e0c-88ea-5db1254628c5","system_id":"levelo_inurba_marseille","lat":43.312239,"lon":5.368562,"is_reserved":false,"is_disabled":false,"rental_uris":{"android":"levelo://app?vid=551d0656-3361-4e0c-88ea-5db1254628c5","ios":"levelo://app?vid=551d0656-3361-4e0c-88ea-5db1254628c5"},"vehicle_type_id":"4","last_reported":1692464672,"current_range_meters":31200,"station_id":"ce4bgl92rcd13ifvqbq0","pricing_plan_id":"free"},{"bike_id":"364dc0f9-c722-4a74-bc78-d8f7a5c4f1b7","system_id":"levelo_inurba_marseille","lat":43.312239,"lon":5.368562,"is_reserved":false,"is_disabled":false,"rental_uris":{"android":"levelo://app?vid=364dc0f9-c722-4a74-bc78-d8f7a5c4f1b7","ios":"levelo://app?vid=364dc0f9-c722-4a74-bc78-d8f7a5c4f1b7"},"vehicle_type_id":"4","last_reported":1692464672,"current_range_meters":31200,"station_id":"ce4bgl92rcd13ifvqbq0","pricing_plan_id":"free"},{"bike_id":"d968abd3-56a4-4d70-b2e2-d7ac7ecfa54b","system_id":"levelo_inurba_marseille","lat":43.312239,"lon":5.368562,"is_reserved":false,"is_disabled":false,"rental_uris":{"android":"levelo://app?vid=d968abd3-56a4-4d70-b2e2-d7ac7ecfa54b","ios":"levelo://app?vid=d968abd3-56a4-4d70-b2e2-d7ac7ecfa54b"},"vehicle_type_id":"4","last_reported":1692464672,"current_range_meters":31200,"station_id":"ce4bgl92rcd13ifvqbq0","pricing_plan_id":"free"},{"bike_id":"cc0bddc4-403d-45fc-8b4a-c35198d4741b","system_id":"levelo_inurba_marseille","lat":43.312239,"lon":5.368562,"is_reserved":false,"is_disabled":false,"rental_uris":{"android":"levelo://app?vid=cc0bddc4-403d-45fc-8b4a-c35198d4741b","ios":"levelo://app?vid=cc0bddc4-403d-45fc-8b4a-c35198d4741b"},"vehicle_type_id":"4","last_reported":1692464672,"current_range_meters":31200,"station_id":"ce4bgl92rcd13ifvqbq0","pricing_plan_id":"free"},{"bike_id":"7d96dd74-64a1-4cf2-8aec-acf34eeccbdc","system_id":"levelo_inurba_marseille","lat":43.30901,"lon":5.36843,"is_reserved":false,"is_disabled":false,"rental_uris":{"android":"levelo://app?vid=7d96dd74-64a1-4cf2-8aec-acf34eeccbdc","ios":"levelo://app?vid=7d96dd74-64a1-4cf2-8aec-acf34eeccbdc"},"vehicle_type_id":"4","last_reported":1692464672,"current_range_meters":30400,"station_id":"ce4bgn92rcd13ifvqbvg","pricing_plan_id":"free"},{"bike_id":"8d60ca6a-bf1c-436b-8c94-3c44d6a52bbf","system_id":"levelo_inurba_marseille","lat":43.30876,"lon":5.37191,"is_reserved":false,"is_disabled":false,"rental_uris":{"android":"levelo://app?vid=8d60ca6a-bf1c-436b-8c94-3c44d6a52bbf","ios":"levelo://app?vid=8d60ca6a-bf1c-436b-8c94-3c44d6a52bbf"},"vehicle_type_id":"4","last_reported":1692464672,"current_range_meters":6400,"station_id":"ce4bguh2rcd13ifvqckg","pricing_plan_id":"free"},{"bike_id":"386ed8e3-b71e-4f68-86af-202c5b76503e","system_id":"levelo_inurba_marseille","lat":43.305368,"lon":5.367343,"is_reserved":false,"is_disabled":false,"rental_uris":{"android":"levelo://app?vid=386ed8e3-b71e-4f68-86af-202c5b76503e","ios":"levelo://app?vid=386ed8e3-b71e-4f68-86af-202c5b76503e"},"vehicle_type_id":"4","last_reported":1692464672,"current_range_meters":24400,"station_id":"ce4bgrp2rcd13ifvqc9g","pricing_plan_id":"free"},{"bike_id":"9fbe6e18-d192-44c2-98b5-cafb68b41aa4","system_id":"levelo_inurba_marseille","lat":43.30542,"lon":5.36524,"is_reserved":false,"is_disabled":false,"rental_uris":{"android":"levelo://app?vid=9fbe6e18-d192-44c2-98b5-cafb68b41aa4","ios":"levelo://app?vid=9fbe6e18-d192-44c2-98b5-cafb68b41aa4"},"vehicle_type_id":"4","last_reported":1692464672,"current_range_meters":10800,"station_id":"ce4bgs12rcd13ifvqcag","pricing_plan_id":"free"},{"bike_id":"e92c44c6-bfb0-45fa-b2fe-a367fd139d46","system_id":"levelo_inurba_marseille","lat":43.31706,"lon":5.37737,"is_reserved":false,"is_disabled":false,"rental_uris":{"android":"levelo://app?vid=e92c44c6-bfb0-45fa-b2fe-a367fd139d46","ios":"levelo://app?vid=e92c44c6-bfb0-45fa-b2fe-a367fd139d46"},"vehicle_type_id":"4","last_reported":1692464672,"current_range_meters":20800,"station_id":"ce4bgth2rcd13ifvqch0","pricing_plan_id":"free"},{"bike_id":"afed6de6-bfcf-43e9-bfd4-eba25170a42b","system_id":"levelo_inurba_marseille","lat":43.317075,"lon":5.377367,"is_reserved":false,"is_disabled":false,"rental_uris":{"android":"levelo://app?vid=afed6de6-bfcf-43e9-bfd4-eba25170a42b","ios":"levelo://app?vid=afed6de6-bfcf-43e9-bfd4-eba25170a42b"},"vehicle_type_id":"4","last_reported":1692464672,"current_range_meters":28400,"station_id":"ce4bgth2rcd13ifvqch0","pricing_plan_id":"free"},{"bike_id":"0871042d-4c98-4a0d-a09d-36eb6b88fae9","system_id":"levelo_inurba_marseille","lat":43.315293,"lon":5.380349,"is_reserved":false,"is_disabled":false,"rental_uris":{"android":"levelo://app?vid=0871042d-4c98-4a0d-a09d-36eb6b88fae9","ios":"levelo://app?vid=0871042d-4c98-4a0d-a09d-36eb6b88fae9"},"vehicle_type_id":"4","last_reported":1692464672,"current_range_meters":23600,"station_id":"ce4bhsp2rcd13ifvqi50","pricing_plan_id":"free"},{"bike_id":"a98a7139-b119-4340-9ef4-8c6e49876ce9","system_id":"levelo_inurba_marseille","lat":43.301939,"lon":5.366286,"is_reserved":false,"is_disabled":false,"rental_uris":{"android":"levelo://app?vid=a98a7139-b119-4340-9ef4-8c6e49876ce9","ios":"levelo://app?vid=a98a7139-b119-4340-9ef4-8c6e49876ce9"},"vehicle_type_id":"4","last_reported":1692464672,"current_range_meters":0,"station_id":"ce4bgrh2rcd13ifvqc8g","pricing_plan_id":"free"},{"bike_id":"9b59e75a-d4c4-4adf-acee-5a614d3744a9","system_id":"levelo_inurba_marseille","lat":43.301939,"lon":5.366286,"is_reserved":false,"is_disabled":false,"rental_uris":{"android":"levelo://app?vid=9b59e75a-d4c4-4adf-acee-5a614d3744a9","ios":"levelo://app?vid=9b59e75a-d4c4-4adf-acee-5a614d3744a9"},"vehicle_type_id":"4","last_reported":1692464672,"current_range_meters":11200,"station_id":"ce4bgrh2rcd13ifvqc8g","pricing_plan_id":"free"},{"bike_id":"da1d513d-a263-4c99-b0ad-9a910cb24418","system_id":"levelo_inurba_marseille","lat":43.301939,"lon":5.366286,"is_reserved":false,"is_disabled":false,"rental_uris":{"android":"levelo://app?vid=da1d513d-a263-4c99-b0ad-9a910cb24418","ios":"levelo://app?vid=da1d513d-a263-4c99-b0ad-9a910cb24418"},"vehicle_type_id":"4","last_reported":1692464672,"current_range_meters":28400,"station_id":"ce4bgrh2rcd13ifvqc8g","pricing_plan_id":"free"},{"bike_id":"a6088c19-b719-45ee-b07a-73f63b37dd29","system_id":"levelo_inurba_marseille","lat":43.30459,"lon":5.37898,"is_reserved":false,"is_disabled":false,"rental_uris":{"android":"levelo://app?vid=a6088c19-b719-45ee-b07a-73f63b37dd29","ios":"levelo://app?vid=a6088c19-b719-45ee-b07a-73f63b37dd29"},"vehicle_type_id":"4","last_reported":1692464672,"current_range_meters":26800,"station_id":"","pricing_plan_id":"free"},{"bike_id":"48007e51-269f-4c9f-990d-3edb668d8f93","system_id":"levelo_inurba_marseille","lat":43.304606,"lon":5.379026,"is_reserved":false,"is_disabled":false,"rental_uris":{"android":"levelo://app?vid=48007e51-269f-4c9f-990d-3edb668d8f93","ios":"levelo://app?vid=48007e51-269f-4c9f-990d-3edb668d8f93"},"vehicle_type_id":"4","last_reported":1692464672,"current_range_meters":14800,"station_id":"ce4bgup2rcd13ifvqcn0","pricing_plan_id":"free"},{"bike_id":"1a2c4b54-f0a1-4dc3-b2d5-c373dbfb7d2c","system_id":"levelo_inurba_marseille","lat":43.304606,"lon":5.379026,"is_reserved":false,"is_disabled":false,"rental_uris":{"android":"levelo://app?vid=1a2c4b54-f0a1-4dc3-b2d5-c373dbfb7d2c","ios":"levelo://app?vid=1a2c4b54-f0a1-4dc3-b2d5-c373dbfb7d2c"},"vehicle_type_id":"4","last_reported":1692464672,"current_range_meters":1200,"station_id":"ce4bgup2rcd13ifvqcn0","pricing_plan_id":"free"},{"bike_id":"8f9423b6-2f75-4d37-9601-472d76ede970","system_id":"levelo_inurba_marseille","lat":43.3136,"lon":5.38465,"is_reserved":false,"is_disabled":false,"rental_uris":{"android":"levelo://app?vid=8f9423b6-2f75-4d37-9601-472d76ede970","ios":"levelo://app?vid=8f9423b6-2f75-4d37-9601-472d76ede970"},"vehicle_type_id":"4","last_reported":1692464672,"current_range_meters":7200,"station_id":"ce4bgt92rcd13ifvqcf0","pricing_plan_id":"free"},{"bike_id":"b885f463-e8c5-42cc-902f-7152167ce1c7","system_id":"levelo_inurba_marseille","lat":43.299243,"lon":5.374807,"is_reserved":false,"is_disabled":false,"rental_uris":{"android":"levelo://app?vid=b885f463-e8c5-42cc-902f-7152167ce1c7","ios":"levelo://app?vid=b885f463-e8c5-42cc-902f-7152167ce1c7"},"vehicle_type_id":"4","last_reported":1692464672,"current_range_meters":31200,"station_id":"ce4bgjh2rcd13ifvqbg0","pricing_plan_id":"free"},{"bike_id":"36a0a893-98e4-4939-ab77-57b6c42cb3eb","system_id":"levelo_inurba_marseille","lat":43.30209,"lon":5.38103,"is_reserved":false,"is_disabled":false,"rental_uris":{"android":"levelo://app?vid=36a0a893-98e4-4939-ab77-57b6c42cb3eb","ios":"levelo://app?vid=36a0a893-98e4-4939-ab77-57b6c42cb3eb"},"vehicle_type_id":"4","last_reported":1692464672,"current_range_meters":0,"station_id":"","pricing_plan_id":"free"},{"bike_id":"5f91fc7d-0833-4a7c-a0d8-21ec0ad5455a","system_id":"levelo_inurba_marseille","lat":43.32293,"lon":5.38253,"is_reserved":false,"is_disabled":false,"rental_uris":{"android":"levelo://app?vid=5f91fc7d-0833-4a7c-a0d8-21ec0ad5455a","ios":"levelo://app?vid=5f91fc7d-0833-4a7c-a0d8-21ec0ad5455a"},"vehicle_type_id":"4","last_reported":1692464672,"current_range_meters":20800,"station_id":"ce4bhr12rcd13ifvqhqg","pricing_plan_id":"free"},{"bike_id":"673200d6-9c00-4797-bd65-06254571f6fe","system_id":"levelo_inurba_marseille","lat":43.32295,"lon":5.38252,"is_reserved":false,"is_disabled":false,"rental_uris":{"android":"levelo://app?vid=673200d6-9c00-4797-bd65-06254571f6fe","ios":"levelo://app?vid=673200d6-9c00-4797-bd65-06254571f6fe"},"vehicle_type_id":"4","last_reported":1692464672,"current_range_meters":22800,"station_id":"ce4bhr12rcd13ifvqhqg","pricing_plan_id":"free"},{"bike_id":"1b980555-d968-4010-9e58-8aaa96e9eae0","system_id":"levelo_inurba_marseille","lat":43.3229,"lon":5.38262,"is_reserved":false,"is_disabled":false,"rental_uris":{"android":"levelo://app?vid=1b980555-d968-4010-9e58-8aaa96e9eae0","ios":"levelo://app?vid=1b980555-d968-4010-9e58-8aaa96e9eae0"},"vehicle_type_id":"4","last_reported":1692464672,"current_range_meters":31200,"station_id":"ce4bhr12rcd13ifvqhqg","pricing_plan_id":"free"},{"bike_id":"648dadf8-ff22-438c-bfb7-5c83267bdf3f","system_id":"levelo_inurba_marseille","lat":43.32293,"lon":5.38261,"is_reserved":false,"is_disabled":false,"rental_uris":{"android":"levelo://app?vid=648dadf8-ff22-438c-bfb7-5c83267bdf3f","ios":"levelo://app?vid=648dadf8-ff22-438c-bfb7-5c83267bdf3f"},"vehicle_type_id":"4","last_reported":1692464672,"current_range_meters":31200,"station_id":"ce4bhr12rcd13ifvqhqg","pricing_plan_id":"free"},{"bike_id":"5b5c8cae-b425-4976-9ba8-5ae205664d6b","system_id":"levelo_inurba_marseille","lat":43.32297,"lon":5.3826,"is_reserved":false,"is_disabled":false,"rental_uris":{"android":"levelo://app?vid=5b5c8cae-b425-4976-9ba8-5ae205664d6b","ios":"levelo://app?vid=5b5c8cae-b425-4976-9ba8-5ae205664d6b"},"vehicle_type_id":"4","last_reported":1692464672,"current_range_meters":18800,"station_id":"ce4bhr12rcd13ifvqhqg","pricing_plan_id":"free"},{"bike_id":"b9784bc4-a1f4-4e7b-a996-3746dcc4c656","system_id":"levelo_inurba_marseille","lat":43.32289,"lon":5.3827,"is_reserved":false,"is_disabled":false,"rental_uris":{"android":"levelo://app?vid=b9784bc4-a1f4-4e7b-a996-3746dcc4c656","ios":"levelo://app?vid=b9784bc4-a1f4-4e7b-a996-3746dcc4c656"},"vehicle_type_id":"4","last_reported":1692464672,"current_range_meters":10000,"station_id":"ce4bhr12rcd13ifvqhqg","pricing_plan_id":"free"},{"bike_id":"20066552-063e-4d3e-9e10-e0e8a6d2c838","system_id":"levelo_inurba_marseille","lat":43.32296,"lon":5.38263,"is_reserved":false,"is_disabled":false,"rental_uris":{"android":"levelo://app?vid=20066552-063e-4d3e-9e10-e0e8a6d2c838","ios":"levelo://app?vid=20066552-063e-4d3e-9e10-e0e8a6d2c838"},"vehicle_type_id":"4","last_reported":1692464672,"current_range_meters":29600,"station_id":"ce4bhr12rcd13ifvqhqg","pricing_plan_id":"free"},{"bike_id":"37abf04b-75d1-4790-b864-78d0de8637fb","system_id":"levelo_inurba_marseille","lat":43.32294,"lon":5.38266,"is_reserved":false,"is_disabled":false,"rental_uris":{"android":"levelo://app?vid=37abf04b-75d1-4790-b864-78d0de8637fb","ios":"levelo://app?vid=37abf04b-75d1-4790-b864-78d0de8637fb"},"vehicle_type_id":"4","last_reported":1692464672,"current_range_meters":26400,"station_id":"ce4bhr12rcd13ifvqhqg","pricing_plan_id":"free"},{"bike_id":"a1f7b084-f437-4e0c-8b20-334f54c48d59","system_id":"levelo_inurba_marseille","lat":43.3229,"lon":5.38271,"is_reserved":false,"is_disabled":false,"rental_uris":{"android":"levelo://app?vid=a1f7b084-f437-4e0c-8b20-334f54c48d59","ios":"levelo://app?vid=a1f7b084-f437-4e0c-8b20-334f54c48d59"},"vehicle_type_id":"4","last_reported":1692464672,"current_range_meters":18800,"station_id":"ce4bhr12rcd13ifvqhqg","pricing_plan_id":"free"},{"bike_id":"8d437ee0-2979-43ba-a0d7-aeb1267ca420","system_id":"levelo_inurba_marseille","lat":43.328371,"lon":5.366909,"is_reserved":false,"is_disabled":false,"rental_uris":{"android":"levelo://app?vid=8d437ee0-2979-43ba-a0d7-aeb1267ca420","ios":"levelo://app?vid=8d437ee0-2979-43ba-a0d7-aeb1267ca420"},"vehicle_type_id":"4","last_reported":1692464672,"current_range_meters":8800,"station_id":"ce4bhs92rcd13ifvqi0g","pricing_plan_id":"free"},{"bike_id":"dead8c06-66e1-4988-887a-a1c0b4d00137","system_id":"levelo_inurba_marseille","lat":43.32832,"lon":5.36691,"is_reserved":false,"is_disabled":false,"rental_uris":{"android":"levelo://app?vid=dead8c06-66e1-4988-887a-a1c0b4d00137","ios":"levelo://app?vid=dead8c06-66e1-4988-887a-a1c0b4d00137"},"vehicle_type_id":"4","last_reported":1692464672,"current_range_meters":7600,"station_id":"ce4bhs92rcd13ifvqi0g","pricing_plan_id":"free"},{"bike_id":"418f40db-23bc-4b66-8945-04cfb5eeb137","system_id":"levelo_inurba_marseille","lat":43.32834,"lon":5.36684,"is_reserved":false,"is_disabled":false,"rental_uris":{"android":"levelo://app?vid=418f40db-23bc-4b66-8945-04cfb5eeb137","ios":"levelo://app?vid=418f40db-23bc-4b66-8945-04cfb5eeb137"},"vehicle_type_id":"4","last_reported":1692464672,"current_range_meters":31200,"station_id":"ce4bhs92rcd13ifvqi0g","pricing_plan_id":"free"},{"bike_id":"e3a21d07-f446-4608-85be-12a81574bffc","system_id":"levelo_inurba_marseille","lat":43.32835,"lon":5.36687,"is_reserved":false,"is_disabled":false,"rental_uris":{"android":"levelo://app?vid=e3a21d07-f446-4608-85be-12a81574bffc","ios":"levelo://app?vid=e3a21d07-f446-4608-85be-12a81574bffc"},"vehicle_type_id":"4","last_reported":1692464672,"current_range_meters":15600,"station_id":"ce4bhs92rcd13ifvqi0g","pricing_plan_id":"free"},{"bike_id":"dd789220-e7b5-42c1-b9dc-dc4243148021","system_id":"levelo_inurba_marseille","lat":43.297163,"lon":5.365866,"is_reserved":false,"is_disabled":false,"rental_uris":{"android":"levelo://app?vid=dd789220-e7b5-42c1-b9dc-dc4243148021","ios":"levelo://app?vid=dd789220-e7b5-42c1-b9dc-dc4243148021"},"vehicle_type_id":"4","last_reported":1692464672,"current_range_meters":31200,"station_id":"ce4bgn12rcd13ifvqbt0","pricing_plan_id":"free"},{"bike_id":"bb155e93-116e-494a-9911-2df351c7dae8","system_id":"levelo_inurba_marseille","lat":43.296131,"lon":5.370791,"is_reserved":false,"is_disabled":false,"rental_uris":{"android":"levelo://app?vid=bb155e93-116e-494a-9911-2df351c7dae8","ios":"levelo://app?vid=bb155e93-116e-494a-9911-2df351c7dae8"},"vehicle_type_id":"4","last_reported":1692464672,"current_range_meters":30400,"station_id":"ce4bgnh2rcd13ifvqc0g","pricing_plan_id":"free"},{"bike_id":"d3139180-8ba9-4c91-b6e4-8baae3c22113","system_id":"levelo_inurba_marseille","lat":43.296131,"lon":5.370773,"is_reserved":false,"is_disabled":false,"rental_uris":{"android":"levelo://app?vid=d3139180-8ba9-4c91-b6e4-8baae3c22113","ios":"levelo://app?vid=d3139180-8ba9-4c91-b6e4-8baae3c22113"},"vehicle_type_id":"4","last_reported":1692464672,"current_range_meters":31200,"station_id":"ce4bgnh2rcd13ifvqc0g","pricing_plan_id":"free"},{"bike_id":"78a8f121-c5c2-49bc-bf24-20533c6f99b7","system_id":"levelo_inurba_marseille","lat":43.296131,"lon":5.370791,"is_reserved":false,"is_disabled":false,"rental_uris":{"android":"levelo://app?vid=78a8f121-c5c2-49bc-bf24-20533c6f99b7","ios":"levelo://app?vid=78a8f121-c5c2-49bc-bf24-20533c6f99b7"},"vehicle_type_id":"4","last_reported":1692464672,"current_range_meters":30000,"station_id":"ce4bgnh2rcd13ifvqc0g","pricing_plan_id":"free"},{"bike_id":"a4e0a62c-dbd5-408d-9430-f45cc1aeb35b","system_id":"levelo_inurba_marseille","lat":43.29573,"lon":5.367355,"is_reserved":false,"is_disabled":false,"rental_uris":{"android":"levelo://app?vid=a4e0a62c-dbd5-408d-9430-f45cc1aeb35b","ios":"levelo://app?vid=a4e0a62c-dbd5-408d-9430-f45cc1aeb35b"},"vehicle_type_id":"4","last_reported":1692464672,"current_range_meters":15600,"station_id":"ce4bgph2rcd13ifvqc2g","pricing_plan_id":"free"},{"bike_id":"e91e1d6e-b689-42f9-92e3-48be98b452f6","system_id":"levelo_inurba_marseille","lat":43.296935,"lon":5.376544,"is_reserved":false,"is_disabled":false,"rental_uris":{"android":"levelo://app?vid=e91e1d6e-b689-42f9-92e3-48be98b452f6","ios":"levelo://app?vid=e91e1d6e-b689-42f9-92e3-48be98b452f6"},"vehicle_type_id":"4","last_reported":1692464672,"current_range_meters":0,"station_id":"ce4bgkh2rcd13ifvqbl0","pricing_plan_id":"free"},{"bike_id":"a44777f2-4625-4245-9d4e-0eb91bea0f32","system_id":"levelo_inurba_marseille","lat":43.296921,"lon":5.376579,"is_reserved":false,"is_disabled":false,"rental_uris":{"android":"levelo://app?vid=a44777f2-4625-4245-9d4e-0eb91bea0f32","ios":"levelo://app?vid=a44777f2-4625-4245-9d4e-0eb91bea0f32"},"vehicle_type_id":"4","last_reported":1692464672,"current_range_meters":400,"station_id":"ce4bgkh2rcd13ifvqbl0","pricing_plan_id":"free"},{"bike_id":"e9682881-cb03-4ae3-b439-0cc7b7a607e3","system_id":"levelo_inurba_marseille","lat":43.317557,"lon":5.390173,"is_reserved":false,"is_disabled":false,"rental_uris":{"android":"levelo://app?vid=e9682881-cb03-4ae3-b439-0cc7b7a607e3","ios":"levelo://app?vid=e9682881-cb03-4ae3-b439-0cc7b7a607e3"},"vehicle_type_id":"4","last_reported":1692464672,"current_range_meters":24800,"station_id":"ce4bhqp2rcd13ifvqhng","pricing_plan_id":"free"},{"bike_id":"b19118f7-cbf1-4ae5-bf92-0d92bbaa7599","system_id":"levelo_inurba_marseille","lat":43.317557,"lon":5.390173,"is_reserved":false,"is_disabled":false,"rental_uris":{"android":"levelo://app?vid=b19118f7-cbf1-4ae5-bf92-0d92bbaa7599","ios":"levelo://app?vid=b19118f7-cbf1-4ae5-bf92-0d92bbaa7599"},"vehicle_type_id":"4","last_reported":1692464672,"current_range_meters":27200,"station_id":"ce4bhqp2rcd13ifvqhng","pricing_plan_id":"free"},{"bike_id":"3d45b600-7c7b-45f9-941f-69b4789bdacd","system_id":"levelo_inurba_marseille","lat":43.2979,"lon":5.38093,"is_reserved":false,"is_disabled":false,"rental_uris":{"android":"levelo://app?vid=3d45b600-7c7b-45f9-941f-69b4789bdacd","ios":"levelo://app?vid=3d45b600-7c7b-45f9-941f-69b4789bdacd"},"vehicle_type_id":"4","last_reported":1692464672,"current_range_meters":5200,"station_id":"ce4bgip2rcd13ifvqbb0","pricing_plan_id":"free"},{"bike_id":"a4df99ce-0488-49dd-a888-94686f562e88","system_id":"levelo_inurba_marseille","lat":43.295748,"lon":5.37522,"is_reserved":false,"is_disabled":false,"rental_uris":{"android":"levelo://app?vid=a4df99ce-0488-49dd-a888-94686f562e88","ios":"levelo://app?vid=a4df99ce-0488-49dd-a888-94686f562e88"},"vehicle_type_id":"4","last_reported":1692464672,"current_range_meters":29200,"station_id":"ce4bgh92rcd13ifvqb50","pricing_plan_id":"free"},{"bike_id":"ecea6356-a5ac-4dfc-9b5d-2640db23025c","system_id":"levelo_inurba_marseille","lat":43.2978,"lon":5.38177,"is_reserved":false,"is_disabled":false,"rental_uris":{"android":"levelo://app?vid=ecea6356-a5ac-4dfc-9b5d-2640db23025c","ios":"levelo://app?vid=ecea6356-a5ac-4dfc-9b5d-2640db23025c"},"vehicle_type_id":"4","last_reported":1692464672,"current_range_meters":19200,"station_id":"","pricing_plan_id":"free"},{"bike_id":"207f2f90-5396-4fe6-bd95-d438ab16c0b7","system_id":"levelo_inurba_marseille","lat":43.32363,"lon":5.3887,"is_reserved":false,"is_disabled":false,"rental_uris":{"android":"levelo://app?vid=207f2f90-5396-4fe6-bd95-d438ab16c0b7","ios":"levelo://app?vid=207f2f90-5396-4fe6-bd95-d438ab16c0b7"},"vehicle_type_id":"4","last_reported":1692464672,"current_range_meters":30000,"station_id":"ce4bhqp2rcd13ifvqhog","pricing_plan_id":"free"},{"bike_id":"21fcea45-e491-4a85-bcbf-bf5cd0b62ccf","system_id":"levelo_inurba_marseille","lat":43.32368,"lon":5.38879,"is_reserved":false,"is_disabled":false,"rental_uris":{"android":"levelo://app?vid=21fcea45-e491-4a85-bcbf-bf5cd0b62ccf","ios":"levelo://app?vid=21fcea45-e491-4a85-bcbf-bf5cd0b62ccf"},"vehicle_type_id":"4","last_reported":1692464672,"current_range_meters":31200,"station_id":"ce4bhqp2rcd13ifvqhog","pricing_plan_id":"free"},{"bike_id":"55f08f4d-333e-4077-9882-16e72e12ddbf","system_id":"levelo_inurba_marseille","lat":43.32367,"lon":5.388836,"is_reserved":false,"is_disabled":false,"rental_uris":{"android":"levelo://app?vid=55f08f4d-333e-4077-9882-16e72e12ddbf","ios":"levelo://app?vid=55f08f4d-333e-4077-9882-16e72e12ddbf"},"vehicle_type_id":"4","last_reported":1692464672,"current_range_meters":27600,"station_id":"ce4bhqp2rcd13ifvqhog","pricing_plan_id":"free"},{"bike_id":"a97f77a2-1520-4bfc-9df0-0f9c62851caa","system_id":"levelo_inurba_marseille","lat":43.32365,"lon":5.38883,"is_reserved":false,"is_disabled":false,"rental_uris":{"android":"levelo://app?vid=a97f77a2-1520-4bfc-9df0-0f9c62851caa","ios":"levelo://app?vid=a97f77a2-1520-4bfc-9df0-0f9c62851caa"},"vehicle_type_id":"4","last_reported":1692464672,"current_range_meters":27600,"station_id":"ce4bhqp2rcd13ifvqhog","pricing_plan_id":"free"},{"bike_id":"d49c7be8-2f16-4455-8835-7143b891d27c","system_id":"levelo_inurba_marseille","lat":43.32364,"lon":5.38888,"is_reserved":false,"is_disabled":false,"rental_uris":{"android":"levelo://app?vid=d49c7be8-2f16-4455-8835-7143b891d27c","ios":"levelo://app?vid=d49c7be8-2f16-4455-8835-7143b891d27c"},"vehicle_type_id":"4","last_reported":1692464672,"current_range_meters":26400,"station_id":"ce4bhqp2rcd13ifvqhog","pricing_plan_id":"free"},{"bike_id":"03f2098f-b50c-4ca4-a765-8806d474ecf2","system_id":"levelo_inurba_marseille","lat":43.32367,"lon":5.388836,"is_reserved":false,"is_disabled":false,"rental_uris":{"android":"levelo://app?vid=03f2098f-b50c-4ca4-a765-8806d474ecf2","ios":"levelo://app?vid=03f2098f-b50c-4ca4-a765-8806d474ecf2"},"vehicle_type_id":"4","last_reported":1692464672,"current_range_meters":8800,"station_id":"ce4bhqp2rcd13ifvqhog","pricing_plan_id":"free"},{"bike_id":"0126f869-77bb-4690-a14f-53e2dd9d4689","system_id":"levelo_inurba_marseille","lat":43.32373,"lon":5.38883,"is_reserved":false,"is_disabled":false,"rental_uris":{"android":"levelo://app?vid=0126f869-77bb-4690-a14f-53e2dd9d4689","ios":"levelo://app?vid=0126f869-77bb-4690-a14f-53e2dd9d4689"},"vehicle_type_id":"4","last_reported":1692464672,"current_range_meters":25200,"station_id":"ce4bhqp2rcd13ifvqhog","pricing_plan_id":"free"},{"bike_id":"635b8c21-3b11-40ce-917b-0afc63b9d496","system_id":"levelo_inurba_marseille","lat":43.32367,"lon":5.388836,"is_reserved":false,"is_disabled":false,"rental_uris":{"android":"levelo://app?vid=635b8c21-3b11-40ce-917b-0afc63b9d496","ios":"levelo://app?vid=635b8c21-3b11-40ce-917b-0afc63b9d496"},"vehicle_type_id":"4","last_reported":1692464672,"current_range_meters":2400,"station_id":"ce4bhqp2rcd13ifvqhog","pricing_plan_id":"free"},{"bike_id":"6b6cba89-d2b8-44bb-8454-5df08cf65f67","system_id":"levelo_inurba_marseille","lat":43.32372,"lon":5.38886,"is_reserved":false,"is_disabled":false,"rental_uris":{"android":"levelo://app?vid=6b6cba89-d2b8-44bb-8454-5df08cf65f67","ios":"levelo://app?vid=6b6cba89-d2b8-44bb-8454-5df08cf65f67"},"vehicle_type_id":"4","last_reported":1692464672,"current_range_meters":12400,"station_id":"ce4bhqp2rcd13ifvqhog","pricing_plan_id":"free"},{"bike_id":"3ca3f621-3ed1-46b4-b4f6-37a71d187fa3","system_id":"levelo_inurba_marseille","lat":43.32367,"lon":5.388836,"is_reserved":false,"is_disabled":false,"rental_uris":{"android":"levelo://app?vid=3ca3f621-3ed1-46b4-b4f6-37a71d187fa3","ios":"levelo://app?vid=3ca3f621-3ed1-46b4-b4f6-37a71d187fa3"},"vehicle_type_id":"4","last_reported":1692464672,"current_range_meters":26400,"station_id":"ce4bhqp2rcd13ifvqhog","pricing_plan_id":"free"},{"bike_id":"38fef587-7cc5-4800-b069-87b8f296a10a","system_id":"levelo_inurba_marseille","lat":43.293009,"lon":5.374584,"is_reserved":false,"is_disabled":false,"rental_uris":{"android":"levelo://app?vid=38fef587-7cc5-4800-b069-87b8f296a10a","ios":"levelo://app?vid=38fef587-7cc5-4800-b069-87b8f296a10a"},"vehicle_type_id":"4","last_reported":1692464672,"current_range_meters":31200,"station_id":"ce4bgi12rcd13ifvqb70","pricing_plan_id":"free"},{"bike_id":"8a7c6274-414c-4d06-8f7d-304bf79ab445","system_id":"levelo_inurba_marseille","lat":43.29223,"lon":5.36076,"is_reserved":false,"is_disabled":false,"rental_uris":{"android":"levelo://app?vid=8a7c6274-414c-4d06-8f7d-304bf79ab445","ios":"levelo://app?vid=8a7c6274-414c-4d06-8f7d-304bf79ab445"},"vehicle_type_id":"4","last_reported":1692464672,"current_range_meters":0,"station_id":"ce4bhbh2rcd13ifvqeqg","pricing_plan_id":"free"},{"bike_id":"9cd35b92-dd92-41bd-b3d0-d7a7a99ac620","system_id":"levelo_inurba_marseille","lat":43.292311,"lon":5.360731,"is_reserved":false,"is_disabled":false,"rental_uris":{"android":"levelo://app?vid=9cd35b92-dd92-41bd-b3d0-d7a7a99ac620","ios":"levelo://app?vid=9cd35b92-dd92-41bd-b3d0-d7a7a99ac620"},"vehicle_type_id":"4","last_reported":1692464672,"current_range_meters":20400,"station_id":"ce4bhbh2rcd13ifvqeqg","pricing_plan_id":"free"},{"bike_id":"ce4a60e6-6ffc-40d6-b7d5-1c5f123b1494","system_id":"levelo_inurba_marseille","lat":43.292311,"lon":5.360731,"is_reserved":false,"is_disabled":false,"rental_uris":{"android":"levelo://app?vid=ce4a60e6-6ffc-40d6-b7d5-1c5f123b1494","ios":"levelo://app?vid=ce4a60e6-6ffc-40d6-b7d5-1c5f123b1494"},"vehicle_type_id":"4","last_reported":1692464672,"current_range_meters":22400,"station_id":"ce4bhbh2rcd13ifvqeqg","pricing_plan_id":"free"},{"bike_id":"cafcae29-9a5f-44ad-806d-90e4e4fcc390","system_id":"levelo_inurba_marseille","lat":43.30085,"lon":5.390856,"is_reserved":false,"is_disabled":false,"rental_uris":{"android":"levelo://app?vid=cafcae29-9a5f-44ad-806d-90e4e4fcc390","ios":"levelo://app?vid=cafcae29-9a5f-44ad-806d-90e4e4fcc390"},"vehicle_type_id":"4","last_reported":1692464672,"current_range_meters":4800,"station_id":"ce4bh192rcd13ifvqdb0","pricing_plan_id":"free"},{"bike_id":"1ad97d13-80ff-4cfc-b48f-aeba36055ba8","system_id":"levelo_inurba_marseille","lat":43.300729,"lon":5.390909,"is_reserved":false,"is_disabled":false,"rental_uris":{"android":"levelo://app?vid=1ad97d13-80ff-4cfc-b48f-aeba36055ba8","ios":"levelo://app?vid=1ad97d13-80ff-4cfc-b48f-aeba36055ba8"},"vehicle_type_id":"4","last_reported":1692464672,"current_range_meters":23600,"station_id":"","pricing_plan_id":"free"},{"bike_id":"b440649b-e51f-44c0-ae30-09f7bb771dcc","system_id":"levelo_inurba_marseille","lat":43.298764,"lon":5.388973,"is_reserved":false,"is_disabled":false,"rental_uris":{"android":"levelo://app?vid=b440649b-e51f-44c0-ae30-09f7bb771dcc","ios":"levelo://app?vid=b440649b-e51f-44c0-ae30-09f7bb771dcc"},"vehicle_type_id":"4","last_reported":1692464672,"current_range_meters":11200,"station_id":"ce4bh392rcd13ifvqdl0","pricing_plan_id":"free"},{"bike_id":"6fa692d2-23fa-4fd1-9621-f349dbf9d11e","system_id":"levelo_inurba_marseille","lat":43.291675,"lon":5.371583,"is_reserved":false,"is_disabled":false,"rental_uris":{"android":"levelo://app?vid=6fa692d2-23fa-4fd1-9621-f349dbf9d11e","ios":"levelo://app?vid=6fa692d2-23fa-4fd1-9621-f349dbf9d11e"},"vehicle_type_id":"4","last_reported":1692464672,"current_range_meters":10800,"station_id":"ce4bha92rcd13ifvqeh0","pricing_plan_id":"free"},{"bike_id":"03f9359f-5666-4e0d-a496-7112a2241dfb","system_id":"levelo_inurba_marseille","lat":43.29529,"lon":5.385581,"is_reserved":false,"is_disabled":false,"rental_uris":{"android":"levelo://app?vid=03f9359f-5666-4e0d-a496-7112a2241dfb","ios":"levelo://app?vid=03f9359f-5666-4e0d-a496-7112a2241dfb"},"vehicle_type_id":"4","last_reported":1692464672,"current_range_meters":24000,"station_id":"ce4bgih2rcd13ifvqba0","pricing_plan_id":"free"},{"bike_id":"86baea62-4d96-4d88-97f3-dbbf3fc9667c","system_id":"levelo_inurba_marseille","lat":43.29529,"lon":5.385581,"is_reserved":false,"is_disabled":false,"rental_uris":{"android":"levelo://app?vid=86baea62-4d96-4d88-97f3-dbbf3fc9667c","ios":"levelo://app?vid=86baea62-4d96-4d88-97f3-dbbf3fc9667c"},"vehicle_type_id":"4","last_reported":1692464672,"current_range_meters":25600,"station_id":"ce4bgih2rcd13ifvqba0","pricing_plan_id":"free"},{"bike_id":"13602f18-b96a-40cf-953a-c736330869f8","system_id":"levelo_inurba_marseille","lat":43.290327,"lon":5.375711,"is_reserved":false,"is_disabled":false,"rental_uris":{"android":"levelo://app?vid=13602f18-b96a-40cf-953a-c736330869f8","ios":"levelo://app?vid=13602f18-b96a-40cf-953a-c736330869f8"},"vehicle_type_id":"4","last_reported":1692464672,"current_range_meters":27200,"station_id":"ce4bh692rcd13ifvqe90","pricing_plan_id":"free"},{"bike_id":"15c23d9f-0b00-49f2-b008-5d8861f55b37","system_id":"levelo_inurba_marseille","lat":43.294153,"lon":5.386305,"is_reserved":false,"is_disabled":false,"rental_uris":{"android":"levelo://app?vid=15c23d9f-0b00-49f2-b008-5d8861f55b37","ios":"levelo://app?vid=15c23d9f-0b00-49f2-b008-5d8861f55b37"},"vehicle_type_id":"4","last_reported":1692464672,"current_range_meters":4400,"station_id":"ce4bh2h2rcd13ifvqdh0","pricing_plan_id":"free"},{"bike_id":"5f8d9028-a252-4ad7-8259-2878cb35ff0d","system_id":"levelo_inurba_marseille","lat":43.294162,"lon":5.386292,"is_reserved":false,"is_disabled":false,"rental_uris":{"android":"levelo://app?vid=5f8d9028-a252-4ad7-8259-2878cb35ff0d","ios":"levelo://app?vid=5f8d9028-a252-4ad7-8259-2878cb35ff0d"},"vehicle_type_id":"4","last_reported":1692464672,"current_range_meters":0,"station_id":"ce4bh2h2rcd13ifvqdh0","pricing_plan_id":"free"},{"bike_id":"8eb958d4-713b-427d-98d3-b81497a0270b","system_id":"levelo_inurba_marseille","lat":43.294153,"lon":5.386305,"is_reserved":false,"is_disabled":false,"rental_uris":{"android":"levelo://app?vid=8eb958d4-713b-427d-98d3-b81497a0270b","ios":"levelo://app?vid=8eb958d4-713b-427d-98d3-b81497a0270b"},"vehicle_type_id":"4","last_reported":1692464672,"current_range_meters":20000,"station_id":"ce4bh2h2rcd13ifvqdh0","pricing_plan_id":"free"},{"bike_id":"a57dee3c-dfff-424b-98b5-aad7780378a3","system_id":"levelo_inurba_marseille","lat":43.28948,"lon":5.36641,"is_reserved":false,"is_disabled":false,"rental_uris":{"android":"levelo://app?vid=a57dee3c-dfff-424b-98b5-aad7780378a3","ios":"levelo://app?vid=a57dee3c-dfff-424b-98b5-aad7780378a3"},"vehicle_type_id":"4","last_reported":1692464672,"current_range_meters":13200,"station_id":"ce4bhap2rcd13ifvqek0","pricing_plan_id":"free"},{"bike_id":"0720af83-ab5f-49fc-a3ca-4492bce3dd3b","system_id":"levelo_inurba_marseille","lat":43.294162,"lon":5.386292,"is_reserved":false,"is_disabled":false,"rental_uris":{"android":"levelo://app?vid=0720af83-ab5f-49fc-a3ca-4492bce3dd3b","ios":"levelo://app?vid=0720af83-ab5f-49fc-a3ca-4492bce3dd3b"},"vehicle_type_id":"4","last_reported":1692464672,"current_range_meters":8000,"station_id":"ce4bh2h2rcd13ifvqdh0","pricing_plan_id":"free"},{"bike_id":"5fd8b0e4-791e-4aca-a62d-6cbd8de2f3ad","system_id":"levelo_inurba_marseille","lat":43.294162,"lon":5.386292,"is_reserved":false,"is_disabled":false,"rental_uris":{"android":"levelo://app?vid=5fd8b0e4-791e-4aca-a62d-6cbd8de2f3ad","ios":"levelo://app?vid=5fd8b0e4-791e-4aca-a62d-6cbd8de2f3ad"},"vehicle_type_id":"4","last_reported":1692464672,"current_range_meters":6000,"station_id":"ce4bh2h2rcd13ifvqdh0","pricing_plan_id":"free"},{"bike_id":"808cc394-a653-46b6-8249-81e02fae4a3a","system_id":"levelo_inurba_marseille","lat":43.294153,"lon":5.386305,"is_reserved":false,"is_disabled":false,"rental_uris":{"android":"levelo://app?vid=808cc394-a653-46b6-8249-81e02fae4a3a","ios":"levelo://app?vid=808cc394-a653-46b6-8249-81e02fae4a3a"},"vehicle_type_id":"4","last_reported":1692464672,"current_range_meters":7200,"station_id":"ce4bh2h2rcd13ifvqdh0","pricing_plan_id":"free"},{"bike_id":"c52b06aa-9079-4657-9e82-ebd7086fef0d","system_id":"levelo_inurba_marseille","lat":43.289184,"lon":5.366408,"is_reserved":false,"is_disabled":false,"rental_uris":{"android":"levelo://app?vid=c52b06aa-9079-4657-9e82-ebd7086fef0d","ios":"levelo://app?vid=c52b06aa-9079-4657-9e82-ebd7086fef0d"},"vehicle_type_id":"4","last_reported":1692464672,"current_range_meters":26000,"station_id":"ce4bhap2rcd13ifvqek0","pricing_plan_id":"free"},{"bike_id":"127f3db1-7d0a-46b4-bbd4-709167b73a5c","system_id":"levelo_inurba_marseille","lat":43.289184,"lon":5.366408,"is_reserved":false,"is_disabled":false,"rental_uris":{"android":"levelo://app?vid=127f3db1-7d0a-46b4-bbd4-709167b73a5c","ios":"levelo://app?vid=127f3db1-7d0a-46b4-bbd4-709167b73a5c"},"vehicle_type_id":"4","last_reported":1692464672,"current_range_meters":10800,"station_id":"ce4bhap2rcd13ifvqek0","pricing_plan_id":"free"},{"bike_id":"f8b82806-c907-4b6b-842b-7923728cc6fe","system_id":"levelo_inurba_marseille","lat":43.289184,"lon":5.366408,"is_reserved":false,"is_disabled":false,"rental_uris":{"android":"levelo://app?vid=f8b82806-c907-4b6b-842b-7923728cc6fe","ios":"levelo://app?vid=f8b82806-c907-4b6b-842b-7923728cc6fe"},"vehicle_type_id":"4","last_reported":1692464672,"current_range_meters":21600,"station_id":"ce4bhap2rcd13ifvqek0","pricing_plan_id":"free"},{"bike_id":"e78af222-9c1f-457f-b146-0cce323af5c1","system_id":"levelo_inurba_marseille","lat":43.292644,"lon":5.384257,"is_reserved":false,"is_disabled":false,"rental_uris":{"android":"levelo://app?vid=e78af222-9c1f-457f-b146-0cce323af5c1","ios":"levelo://app?vid=e78af222-9c1f-457f-b146-0cce323af5c1"},"vehicle_type_id":"4","last_reported":1692464672,"current_range_meters":1200,"station_id":"ce4bh692rcd13ifvqea0","pricing_plan_id":"free"},{"bike_id":"4c4508b1-7cff-4bd2-acd4-614025e0a402","system_id":"levelo_inurba_marseille","lat":43.292644,"lon":5.384257,"is_reserved":false,"is_disabled":false,"rental_uris":{"android":"levelo://app?vid=4c4508b1-7cff-4bd2-acd4-614025e0a402","ios":"levelo://app?vid=4c4508b1-7cff-4bd2-acd4-614025e0a402"},"vehicle_type_id":"4","last_reported":1692464672,"current_range_meters":24400,"station_id":"ce4bh692rcd13ifvqea0","pricing_plan_id":"free"},{"bike_id":"3a4c031f-8c7f-4dfd-a77a-04ae0ae820d5","system_id":"levelo_inurba_marseille","lat":43.292642,"lon":5.384254,"is_reserved":false,"is_disabled":false,"rental_uris":{"android":"levelo://app?vid=3a4c031f-8c7f-4dfd-a77a-04ae0ae820d5","ios":"levelo://app?vid=3a4c031f-8c7f-4dfd-a77a-04ae0ae820d5"},"vehicle_type_id":"4","last_reported":1692464672,"current_range_meters":15600,"station_id":"ce4bh692rcd13ifvqea0","pricing_plan_id":"free"},{"bike_id":"2dcc534a-149f-45f2-a088-db65cba98c9d","system_id":"levelo_inurba_marseille","lat":43.292642,"lon":5.384254,"is_reserved":false,"is_disabled":false,"rental_uris":{"android":"levelo://app?vid=2dcc534a-149f-45f2-a088-db65cba98c9d","ios":"levelo://app?vid=2dcc534a-149f-45f2-a088-db65cba98c9d"},"vehicle_type_id":"4","last_reported":1692464672,"current_range_meters":0,"station_id":"ce4bh692rcd13ifvqea0","pricing_plan_id":"free"},{"bike_id":"66853f07-2db1-4d90-97e0-65b7d0df7a0b","system_id":"levelo_inurba_marseille","lat":43.292644,"lon":5.384257,"is_reserved":false,"is_disabled":false,"rental_uris":{"android":"levelo://app?vid=66853f07-2db1-4d90-97e0-65b7d0df7a0b","ios":"levelo://app?vid=66853f07-2db1-4d90-97e0-65b7d0df7a0b"},"vehicle_type_id":"4","last_reported":1692464672,"current_range_meters":16400,"station_id":"ce4bh692rcd13ifvqea0","pricing_plan_id":"free"},{"bike_id":"b66fcca6-9bda-48ee-a493-7a3556ba65c6","system_id":"levelo_inurba_marseille","lat":43.292642,"lon":5.384254,"is_reserved":false,"is_disabled":false,"rental_uris":{"android":"levelo://app?vid=b66fcca6-9bda-48ee-a493-7a3556ba65c6","ios":"levelo://app?vid=b66fcca6-9bda-48ee-a493-7a3556ba65c6"},"vehicle_type_id":"4","last_reported":1692464672,"current_range_meters":25200,"station_id":"ce4bh692rcd13ifvqea0","pricing_plan_id":"free"},{"bike_id":"7ded4e43-1b0e-4843-b614-5758c1d2740d","system_id":"levelo_inurba_marseille","lat":43.292644,"lon":5.384257,"is_reserved":false,"is_disabled":false,"rental_uris":{"android":"levelo://app?vid=7ded4e43-1b0e-4843-b614-5758c1d2740d","ios":"levelo://app?vid=7ded4e43-1b0e-4843-b614-5758c1d2740d"},"vehicle_type_id":"4","last_reported":1692464672,"current_range_meters":21200,"station_id":"ce4bh692rcd13ifvqea0","pricing_plan_id":"free"},{"bike_id":"6f638f0f-87cd-4e9f-83a3-217868343a79","system_id":"levelo_inurba_marseille","lat":43.292642,"lon":5.384254,"is_reserved":false,"is_disabled":false,"rental_uris":{"android":"levelo://app?vid=6f638f0f-87cd-4e9f-83a3-217868343a79","ios":"levelo://app?vid=6f638f0f-87cd-4e9f-83a3-217868343a79"},"vehicle_type_id":"4","last_reported":1692464672,"current_range_meters":21200,"station_id":"ce4bh692rcd13ifvqea0","pricing_plan_id":"free"},{"bike_id":"8cec0a5e-a013-4bb5-bdd5-903ebe627f90","system_id":"levelo_inurba_marseille","lat":43.33045,"lon":5.38911,"is_reserved":false,"is_disabled":false,"rental_uris":{"android":"levelo://app?vid=8cec0a5e-a013-4bb5-bdd5-903ebe627f90","ios":"levelo://app?vid=8cec0a5e-a013-4bb5-bdd5-903ebe627f90"},"vehicle_type_id":"4","last_reported":1692464672,"current_range_meters":28400,"station_id":"ce4bhr92rcd13ifvqhrg","pricing_plan_id":"free"},{"bike_id":"86eac789-1e56-496d-abfa-705e29d378c7","system_id":"levelo_inurba_marseille","lat":43.33044,"lon":5.38913,"is_reserved":false,"is_disabled":false,"rental_uris":{"android":"levelo://app?vid=86eac789-1e56-496d-abfa-705e29d378c7","ios":"levelo://app?vid=86eac789-1e56-496d-abfa-705e29d378c7"},"vehicle_type_id":"4","last_reported":1692464672,"current_range_meters":30800,"station_id":"ce4bhr92rcd13ifvqhrg","pricing_plan_id":"free"},{"bike_id":"7d19a255-9f7a-4d0e-beba-2bfebb3c7b5e","system_id":"levelo_inurba_marseille","lat":43.33043,"lon":5.38915,"is_reserved":false,"is_disabled":false,"rental_uris":{"android":"levelo://app?vid=7d19a255-9f7a-4d0e-beba-2bfebb3c7b5e","ios":"levelo://app?vid=7d19a255-9f7a-4d0e-beba-2bfebb3c7b5e"},"vehicle_type_id":"4","last_reported":1692464672,"current_range_meters":23600,"station_id":"ce4bhr92rcd13ifvqhrg","pricing_plan_id":"free"},{"bike_id":"78f1a325-e5b4-4a72-bb0e-b29d3285ba24","system_id":"levelo_inurba_marseille","lat":43.290104,"lon":5.356111,"is_reserved":false,"is_disabled":false,"rental_uris":{"android":"levelo://app?vid=78f1a325-e5b4-4a72-bb0e-b29d3285ba24","ios":"levelo://app?vid=78f1a325-e5b4-4a72-bb0e-b29d3285ba24"},"vehicle_type_id":"4","last_reported":1692464672,"current_range_meters":30800,"station_id":"ce4bhb92rcd13ifvqen0","pricing_plan_id":"free"},{"bike_id":"16105e4d-cb4a-4aae-91bb-2ecd41a7406b","system_id":"levelo_inurba_marseille","lat":43.3304,"lon":5.38922,"is_reserved":false,"is_disabled":false,"rental_uris":{"android":"levelo://app?vid=16105e4d-cb4a-4aae-91bb-2ecd41a7406b","ios":"levelo://app?vid=16105e4d-cb4a-4aae-91bb-2ecd41a7406b"},"vehicle_type_id":"4","last_reported":1692464672,"current_range_meters":24000,"station_id":"ce4bhr92rcd13ifvqhrg","pricing_plan_id":"free"},{"bike_id":"70576a93-fbdb-4696-908e-c08c0f1995f8","system_id":"levelo_inurba_marseille","lat":43.33047,"lon":5.38912,"is_reserved":false,"is_disabled":false,"rental_uris":{"android":"levelo://app?vid=70576a93-fbdb-4696-908e-c08c0f1995f8","ios":"levelo://app?vid=70576a93-fbdb-4696-908e-c08c0f1995f8"},"vehicle_type_id":"4","last_reported":1692464672,"current_range_meters":27600,"station_id":"ce4bhr92rcd13ifvqhrg","pricing_plan_id":"free"},{"bike_id":"5036c72a-6252-47f4-a9fb-50fd514d506a","system_id":"levelo_inurba_marseille","lat":43.33046,"lon":5.38919,"is_reserved":false,"is_disabled":false,"rental_uris":{"android":"levelo://app?vid=5036c72a-6252-47f4-a9fb-50fd514d506a","ios":"levelo://app?vid=5036c72a-6252-47f4-a9fb-50fd514d506a"},"vehicle_type_id":"4","last_reported":1692464672,"current_range_meters":24000,"station_id":"ce4bhr92rcd13ifvqhrg","pricing_plan_id":"free"},{"bike_id":"708f7f21-b221-4c14-94b6-b5d8e3289350","system_id":"levelo_inurba_marseille","lat":43.33048,"lon":5.38919,"is_reserved":false,"is_disabled":false,"rental_uris":{"android":"levelo://app?vid=708f7f21-b221-4c14-94b6-b5d8e3289350","ios":"levelo://app?vid=708f7f21-b221-4c14-94b6-b5d8e3289350"},"vehicle_type_id":"4","last_reported":1692464672,"current_range_meters":22000,"station_id":"ce4bhr92rcd13ifvqhrg","pricing_plan_id":"free"},{"bike_id":"de450cac-4370-4660-9455-3e94463307a2","system_id":"levelo_inurba_marseille","lat":43.33047,"lon":5.38923,"is_reserved":false,"is_disabled":false,"rental_uris":{"android":"levelo://app?vid=de450cac-4370-4660-9455-3e94463307a2","ios":"levelo://app?vid=de450cac-4370-4660-9455-3e94463307a2"},"vehicle_type_id":"4","last_reported":1692464672,"current_range_meters":19200,"station_id":"ce4bhr92rcd13ifvqhrg","pricing_plan_id":"free"},{"bike_id":"b908acf6-9966-498f-be87-07fada75c580","system_id":"levelo_inurba_marseille","lat":43.297815,"lon":5.393548,"is_reserved":false,"is_disabled":false,"rental_uris":{"android":"levelo://app?vid=b908acf6-9966-498f-be87-07fada75c580","ios":"levelo://app?vid=b908acf6-9966-498f-be87-07fada75c580"},"vehicle_type_id":"4","last_reported":1692464672,"current_range_meters":16000,"station_id":"chh1huq6cuj3fo74tm60","pricing_plan_id":"free"},{"bike_id":"5f50813a-31ed-489b-821e-0cb18cfd4f2b","system_id":"levelo_inurba_marseille","lat":43.297815,"lon":5.393548,"is_reserved":false,"is_disabled":false,"rental_uris":{"android":"levelo://app?vid=5f50813a-31ed-489b-821e-0cb18cfd4f2b","ios":"levelo://app?vid=5f50813a-31ed-489b-821e-0cb18cfd4f2b"},"vehicle_type_id":"4","last_reported":1692464672,"current_range_meters":16000,"station_id":"chh1huq6cuj3fo74tm60","pricing_plan_id":"free"},{"bike_id":"9015af88-caa9-4874-b6f9-84ec8c936a01","system_id":"levelo_inurba_marseille","lat":43.297815,"lon":5.393548,"is_reserved":false,"is_disabled":false,"rental_uris":{"android":"levelo://app?vid=9015af88-caa9-4874-b6f9-84ec8c936a01","ios":"levelo://app?vid=9015af88-caa9-4874-b6f9-84ec8c936a01"},"vehicle_type_id":"4","last_reported":1692464672,"current_range_meters":20800,"station_id":"chh1huq6cuj3fo74tm60","pricing_plan_id":"free"},{"bike_id":"6ea90814-efbc-4f17-ae05-ddb1fec0e2e6","system_id":"levelo_inurba_marseille","lat":43.29022,"lon":5.38125,"is_reserved":false,"is_disabled":false,"rental_uris":{"android":"levelo://app?vid=6ea90814-efbc-4f17-ae05-ddb1fec0e2e6","ios":"levelo://app?vid=6ea90814-efbc-4f17-ae05-ddb1fec0e2e6"},"vehicle_type_id":"4","last_reported":1692464672,"current_range_meters":30800,"station_id":"ce4bh4p2rcd13ifvqe1g","pricing_plan_id":"free"},{"bike_id":"85156336-c408-43e6-8976-6a5bcc4ad081","system_id":"levelo_inurba_marseille","lat":43.28856,"lon":5.358371,"is_reserved":false,"is_disabled":false,"rental_uris":{"android":"levelo://app?vid=85156336-c408-43e6-8976-6a5bcc4ad081","ios":"levelo://app?vid=85156336-c408-43e6-8976-6a5bcc4ad081"},"vehicle_type_id":"4","last_reported":1692464672,"current_range_meters":1200,"station_id":"ce4bhb12rcd13ifvqem0","pricing_plan_id":"free"},{"bike_id":"4b5c3067-f421-4f2b-9c58-d227f343ca53","system_id":"levelo_inurba_marseille","lat":43.28856,"lon":5.358371,"is_reserved":false,"is_disabled":false,"rental_uris":{"android":"levelo://app?vid=4b5c3067-f421-4f2b-9c58-d227f343ca53","ios":"levelo://app?vid=4b5c3067-f421-4f2b-9c58-d227f343ca53"},"vehicle_type_id":"4","last_reported":1692464672,"current_range_meters":22800,"station_id":"ce4bhb12rcd13ifvqem0","pricing_plan_id":"free"},{"bike_id":"8b2f2448-9153-4232-8587-734ed1bf3365","system_id":"levelo_inurba_marseille","lat":43.30928,"lon":5.40139,"is_reserved":false,"is_disabled":false,"rental_uris":{"android":"levelo://app?vid=8b2f2448-9153-4232-8587-734ed1bf3365","ios":"levelo://app?vid=8b2f2448-9153-4232-8587-734ed1bf3365"},"vehicle_type_id":"4","last_reported":1692464672,"current_range_meters":3200,"station_id":"ce4bgvp2rcd13ifvqct0","pricing_plan_id":"free"},{"bike_id":"ebea3e90-b4a3-4a58-9d43-4dfbd0e962f3","system_id":"levelo_inurba_marseille","lat":43.337457,"lon":5.374633,"is_reserved":false,"is_disabled":false,"rental_uris":{"android":"levelo://app?vid=ebea3e90-b4a3-4a58-9d43-4dfbd0e962f3","ios":"levelo://app?vid=ebea3e90-b4a3-4a58-9d43-4dfbd0e962f3"},"vehicle_type_id":"4","last_reported":1692464672,"current_range_meters":30800,"station_id":"","pricing_plan_id":"free"},{"bike_id":"0e7cbfff-1497-4a08-911e-971551b6ea08","system_id":"levelo_inurba_marseille","lat":43.30642,"lon":5.401031,"is_reserved":false,"is_disabled":false,"rental_uris":{"android":"levelo://app?vid=0e7cbfff-1497-4a08-911e-971551b6ea08","ios":"levelo://app?vid=0e7cbfff-1497-4a08-911e-971551b6ea08"},"vehicle_type_id":"4","last_reported":1692464672,"current_range_meters":7600,"station_id":"ce4bh112rcd13ifvqda0","pricing_plan_id":"free"},{"bike_id":"d3a07fb7-a24e-436b-8abe-0a19c50d59d2","system_id":"levelo_inurba_marseille","lat":43.30642,"lon":5.401031,"is_reserved":false,"is_disabled":false,"rental_uris":{"android":"levelo://app?vid=d3a07fb7-a24e-436b-8abe-0a19c50d59d2","ios":"levelo://app?vid=d3a07fb7-a24e-436b-8abe-0a19c50d59d2"},"vehicle_type_id":"4","last_reported":1692464672,"current_range_meters":13200,"station_id":"ce4bh112rcd13ifvqda0","pricing_plan_id":"free"},{"bike_id":"1f5df658-8225-41fb-884d-ff0093935c6f","system_id":"levelo_inurba_marseille","lat":43.30642,"lon":5.401031,"is_reserved":false,"is_disabled":false,"rental_uris":{"android":"levelo://app?vid=1f5df658-8225-41fb-884d-ff0093935c6f","ios":"levelo://app?vid=1f5df658-8225-41fb-884d-ff0093935c6f"},"vehicle_type_id":"4","last_reported":1692464672,"current_range_meters":20800,"station_id":"ce4bh112rcd13ifvqda0","pricing_plan_id":"free"},{"bike_id":"14a62bd2-1ddc-4a06-9f2c-6499c0bef8d6","system_id":"levelo_inurba_marseille","lat":43.284217,"lon":5.349697,"is_reserved":false,"is_disabled":false,"rental_uris":{"android":"levelo://app?vid=14a62bd2-1ddc-4a06-9f2c-6499c0bef8d6","ios":"levelo://app?vid=14a62bd2-1ddc-4a06-9f2c-6499c0bef8d6"},"vehicle_type_id":"4","last_reported":1692464672,"current_range_meters":1600,"station_id":"ce4bhbh2rcd13ifvqepg","pricing_plan_id":"free"},{"bike_id":"6a26562f-a40e-4456-9f2a-f9831e26f325","system_id":"levelo_inurba_marseille","lat":43.301117,"lon":5.398795,"is_reserved":false,"is_disabled":false,"rental_uris":{"android":"levelo://app?vid=6a26562f-a40e-4456-9f2a-f9831e26f325","ios":"levelo://app?vid=6a26562f-a40e-4456-9f2a-f9831e26f325"},"vehicle_type_id":"4","last_reported":1692464672,"current_range_meters":1600,"station_id":"ce4bh0h2rcd13ifvqd40","pricing_plan_id":"free"},{"bike_id":"b0ee1e44-2579-45a0-b314-85f9bd377837","system_id":"levelo_inurba_marseille","lat":43.286591,"lon":5.363346,"is_reserved":false,"is_disabled":false,"rental_uris":{"android":"levelo://app?vid=b0ee1e44-2579-45a0-b314-85f9bd377837","ios":"levelo://app?vid=b0ee1e44-2579-45a0-b314-85f9bd377837"},"vehicle_type_id":"4","last_reported":1692464672,"current_range_meters":28800,"station_id":"ce4bhah2rcd13ifvqej0","pricing_plan_id":"free"},{"bike_id":"3af4b11f-42d0-4880-be7c-7c96e418c903","system_id":"levelo_inurba_marseille","lat":43.286961,"lon":5.373785,"is_reserved":false,"is_disabled":false,"rental_uris":{"android":"levelo://app?vid=3af4b11f-42d0-4880-be7c-7c96e418c903","ios":"levelo://app?vid=3af4b11f-42d0-4880-be7c-7c96e418c903"},"vehicle_type_id":"4","last_reported":1692464672,"current_range_meters":19200,"station_id":"ce4bh3p2rcd13ifvqdq0","pricing_plan_id":"free"},{"bike_id":"75199276-b705-4ad7-b6a9-49aeaa84628a","system_id":"levelo_inurba_marseille","lat":43.286591,"lon":5.363346,"is_reserved":false,"is_disabled":false,"rental_uris":{"android":"levelo://app?vid=75199276-b705-4ad7-b6a9-49aeaa84628a","ios":"levelo://app?vid=75199276-b705-4ad7-b6a9-49aeaa84628a"},"vehicle_type_id":"4","last_reported":1692464672,"current_range_meters":30800,"station_id":"ce4bhah2rcd13ifvqej0","pricing_plan_id":"free"},{"bike_id":"49e24f45-168c-4d60-9a13-9214f698892e","system_id":"levelo_inurba_marseille","lat":43.302759,"lon":5.400793,"is_reserved":false,"is_disabled":false,"rental_uris":{"android":"levelo://app?vid=49e24f45-168c-4d60-9a13-9214f698892e","ios":"levelo://app?vid=49e24f45-168c-4d60-9a13-9214f698892e"},"vehicle_type_id":"4","last_reported":1692464672,"current_range_meters":9600,"station_id":"ce4bgvh2rcd13ifvqcs0","pricing_plan_id":"free"},{"bike_id":"57214d1c-3a9b-4805-8143-98d9b6b27d2b","system_id":"levelo_inurba_marseille","lat":43.290336,"lon":5.386425,"is_reserved":false,"is_disabled":false,"rental_uris":{"android":"levelo://app?vid=57214d1c-3a9b-4805-8143-98d9b6b27d2b","ios":"levelo://app?vid=57214d1c-3a9b-4805-8143-98d9b6b27d2b"},"vehicle_type_id":"4","last_reported":1692464672,"current_range_meters":12000,"station_id":"ce4bh4p2rcd13ifvqe0g","pricing_plan_id":"free"},{"bike_id":"5a891370-740f-4fa4-849e-9c65555fa963","system_id":"levelo_inurba_marseille","lat":43.302759,"lon":5.400793,"is_reserved":false,"is_disabled":false,"rental_uris":{"android":"levelo://app?vid=5a891370-740f-4fa4-849e-9c65555fa963","ios":"levelo://app?vid=5a891370-740f-4fa4-849e-9c65555fa963"},"vehicle_type_id":"4","last_reported":1692464672,"current_range_meters":14800,"station_id":"ce4bgvh2rcd13ifvqcs0","pricing_plan_id":"free"},{"bike_id":"bf7848a6-33a9-42fa-9fa8-34b0e4d533b5","system_id":"levelo_inurba_marseille","lat":43.286039,"lon":5.370679,"is_reserved":false,"is_disabled":false,"rental_uris":{"android":"levelo://app?vid=bf7848a6-33a9-42fa-9fa8-34b0e4d533b5","ios":"levelo://app?vid=bf7848a6-33a9-42fa-9fa8-34b0e4d533b5"},"vehicle_type_id":"4","last_reported":1692464672,"current_range_meters":17200,"station_id":"ce4bht12rcd13ifvqi60","pricing_plan_id":"free"},{"bike_id":"d80d5a2f-d3d5-4a30-80d2-1f02beb1b207","system_id":"levelo_inurba_marseille","lat":43.286039,"lon":5.370679,"is_reserved":false,"is_disabled":false,"rental_uris":{"android":"levelo://app?vid=d80d5a2f-d3d5-4a30-80d2-1f02beb1b207","ios":"levelo://app?vid=d80d5a2f-d3d5-4a30-80d2-1f02beb1b207"},"vehicle_type_id":"4","last_reported":1692464672,"current_range_meters":24400,"station_id":"ce4bht12rcd13ifvqi60","pricing_plan_id":"free"},{"bike_id":"47c5c10d-b7c7-4a89-90e5-286791f7c748","system_id":"levelo_inurba_marseille","lat":43.286039,"lon":5.370681,"is_reserved":false,"is_disabled":false,"rental_uris":{"android":"levelo://app?vid=47c5c10d-b7c7-4a89-90e5-286791f7c748","ios":"levelo://app?vid=47c5c10d-b7c7-4a89-90e5-286791f7c748"},"vehicle_type_id":"4","last_reported":1692464672,"current_range_meters":17200,"station_id":"ce4bht12rcd13ifvqi60","pricing_plan_id":"free"},{"bike_id":"0eba1d7d-a98d-4c1e-8b66-cf5c1f0b4976","system_id":"levelo_inurba_marseille","lat":43.287184,"lon":5.37937,"is_reserved":false,"is_disabled":false,"rental_uris":{"android":"levelo://app?vid=0eba1d7d-a98d-4c1e-8b66-cf5c1f0b4976","ios":"levelo://app?vid=0eba1d7d-a98d-4c1e-8b66-cf5c1f0b4976"},"vehicle_type_id":"4","last_reported":1692464672,"current_range_meters":8400,"station_id":"ce4bh9p2rcd13ifvqec0","pricing_plan_id":"free"},{"bike_id":"6ba34769-3fc8-4837-9b23-f02f8cd46891","system_id":"levelo_inurba_marseille","lat":43.287184,"lon":5.37937,"is_reserved":false,"is_disabled":false,"rental_uris":{"android":"levelo://app?vid=6ba34769-3fc8-4837-9b23-f02f8cd46891","ios":"levelo://app?vid=6ba34769-3fc8-4837-9b23-f02f8cd46891"},"vehicle_type_id":"4","last_reported":1692464672,"current_range_meters":0,"station_id":"ce4bh9p2rcd13ifvqec0","pricing_plan_id":"free"},{"bike_id":"7da9e437-1e79-4b5f-9ab0-65254ac17dd7","system_id":"levelo_inurba_marseille","lat":43.31644,"lon":5.40436,"is_reserved":false,"is_disabled":false,"rental_uris":{"android":"levelo://app?vid=7da9e437-1e79-4b5f-9ab0-65254ac17dd7","ios":"levelo://app?vid=7da9e437-1e79-4b5f-9ab0-65254ac17dd7"},"vehicle_type_id":"4","last_reported":1692464672,"current_range_meters":25200,"station_id":"ce4bh012rcd13ifvqd00","pricing_plan_id":"free"},{"bike_id":"878da6f1-e433-42b5-b3e3-c9af4fe13564","system_id":"levelo_inurba_marseille","lat":43.316489,"lon":5.404408,"is_reserved":false,"is_disabled":false,"rental_uris":{"android":"levelo://app?vid=878da6f1-e433-42b5-b3e3-c9af4fe13564","ios":"levelo://app?vid=878da6f1-e433-42b5-b3e3-c9af4fe13564"},"vehicle_type_id":"4","last_reported":1692464672,"current_range_meters":19200,"station_id":"ce4bh012rcd13ifvqd00","pricing_plan_id":"free"},{"bike_id":"9a97916f-72dc-4f81-a22c-eecf33d676cd","system_id":"levelo_inurba_marseille","lat":43.291994,"lon":5.392907,"is_reserved":false,"is_disabled":false,"rental_uris":{"android":"levelo://app?vid=9a97916f-72dc-4f81-a22c-eecf33d676cd","ios":"levelo://app?vid=9a97916f-72dc-4f81-a22c-eecf33d676cd"},"vehicle_type_id":"4","last_reported":1692464672,"current_range_meters":17200,"station_id":"ce4bh192rcd13ifvqdd0","pricing_plan_id":"free"},{"bike_id":"a2749d32-ffe4-4a1e-a11d-06b85adeafac","system_id":"levelo_inurba_marseille","lat":43.286138,"lon":5.351166,"is_reserved":false,"is_disabled":false,"rental_uris":{"android":"levelo://app?vid=a2749d32-ffe4-4a1e-a11d-06b85adeafac","ios":"levelo://app?vid=a2749d32-ffe4-4a1e-a11d-06b85adeafac"},"vehicle_type_id":"4","last_reported":1692464672,"current_range_meters":21200,"station_id":"","pricing_plan_id":"free"},{"bike_id":"35eec3a1-aa54-4990-8eb4-78e6c0dd24d0","system_id":"levelo_inurba_marseille","lat":43.28616,"lon":5.35104,"is_reserved":false,"is_disabled":false,"rental_uris":{"android":"levelo://app?vid=35eec3a1-aa54-4990-8eb4-78e6c0dd24d0","ios":"levelo://app?vid=35eec3a1-aa54-4990-8eb4-78e6c0dd24d0"},"vehicle_type_id":"4","last_reported":1692464672,"current_range_meters":10000,"station_id":"ce4bhch2rcd13ifvqeug","pricing_plan_id":"free"},{"bike_id":"31afa8bb-ca35-4a01-a7b2-01b43b69160f","system_id":"levelo_inurba_marseille","lat":43.283998,"lon":5.375062,"is_reserved":false,"is_disabled":false,"rental_uris":{"android":"levelo://app?vid=31afa8bb-ca35-4a01-a7b2-01b43b69160f","ios":"levelo://app?vid=31afa8bb-ca35-4a01-a7b2-01b43b69160f"},"vehicle_type_id":"4","last_reported":1692464672,"current_range_meters":4400,"station_id":"ce4bh412rcd13ifvqds0","pricing_plan_id":"free"},{"bike_id":"2363d3b5-6c15-401a-a59c-ee80bd4af927","system_id":"levelo_inurba_marseille","lat":43.28415,"lon":5.37522,"is_reserved":false,"is_disabled":false,"rental_uris":{"android":"levelo://app?vid=2363d3b5-6c15-401a-a59c-ee80bd4af927","ios":"levelo://app?vid=2363d3b5-6c15-401a-a59c-ee80bd4af927"},"vehicle_type_id":"4","last_reported":1692464672,"current_range_meters":20000,"station_id":"ce4bh412rcd13ifvqds0","pricing_plan_id":"free"},{"bike_id":"a6bfaeb3-be55-40df-9f71-bef765d919ab","system_id":"levelo_inurba_marseille","lat":43.283998,"lon":5.375062,"is_reserved":false,"is_disabled":false,"rental_uris":{"android":"levelo://app?vid=a6bfaeb3-be55-40df-9f71-bef765d919ab","ios":"levelo://app?vid=a6bfaeb3-be55-40df-9f71-bef765d919ab"},"vehicle_type_id":"4","last_reported":1692464672,"current_range_meters":19200,"station_id":"ce4bh412rcd13ifvqds0","pricing_plan_id":"free"},{"bike_id":"53af4466-bfa6-4743-b42a-4e9e13023818","system_id":"levelo_inurba_marseille","lat":43.28398,"lon":5.37518,"is_reserved":false,"is_disabled":false,"rental_uris":{"android":"levelo://app?vid=53af4466-bfa6-4743-b42a-4e9e13023818","ios":"levelo://app?vid=53af4466-bfa6-4743-b42a-4e9e13023818"},"vehicle_type_id":"4","last_reported":1692464672,"current_range_meters":13200,"station_id":"ce4bh412rcd13ifvqds0","pricing_plan_id":"free"},{"bike_id":"c83175c1-dc44-41ba-8c30-632824b8a336","system_id":"levelo_inurba_marseille","lat":43.31888,"lon":5.40733,"is_reserved":false,"is_disabled":false,"rental_uris":{"android":"levelo://app?vid=c83175c1-dc44-41ba-8c30-632824b8a336","ios":"levelo://app?vid=c83175c1-dc44-41ba-8c30-632824b8a336"},"vehicle_type_id":"4","last_reported":1692464672,"current_range_meters":26400,"station_id":"ce4bhq12rcd13ifvqhig","pricing_plan_id":"free"},{"bike_id":"e78bd4e4-c14d-4a01-b72e-65351e2b8a18","system_id":"levelo_inurba_marseille","lat":43.30317,"lon":5.40626,"is_reserved":false,"is_disabled":false,"rental_uris":{"android":"levelo://app?vid=e78bd4e4-c14d-4a01-b72e-65351e2b8a18","ios":"levelo://app?vid=e78bd4e4-c14d-4a01-b72e-65351e2b8a18"},"vehicle_type_id":"4","last_reported":1692464672,"current_range_meters":800,"station_id":"","pricing_plan_id":"free"},{"bike_id":"17105054-6fd8-493b-b0be-1ed88688055c","system_id":"levelo_inurba_marseille","lat":43.337168,"lon":5.391825,"is_reserved":false,"is_disabled":false,"rental_uris":{"android":"levelo://app?vid=17105054-6fd8-493b-b0be-1ed88688055c","ios":"levelo://app?vid=17105054-6fd8-493b-b0be-1ed88688055c"},"vehicle_type_id":"4","last_reported":1692464672,"current_range_meters":30000,"station_id":"ce4bhr92rcd13ifvqhsg","pricing_plan_id":"free"},{"bike_id":"2b3f06e0-8f2d-4133-9563-f19f57fe46e5","system_id":"levelo_inurba_marseille","lat":43.33724,"lon":5.39178,"is_reserved":false,"is_disabled":false,"rental_uris":{"android":"levelo://app?vid=2b3f06e0-8f2d-4133-9563-f19f57fe46e5","ios":"levelo://app?vid=2b3f06e0-8f2d-4133-9563-f19f57fe46e5"},"vehicle_type_id":"4","last_reported":1692464672,"current_range_meters":10800,"station_id":"ce4bhr92rcd13ifvqhsg","pricing_plan_id":"free"},{"bike_id":"7d2969ab-a065-4a23-b19e-667095d799c9","system_id":"levelo_inurba_marseille","lat":43.33718,"lon":5.3919,"is_reserved":false,"is_disabled":false,"rental_uris":{"android":"levelo://app?vid=7d2969ab-a065-4a23-b19e-667095d799c9","ios":"levelo://app?vid=7d2969ab-a065-4a23-b19e-667095d799c9"},"vehicle_type_id":"4","last_reported":1692464672,"current_range_meters":10800,"station_id":"ce4bhr92rcd13ifvqhsg","pricing_plan_id":"free"},{"bike_id":"12c0f407-4ac2-49d3-b1e8-783bd26a8644","system_id":"levelo_inurba_marseille","lat":43.33724,"lon":5.39183,"is_reserved":false,"is_disabled":false,"rental_uris":{"android":"levelo://app?vid=12c0f407-4ac2-49d3-b1e8-783bd26a8644","ios":"levelo://app?vid=12c0f407-4ac2-49d3-b1e8-783bd26a8644"},"vehicle_type_id":"4","last_reported":1692464672,"current_range_meters":29600,"station_id":"ce4bhr92rcd13ifvqhsg","pricing_plan_id":"free"},{"bike_id":"0dda2562-498f-4f90-abfb-f3c666db2d2e","system_id":"levelo_inurba_marseille","lat":43.33728,"lon":5.3918,"is_reserved":false,"is_disabled":false,"rental_uris":{"android":"levelo://app?vid=0dda2562-498f-4f90-abfb-f3c666db2d2e","ios":"levelo://app?vid=0dda2562-498f-4f90-abfb-f3c666db2d2e"},"vehicle_type_id":"4","last_reported":1692464672,"current_range_meters":24000,"station_id":"ce4bhr92rcd13ifvqhsg","pricing_plan_id":"free"},{"bike_id":"72fc020d-a1d4-460a-a3d1-6187a1ea65d2","system_id":"levelo_inurba_marseille","lat":43.3373,"lon":5.39181,"is_reserved":false,"is_disabled":false,"rental_uris":{"android":"levelo://app?vid=72fc020d-a1d4-460a-a3d1-6187a1ea65d2","ios":"levelo://app?vid=72fc020d-a1d4-460a-a3d1-6187a1ea65d2"},"vehicle_type_id":"4","last_reported":1692464672,"current_range_meters":27600,"station_id":"ce4bhr92rcd13ifvqhsg","pricing_plan_id":"free"},{"bike_id":"c90c94e3-64fa-45e9-9fee-ad8bf120c218","system_id":"levelo_inurba_marseille","lat":43.337168,"lon":5.391825,"is_reserved":false,"is_disabled":false,"rental_uris":{"android":"levelo://app?vid=c90c94e3-64fa-45e9-9fee-ad8bf120c218","ios":"levelo://app?vid=c90c94e3-64fa-45e9-9fee-ad8bf120c218"},"vehicle_type_id":"4","last_reported":1692464672,"current_range_meters":27600,"station_id":"ce4bhr92rcd13ifvqhsg","pricing_plan_id":"free"},{"bike_id":"c24cecf2-0503-470c-b3d3-fc37f377f710","system_id":"levelo_inurba_marseille","lat":43.33728,"lon":5.39186,"is_reserved":false,"is_disabled":false,"rental_uris":{"android":"levelo://app?vid=c24cecf2-0503-470c-b3d3-fc37f377f710","ios":"levelo://app?vid=c24cecf2-0503-470c-b3d3-fc37f377f710"},"vehicle_type_id":"4","last_reported":1692464672,"current_range_meters":29600,"station_id":"ce4bhr92rcd13ifvqhsg","pricing_plan_id":"free"},{"bike_id":"6ac884cc-b74d-40a5-8e3a-f019457ca89a","system_id":"levelo_inurba_marseille","lat":43.32347,"lon":5.4062,"is_reserved":false,"is_disabled":false,"rental_uris":{"android":"levelo://app?vid=6ac884cc-b74d-40a5-8e3a-f019457ca89a","ios":"levelo://app?vid=6ac884cc-b74d-40a5-8e3a-f019457ca89a"},"vehicle_type_id":"4","last_reported":1692464672,"current_range_meters":31200,"station_id":"ce4bhq92rcd13ifvqhjg","pricing_plan_id":"free"},{"bike_id":"01f563c5-7ac0-4d44-b1b3-0549f3b949f3","system_id":"levelo_inurba_marseille","lat":43.33729,"lon":5.39187,"is_reserved":false,"is_disabled":false,"rental_uris":{"android":"levelo://app?vid=01f563c5-7ac0-4d44-b1b3-0549f3b949f3","ios":"levelo://app?vid=01f563c5-7ac0-4d44-b1b3-0549f3b949f3"},"vehicle_type_id":"4","last_reported":1692464672,"current_range_meters":29600,"station_id":"ce4bhr92rcd13ifvqhsg","pricing_plan_id":"free"},{"bike_id":"c3f1a799-40b8-4098-9115-0b78fcf6eb78","system_id":"levelo_inurba_marseille","lat":43.323464,"lon":5.406297,"is_reserved":false,"is_disabled":false,"rental_uris":{"android":"levelo://app?vid=c3f1a799-40b8-4098-9115-0b78fcf6eb78","ios":"levelo://app?vid=c3f1a799-40b8-4098-9115-0b78fcf6eb78"},"vehicle_type_id":"4","last_reported":1692464672,"current_range_meters":29200,"station_id":"ce4bhq92rcd13ifvqhjg","pricing_plan_id":"free"},{"bike_id":"13c8ff33-a39b-43d5-ba08-92f155d4a21e","system_id":"levelo_inurba_marseille","lat":43.323464,"lon":5.406297,"is_reserved":false,"is_disabled":false,"rental_uris":{"android":"levelo://app?vid=13c8ff33-a39b-43d5-ba08-92f155d4a21e","ios":"levelo://app?vid=13c8ff33-a39b-43d5-ba08-92f155d4a21e"},"vehicle_type_id":"4","last_reported":1692464672,"current_range_meters":31600,"station_id":"ce4bhq92rcd13ifvqhjg","pricing_plan_id":"free"},{"bike_id":"02f29c2d-847e-4148-9200-bdb4c19acc46","system_id":"levelo_inurba_marseille","lat":43.33731,"lon":5.39185,"is_reserved":false,"is_disabled":false,"rental_uris":{"android":"levelo://app?vid=02f29c2d-847e-4148-9200-bdb4c19acc46","ios":"levelo://app?vid=02f29c2d-847e-4148-9200-bdb4c19acc46"},"vehicle_type_id":"4","last_reported":1692464672,"current_range_meters":29600,"station_id":"ce4bhr92rcd13ifvqhsg","pricing_plan_id":"free"},{"bike_id":"0cbfb6a8-9b06-4430-8280-ebadac27271d","system_id":"levelo_inurba_marseille","lat":43.323464,"lon":5.406297,"is_reserved":false,"is_disabled":false,"rental_uris":{"android":"levelo://app?vid=0cbfb6a8-9b06-4430-8280-ebadac27271d","ios":"levelo://app?vid=0cbfb6a8-9b06-4430-8280-ebadac27271d"},"vehicle_type_id":"4","last_reported":1692464672,"current_range_meters":28400,"station_id":"ce4bhq92rcd13ifvqhjg","pricing_plan_id":"free"},{"bike_id":"e45012d8-673a-4bd6-93d3-a427f767a00d","system_id":"levelo_inurba_marseille","lat":43.33729,"lon":5.39192,"is_reserved":false,"is_disabled":false,"rental_uris":{"android":"levelo://app?vid=e45012d8-673a-4bd6-93d3-a427f767a00d","ios":"levelo://app?vid=e45012d8-673a-4bd6-93d3-a427f767a00d"},"vehicle_type_id":"4","last_reported":1692464672,"current_range_meters":28000,"station_id":"ce4bhr92rcd13ifvqhsg","pricing_plan_id":"free"},{"bike_id":"8bd09c71-02ae-4371-8b55-ce1e7e2bf2df","system_id":"levelo_inurba_marseille","lat":43.3373,"lon":5.39193,"is_reserved":false,"is_disabled":false,"rental_uris":{"android":"levelo://app?vid=8bd09c71-02ae-4371-8b55-ce1e7e2bf2df","ios":"levelo://app?vid=8bd09c71-02ae-4371-8b55-ce1e7e2bf2df"},"vehicle_type_id":"4","last_reported":1692464672,"current_range_meters":30000,"station_id":"ce4bhr92rcd13ifvqhsg","pricing_plan_id":"free"},{"bike_id":"186ddf38-a5ca-44a9-9dd3-9bfe2a53544b","system_id":"levelo_inurba_marseille","lat":43.33735,"lon":5.39184,"is_reserved":false,"is_disabled":false,"rental_uris":{"android":"levelo://app?vid=186ddf38-a5ca-44a9-9dd3-9bfe2a53544b","ios":"levelo://app?vid=186ddf38-a5ca-44a9-9dd3-9bfe2a53544b"},"vehicle_type_id":"4","last_reported":1692464672,"current_range_meters":29600,"station_id":"ce4bhr92rcd13ifvqhsg","pricing_plan_id":"free"},{"bike_id":"40384043-b1b0-4e14-a268-04c81fb6cf8d","system_id":"levelo_inurba_marseille","lat":43.284873,"lon":5.384193,"is_reserved":false,"is_disabled":false,"rental_uris":{"android":"levelo://app?vid=40384043-b1b0-4e14-a268-04c81fb6cf8d","ios":"levelo://app?vid=40384043-b1b0-4e14-a268-04c81fb6cf8d"},"vehicle_type_id":"4","last_reported":1692464672,"current_range_meters":19600,"station_id":"ce4bh512rcd13ifvqe3g","pricing_plan_id":"free"},{"bike_id":"6fb36002-bc24-427c-a16e-585470e55deb","system_id":"levelo_inurba_marseille","lat":43.32602,"lon":5.40481,"is_reserved":false,"is_disabled":false,"rental_uris":{"android":"levelo://app?vid=6fb36002-bc24-427c-a16e-585470e55deb","ios":"levelo://app?vid=6fb36002-bc24-427c-a16e-585470e55deb"},"vehicle_type_id":"4","last_reported":1692464672,"current_range_meters":20400,"station_id":"","pricing_plan_id":"free"},{"bike_id":"25e7c4cd-c076-4a8b-be74-c005734160d2","system_id":"levelo_inurba_marseille","lat":43.288501,"lon":5.393087,"is_reserved":false,"is_disabled":false,"rental_uris":{"android":"levelo://app?vid=25e7c4cd-c076-4a8b-be74-c005734160d2","ios":"levelo://app?vid=25e7c4cd-c076-4a8b-be74-c005734160d2"},"vehicle_type_id":"4","last_reported":1692464672,"current_range_meters":26000,"station_id":"ce4bh2p2rcd13ifvqdi0","pricing_plan_id":"free"},{"bike_id":"ad3da0a2-d982-4332-8b35-43ccf0aa13f3","system_id":"levelo_inurba_marseille","lat":43.283494,"lon":5.380945,"is_reserved":false,"is_disabled":false,"rental_uris":{"android":"levelo://app?vid=ad3da0a2-d982-4332-8b35-43ccf0aa13f3","ios":"levelo://app?vid=ad3da0a2-d982-4332-8b35-43ccf0aa13f3"},"vehicle_type_id":"4","last_reported":1692464672,"current_range_meters":30000,"station_id":"ce4bh412rcd13ifvqdr0","pricing_plan_id":"free"},{"bike_id":"f50aca5f-cf5b-4020-925f-826a2e34874f","system_id":"levelo_inurba_marseille","lat":43.289363,"lon":5.396322,"is_reserved":false,"is_disabled":false,"rental_uris":{"android":"levelo://app?vid=f50aca5f-cf5b-4020-925f-826a2e34874f","ios":"levelo://app?vid=f50aca5f-cf5b-4020-925f-826a2e34874f"},"vehicle_type_id":"4","last_reported":1692464672,"current_range_meters":29200,"station_id":"ce4bh3h2rcd13ifvqdn0","pricing_plan_id":"free"},{"bike_id":"e8375b45-ffbc-4313-90c7-f9cc19d53180","system_id":"levelo_inurba_marseille","lat":43.292724,"lon":5.401131,"is_reserved":false,"is_disabled":false,"rental_uris":{"android":"levelo://app?vid=e8375b45-ffbc-4313-90c7-f9cc19d53180","ios":"levelo://app?vid=e8375b45-ffbc-4313-90c7-f9cc19d53180"},"vehicle_type_id":"4","last_reported":1692464672,"current_range_meters":14800,"station_id":"ce4bh312rcd13ifvqdk0","pricing_plan_id":"free"},{"bike_id":"5cec26ac-344f-432b-af34-450b75305b9b","system_id":"levelo_inurba_marseille","lat":43.292724,"lon":5.401131,"is_reserved":false,"is_disabled":false,"rental_uris":{"android":"levelo://app?vid=5cec26ac-344f-432b-af34-450b75305b9b","ios":"levelo://app?vid=5cec26ac-344f-432b-af34-450b75305b9b"},"vehicle_type_id":"4","last_reported":1692464672,"current_range_meters":30000,"station_id":"ce4bh312rcd13ifvqdk0","pricing_plan_id":"free"},{"bike_id":"42addd19-7a3d-461b-a117-ece1cb43d419","system_id":"levelo_inurba_marseille","lat":43.283502,"lon":5.386471,"is_reserved":false,"is_disabled":false,"rental_uris":{"android":"levelo://app?vid=42addd19-7a3d-461b-a117-ece1cb43d419","ios":"levelo://app?vid=42addd19-7a3d-461b-a117-ece1cb43d419"},"vehicle_type_id":"4","last_reported":1692464672,"current_range_meters":3200,"station_id":"ce4bh492rcd13ifvqdvg","pricing_plan_id":"free"},{"bike_id":"88940920-727e-47f8-bee6-24feedff1167","system_id":"levelo_inurba_marseille","lat":43.282754,"lon":5.350519,"is_reserved":false,"is_disabled":false,"rental_uris":{"android":"levelo://app?vid=88940920-727e-47f8-bee6-24feedff1167","ios":"levelo://app?vid=88940920-727e-47f8-bee6-24feedff1167"},"vehicle_type_id":"4","last_reported":1692464672,"current_range_meters":30000,"station_id":"ce4bhbp2rcd13ifvqerg","pricing_plan_id":"free"},{"bike_id":"9f46cfde-4f76-4076-bade-5765c2d3d473","system_id":"levelo_inurba_marseille","lat":43.280382,"lon":5.369291,"is_reserved":false,"is_disabled":false,"rental_uris":{"android":"levelo://app?vid=9f46cfde-4f76-4076-bade-5765c2d3d473","ios":"levelo://app?vid=9f46cfde-4f76-4076-bade-5765c2d3d473"},"vehicle_type_id":"4","last_reported":1692464672,"current_range_meters":31200,"station_id":"ce4bha12rcd13ifvqef0","pricing_plan_id":"free"},{"bike_id":"f8ef4f78-badc-40d1-a4a9-077301466e56","system_id":"levelo_inurba_marseille","lat":43.32662,"lon":5.40978,"is_reserved":false,"is_disabled":false,"rental_uris":{"android":"levelo://app?vid=f8ef4f78-badc-40d1-a4a9-077301466e56","ios":"levelo://app?vid=f8ef4f78-badc-40d1-a4a9-077301466e56"},"vehicle_type_id":"4","last_reported":1692464672,"current_range_meters":12400,"station_id":"ce4bhpp2rcd13ifvqhgg","pricing_plan_id":"free"},{"bike_id":"2dca96e1-6277-4c92-b0f9-7386910961b8","system_id":"levelo_inurba_marseille","lat":43.326605,"lon":5.409903,"is_reserved":false,"is_disabled":false,"rental_uris":{"android":"levelo://app?vid=2dca96e1-6277-4c92-b0f9-7386910961b8","ios":"levelo://app?vid=2dca96e1-6277-4c92-b0f9-7386910961b8"},"vehicle_type_id":"4","last_reported":1692464672,"current_range_meters":6000,"station_id":"ce4bhpp2rcd13ifvqhgg","pricing_plan_id":"free"},{"bike_id":"7841a1b8-5d7b-4c48-947d-785c2ae73d3d","system_id":"levelo_inurba_marseille","lat":43.32659,"lon":5.40996,"is_reserved":false,"is_disabled":false,"rental_uris":{"android":"levelo://app?vid=7841a1b8-5d7b-4c48-947d-785c2ae73d3d","ios":"levelo://app?vid=7841a1b8-5d7b-4c48-947d-785c2ae73d3d"},"vehicle_type_id":"4","last_reported":1692464672,"current_range_meters":14800,"station_id":"ce4bhpp2rcd13ifvqhgg","pricing_plan_id":"free"},{"bike_id":"f965c3a8-d602-49c4-b645-116d021f7891","system_id":"levelo_inurba_marseille","lat":43.304188,"lon":5.412904,"is_reserved":false,"is_disabled":false,"rental_uris":{"android":"levelo://app?vid=f965c3a8-d602-49c4-b645-116d021f7891","ios":"levelo://app?vid=f965c3a8-d602-49c4-b645-116d021f7891"},"vehicle_type_id":"4","last_reported":1692464672,"current_range_meters":7200,"station_id":"ce4bhop2rcd13ifvqh8g","pricing_plan_id":"free"},{"bike_id":"3827a703-629c-4fe1-8cbc-df91e4754243","system_id":"levelo_inurba_marseille","lat":43.304188,"lon":5.412904,"is_reserved":false,"is_disabled":false,"rental_uris":{"android":"levelo://app?vid=3827a703-629c-4fe1-8cbc-df91e4754243","ios":"levelo://app?vid=3827a703-629c-4fe1-8cbc-df91e4754243"},"vehicle_type_id":"4","last_reported":1692464672,"current_range_meters":20000,"station_id":"ce4bhop2rcd13ifvqh8g","pricing_plan_id":"free"},{"bike_id":"3b4496bf-b89d-4097-9845-ebff2f027088","system_id":"levelo_inurba_marseille","lat":43.299579,"lon":5.413255,"is_reserved":false,"is_disabled":false,"rental_uris":{"android":"levelo://app?vid=3b4496bf-b89d-4097-9845-ebff2f027088","ios":"levelo://app?vid=3b4496bf-b89d-4097-9845-ebff2f027088"},"vehicle_type_id":"4","last_reported":1692464672,"current_range_meters":3200,"station_id":"ce4bhp12rcd13ifvqh9g","pricing_plan_id":"free"},{"bike_id":"8a026d53-88fa-495b-b4fa-d5a83e9e7f8a","system_id":"levelo_inurba_marseille","lat":43.29964,"lon":5.41319,"is_reserved":false,"is_disabled":false,"rental_uris":{"android":"levelo://app?vid=8a026d53-88fa-495b-b4fa-d5a83e9e7f8a","ios":"levelo://app?vid=8a026d53-88fa-495b-b4fa-d5a83e9e7f8a"},"vehicle_type_id":"4","last_reported":1692464672,"current_range_meters":28000,"station_id":"ce4bhp12rcd13ifvqh9g","pricing_plan_id":"free"},{"bike_id":"62ee018a-2c94-48a5-8a6c-8b2bd64c7205","system_id":"levelo_inurba_marseille","lat":43.320045,"lon":5.415046,"is_reserved":false,"is_disabled":false,"rental_uris":{"android":"levelo://app?vid=62ee018a-2c94-48a5-8a6c-8b2bd64c7205","ios":"levelo://app?vid=62ee018a-2c94-48a5-8a6c-8b2bd64c7205"},"vehicle_type_id":"4","last_reported":1692464672,"current_range_meters":0,"station_id":"ce4bhq92rcd13ifvqhkg","pricing_plan_id":"free"},{"bike_id":"8e038887-08b5-410d-8fc8-421168bbee09","system_id":"levelo_inurba_marseille","lat":43.299577,"lon":5.413277,"is_reserved":false,"is_disabled":false,"rental_uris":{"android":"levelo://app?vid=8e038887-08b5-410d-8fc8-421168bbee09","ios":"levelo://app?vid=8e038887-08b5-410d-8fc8-421168bbee09"},"vehicle_type_id":"4","last_reported":1692464672,"current_range_meters":13600,"station_id":"ce4bhp12rcd13ifvqh9g","pricing_plan_id":"free"},{"bike_id":"e50afae3-4ae7-4457-9cda-84fcc64ac2e1","system_id":"levelo_inurba_marseille","lat":43.299577,"lon":5.413277,"is_reserved":false,"is_disabled":false,"rental_uris":{"android":"levelo://app?vid=e50afae3-4ae7-4457-9cda-84fcc64ac2e1","ios":"levelo://app?vid=e50afae3-4ae7-4457-9cda-84fcc64ac2e1"},"vehicle_type_id":"4","last_reported":1692464672,"current_range_meters":30400,"station_id":"ce4bhp12rcd13ifvqh9g","pricing_plan_id":"free"},{"bike_id":"a32a39d0-a8d3-42f8-bde2-27a8ca911b9d","system_id":"levelo_inurba_marseille","lat":43.29957,"lon":5.4132,"is_reserved":false,"is_disabled":false,"rental_uris":{"android":"levelo://app?vid=a32a39d0-a8d3-42f8-bde2-27a8ca911b9d","ios":"levelo://app?vid=a32a39d0-a8d3-42f8-bde2-27a8ca911b9d"},"vehicle_type_id":"4","last_reported":1692464672,"current_range_meters":28000,"station_id":"ce4bhp12rcd13ifvqh9g","pricing_plan_id":"free"},{"bike_id":"3eb17d3c-6b3e-4d47-8b8b-711f56f764a6","system_id":"levelo_inurba_marseille","lat":43.299579,"lon":5.413255,"is_reserved":false,"is_disabled":false,"rental_uris":{"android":"levelo://app?vid=3eb17d3c-6b3e-4d47-8b8b-711f56f764a6","ios":"levelo://app?vid=3eb17d3c-6b3e-4d47-8b8b-711f56f764a6"},"vehicle_type_id":"4","last_reported":1692464672,"current_range_meters":31600,"station_id":"ce4bhp12rcd13ifvqh9g","pricing_plan_id":"free"},{"bike_id":"f8798cb1-e506-4464-89ce-3cad3fe66b84","system_id":"levelo_inurba_marseille","lat":43.320045,"lon":5.415046,"is_reserved":false,"is_disabled":false,"rental_uris":{"android":"levelo://app?vid=f8798cb1-e506-4464-89ce-3cad3fe66b84","ios":"levelo://app?vid=f8798cb1-e506-4464-89ce-3cad3fe66b84"},"vehicle_type_id":"4","last_reported":1692464672,"current_range_meters":8800,"station_id":"ce4bhq92rcd13ifvqhkg","pricing_plan_id":"free"},{"bike_id":"1644a829-fed1-4bf3-b5e2-140a1f985282","system_id":"levelo_inurba_marseille","lat":43.279742,"lon":5.38744,"is_reserved":false,"is_disabled":false,"rental_uris":{"android":"levelo://app?vid=1644a829-fed1-4bf3-b5e2-140a1f985282","ios":"levelo://app?vid=1644a829-fed1-4bf3-b5e2-140a1f985282"},"vehicle_type_id":"4","last_reported":1692464672,"current_range_meters":25600,"station_id":"ce4bhg12rcd13ifvqf80","pricing_plan_id":"free"},{"bike_id":"c327718a-8fe6-4791-a349-aba0f8f94e82","system_id":"levelo_inurba_marseille","lat":43.279742,"lon":5.38744,"is_reserved":false,"is_disabled":false,"rental_uris":{"android":"levelo://app?vid=c327718a-8fe6-4791-a349-aba0f8f94e82","ios":"levelo://app?vid=c327718a-8fe6-4791-a349-aba0f8f94e82"},"vehicle_type_id":"4","last_reported":1692464672,"current_range_meters":25200,"station_id":"ce4bhg12rcd13ifvqf80","pricing_plan_id":"free"},{"bike_id":"ba72826f-fcd9-4a75-a20f-0e2897b98e18","system_id":"levelo_inurba_marseille","lat":43.325233,"lon":5.414318,"is_reserved":false,"is_disabled":false,"rental_uris":{"android":"levelo://app?vid=ba72826f-fcd9-4a75-a20f-0e2897b98e18","ios":"levelo://app?vid=ba72826f-fcd9-4a75-a20f-0e2897b98e18"},"vehicle_type_id":"4","last_reported":1692464672,"current_range_meters":16400,"station_id":"ce4bhq12rcd13ifvqhhg","pricing_plan_id":"free"},{"bike_id":"02a2a40f-46af-422c-9528-7229130443c8","system_id":"levelo_inurba_marseille","lat":43.292569,"lon":5.409107,"is_reserved":false,"is_disabled":false,"rental_uris":{"android":"levelo://app?vid=02a2a40f-46af-422c-9528-7229130443c8","ios":"levelo://app?vid=02a2a40f-46af-422c-9528-7229130443c8"},"vehicle_type_id":"4","last_reported":1692464672,"current_range_meters":7200,"station_id":"ce4bh192rcd13ifvqdc0","pricing_plan_id":"free"},{"bike_id":"4bf3b633-0202-491a-9579-3b49480a4c46","system_id":"levelo_inurba_marseille","lat":43.325233,"lon":5.414318,"is_reserved":false,"is_disabled":false,"rental_uris":{"android":"levelo://app?vid=4bf3b633-0202-491a-9579-3b49480a4c46","ios":"levelo://app?vid=4bf3b633-0202-491a-9579-3b49480a4c46"},"vehicle_type_id":"4","last_reported":1692464672,"current_range_meters":0,"station_id":"ce4bhq12rcd13ifvqhhg","pricing_plan_id":"free"},{"bike_id":"25ea4f7e-38b1-4e7e-9585-753d236d86c9","system_id":"levelo_inurba_marseille","lat":43.325233,"lon":5.414318,"is_reserved":false,"is_disabled":false,"rental_uris":{"android":"levelo://app?vid=25ea4f7e-38b1-4e7e-9585-753d236d86c9","ios":"levelo://app?vid=25ea4f7e-38b1-4e7e-9585-753d236d86c9"},"vehicle_type_id":"4","last_reported":1692464672,"current_range_meters":31600,"station_id":"ce4bhq12rcd13ifvqhhg","pricing_plan_id":"free"},{"bike_id":"73986c32-7d63-448f-a55e-5e4d83e6588f","system_id":"levelo_inurba_marseille","lat":43.325233,"lon":5.414318,"is_reserved":false,"is_disabled":false,"rental_uris":{"android":"levelo://app?vid=73986c32-7d63-448f-a55e-5e4d83e6588f","ios":"levelo://app?vid=73986c32-7d63-448f-a55e-5e4d83e6588f"},"vehicle_type_id":"4","last_reported":1692464672,"current_range_meters":30400,"station_id":"ce4bhq12rcd13ifvqhhg","pricing_plan_id":"free"},{"bike_id":"5f3e3bfc-85ed-4d8c-8b92-e1a6257584a3","system_id":"levelo_inurba_marseille","lat":43.34799,"lon":5.35127,"is_reserved":false,"is_disabled":false,"rental_uris":{"android":"levelo://app?vid=5f3e3bfc-85ed-4d8c-8b92-e1a6257584a3","ios":"levelo://app?vid=5f3e3bfc-85ed-4d8c-8b92-e1a6257584a3"},"vehicle_type_id":"4","last_reported":1692464672,"current_range_meters":22400,"station_id":"","pricing_plan_id":"free"},{"bike_id":"2050fe4b-29b3-4613-a98c-9cb4d77115a5","system_id":"levelo_inurba_marseille","lat":43.27589,"lon":5.36088,"is_reserved":false,"is_disabled":false,"rental_uris":{"android":"levelo://app?vid=2050fe4b-29b3-4613-a98c-9cb4d77115a5","ios":"levelo://app?vid=2050fe4b-29b3-4613-a98c-9cb4d77115a5"},"vehicle_type_id":"4","last_reported":1692464672,"current_range_meters":16400,"station_id":"ce4bgj92rcd13ifvqbe0","pricing_plan_id":"free"},{"bike_id":"2ddd90e7-349a-4b85-8df6-298a58c64c73","system_id":"levelo_inurba_marseille","lat":43.34821,"lon":5.35053,"is_reserved":false,"is_disabled":false,"rental_uris":{"android":"levelo://app?vid=2ddd90e7-349a-4b85-8df6-298a58c64c73","ios":"levelo://app?vid=2ddd90e7-349a-4b85-8df6-298a58c64c73"},"vehicle_type_id":"4","last_reported":1692464672,"current_range_meters":4400,"station_id":"","pricing_plan_id":"free"},{"bike_id":"e04c7360-41f1-42e7-9304-1f9ab2cb9bf7","system_id":"levelo_inurba_marseille","lat":43.302784,"lon":5.377158,"is_reserved":false,"is_disabled":false,"rental_uris":{"android":"levelo://app?vid=e04c7360-41f1-42e7-9304-1f9ab2cb9bf7","ios":"levelo://app?vid=e04c7360-41f1-42e7-9304-1f9ab2cb9bf7"},"vehicle_type_id":"4","last_reported":1692464672,"current_range_meters":30800,"station_id":"ce4bguh2rcd13ifvqcj0","pricing_plan_id":"free"},{"bike_id":"9835419e-9f6b-44d1-8a01-463ba1de4352","system_id":"levelo_inurba_marseille","lat":43.280784,"lon":5.396622,"is_reserved":false,"is_disabled":false,"rental_uris":{"android":"levelo://app?vid=9835419e-9f6b-44d1-8a01-463ba1de4352","ios":"levelo://app?vid=9835419e-9f6b-44d1-8a01-463ba1de4352"},"vehicle_type_id":"4","last_reported":1692464672,"current_range_meters":10400,"station_id":"ce4bho12rcd13ifvqh2g","pricing_plan_id":"free"},{"bike_id":"3a098f53-0030-4b79-a851-c9053bca82fb","system_id":"levelo_inurba_marseille","lat":43.273609,"lon":5.362708,"is_reserved":false,"is_disabled":false,"rental_uris":{"android":"levelo://app?vid=3a098f53-0030-4b79-a851-c9053bca82fb","ios":"levelo://app?vid=3a098f53-0030-4b79-a851-c9053bca82fb"},"vehicle_type_id":"4","last_reported":1692464672,"current_range_meters":23200,"station_id":"ce4bhbh2rcd13ifvqeo0","pricing_plan_id":"free"},{"bike_id":"c2001ebd-a0a8-4d89-bb35-5eaab1ca956a","system_id":"levelo_inurba_marseille","lat":43.33612,"lon":5.410321,"is_reserved":false,"is_disabled":false,"rental_uris":{"android":"levelo://app?vid=c2001ebd-a0a8-4d89-bb35-5eaab1ca956a","ios":"levelo://app?vid=c2001ebd-a0a8-4d89-bb35-5eaab1ca956a"},"vehicle_type_id":"4","last_reported":1692464672,"current_range_meters":20800,"station_id":"ce4bhqh2rcd13ifvqhmg","pricing_plan_id":"free"},{"bike_id":"0fef9fab-1a96-4961-9d16-f4cfcd87aa9c","system_id":"levelo_inurba_marseille","lat":43.33612,"lon":5.410321,"is_reserved":false,"is_disabled":false,"rental_uris":{"android":"levelo://app?vid=0fef9fab-1a96-4961-9d16-f4cfcd87aa9c","ios":"levelo://app?vid=0fef9fab-1a96-4961-9d16-f4cfcd87aa9c"},"vehicle_type_id":"4","last_reported":1692464672,"current_range_meters":26000,"station_id":"ce4bhqh2rcd13ifvqhmg","pricing_plan_id":"free"},{"bike_id":"bd3a304b-215d-4ae7-a376-5d3ee91c4d0a","system_id":"levelo_inurba_marseille","lat":43.336134,"lon":5.410341,"is_reserved":false,"is_disabled":false,"rental_uris":{"android":"levelo://app?vid=bd3a304b-215d-4ae7-a376-5d3ee91c4d0a","ios":"levelo://app?vid=bd3a304b-215d-4ae7-a376-5d3ee91c4d0a"},"vehicle_type_id":"4","last_reported":1692464672,"current_range_meters":31200,"station_id":"ce4bhqh2rcd13ifvqhmg","pricing_plan_id":"free"},{"bike_id":"b908ef7e-10c8-4f56-b372-f5b786688b91","system_id":"levelo_inurba_marseille","lat":43.33612,"lon":5.410321,"is_reserved":false,"is_disabled":false,"rental_uris":{"android":"levelo://app?vid=b908ef7e-10c8-4f56-b372-f5b786688b91","ios":"levelo://app?vid=b908ef7e-10c8-4f56-b372-f5b786688b91"},"vehicle_type_id":"4","last_reported":1692464672,"current_range_meters":31600,"station_id":"ce4bhqh2rcd13ifvqhmg","pricing_plan_id":"free"},{"bike_id":"2e573e61-37c1-4cc3-8cce-e59d491852bc","system_id":"levelo_inurba_marseille","lat":43.33613,"lon":5.41027,"is_reserved":false,"is_disabled":false,"rental_uris":{"android":"levelo://app?vid=2e573e61-37c1-4cc3-8cce-e59d491852bc","ios":"levelo://app?vid=2e573e61-37c1-4cc3-8cce-e59d491852bc"},"vehicle_type_id":"4","last_reported":1692464672,"current_range_meters":20400,"station_id":"ce4bhqh2rcd13ifvqhmg","pricing_plan_id":"free"},{"bike_id":"33c65d5c-5c22-4390-94e0-6942dbc893e7","system_id":"levelo_inurba_marseille","lat":43.336134,"lon":5.410341,"is_reserved":false,"is_disabled":false,"rental_uris":{"android":"levelo://app?vid=33c65d5c-5c22-4390-94e0-6942dbc893e7","ios":"levelo://app?vid=33c65d5c-5c22-4390-94e0-6942dbc893e7"},"vehicle_type_id":"4","last_reported":1692464672,"current_range_meters":31200,"station_id":"ce4bhqh2rcd13ifvqhmg","pricing_plan_id":"free"},{"bike_id":"ec541ad8-4721-4f6c-89cb-7d4ae3d542dc","system_id":"levelo_inurba_marseille","lat":43.33614,"lon":5.41031,"is_reserved":false,"is_disabled":false,"rental_uris":{"android":"levelo://app?vid=ec541ad8-4721-4f6c-89cb-7d4ae3d542dc","ios":"levelo://app?vid=ec541ad8-4721-4f6c-89cb-7d4ae3d542dc"},"vehicle_type_id":"4","last_reported":1692464672,"current_range_meters":20400,"station_id":"ce4bhqh2rcd13ifvqhmg","pricing_plan_id":"free"},{"bike_id":"1f72d686-bc40-4d4f-b1c1-68a1ecb59074","system_id":"levelo_inurba_marseille","lat":43.336134,"lon":5.410341,"is_reserved":false,"is_disabled":false,"rental_uris":{"android":"levelo://app?vid=1f72d686-bc40-4d4f-b1c1-68a1ecb59074","ios":"levelo://app?vid=1f72d686-bc40-4d4f-b1c1-68a1ecb59074"},"vehicle_type_id":"4","last_reported":1692464672,"current_range_meters":18800,"station_id":"ce4bhqh2rcd13ifvqhmg","pricing_plan_id":"free"},{"bike_id":"2c002134-e4d2-41d1-b436-28e8e2ea24ca","system_id":"levelo_inurba_marseille","lat":43.27671,"lon":5.38904,"is_reserved":false,"is_disabled":false,"rental_uris":{"android":"levelo://app?vid=2c002134-e4d2-41d1-b436-28e8e2ea24ca","ios":"levelo://app?vid=2c002134-e4d2-41d1-b436-28e8e2ea24ca"},"vehicle_type_id":"4","last_reported":1692464672,"current_range_meters":29600,"station_id":"ce4bhi12rcd13ifvqfo0","pricing_plan_id":"free"},{"bike_id":"7c95d03a-342d-4716-be66-685a7a550367","system_id":"levelo_inurba_marseille","lat":43.27876,"lon":5.3949,"is_reserved":false,"is_disabled":false,"rental_uris":{"android":"levelo://app?vid=7c95d03a-342d-4716-be66-685a7a550367","ios":"levelo://app?vid=7c95d03a-342d-4716-be66-685a7a550367"},"vehicle_type_id":"4","last_reported":1692464672,"current_range_meters":23200,"station_id":"","pricing_plan_id":"free"},{"bike_id":"38e97ea2-1b48-4a99-a47c-81332f2cfcc1","system_id":"levelo_inurba_marseille","lat":43.280784,"lon":5.396622,"is_reserved":false,"is_disabled":false,"rental_uris":{"android":"levelo://app?vid=38e97ea2-1b48-4a99-a47c-81332f2cfcc1","ios":"levelo://app?vid=38e97ea2-1b48-4a99-a47c-81332f2cfcc1"},"vehicle_type_id":"4","last_reported":1692464672,"current_range_meters":12000,"station_id":"ce4bho12rcd13ifvqh2g","pricing_plan_id":"free"},{"bike_id":"78cc3d63-c02d-4afc-8e77-ba1672dba571","system_id":"levelo_inurba_marseille","lat":43.317121,"lon":5.423936,"is_reserved":false,"is_disabled":false,"rental_uris":{"android":"levelo://app?vid=78cc3d63-c02d-4afc-8e77-ba1672dba571","ios":"levelo://app?vid=78cc3d63-c02d-4afc-8e77-ba1672dba571"},"vehicle_type_id":"4","last_reported":1692464672,"current_range_meters":29600,"station_id":"ce4bhp92rcd13ifvqhbg","pricing_plan_id":"free"},{"bike_id":"f6720607-2fb4-4392-bb17-9844e15dd71b","system_id":"levelo_inurba_marseille","lat":43.34143,"lon":5.40898,"is_reserved":false,"is_disabled":false,"rental_uris":{"android":"levelo://app?vid=f6720607-2fb4-4392-bb17-9844e15dd71b","ios":"levelo://app?vid=f6720607-2fb4-4392-bb17-9844e15dd71b"},"vehicle_type_id":"4","last_reported":1692464672,"current_range_meters":19200,"station_id":"ce4bhqh2rcd13ifvqhlg","pricing_plan_id":"free"},{"bike_id":"aac77d8c-95b8-46b0-a750-37640337b386","system_id":"levelo_inurba_marseille","lat":43.34143,"lon":5.409,"is_reserved":false,"is_disabled":false,"rental_uris":{"android":"levelo://app?vid=aac77d8c-95b8-46b0-a750-37640337b386","ios":"levelo://app?vid=aac77d8c-95b8-46b0-a750-37640337b386"},"vehicle_type_id":"4","last_reported":1692464672,"current_range_meters":30800,"station_id":"ce4bhqh2rcd13ifvqhlg","pricing_plan_id":"free"},{"bike_id":"319a3f57-15e0-4282-be77-7fd5fa21e073","system_id":"levelo_inurba_marseille","lat":43.34143,"lon":5.40902,"is_reserved":false,"is_disabled":false,"rental_uris":{"android":"levelo://app?vid=319a3f57-15e0-4282-be77-7fd5fa21e073","ios":"levelo://app?vid=319a3f57-15e0-4282-be77-7fd5fa21e073"},"vehicle_type_id":"4","last_reported":1692464672,"current_range_meters":14800,"station_id":"ce4bhqh2rcd13ifvqhlg","pricing_plan_id":"free"},{"bike_id":"9efa1e9b-79c9-440a-b8b9-1506ca12e70d","system_id":"levelo_inurba_marseille","lat":43.340804,"lon":5.410219,"is_reserved":false,"is_disabled":false,"rental_uris":{"android":"levelo://app?vid=9efa1e9b-79c9-440a-b8b9-1506ca12e70d","ios":"levelo://app?vid=9efa1e9b-79c9-440a-b8b9-1506ca12e70d"},"vehicle_type_id":"4","last_reported":1692464672,"current_range_meters":12800,"station_id":"ce4bhqh2rcd13ifvqhlg","pricing_plan_id":"free"},{"bike_id":"4c064826-2e1c-48ad-8a97-d2b37ed5dbde","system_id":"levelo_inurba_marseille","lat":43.34143,"lon":5.40905,"is_reserved":false,"is_disabled":false,"rental_uris":{"android":"levelo://app?vid=4c064826-2e1c-48ad-8a97-d2b37ed5dbde","ios":"levelo://app?vid=4c064826-2e1c-48ad-8a97-d2b37ed5dbde"},"vehicle_type_id":"4","last_reported":1692464672,"current_range_meters":18800,"station_id":"ce4bhqh2rcd13ifvqhlg","pricing_plan_id":"free"},{"bike_id":"83d15515-e803-4385-8191-b0e90955240d","system_id":"levelo_inurba_marseille","lat":43.341443,"lon":5.409037,"is_reserved":false,"is_disabled":false,"rental_uris":{"android":"levelo://app?vid=83d15515-e803-4385-8191-b0e90955240d","ios":"levelo://app?vid=83d15515-e803-4385-8191-b0e90955240d"},"vehicle_type_id":"4","last_reported":1692464672,"current_range_meters":26800,"station_id":"ce4bhqh2rcd13ifvqhlg","pricing_plan_id":"free"},{"bike_id":"4337f4cf-45b3-4336-a7a1-028cc5a59f3a","system_id":"levelo_inurba_marseille","lat":43.26939,"lon":5.36697,"is_reserved":false,"is_disabled":false,"rental_uris":{"android":"levelo://app?vid=4337f4cf-45b3-4336-a7a1-028cc5a59f3a","ios":"levelo://app?vid=4337f4cf-45b3-4336-a7a1-028cc5a59f3a"},"vehicle_type_id":"4","last_reported":1692464672,"current_range_meters":15200,"station_id":"","pricing_plan_id":"free"},{"bike_id":"b3db2a2b-e8f4-4c38-8f86-36789dfe7f9e","system_id":"levelo_inurba_marseille","lat":43.29549,"lon":5.42276,"is_reserved":false,"is_disabled":false,"rental_uris":{"android":"levelo://app?vid=b3db2a2b-e8f4-4c38-8f86-36789dfe7f9e","ios":"levelo://app?vid=b3db2a2b-e8f4-4c38-8f86-36789dfe7f9e"},"vehicle_type_id":"4","last_reported":1692464672,"current_range_meters":18000,"station_id":"ce4bhph2rcd13ifvqhdg","pricing_plan_id":"free"},{"bike_id":"f7a9f61a-f60f-40ff-80b8-a4a93f85f402","system_id":"levelo_inurba_marseille","lat":43.29555,"lon":5.42282,"is_reserved":false,"is_disabled":false,"rental_uris":{"android":"levelo://app?vid=f7a9f61a-f60f-40ff-80b8-a4a93f85f402","ios":"levelo://app?vid=f7a9f61a-f60f-40ff-80b8-a4a93f85f402"},"vehicle_type_id":"4","last_reported":1692464672,"current_range_meters":0,"station_id":"ce4bhph2rcd13ifvqhdg","pricing_plan_id":"free"},{"bike_id":"adf255f9-759d-4d67-b9ac-71c772d77347","system_id":"levelo_inurba_marseille","lat":43.295523,"lon":5.422926,"is_reserved":false,"is_disabled":false,"rental_uris":{"android":"levelo://app?vid=adf255f9-759d-4d67-b9ac-71c772d77347","ios":"levelo://app?vid=adf255f9-759d-4d67-b9ac-71c772d77347"},"vehicle_type_id":"4","last_reported":1692464672,"current_range_meters":30000,"station_id":"ce4bhph2rcd13ifvqhdg","pricing_plan_id":"free"},{"bike_id":"0b8b326e-8077-4f91-a448-485ab9844ced","system_id":"levelo_inurba_marseille","lat":43.29547,"lon":5.42281,"is_reserved":false,"is_disabled":false,"rental_uris":{"android":"levelo://app?vid=0b8b326e-8077-4f91-a448-485ab9844ced","ios":"levelo://app?vid=0b8b326e-8077-4f91-a448-485ab9844ced"},"vehicle_type_id":"4","last_reported":1692464672,"current_range_meters":24000,"station_id":"ce4bhph2rcd13ifvqhdg","pricing_plan_id":"free"},{"bike_id":"ac43af9d-cb66-489b-9d41-7c4782ae8524","system_id":"levelo_inurba_marseille","lat":43.295511,"lon":5.422926,"is_reserved":false,"is_disabled":false,"rental_uris":{"android":"levelo://app?vid=ac43af9d-cb66-489b-9d41-7c4782ae8524","ios":"levelo://app?vid=ac43af9d-cb66-489b-9d41-7c4782ae8524"},"vehicle_type_id":"4","last_reported":1692464672,"current_range_meters":12400,"station_id":"ce4bhph2rcd13ifvqhdg","pricing_plan_id":"free"},{"bike_id":"e7e281b1-8c2b-4d0d-acfd-c8f5a043fb46","system_id":"levelo_inurba_marseille","lat":43.29554,"lon":5.42297,"is_reserved":false,"is_disabled":false,"rental_uris":{"android":"levelo://app?vid=e7e281b1-8c2b-4d0d-acfd-c8f5a043fb46","ios":"levelo://app?vid=e7e281b1-8c2b-4d0d-acfd-c8f5a043fb46"},"vehicle_type_id":"4","last_reported":1692464672,"current_range_meters":27200,"station_id":"ce4bhph2rcd13ifvqhdg","pricing_plan_id":"free"},{"bike_id":"f396c5bf-6151-4ea0-95b1-3edf9e7ecc22","system_id":"levelo_inurba_marseille","lat":43.295511,"lon":5.422926,"is_reserved":false,"is_disabled":false,"rental_uris":{"android":"levelo://app?vid=f396c5bf-6151-4ea0-95b1-3edf9e7ecc22","ios":"levelo://app?vid=f396c5bf-6151-4ea0-95b1-3edf9e7ecc22"},"vehicle_type_id":"4","last_reported":1692464672,"current_range_meters":6800,"station_id":"ce4bhph2rcd13ifvqhdg","pricing_plan_id":"free"},{"bike_id":"e42b8ef1-6ed5-4fa8-a834-5c17995a749b","system_id":"levelo_inurba_marseille","lat":43.272118,"lon":5.391758,"is_reserved":false,"is_disabled":false,"rental_uris":{"android":"levelo://app?vid=e42b8ef1-6ed5-4fa8-a834-5c17995a749b","ios":"levelo://app?vid=e42b8ef1-6ed5-4fa8-a834-5c17995a749b"},"vehicle_type_id":"4","last_reported":1692464672,"current_range_meters":0,"station_id":"ce4bhhp2rcd13ifvqfm0","pricing_plan_id":"free"},{"bike_id":"050481e4-d1d7-4fa9-af6c-798b6056dd89","system_id":"levelo_inurba_marseille","lat":43.272116,"lon":5.391747,"is_reserved":false,"is_disabled":false,"rental_uris":{"android":"levelo://app?vid=050481e4-d1d7-4fa9-af6c-798b6056dd89","ios":"levelo://app?vid=050481e4-d1d7-4fa9-af6c-798b6056dd89"},"vehicle_type_id":"4","last_reported":1692464672,"current_range_meters":14000,"station_id":"ce4bhhp2rcd13ifvqfm0","pricing_plan_id":"free"},{"bike_id":"0157da9f-07d8-4ffc-9d59-7fc31094a542","system_id":"levelo_inurba_marseille","lat":43.27817,"lon":5.40718,"is_reserved":false,"is_disabled":false,"rental_uris":{"android":"levelo://app?vid=0157da9f-07d8-4ffc-9d59-7fc31094a542","ios":"levelo://app?vid=0157da9f-07d8-4ffc-9d59-7fc31094a542"},"vehicle_type_id":"4","last_reported":1692464672,"current_range_meters":29600,"station_id":"ce4bhnh2rcd13ifvqgtg","pricing_plan_id":"free"},{"bike_id":"0a751e0b-a7e6-4ee6-b42b-48222f8b273e","system_id":"levelo_inurba_marseille","lat":43.27816,"lon":5.4072,"is_reserved":false,"is_disabled":false,"rental_uris":{"android":"levelo://app?vid=0a751e0b-a7e6-4ee6-b42b-48222f8b273e","ios":"levelo://app?vid=0a751e0b-a7e6-4ee6-b42b-48222f8b273e"},"vehicle_type_id":"4","last_reported":1692464672,"current_range_meters":20400,"station_id":"ce4bhnh2rcd13ifvqgtg","pricing_plan_id":"free"},{"bike_id":"dda8ea37-a378-4e3d-8b33-04f9a23b44b3","system_id":"levelo_inurba_marseille","lat":43.278128,"lon":5.407195,"is_reserved":false,"is_disabled":false,"rental_uris":{"android":"levelo://app?vid=dda8ea37-a378-4e3d-8b33-04f9a23b44b3","ios":"levelo://app?vid=dda8ea37-a378-4e3d-8b33-04f9a23b44b3"},"vehicle_type_id":"4","last_reported":1692464672,"current_range_meters":29200,"station_id":"ce4bhnh2rcd13ifvqgtg","pricing_plan_id":"free"},{"bike_id":"75a55ea0-735a-4c93-807d-47ae11ae2590","system_id":"levelo_inurba_marseille","lat":43.27808,"lon":5.40718,"is_reserved":false,"is_disabled":false,"rental_uris":{"android":"levelo://app?vid=75a55ea0-735a-4c93-807d-47ae11ae2590","ios":"levelo://app?vid=75a55ea0-735a-4c93-807d-47ae11ae2590"},"vehicle_type_id":"4","last_reported":1692464672,"current_range_meters":18000,"station_id":"ce4bhnh2rcd13ifvqgtg","pricing_plan_id":"free"},{"bike_id":"1fe5f141-fded-40d5-9e7b-bd521d77f5b1","system_id":"levelo_inurba_marseille","lat":43.27937,"lon":5.41044,"is_reserved":false,"is_disabled":false,"rental_uris":{"android":"levelo://app?vid=1fe5f141-fded-40d5-9e7b-bd521d77f5b1","ios":"levelo://app?vid=1fe5f141-fded-40d5-9e7b-bd521d77f5b1"},"vehicle_type_id":"4","last_reported":1692464672,"current_range_meters":0,"station_id":"ce4bhnp2rcd13ifvqh0g","pricing_plan_id":"free"},{"bike_id":"fdd0fb34-66f3-43a0-b566-17f6504d0927","system_id":"levelo_inurba_marseille","lat":43.269319,"lon":5.389397,"is_reserved":false,"is_disabled":false,"rental_uris":{"android":"levelo://app?vid=fdd0fb34-66f3-43a0-b566-17f6504d0927","ios":"levelo://app?vid=fdd0fb34-66f3-43a0-b566-17f6504d0927"},"vehicle_type_id":"4","last_reported":1692464672,"current_range_meters":28400,"station_id":"ce4bhhh2rcd13ifvqfl0","pricing_plan_id":"free"},{"bike_id":"61467831-e51e-4f5c-9f92-2836779694b6","system_id":"levelo_inurba_marseille","lat":43.269319,"lon":5.389397,"is_reserved":false,"is_disabled":false,"rental_uris":{"android":"levelo://app?vid=61467831-e51e-4f5c-9f92-2836779694b6","ios":"levelo://app?vid=61467831-e51e-4f5c-9f92-2836779694b6"},"vehicle_type_id":"4","last_reported":1692464672,"current_range_meters":19600,"station_id":"ce4bhhh2rcd13ifvqfl0","pricing_plan_id":"free"},{"bike_id":"6186d71b-7cd7-4978-b85a-df42d9076849","system_id":"levelo_inurba_marseille","lat":43.27985,"lon":5.41658,"is_reserved":false,"is_disabled":false,"rental_uris":{"android":"levelo://app?vid=6186d71b-7cd7-4978-b85a-df42d9076849","ios":"levelo://app?vid=6186d71b-7cd7-4978-b85a-df42d9076849"},"vehicle_type_id":"4","last_reported":1692464672,"current_range_meters":0,"station_id":"ce4bho12rcd13ifvqh1g","pricing_plan_id":"free"},{"bike_id":"a63545df-ee1b-4e21-8627-0eed03cd5322","system_id":"levelo_inurba_marseille","lat":43.27996,"lon":5.416624,"is_reserved":false,"is_disabled":false,"rental_uris":{"android":"levelo://app?vid=a63545df-ee1b-4e21-8627-0eed03cd5322","ios":"levelo://app?vid=a63545df-ee1b-4e21-8627-0eed03cd5322"},"vehicle_type_id":"4","last_reported":1692464672,"current_range_meters":18000,"station_id":"ce4bho12rcd13ifvqh1g","pricing_plan_id":"free"},{"bike_id":"1faf66a5-d5c9-42a8-a69e-532a89155273","system_id":"levelo_inurba_marseille","lat":43.26193,"lon":5.37442,"is_reserved":false,"is_disabled":false,"rental_uris":{"android":"levelo://app?vid=1faf66a5-d5c9-42a8-a69e-532a89155273","ios":"levelo://app?vid=1faf66a5-d5c9-42a8-a69e-532a89155273"},"vehicle_type_id":"4","last_reported":1692464672,"current_range_meters":24800,"station_id":"ce4bhgp2rcd13ifvqfc0","pricing_plan_id":"free"},{"bike_id":"af9d3172-a227-4e07-88eb-d5b324e57ca7","system_id":"levelo_inurba_marseille","lat":43.26192,"lon":5.37438,"is_reserved":false,"is_disabled":false,"rental_uris":{"android":"levelo://app?vid=af9d3172-a227-4e07-88eb-d5b324e57ca7","ios":"levelo://app?vid=af9d3172-a227-4e07-88eb-d5b324e57ca7"},"vehicle_type_id":"4","last_reported":1692464672,"current_range_meters":16000,"station_id":"ce4bhgp2rcd13ifvqfc0","pricing_plan_id":"free"},{"bike_id":"5058729b-4b2f-486e-ac2b-e456c1b049e4","system_id":"levelo_inurba_marseille","lat":43.26192,"lon":5.37438,"is_reserved":false,"is_disabled":false,"rental_uris":{"android":"levelo://app?vid=5058729b-4b2f-486e-ac2b-e456c1b049e4","ios":"levelo://app?vid=5058729b-4b2f-486e-ac2b-e456c1b049e4"},"vehicle_type_id":"4","last_reported":1692464672,"current_range_meters":22400,"station_id":"ce4bhgp2rcd13ifvqfc0","pricing_plan_id":"free"},{"bike_id":"bfb31e45-4f0b-4417-86aa-e48227f4591c","system_id":"levelo_inurba_marseille","lat":43.26192,"lon":5.3744,"is_reserved":false,"is_disabled":false,"rental_uris":{"android":"levelo://app?vid=bfb31e45-4f0b-4417-86aa-e48227f4591c","ios":"levelo://app?vid=bfb31e45-4f0b-4417-86aa-e48227f4591c"},"vehicle_type_id":"4","last_reported":1692464672,"current_range_meters":31200,"station_id":"ce4bhgp2rcd13ifvqfc0","pricing_plan_id":"free"},{"bike_id":"e7ac9462-e0db-43ba-860a-9e6edcab96fd","system_id":"levelo_inurba_marseille","lat":43.26192,"lon":5.37441,"is_reserved":false,"is_disabled":false,"rental_uris":{"android":"levelo://app?vid=e7ac9462-e0db-43ba-860a-9e6edcab96fd","ios":"levelo://app?vid=e7ac9462-e0db-43ba-860a-9e6edcab96fd"},"vehicle_type_id":"4","last_reported":1692464672,"current_range_meters":18000,"station_id":"ce4bhgp2rcd13ifvqfc0","pricing_plan_id":"free"},{"bike_id":"af95ce3e-742a-4078-bcae-a1747812de9a","system_id":"levelo_inurba_marseille","lat":43.26191,"lon":5.37439,"is_reserved":false,"is_disabled":false,"rental_uris":{"android":"levelo://app?vid=af95ce3e-742a-4078-bcae-a1747812de9a","ios":"levelo://app?vid=af95ce3e-742a-4078-bcae-a1747812de9a"},