{"last_updated":1702767982,"ttl":30,"version":"2.2","data":{"bikes":[{"bike_id":"cc3abdbc-914b-4138-bb33-5fa5c51dc825","system_id":"levelo_inurba_marseille","lat":43.313391,"lon":5.36706,"is_reserved":false,"is_disabled":false,"rental_uris":{"android":"levelo://app?vid=cc3abdbc-914b-4138-bb33-5fa5c51dc825","ios":"levelo://app?vid=cc3abdbc-914b-4138-bb33-5fa5c51dc825"},"vehicle_type_id":"4","last_reported":1702767982,"current_range_meters":26800,"station_id":"ce4bgr92rcd13ifvqc6g","pricing_plan_id":"free"},{"bike_id":"86c595d7-c010-47ab-af21-e87973f808b2","system_id":"levelo_inurba_marseille","lat":43.312239,"lon":5.368562,"is_reserved":false,"is_disabled":false,"rental_uris":{"android":"levelo://app?vid=86c595d7-c010-47ab-af21-e87973f808b2","ios":"levelo://app?vid=86c595d7-c010-47ab-af21-e87973f808b2"},"vehicle_type_id":"4","last_reported":1702767982,"current_range_meters":6800,"station_id":"ce4bgl92rcd13ifvqbq0","pricing_plan_id":"free"},{"bike_id":"5e5790ab-47fc-4e4d-8bed-4f78994ffc3a","system_id":"levelo_inurba_marseille","lat":43.309076,"lon":5.368465,"is_reserved":false,"is_disabled":false,"rental_uris":{"android":"levelo://app?vid=5e5790ab-47fc-4e4d-8bed-4f78994ffc3a","ios":"levelo://app?vid=5e5790ab-47fc-4e4d-8bed-4f78994ffc3a"},"vehicle_type_id":"4","last_reported":1702767982,"current_range_meters":28400,"station_id":"ce4bgn92rcd13ifvqbvg","pricing_plan_id":"free"},{"bike_id":"75b67461-3acb-4d7a-b982-e7fe76bc71d9","system_id":"levelo_inurba_marseille","lat":43.314811,"lon":5.373104,"is_reserved":false,"is_disabled":false,"rental_uris":{"android":"levelo://app?vid=75b67461-3acb-4d7a-b982-e7fe76bc71d9","ios":"levelo://app?vid=75b67461-3acb-4d7a-b982-e7fe76bc71d9"},"vehicle_type_id":"4","last_reported":1702767982,"current_range_meters":3200,"station_id":"ce4bgt12rcd13ifvqcd0","pricing_plan_id":"free"},{"bike_id":"78ce49c1-6596-4265-9140-7660994e7b05","system_id":"levelo_inurba_marseille","lat":43.314811,"lon":5.373103,"is_reserved":false,"is_disabled":false,"rental_uris":{"android":"levelo://app?vid=78ce49c1-6596-4265-9140-7660994e7b05","ios":"levelo://app?vid=78ce49c1-6596-4265-9140-7660994e7b05"},"vehicle_type_id":"4","last_reported":1702767982,"current_range_meters":2400,"station_id":"ce4bgt12rcd13ifvqcd0","pricing_plan_id":"free"},{"bike_id":"3f8b821f-e430-4a35-bf14-f8b6e777ea11","system_id":"levelo_inurba_marseille","lat":43.313939,"lon":5.375306,"is_reserved":false,"is_disabled":false,"rental_uris":{"android":"levelo://app?vid=3f8b821f-e430-4a35-bf14-f8b6e777ea11","ios":"levelo://app?vid=3f8b821f-e430-4a35-bf14-f8b6e777ea11"},"vehicle_type_id":"4","last_reported":1702767982,"current_range_meters":0,"station_id":"","pricing_plan_id":"free"},{"bike_id":"98bbd608-b595-4481-ab95-e75f77bc6b3a","system_id":"levelo_inurba_marseille","lat":43.305392,"lon":5.367223,"is_reserved":false,"is_disabled":false,"rental_uris":{"android":"levelo://app?vid=98bbd608-b595-4481-ab95-e75f77bc6b3a","ios":"levelo://app?vid=98bbd608-b595-4481-ab95-e75f77bc6b3a"},"vehicle_type_id":"4","last_reported":1702767982,"current_range_meters":5200,"station_id":"ce4bgrp2rcd13ifvqc9g","pricing_plan_id":"free"},{"bike_id":"9e96abd5-e56b-4c55-bf12-b5ca48dffc1b","system_id":"levelo_inurba_marseille","lat":43.305714,"lon":5.365633,"is_reserved":false,"is_disabled":false,"rental_uris":{"android":"levelo://app?vid=9e96abd5-e56b-4c55-bf12-b5ca48dffc1b","ios":"levelo://app?vid=9e96abd5-e56b-4c55-bf12-b5ca48dffc1b"},"vehicle_type_id":"4","last_reported":1702767982,"current_range_meters":20000,"station_id":"ce4bgs12rcd13ifvqcag","pricing_plan_id":"free"},{"bike_id":"ae7b01f2-72ac-4c63-b606-627355366233","system_id":"levelo_inurba_marseille","lat":43.305368,"lon":5.367343,"is_reserved":false,"is_disabled":false,"rental_uris":{"android":"levelo://app?vid=ae7b01f2-72ac-4c63-b606-627355366233","ios":"levelo://app?vid=ae7b01f2-72ac-4c63-b606-627355366233"},"vehicle_type_id":"4","last_reported":1702767982,"current_range_meters":31200,"station_id":"ce4bgrp2rcd13ifvqc9g","pricing_plan_id":"free"},{"bike_id":"955e4ab2-16e5-44e8-a986-a2f50ff96c06","system_id":"levelo_inurba_marseille","lat":43.305382,"lon":5.365389,"is_reserved":false,"is_disabled":false,"rental_uris":{"android":"levelo://app?vid=955e4ab2-16e5-44e8-a986-a2f50ff96c06","ios":"levelo://app?vid=955e4ab2-16e5-44e8-a986-a2f50ff96c06"},"vehicle_type_id":"4","last_reported":1702767982,"current_range_meters":14000,"station_id":"","pricing_plan_id":"free"},{"bike_id":"0ee6d281-1815-40b1-bb15-473baaa7c12f","system_id":"levelo_inurba_marseille","lat":43.305238,"lon":5.367315,"is_reserved":false,"is_disabled":false,"rental_uris":{"android":"levelo://app?vid=0ee6d281-1815-40b1-bb15-473baaa7c12f","ios":"levelo://app?vid=0ee6d281-1815-40b1-bb15-473baaa7c12f"},"vehicle_type_id":"4","last_reported":1702767982,"current_range_meters":11200,"station_id":"ce4bgrp2rcd13ifvqc9g","pricing_plan_id":"free"},{"bike_id":"cc3961d7-2cd6-4e64-84f5-072a4b938833","system_id":"levelo_inurba_marseille","lat":43.305989,"lon":5.37225,"is_reserved":false,"is_disabled":false,"rental_uris":{"android":"levelo://app?vid=cc3961d7-2cd6-4e64-84f5-072a4b938833","ios":"levelo://app?vid=cc3961d7-2cd6-4e64-84f5-072a4b938833"},"vehicle_type_id":"4","last_reported":1702767982,"current_range_meters":28400,"station_id":"ce4bgqh2rcd13ifvqc4g","pricing_plan_id":"free"},{"bike_id":"2628109e-1bf2-4e2c-88b0-8bdc88abf2d5","system_id":"levelo_inurba_marseille","lat":43.311125,"lon":5.377624,"is_reserved":false,"is_disabled":false,"rental_uris":{"android":"levelo://app?vid=2628109e-1bf2-4e2c-88b0-8bdc88abf2d5","ios":"levelo://app?vid=2628109e-1bf2-4e2c-88b0-8bdc88abf2d5"},"vehicle_type_id":"4","last_reported":1702767982,"current_range_meters":800,"station_id":"ce4bgt92rcd13ifvqcg0","pricing_plan_id":"free"},{"bike_id":"020061c5-34ac-4703-8a16-803eacdc80d1","system_id":"levelo_inurba_marseille","lat":43.311125,"lon":5.377624,"is_reserved":false,"is_disabled":false,"rental_uris":{"android":"levelo://app?vid=020061c5-34ac-4703-8a16-803eacdc80d1","ios":"levelo://app?vid=020061c5-34ac-4703-8a16-803eacdc80d1"},"vehicle_type_id":"4","last_reported":1702767982,"current_range_meters":12800,"station_id":"ce4bgt92rcd13ifvqcg0","pricing_plan_id":"free"},{"bike_id":"2a94b36a-8035-4312-bcd1-31cc73e503db","system_id":"levelo_inurba_marseille","lat":43.311125,"lon":5.377624,"is_reserved":false,"is_disabled":false,"rental_uris":{"android":"levelo://app?vid=2a94b36a-8035-4312-bcd1-31cc73e503db","ios":"levelo://app?vid=2a94b36a-8035-4312-bcd1-31cc73e503db"},"vehicle_type_id":"4","last_reported":1702767982,"current_range_meters":24000,"station_id":"ce4bgt92rcd13ifvqcg0","pricing_plan_id":"free"},{"bike_id":"2fd4b5fc-2586-4619-95eb-eb38a22ae3ba","system_id":"levelo_inurba_marseille","lat":43.317075,"lon":5.377367,"is_reserved":false,"is_disabled":false,"rental_uris":{"android":"levelo://app?vid=2fd4b5fc-2586-4619-95eb-eb38a22ae3ba","ios":"levelo://app?vid=2fd4b5fc-2586-4619-95eb-eb38a22ae3ba"},"vehicle_type_id":"4","last_reported":1702767982,"current_range_meters":7200,"station_id":"ce4bgth2rcd13ifvqch0","pricing_plan_id":"free"},{"bike_id":"9616949a-45ac-45be-a508-98dd80f6820a","system_id":"levelo_inurba_marseille","lat":43.315404,"lon":5.380191,"is_reserved":false,"is_disabled":false,"rental_uris":{"android":"levelo://app?vid=9616949a-45ac-45be-a508-98dd80f6820a","ios":"levelo://app?vid=9616949a-45ac-45be-a508-98dd80f6820a"},"vehicle_type_id":"4","last_reported":1702767982,"current_range_meters":0,"station_id":"ce4bhsp2rcd13ifvqi50","pricing_plan_id":"free"},{"bike_id":"5631fbdf-0b1b-4a91-ac9e-b8c64f58a515","system_id":"levelo_inurba_marseille","lat":43.315354,"lon":5.38025,"is_reserved":false,"is_disabled":false,"rental_uris":{"android":"levelo://app?vid=5631fbdf-0b1b-4a91-ac9e-b8c64f58a515","ios":"levelo://app?vid=5631fbdf-0b1b-4a91-ac9e-b8c64f58a515"},"vehicle_type_id":"4","last_reported":1702767982,"current_range_meters":0,"station_id":"ce4bhsp2rcd13ifvqi50","pricing_plan_id":"free"},{"bike_id":"2c2cee8a-7677-424a-beeb-4b3081cfba59","system_id":"levelo_inurba_marseille","lat":43.308012,"lon":5.381511,"is_reserved":false,"is_disabled":false,"rental_uris":{"android":"levelo://app?vid=2c2cee8a-7677-424a-beeb-4b3081cfba59","ios":"levelo://app?vid=2c2cee8a-7677-424a-beeb-4b3081cfba59"},"vehicle_type_id":"4","last_reported":1702767982,"current_range_meters":10800,"station_id":"ce4bgt12rcd13ifvqce0","pricing_plan_id":"free"},{"bike_id":"a113a412-b8af-4df5-9700-8be6b2cf8388","system_id":"levelo_inurba_marseille","lat":43.324771,"lon":5.36557,"is_reserved":false,"is_disabled":false,"rental_uris":{"android":"levelo://app?vid=a113a412-b8af-4df5-9700-8be6b2cf8388","ios":"levelo://app?vid=a113a412-b8af-4df5-9700-8be6b2cf8388"},"vehicle_type_id":"4","last_reported":1702767982,"current_range_meters":16400,"station_id":"ce4bhs12rcd13ifvqhvg","pricing_plan_id":"free"},{"bike_id":"88f7ea2a-62f7-4a88-9e9d-900940b4d7e5","system_id":"levelo_inurba_marseille","lat":43.324771,"lon":5.36557,"is_reserved":false,"is_disabled":false,"rental_uris":{"android":"levelo://app?vid=88f7ea2a-62f7-4a88-9e9d-900940b4d7e5","ios":"levelo://app?vid=88f7ea2a-62f7-4a88-9e9d-900940b4d7e5"},"vehicle_type_id":"4","last_reported":1702767982,"current_range_meters":13200,"station_id":"ce4bhs12rcd13ifvqhvg","pricing_plan_id":"free"},{"bike_id":"dfe62985-6f65-471f-8bdb-4e96693a7937","system_id":"levelo_inurba_marseille","lat":43.324829,"lon":5.36565,"is_reserved":false,"is_disabled":false,"rental_uris":{"android":"levelo://app?vid=dfe62985-6f65-471f-8bdb-4e96693a7937","ios":"levelo://app?vid=dfe62985-6f65-471f-8bdb-4e96693a7937"},"vehicle_type_id":"4","last_reported":1702767982,"current_range_meters":15600,"station_id":"ce4bhs12rcd13ifvqhvg","pricing_plan_id":"free"},{"bike_id":"44c8b40c-0afe-48d3-8480-d4dfd6b81af3","system_id":"levelo_inurba_marseille","lat":43.324771,"lon":5.36557,"is_reserved":false,"is_disabled":false,"rental_uris":{"android":"levelo://app?vid=44c8b40c-0afe-48d3-8480-d4dfd6b81af3","ios":"levelo://app?vid=44c8b40c-0afe-48d3-8480-d4dfd6b81af3"},"vehicle_type_id":"4","last_reported":1702767982,"current_range_meters":24800,"station_id":"ce4bhs12rcd13ifvqhvg","pricing_plan_id":"free"},{"bike_id":"537edaa1-55ae-4244-b6a2-9f92ced52518","system_id":"levelo_inurba_marseille","lat":43.302784,"lon":5.377158,"is_reserved":false,"is_disabled":false,"rental_uris":{"android":"levelo://app?vid=537edaa1-55ae-4244-b6a2-9f92ced52518","ios":"levelo://app?vid=537edaa1-55ae-4244-b6a2-9f92ced52518"},"vehicle_type_id":"4","last_reported":1702767982,"current_range_meters":21600,"station_id":"ce4bguh2rcd13ifvqcj0","pricing_plan_id":"free"},{"bike_id":"dd62cb3a-3f08-44cf-8561-0c89ff17ac35","system_id":"levelo_inurba_marseille","lat":43.313592,"lon":5.384709,"is_reserved":false,"is_disabled":false,"rental_uris":{"android":"levelo://app?vid=dd62cb3a-3f08-44cf-8561-0c89ff17ac35","ios":"levelo://app?vid=dd62cb3a-3f08-44cf-8561-0c89ff17ac35"},"vehicle_type_id":"4","last_reported":1702767982,"current_range_meters":19200,"station_id":"ce4bgt92rcd13ifvqcf0","pricing_plan_id":"free"},{"bike_id":"533a3ea5-14c7-4f6b-8770-c088486e72ad","system_id":"levelo_inurba_marseille","lat":43.313571,"lon":5.384829,"is_reserved":false,"is_disabled":false,"rental_uris":{"android":"levelo://app?vid=533a3ea5-14c7-4f6b-8770-c088486e72ad","ios":"levelo://app?vid=533a3ea5-14c7-4f6b-8770-c088486e72ad"},"vehicle_type_id":"4","last_reported":1702767982,"current_range_meters":22400,"station_id":"ce4bgt92rcd13ifvqcf0","pricing_plan_id":"free"},{"bike_id":"491b5258-88fb-4acb-82d0-7e0111bbc5bb","system_id":"levelo_inurba_marseille","lat":43.313571,"lon":5.384829,"is_reserved":false,"is_disabled":false,"rental_uris":{"android":"levelo://app?vid=491b5258-88fb-4acb-82d0-7e0111bbc5bb","ios":"levelo://app?vid=491b5258-88fb-4acb-82d0-7e0111bbc5bb"},"vehicle_type_id":"4","last_reported":1702767982,"current_range_meters":11600,"station_id":"ce4bgt92rcd13ifvqcf0","pricing_plan_id":"free"},{"bike_id":"f4d8ed76-c1e2-4fca-86b2-daaf1281a478","system_id":"levelo_inurba_marseille","lat":43.299222,"lon":5.365554,"is_reserved":false,"is_disabled":false,"rental_uris":{"android":"levelo://app?vid=f4d8ed76-c1e2-4fca-86b2-daaf1281a478","ios":"levelo://app?vid=f4d8ed76-c1e2-4fca-86b2-daaf1281a478"},"vehicle_type_id":"4","last_reported":1702767982,"current_range_meters":12400,"station_id":"ce4bgm92rcd13ifvqbr0","pricing_plan_id":"free"},{"bike_id":"c4196fd9-ec5d-4975-ae34-90831a86843d","system_id":"levelo_inurba_marseille","lat":43.29931,"lon":5.3656,"is_reserved":false,"is_disabled":false,"rental_uris":{"android":"levelo://app?vid=c4196fd9-ec5d-4975-ae34-90831a86843d","ios":"levelo://app?vid=c4196fd9-ec5d-4975-ae34-90831a86843d"},"vehicle_type_id":"4","last_reported":1702767982,"current_range_meters":3600,"station_id":"ce4bgm92rcd13ifvqbr0","pricing_plan_id":"free"},{"bike_id":"b5a1792f-6334-48ff-8628-c1e873c106bd","system_id":"levelo_inurba_marseille","lat":43.299724,"lon":5.371829,"is_reserved":false,"is_disabled":false,"rental_uris":{"android":"levelo://app?vid=b5a1792f-6334-48ff-8628-c1e873c106bd","ios":"levelo://app?vid=b5a1792f-6334-48ff-8628-c1e873c106bd"},"vehicle_type_id":"4","last_reported":1702767982,"current_range_meters":25600,"station_id":"ce4bgr92rcd13ifvqc7g","pricing_plan_id":"free"},{"bike_id":"b5043907-8402-4825-9d05-1b5ec892aeae","system_id":"levelo_inurba_marseille","lat":43.299724,"lon":5.371829,"is_reserved":false,"is_disabled":false,"rental_uris":{"android":"levelo://app?vid=b5043907-8402-4825-9d05-1b5ec892aeae","ios":"levelo://app?vid=b5043907-8402-4825-9d05-1b5ec892aeae"},"vehicle_type_id":"4","last_reported":1702767982,"current_range_meters":18400,"station_id":"ce4bgr92rcd13ifvqc7g","pricing_plan_id":"free"},{"bike_id":"c5945388-1bc7-413b-b024-46a1fb10c8f8","system_id":"levelo_inurba_marseille","lat":43.299724,"lon":5.371829,"is_reserved":false,"is_disabled":false,"rental_uris":{"android":"levelo://app?vid=c5945388-1bc7-413b-b024-46a1fb10c8f8","ios":"levelo://app?vid=c5945388-1bc7-413b-b024-46a1fb10c8f8"},"vehicle_type_id":"4","last_reported":1702767982,"current_range_meters":16000,"station_id":"ce4bgr92rcd13ifvqc7g","pricing_plan_id":"free"},{"bike_id":"8ed41e6a-f8a4-4285-ba76-ccff5e3d5689","system_id":"levelo_inurba_marseille","lat":43.299724,"lon":5.371829,"is_reserved":false,"is_disabled":false,"rental_uris":{"android":"levelo://app?vid=8ed41e6a-f8a4-4285-ba76-ccff5e3d5689","ios":"levelo://app?vid=8ed41e6a-f8a4-4285-ba76-ccff5e3d5689"},"vehicle_type_id":"4","last_reported":1702767982,"current_range_meters":0,"station_id":"ce4bgr92rcd13ifvqc7g","pricing_plan_id":"free"},{"bike_id":"ec68b420-234d-4e38-b173-2750d3a2c7ac","system_id":"levelo_inurba_marseille","lat":43.299724,"lon":5.371829,"is_reserved":false,"is_disabled":false,"rental_uris":{"android":"levelo://app?vid=ec68b420-234d-4e38-b173-2750d3a2c7ac","ios":"levelo://app?vid=ec68b420-234d-4e38-b173-2750d3a2c7ac"},"vehicle_type_id":"4","last_reported":1702767982,"current_range_meters":20400,"station_id":"ce4bgr92rcd13ifvqc7g","pricing_plan_id":"free"},{"bike_id":"490f57e8-590e-4078-bcab-3a5e39d64261","system_id":"levelo_inurba_marseille","lat":43.29853,"lon":5.36288,"is_reserved":false,"is_disabled":false,"rental_uris":{"android":"levelo://app?vid=490f57e8-590e-4078-bcab-3a5e39d64261","ios":"levelo://app?vid=490f57e8-590e-4078-bcab-3a5e39d64261"},"vehicle_type_id":"4","last_reported":1702767982,"current_range_meters":10000,"station_id":"ce4bgpp2rcd13ifvqc3g","pricing_plan_id":"free"},{"bike_id":"c4e77394-aef9-4077-b745-e99148625344","system_id":"levelo_inurba_marseille","lat":43.32733,"lon":5.36707,"is_reserved":false,"is_disabled":false,"rental_uris":{"android":"levelo://app?vid=c4e77394-aef9-4077-b745-e99148625344","ios":"levelo://app?vid=c4e77394-aef9-4077-b745-e99148625344"},"vehicle_type_id":"4","last_reported":1702767982,"current_range_meters":21200,"station_id":"","pricing_plan_id":"free"},{"bike_id":"819cb438-2e9c-4e0b-902b-5e19ef554d5c","system_id":"levelo_inurba_marseille","lat":43.305464,"lon":5.384477,"is_reserved":false,"is_disabled":false,"rental_uris":{"android":"levelo://app?vid=819cb438-2e9c-4e0b-902b-5e19ef554d5c","ios":"levelo://app?vid=819cb438-2e9c-4e0b-902b-5e19ef554d5c"},"vehicle_type_id":"4","last_reported":1702767982,"current_range_meters":14000,"station_id":"ce4bgg92rcd13ifvqb30","pricing_plan_id":"free"},{"bike_id":"fdf2eea8-659b-442a-9b55-a29f53315b7c","system_id":"levelo_inurba_marseille","lat":43.299243,"lon":5.37481,"is_reserved":false,"is_disabled":false,"rental_uris":{"android":"levelo://app?vid=fdf2eea8-659b-442a-9b55-a29f53315b7c","ios":"levelo://app?vid=fdf2eea8-659b-442a-9b55-a29f53315b7c"},"vehicle_type_id":"4","last_reported":1702767982,"current_range_meters":1200,"station_id":"ce4bgjh2rcd13ifvqbg0","pricing_plan_id":"free"},{"bike_id":"c1c77bc8-d481-4d2b-a56e-7eecc2e03677","system_id":"levelo_inurba_marseille","lat":43.311722,"lon":5.387247,"is_reserved":false,"is_disabled":false,"rental_uris":{"android":"levelo://app?vid=c1c77bc8-d481-4d2b-a56e-7eecc2e03677","ios":"levelo://app?vid=c1c77bc8-d481-4d2b-a56e-7eecc2e03677"},"vehicle_type_id":"4","last_reported":1702767982,"current_range_meters":4400,"station_id":"ce4bgv12rcd13ifvqcp0","pricing_plan_id":"free"},{"bike_id":"edc8767d-a247-4450-b7c9-97f5c7722ecc","system_id":"levelo_inurba_marseille","lat":43.311722,"lon":5.387247,"is_reserved":false,"is_disabled":false,"rental_uris":{"android":"levelo://app?vid=edc8767d-a247-4450-b7c9-97f5c7722ecc","ios":"levelo://app?vid=edc8767d-a247-4450-b7c9-97f5c7722ecc"},"vehicle_type_id":"4","last_reported":1702767982,"current_range_meters":8000,"station_id":"ce4bgv12rcd13ifvqcp0","pricing_plan_id":"free"},{"bike_id":"f1491da4-2f54-4445-8640-37b7b5e9b0bd","system_id":"levelo_inurba_marseille","lat":43.32831,"lon":5.36677,"is_reserved":false,"is_disabled":false,"rental_uris":{"android":"levelo://app?vid=f1491da4-2f54-4445-8640-37b7b5e9b0bd","ios":"levelo://app?vid=f1491da4-2f54-4445-8640-37b7b5e9b0bd"},"vehicle_type_id":"4","last_reported":1702767982,"current_range_meters":7200,"station_id":"ce4bhs92rcd13ifvqi0g","pricing_plan_id":"free"},{"bike_id":"257e2c60-5deb-4d9a-9e2e-c2fc09067537","system_id":"levelo_inurba_marseille","lat":43.328371,"lon":5.366909,"is_reserved":false,"is_disabled":false,"rental_uris":{"android":"levelo://app?vid=257e2c60-5deb-4d9a-9e2e-c2fc09067537","ios":"levelo://app?vid=257e2c60-5deb-4d9a-9e2e-c2fc09067537"},"vehicle_type_id":"4","last_reported":1702767982,"current_range_meters":17600,"station_id":"ce4bhs92rcd13ifvqi0g","pricing_plan_id":"free"},{"bike_id":"1ba15a3c-b1f9-41af-b19a-88fc8966196a","system_id":"levelo_inurba_marseille","lat":43.297163,"lon":5.365866,"is_reserved":false,"is_disabled":false,"rental_uris":{"android":"levelo://app?vid=1ba15a3c-b1f9-41af-b19a-88fc8966196a","ios":"levelo://app?vid=1ba15a3c-b1f9-41af-b19a-88fc8966196a"},"vehicle_type_id":"4","last_reported":1702767982,"current_range_meters":9200,"station_id":"ce4bgn12rcd13ifvqbt0","pricing_plan_id":"free"},{"bike_id":"88eaad2f-8682-4d26-90e1-01d424664f2c","system_id":"levelo_inurba_marseille","lat":43.29573,"lon":5.367355,"is_reserved":false,"is_disabled":false,"rental_uris":{"android":"levelo://app?vid=88eaad2f-8682-4d26-90e1-01d424664f2c","ios":"levelo://app?vid=88eaad2f-8682-4d26-90e1-01d424664f2c"},"vehicle_type_id":"4","last_reported":1702767982,"current_range_meters":0,"station_id":"ce4bgph2rcd13ifvqc2g","pricing_plan_id":"free"},{"bike_id":"aacff780-4369-48aa-89ca-7f2c6758b3bd","system_id":"levelo_inurba_marseille","lat":43.29584,"lon":5.36754,"is_reserved":false,"is_disabled":false,"rental_uris":{"android":"levelo://app?vid=aacff780-4369-48aa-89ca-7f2c6758b3bd","ios":"levelo://app?vid=aacff780-4369-48aa-89ca-7f2c6758b3bd"},"vehicle_type_id":"4","last_reported":1702767982,"current_range_meters":17200,"station_id":"ce4bgph2rcd13ifvqc2g","pricing_plan_id":"free"},{"bike_id":"2e4327a4-5c68-42c9-a75e-2a5f9b2ba77b","system_id":"levelo_inurba_marseille","lat":43.317557,"lon":5.390173,"is_reserved":false,"is_disabled":false,"rental_uris":{"android":"levelo://app?vid=2e4327a4-5c68-42c9-a75e-2a5f9b2ba77b","ios":"levelo://app?vid=2e4327a4-5c68-42c9-a75e-2a5f9b2ba77b"},"vehicle_type_id":"4","last_reported":1702767982,"current_range_meters":29600,"station_id":"ce4bhqp2rcd13ifvqhng","pricing_plan_id":"free"},{"bike_id":"d6044d44-46f6-46c2-bcb2-8e3a6e06c707","system_id":"levelo_inurba_marseille","lat":43.317557,"lon":5.390173,"is_reserved":false,"is_disabled":false,"rental_uris":{"android":"levelo://app?vid=d6044d44-46f6-46c2-bcb2-8e3a6e06c707","ios":"levelo://app?vid=d6044d44-46f6-46c2-bcb2-8e3a6e06c707"},"vehicle_type_id":"4","last_reported":1702767982,"current_range_meters":11200,"station_id":"ce4bhqp2rcd13ifvqhng","pricing_plan_id":"free"},{"bike_id":"4fe68cb0-ef05-4f1c-919b-7a2b0e3c1f89","system_id":"levelo_inurba_marseille","lat":43.317557,"lon":5.390173,"is_reserved":false,"is_disabled":false,"rental_uris":{"android":"levelo://app?vid=4fe68cb0-ef05-4f1c-919b-7a2b0e3c1f89","ios":"levelo://app?vid=4fe68cb0-ef05-4f1c-919b-7a2b0e3c1f89"},"vehicle_type_id":"4","last_reported":1702767982,"current_range_meters":31600,"station_id":"ce4bhqp2rcd13ifvqhng","pricing_plan_id":"free"},{"bike_id":"8b990761-3717-4b31-9e09-22c0e6f10fb8","system_id":"levelo_inurba_marseille","lat":43.317557,"lon":5.390173,"is_reserved":false,"is_disabled":false,"rental_uris":{"android":"levelo://app?vid=8b990761-3717-4b31-9e09-22c0e6f10fb8","ios":"levelo://app?vid=8b990761-3717-4b31-9e09-22c0e6f10fb8"},"vehicle_type_id":"4","last_reported":1702767982,"current_range_meters":10800,"station_id":"ce4bhqp2rcd13ifvqhng","pricing_plan_id":"free"},{"bike_id":"06fcb8ab-008e-43f5-ae5f-89824141ef4c","system_id":"levelo_inurba_marseille","lat":43.304274,"lon":5.388873,"is_reserved":false,"is_disabled":false,"rental_uris":{"android":"levelo://app?vid=06fcb8ab-008e-43f5-ae5f-89824141ef4c","ios":"levelo://app?vid=06fcb8ab-008e-43f5-ae5f-89824141ef4c"},"vehicle_type_id":"4","last_reported":1702767982,"current_range_meters":31200,"station_id":"ce4bgk12rcd13ifvqbi0","pricing_plan_id":"free"},{"bike_id":"1c2b33d2-3dc8-4b10-b013-fc90ff91b7d0","system_id":"levelo_inurba_marseille","lat":43.304278,"lon":5.388868,"is_reserved":false,"is_disabled":false,"rental_uris":{"android":"levelo://app?vid=1c2b33d2-3dc8-4b10-b013-fc90ff91b7d0","ios":"levelo://app?vid=1c2b33d2-3dc8-4b10-b013-fc90ff91b7d0"},"vehicle_type_id":"4","last_reported":1702767982,"current_range_meters":9200,"station_id":"ce4bgk12rcd13ifvqbi0","pricing_plan_id":"free"},{"bike_id":"2e0cfa8c-8848-45f7-8d9c-d56f71d32e4c","system_id":"levelo_inurba_marseille","lat":43.304274,"lon":5.388873,"is_reserved":false,"is_disabled":false,"rental_uris":{"android":"levelo://app?vid=2e0cfa8c-8848-45f7-8d9c-d56f71d32e4c","ios":"levelo://app?vid=2e0cfa8c-8848-45f7-8d9c-d56f71d32e4c"},"vehicle_type_id":"4","last_reported":1702767982,"current_range_meters":24800,"station_id":"ce4bgk12rcd13ifvqbi0","pricing_plan_id":"free"},{"bike_id":"3ca94b6b-f2ba-479c-bd34-79c461550038","system_id":"levelo_inurba_marseille","lat":43.29611,"lon":5.37726,"is_reserved":false,"is_disabled":false,"rental_uris":{"android":"levelo://app?vid=3ca94b6b-f2ba-479c-bd34-79c461550038","ios":"levelo://app?vid=3ca94b6b-f2ba-479c-bd34-79c461550038"},"vehicle_type_id":"4","last_reported":1702767982,"current_range_meters":0,"station_id":"ce4bgi92rcd13ifvqb90","pricing_plan_id":"free"},{"bike_id":"2c2d2390-596a-48b3-b209-35a5f9b841b2","system_id":"levelo_inurba_marseille","lat":43.29978,"lon":5.38492,"is_reserved":false,"is_disabled":false,"rental_uris":{"android":"levelo://app?vid=2c2d2390-596a-48b3-b209-35a5f9b841b2","ios":"levelo://app?vid=2c2d2390-596a-48b3-b209-35a5f9b841b2"},"vehicle_type_id":"4","last_reported":1702767982,"current_range_meters":0,"station_id":"ce4bgj92rcd13ifvqbd0","pricing_plan_id":"free"},{"bike_id":"2d339ccb-9fe7-4132-b39e-b9bd4a932749","system_id":"levelo_inurba_marseille","lat":43.32367,"lon":5.388836,"is_reserved":false,"is_disabled":false,"rental_uris":{"android":"levelo://app?vid=2d339ccb-9fe7-4132-b39e-b9bd4a932749","ios":"levelo://app?vid=2d339ccb-9fe7-4132-b39e-b9bd4a932749"},"vehicle_type_id":"4","last_reported":1702767982,"current_range_meters":14400,"station_id":"ce4bhqp2rcd13ifvqhog","pricing_plan_id":"free"},{"bike_id":"31954c81-37ea-46a3-a087-7d824ac76191","system_id":"levelo_inurba_marseille","lat":43.32362,"lon":5.38882,"is_reserved":false,"is_disabled":false,"rental_uris":{"android":"levelo://app?vid=31954c81-37ea-46a3-a087-7d824ac76191","ios":"levelo://app?vid=31954c81-37ea-46a3-a087-7d824ac76191"},"vehicle_type_id":"4","last_reported":1702767982,"current_range_meters":5200,"station_id":"ce4bhqp2rcd13ifvqhog","pricing_plan_id":"free"},{"bike_id":"040108c5-4b65-44ce-ab3a-a9497d1aeb4a","system_id":"levelo_inurba_marseille","lat":43.2936,"lon":5.37835,"is_reserved":false,"is_disabled":false,"rental_uris":{"android":"levelo://app?vid=040108c5-4b65-44ce-ab3a-a9497d1aeb4a","ios":"levelo://app?vid=040108c5-4b65-44ce-ab3a-a9497d1aeb4a"},"vehicle_type_id":"4","last_reported":1702767982,"current_range_meters":2400,"station_id":"ce4bgjh2rcd13ifvqbf0","pricing_plan_id":"free"},{"bike_id":"67235d5f-370a-4697-a875-976fa8c52331","system_id":"levelo_inurba_marseille","lat":43.300852,"lon":5.390859,"is_reserved":false,"is_disabled":false,"rental_uris":{"android":"levelo://app?vid=67235d5f-370a-4697-a875-976fa8c52331","ios":"levelo://app?vid=67235d5f-370a-4697-a875-976fa8c52331"},"vehicle_type_id":"4","last_reported":1702767982,"current_range_meters":13200,"station_id":"ce4bh192rcd13ifvqdb0","pricing_plan_id":"free"},{"bike_id":"736f0ef0-28ab-4783-9633-bc66424511f8","system_id":"levelo_inurba_marseille","lat":43.291671,"lon":5.371575,"is_reserved":false,"is_disabled":false,"rental_uris":{"android":"levelo://app?vid=736f0ef0-28ab-4783-9633-bc66424511f8","ios":"levelo://app?vid=736f0ef0-28ab-4783-9633-bc66424511f8"},"vehicle_type_id":"4","last_reported":1702767982,"current_range_meters":2400,"station_id":"ce4bha92rcd13ifvqeh0","pricing_plan_id":"free"},{"bike_id":"2c8577dc-b077-4a50-8590-65504abf4fe9","system_id":"levelo_inurba_marseille","lat":43.29529,"lon":5.385581,"is_reserved":false,"is_disabled":false,"rental_uris":{"android":"levelo://app?vid=2c8577dc-b077-4a50-8590-65504abf4fe9","ios":"levelo://app?vid=2c8577dc-b077-4a50-8590-65504abf4fe9"},"vehicle_type_id":"4","last_reported":1702767982,"current_range_meters":19200,"station_id":"ce4bgih2rcd13ifvqba0","pricing_plan_id":"free"},{"bike_id":"593389a6-ba6e-40c9-8078-1c8035fc2635","system_id":"levelo_inurba_marseille","lat":43.290779,"lon":5.371482,"is_reserved":false,"is_disabled":false,"rental_uris":{"android":"levelo://app?vid=593389a6-ba6e-40c9-8078-1c8035fc2635","ios":"levelo://app?vid=593389a6-ba6e-40c9-8078-1c8035fc2635"},"vehicle_type_id":"4","last_reported":1702767982,"current_range_meters":21600,"station_id":"ce4bh5p2rcd13ifvqe4g","pricing_plan_id":"free"},{"bike_id":"5233d0b5-52a2-446e-bacb-8c1d5ce7f0cb","system_id":"levelo_inurba_marseille","lat":43.290631,"lon":5.359244,"is_reserved":false,"is_disabled":false,"rental_uris":{"android":"levelo://app?vid=5233d0b5-52a2-446e-bacb-8c1d5ce7f0cb","ios":"levelo://app?vid=5233d0b5-52a2-446e-bacb-8c1d5ce7f0cb"},"vehicle_type_id":"4","last_reported":1702767982,"current_range_meters":14400,"station_id":"ce4bha92rcd13ifvqeg0","pricing_plan_id":"free"},{"bike_id":"aec76424-b3d2-415c-83d9-bcf2ed7745d5","system_id":"levelo_inurba_marseille","lat":43.3043,"lon":5.3975,"is_reserved":false,"is_disabled":false,"rental_uris":{"android":"levelo://app?vid=aec76424-b3d2-415c-83d9-bcf2ed7745d5","ios":"levelo://app?vid=aec76424-b3d2-415c-83d9-bcf2ed7745d5"},"vehicle_type_id":"4","last_reported":1702767982,"current_range_meters":20000,"station_id":"ce4bh092rcd13ifvqd20","pricing_plan_id":"free"},{"bike_id":"7869065b-ba9c-4e14-a6e0-075a72b86610","system_id":"levelo_inurba_marseille","lat":43.33043,"lon":5.38919,"is_reserved":false,"is_disabled":false,"rental_uris":{"android":"levelo://app?vid=7869065b-ba9c-4e14-a6e0-075a72b86610","ios":"levelo://app?vid=7869065b-ba9c-4e14-a6e0-075a72b86610"},"vehicle_type_id":"4","last_reported":1702767982,"current_range_meters":6400,"station_id":"ce4bhr92rcd13ifvqhrg","pricing_plan_id":"free"},{"bike_id":"0019cc72-50a3-4298-937a-c3025a814462","system_id":"levelo_inurba_marseille","lat":43.330419,"lon":5.38922,"is_reserved":false,"is_disabled":false,"rental_uris":{"android":"levelo://app?vid=0019cc72-50a3-4298-937a-c3025a814462","ios":"levelo://app?vid=0019cc72-50a3-4298-937a-c3025a814462"},"vehicle_type_id":"4","last_reported":1702767982,"current_range_meters":6000,"station_id":"ce4bhr92rcd13ifvqhrg","pricing_plan_id":"free"},{"bike_id":"69f6bab3-5663-47c8-bba5-e69c9278632d","system_id":"levelo_inurba_marseille","lat":43.290104,"lon":5.356111,"is_reserved":false,"is_disabled":false,"rental_uris":{"android":"levelo://app?vid=69f6bab3-5663-47c8-bba5-e69c9278632d","ios":"levelo://app?vid=69f6bab3-5663-47c8-bba5-e69c9278632d"},"vehicle_type_id":"4","last_reported":1702767982,"current_range_meters":14800,"station_id":"ce4bhb92rcd13ifvqen0","pricing_plan_id":"free"},{"bike_id":"ad0f6538-ba65-40b7-bd35-329a98101cc1","system_id":"levelo_inurba_marseille","lat":43.28975,"lon":5.35489,"is_reserved":false,"is_disabled":false,"rental_uris":{"android":"levelo://app?vid=ad0f6538-ba65-40b7-bd35-329a98101cc1","ios":"levelo://app?vid=ad0f6538-ba65-40b7-bd35-329a98101cc1"},"vehicle_type_id":"4","last_reported":1702767982,"current_range_meters":10000,"station_id":"","pricing_plan_id":"free"},{"bike_id":"48dae4a6-b13c-4760-bdb5-25c331636dfa","system_id":"levelo_inurba_marseille","lat":43.28856,"lon":5.358371,"is_reserved":false,"is_disabled":false,"rental_uris":{"android":"levelo://app?vid=48dae4a6-b13c-4760-bdb5-25c331636dfa","ios":"levelo://app?vid=48dae4a6-b13c-4760-bdb5-25c331636dfa"},"vehicle_type_id":"4","last_reported":1702767982,"current_range_meters":18000,"station_id":"ce4bhb12rcd13ifvqem0","pricing_plan_id":"free"},{"bike_id":"f0cd831c-cfb9-44c7-9487-103b6df223ca","system_id":"levelo_inurba_marseille","lat":43.337445,"lon":5.374592,"is_reserved":false,"is_disabled":false,"rental_uris":{"android":"levelo://app?vid=f0cd831c-cfb9-44c7-9487-103b6df223ca","ios":"levelo://app?vid=f0cd831c-cfb9-44c7-9487-103b6df223ca"},"vehicle_type_id":"4","last_reported":1702767982,"current_range_meters":27600,"station_id":"","pricing_plan_id":"free"},{"bike_id":"51f5f937-910a-41fb-98bd-575f9357ad31","system_id":"levelo_inurba_marseille","lat":43.31277,"lon":5.40174,"is_reserved":false,"is_disabled":false,"rental_uris":{"android":"levelo://app?vid=51f5f937-910a-41fb-98bd-575f9357ad31","ios":"levelo://app?vid=51f5f937-910a-41fb-98bd-575f9357ad31"},"vehicle_type_id":"4","last_reported":1702767982,"current_range_meters":16400,"station_id":"ce4bh092rcd13ifvqd30","pricing_plan_id":"free"},{"bike_id":"c00f20a1-7bfe-4a23-bc51-ec3e2d306013","system_id":"levelo_inurba_marseille","lat":43.30933,"lon":5.40143,"is_reserved":false,"is_disabled":false,"rental_uris":{"android":"levelo://app?vid=c00f20a1-7bfe-4a23-bc51-ec3e2d306013","ios":"levelo://app?vid=c00f20a1-7bfe-4a23-bc51-ec3e2d306013"},"vehicle_type_id":"4","last_reported":1702767982,"current_range_meters":8400,"station_id":"ce4bgvp2rcd13ifvqct0","pricing_plan_id":"free"},{"bike_id":"2c0affd7-831a-464c-b05c-095e043e7db8","system_id":"levelo_inurba_marseille","lat":43.30927,"lon":5.40142,"is_reserved":false,"is_disabled":false,"rental_uris":{"android":"levelo://app?vid=2c0affd7-831a-464c-b05c-095e043e7db8","ios":"levelo://app?vid=2c0affd7-831a-464c-b05c-095e043e7db8"},"vehicle_type_id":"4","last_reported":1702767982,"current_range_meters":12000,"station_id":"ce4bgvp2rcd13ifvqct0","pricing_plan_id":"free"},{"bike_id":"d961fdfb-0c8d-4ced-a6a7-dc7159120bab","system_id":"levelo_inurba_marseille","lat":43.30923,"lon":5.401449,"is_reserved":false,"is_disabled":false,"rental_uris":{"android":"levelo://app?vid=d961fdfb-0c8d-4ced-a6a7-dc7159120bab","ios":"levelo://app?vid=d961fdfb-0c8d-4ced-a6a7-dc7159120bab"},"vehicle_type_id":"4","last_reported":1702767982,"current_range_meters":0,"station_id":"ce4bgvp2rcd13ifvqct0","pricing_plan_id":"free"},{"bike_id":"ef80ceab-dc9f-4b6c-8f52-707d5177f481","system_id":"levelo_inurba_marseille","lat":43.33752,"lon":5.37466,"is_reserved":false,"is_disabled":false,"rental_uris":{"android":"levelo://app?vid=ef80ceab-dc9f-4b6c-8f52-707d5177f481","ios":"levelo://app?vid=ef80ceab-dc9f-4b6c-8f52-707d5177f481"},"vehicle_type_id":"4","last_reported":1702767982,"current_range_meters":27200,"station_id":"","pricing_plan_id":"free"},{"bike_id":"0c3c306c-182a-4a01-90f3-f1b8a7b122a7","system_id":"levelo_inurba_marseille","lat":43.30642,"lon":5.401031,"is_reserved":false,"is_disabled":false,"rental_uris":{"android":"levelo://app?vid=0c3c306c-182a-4a01-90f3-f1b8a7b122a7","ios":"levelo://app?vid=0c3c306c-182a-4a01-90f3-f1b8a7b122a7"},"vehicle_type_id":"4","last_reported":1702767982,"current_range_meters":5600,"station_id":"ce4bh112rcd13ifvqda0","pricing_plan_id":"free"},{"bike_id":"cedf0dc1-b01a-441e-bbc3-97d3fa095932","system_id":"levelo_inurba_marseille","lat":43.287253,"lon":5.3609,"is_reserved":false,"is_disabled":false,"rental_uris":{"android":"levelo://app?vid=cedf0dc1-b01a-441e-bbc3-97d3fa095932","ios":"levelo://app?vid=cedf0dc1-b01a-441e-bbc3-97d3fa095932"},"vehicle_type_id":"4","last_reported":1702767982,"current_range_meters":4400,"station_id":"cki0cbj6b192h4jlfktg","pricing_plan_id":"free"},{"bike_id":"9f75bff4-e1c1-4b45-be16-ad78a0d93136","system_id":"levelo_inurba_marseille","lat":43.28727,"lon":5.36078,"is_reserved":false,"is_disabled":false,"rental_uris":{"android":"levelo://app?vid=9f75bff4-e1c1-4b45-be16-ad78a0d93136","ios":"levelo://app?vid=9f75bff4-e1c1-4b45-be16-ad78a0d93136"},"vehicle_type_id":"4","last_reported":1702767982,"current_range_meters":0,"station_id":"cki0cbj6b192h4jlfktg","pricing_plan_id":"free"},{"bike_id":"f7c3fe26-852d-4b29-bce6-f7a7b3ed8e64","system_id":"levelo_inurba_marseille","lat":43.286591,"lon":5.363346,"is_reserved":false,"is_disabled":false,"rental_uris":{"android":"levelo://app?vid=f7c3fe26-852d-4b29-bce6-f7a7b3ed8e64","ios":"levelo://app?vid=f7c3fe26-852d-4b29-bce6-f7a7b3ed8e64"},"vehicle_type_id":"4","last_reported":1702767982,"current_range_meters":6000,"station_id":"ce4bhah2rcd13ifvqej0","pricing_plan_id":"free"},{"bike_id":"811ca201-f116-4503-863d-4ebde3239757","system_id":"levelo_inurba_marseille","lat":43.286961,"lon":5.373785,"is_reserved":false,"is_disabled":false,"rental_uris":{"android":"levelo://app?vid=811ca201-f116-4503-863d-4ebde3239757","ios":"levelo://app?vid=811ca201-f116-4503-863d-4ebde3239757"},"vehicle_type_id":"4","last_reported":1702767982,"current_range_meters":12000,"station_id":"ce4bh3p2rcd13ifvqdq0","pricing_plan_id":"free"},{"bike_id":"5295155e-f66f-4d85-abb5-7e1facc4ebfd","system_id":"levelo_inurba_marseille","lat":43.295196,"lon":5.39397,"is_reserved":false,"is_disabled":false,"rental_uris":{"android":"levelo://app?vid=5295155e-f66f-4d85-abb5-7e1facc4ebfd","ios":"levelo://app?vid=5295155e-f66f-4d85-abb5-7e1facc4ebfd"},"vehicle_type_id":"4","last_reported":1702767982,"current_range_meters":12800,"station_id":"ce4bh292rcd13ifvqdf0","pricing_plan_id":"free"},{"bike_id":"503bc2bf-4c0b-4465-a0c4-5ec7ccb724aa","system_id":"levelo_inurba_marseille","lat":43.287184,"lon":5.37937,"is_reserved":false,"is_disabled":false,"rental_uris":{"android":"levelo://app?vid=503bc2bf-4c0b-4465-a0c4-5ec7ccb724aa","ios":"levelo://app?vid=503bc2bf-4c0b-4465-a0c4-5ec7ccb724aa"},"vehicle_type_id":"4","last_reported":1702767982,"current_range_meters":8400,"station_id":"ce4bh9p2rcd13ifvqec0","pricing_plan_id":"free"},{"bike_id":"1da7323a-0293-4cbd-abfe-90e38605b3a3","system_id":"levelo_inurba_marseille","lat":43.287184,"lon":5.37937,"is_reserved":false,"is_disabled":false,"rental_uris":{"android":"levelo://app?vid=1da7323a-0293-4cbd-abfe-90e38605b3a3","ios":"levelo://app?vid=1da7323a-0293-4cbd-abfe-90e38605b3a3"},"vehicle_type_id":"4","last_reported":1702767982,"current_range_meters":30400,"station_id":"ce4bh9p2rcd13ifvqec0","pricing_plan_id":"free"},{"bike_id":"64e336a7-3c39-4cd4-89d3-25eee2d38f89","system_id":"levelo_inurba_marseille","lat":43.284538,"lon":5.358657,"is_reserved":false,"is_disabled":false,"rental_uris":{"android":"levelo://app?vid=64e336a7-3c39-4cd4-89d3-25eee2d38f89","ios":"levelo://app?vid=64e336a7-3c39-4cd4-89d3-25eee2d38f89"},"vehicle_type_id":"4","last_reported":1702767982,"current_range_meters":31600,"station_id":"ce4bhah2rcd13ifvqei0","pricing_plan_id":"free"},{"bike_id":"0e6ff1f7-6252-4036-925f-cc0faaeb505f","system_id":"levelo_inurba_marseille","lat":43.284538,"lon":5.358657,"is_reserved":false,"is_disabled":false,"rental_uris":{"android":"levelo://app?vid=0e6ff1f7-6252-4036-925f-cc0faaeb505f","ios":"levelo://app?vid=0e6ff1f7-6252-4036-925f-cc0faaeb505f"},"vehicle_type_id":"4","last_reported":1702767982,"current_range_meters":12800,"station_id":"ce4bhah2rcd13ifvqei0","pricing_plan_id":"free"},{"bike_id":"2a3286fd-e53c-4a3b-8304-b78a7e604c81","system_id":"levelo_inurba_marseille","lat":43.284534,"lon":5.358662,"is_reserved":false,"is_disabled":false,"rental_uris":{"android":"levelo://app?vid=2a3286fd-e53c-4a3b-8304-b78a7e604c81","ios":"levelo://app?vid=2a3286fd-e53c-4a3b-8304-b78a7e604c81"},"vehicle_type_id":"4","last_reported":1702767982,"current_range_meters":18400,"station_id":"ce4bhah2rcd13ifvqei0","pricing_plan_id":"free"},{"bike_id":"cc48a435-e5b5-4eb0-9606-36bfc3a0bb7b","system_id":"levelo_inurba_marseille","lat":43.284538,"lon":5.358657,"is_reserved":false,"is_disabled":false,"rental_uris":{"android":"levelo://app?vid=cc48a435-e5b5-4eb0-9606-36bfc3a0bb7b","ios":"levelo://app?vid=cc48a435-e5b5-4eb0-9606-36bfc3a0bb7b"},"vehicle_type_id":"4","last_reported":1702767982,"current_range_meters":15200,"station_id":"ce4bhah2rcd13ifvqei0","pricing_plan_id":"free"},{"bike_id":"3d5a9953-62a8-4497-b1f8-e7f58b591661","system_id":"levelo_inurba_marseille","lat":43.284134,"lon":5.375206,"is_reserved":false,"is_disabled":false,"rental_uris":{"android":"levelo://app?vid=3d5a9953-62a8-4497-b1f8-e7f58b591661","ios":"levelo://app?vid=3d5a9953-62a8-4497-b1f8-e7f58b591661"},"vehicle_type_id":"4","last_reported":1702767982,"current_range_meters":13600,"station_id":"ce4bh412rcd13ifvqds0","pricing_plan_id":"free"},{"bike_id":"f242a942-61a1-4b14-92e0-1cf7b79fab3f","system_id":"levelo_inurba_marseille","lat":43.283998,"lon":5.375062,"is_reserved":false,"is_disabled":false,"rental_uris":{"android":"levelo://app?vid=f242a942-61a1-4b14-92e0-1cf7b79fab3f","ios":"levelo://app?vid=f242a942-61a1-4b14-92e0-1cf7b79fab3f"},"vehicle_type_id":"4","last_reported":1702767982,"current_range_meters":0,"station_id":"ce4bh412rcd13ifvqds0","pricing_plan_id":"free"},{"bike_id":"7980b514-7b81-49da-955f-d3cee0578dd7","system_id":"levelo_inurba_marseille","lat":43.283998,"lon":5.375062,"is_reserved":false,"is_disabled":false,"rental_uris":{"android":"levelo://app?vid=7980b514-7b81-49da-955f-d3cee0578dd7","ios":"levelo://app?vid=7980b514-7b81-49da-955f-d3cee0578dd7"},"vehicle_type_id":"4","last_reported":1702767982,"current_range_meters":10000,"station_id":"ce4bh412rcd13ifvqds0","pricing_plan_id":"free"},{"bike_id":"2dfa5049-0e1b-4839-b5c3-156910a65dbd","system_id":"levelo_inurba_marseille","lat":43.33177,"lon":5.39828,"is_reserved":false,"is_disabled":false,"rental_uris":{"android":"levelo://app?vid=2dfa5049-0e1b-4839-b5c3-156910a65dbd","ios":"levelo://app?vid=2dfa5049-0e1b-4839-b5c3-156910a65dbd"},"vehicle_type_id":"4","last_reported":1702767982,"current_range_meters":8000,"station_id":"","pricing_plan_id":"free"},{"bike_id":"b1bba2b6-372d-49dd-b13b-1b4d710db23d","system_id":"levelo_inurba_marseille","lat":43.323464,"lon":5.406297,"is_reserved":false,"is_disabled":false,"rental_uris":{"android":"levelo://app?vid=b1bba2b6-372d-49dd-b13b-1b4d710db23d","ios":"levelo://app?vid=b1bba2b6-372d-49dd-b13b-1b4d710db23d"},"vehicle_type_id":"4","last_reported":1702767982,"current_range_meters":400,"station_id":"ce4bhq92rcd13ifvqhjg","pricing_plan_id":"free"},{"bike_id":"a8c4246c-8b22-44a6-af13-0443491dc2b7","system_id":"levelo_inurba_marseille","lat":43.32345,"lon":5.40618,"is_reserved":false,"is_disabled":false,"rental_uris":{"android":"levelo://app?vid=a8c4246c-8b22-44a6-af13-0443491dc2b7","ios":"levelo://app?vid=a8c4246c-8b22-44a6-af13-0443491dc2b7"},"vehicle_type_id":"4","last_reported":1702767982,"current_range_meters":24800,"station_id":"ce4bhq92rcd13ifvqhjg","pricing_plan_id":"free"},{"bike_id":"e24feb9b-357c-45fc-bfad-b97d1916c4a1","system_id":"levelo_inurba_marseille","lat":43.288516,"lon":5.393227,"is_reserved":false,"is_disabled":false,"rental_uris":{"android":"levelo://app?vid=e24feb9b-357c-45fc-bfad-b97d1916c4a1","ios":"levelo://app?vid=e24feb9b-357c-45fc-bfad-b97d1916c4a1"},"vehicle_type_id":"4","last_reported":1702767982,"current_range_meters":0,"station_id":"ce4bh2p2rcd13ifvqdi0","pricing_plan_id":"free"},{"bike_id":"329cf0b2-6d39-4304-804b-05d8a1630787","system_id":"levelo_inurba_marseille","lat":43.283498,"lon":5.380948,"is_reserved":false,"is_disabled":false,"rental_uris":{"android":"levelo://app?vid=329cf0b2-6d39-4304-804b-05d8a1630787","ios":"levelo://app?vid=329cf0b2-6d39-4304-804b-05d8a1630787"},"vehicle_type_id":"4","last_reported":1702767982,"current_range_meters":19600,"station_id":"ce4bh412rcd13ifvqdr0","pricing_plan_id":"free"},{"bike_id":"7d873e33-5ba4-4582-8f44-6e46fbf3d3b9","system_id":"levelo_inurba_marseille","lat":43.2812,"lon":5.36008,"is_reserved":false,"is_disabled":false,"rental_uris":{"android":"levelo://app?vid=7d873e33-5ba4-4582-8f44-6e46fbf3d3b9","ios":"levelo://app?vid=7d873e33-5ba4-4582-8f44-6e46fbf3d3b9"},"vehicle_type_id":"4","last_reported":1702767982,"current_range_meters":17200,"station_id":"","pricing_plan_id":"free"},{"bike_id":"39153f9c-bbc6-4931-b7a0-8cf29544edc0","system_id":"levelo_inurba_marseille","lat":43.282744,"lon":5.350533,"is_reserved":false,"is_disabled":false,"rental_uris":{"android":"levelo://app?vid=39153f9c-bbc6-4931-b7a0-8cf29544edc0","ios":"levelo://app?vid=39153f9c-bbc6-4931-b7a0-8cf29544edc0"},"vehicle_type_id":"4","last_reported":1702767982,"current_range_meters":27200,"station_id":"ce4bhbp2rcd13ifvqerg","pricing_plan_id":"free"},{"bike_id":"70fe19e1-025b-44c9-8984-970ba4370781","system_id":"levelo_inurba_marseille","lat":43.283502,"lon":5.386471,"is_reserved":false,"is_disabled":false,"rental_uris":{"android":"levelo://app?vid=70fe19e1-025b-44c9-8984-970ba4370781","ios":"levelo://app?vid=70fe19e1-025b-44c9-8984-970ba4370781"},"vehicle_type_id":"4","last_reported":1702767982,"current_range_meters":20000,"station_id":"ce4bh492rcd13ifvqdvg","pricing_plan_id":"free"},{"bike_id":"9d2389f0-1f4e-4d61-afc0-c373a6bcf102","system_id":"levelo_inurba_marseille","lat":43.280382,"lon":5.369291,"is_reserved":false,"is_disabled":false,"rental_uris":{"android":"levelo://app?vid=9d2389f0-1f4e-4d61-afc0-c373a6bcf102","ios":"levelo://app?vid=9d2389f0-1f4e-4d61-afc0-c373a6bcf102"},"vehicle_type_id":"4","last_reported":1702767982,"current_range_meters":16800,"station_id":"ce4bha12rcd13ifvqef0","pricing_plan_id":"free"},{"bike_id":"e063aa6d-ecfb-43c0-963f-c3e8c8b6d808","system_id":"levelo_inurba_marseille","lat":43.280382,"lon":5.369291,"is_reserved":false,"is_disabled":false,"rental_uris":{"android":"levelo://app?vid=e063aa6d-ecfb-43c0-963f-c3e8c8b6d808","ios":"levelo://app?vid=e063aa6d-ecfb-43c0-963f-c3e8c8b6d808"},"vehicle_type_id":"4","last_reported":1702767982,"current_range_meters":0,"station_id":"ce4bha12rcd13ifvqef0","pricing_plan_id":"free"},{"bike_id":"db1ed468-f3a1-4f7e-9011-5d9da43edf21","system_id":"levelo_inurba_marseille","lat":43.281044,"lon":5.378308,"is_reserved":false,"is_disabled":false,"rental_uris":{"android":"levelo://app?vid=db1ed468-f3a1-4f7e-9011-5d9da43edf21","ios":"levelo://app?vid=db1ed468-f3a1-4f7e-9011-5d9da43edf21"},"vehicle_type_id":"4","last_reported":1702767982,"current_range_meters":20000,"station_id":"ce4bha12rcd13ifvqee0","pricing_plan_id":"free"},{"bike_id":"403c8873-c47b-41de-9c4b-4f4f72233adf","system_id":"levelo_inurba_marseille","lat":43.281044,"lon":5.378308,"is_reserved":false,"is_disabled":false,"rental_uris":{"android":"levelo://app?vid=403c8873-c47b-41de-9c4b-4f4f72233adf","ios":"levelo://app?vid=403c8873-c47b-41de-9c4b-4f4f72233adf"},"vehicle_type_id":"4","last_reported":1702767982,"current_range_meters":4800,"station_id":"ce4bha12rcd13ifvqee0","pricing_plan_id":"free"},{"bike_id":"cc41ff2b-f5f0-4406-9181-4ed8087eaf55","system_id":"levelo_inurba_marseille","lat":43.284415,"lon":5.391844,"is_reserved":false,"is_disabled":false,"rental_uris":{"android":"levelo://app?vid=cc41ff2b-f5f0-4406-9181-4ed8087eaf55","ios":"levelo://app?vid=cc41ff2b-f5f0-4406-9181-4ed8087eaf55"},"vehicle_type_id":"4","last_reported":1702767982,"current_range_meters":0,"station_id":"ce4bhoh2rcd13ifvqh5g","pricing_plan_id":"free"},{"bike_id":"b40e8c4a-cd4a-4adf-8b01-34e6750dccb2","system_id":"levelo_inurba_marseille","lat":43.28573,"lon":5.394992,"is_reserved":false,"is_disabled":false,"rental_uris":{"android":"levelo://app?vid=b40e8c4a-cd4a-4adf-8b01-34e6750dccb2","ios":"levelo://app?vid=b40e8c4a-cd4a-4adf-8b01-34e6750dccb2"},"vehicle_type_id":"4","last_reported":1702767982,"current_range_meters":12000,"station_id":"ce4bh292rcd13ifvqdg0","pricing_plan_id":"free"},{"bike_id":"3ccd2562-cd5a-409e-a31a-e1ab1354cc65","system_id":"levelo_inurba_marseille","lat":43.28573,"lon":5.394992,"is_reserved":false,"is_disabled":false,"rental_uris":{"android":"levelo://app?vid=3ccd2562-cd5a-409e-a31a-e1ab1354cc65","ios":"levelo://app?vid=3ccd2562-cd5a-409e-a31a-e1ab1354cc65"},"vehicle_type_id":"4","last_reported":1702767982,"current_range_meters":18000,"station_id":"ce4bh292rcd13ifvqdg0","pricing_plan_id":"free"},{"bike_id":"ac05eec3-6dd4-4e50-ab24-45f354a74562","system_id":"levelo_inurba_marseille","lat":43.326605,"lon":5.409903,"is_reserved":false,"is_disabled":false,"rental_uris":{"android":"levelo://app?vid=ac05eec3-6dd4-4e50-ab24-45f354a74562","ios":"levelo://app?vid=ac05eec3-6dd4-4e50-ab24-45f354a74562"},"vehicle_type_id":"4","last_reported":1702767982,"current_range_meters":30400,"station_id":"ce4bhpp2rcd13ifvqhgg","pricing_plan_id":"free"},{"bike_id":"1cf5711c-d1c6-4323-bcfb-d76f78e3080d","system_id":"levelo_inurba_marseille","lat":43.30415,"lon":5.41287,"is_reserved":false,"is_disabled":false,"rental_uris":{"android":"levelo://app?vid=1cf5711c-d1c6-4323-bcfb-d76f78e3080d","ios":"levelo://app?vid=1cf5711c-d1c6-4323-bcfb-d76f78e3080d"},"vehicle_type_id":"4","last_reported":1702767982,"current_range_meters":0,"station_id":"ce4bhop2rcd13ifvqh8g","pricing_plan_id":"free"},{"bike_id":"d6aa6c92-b226-46fc-a303-229c6b00dd52","system_id":"levelo_inurba_marseille","lat":43.287154,"lon":5.399979,"is_reserved":false,"is_disabled":false,"rental_uris":{"android":"levelo://app?vid=d6aa6c92-b226-46fc-a303-229c6b00dd52","ios":"levelo://app?vid=d6aa6c92-b226-46fc-a303-229c6b00dd52"},"vehicle_type_id":"4","last_reported":1702767982,"current_range_meters":9200,"station_id":"ce4bho92rcd13ifvqh3g","pricing_plan_id":"free"},{"bike_id":"8321f12d-dd49-4f64-b2ee-a285a28f9eb7","system_id":"levelo_inurba_marseille","lat":43.287154,"lon":5.399979,"is_reserved":false,"is_disabled":false,"rental_uris":{"android":"levelo://app?vid=8321f12d-dd49-4f64-b2ee-a285a28f9eb7","ios":"levelo://app?vid=8321f12d-dd49-4f64-b2ee-a285a28f9eb7"},"vehicle_type_id":"4","last_reported":1702767982,"current_range_meters":18000,"station_id":"ce4bho92rcd13ifvqh3g","pricing_plan_id":"free"},{"bike_id":"b20b997c-e71c-4908-ab85-2e82e1ac7d9c","system_id":"levelo_inurba_marseille","lat":43.299579,"lon":5.413255,"is_reserved":false,"is_disabled":false,"rental_uris":{"android":"levelo://app?vid=b20b997c-e71c-4908-ab85-2e82e1ac7d9c","ios":"levelo://app?vid=b20b997c-e71c-4908-ab85-2e82e1ac7d9c"},"vehicle_type_id":"4","last_reported":1702767982,"current_range_meters":25200,"station_id":"ce4bhp12rcd13ifvqh9g","pricing_plan_id":"free"},{"bike_id":"b51f5561-de83-4631-8eea-788cb3a4312c","system_id":"levelo_inurba_marseille","lat":43.292571,"lon":5.409107,"is_reserved":false,"is_disabled":false,"rental_uris":{"android":"levelo://app?vid=b51f5561-de83-4631-8eea-788cb3a4312c","ios":"levelo://app?vid=b51f5561-de83-4631-8eea-788cb3a4312c"},"vehicle_type_id":"4","last_reported":1702767982,"current_range_meters":22800,"station_id":"ce4bh192rcd13ifvqdc0","pricing_plan_id":"free"},{"bike_id":"a9761bfc-9cc9-46d3-90ba-cb98557039b8","system_id":"levelo_inurba_marseille","lat":43.292571,"lon":5.409107,"is_reserved":false,"is_disabled":false,"rental_uris":{"android":"levelo://app?vid=a9761bfc-9cc9-46d3-90ba-cb98557039b8","ios":"levelo://app?vid=a9761bfc-9cc9-46d3-90ba-cb98557039b8"},"vehicle_type_id":"4","last_reported":1702767982,"current_range_meters":12400,"station_id":"ce4bh192rcd13ifvqdc0","pricing_plan_id":"free"},{"bike_id":"3ab9a3ea-0856-4851-8dc5-251cdc548ff2","system_id":"levelo_inurba_marseille","lat":43.27618,"lon":5.36107,"is_reserved":false,"is_disabled":false,"rental_uris":{"android":"levelo://app?vid=3ab9a3ea-0856-4851-8dc5-251cdc548ff2","ios":"levelo://app?vid=3ab9a3ea-0856-4851-8dc5-251cdc548ff2"},"vehicle_type_id":"4","last_reported":1702767982,"current_range_meters":0,"station_id":"ce4bgj92rcd13ifvqbe0","pricing_plan_id":"free"},{"bike_id":"bb88f287-0e0d-4d1f-aa50-a899706e4ac8","system_id":"levelo_inurba_marseille","lat":43.280784,"lon":5.396622,"is_reserved":false,"is_disabled":false,"rental_uris":{"android":"levelo://app?vid=bb88f287-0e0d-4d1f-aa50-a899706e4ac8","ios":"levelo://app?vid=bb88f287-0e0d-4d1f-aa50-a899706e4ac8"},"vehicle_type_id":"4","last_reported":1702767982,"current_range_meters":16000,"station_id":"ce4bho12rcd13ifvqh2g","pricing_plan_id":"free"},{"bike_id":"e7fcdeca-090d-491e-a8ea-4f6571be908d","system_id":"levelo_inurba_marseille","lat":43.280784,"lon":5.396622,"is_reserved":false,"is_disabled":false,"rental_uris":{"android":"levelo://app?vid=e7fcdeca-090d-491e-a8ea-4f6571be908d","ios":"levelo://app?vid=e7fcdeca-090d-491e-a8ea-4f6571be908d"},"vehicle_type_id":"4","last_reported":1702767982,"current_range_meters":27200,"station_id":"ce4bho12rcd13ifvqh2g","pricing_plan_id":"free"},{"bike_id":"60d62baa-fa07-4908-821f-297e680b9e12","system_id":"levelo_inurba_marseille","lat":43.278401,"lon":5.392152,"is_reserved":false,"is_disabled":false,"rental_uris":{"android":"levelo://app?vid=60d62baa-fa07-4908-821f-297e680b9e12","ios":"levelo://app?vid=60d62baa-fa07-4908-821f-297e680b9e12"},"vehicle_type_id":"4","last_reported":1702767982,"current_range_meters":30000,"station_id":"ce4bhjp2rcd13ifvqga0","pricing_plan_id":"free"},{"bike_id":"630f80f1-ba04-49ea-9076-6a3b75fb8289","system_id":"levelo_inurba_marseille","lat":43.33597,"lon":5.41033,"is_reserved":false,"is_disabled":false,"rental_uris":{"android":"levelo://app?vid=630f80f1-ba04-49ea-9076-6a3b75fb8289","ios":"levelo://app?vid=630f80f1-ba04-49ea-9076-6a3b75fb8289"},"vehicle_type_id":"4","last_reported":1702767982,"current_range_meters":6800,"station_id":"ce4bhqh2rcd13ifvqhmg","pricing_plan_id":"free"},{"bike_id":"2bed3501-fcea-4a7a-8a65-1bedf3ad5bdc","system_id":"levelo_inurba_marseille","lat":43.336134,"lon":5.410341,"is_reserved":false,"is_disabled":false,"rental_uris":{"android":"levelo://app?vid=2bed3501-fcea-4a7a-8a65-1bedf3ad5bdc","ios":"levelo://app?vid=2bed3501-fcea-4a7a-8a65-1bedf3ad5bdc"},"vehicle_type_id":"4","last_reported":1702767982,"current_range_meters":28400,"station_id":"ce4bhqh2rcd13ifvqhmg","pricing_plan_id":"free"},{"bike_id":"bcd1cc4e-cc91-4a36-a104-d3ac5f121c6a","system_id":"levelo_inurba_marseille","lat":43.336134,"lon":5.410341,"is_reserved":false,"is_disabled":false,"rental_uris":{"android":"levelo://app?vid=bcd1cc4e-cc91-4a36-a104-d3ac5f121c6a","ios":"levelo://app?vid=bcd1cc4e-cc91-4a36-a104-d3ac5f121c6a"},"vehicle_type_id":"4","last_reported":1702767982,"current_range_meters":16400,"station_id":"ce4bhqh2rcd13ifvqhmg","pricing_plan_id":"free"},{"bike_id":"ea3d35f6-b07e-4308-ae51-5376e9d8e7cc","system_id":"levelo_inurba_marseille","lat":43.273487,"lon":5.364552,"is_reserved":false,"is_disabled":false,"rental_uris":{"android":"levelo://app?vid=ea3d35f6-b07e-4308-ae51-5376e9d8e7cc","ios":"levelo://app?vid=ea3d35f6-b07e-4308-ae51-5376e9d8e7cc"},"vehicle_type_id":"4","last_reported":1702767982,"current_range_meters":14800,"station_id":"","pricing_plan_id":"free"},{"bike_id":"12fe1f05-318a-4237-b44e-c7521e9a0831","system_id":"levelo_inurba_marseille","lat":43.279975,"lon":5.40009,"is_reserved":false,"is_disabled":false,"rental_uris":{"android":"levelo://app?vid=12fe1f05-318a-4237-b44e-c7521e9a0831","ios":"levelo://app?vid=12fe1f05-318a-4237-b44e-c7521e9a0831"},"vehicle_type_id":"4","last_reported":1702767982,"current_range_meters":28000,"station_id":"ce4bho92rcd13ifvqh4g","pricing_plan_id":"free"},{"bike_id":"3ec3e63d-39be-4068-b7bc-6b5f633836ba","system_id":"levelo_inurba_marseille","lat":43.310785,"lon":5.424305,"is_reserved":false,"is_disabled":false,"rental_uris":{"android":"levelo://app?vid=3ec3e63d-39be-4068-b7bc-6b5f633836ba","ios":"levelo://app?vid=3ec3e63d-39be-4068-b7bc-6b5f633836ba"},"vehicle_type_id":"4","last_reported":1702767982,"current_range_meters":28400,"station_id":"ce4bhp92rcd13ifvqhag","pricing_plan_id":"free"},{"bike_id":"87cc8c4f-8ecf-420c-bac2-ed05f14f8c04","system_id":"levelo_inurba_marseille","lat":43.2761,"lon":5.39493,"is_reserved":false,"is_disabled":false,"rental_uris":{"android":"levelo://app?vid=87cc8c4f-8ecf-420c-bac2-ed05f14f8c04","ios":"levelo://app?vid=87cc8c4f-8ecf-420c-bac2-ed05f14f8c04"},"vehicle_type_id":"4","last_reported":1702767982,"current_range_meters":14400,"station_id":"","pricing_plan_id":"free"},{"bike_id":"43844db9-0392-4da0-9a6e-40bbf1d336e6","system_id":"levelo_inurba_marseille","lat":43.340804,"lon":5.410219,"is_reserved":false,"is_disabled":false,"rental_uris":{"android":"levelo://app?vid=43844db9-0392-4da0-9a6e-40bbf1d336e6","ios":"levelo://app?vid=43844db9-0392-4da0-9a6e-40bbf1d336e6"},"vehicle_type_id":"4","last_reported":1702767982,"current_range_meters":29200,"station_id":"ce4bhqh2rcd13ifvqhlg","pricing_plan_id":"free"},{"bike_id":"3ca2c2d2-99b0-4aa6-a05d-e30f02e6a7fb","system_id":"levelo_inurba_marseille","lat":43.276092,"lon":5.395289,"is_reserved":false,"is_disabled":false,"rental_uris":{"android":"levelo://app?vid=3ca2c2d2-99b0-4aa6-a05d-e30f02e6a7fb","ios":"levelo://app?vid=3ca2c2d2-99b0-4aa6-a05d-e30f02e6a7fb"},"vehicle_type_id":"4","last_reported":1702767982,"current_range_meters":20800,"station_id":"","pricing_plan_id":"free"},{"bike_id":"7c5e5a9a-9f39-4a14-9573-d5b8ab599dd5","system_id":"levelo_inurba_marseille","lat":43.27188,"lon":5.39224,"is_reserved":false,"is_disabled":false,"rental_uris":{"android":"levelo://app?vid=7c5e5a9a-9f39-4a14-9573-d5b8ab599dd5","ios":"levelo://app?vid=7c5e5a9a-9f39-4a14-9573-d5b8ab599dd5"},"vehicle_type_id":"4","last_reported":1702767982,"current_range_meters":20400,"station_id":"ce4bhhp2rcd13ifvqfm0","pricing_plan_id":"free"},{"bike_id":"ae5c92c7-d961-4538-b923-190ac473bbcd","system_id":"levelo_inurba_marseille","lat":43.278128,"lon":5.407195,"is_reserved":false,"is_disabled":false,"rental_uris":{"android":"levelo://app?vid=ae5c92c7-d961-4538-b923-190ac473bbcd","ios":"levelo://app?vid=ae5c92c7-d961-4538-b923-190ac473bbcd"},"vehicle_type_id":"4","last_reported":1702767982,"current_range_meters":28400,"station_id":"ce4bhnh2rcd13ifvqgtg","pricing_plan_id":"free"},{"bike_id":"fc785c11-ed84-4f56-8d93-ff29206899cc","system_id":"levelo_inurba_marseille","lat":43.269467,"lon":5.386439,"is_reserved":false,"is_disabled":false,"rental_uris":{"android":"levelo://app?vid=fc785c11-ed84-4f56-8d93-ff29206899cc","ios":"levelo://app?vid=fc785c11-ed84-4f56-8d93-ff29206899cc"},"vehicle_type_id":"4","last_reported":1702767982,"current_range_meters":16400,"station_id":"ce4bhh92rcd13ifvqfh0","pricing_plan_id":"free"},{"bike_id":"a5173104-f506-46ff-b99c-95f7c86c0470","system_id":"levelo_inurba_marseille","lat":43.269467,"lon":5.386439,"is_reserved":false,"is_disabled":false,"rental_uris":{"android":"levelo://app?vid=a5173104-f506-46ff-b99c-95f7c86c0470","ios":"levelo://app?vid=a5173104-f506-46ff-b99c-95f7c86c0470"},"vehicle_type_id":"4","last_reported":1702767982,"current_range_meters":31200,"station_id":"ce4bhh92rcd13ifvqfh0","pricing_plan_id":"free"},{"bike_id":"2f147a9f-f26d-412e-8db6-f0bb1eb481c3","system_id":"levelo_inurba_marseille","lat":43.269319,"lon":5.389397,"is_reserved":false,"is_disabled":false,"rental_uris":{"android":"levelo://app?vid=2f147a9f-f26d-412e-8db6-f0bb1eb481c3","ios":"levelo://app?vid=2f147a9f-f26d-412e-8db6-f0bb1eb481c3"},"vehicle_type_id":"4","last_reported":1702767982,"current_range_meters":30000,"station_id":"ce4bhhh2rcd13ifvqfl0","pricing_plan_id":"free"},{"bike_id":"db774753-4382-453e-a138-c32d538f9839","system_id":"levelo_inurba_marseille","lat":43.358672,"lon":5.356739,"is_reserved":false,"is_disabled":false,"rental_uris":{"android":"levelo://app?vid=db774753-4382-453e-a138-c32d538f9839","ios":"levelo://app?vid=db774753-4382-453e-a138-c32d538f9839"},"vehicle_type_id":"4","last_reported":1702767982,"current_range_meters":11600,"station_id":"","pricing_plan_id":"free"},{"bike_id":"8ba25d61-2b5a-4185-8aa8-256f77eae841","system_id":"levelo_inurba_marseille","lat":43.26681,"lon":5.382694,"is_reserved":false,"is_disabled":false,"rental_uris":{"android":"levelo://app?vid=8ba25d61-2b5a-4185-8aa8-256f77eae841","ios":"levelo://app?vid=8ba25d61-2b5a-4185-8aa8-256f77eae841"},"vehicle_type_id":"4","last_reported":1702767982,"current_range_meters":2800,"station_id":"ce4bhg92rcd13ifvqf90","pricing_plan_id":"free"},{"bike_id":"795c3f04-d671-45bc-bddc-7fd1d0fedee6","system_id":"levelo_inurba_marseille","lat":43.26681,"lon":5.382694,"is_reserved":false,"is_disabled":false,"rental_uris":{"android":"levelo://app?vid=795c3f04-d671-45bc-bddc-7fd1d0fedee6","ios":"levelo://app?vid=795c3f04-d671-45bc-bddc-7fd1d0fedee6"},"vehicle_type_id":"4","last_reported":1702767982,"current_range_meters":16400,"station_id":"ce4bhg92rcd13ifvqf90","pricing_plan_id":"free"},{"bike_id":"3ec397f0-b8da-4e84-be43-f4abb20ebecf","system_id":"levelo_inurba_marseille","lat":43.27996,"lon":5.416624,"is_reserved":false,"is_disabled":false,"rental_uris":{"android":"levelo://app?vid=3ec397f0-b8da-4e84-be43-f4abb20ebecf","ios":"levelo://app?vid=3ec397f0-b8da-4e84-be43-f4abb20ebecf"},"vehicle_type_id":"4","last_reported":1702767982,"current_range_meters":27200,"station_id":"ce4bho12rcd13ifvqh1g","pricing_plan_id":"free"},{"bike_id":"8a74afc9-c8ee-428c-95f4-83fc1e519239","system_id":"levelo_inurba_marseille","lat":43.2799,"lon":5.41659,"is_reserved":false,"is_disabled":false,"rental_uris":{"android":"levelo://app?vid=8a74afc9-c8ee-428c-95f4-83fc1e519239","ios":"levelo://app?vid=8a74afc9-c8ee-428c-95f4-83fc1e519239"},"vehicle_type_id":"4","last_reported":1702767982,"current_range_meters":1600,"station_id":"ce4bho12rcd13ifvqh1g","pricing_plan_id":"free"},{"bike_id":"408fb1b1-53d0-43bc-a400-8378abae1a0f","system_id":"levelo_inurba_marseille","lat":43.267966,"lon":5.393976,"is_reserved":false,"is_disabled":false,"rental_uris":{"android":"levelo://app?vid=408fb1b1-53d0-43bc-a400-8378abae1a0f","ios":"levelo://app?vid=408fb1b1-53d0-43bc-a400-8378abae1a0f"},"vehicle_type_id":"4","last_reported":1702767982,"current_range_meters":16800,"station_id":"ce4bhh12rcd13ifvqfg0","pricing_plan_id":"free"},{"bike_id":"107af397-48b9-46cb-a2a9-9e18bf78bd38","system_id":"levelo_inurba_marseille","lat":43.265569,"lon":5.390047,"is_reserved":false,"is_disabled":false,"rental_uris":{"android":"levelo://app?vid=107af397-48b9-46cb-a2a9-9e18bf78bd38","ios":"levelo://app?vid=107af397-48b9-46cb-a2a9-9e18bf78bd38"},"vehicle_type_id":"4","last_reported":1702767982,"current_range_meters":8400,"station_id":"ce4bhe12rcd13ifvqf30","pricing_plan_id":"free"},{"bike_id":"47473e81-5aa4-45fa-bd8f-efee7b118ec9","system_id":"levelo_inurba_marseille","lat":43.265569,"lon":5.390047,"is_reserved":false,"is_disabled":false,"rental_uris":{"android":"levelo://app?vid=47473e81-5aa4-45fa-bd8f-efee7b118ec9","ios":"levelo://app?vid=47473e81-5aa4-45fa-bd8f-efee7b118ec9"},"vehicle_type_id":"4","last_reported":1702767982,"current_range_meters":12800,"station_id":"ce4bhe12rcd13ifvqf30","pricing_plan_id":"free"},{"bike_id":"ca2c811e-5fe8-4145-b143-56127bd120a4","system_id":"levelo_inurba_marseille","lat":43.261782,"lon":5.374515,"is_reserved":false,"is_disabled":false,"rental_uris":{"android":"levelo://app?vid=ca2c811e-5fe8-4145-b143-56127bd120a4","ios":"levelo://app?vid=ca2c811e-5fe8-4145-b143-56127bd120a4"},"vehicle_type_id":"4","last_reported":1702767982,"current_range_meters":9600,"station_id":"ce4bhgp2rcd13ifvqfc0","pricing_plan_id":"free"},{"bike_id":"9b148fe7-0ffd-4931-8c29-6e6064af2347","system_id":"levelo_inurba_marseille","lat":43.31711,"lon":5.43704,"is_reserved":false,"is_disabled":false,"rental_uris":{"android":"levelo://app?vid=9b148fe7-0ffd-4931-8c29-6e6064af2347","ios":"levelo://app?vid=9b148fe7-0ffd-4931-8c29-6e6064af2347"},"vehicle_type_id":"4","last_reported":1702767982,"current_range_meters":17200,"station_id":"ce4bhp92rcd13ifvqhcg","pricing_plan_id":"free"},{"bike_id":"6bca7f14-330c-412a-9432-6438f3451c27","system_id":"levelo_inurba_marseille","lat":43.317104,"lon":5.436818,"is_reserved":false,"is_disabled":false,"rental_uris":{"android":"levelo://app?vid=6bca7f14-330c-412a-9432-6438f3451c27","ios":"levelo://app?vid=6bca7f14-330c-412a-9432-6438f3451c27"},"vehicle_type_id":"4","last_reported":1702767982,"current_range_meters":26400,"station_id":"ce4bhp92rcd13ifvqhcg","pricing_plan_id":"free"},{"bike_id":"cd508d17-ee53-4f00-89f2-1854417d27a3","system_id":"levelo_inurba_marseille","lat":43.31717,"lon":5.43709,"is_reserved":false,"is_disabled":false,"rental_uris":{"android":"levelo://app?vid=cd508d17-ee53-4f00-89f2-1854417d27a3","ios":"levelo://app?vid=cd508d17-ee53-4f00-89f2-1854417d27a3"},"vehicle_type_id":"4","last_reported":1702767982,"current_range_meters":0,"station_id":"ce4bhp92rcd13ifvqhcg","pricing_plan_id":"free"},{"bike_id":"760a757a-5fb8-4958-b892-d33306a07f6b","system_id":"levelo_inurba_marseille","lat":43.271388,"lon":5.409269,"is_reserved":false,"is_disabled":false,"rental_uris":{"android":"levelo://app?vid=760a757a-5fb8-4958-b892-d33306a07f6b","ios":"levelo://app?vid=760a757a-5fb8-4958-b892-d33306a07f6b"},"vehicle_type_id":"4","last_reported":1702767982,"current_range_meters":31200,"station_id":"ce4bhl12rcd13ifvqgf0","pricing_plan_id":"free"},{"bike_id":"fe1ec802-ae5b-406d-a6e5-80d478223c7d","system_id":"levelo_inurba_marseille","lat":43.271749,"lon":5.409938,"is_reserved":false,"is_disabled":false,"rental_uris":{"android":"levelo://app?vid=fe1ec802-ae5b-406d-a6e5-80d478223c7d","ios":"levelo://app?vid=fe1ec802-ae5b-406d-a6e5-80d478223c7d"},"vehicle_type_id":"4","last_reported":1702767982,"current_range_meters":18000,"station_id":"ce4bhl12rcd13ifvqgf0","pricing_plan_id":"free"},{"bike_id":"e3b9938b-39a5-4cb2-b320-b7d79eecd272","system_id":"levelo_inurba_marseille","lat":43.27172,"lon":5.40989,"is_reserved":false,"is_disabled":false,"rental_uris":{"android":"levelo://app?vid=e3b9938b-39a5-4cb2-b320-b7d79eecd272","ios":"levelo://app?vid=e3b9938b-39a5-4cb2-b320-b7d79eecd272"},"vehicle_type_id":"4","last_reported":1702767982,"current_range_meters":2000,"station_id":"ce4bhl12rcd13ifvqgf0","pricing_plan_id":"free"},{"bike_id":"4c30ab0b-cc54-4ba6-ae72-a8fb812c2d2c","system_id":"levelo_inurba_marseille","lat":43.26501,"lon":5.39542,"is_reserved":false,"is_disabled":false,"rental_uris":{"android":"levelo://app?vid=4c30ab0b-cc54-4ba6-ae72-a8fb812c2d2c","ios":"levelo://app?vid=4c30ab0b-cc54-4ba6-ae72-a8fb812c2d2c"},"vehicle_type_id":"4","last_reported":1702767982,"current_range_meters":26800,"station_id":"","pricing_plan_id":"free"},{"bike_id":"a22b07a9-f167-4537-bf8e-a3d9e4ce6fc9","system_id":"levelo_inurba_marseille","lat":43.26498,"lon":5.39534,"is_reserved":false,"is_disabled":false,"rental_uris":{"android":"levelo://app?vid=a22b07a9-f167-4537-bf8e-a3d9e4ce6fc9","ios":"levelo://app?vid=a22b07a9-f167-4537-bf8e-a3d9e4ce6fc9"},"vehicle_type_id":"4","last_reported":1702767982,"current_range_meters":16800,"station_id":"","pricing_plan_id":"free"},{"bike_id":"5473cf4b-61b9-412b-8421-c59bf8eb8dc3","system_id":"levelo_inurba_marseille","lat":43.265,"lon":5.39547,"is_reserved":false,"is_disabled":false,"rental_uris":{"android":"levelo://app?vid=5473cf4b-61b9-412b-8421-c59bf8eb8dc3","ios":"levelo://app?vid=5473cf4b-61b9-412b-8421-c59bf8eb8dc3"},"vehicle_type_id":"4","last_reported":1702767982,"current_range_meters":3600,"station_id":"","pricing_plan_id":"free"},{"bike_id":"8edd52e8-28cf-4b63-b3f1-27d9aaf14520","system_id":"levelo_inurba_marseille","lat":43.26492,"lon":5.3955,"is_reserved":false,"is_disabled":false,"rental_uris":{"android":"levelo://app?vid=8edd52e8-28cf-4b63-b3f1-27d9aaf14520","ios":"levelo://app?vid=8edd52e8-28cf-4b63-b3f1-27d9aaf14520"},"vehicle_type_id":"4","last_reported":1702767982,"current_range_meters":0,"station_id":"","pricing_plan_id":"free"},{"bike_id":"d084d587-4b27-4e47-8734-14f6d302ab83","system_id":"levelo_inurba_marseille","lat":43.298768,"lon":5.43643,"is_reserved":false,"is_disabled":false,"rental_uris":{"android":"levelo://app?vid=d084d587-4b27-4e47-8734-14f6d302ab83","ios":"levelo://app?vid=d084d587-4b27-4e47-8734-14f6d302ab83"},"vehicle_type_id":"4","last_reported":1702767982,"current_range_meters":31200,"station_id":"ce4bhpp2rcd13ifvqhfg","pricing_plan_id":"free"},{"bike_id":"0fbb9982-628a-458e-8599-3a52f552df95","system_id":"levelo_inurba_marseille","lat":43.281548,"lon":5.42643,"is_reserved":false,"is_disabled":false,"rental_uris":{"android":"levelo://app?vid=0fbb9982-628a-458e-8599-3a52f552df95","ios":"levelo://app?vid=0fbb9982-628a-458e-8599-3a52f552df95"},"vehicle_type_id":"4","last_reported":1702767982,"current_range_meters":23600,"station_id":"ce4bhnh2rcd13ifvqgug","pricing_plan_id":"free"},{"bike_id":"71252ba5-5619-4f36-b490-0c5903f0700e","system_id":"levelo_inurba_marseille","lat":43.281548,"lon":5.42643,"is_reserved":false,"is_disabled":false,"rental_uris":{"android":"levelo://app?vid=71252ba5-5619-4f36-b490-0c5903f0700e","ios":"levelo://app?vid=71252ba5-5619-4f36-b490-0c5903f0700e"},"vehicle_type_id":"4","last_reported":1702767982,"current_range_meters":5200,"station_id":"ce4bhnh2rcd13ifvqgug","pricing_plan_id":"free"},{"bike_id":"d179c498-6590-4265-ba74-db4d632b80df","system_id":"levelo_inurba_marseille","lat":43.281548,"lon":5.42643,"is_reserved":false,"is_disabled":false,"rental_uris":{"android":"levelo://app?vid=d179c498-6590-4265-ba74-db4d632b80df","ios":"levelo://app?vid=d179c498-6590-4265-ba74-db4d632b80df"},"vehicle_type_id":"4","last_reported":1702767982,"current_range_meters":31200,"station_id":"ce4bhnh2rcd13ifvqgug","pricing_plan_id":"free"},{"bike_id":"4dd764f6-774c-4512-8b0e-1beb34d8f863","system_id":"levelo_inurba_marseille","lat":43.281548,"lon":5.42643,"is_reserved":false,"is_disabled":false,"rental_uris":{"android":"levelo://app?vid=4dd764f6-774c-4512-8b0e-1beb34d8f863","ios":"levelo://app?vid=4dd764f6-774c-4512-8b0e-1beb34d8f863"},"vehicle_type_id":"4","last_reported":1702767982,"current_range_meters":25600,"station_id":"ce4bhnh2rcd13ifvqgug","pricing_plan_id":"free"},{"bike_id":"8c54f0f2-73b9-4cbd-910b-70ffbd7a913d","system_id":"levelo_inurba_marseille","lat":43.2607,"lon":5.393983,"is_reserved":false,"is_disabled":false,"rental_uris":{"android":"levelo://app?vid=8c54f0f2-73b9-4cbd-910b-70ffbd7a913d","ios":"levelo://app?vid=8c54f0f2-73b9-4cbd-910b-70ffbd7a913d"},"vehicle_type_id":"4","last_reported":1702767982,"current_range_meters":23600,"station_id":"ce4bhh92rcd13ifvqfj0","pricing_plan_id":"free"},{"bike_id":"eb72cf00-5b74-4aac-948c-e470339f3e4d","system_id":"levelo_inurba_marseille","lat":43.2607,"lon":5.393983,"is_reserved":false,"is_disabled":false,"rental_uris":{"android":"levelo://app?vid=eb72cf00-5b74-4aac-948c-e470339f3e4d","ios":"levelo://app?vid=eb72cf00-5b74-4aac-948c-e470339f3e4d"},"vehicle_type_id":"4","last_reported":1702767982,"current_range_meters":18800,"station_id":"ce4bhh92rcd13ifvqfj0","pricing_plan_id":"free"},{"bike_id":"db9d9aee-b6eb-44e3-9707-f193d311c7b0","system_id":"levelo_inurba_marseille","lat":43.2607,"lon":5.393983,"is_reserved":false,"is_disabled":false,"rental_uris":{"android":"levelo://app?vid=db9d9aee-b6eb-44e3-9707-f193d311c7b0","ios":"levelo://app?vid=db9d9aee-b6eb-44e3-9707-f193d311c7b0"},"vehicle_type_id":"4","last_reported":1702767982,"current_range_meters":29600,"station_id":"ce4bhh92rcd13ifvqfj0","pricing_plan_id":"free"},{"bike_id":"e67adb0b-4217-4b03-8657-2f9486792d7e","system_id":"levelo_inurba_marseille","lat":43.2607,"lon":5.393983,"is_reserved":false,"is_disabled":false,"rental_uris":{"android":"levelo://app?vid=e67adb0b-4217-4b03-8657-2f9486792d7e","ios":"levelo://app?vid=e67adb0b-4217-4b03-8657-2f9486792d7e"},"vehicle_type_id":"4","last_reported":1702767982,"current_range_meters":31200,"station_id":"ce4bhh92rcd13ifvqfj0","pricing_plan_id":"free"},{"bike_id":"f78f67e2-6aa6-4c01-96eb-db6a2853a695","system_id":"levelo_inurba_marseille","lat":43.2607,"lon":5.393983,"is_reserved":false,"is_disabled":false,"rental_uris":{"android":"levelo://app?vid=f78f67e2-6aa6-4c01-96eb-db6a2853a695","ios":"levelo://app?vid=f78f67e2-6aa6-4c01-96eb-db6a2853a695"},"vehicle_type_id":"4","last_reported":1702767982,"current_range_meters":25600,"station_id":"ce4bhh92rcd13ifvqfj0","pricing_plan_id":"free"},{"bike_id":"b6836b5c-bf87-43d1-afcb-477e491235ab","system_id":"levelo_inurba_marseille","lat":43.26088,"lon":5.39758,"is_reserved":false,"is_disabled":false,"rental_uris":{"android":"levelo://app?vid=b6836b5c-bf87-43d1-afcb-477e491235ab","ios":"levelo://app?vid=b6836b5c-bf87-43d1-afcb-477e491235ab"},"vehicle_type_id":"4","last_reported":1702767982,"current_range_meters":3600,"station_id":"","pricing_plan_id":"free"},{"bike_id":"cb4aa066-0acd-450f-a854-69855bd4d7ee","system_id":"levelo_inurba_marseille","lat":43.25829,"lon":5.3943,"is_reserved":false,"is_disabled":false,"rental_uris":{"android":"levelo://app?vid=cb4aa066-0acd-450f-a854-69855bd4d7ee","ios":"levelo://app?vid=cb4aa066-0acd-450f-a854-69855bd4d7ee"},"vehicle_type_id":"4","last_reported":1702767982,"current_range_meters":28000,"station_id":"ce4bhip2rcd13ifvqft0","pricing_plan_id":"free"},{"bike_id":"09be8c05-5e30-4682-bb68-e56a3497711a","system_id":"levelo_inurba_marseille","lat":43.25577,"lon":5.38229,"is_reserved":false,"is_disabled":false,"rental_uris":{"android":"levelo://app?vid=09be8c05-5e30-4682-bb68-e56a3497711a","ios":"levelo://app?vid=09be8c05-5e30-4682-bb68-e56a3497711a"},"vehicle_type_id":"4","last_reported":1702767982,"current_range_meters":17200,"station_id":"ce4bhih2rcd13ifvqfs0","pricing_plan_id":"free"},{"bike_id":"306e2c26-1ee8-4490-a80b-640eb04b74f0","system_id":"levelo_inurba_marseille","lat":43.270721,"lon":5.422764,"is_reserved":false,"is_disabled":false,"rental_uris":{"android":"levelo://app?vid=306e2c26-1ee8-4490-a80b-640eb04b74f0","ios":"levelo://app?vid=306e2c26-1ee8-4490-a80b-640eb04b74f0"},"vehicle_type_id":"4","last_reported":1702767982,"current_range_meters":28000,"station_id":"ce4bhk92rcd13ifvqgb0","pricing_plan_id":"free"},{"bike_id":"ec80f2ee-d212-4255-95b5-c8ee4797f8bd","system_id":"levelo_inurba_marseille","lat":43.25729,"lon":5.41116,"is_reserved":false,"is_disabled":false,"rental_uris":{"android":"levelo://app?vid=ec80f2ee-d212-4255-95b5-c8ee4797f8bd","ios":"levelo://app?vid=ec80f2ee-d212-4255-95b5-c8ee4797f8bd"},"vehicle_type_id":"4","last_reported":1702767982,"current_range_meters":1200,"station_id":"ce4bhkp2rcd13ifvqgd0","pricing_plan_id":"free"},{"bike_id":"2d969c67-66c2-4108-94a5-737c0164ff7c","system_id":"levelo_inurba_marseille","lat":43.24813,"lon":5.37456,"is_reserved":false,"is_disabled":false,"rental_uris":{"android":"levelo://app?vid=2d969c67-66c2-4108-94a5-737c0164ff7c","ios":"levelo://app?vid=2d969c67-66c2-4108-94a5-737c0164ff7c"},"vehicle_type_id":"4","last_reported":1702767982,"current_range_meters":23200,"station_id":"ce4bhgh2rcd13ifvqfb0","pricing_plan_id":"free"},{"bike_id":"cda151f2-9ad2-46c9-9115-b73ba9a06619","system_id":"levelo_inurba_marseille","lat":43.25221,"lon":5.406408,"is_reserved":false,"is_disabled":false,"rental_uris":{"android":"levelo://app?vid=cda151f2-9ad2-46c9-9115-b73ba9a06619","ios":"levelo://app?vid=cda151f2-9ad2-46c9-9115-b73ba9a06619"},"vehicle_type_id":"4","last_reported":1702767982,"current_range_meters":2400,"station_id":"","pricing_plan_id":"free"},{"bike_id":"7e401964-b3cf-4e35-95ea-b70de22dedfc","system_id":"levelo_inurba_marseille","lat":43.25102,"lon":5.403214,"is_reserved":false,"is_disabled":false,"rental_uris":{"android":"levelo://app?vid=7e401964-b3cf-4e35-95ea-b70de22dedfc","ios":"levelo://app?vid=7e401964-b3cf-4e35-95ea-b70de22dedfc"},"vehicle_type_id":"4","last_reported":1702767982,"current_range_meters":25200,"station_id":"ce4bhlh2rcd13ifvqgig","pricing_plan_id":"free"},{"bike_id":"cd084bd6-2dac-4c50-bbec-04ff5b15feb8","system_id":"levelo_inurba_marseille","lat":43.25102,"lon":5.403214,"is_reserved":false,"is_disabled":false,"rental_uris":{"android":"levelo://app?vid=cd084bd6-2dac-4c50-bbec-04ff5b15feb8","ios":"levelo://app?vid=cd084bd6-2dac-4c50-bbec-04ff5b15feb8"},"vehicle_type_id":"4","last_reported":1702767982,"current_range_meters":6400,"station_id":"ce4bhlh2rcd13ifvqgig","pricing_plan_id":"free"},{"bike_id":"ce8603f2-613d-4a49-b48e-937ea74704c0","system_id":"levelo_inurba_marseille","lat":43.2511,"lon":5.40321,"is_reserved":false,"is_disabled":false,"rental_uris":{"android":"levelo://app?vid=ce8603f2-613d-4a49-b48e-937ea74704c0","ios":"levelo://app?vid=ce8603f2-613d-4a49-b48e-937ea74704c0"},"vehicle_type_id":"4","last_reported":1702767982,"current_range_meters":400,"station_id":"ce4bhlh2rcd13ifvqgig","pricing_plan_id":"free"},{"bike_id":"2913b0e3-c44c-49f1-ba84-d9d46d3f68b0","system_id":"levelo_inurba_marseille","lat":43.2487,"lon":5.41002,"is_reserved":false,"is_disabled":false,"rental_uris":{"android":"levelo://app?vid=2913b0e3-c44c-49f1-ba84-d9d46d3f68b0","ios":"levelo://app?vid=2913b0e3-c44c-49f1-ba84-d9d46d3f68b0"},"vehicle_type_id":"4","last_reported":1702767982,"current_range_meters":17200,"station_id":"","pricing_plan_id":"free"},{"bike_id":"ee83fd25-65b9-414e-935b-7e3d2531a0b9","system_id":"levelo_inurba_marseille","lat":43.241268,"lon":5.37022,"is_reserved":false,"is_disabled":false,"rental_uris":{"android":"levelo://app?vid=ee83fd25-65b9-414e-935b-7e3d2531a0b9","ios":"levelo://app?vid=ee83fd25-65b9-414e-935b-7e3d2531a0b9"},"vehicle_type_id":"4","last_reported":1702767982,"current_range_meters":0,"station_id":"","pricing_plan_id":"free"},{"bike_id":"2bec77bd-f9b6-4fca-aa7f-96afd49b4040","system_id":"levelo_inurba_marseille","lat":43.239588,"lon":5.366238,"is_reserved":false,"is_disabled":false,"rental_uris":{"android":"levelo://app?vid=2bec77bd-f9b6-4fca-aa7f-96afd49b4040","ios":"levelo://app?vid=2bec77bd-f9b6-4fca-aa7f-96afd49b4040"},"vehicle_type_id":"4","last_reported":1702767982,"current_range_meters":1200,"station_id":"ce4bhi12rcd13ifvqfp0","pricing_plan_id":"free"},{"bike_id":"e419126f-c388-4a30-9aef-a3cfa5c187e9","system_id":"levelo_inurba_marseille","lat":43.240623,"lon":5.377642,"is_reserved":false,"is_disabled":false,"rental_uris":{"android":"levelo://app?vid=e419126f-c388-4a30-9aef-a3cfa5c187e9","ios":"levelo://app?vid=e419126f-c388-4a30-9aef-a3cfa5c187e9"},"vehicle_type_id":"4","last_reported":1702767982,"current_range_meters":4400,"station_id":"ce4bhnp2rcd13ifvqgvg","pricing_plan_id":"free"},{"bike_id":"e191db2c-ba12-44f4-9c3e-cc40a9f49c9f","system_id":"levelo_inurba_marseille","lat":43.240623,"lon":5.377642,"is_reserved":false,"is_disabled":false,"rental_uris":{"android":"levelo://app?vid=e191db2c-ba12-44f4-9c3e-cc40a9f49c9f","ios":"levelo://app?vid=e191db2c-ba12-44f4-9c3e-cc40a9f49c9f"},"vehicle_type_id":"4","last_reported":1702767982,"current_range_meters":19600,"station_id":"ce4bhnp2rcd13ifvqgvg","pricing_plan_id":"free"},{"bike_id":"029226df-8c2f-438f-bd0c-fc27f7dce01f","system_id":"levelo_inurba_marseille","lat":43.239588,"lon":5.366238,"is_reserved":false,"is_disabled":false,"rental_uris":{"android":"levelo://app?vid=029226df-8c2f-438f-bd0c-fc27f7dce01f","ios":"levelo://app?vid=029226df-8c2f-438f-bd0c-fc27f7dce01f"},"vehicle_type_id":"4","last_reported":1702767982,"current_range_meters":25600,"station_id":"ce4bhi12rcd13ifvqfp0","pricing_plan_id":"free"},{"bike_id":"50cb0f51-8f1a-4445-825a-05a718cb00c6","system_id":"levelo_inurba_marseille","lat":43.241782,"lon":5.397261,"is_reserved":false,"is_disabled":false,"rental_uris":{"android":"levelo://app?vid=50cb0f51-8f1a-4445-825a-05a718cb00c6","ios":"levelo://app?vid=50cb0f51-8f1a-4445-825a-05a718cb00c6"},"vehicle_type_id":"4","last_reported":1702767982,"current_range_meters":0,"station_id":"ce4bhn12rcd13ifvqgpg","pricing_plan_id":"free"},{"bike_id":"388eb7b3-138a-44dd-93b7-354a4525c75f","system_id":"levelo_inurba_marseille","lat":43.241782,"lon":5.397261,"is_reserved":false,"is_disabled":false,"rental_uris":{"android":"levelo://app?vid=388eb7b3-138a-44dd-93b7-354a4525c75f","ios":"levelo://app?vid=388eb7b3-138a-44dd-93b7-354a4525c75f"},"vehicle_type_id":"4","last_reported":1702767982,"current_range_meters":400,"station_id":"ce4bhn12rcd13ifvqgpg","pricing_plan_id":"free"},{"bike_id":"7b8ce4e0-3fcc-4800-97f7-76aa70954c7d","system_id":"levelo_inurba_marseille","lat":43.23597,"lon":5.36163,"is_reserved":false,"is_disabled":false,"rental_uris":{"android":"levelo://app?vid=7b8ce4e0-3fcc-4800-97f7-76aa70954c7d","ios":"levelo://app?vid=7b8ce4e0-3fcc-4800-97f7-76aa70954c7d"},"vehicle_type_id":"4","last_reported":1702767982,"current_range_meters":0,"station_id":"","pricing_plan_id":"free"},{"bike_id":"3dd05bbe-7d4d-4d5f-b9a9-4266846c777b","system_id":"levelo_inurba_marseille","lat":43.231919,"lon":5.355532,"is_reserved":false,"is_disabled":false,"rental_uris":{"android":"levelo://app?vid=3dd05bbe-7d4d-4d5f-b9a9-4266846c777b","ios":"levelo://app?vid=3dd05bbe-7d4d-4d5f-b9a9-4266846c777b"},"vehicle_type_id":"4","last_reported":1702767982,"current_range_meters":13600,"station_id":"ce4bhu92rcd13ifvqi70","pricing_plan_id":"free"},{"bike_id":"d3de5ca6-d559-43d0-8ed6-c46c756ed81c","system_id":"levelo_inurba_marseille","lat":43.23196,"lon":5.35544,"is_reserved":false,"is_disabled":false,"rental_uris":{"android":"levelo://app?vid=d3de5ca6-d559-43d0-8ed6-c46c756ed81c","ios":"levelo://app?vid=d3de5ca6-d559-43d0-8ed6-c46c756ed81c"},"vehicle_type_id":"4","last_reported":1702767982,"current_range_meters":800,"station_id":"ce4bhu92rcd13ifvqi70","pricing_plan_id":"free"},{"bike_id":"f5cfb89a-ce48-405c-82ee-5a941b48c540","system_id":"levelo_inurba_marseille","lat":43.23195,"lon":5.35548,"is_reserved":false,"is_disabled":false,"rental_uris":{"android":"levelo://app?vid=f5cfb89a-ce48-405c-82ee-5a941b48c540","ios":"levelo://app?vid=f5cfb89a-ce48-405c-82ee-5a941b48c540"},"vehicle_type_id":"4","last_reported":1702767982,"current_range_meters":20800,"station_id":"ce4bhu92rcd13ifvqi70","pricing_plan_id":"free"},{"bike_id":"0914bc04-89c8-46f4-bf04-78aea5230869","system_id":"levelo_inurba_marseille","lat":43.23194,"lon":5.35549,"is_reserved":false,"is_disabled":false,"rental_uris":{"android":"levelo://app?vid=0914bc04-89c8-46f4-bf04-78aea5230869","ios":"levelo://app?vid=0914bc04-89c8-46f4-bf04-78aea5230869"},"vehicle_type_id":"4","last_reported":1702767982,"current_range_meters":28400,"station_id":"ce4bhu92rcd13ifvqi70","pricing_plan_id":"free"},{"bike_id":"760219ab-0887-48ce-b49e-5a40cc3afc6e","system_id":"levelo_inurba_marseille","lat":43.23194,"lon":5.35544,"is_reserved":false,"is_disabled":false,"rental_uris":{"android":"levelo://app?vid=760219ab-0887-48ce-b49e-5a40cc3afc6e","ios":"levelo://app?vid=760219ab-0887-48ce-b49e-5a40cc3afc6e"},"vehicle_type_id":"4","last_reported":1702767982,"current_range_meters":20400,"station_id":"ce4bhu92rcd13ifvqi70","pricing_plan_id":"free"},{"bike_id":"9b13ea6e-561a-4716-a516-c5aead357a46","system_id":"levelo_inurba_marseille","lat":43.23193,"lon":5.35547,"is_reserved":false,"is_disabled":false,"rental_uris":{"android":"levelo://app?vid=9b13ea6e-561a-4716-a516-c5aead357a46","ios":"levelo://app?vid=9b13ea6e-561a-4716-a516-c5aead357a46"},"vehicle_type_id":"4","last_reported":1702767982,"current_range_meters":20000,"station_id":"ce4bhu92rcd13ifvqi70","pricing_plan_id":"free"},{"bike_id":"c58c2105-152a-4be3-96b7-ef7d8114d5d4","system_id":"levelo_inurba_marseille","lat":43.23192,"lon":5.35554,"is_reserved":false,"is_disabled":false,"rental_uris":{"android":"levelo://app?vid=c58c2105-152a-4be3-96b7-ef7d8114d5d4","ios":"levelo://app?vid=c58c2105-152a-4be3-96b7-ef7d8114d5d4"},"vehicle_type_id":"4","last_reported":1702767982,"current_range_meters":16000,"station_id":"ce4bhu92rcd13ifvqi70","pricing_plan_id":"free"},{"bike_id":"be641546-dcea-4309-ad5a-32c7507f146a","system_id":"levelo_inurba_marseille","lat":43.23191,"lon":5.35557,"is_reserved":false,"is_disabled":false,"rental_uris":{"android":"levelo://app?vid=be641546-dcea-4309-ad5a-32c7507f146a","ios":"levelo://app?vid=be641546-dcea-4309-ad5a-32c7507f146a"},"vehicle_type_id":"4","last_reported":1702767982,"current_range_meters":12800,"station_id":"ce4bhu92rcd13ifvqi70","pricing_plan_id":"free"},{"bike_id":"6407938b-389d-4533-9ecb-2228594d1ac0","system_id":"levelo_inurba_marseille","lat":43.23191,"lon":5.35556,"is_reserved":false,"is_disabled":false,"rental_uris":{"android":"levelo://app?vid=6407938b-389d-4533-9ecb-2228594d1ac0","ios":"levelo://app?vid=6407938b-389d-4533-9ecb-2228594d1ac0"},"vehicle_type_id":"4","last_reported":1702767982,"current_range_meters":19200,"station_id":"ce4bhu92rcd13ifvqi70","pricing_plan_id":"free"},{"bike_id":"90458881-97e2-4d19-a7dd-597c18dc1844","system_id":"levelo_inurba_marseille","lat":43.231914,"lon":5.355503,"is_reserved":false,"is_disabled":false,"rental_uris":{"android":"levelo://app?vid=90458881-97e2-4d19-a7dd-597c18dc1844","ios":"levelo://app?vid=90458881-97e2-4d19-a7dd-597c18dc1844"},"vehicle_type_id":"4","last_reported":1702767982,"current_range_meters":21200,"station_id":"ce4bhu92rcd13ifvqi70","pricing_plan_id":"free"},{"bike_id":"8bde1f20-3114-431c-b2df-22d6e7b7655a","system_id":"levelo_inurba_marseille","lat":43.2319,"lon":5.3555,"is_reserved":false,"is_disabled":false,"rental_uris":{"android":"levelo://app?vid=8bde1f20-3114-431c-b2df-22d6e7b7655a","ios":"levelo://app?vid=8bde1f20-3114-431c-b2df-22d6e7b7655a"},"vehicle_type_id":"4","last_reported":1702767982,"current_range_meters":8400,"station_id":"ce4bhu92rcd13ifvqi70","pricing_plan_id":"free"},{"bike_id":"c0509687-6622-44dd-a042-9b19ef27d0ea","system_id":"levelo_inurba_marseille","lat":43.231893,"lon":5.355499,"is_reserved":false,"is_disabled":false,"rental_uris":{"android":"levelo://app?vid=c0509687-6622-44dd-a042-9b19ef27d0ea","ios":"levelo://app?vid=c0509687-6622-44dd-a042-9b19ef27d0ea"},"vehicle_type_id":"4","last_reported":1702767982,"current_range_meters":30400,"station_id":"ce4bhu92rcd13ifvqi70","pricing_plan_id":"free"},{"bike_id":"e4f94050-aae1-4821-b78a-030e7070af2a","system_id":"levelo_inurba_marseille","lat":43.231873,"lon":5.355505,"is_reserved":false,"is_disabled":false,"rental_uris":{"android":"levelo://app?vid=e4f94050-aae1-4821-b78a-030e7070af2a","ios":"levelo://app?vid=e4f94050-aae1-4821-b78a-030e7070af2a"},"vehicle_type_id":"4","last_reported":1702767982,"current_range_meters":18400,"station_id":"ce4bhu92rcd13ifvqi70","pricing_plan_id":"free"},{"bike_id":"3ee0ea00-8e05-48c0-a38d-caf8a81146cd","system_id":"levelo_inurba_marseille","lat":43.231794,"lon":5.400052,"is_reserved":false,"is_disabled":false,"rental_uris":{"android":"levelo://app?vid=3ee0ea00-8e05-48c0-a38d-caf8a81146cd","ios":"levelo://app?vid=3ee0ea00-8e05-48c0-a38d-caf8a81146cd"},"vehicle_type_id":"4","last_reported":1702767982,"current_range_meters":8400,"station_id":"ce4bhn12rcd13ifvqgqg","pricing_plan_id":"free"},{"bike_id":"d5206a6c-92a9-4a75-8859-313a2b40fcd2","system_id":"levelo_inurba_marseille","lat":43.231793,"lon":5.400044,"is_reserved":false,"is_disabled":false,"rental_uris":{"android":"levelo://app?vid=d5206a6c-92a9-4a75-8859-313a2b40fcd2","ios":"levelo://app?vid=d5206a6c-92a9-4a75-8859-313a2b40fcd2"},"vehicle_type_id":"4","last_reported":1702767982,"current_range_meters":22800,"station_id":"ce4bhn12rcd13ifvqgqg","pricing_plan_id":"free"},{"bike_id":"5e810328-aea2-4665-a664-4463719d9ace","system_id":"levelo_inurba_marseille","lat":43.231562,"lon":5.436933,"is_reserved":false,"is_disabled":false,"rental_uris":{"android":"levelo://app?vid=5e810328-aea2-4665-a664-4463719d9ace","ios":"levelo://app?vid=5e810328-aea2-4665-a664-4463719d9ace"},"vehicle_type_id":"4","last_reported":1702767982,"current_range_meters":20400,"station_id":"ce4bhmp2rcd13ifvqgog","pricing_plan_id":"free"}]}}